{"last_updated":1761308513,"ttl":60,"version":"2.2","data":{"bikes":[{"bike_id":"0bb4fe26-ec4c-4964-812a-ccb4ca39ece6","system_id":"levelo_inurba_marseille","lat":43.30353,"lon":5.41865,"is_reserved":false,"is_disabled":false,"rental_uris":{"android":"levelo://app?vid=0bb4fe26-ec4c-4964-812a-ccb4ca39ece6","ios":"levelo://app?vid=0bb4fe26-ec4c-4964-812a-ccb4ca39ece6"},"vehicle_type_id":"4","last_reported":1761308513,"current_range_meters":2800,"station_id":"ce4bhop2rcd13ifvqh7g","pricing_plan_id":"cebpf4jnsgd1na2vs0mg"},{"bike_id":"ff3ba630-dc04-489c-b422-8721b9ddc862","system_id":"levelo_inurba_marseille","lat":43.29819,"lon":5.37744,"is_reserved":false,"is_disabled":false,"rental_uris":{"android":"levelo://app?vid=ff3ba630-dc04-489c-b422-8721b9ddc862","ios":"levelo://app?vid=ff3ba630-dc04-489c-b422-8721b9ddc862"},"vehicle_type_id":"4","last_reported":1761308513,"current_range_meters":2800,"station_id":"","pricing_plan_id":"cebpf4jnsgd1na2vs0mg"},{"bike_id":"03989bd1-d082-4108-b9d2-7b281d082951","system_id":"levelo_inurba_marseille","lat":43.276141,"lon":5.361075,"is_reserved":false,"is_disabled":false,"rental_uris":{"android":"levelo://app?vid=03989bd1-d082-4108-b9d2-7b281d082951","ios":"levelo://app?vid=03989bd1-d082-4108-b9d2-7b281d082951"},"vehicle_type_id":"4","last_reported":1761308513,"current_range_meters":3200,"station_id":"ce4bgj92rcd13ifvqbe0","pricing_plan_id":"cebpf4jnsgd1na2vs0mg"},{"bike_id":"98d30f4f-ae64-44b4-bb3f-a149368c1606","system_id":"levelo_inurba_marseille","lat":43.21741,"lon":5.34605,"is_reserved":false,"is_disabled":false,"rental_uris":{"android":"levelo://app?vid=98d30f4f-ae64-44b4-bb3f-a149368c1606","ios":"levelo://app?vid=98d30f4f-ae64-44b4-bb3f-a149368c1606"},"vehicle_type_id":"4","last_reported":1761308513,"current_range_meters":3200,"station_id":"","pricing_plan_id":"cebpf4jnsgd1na2vs0mg"},{"bike_id":"a05e36d6-d3fc-4453-8406-863c02cfabdc","system_id":"levelo_inurba_marseille","lat":43.25506,"lon":5.37654,"is_reserved":false,"is_disabled":false,"rental_uris":{"android":"levelo://app?vid=a05e36d6-d3fc-4453-8406-863c02cfabdc","ios":"levelo://app?vid=a05e36d6-d3fc-4453-8406-863c02cfabdc"},"vehicle_type_id":"4","last_reported":1761308513,"current_range_meters":3600,"station_id":"ce4bhh12rcd13ifvqff0","pricing_plan_id":"cebpf4jnsgd1na2vs0mg"},{"bike_id":"de88b060-a8d3-4631-9b2a-19bac33a1a68","system_id":"levelo_inurba_marseille","lat":43.30734,"lon":5.42431,"is_reserved":false,"is_disabled":false,"rental_uris":{"android":"levelo://app?vid=de88b060-a8d3-4631-9b2a-19bac33a1a68","ios":"levelo://app?vid=de88b060-a8d3-4631-9b2a-19bac33a1a68"},"vehicle_type_id":"4","last_reported":1761308513,"current_range_meters":3600,"station_id":"st_cvj6ca6bvosntc0bfgr0","pricing_plan_id":"cebpf4jnsgd1na2vs0mg"},{"bike_id":"82576c51-8b9b-43eb-aa43-fc4a18c9ea5b","system_id":"levelo_inurba_marseille","lat":43.21747,"lon":5.34614,"is_reserved":false,"is_disabled":false,"rental_uris":{"android":"levelo://app?vid=82576c51-8b9b-43eb-aa43-fc4a18c9ea5b","ios":"levelo://app?vid=82576c51-8b9b-43eb-aa43-fc4a18c9ea5b"},"vehicle_type_id":"4","last_reported":1761308513,"current_range_meters":4000,"station_id":"st_cvj6r9ubvosntc0bgbag","pricing_plan_id":"cebpf4jnsgd1na2vs0mg"},{"bike_id":"9a306175-fad8-433f-89fc-ab2077184c83","system_id":"levelo_inurba_marseille","lat":43.265411,"lon":5.372834,"is_reserved":false,"is_disabled":false,"rental_uris":{"android":"levelo://app?vid=9a306175-fad8-433f-89fc-ab2077184c83","ios":"levelo://app?vid=9a306175-fad8-433f-89fc-ab2077184c83"},"vehicle_type_id":"4","last_reported":1761308513,"current_range_meters":4000,"station_id":"ce4bhg12rcd13ifvqf70","pricing_plan_id":"cebpf4jnsgd1na2vs0mg"},{"bike_id":"7cbf6d79-207c-46d9-a718-13a9dce80425","system_id":"levelo_inurba_marseille","lat":43.28151,"lon":5.42645,"is_reserved":false,"is_disabled":false,"rental_uris":{"android":"levelo://app?vid=7cbf6d79-207c-46d9-a718-13a9dce80425","ios":"levelo://app?vid=7cbf6d79-207c-46d9-a718-13a9dce80425"},"vehicle_type_id":"4","last_reported":1761308513,"current_range_meters":4000,"station_id":"ce4bhnh2rcd13ifvqgug","pricing_plan_id":"cebpf4jnsgd1na2vs0mg"},{"bike_id":"37d01fc8-4b4d-4652-a489-1254eb9d4c80","system_id":"levelo_inurba_marseille","lat":43.34076,"lon":5.40411,"is_reserved":false,"is_disabled":false,"rental_uris":{"android":"levelo://app?vid=37d01fc8-4b4d-4652-a489-1254eb9d4c80","ios":"levelo://app?vid=37d01fc8-4b4d-4652-a489-1254eb9d4c80"},"vehicle_type_id":"4","last_reported":1761308513,"current_range_meters":4000,"station_id":"","pricing_plan_id":"cebpf4jnsgd1na2vs0mg"},{"bike_id":"9bcb6e88-f012-4322-b1ec-450e2387090b","system_id":"levelo_inurba_marseille","lat":43.29873,"lon":5.39732,"is_reserved":false,"is_disabled":false,"rental_uris":{"android":"levelo://app?vid=9bcb6e88-f012-4322-b1ec-450e2387090b","ios":"levelo://app?vid=9bcb6e88-f012-4322-b1ec-450e2387090b"},"vehicle_type_id":"4","last_reported":1761308513,"current_range_meters":4400,"station_id":"ce4bh0h2rcd13ifvqd50","pricing_plan_id":"cebpf4jnsgd1na2vs0mg"},{"bike_id":"aeafd1a6-049e-4911-8417-1f9c4298eb4b","system_id":"levelo_inurba_marseille","lat":43.24629,"lon":5.43143,"is_reserved":false,"is_disabled":false,"rental_uris":{"android":"levelo://app?vid=aeafd1a6-049e-4911-8417-1f9c4298eb4b","ios":"levelo://app?vid=aeafd1a6-049e-4911-8417-1f9c4298eb4b"},"vehicle_type_id":"4","last_reported":1761308513,"current_range_meters":4400,"station_id":"st_d2m6c4gdas8pm72e190g","pricing_plan_id":"cebpf4jnsgd1na2vs0mg"},{"bike_id":"cb53f86e-479a-4852-814a-34ccddb1f84a","system_id":"levelo_inurba_marseille","lat":43.3018,"lon":5.3662,"is_reserved":false,"is_disabled":false,"rental_uris":{"android":"levelo://app?vid=cb53f86e-479a-4852-814a-34ccddb1f84a","ios":"levelo://app?vid=cb53f86e-479a-4852-814a-34ccddb1f84a"},"vehicle_type_id":"4","last_reported":1761308513,"current_range_meters":4400,"station_id":"ce4bgrh2rcd13ifvqc8g","pricing_plan_id":"cebpf4jnsgd1na2vs0mg"},{"bike_id":"8c470a75-546a-4f62-ae1b-b6cdc326184a","system_id":"levelo_inurba_marseille","lat":43.309515,"lon":5.390246,"is_reserved":false,"is_disabled":false,"rental_uris":{"android":"levelo://app?vid=8c470a75-546a-4f62-ae1b-b6cdc326184a","ios":"levelo://app?vid=8c470a75-546a-4f62-ae1b-b6cdc326184a"},"vehicle_type_id":"4","last_reported":1761308513,"current_range_meters":4400,"station_id":"ce4bgup2rcd13ifvqco0","pricing_plan_id":"cebpf4jnsgd1na2vs0mg"},{"bike_id":"b6cbb1db-d364-4e3c-9513-ac650c0ce246","system_id":"levelo_inurba_marseille","lat":43.28723,"lon":5.36084,"is_reserved":false,"is_disabled":false,"rental_uris":{"android":"levelo://app?vid=b6cbb1db-d364-4e3c-9513-ac650c0ce246","ios":"levelo://app?vid=b6cbb1db-d364-4e3c-9513-ac650c0ce246"},"vehicle_type_id":"4","last_reported":1761308513,"current_range_meters":4800,"station_id":"cki0cbj6b192h4jlfktg","pricing_plan_id":"cebpf4jnsgd1na2vs0mg"},{"bike_id":"90ab4e0e-1b3a-4371-a4b1-5cc978b55a8a","system_id":"levelo_inurba_marseille","lat":43.28265,"lon":5.35056,"is_reserved":false,"is_disabled":false,"rental_uris":{"android":"levelo://app?vid=90ab4e0e-1b3a-4371-a4b1-5cc978b55a8a","ios":"levelo://app?vid=90ab4e0e-1b3a-4371-a4b1-5cc978b55a8a"},"vehicle_type_id":"4","last_reported":1761308513,"current_range_meters":4800,"station_id":"ce4bhbp2rcd13ifvqerg","pricing_plan_id":"cebpf4jnsgd1na2vs0mg"},{"bike_id":"9dcc0e54-ceef-472d-8860-37f9cd475291","system_id":"levelo_inurba_marseille","lat":43.31116,"lon":5.37764,"is_reserved":false,"is_disabled":false,"rental_uris":{"android":"levelo://app?vid=9dcc0e54-ceef-472d-8860-37f9cd475291","ios":"levelo://app?vid=9dcc0e54-ceef-472d-8860-37f9cd475291"},"vehicle_type_id":"4","last_reported":1761308513,"current_range_meters":5600,"station_id":"ce4bgt92rcd13ifvqcg0","pricing_plan_id":"cebpf4jnsgd1na2vs0mg"},{"bike_id":"67860a43-5ee2-4748-9669-c3bbad1994c4","system_id":"levelo_inurba_marseille","lat":43.275703,"lon":5.384233,"is_reserved":false,"is_disabled":false,"rental_uris":{"android":"levelo://app?vid=67860a43-5ee2-4748-9669-c3bbad1994c4","ios":"levelo://app?vid=67860a43-5ee2-4748-9669-c3bbad1994c4"},"vehicle_type_id":"4","last_reported":1761308513,"current_range_meters":5600,"station_id":"ce4bhh92rcd13ifvqfi0","pricing_plan_id":"cebpf4jnsgd1na2vs0mg"},{"bike_id":"6a6d5339-386a-4909-9600-f2d04446bfbd","system_id":"levelo_inurba_marseille","lat":43.22924,"lon":5.35359,"is_reserved":false,"is_disabled":false,"rental_uris":{"android":"levelo://app?vid=6a6d5339-386a-4909-9600-f2d04446bfbd","ios":"levelo://app?vid=6a6d5339-386a-4909-9600-f2d04446bfbd"},"vehicle_type_id":"4","last_reported":1761308513,"current_range_meters":5600,"station_id":"cpo3532slgdg3j2ikp40","pricing_plan_id":"cebpf4jnsgd1na2vs0mg"},{"bike_id":"aab21d9d-8cba-4551-94a6-ff64b069800d","system_id":"levelo_inurba_marseille","lat":43.21743,"lon":5.34603,"is_reserved":false,"is_disabled":false,"rental_uris":{"android":"levelo://app?vid=aab21d9d-8cba-4551-94a6-ff64b069800d","ios":"levelo://app?vid=aab21d9d-8cba-4551-94a6-ff64b069800d"},"vehicle_type_id":"4","last_reported":1761308513,"current_range_meters":5600,"station_id":"st_cvj6r9ubvosntc0bgbag","pricing_plan_id":"cebpf4jnsgd1na2vs0mg"},{"bike_id":"95a8015d-7586-4a7c-b321-bbf4c1859e4a","system_id":"levelo_inurba_marseille","lat":43.30411,"lon":5.39746,"is_reserved":false,"is_disabled":false,"rental_uris":{"android":"levelo://app?vid=95a8015d-7586-4a7c-b321-bbf4c1859e4a","ios":"levelo://app?vid=95a8015d-7586-4a7c-b321-bbf4c1859e4a"},"vehicle_type_id":"4","last_reported":1761308513,"current_range_meters":6000,"station_id":"ce4bh092rcd13ifvqd20","pricing_plan_id":"cebpf4jnsgd1na2vs0mg"},{"bike_id":"02ff13c4-8df5-4e06-b9cc-645b04660880","system_id":"levelo_inurba_marseille","lat":43.284153,"lon":5.387518,"is_reserved":false,"is_disabled":false,"rental_uris":{"android":"levelo://app?vid=02ff13c4-8df5-4e06-b9cc-645b04660880","ios":"levelo://app?vid=02ff13c4-8df5-4e06-b9cc-645b04660880"},"vehicle_type_id":"4","last_reported":1761308513,"current_range_meters":6000,"station_id":"ce4bh8p2rcd13ifvqeb0","pricing_plan_id":"cebpf4jnsgd1na2vs0mg"},{"bike_id":"89fe7292-6f73-45d9-a85b-2627ce94b1ed","system_id":"levelo_inurba_marseille","lat":43.287007,"lon":5.373743,"is_reserved":false,"is_disabled":false,"rental_uris":{"android":"levelo://app?vid=89fe7292-6f73-45d9-a85b-2627ce94b1ed","ios":"levelo://app?vid=89fe7292-6f73-45d9-a85b-2627ce94b1ed"},"vehicle_type_id":"4","last_reported":1761308513,"current_range_meters":6000,"station_id":"ce4bh3p2rcd13ifvqdq0","pricing_plan_id":"cebpf4jnsgd1na2vs0mg"},{"bike_id":"ad9a8166-85b3-49b6-88c7-1c6bdf69b632","system_id":"levelo_inurba_marseille","lat":43.311107,"lon":5.377624,"is_reserved":false,"is_disabled":false,"rental_uris":{"android":"levelo://app?vid=ad9a8166-85b3-49b6-88c7-1c6bdf69b632","ios":"levelo://app?vid=ad9a8166-85b3-49b6-88c7-1c6bdf69b632"},"vehicle_type_id":"4","last_reported":1761308513,"current_range_meters":6400,"station_id":"","pricing_plan_id":"cebpf4jnsgd1na2vs0mg"},{"bike_id":"4eae2ec4-8862-466e-a3d9-395cca4276d0","system_id":"levelo_inurba_marseille","lat":43.30373,"lon":5.37588,"is_reserved":false,"is_disabled":false,"rental_uris":{"android":"levelo://app?vid=4eae2ec4-8862-466e-a3d9-395cca4276d0","ios":"levelo://app?vid=4eae2ec4-8862-466e-a3d9-395cca4276d0"},"vehicle_type_id":"4","last_reported":1761308513,"current_range_meters":6400,"station_id":"","pricing_plan_id":"cebpf4jnsgd1na2vs0mg"},{"bike_id":"6fbed9aa-b703-4c2d-a17c-cdfc3380ec45","system_id":"levelo_inurba_marseille","lat":43.29046,"lon":5.37174,"is_reserved":false,"is_disabled":false,"rental_uris":{"android":"levelo://app?vid=6fbed9aa-b703-4c2d-a17c-cdfc3380ec45","ios":"levelo://app?vid=6fbed9aa-b703-4c2d-a17c-cdfc3380ec45"},"vehicle_type_id":"4","last_reported":1761308513,"current_range_meters":6400,"station_id":"ce4bh5p2rcd13ifvqe4g","pricing_plan_id":"cebpf4jnsgd1na2vs0mg"},{"bike_id":"3167c122-43fa-497a-bf85-d0a6522abe7a","system_id":"levelo_inurba_marseille","lat":43.32766,"lon":5.37514,"is_reserved":false,"is_disabled":false,"rental_uris":{"android":"levelo://app?vid=3167c122-43fa-497a-bf85-d0a6522abe7a","ios":"levelo://app?vid=3167c122-43fa-497a-bf85-d0a6522abe7a"},"vehicle_type_id":"4","last_reported":1761308513,"current_range_meters":6800,"station_id":"","pricing_plan_id":"cebpf4jnsgd1na2vs0mg"},{"bike_id":"4905277f-5bff-40db-8e03-9cfdb4a0857f","system_id":"levelo_inurba_marseille","lat":43.21745,"lon":5.34604,"is_reserved":false,"is_disabled":false,"rental_uris":{"android":"levelo://app?vid=4905277f-5bff-40db-8e03-9cfdb4a0857f","ios":"levelo://app?vid=4905277f-5bff-40db-8e03-9cfdb4a0857f"},"vehicle_type_id":"4","last_reported":1761308513,"current_range_meters":6800,"station_id":"","pricing_plan_id":"cebpf4jnsgd1na2vs0mg"},{"bike_id":"5df3bb81-4916-4427-8cd1-aaca61ad6031","system_id":"levelo_inurba_marseille","lat":43.30516,"lon":5.38246,"is_reserved":false,"is_disabled":false,"rental_uris":{"android":"levelo://app?vid=5df3bb81-4916-4427-8cd1-aaca61ad6031","ios":"levelo://app?vid=5df3bb81-4916-4427-8cd1-aaca61ad6031"},"vehicle_type_id":"4","last_reported":1761308513,"current_range_meters":6800,"station_id":"","pricing_plan_id":"cebpf4jnsgd1na2vs0mg"},{"bike_id":"2224c804-4267-4524-ba11-e7bcb2d89348","system_id":"levelo_inurba_marseille","lat":43.30142,"lon":5.36954,"is_reserved":false,"is_disabled":false,"rental_uris":{"android":"levelo://app?vid=2224c804-4267-4524-ba11-e7bcb2d89348","ios":"levelo://app?vid=2224c804-4267-4524-ba11-e7bcb2d89348"},"vehicle_type_id":"4","last_reported":1761308513,"current_range_meters":7200,"station_id":"","pricing_plan_id":"cebpf4jnsgd1na2vs0mg"},{"bike_id":"c8c0fa58-a519-4343-9887-b0c694f93aef","system_id":"levelo_inurba_marseille","lat":43.28855,"lon":5.42512,"is_reserved":false,"is_disabled":false,"rental_uris":{"android":"levelo://app?vid=c8c0fa58-a519-4343-9887-b0c694f93aef","ios":"levelo://app?vid=c8c0fa58-a519-4343-9887-b0c694f93aef"},"vehicle_type_id":"4","last_reported":1761308513,"current_range_meters":7200,"station_id":"st_d3b462108ojc7389ooeg","pricing_plan_id":"cebpf4jnsgd1na2vs0mg"},{"bike_id":"6865ccc4-c418-4bfd-83e2-0e0b43bfb6f7","system_id":"levelo_inurba_marseille","lat":43.32357,"lon":5.36746,"is_reserved":false,"is_disabled":false,"rental_uris":{"android":"levelo://app?vid=6865ccc4-c418-4bfd-83e2-0e0b43bfb6f7","ios":"levelo://app?vid=6865ccc4-c418-4bfd-83e2-0e0b43bfb6f7"},"vehicle_type_id":"4","last_reported":1761308513,"current_range_meters":7200,"station_id":"ce4bhsh2rcd13ifvqi2g","pricing_plan_id":"cebpf4jnsgd1na2vs0mg"},{"bike_id":"a513bb7a-c887-4b81-8b1a-6cc65623aa27","system_id":"levelo_inurba_marseille","lat":43.2917,"lon":5.37146,"is_reserved":false,"is_disabled":false,"rental_uris":{"android":"levelo://app?vid=a513bb7a-c887-4b81-8b1a-6cc65623aa27","ios":"levelo://app?vid=a513bb7a-c887-4b81-8b1a-6cc65623aa27"},"vehicle_type_id":"4","last_reported":1761308513,"current_range_meters":7200,"station_id":"ce4bha92rcd13ifvqeh0","pricing_plan_id":"cebpf4jnsgd1na2vs0mg"},{"bike_id":"00fd3c6a-780c-49dc-9993-d4de69c9b57a","system_id":"levelo_inurba_marseille","lat":43.31058,"lon":5.37446,"is_reserved":false,"is_disabled":false,"rental_uris":{"android":"levelo://app?vid=00fd3c6a-780c-49dc-9993-d4de69c9b57a","ios":"levelo://app?vid=00fd3c6a-780c-49dc-9993-d4de69c9b57a"},"vehicle_type_id":"4","last_reported":1761308513,"current_range_meters":7200,"station_id":"","pricing_plan_id":"cebpf4jnsgd1na2vs0mg"},{"bike_id":"402288a5-99bb-4da6-b59f-a4a2adea9ceb","system_id":"levelo_inurba_marseille","lat":43.28202,"lon":5.39061,"is_reserved":false,"is_disabled":false,"rental_uris":{"android":"levelo://app?vid=402288a5-99bb-4da6-b59f-a4a2adea9ceb","ios":"levelo://app?vid=402288a5-99bb-4da6-b59f-a4a2adea9ceb"},"vehicle_type_id":"4","last_reported":1761308513,"current_range_meters":7200,"station_id":"ce4bhn92rcd13ifvqgsg","pricing_plan_id":"cebpf4jnsgd1na2vs0mg"},{"bike_id":"aeedb2fc-fb15-41ac-80c0-d8f6e4e72433","system_id":"levelo_inurba_marseille","lat":43.21745,"lon":5.34608,"is_reserved":false,"is_disabled":false,"rental_uris":{"android":"levelo://app?vid=aeedb2fc-fb15-41ac-80c0-d8f6e4e72433","ios":"levelo://app?vid=aeedb2fc-fb15-41ac-80c0-d8f6e4e72433"},"vehicle_type_id":"4","last_reported":1761308513,"current_range_meters":8000,"station_id":"st_cvj6r9ubvosntc0bgbag","pricing_plan_id":"cebpf4jnsgd1na2vs0mg"},{"bike_id":"a305790f-3df1-4f00-9ffa-b9b88060c4fc","system_id":"levelo_inurba_marseille","lat":43.31695,"lon":5.40473,"is_reserved":false,"is_disabled":false,"rental_uris":{"android":"levelo://app?vid=a305790f-3df1-4f00-9ffa-b9b88060c4fc","ios":"levelo://app?vid=a305790f-3df1-4f00-9ffa-b9b88060c4fc"},"vehicle_type_id":"4","last_reported":1761308513,"current_range_meters":8000,"station_id":"ce4bh012rcd13ifvqd00","pricing_plan_id":"cebpf4jnsgd1na2vs0mg"},{"bike_id":"32e7919e-26d8-4f7d-b229-086147816fa4","system_id":"levelo_inurba_marseille","lat":43.301286,"lon":5.38775,"is_reserved":false,"is_disabled":false,"rental_uris":{"android":"levelo://app?vid=32e7919e-26d8-4f7d-b229-086147816fa4","ios":"levelo://app?vid=32e7919e-26d8-4f7d-b229-086147816fa4"},"vehicle_type_id":"4","last_reported":1761308513,"current_range_meters":8000,"station_id":"","pricing_plan_id":"cebpf4jnsgd1na2vs0mg"},{"bike_id":"e05f99f7-66d9-4169-88da-af3253de3ae7","system_id":"levelo_inurba_marseille","lat":43.29171,"lon":5.37161,"is_reserved":false,"is_disabled":false,"rental_uris":{"android":"levelo://app?vid=e05f99f7-66d9-4169-88da-af3253de3ae7","ios":"levelo://app?vid=e05f99f7-66d9-4169-88da-af3253de3ae7"},"vehicle_type_id":"4","last_reported":1761308513,"current_range_meters":8000,"station_id":"ce4bha92rcd13ifvqeh0","pricing_plan_id":"cebpf4jnsgd1na2vs0mg"},{"bike_id":"ec9665a2-32ab-42b2-9bdf-cf94d158a9c2","system_id":"levelo_inurba_marseille","lat":43.30117,"lon":5.37071,"is_reserved":false,"is_disabled":false,"rental_uris":{"android":"levelo://app?vid=ec9665a2-32ab-42b2-9bdf-cf94d158a9c2","ios":"levelo://app?vid=ec9665a2-32ab-42b2-9bdf-cf94d158a9c2"},"vehicle_type_id":"4","last_reported":1761308513,"current_range_meters":8400,"station_id":"","pricing_plan_id":"cebpf4jnsgd1na2vs0mg"},{"bike_id":"c54b6adf-c2cf-40da-b9af-b7771dcea2e5","system_id":"levelo_inurba_marseille","lat":43.26206,"lon":5.37454,"is_reserved":false,"is_disabled":false,"rental_uris":{"android":"levelo://app?vid=c54b6adf-c2cf-40da-b9af-b7771dcea2e5","ios":"levelo://app?vid=c54b6adf-c2cf-40da-b9af-b7771dcea2e5"},"vehicle_type_id":"4","last_reported":1761308513,"current_range_meters":8400,"station_id":"ce4bhgp2rcd13ifvqfc0","pricing_plan_id":"cebpf4jnsgd1na2vs0mg"},{"bike_id":"242114ef-74aa-40b7-b36a-6c84a2265573","system_id":"levelo_inurba_marseille","lat":43.28847,"lon":5.39318,"is_reserved":false,"is_disabled":false,"rental_uris":{"android":"levelo://app?vid=242114ef-74aa-40b7-b36a-6c84a2265573","ios":"levelo://app?vid=242114ef-74aa-40b7-b36a-6c84a2265573"},"vehicle_type_id":"4","last_reported":1761308513,"current_range_meters":8400,"station_id":"ce4bh2p2rcd13ifvqdi0","pricing_plan_id":"cebpf4jnsgd1na2vs0mg"},{"bike_id":"5bd299fe-332d-4676-829b-685158d9ae97","system_id":"levelo_inurba_marseille","lat":43.24388,"lon":5.3706,"is_reserved":false,"is_disabled":false,"rental_uris":{"android":"levelo://app?vid=5bd299fe-332d-4676-829b-685158d9ae97","ios":"levelo://app?vid=5bd299fe-332d-4676-829b-685158d9ae97"},"vehicle_type_id":"4","last_reported":1761308513,"current_range_meters":8400,"station_id":"ce4bhhh2rcd13ifvqfk0","pricing_plan_id":"cebpf4jnsgd1na2vs0mg"},{"bike_id":"8dfd2a21-a787-49a9-8452-cf83b91d2b2c","system_id":"levelo_inurba_marseille","lat":43.31075,"lon":5.38356,"is_reserved":false,"is_disabled":false,"rental_uris":{"android":"levelo://app?vid=8dfd2a21-a787-49a9-8452-cf83b91d2b2c","ios":"levelo://app?vid=8dfd2a21-a787-49a9-8452-cf83b91d2b2c"},"vehicle_type_id":"4","last_reported":1761308513,"current_range_meters":8400,"station_id":"ce4bgv92rcd13ifvqcr0","pricing_plan_id":"cebpf4jnsgd1na2vs0mg"},{"bike_id":"e970d21e-df4c-4d8a-9dcc-b09959ead2d8","system_id":"levelo_inurba_marseille","lat":43.339262,"lon":5.397555,"is_reserved":false,"is_disabled":false,"rental_uris":{"android":"levelo://app?vid=e970d21e-df4c-4d8a-9dcc-b09959ead2d8","ios":"levelo://app?vid=e970d21e-df4c-4d8a-9dcc-b09959ead2d8"},"vehicle_type_id":"4","last_reported":1761308513,"current_range_meters":8400,"station_id":"","pricing_plan_id":"cebpf4jnsgd1na2vs0mg"},{"bike_id":"20b51196-f90a-4c30-8d4c-a0b1c0cc68e4","system_id":"levelo_inurba_marseille","lat":43.29627,"lon":5.40593,"is_reserved":false,"is_disabled":false,"rental_uris":{"android":"levelo://app?vid=20b51196-f90a-4c30-8d4c-a0b1c0cc68e4","ios":"levelo://app?vid=20b51196-f90a-4c30-8d4c-a0b1c0cc68e4"},"vehicle_type_id":"4","last_reported":1761308513,"current_range_meters":8400,"station_id":"ce4bh0h2rcd13ifvqd60","pricing_plan_id":"cebpf4jnsgd1na2vs0mg"},{"bike_id":"e96035ce-3f75-42c7-bc07-32e4ba0bd41a","system_id":"levelo_inurba_marseille","lat":43.30496,"lon":5.36933,"is_reserved":false,"is_disabled":false,"rental_uris":{"android":"levelo://app?vid=e96035ce-3f75-42c7-bc07-32e4ba0bd41a","ios":"levelo://app?vid=e96035ce-3f75-42c7-bc07-32e4ba0bd41a"},"vehicle_type_id":"4","last_reported":1761308513,"current_range_meters":9200,"station_id":"","pricing_plan_id":"cebpf4jnsgd1na2vs0mg"},{"bike_id":"7d1eddd2-09e0-4918-aed4-139720bee12f","system_id":"levelo_inurba_marseille","lat":43.28678,"lon":5.38663,"is_reserved":false,"is_disabled":false,"rental_uris":{"android":"levelo://app?vid=7d1eddd2-09e0-4918-aed4-139720bee12f","ios":"levelo://app?vid=7d1eddd2-09e0-4918-aed4-139720bee12f"},"vehicle_type_id":"4","last_reported":1761308513,"current_range_meters":9200,"station_id":"ce4bh492rcd13ifvqdug","pricing_plan_id":"cebpf4jnsgd1na2vs0mg"},{"bike_id":"fcd85f07-fc88-4b7c-8904-4d2b88ef7078","system_id":"levelo_inurba_marseille","lat":43.290108,"lon":5.356175,"is_reserved":false,"is_disabled":false,"rental_uris":{"android":"levelo://app?vid=fcd85f07-fc88-4b7c-8904-4d2b88ef7078","ios":"levelo://app?vid=fcd85f07-fc88-4b7c-8904-4d2b88ef7078"},"vehicle_type_id":"4","last_reported":1761308513,"current_range_meters":9200,"station_id":"","pricing_plan_id":"cebpf4jnsgd1na2vs0mg"},{"bike_id":"5c85b837-0b8f-4dae-943e-b27caf60cf77","system_id":"levelo_inurba_marseille","lat":43.26206,"lon":5.3744,"is_reserved":false,"is_disabled":false,"rental_uris":{"android":"levelo://app?vid=5c85b837-0b8f-4dae-943e-b27caf60cf77","ios":"levelo://app?vid=5c85b837-0b8f-4dae-943e-b27caf60cf77"},"vehicle_type_id":"4","last_reported":1761308513,"current_range_meters":9200,"station_id":"ce4bhgp2rcd13ifvqfc0","pricing_plan_id":"cebpf4jnsgd1na2vs0mg"},{"bike_id":"3e4783b6-28d8-4737-a4ef-6a1b0da02476","system_id":"levelo_inurba_marseille","lat":43.29438,"lon":5.40728,"is_reserved":false,"is_disabled":false,"rental_uris":{"android":"levelo://app?vid=3e4783b6-28d8-4737-a4ef-6a1b0da02476","ios":"levelo://app?vid=3e4783b6-28d8-4737-a4ef-6a1b0da02476"},"vehicle_type_id":"4","last_reported":1761308513,"current_range_meters":9600,"station_id":"","pricing_plan_id":"cebpf4jnsgd1na2vs0mg"},{"bike_id":"c3e042a1-2381-4c52-8d25-8e00a3cbbe4e","system_id":"levelo_inurba_marseille","lat":43.29562,"lon":5.37524,"is_reserved":false,"is_disabled":false,"rental_uris":{"android":"levelo://app?vid=c3e042a1-2381-4c52-8d25-8e00a3cbbe4e","ios":"levelo://app?vid=c3e042a1-2381-4c52-8d25-8e00a3cbbe4e"},"vehicle_type_id":"4","last_reported":1761308513,"current_range_meters":9600,"station_id":"ce4bgh92rcd13ifvqb50","pricing_plan_id":"cebpf4jnsgd1na2vs0mg"},{"bike_id":"4bf2bcf2-1f28-45b0-8dd7-afa7fa72f466","system_id":"levelo_inurba_marseille","lat":43.255901,"lon":5.382434,"is_reserved":false,"is_disabled":false,"rental_uris":{"android":"levelo://app?vid=4bf2bcf2-1f28-45b0-8dd7-afa7fa72f466","ios":"levelo://app?vid=4bf2bcf2-1f28-45b0-8dd7-afa7fa72f466"},"vehicle_type_id":"4","last_reported":1761308513,"current_range_meters":9600,"station_id":"ce4bhih2rcd13ifvqfs0","pricing_plan_id":"cebpf4jnsgd1na2vs0mg"},{"bike_id":"0204a90f-76e6-4cdd-809b-b309ce773770","system_id":"levelo_inurba_marseille","lat":43.29034,"lon":5.35911,"is_reserved":false,"is_disabled":false,"rental_uris":{"android":"levelo://app?vid=0204a90f-76e6-4cdd-809b-b309ce773770","ios":"levelo://app?vid=0204a90f-76e6-4cdd-809b-b309ce773770"},"vehicle_type_id":"4","last_reported":1761308513,"current_range_meters":9600,"station_id":"ce4bha92rcd13ifvqeg0","pricing_plan_id":"cebpf4jnsgd1na2vs0mg"},{"bike_id":"323bf2de-3bb4-4b4c-b330-b19ea807dbf5","system_id":"levelo_inurba_marseille","lat":43.329943,"lon":5.429554,"is_reserved":false,"is_disabled":false,"rental_uris":{"android":"levelo://app?vid=323bf2de-3bb4-4b4c-b330-b19ea807dbf5","ios":"levelo://app?vid=323bf2de-3bb4-4b4c-b330-b19ea807dbf5"},"vehicle_type_id":"4","last_reported":1761308513,"current_range_meters":9600,"station_id":"","pricing_plan_id":"cebpf4jnsgd1na2vs0mg"},{"bike_id":"cdfabc36-7746-4323-b306-8fb1377dda33","system_id":"levelo_inurba_marseille","lat":43.255928,"lon":5.382398,"is_reserved":false,"is_disabled":false,"rental_uris":{"android":"levelo://app?vid=cdfabc36-7746-4323-b306-8fb1377dda33","ios":"levelo://app?vid=cdfabc36-7746-4323-b306-8fb1377dda33"},"vehicle_type_id":"4","last_reported":1761308513,"current_range_meters":9600,"station_id":"ce4bhih2rcd13ifvqfs0","pricing_plan_id":"cebpf4jnsgd1na2vs0mg"},{"bike_id":"a04c1210-5fc5-4032-8d22-0fcb6f93a96b","system_id":"levelo_inurba_marseille","lat":43.279626,"lon":5.387403,"is_reserved":false,"is_disabled":false,"rental_uris":{"android":"levelo://app?vid=a04c1210-5fc5-4032-8d22-0fcb6f93a96b","ios":"levelo://app?vid=a04c1210-5fc5-4032-8d22-0fcb6f93a96b"},"vehicle_type_id":"4","last_reported":1761308513,"current_range_meters":9600,"station_id":"ce4bhg12rcd13ifvqf80","pricing_plan_id":"cebpf4jnsgd1na2vs0mg"},{"bike_id":"5c26842c-a206-40f4-be4f-70c4e46ef696","system_id":"levelo_inurba_marseille","lat":43.2985,"lon":5.36289,"is_reserved":false,"is_disabled":false,"rental_uris":{"android":"levelo://app?vid=5c26842c-a206-40f4-be4f-70c4e46ef696","ios":"levelo://app?vid=5c26842c-a206-40f4-be4f-70c4e46ef696"},"vehicle_type_id":"4","last_reported":1761308513,"current_range_meters":10000,"station_id":"ce4bgpp2rcd13ifvqc3g","pricing_plan_id":"cebpf4jnsgd1na2vs0mg"},{"bike_id":"00bb0a12-32a7-4040-883c-ca71d99b6aba","system_id":"levelo_inurba_marseille","lat":43.2978,"lon":5.37102,"is_reserved":false,"is_disabled":false,"rental_uris":{"android":"levelo://app?vid=00bb0a12-32a7-4040-883c-ca71d99b6aba","ios":"levelo://app?vid=00bb0a12-32a7-4040-883c-ca71d99b6aba"},"vehicle_type_id":"4","last_reported":1761308513,"current_range_meters":10000,"station_id":"ce4bgop2rcd13ifvqc1g","pricing_plan_id":"cebpf4jnsgd1na2vs0mg"},{"bike_id":"bf52d227-e2e6-4e46-bfde-44cbb96d7d45","system_id":"levelo_inurba_marseille","lat":43.21189,"lon":5.35065,"is_reserved":false,"is_disabled":false,"rental_uris":{"android":"levelo://app?vid=bf52d227-e2e6-4e46-bfde-44cbb96d7d45","ios":"levelo://app?vid=bf52d227-e2e6-4e46-bfde-44cbb96d7d45"},"vehicle_type_id":"4","last_reported":1761308513,"current_range_meters":10000,"station_id":"st_cvj6sg6p6f1abm77japg","pricing_plan_id":"cebpf4jnsgd1na2vs0mg"},{"bike_id":"31f6d87a-4233-4fc7-ae11-51c0273b22c5","system_id":"levelo_inurba_marseille","lat":43.246389,"lon":5.389181,"is_reserved":false,"is_disabled":false,"rental_uris":{"android":"levelo://app?vid=31f6d87a-4233-4fc7-ae11-51c0273b22c5","ios":"levelo://app?vid=31f6d87a-4233-4fc7-ae11-51c0273b22c5"},"vehicle_type_id":"4","last_reported":1761308513,"current_range_meters":10000,"station_id":"ce4bhg12rcd13ifvqf60","pricing_plan_id":"cebpf4jnsgd1na2vs0mg"},{"bike_id":"a5e40995-a96b-4748-901e-5b3f109c673e","system_id":"levelo_inurba_marseille","lat":43.30326,"lon":5.40429,"is_reserved":false,"is_disabled":false,"rental_uris":{"android":"levelo://app?vid=a5e40995-a96b-4748-901e-5b3f109c673e","ios":"levelo://app?vid=a5e40995-a96b-4748-901e-5b3f109c673e"},"vehicle_type_id":"4","last_reported":1761308513,"current_range_meters":10000,"station_id":"ce4bh012rcd13ifvqd10","pricing_plan_id":"cebpf4jnsgd1na2vs0mg"},{"bike_id":"15310be9-03ad-4057-aad8-ce161128712c","system_id":"levelo_inurba_marseille","lat":43.27805,"lon":5.40706,"is_reserved":false,"is_disabled":false,"rental_uris":{"android":"levelo://app?vid=15310be9-03ad-4057-aad8-ce161128712c","ios":"levelo://app?vid=15310be9-03ad-4057-aad8-ce161128712c"},"vehicle_type_id":"4","last_reported":1761308513,"current_range_meters":10000,"station_id":"ce4bhnh2rcd13ifvqgtg","pricing_plan_id":"cebpf4jnsgd1na2vs0mg"},{"bike_id":"316c843e-0abd-49e3-b3e9-3f61b02a5647","system_id":"levelo_inurba_marseille","lat":43.28865,"lon":5.42518,"is_reserved":false,"is_disabled":false,"rental_uris":{"android":"levelo://app?vid=316c843e-0abd-49e3-b3e9-3f61b02a5647","ios":"levelo://app?vid=316c843e-0abd-49e3-b3e9-3f61b02a5647"},"vehicle_type_id":"4","last_reported":1761308513,"current_range_meters":10800,"station_id":"st_d3b462108ojc7389ooeg","pricing_plan_id":"cebpf4jnsgd1na2vs0mg"},{"bike_id":"f0764640-ec1d-486f-9e1c-59043e66eb76","system_id":"levelo_inurba_marseille","lat":43.21352,"lon":5.34978,"is_reserved":false,"is_disabled":false,"rental_uris":{"android":"levelo://app?vid=f0764640-ec1d-486f-9e1c-59043e66eb76","ios":"levelo://app?vid=f0764640-ec1d-486f-9e1c-59043e66eb76"},"vehicle_type_id":"4","last_reported":1761308513,"current_range_meters":10800,"station_id":"","pricing_plan_id":"cebpf4jnsgd1na2vs0mg"},{"bike_id":"4da251d7-1d23-4690-80d4-b2f64281abc5","system_id":"levelo_inurba_marseille","lat":43.25582,"lon":5.38225,"is_reserved":false,"is_disabled":false,"rental_uris":{"android":"levelo://app?vid=4da251d7-1d23-4690-80d4-b2f64281abc5","ios":"levelo://app?vid=4da251d7-1d23-4690-80d4-b2f64281abc5"},"vehicle_type_id":"4","last_reported":1761308513,"current_range_meters":10800,"station_id":"ce4bhih2rcd13ifvqfs0","pricing_plan_id":"cebpf4jnsgd1na2vs0mg"},{"bike_id":"2e67092c-a72f-49f6-8f4f-e6578d52fbea","system_id":"levelo_inurba_marseille","lat":43.323666,"lon":5.367581,"is_reserved":false,"is_disabled":false,"rental_uris":{"android":"levelo://app?vid=2e67092c-a72f-49f6-8f4f-e6578d52fbea","ios":"levelo://app?vid=2e67092c-a72f-49f6-8f4f-e6578d52fbea"},"vehicle_type_id":"4","last_reported":1761308513,"current_range_meters":10800,"station_id":"ce4bhsh2rcd13ifvqi2g","pricing_plan_id":"cebpf4jnsgd1na2vs0mg"},{"bike_id":"ef50153f-0d61-4b36-959a-8723dbd8abca","system_id":"levelo_inurba_marseille","lat":43.28927,"lon":5.39625,"is_reserved":false,"is_disabled":false,"rental_uris":{"android":"levelo://app?vid=ef50153f-0d61-4b36-959a-8723dbd8abca","ios":"levelo://app?vid=ef50153f-0d61-4b36-959a-8723dbd8abca"},"vehicle_type_id":"4","last_reported":1761308513,"current_range_meters":10800,"station_id":"ce4bh3h2rcd13ifvqdn0","pricing_plan_id":"cebpf4jnsgd1na2vs0mg"},{"bike_id":"9c6ba028-e6e7-47de-a08b-8ec87001e32b","system_id":"levelo_inurba_marseille","lat":43.29966,"lon":5.37187,"is_reserved":false,"is_disabled":false,"rental_uris":{"android":"levelo://app?vid=9c6ba028-e6e7-47de-a08b-8ec87001e32b","ios":"levelo://app?vid=9c6ba028-e6e7-47de-a08b-8ec87001e32b"},"vehicle_type_id":"4","last_reported":1761308513,"current_range_meters":10800,"station_id":"ce4bgr92rcd13ifvqc7g","pricing_plan_id":"cebpf4jnsgd1na2vs0mg"},{"bike_id":"8f3a37d7-ef68-438e-b675-4c925fc10151","system_id":"levelo_inurba_marseille","lat":43.21189,"lon":5.35061,"is_reserved":false,"is_disabled":false,"rental_uris":{"android":"levelo://app?vid=8f3a37d7-ef68-438e-b675-4c925fc10151","ios":"levelo://app?vid=8f3a37d7-ef68-438e-b675-4c925fc10151"},"vehicle_type_id":"4","last_reported":1761308513,"current_range_meters":10800,"station_id":"st_cvj6sg6p6f1abm77japg","pricing_plan_id":"cebpf4jnsgd1na2vs0mg"},{"bike_id":"7399df19-60a6-4bc5-b697-6eefdbcd3b0a","system_id":"levelo_inurba_marseille","lat":43.28575,"lon":5.39497,"is_reserved":false,"is_disabled":false,"rental_uris":{"android":"levelo://app?vid=7399df19-60a6-4bc5-b697-6eefdbcd3b0a","ios":"levelo://app?vid=7399df19-60a6-4bc5-b697-6eefdbcd3b0a"},"vehicle_type_id":"4","last_reported":1761308513,"current_range_meters":11200,"station_id":"ce4bh292rcd13ifvqdg0","pricing_plan_id":"cebpf4jnsgd1na2vs0mg"},{"bike_id":"d10b22fa-7672-4128-97f0-5cbf4295b17c","system_id":"levelo_inurba_marseille","lat":43.293426,"lon":5.393339,"is_reserved":false,"is_disabled":false,"rental_uris":{"android":"levelo://app?vid=d10b22fa-7672-4128-97f0-5cbf4295b17c","ios":"levelo://app?vid=d10b22fa-7672-4128-97f0-5cbf4295b17c"},"vehicle_type_id":"4","last_reported":1761308513,"current_range_meters":11200,"station_id":"","pricing_plan_id":"cebpf4jnsgd1na2vs0mg"},{"bike_id":"a834c8f6-5364-4c50-9050-b8aa957085e7","system_id":"levelo_inurba_marseille","lat":43.28263,"lon":5.35057,"is_reserved":false,"is_disabled":false,"rental_uris":{"android":"levelo://app?vid=a834c8f6-5364-4c50-9050-b8aa957085e7","ios":"levelo://app?vid=a834c8f6-5364-4c50-9050-b8aa957085e7"},"vehicle_type_id":"4","last_reported":1761308513,"current_range_meters":11200,"station_id":"ce4bhbp2rcd13ifvqerg","pricing_plan_id":"cebpf4jnsgd1na2vs0mg"},{"bike_id":"8bcacd78-80de-4026-af75-b37ebe3030fe","system_id":"levelo_inurba_marseille","lat":43.334756,"lon":5.404255,"is_reserved":false,"is_disabled":false,"rental_uris":{"android":"levelo://app?vid=8bcacd78-80de-4026-af75-b37ebe3030fe","ios":"levelo://app?vid=8bcacd78-80de-4026-af75-b37ebe3030fe"},"vehicle_type_id":"4","last_reported":1761308513,"current_range_meters":11200,"station_id":"","pricing_plan_id":"cebpf4jnsgd1na2vs0mg"},{"bike_id":"bfb9feae-decc-4cf3-a0da-80c538d1709d","system_id":"levelo_inurba_marseille","lat":43.290009,"lon":5.356151,"is_reserved":false,"is_disabled":false,"rental_uris":{"android":"levelo://app?vid=bfb9feae-decc-4cf3-a0da-80c538d1709d","ios":"levelo://app?vid=bfb9feae-decc-4cf3-a0da-80c538d1709d"},"vehicle_type_id":"4","last_reported":1761308513,"current_range_meters":11200,"station_id":"ce4bh0h2rcd13ifvqd50","pricing_plan_id":"cebpf4jnsgd1na2vs0mg"},{"bike_id":"41d1e9c8-193a-4e64-a1f0-b7037202749b","system_id":"levelo_inurba_marseille","lat":43.30126,"lon":5.37418,"is_reserved":false,"is_disabled":true,"rental_uris":{"android":"levelo://app?vid=41d1e9c8-193a-4e64-a1f0-b7037202749b","ios":"levelo://app?vid=41d1e9c8-193a-4e64-a1f0-b7037202749b"},"vehicle_type_id":"4","last_reported":1761308513,"current_range_meters":11200,"station_id":"ce4bgs92rcd13ifvqcc0","pricing_plan_id":"cebpf4jnsgd1na2vs0mg"},{"bike_id":"00b47e21-df8f-42a6-9bab-544fd7496a39","system_id":"levelo_inurba_marseille","lat":43.28925,"lon":5.38398,"is_reserved":false,"is_disabled":false,"rental_uris":{"android":"levelo://app?vid=00b47e21-df8f-42a6-9bab-544fd7496a39","ios":"levelo://app?vid=00b47e21-df8f-42a6-9bab-544fd7496a39"},"vehicle_type_id":"4","last_reported":1761308513,"current_range_meters":11200,"station_id":"ce4bh612rcd13ifvqe6g","pricing_plan_id":"cebpf4jnsgd1na2vs0mg"},{"bike_id":"9881c788-42a8-46f5-8ccc-580a73583155","system_id":"levelo_inurba_marseille","lat":43.32078,"lon":5.40941,"is_reserved":false,"is_disabled":true,"rental_uris":{"android":"levelo://app?vid=9881c788-42a8-46f5-8ccc-580a73583155","ios":"levelo://app?vid=9881c788-42a8-46f5-8ccc-580a73583155"},"vehicle_type_id":"4","last_reported":1761308513,"current_range_meters":11200,"station_id":"","pricing_plan_id":"cebpf4jnsgd1na2vs0mg"},{"bike_id":"8d6c7236-f620-4b6b-a423-516a20af52f1","system_id":"levelo_inurba_marseille","lat":43.21745,"lon":5.34608,"is_reserved":false,"is_disabled":false,"rental_uris":{"android":"levelo://app?vid=8d6c7236-f620-4b6b-a423-516a20af52f1","ios":"levelo://app?vid=8d6c7236-f620-4b6b-a423-516a20af52f1"},"vehicle_type_id":"4","last_reported":1761308513,"current_range_meters":11200,"station_id":"st_cvj6r9ubvosntc0bgbag","pricing_plan_id":"cebpf4jnsgd1na2vs0mg"},{"bike_id":"5281e5df-222b-45d2-a20f-c3840dd97c29","system_id":"levelo_inurba_marseille","lat":43.2533,"lon":5.42174,"is_reserved":false,"is_disabled":false,"rental_uris":{"android":"levelo://app?vid=5281e5df-222b-45d2-a20f-c3840dd97c29","ios":"levelo://app?vid=5281e5df-222b-45d2-a20f-c3840dd97c29"},"vehicle_type_id":"4","last_reported":1761308513,"current_range_meters":11600,"station_id":"st_d2m65c5bi1j21697t3ng","pricing_plan_id":"cebpf4jnsgd1na2vs0mg"},{"bike_id":"b9764ed2-f91a-421e-b54e-d7527bd8af22","system_id":"levelo_inurba_marseille","lat":43.29811,"lon":5.36588,"is_reserved":false,"is_disabled":false,"rental_uris":{"android":"levelo://app?vid=b9764ed2-f91a-421e-b54e-d7527bd8af22","ios":"levelo://app?vid=b9764ed2-f91a-421e-b54e-d7527bd8af22"},"vehicle_type_id":"4","last_reported":1761308513,"current_range_meters":11600,"station_id":"","pricing_plan_id":"cebpf4jnsgd1na2vs0mg"},{"bike_id":"c12a786b-d447-4373-876a-58fc20f19148","system_id":"levelo_inurba_marseille","lat":43.299,"lon":5.43656,"is_reserved":false,"is_disabled":false,"rental_uris":{"android":"levelo://app?vid=c12a786b-d447-4373-876a-58fc20f19148","ios":"levelo://app?vid=c12a786b-d447-4373-876a-58fc20f19148"},"vehicle_type_id":"4","last_reported":1761308513,"current_range_meters":11600,"station_id":"ce4bhpp2rcd13ifvqhfg","pricing_plan_id":"cebpf4jnsgd1na2vs0mg"},{"bike_id":"2842f5fd-7b05-4b47-909c-5ee54d7d3bc5","system_id":"levelo_inurba_marseille","lat":43.32443,"lon":5.4281,"is_reserved":false,"is_disabled":false,"rental_uris":{"android":"levelo://app?vid=2842f5fd-7b05-4b47-909c-5ee54d7d3bc5","ios":"levelo://app?vid=2842f5fd-7b05-4b47-909c-5ee54d7d3bc5"},"vehicle_type_id":"4","last_reported":1761308513,"current_range_meters":11600,"station_id":"","pricing_plan_id":"cebpf4jnsgd1na2vs0mg"},{"bike_id":"b8132e4e-54c5-4ee2-9476-d2684321070b","system_id":"levelo_inurba_marseille","lat":43.29896,"lon":5.43662,"is_reserved":false,"is_disabled":false,"rental_uris":{"android":"levelo://app?vid=b8132e4e-54c5-4ee2-9476-d2684321070b","ios":"levelo://app?vid=b8132e4e-54c5-4ee2-9476-d2684321070b"},"vehicle_type_id":"4","last_reported":1761308513,"current_range_meters":11600,"station_id":"ce4bhpp2rcd13ifvqhfg","pricing_plan_id":"cebpf4jnsgd1na2vs0mg"},{"bike_id":"8851d09e-4a13-4df4-8019-8d92ce04245f","system_id":"levelo_inurba_marseille","lat":43.3089,"lon":5.3718,"is_reserved":false,"is_disabled":false,"rental_uris":{"android":"levelo://app?vid=8851d09e-4a13-4df4-8019-8d92ce04245f","ios":"levelo://app?vid=8851d09e-4a13-4df4-8019-8d92ce04245f"},"vehicle_type_id":"4","last_reported":1761308513,"current_range_meters":11600,"station_id":"ce4bguh2rcd13ifvqckg","pricing_plan_id":"cebpf4jnsgd1na2vs0mg"},{"bike_id":"9e0de07d-3c0e-466f-82b6-afd26f49e336","system_id":"levelo_inurba_marseille","lat":43.314895,"lon":5.373063,"is_reserved":false,"is_disabled":false,"rental_uris":{"android":"levelo://app?vid=9e0de07d-3c0e-466f-82b6-afd26f49e336","ios":"levelo://app?vid=9e0de07d-3c0e-466f-82b6-afd26f49e336"},"vehicle_type_id":"4","last_reported":1761308513,"current_range_meters":12000,"station_id":"ce4bgt12rcd13ifvqcd0","pricing_plan_id":"cebpf4jnsgd1na2vs0mg"},{"bike_id":"dab5b70e-9bd8-4f3b-af27-646987a3893e","system_id":"levelo_inurba_marseille","lat":43.2174,"lon":5.34611,"is_reserved":false,"is_disabled":false,"rental_uris":{"android":"levelo://app?vid=dab5b70e-9bd8-4f3b-af27-646987a3893e","ios":"levelo://app?vid=dab5b70e-9bd8-4f3b-af27-646987a3893e"},"vehicle_type_id":"4","last_reported":1761308513,"current_range_meters":12000,"station_id":"st_cvj6r9ubvosntc0bgbag","pricing_plan_id":"cebpf4jnsgd1na2vs0mg"},{"bike_id":"7ed73947-d92c-432a-8c2e-0e721cbe5761","system_id":"levelo_inurba_marseille","lat":43.312802,"lon":5.368412,"is_reserved":false,"is_disabled":false,"rental_uris":{"android":"levelo://app?vid=7ed73947-d92c-432a-8c2e-0e721cbe5761","ios":"levelo://app?vid=7ed73947-d92c-432a-8c2e-0e721cbe5761"},"vehicle_type_id":"4","last_reported":1761308513,"current_range_meters":12000,"station_id":"ce4bgl92rcd13ifvqbq0","pricing_plan_id":"cebpf4jnsgd1na2vs0mg"},{"bike_id":"85b50222-f503-4b10-8bd0-505abd1334cb","system_id":"levelo_inurba_marseille","lat":43.211917,"lon":5.35073,"is_reserved":false,"is_disabled":false,"rental_uris":{"android":"levelo://app?vid=85b50222-f503-4b10-8bd0-505abd1334cb","ios":"levelo://app?vid=85b50222-f503-4b10-8bd0-505abd1334cb"},"vehicle_type_id":"4","last_reported":1761308513,"current_range_meters":12000,"station_id":"","pricing_plan_id":"cebpf4jnsgd1na2vs0mg"},{"bike_id":"b03acaec-069a-4d1b-ab23-4a5367111542","system_id":"levelo_inurba_marseille","lat":43.3042,"lon":5.39742,"is_reserved":false,"is_disabled":false,"rental_uris":{"android":"levelo://app?vid=b03acaec-069a-4d1b-ab23-4a5367111542","ios":"levelo://app?vid=b03acaec-069a-4d1b-ab23-4a5367111542"},"vehicle_type_id":"4","last_reported":1761308513,"current_range_meters":12400,"station_id":"ce4bh092rcd13ifvqd20","pricing_plan_id":"cebpf4jnsgd1na2vs0mg"},{"bike_id":"6117d059-a746-4730-8fc1-58c8a2514aa9","system_id":"levelo_inurba_marseille","lat":43.30509,"lon":5.36703,"is_reserved":false,"is_disabled":false,"rental_uris":{"android":"levelo://app?vid=6117d059-a746-4730-8fc1-58c8a2514aa9","ios":"levelo://app?vid=6117d059-a746-4730-8fc1-58c8a2514aa9"},"vehicle_type_id":"4","last_reported":1761308513,"current_range_meters":12400,"station_id":"ce4bgrp2rcd13ifvqc9g","pricing_plan_id":"cebpf4jnsgd1na2vs0mg"},{"bike_id":"bbb88e55-e8b5-445e-ab38-684465c2939d","system_id":"levelo_inurba_marseille","lat":43.25591,"lon":5.38236,"is_reserved":false,"is_disabled":false,"rental_uris":{"android":"levelo://app?vid=bbb88e55-e8b5-445e-ab38-684465c2939d","ios":"levelo://app?vid=bbb88e55-e8b5-445e-ab38-684465c2939d"},"vehicle_type_id":"4","last_reported":1761308513,"current_range_meters":12400,"station_id":"ce4bhih2rcd13ifvqfs0","pricing_plan_id":"cebpf4jnsgd1na2vs0mg"},{"bike_id":"9a5af676-0474-4d2a-b6b7-08b00dd9f366","system_id":"levelo_inurba_marseille","lat":43.276655,"lon":5.38872,"is_reserved":false,"is_disabled":false,"rental_uris":{"android":"levelo://app?vid=9a5af676-0474-4d2a-b6b7-08b00dd9f366","ios":"levelo://app?vid=9a5af676-0474-4d2a-b6b7-08b00dd9f366"},"vehicle_type_id":"4","last_reported":1761308513,"current_range_meters":12400,"station_id":"ce4bhi12rcd13ifvqfo0","pricing_plan_id":"cebpf4jnsgd1na2vs0mg"},{"bike_id":"261e4258-5d4a-4735-a675-ef39e08be26c","system_id":"levelo_inurba_marseille","lat":43.30152,"lon":5.3742,"is_reserved":false,"is_disabled":false,"rental_uris":{"android":"levelo://app?vid=261e4258-5d4a-4735-a675-ef39e08be26c","ios":"levelo://app?vid=261e4258-5d4a-4735-a675-ef39e08be26c"},"vehicle_type_id":"4","last_reported":1761308513,"current_range_meters":12400,"station_id":"ce4bgs92rcd13ifvqcc0","pricing_plan_id":"cebpf4jnsgd1na2vs0mg"},{"bike_id":"9da43aef-628b-42b2-b7e3-103b8076338b","system_id":"levelo_inurba_marseille","lat":43.23154,"lon":5.43705,"is_reserved":false,"is_disabled":false,"rental_uris":{"android":"levelo://app?vid=9da43aef-628b-42b2-b7e3-103b8076338b","ios":"levelo://app?vid=9da43aef-628b-42b2-b7e3-103b8076338b"},"vehicle_type_id":"4","last_reported":1761308513,"current_range_meters":12400,"station_id":"ce4bhmp2rcd13ifvqgog","pricing_plan_id":"cebpf4jnsgd1na2vs0mg"},{"bike_id":"c199448d-815f-469d-8013-628fb1b5deff","system_id":"levelo_inurba_marseille","lat":43.30258,"lon":5.40073,"is_reserved":false,"is_disabled":false,"rental_uris":{"android":"levelo://app?vid=c199448d-815f-469d-8013-628fb1b5deff","ios":"levelo://app?vid=c199448d-815f-469d-8013-628fb1b5deff"},"vehicle_type_id":"4","last_reported":1761308513,"current_range_meters":12400,"station_id":"ce4bgvh2rcd13ifvqcs0","pricing_plan_id":"cebpf4jnsgd1na2vs0mg"},{"bike_id":"524edeca-edd8-4ead-a4a2-26869782520a","system_id":"levelo_inurba_marseille","lat":43.30237,"lon":5.40057,"is_reserved":false,"is_disabled":false,"rental_uris":{"android":"levelo://app?vid=524edeca-edd8-4ead-a4a2-26869782520a","ios":"levelo://app?vid=524edeca-edd8-4ead-a4a2-26869782520a"},"vehicle_type_id":"4","last_reported":1761308513,"current_range_meters":12800,"station_id":"ce4bgvh2rcd13ifvqcs0","pricing_plan_id":"cebpf4jnsgd1na2vs0mg"},{"bike_id":"49205a8f-4198-4c0b-b7d7-97a9473705ce","system_id":"levelo_inurba_marseille","lat":43.321,"lon":5.36776,"is_reserved":false,"is_disabled":false,"rental_uris":{"android":"levelo://app?vid=49205a8f-4198-4c0b-b7d7-97a9473705ce","ios":"levelo://app?vid=49205a8f-4198-4c0b-b7d7-97a9473705ce"},"vehicle_type_id":"4","last_reported":1761308513,"current_range_meters":12800,"station_id":"ce4bhrh2rcd13ifvqhug","pricing_plan_id":"cebpf4jnsgd1na2vs0mg"},{"bike_id":"82a6ac02-8c08-4f93-844a-981cd0f715d0","system_id":"levelo_inurba_marseille","lat":43.25508,"lon":5.37669,"is_reserved":false,"is_disabled":false,"rental_uris":{"android":"levelo://app?vid=82a6ac02-8c08-4f93-844a-981cd0f715d0","ios":"levelo://app?vid=82a6ac02-8c08-4f93-844a-981cd0f715d0"},"vehicle_type_id":"4","last_reported":1761308513,"current_range_meters":12800,"station_id":"ce4bhh12rcd13ifvqff0","pricing_plan_id":"cebpf4jnsgd1na2vs0mg"},{"bike_id":"f371c99c-46a3-40e4-b13f-b983fdc219f0","system_id":"levelo_inurba_marseille","lat":43.336,"lon":5.41033,"is_reserved":false,"is_disabled":false,"rental_uris":{"android":"levelo://app?vid=f371c99c-46a3-40e4-b13f-b983fdc219f0","ios":"levelo://app?vid=f371c99c-46a3-40e4-b13f-b983fdc219f0"},"vehicle_type_id":"4","last_reported":1761308513,"current_range_meters":12800,"station_id":"ce4bhqh2rcd13ifvqhmg","pricing_plan_id":"cebpf4jnsgd1na2vs0mg"},{"bike_id":"ddb1b664-b6a1-41cd-ba40-2bfbc07dbbd4","system_id":"levelo_inurba_marseille","lat":43.21743,"lon":5.34605,"is_reserved":false,"is_disabled":false,"rental_uris":{"android":"levelo://app?vid=ddb1b664-b6a1-41cd-ba40-2bfbc07dbbd4","ios":"levelo://app?vid=ddb1b664-b6a1-41cd-ba40-2bfbc07dbbd4"},"vehicle_type_id":"4","last_reported":1761308513,"current_range_meters":12800,"station_id":"st_cvj6r9ubvosntc0bgbag","pricing_plan_id":"cebpf4jnsgd1na2vs0mg"},{"bike_id":"de1370b3-b3eb-4bb2-b2b4-c6e191bc35e9","system_id":"levelo_inurba_marseille","lat":43.29914,"lon":5.3749,"is_reserved":false,"is_disabled":false,"rental_uris":{"android":"levelo://app?vid=de1370b3-b3eb-4bb2-b2b4-c6e191bc35e9","ios":"levelo://app?vid=de1370b3-b3eb-4bb2-b2b4-c6e191bc35e9"},"vehicle_type_id":"4","last_reported":1761308513,"current_range_meters":13600,"station_id":"ce4bgjh2rcd13ifvqbg0","pricing_plan_id":"cebpf4jnsgd1na2vs0mg"},{"bike_id":"19ac0a49-4c36-4265-9a1e-9d731f64290b","system_id":"levelo_inurba_marseille","lat":43.28609,"lon":5.37063,"is_reserved":false,"is_disabled":false,"rental_uris":{"android":"levelo://app?vid=19ac0a49-4c36-4265-9a1e-9d731f64290b","ios":"levelo://app?vid=19ac0a49-4c36-4265-9a1e-9d731f64290b"},"vehicle_type_id":"4","last_reported":1761308513,"current_range_meters":13600,"station_id":"ce4bht12rcd13ifvqi60","pricing_plan_id":"cebpf4jnsgd1na2vs0mg"},{"bike_id":"2e516aa3-da3f-4cd4-8d7a-1dc8bf5d8ddd","system_id":"levelo_inurba_marseille","lat":43.32113,"lon":5.36748,"is_reserved":false,"is_disabled":false,"rental_uris":{"android":"levelo://app?vid=2e516aa3-da3f-4cd4-8d7a-1dc8bf5d8ddd","ios":"levelo://app?vid=2e516aa3-da3f-4cd4-8d7a-1dc8bf5d8ddd"},"vehicle_type_id":"4","last_reported":1761308513,"current_range_meters":13600,"station_id":"ce4bhrh2rcd13ifvqhug","pricing_plan_id":"cebpf4jnsgd1na2vs0mg"},{"bike_id":"b82aa972-da68-4f95-87c7-ebee292f36bd","system_id":"levelo_inurba_marseille","lat":43.241733,"lon":5.364,"is_reserved":false,"is_disabled":false,"rental_uris":{"android":"levelo://app?vid=b82aa972-da68-4f95-87c7-ebee292f36bd","ios":"levelo://app?vid=b82aa972-da68-4f95-87c7-ebee292f36bd"},"vehicle_type_id":"4","last_reported":1761308513,"current_range_meters":13600,"station_id":"cpo36qri1sfpv3e86is0","pricing_plan_id":"cebpf4jnsgd1na2vs0mg"},{"bike_id":"d46cdb7c-30d0-44ba-abab-f1aa46e374e6","system_id":"levelo_inurba_marseille","lat":43.31323,"lon":5.39727,"is_reserved":false,"is_disabled":false,"rental_uris":{"android":"levelo://app?vid=d46cdb7c-30d0-44ba-abab-f1aa46e374e6","ios":"levelo://app?vid=d46cdb7c-30d0-44ba-abab-f1aa46e374e6"},"vehicle_type_id":"4","last_reported":1761308513,"current_range_meters":13600,"station_id":"ce4bgvp2rcd13ifvqcu0","pricing_plan_id":"cebpf4jnsgd1na2vs0mg"},{"bike_id":"dfc041f6-a962-4c93-8a58-0f138abbf1a2","system_id":"levelo_inurba_marseille","lat":43.26225,"lon":5.40452,"is_reserved":false,"is_disabled":false,"rental_uris":{"android":"levelo://app?vid=dfc041f6-a962-4c93-8a58-0f138abbf1a2","ios":"levelo://app?vid=dfc041f6-a962-4c93-8a58-0f138abbf1a2"},"vehicle_type_id":"4","last_reported":1761308513,"current_range_meters":14000,"station_id":"ce4bhmh2rcd13ifvqgmg","pricing_plan_id":"cebpf4jnsgd1na2vs0mg"},{"bike_id":"de4b8ab5-285e-474a-b521-72ccb626a9fe","system_id":"levelo_inurba_marseille","lat":43.32246,"lon":5.38357,"is_reserved":false,"is_disabled":false,"rental_uris":{"android":"levelo://app?vid=de4b8ab5-285e-474a-b521-72ccb626a9fe","ios":"levelo://app?vid=de4b8ab5-285e-474a-b521-72ccb626a9fe"},"vehicle_type_id":"4","last_reported":1761308513,"current_range_meters":14000,"station_id":"ce4bhr12rcd13ifvqhqg","pricing_plan_id":"cebpf4jnsgd1na2vs0mg"},{"bike_id":"32ba0172-5726-40b2-8a5b-9a02df8a44c4","system_id":"levelo_inurba_marseille","lat":43.29037,"lon":5.39959,"is_reserved":false,"is_disabled":false,"rental_uris":{"android":"levelo://app?vid=32ba0172-5726-40b2-8a5b-9a02df8a44c4","ios":"levelo://app?vid=32ba0172-5726-40b2-8a5b-9a02df8a44c4"},"vehicle_type_id":"4","last_reported":1761308513,"current_range_meters":14000,"station_id":"ce4bh392rcd13ifvqdm0","pricing_plan_id":"cebpf4jnsgd1na2vs0mg"},{"bike_id":"f8c755d7-1bb8-4fcd-bb3f-74aeb49951cc","system_id":"levelo_inurba_marseille","lat":43.31374,"lon":5.379,"is_reserved":false,"is_disabled":false,"rental_uris":{"android":"levelo://app?vid=f8c755d7-1bb8-4fcd-bb3f-74aeb49951cc","ios":"levelo://app?vid=f8c755d7-1bb8-4fcd-bb3f-74aeb49951cc"},"vehicle_type_id":"4","last_reported":1761308513,"current_range_meters":14000,"station_id":"","pricing_plan_id":"cebpf4jnsgd1na2vs0mg"},{"bike_id":"ff02376c-8f6e-4cf9-9563-64bcceb521be","system_id":"levelo_inurba_marseille","lat":43.28225,"lon":5.39075,"is_reserved":false,"is_disabled":false,"rental_uris":{"android":"levelo://app?vid=ff02376c-8f6e-4cf9-9563-64bcceb521be","ios":"levelo://app?vid=ff02376c-8f6e-4cf9-9563-64bcceb521be"},"vehicle_type_id":"4","last_reported":1761308513,"current_range_meters":14000,"station_id":"ce4bhn92rcd13ifvqgsg","pricing_plan_id":"cebpf4jnsgd1na2vs0mg"},{"bike_id":"30c20775-7e7c-4dd5-b544-8b63c9979e48","system_id":"levelo_inurba_marseille","lat":43.29227,"lon":5.36034,"is_reserved":false,"is_disabled":false,"rental_uris":{"android":"levelo://app?vid=30c20775-7e7c-4dd5-b544-8b63c9979e48","ios":"levelo://app?vid=30c20775-7e7c-4dd5-b544-8b63c9979e48"},"vehicle_type_id":"4","last_reported":1761308513,"current_range_meters":14000,"station_id":"ce4bhbh2rcd13ifvqeqg","pricing_plan_id":"cebpf4jnsgd1na2vs0mg"},{"bike_id":"203911f1-7aca-422a-bd2c-66ac1374f463","system_id":"levelo_inurba_marseille","lat":43.281536,"lon":5.4265,"is_reserved":false,"is_disabled":false,"rental_uris":{"android":"levelo://app?vid=203911f1-7aca-422a-bd2c-66ac1374f463","ios":"levelo://app?vid=203911f1-7aca-422a-bd2c-66ac1374f463"},"vehicle_type_id":"4","last_reported":1761308513,"current_range_meters":14000,"station_id":"ce4bhnh2rcd13ifvqgug","pricing_plan_id":"cebpf4jnsgd1na2vs0mg"},{"bike_id":"0c216ec5-2d75-4ee4-a223-b0d23bee74b5","system_id":"levelo_inurba_marseille","lat":43.24646,"lon":5.3893,"is_reserved":false,"is_disabled":false,"rental_uris":{"android":"levelo://app?vid=0c216ec5-2d75-4ee4-a223-b0d23bee74b5","ios":"levelo://app?vid=0c216ec5-2d75-4ee4-a223-b0d23bee74b5"},"vehicle_type_id":"4","last_reported":1761308513,"current_range_meters":14000,"station_id":"ce4bhg12rcd13ifvqf60","pricing_plan_id":"cebpf4jnsgd1na2vs0mg"},{"bike_id":"8b94732a-1450-4b6a-98aa-79e191e56932","system_id":"levelo_inurba_marseille","lat":43.29575,"lon":5.36738,"is_reserved":false,"is_disabled":false,"rental_uris":{"android":"levelo://app?vid=8b94732a-1450-4b6a-98aa-79e191e56932","ios":"levelo://app?vid=8b94732a-1450-4b6a-98aa-79e191e56932"},"vehicle_type_id":"4","last_reported":1761308513,"current_range_meters":14000,"station_id":"ce4bgph2rcd13ifvqc2g","pricing_plan_id":"cebpf4jnsgd1na2vs0mg"},{"bike_id":"24a29fbb-27a5-4eaf-8356-40b894cac666","system_id":"levelo_inurba_marseille","lat":43.2925,"lon":5.4091,"is_reserved":false,"is_disabled":false,"rental_uris":{"android":"levelo://app?vid=24a29fbb-27a5-4eaf-8356-40b894cac666","ios":"levelo://app?vid=24a29fbb-27a5-4eaf-8356-40b894cac666"},"vehicle_type_id":"4","last_reported":1761308513,"current_range_meters":14000,"station_id":"ce4bh192rcd13ifvqdc0","pricing_plan_id":"cebpf4jnsgd1na2vs0mg"},{"bike_id":"ac8e3529-72a1-4c46-9dba-b7841007aa02","system_id":"levelo_inurba_marseille","lat":43.29785,"lon":5.37096,"is_reserved":false,"is_disabled":false,"rental_uris":{"android":"levelo://app?vid=ac8e3529-72a1-4c46-9dba-b7841007aa02","ios":"levelo://app?vid=ac8e3529-72a1-4c46-9dba-b7841007aa02"},"vehicle_type_id":"4","last_reported":1761308513,"current_range_meters":14400,"station_id":"ce4bgop2rcd13ifvqc1g","pricing_plan_id":"cebpf4jnsgd1na2vs0mg"},{"bike_id":"011eee06-da75-42c1-8e54-714561c0b18b","system_id":"levelo_inurba_marseille","lat":43.2923,"lon":5.37152,"is_reserved":false,"is_disabled":false,"rental_uris":{"android":"levelo://app?vid=011eee06-da75-42c1-8e54-714561c0b18b","ios":"levelo://app?vid=011eee06-da75-42c1-8e54-714561c0b18b"},"vehicle_type_id":"4","last_reported":1761308513,"current_range_meters":14400,"station_id":"","pricing_plan_id":"cebpf4jnsgd1na2vs0mg"},{"bike_id":"47f09c0c-92a9-44eb-a23c-69934b3ff134","system_id":"levelo_inurba_marseille","lat":43.30113,"lon":5.4312,"is_reserved":false,"is_disabled":false,"rental_uris":{"android":"levelo://app?vid=47f09c0c-92a9-44eb-a23c-69934b3ff134","ios":"levelo://app?vid=47f09c0c-92a9-44eb-a23c-69934b3ff134"},"vehicle_type_id":"4","last_reported":1761308513,"current_range_meters":14400,"station_id":"st_d3js3co5814s73ftftug","pricing_plan_id":"cebpf4jnsgd1na2vs0mg"},{"bike_id":"bc977858-8c44-4812-b4a0-6141188d960e","system_id":"levelo_inurba_marseille","lat":43.28477,"lon":5.48395,"is_reserved":false,"is_disabled":false,"rental_uris":{"android":"levelo://app?vid=bc977858-8c44-4812-b4a0-6141188d960e","ios":"levelo://app?vid=bc977858-8c44-4812-b4a0-6141188d960e"},"vehicle_type_id":"4","last_reported":1761308513,"current_range_meters":14400,"station_id":"st_d3svhcjqgbts73a3dn0g","pricing_plan_id":"cebpf4jnsgd1na2vs0mg"},{"bike_id":"9e57eaf4-d73e-4095-b226-a2b558e9058b","system_id":"levelo_inurba_marseille","lat":43.217422,"lon":5.346083,"is_reserved":false,"is_disabled":false,"rental_uris":{"android":"levelo://app?vid=9e57eaf4-d73e-4095-b226-a2b558e9058b","ios":"levelo://app?vid=9e57eaf4-d73e-4095-b226-a2b558e9058b"},"vehicle_type_id":"4","last_reported":1761308513,"current_range_meters":14400,"station_id":"st_cvj6r9ubvosntc0bgbag","pricing_plan_id":"cebpf4jnsgd1na2vs0mg"},{"bike_id":"6d518bc4-19b1-47b5-97c4-329870599d0e","system_id":"levelo_inurba_marseille","lat":43.28441,"lon":5.349673,"is_reserved":false,"is_disabled":false,"rental_uris":{"android":"levelo://app?vid=6d518bc4-19b1-47b5-97c4-329870599d0e","ios":"levelo://app?vid=6d518bc4-19b1-47b5-97c4-329870599d0e"},"vehicle_type_id":"4","last_reported":1761308513,"current_range_meters":14400,"station_id":"","pricing_plan_id":"cebpf4jnsgd1na2vs0mg"},{"bike_id":"ccb140cc-61af-460c-9c74-9b118e13b00f","system_id":"levelo_inurba_marseille","lat":43.25337,"lon":5.4217,"is_reserved":false,"is_disabled":false,"rental_uris":{"android":"levelo://app?vid=ccb140cc-61af-460c-9c74-9b118e13b00f","ios":"levelo://app?vid=ccb140cc-61af-460c-9c74-9b118e13b00f"},"vehicle_type_id":"4","last_reported":1761308513,"current_range_meters":14800,"station_id":"st_d2m65c5bi1j21697t3ng","pricing_plan_id":"cebpf4jnsgd1na2vs0mg"},{"bike_id":"6b307c52-f33b-4885-85a6-9bac6592bb3d","system_id":"levelo_inurba_marseille","lat":43.21199,"lon":5.35066,"is_reserved":false,"is_disabled":false,"rental_uris":{"android":"levelo://app?vid=6b307c52-f33b-4885-85a6-9bac6592bb3d","ios":"levelo://app?vid=6b307c52-f33b-4885-85a6-9bac6592bb3d"},"vehicle_type_id":"4","last_reported":1761308513,"current_range_meters":14800,"station_id":"st_cvj6sg6p6f1abm77japg","pricing_plan_id":"cebpf4jnsgd1na2vs0mg"},{"bike_id":"620a1707-51ef-465d-8c8b-d7454590e589","system_id":"levelo_inurba_marseille","lat":43.24665,"lon":5.38157,"is_reserved":false,"is_disabled":false,"rental_uris":{"android":"levelo://app?vid=620a1707-51ef-465d-8c8b-d7454590e589","ios":"levelo://app?vid=620a1707-51ef-465d-8c8b-d7454590e589"},"vehicle_type_id":"4","last_reported":1761308513,"current_range_meters":14800,"station_id":"ce4bhih2rcd13ifvqfr0","pricing_plan_id":"cebpf4jnsgd1na2vs0mg"},{"bike_id":"93fc7495-4b34-4479-8d38-c57c982814ff","system_id":"levelo_inurba_marseille","lat":43.26056,"lon":5.39399,"is_reserved":false,"is_disabled":false,"rental_uris":{"android":"levelo://app?vid=93fc7495-4b34-4479-8d38-c57c982814ff","ios":"levelo://app?vid=93fc7495-4b34-4479-8d38-c57c982814ff"},"vehicle_type_id":"4","last_reported":1761308513,"current_range_meters":15200,"station_id":"ce4bhh92rcd13ifvqfj0","pricing_plan_id":"cebpf4jnsgd1na2vs0mg"},{"bike_id":"68913c84-342a-4ac5-9ffa-ea0a618c0522","system_id":"levelo_inurba_marseille","lat":43.21189,"lon":5.35062,"is_reserved":false,"is_disabled":false,"rental_uris":{"android":"levelo://app?vid=68913c84-342a-4ac5-9ffa-ea0a618c0522","ios":"levelo://app?vid=68913c84-342a-4ac5-9ffa-ea0a618c0522"},"vehicle_type_id":"4","last_reported":1761308513,"current_range_meters":15200,"station_id":"st_cvj6sg6p6f1abm77japg","pricing_plan_id":"cebpf4jnsgd1na2vs0mg"},{"bike_id":"638d3fb0-051c-4857-88f5-cf2f11828f7b","system_id":"levelo_inurba_marseille","lat":43.28262,"lon":5.35066,"is_reserved":false,"is_disabled":false,"rental_uris":{"android":"levelo://app?vid=638d3fb0-051c-4857-88f5-cf2f11828f7b","ios":"levelo://app?vid=638d3fb0-051c-4857-88f5-cf2f11828f7b"},"vehicle_type_id":"4","last_reported":1761308513,"current_range_meters":15200,"station_id":"ce4bhbp2rcd13ifvqerg","pricing_plan_id":"cebpf4jnsgd1na2vs0mg"},{"bike_id":"d6bf35d6-726d-4e21-8f7d-58a4c5ab0506","system_id":"levelo_inurba_marseille","lat":43.217442,"lon":5.345998,"is_reserved":false,"is_disabled":false,"rental_uris":{"android":"levelo://app?vid=d6bf35d6-726d-4e21-8f7d-58a4c5ab0506","ios":"levelo://app?vid=d6bf35d6-726d-4e21-8f7d-58a4c5ab0506"},"vehicle_type_id":"4","last_reported":1761308513,"current_range_meters":15200,"station_id":"","pricing_plan_id":"cebpf4jnsgd1na2vs0mg"},{"bike_id":"34620a6d-6cbe-45b0-a540-768a36ac4c42","system_id":"levelo_inurba_marseille","lat":43.2593,"lon":5.40904,"is_reserved":false,"is_disabled":false,"rental_uris":{"android":"levelo://app?vid=34620a6d-6cbe-45b0-a540-768a36ac4c42","ios":"levelo://app?vid=34620a6d-6cbe-45b0-a540-768a36ac4c42"},"vehicle_type_id":"4","last_reported":1761308513,"current_range_meters":16000,"station_id":"ce4bhm92rcd13ifvqglg","pricing_plan_id":"cebpf4jnsgd1na2vs0mg"},{"bike_id":"d5c58ee2-645b-402c-bf55-11a2236a6248","system_id":"levelo_inurba_marseille","lat":43.28353,"lon":5.38634,"is_reserved":false,"is_disabled":false,"rental_uris":{"android":"levelo://app?vid=d5c58ee2-645b-402c-bf55-11a2236a6248","ios":"levelo://app?vid=d5c58ee2-645b-402c-bf55-11a2236a6248"},"vehicle_type_id":"4","last_reported":1761308513,"current_range_meters":16000,"station_id":"ce4bh492rcd13ifvqdvg","pricing_plan_id":"cebpf4jnsgd1na2vs0mg"},{"bike_id":"958c1d2c-270e-41a5-9a53-5d13cae7c8ba","system_id":"levelo_inurba_marseille","lat":43.26682,"lon":5.38275,"is_reserved":false,"is_disabled":false,"rental_uris":{"android":"levelo://app?vid=958c1d2c-270e-41a5-9a53-5d13cae7c8ba","ios":"levelo://app?vid=958c1d2c-270e-41a5-9a53-5d13cae7c8ba"},"vehicle_type_id":"4","last_reported":1761308513,"current_range_meters":16000,"station_id":"ce4bhg92rcd13ifvqf90","pricing_plan_id":"cebpf4jnsgd1na2vs0mg"},{"bike_id":"7287d3d4-35f1-451b-af2c-c8d93f1d6fe4","system_id":"levelo_inurba_marseille","lat":43.28488,"lon":5.38597,"is_reserved":false,"is_disabled":false,"rental_uris":{"android":"levelo://app?vid=7287d3d4-35f1-451b-af2c-c8d93f1d6fe4","ios":"levelo://app?vid=7287d3d4-35f1-451b-af2c-c8d93f1d6fe4"},"vehicle_type_id":"4","last_reported":1761308513,"current_range_meters":16000,"station_id":"ce4bh8p2rcd13ifvqeb0","pricing_plan_id":"cebpf4jnsgd1na2vs0mg"},{"bike_id":"9cf0739c-a98e-4342-bc79-0bc0c7e49bf1","system_id":"levelo_inurba_marseille","lat":43.30552,"lon":5.36691,"is_reserved":false,"is_disabled":false,"rental_uris":{"android":"levelo://app?vid=9cf0739c-a98e-4342-bc79-0bc0c7e49bf1","ios":"levelo://app?vid=9cf0739c-a98e-4342-bc79-0bc0c7e49bf1"},"vehicle_type_id":"4","last_reported":1761308513,"current_range_meters":16000,"station_id":"","pricing_plan_id":"cebpf4jnsgd1na2vs0mg"},{"bike_id":"a6db5271-cc06-4162-8b23-e7a88487b7c3","system_id":"levelo_inurba_marseille","lat":43.21754,"lon":5.34602,"is_reserved":false,"is_disabled":false,"rental_uris":{"android":"levelo://app?vid=a6db5271-cc06-4162-8b23-e7a88487b7c3","ios":"levelo://app?vid=a6db5271-cc06-4162-8b23-e7a88487b7c3"},"vehicle_type_id":"4","last_reported":1761308513,"current_range_meters":16000,"station_id":"st_cvj6r9ubvosntc0bgbag","pricing_plan_id":"cebpf4jnsgd1na2vs0mg"},{"bike_id":"8c275e2d-6f0d-4c80-a95b-1a67bb9ca44a","system_id":"levelo_inurba_marseille","lat":43.3079,"lon":5.38168,"is_reserved":false,"is_disabled":false,"rental_uris":{"android":"levelo://app?vid=8c275e2d-6f0d-4c80-a95b-1a67bb9ca44a","ios":"levelo://app?vid=8c275e2d-6f0d-4c80-a95b-1a67bb9ca44a"},"vehicle_type_id":"4","last_reported":1761308513,"current_range_meters":16000,"station_id":"ce4bgt12rcd13ifvqce0","pricing_plan_id":"cebpf4jnsgd1na2vs0mg"},{"bike_id":"fb992e35-c109-4cb7-96c7-50faefdd00eb","system_id":"levelo_inurba_marseille","lat":43.3301,"lon":5.37285,"is_reserved":false,"is_disabled":false,"rental_uris":{"android":"levelo://app?vid=fb992e35-c109-4cb7-96c7-50faefdd00eb","ios":"levelo://app?vid=fb992e35-c109-4cb7-96c7-50faefdd00eb"},"vehicle_type_id":"4","last_reported":1761308513,"current_range_meters":16400,"station_id":"","pricing_plan_id":"cebpf4jnsgd1na2vs0mg"},{"bike_id":"249615da-bae2-4bb3-9506-b338b9fb85b7","system_id":"levelo_inurba_marseille","lat":43.2974,"lon":5.37663,"is_reserved":false,"is_disabled":true,"rental_uris":{"android":"levelo://app?vid=249615da-bae2-4bb3-9506-b338b9fb85b7","ios":"levelo://app?vid=249615da-bae2-4bb3-9506-b338b9fb85b7"},"vehicle_type_id":"4","last_reported":1761308513,"current_range_meters":16400,"station_id":"ce4bgkh2rcd13ifvqbl0","pricing_plan_id":"cebpf4jnsgd1na2vs0mg"},{"bike_id":"4f5c5045-2f2c-4ab7-ad8b-eeba1d52fe66","system_id":"levelo_inurba_marseille","lat":43.31358,"lon":5.36752,"is_reserved":false,"is_disabled":false,"rental_uris":{"android":"levelo://app?vid=4f5c5045-2f2c-4ab7-ad8b-eeba1d52fe66","ios":"levelo://app?vid=4f5c5045-2f2c-4ab7-ad8b-eeba1d52fe66"},"vehicle_type_id":"4","last_reported":1761308513,"current_range_meters":16400,"station_id":"ce4bgr92rcd13ifvqc6g","pricing_plan_id":"cebpf4jnsgd1na2vs0mg"},{"bike_id":"b9c8ced1-4ad2-4529-8b78-c6503294316b","system_id":"levelo_inurba_marseille","lat":43.302179,"lon":5.394717,"is_reserved":false,"is_disabled":false,"rental_uris":{"android":"levelo://app?vid=b9c8ced1-4ad2-4529-8b78-c6503294316b","ios":"levelo://app?vid=b9c8ced1-4ad2-4529-8b78-c6503294316b"},"vehicle_type_id":"4","last_reported":1761308513,"current_range_meters":16400,"station_id":"","pricing_plan_id":"cebpf4jnsgd1na2vs0mg"},{"bike_id":"29d8dbde-33cc-4eb7-bc4d-694df448a08b","system_id":"levelo_inurba_marseille","lat":43.24156,"lon":5.36407,"is_reserved":false,"is_disabled":false,"rental_uris":{"android":"levelo://app?vid=29d8dbde-33cc-4eb7-bc4d-694df448a08b","ios":"levelo://app?vid=29d8dbde-33cc-4eb7-bc4d-694df448a08b"},"vehicle_type_id":"4","last_reported":1761308513,"current_range_meters":16400,"station_id":"cpo36qri1sfpv3e86is0","pricing_plan_id":"cebpf4jnsgd1na2vs0mg"},{"bike_id":"46c0226f-9fad-4b07-8a98-586b07fa945a","system_id":"levelo_inurba_marseille","lat":43.30582,"lon":5.36504,"is_reserved":false,"is_disabled":false,"rental_uris":{"android":"levelo://app?vid=46c0226f-9fad-4b07-8a98-586b07fa945a","ios":"levelo://app?vid=46c0226f-9fad-4b07-8a98-586b07fa945a"},"vehicle_type_id":"4","last_reported":1761308513,"current_range_meters":16400,"station_id":"","pricing_plan_id":"cebpf4jnsgd1na2vs0mg"},{"bike_id":"ce6cd538-c766-4c96-b93f-5b786164e4be","system_id":"levelo_inurba_marseille","lat":43.3088,"lon":5.37202,"is_reserved":false,"is_disabled":false,"rental_uris":{"android":"levelo://app?vid=ce6cd538-c766-4c96-b93f-5b786164e4be","ios":"levelo://app?vid=ce6cd538-c766-4c96-b93f-5b786164e4be"},"vehicle_type_id":"4","last_reported":1761308513,"current_range_meters":16400,"station_id":"ce4bguh2rcd13ifvqckg","pricing_plan_id":"cebpf4jnsgd1na2vs0mg"},{"bike_id":"dde114a4-8805-4784-b02d-0d744116457b","system_id":"levelo_inurba_marseille","lat":43.22932,"lon":5.35379,"is_reserved":false,"is_disabled":false,"rental_uris":{"android":"levelo://app?vid=dde114a4-8805-4784-b02d-0d744116457b","ios":"levelo://app?vid=dde114a4-8805-4784-b02d-0d744116457b"},"vehicle_type_id":"4","last_reported":1761308513,"current_range_meters":16400,"station_id":"cpo3532slgdg3j2ikp40","pricing_plan_id":"cebpf4jnsgd1na2vs0mg"},{"bike_id":"be88eaa4-e674-44f9-9199-3901304dd644","system_id":"levelo_inurba_marseille","lat":43.217548,"lon":5.345982,"is_reserved":false,"is_disabled":false,"rental_uris":{"android":"levelo://app?vid=be88eaa4-e674-44f9-9199-3901304dd644","ios":"levelo://app?vid=be88eaa4-e674-44f9-9199-3901304dd644"},"vehicle_type_id":"4","last_reported":1761308513,"current_range_meters":16800,"station_id":"st_cvj6r9ubvosntc0bgbag","pricing_plan_id":"cebpf4jnsgd1na2vs0mg"},{"bike_id":"8d37e86e-0fcb-4934-9c24-f827e9ccc08f","system_id":"levelo_inurba_marseille","lat":43.23151,"lon":5.43721,"is_reserved":false,"is_disabled":false,"rental_uris":{"android":"levelo://app?vid=8d37e86e-0fcb-4934-9c24-f827e9ccc08f","ios":"levelo://app?vid=8d37e86e-0fcb-4934-9c24-f827e9ccc08f"},"vehicle_type_id":"4","last_reported":1761308513,"current_range_meters":16800,"station_id":"ce4bhmp2rcd13ifvqgog","pricing_plan_id":"cebpf4jnsgd1na2vs0mg"},{"bike_id":"f30e2c26-2266-414c-af26-a17190e669fb","system_id":"levelo_inurba_marseille","lat":43.2395,"lon":5.36644,"is_reserved":false,"is_disabled":false,"rental_uris":{"android":"levelo://app?vid=f30e2c26-2266-414c-af26-a17190e669fb","ios":"levelo://app?vid=f30e2c26-2266-414c-af26-a17190e669fb"},"vehicle_type_id":"4","last_reported":1761308513,"current_range_meters":16800,"station_id":"ce4bhi12rcd13ifvqfp0","pricing_plan_id":"cebpf4jnsgd1na2vs0mg"},{"bike_id":"a4b425ac-d20b-4acf-bdb5-ba822340ecdc","system_id":"levelo_inurba_marseille","lat":43.294221,"lon":5.386125,"is_reserved":false,"is_disabled":false,"rental_uris":{"android":"levelo://app?vid=a4b425ac-d20b-4acf-bdb5-ba822340ecdc","ios":"levelo://app?vid=a4b425ac-d20b-4acf-bdb5-ba822340ecdc"},"vehicle_type_id":"4","last_reported":1761308513,"current_range_meters":16800,"station_id":"ce4bgih2rcd13ifvqba0","pricing_plan_id":"cebpf4jnsgd1na2vs0mg"},{"bike_id":"66ebfd0d-0319-4249-9597-d1865e04e85a","system_id":"levelo_inurba_marseille","lat":43.30601,"lon":5.37224,"is_reserved":false,"is_disabled":false,"rental_uris":{"android":"levelo://app?vid=66ebfd0d-0319-4249-9597-d1865e04e85a","ios":"levelo://app?vid=66ebfd0d-0319-4249-9597-d1865e04e85a"},"vehicle_type_id":"4","last_reported":1761308513,"current_range_meters":16800,"station_id":"ce4bgqh2rcd13ifvqc4g","pricing_plan_id":"cebpf4jnsgd1na2vs0mg"},{"bike_id":"46c41e6a-e4b6-461b-844a-31294531f49b","system_id":"levelo_inurba_marseille","lat":43.2897,"lon":5.37837,"is_reserved":false,"is_disabled":false,"rental_uris":{"android":"levelo://app?vid=46c41e6a-e4b6-461b-844a-31294531f49b","ios":"levelo://app?vid=46c41e6a-e4b6-461b-844a-31294531f49b"},"vehicle_type_id":"4","last_reported":1761308513,"current_range_meters":17200,"station_id":"ce4bh9p2rcd13ifvqed0","pricing_plan_id":"cebpf4jnsgd1na2vs0mg"},{"bike_id":"417d2345-c4c6-4ccd-bc5c-2eafc961607b","system_id":"levelo_inurba_marseille","lat":43.25494,"lon":5.37652,"is_reserved":false,"is_disabled":false,"rental_uris":{"android":"levelo://app?vid=417d2345-c4c6-4ccd-bc5c-2eafc961607b","ios":"levelo://app?vid=417d2345-c4c6-4ccd-bc5c-2eafc961607b"},"vehicle_type_id":"4","last_reported":1761308513,"current_range_meters":17200,"station_id":"ce4bhh12rcd13ifvqff0","pricing_plan_id":"cebpf4jnsgd1na2vs0mg"},{"bike_id":"9ed16425-609f-460c-a00d-3ea49dca117f","system_id":"levelo_inurba_marseille","lat":43.21189,"lon":5.35076,"is_reserved":false,"is_disabled":false,"rental_uris":{"android":"levelo://app?vid=9ed16425-609f-460c-a00d-3ea49dca117f","ios":"levelo://app?vid=9ed16425-609f-460c-a00d-3ea49dca117f"},"vehicle_type_id":"4","last_reported":1761308513,"current_range_meters":17200,"station_id":"st_cvj6sg6p6f1abm77japg","pricing_plan_id":"cebpf4jnsgd1na2vs0mg"},{"bike_id":"75eebb0f-2447-4bf8-b846-45b5b359059b","system_id":"levelo_inurba_marseille","lat":43.33769,"lon":5.37496,"is_reserved":false,"is_disabled":false,"rental_uris":{"android":"levelo://app?vid=75eebb0f-2447-4bf8-b846-45b5b359059b","ios":"levelo://app?vid=75eebb0f-2447-4bf8-b846-45b5b359059b"},"vehicle_type_id":"4","last_reported":1761308513,"current_range_meters":17200,"station_id":"","pricing_plan_id":"cebpf4jnsgd1na2vs0mg"},{"bike_id":"94206818-a3d9-42c9-9936-cece7d32d215","system_id":"levelo_inurba_marseille","lat":43.26704,"lon":5.39424,"is_reserved":false,"is_disabled":false,"rental_uris":{"android":"levelo://app?vid=94206818-a3d9-42c9-9936-cece7d32d215","ios":"levelo://app?vid=94206818-a3d9-42c9-9936-cece7d32d215"},"vehicle_type_id":"4","last_reported":1761308513,"current_range_meters":17200,"station_id":"","pricing_plan_id":"cebpf4jnsgd1na2vs0mg"},{"bike_id":"8ae1a895-256a-42ff-81e2-1ddef1dcb177","system_id":"levelo_inurba_marseille","lat":43.2314,"lon":5.43727,"is_reserved":false,"is_disabled":false,"rental_uris":{"android":"levelo://app?vid=8ae1a895-256a-42ff-81e2-1ddef1dcb177","ios":"levelo://app?vid=8ae1a895-256a-42ff-81e2-1ddef1dcb177"},"vehicle_type_id":"4","last_reported":1761308513,"current_range_meters":17200,"station_id":"ce4bhmp2rcd13ifvqgog","pricing_plan_id":"cebpf4jnsgd1na2vs0mg"},{"bike_id":"9d964ec4-c537-4f1d-b21c-451d3f46b1bf","system_id":"levelo_inurba_marseille","lat":43.299023,"lon":5.378542,"is_reserved":false,"is_disabled":false,"rental_uris":{"android":"levelo://app?vid=9d964ec4-c537-4f1d-b21c-451d3f46b1bf","ios":"levelo://app?vid=9d964ec4-c537-4f1d-b21c-451d3f46b1bf"},"vehicle_type_id":"4","last_reported":1761308513,"current_range_meters":17200,"station_id":"","pricing_plan_id":"cebpf4jnsgd1na2vs0mg"},{"bike_id":"cbf84af1-782f-4331-8009-7ab38de72e60","system_id":"levelo_inurba_marseille","lat":43.28709,"lon":5.39994,"is_reserved":false,"is_disabled":false,"rental_uris":{"android":"levelo://app?vid=cbf84af1-782f-4331-8009-7ab38de72e60","ios":"levelo://app?vid=cbf84af1-782f-4331-8009-7ab38de72e60"},"vehicle_type_id":"4","last_reported":1761308513,"current_range_meters":17200,"station_id":"ce4bho92rcd13ifvqh3g","pricing_plan_id":"cebpf4jnsgd1na2vs0mg"},{"bike_id":"9ae1fefc-4a43-4740-a3a8-b020c1d58af0","system_id":"levelo_inurba_marseille","lat":43.292592,"lon":5.376283,"is_reserved":false,"is_disabled":false,"rental_uris":{"android":"levelo://app?vid=9ae1fefc-4a43-4740-a3a8-b020c1d58af0","ios":"levelo://app?vid=9ae1fefc-4a43-4740-a3a8-b020c1d58af0"},"vehicle_type_id":"4","last_reported":1761308513,"current_range_meters":17600,"station_id":"","pricing_plan_id":"cebpf4jnsgd1na2vs0mg"},{"bike_id":"fad83562-48b2-424c-aa40-412e264f6c09","system_id":"levelo_inurba_marseille","lat":43.29578,"lon":5.36744,"is_reserved":false,"is_disabled":false,"rental_uris":{"android":"levelo://app?vid=fad83562-48b2-424c-aa40-412e264f6c09","ios":"levelo://app?vid=fad83562-48b2-424c-aa40-412e264f6c09"},"vehicle_type_id":"4","last_reported":1761308513,"current_range_meters":17600,"station_id":"ce4bgph2rcd13ifvqc2g","pricing_plan_id":"cebpf4jnsgd1na2vs0mg"},{"bike_id":"3c9fcec8-1986-4a06-b8b9-4e6bdcacb272","system_id":"levelo_inurba_marseille","lat":43.23151,"lon":5.43717,"is_reserved":false,"is_disabled":false,"rental_uris":{"android":"levelo://app?vid=3c9fcec8-1986-4a06-b8b9-4e6bdcacb272","ios":"levelo://app?vid=3c9fcec8-1986-4a06-b8b9-4e6bdcacb272"},"vehicle_type_id":"4","last_reported":1761308513,"current_range_meters":17600,"station_id":"ce4bhmp2rcd13ifvqgog","pricing_plan_id":"cebpf4jnsgd1na2vs0mg"},{"bike_id":"8bb7bee9-5e62-432b-8c49-b661a9775620","system_id":"levelo_inurba_marseille","lat":43.25935,"lon":5.40917,"is_reserved":false,"is_disabled":false,"rental_uris":{"android":"levelo://app?vid=8bb7bee9-5e62-432b-8c49-b661a9775620","ios":"levelo://app?vid=8bb7bee9-5e62-432b-8c49-b661a9775620"},"vehicle_type_id":"4","last_reported":1761308513,"current_range_meters":17600,"station_id":"ce4bhm92rcd13ifvqglg","pricing_plan_id":"cebpf4jnsgd1na2vs0mg"},{"bike_id":"2c7f4b30-9d1c-4725-ae74-8b8af82be5bb","system_id":"levelo_inurba_marseille","lat":43.21185,"lon":5.35069,"is_reserved":false,"is_disabled":false,"rental_uris":{"android":"levelo://app?vid=2c7f4b30-9d1c-4725-ae74-8b8af82be5bb","ios":"levelo://app?vid=2c7f4b30-9d1c-4725-ae74-8b8af82be5bb"},"vehicle_type_id":"4","last_reported":1761308513,"current_range_meters":17600,"station_id":"st_cvj6sg6p6f1abm77japg","pricing_plan_id":"cebpf4jnsgd1na2vs0mg"},{"bike_id":"4318dd3d-d6ef-4770-b58e-f862cc245d2c","system_id":"levelo_inurba_marseille","lat":43.29167,"lon":5.37161,"is_reserved":false,"is_disabled":false,"rental_uris":{"android":"levelo://app?vid=4318dd3d-d6ef-4770-b58e-f862cc245d2c","ios":"levelo://app?vid=4318dd3d-d6ef-4770-b58e-f862cc245d2c"},"vehicle_type_id":"4","last_reported":1761308513,"current_range_meters":17600,"station_id":"ce4bha92rcd13ifvqeh0","pricing_plan_id":"cebpf4jnsgd1na2vs0mg"},{"bike_id":"49c88eb1-18b5-42cc-aab1-cb913bda0353","system_id":"levelo_inurba_marseille","lat":43.33607,"lon":5.41014,"is_reserved":false,"is_disabled":true,"rental_uris":{"android":"levelo://app?vid=49c88eb1-18b5-42cc-aab1-cb913bda0353","ios":"levelo://app?vid=49c88eb1-18b5-42cc-aab1-cb913bda0353"},"vehicle_type_id":"4","last_reported":1761308513,"current_range_meters":17600,"station_id":"ce4bhqh2rcd13ifvqhmg","pricing_plan_id":"cebpf4jnsgd1na2vs0mg"},{"bike_id":"0440a1b4-11ea-4f35-9332-5971e36d56ec","system_id":"levelo_inurba_marseille","lat":43.28928,"lon":5.3663,"is_reserved":false,"is_disabled":false,"rental_uris":{"android":"levelo://app?vid=0440a1b4-11ea-4f35-9332-5971e36d56ec","ios":"levelo://app?vid=0440a1b4-11ea-4f35-9332-5971e36d56ec"},"vehicle_type_id":"4","last_reported":1761308513,"current_range_meters":18000,"station_id":"ce4bhap2rcd13ifvqek0","pricing_plan_id":"cebpf4jnsgd1na2vs0mg"},{"bike_id":"7408d13f-b96f-4092-acba-6f0e42aeab93","system_id":"levelo_inurba_marseille","lat":43.25508,"lon":5.37651,"is_reserved":false,"is_disabled":false,"rental_uris":{"android":"levelo://app?vid=7408d13f-b96f-4092-acba-6f0e42aeab93","ios":"levelo://app?vid=7408d13f-b96f-4092-acba-6f0e42aeab93"},"vehicle_type_id":"4","last_reported":1761308513,"current_range_meters":18000,"station_id":"ce4bhh12rcd13ifvqff0","pricing_plan_id":"cebpf4jnsgd1na2vs0mg"},{"bike_id":"5918e872-e110-482a-ae0d-368633c82436","system_id":"levelo_inurba_marseille","lat":43.297,"lon":5.36616,"is_reserved":false,"is_disabled":false,"rental_uris":{"android":"levelo://app?vid=5918e872-e110-482a-ae0d-368633c82436","ios":"levelo://app?vid=5918e872-e110-482a-ae0d-368633c82436"},"vehicle_type_id":"4","last_reported":1761308513,"current_range_meters":18000,"station_id":"ce4bgn12rcd13ifvqbt0","pricing_plan_id":"cebpf4jnsgd1na2vs0mg"},{"bike_id":"c82af006-c154-4765-801d-fa5dec2b10c1","system_id":"levelo_inurba_marseille","lat":43.29781,"lon":5.37098,"is_reserved":false,"is_disabled":false,"rental_uris":{"android":"levelo://app?vid=c82af006-c154-4765-801d-fa5dec2b10c1","ios":"levelo://app?vid=c82af006-c154-4765-801d-fa5dec2b10c1"},"vehicle_type_id":"4","last_reported":1761308513,"current_range_meters":18000,"station_id":"ce4bgop2rcd13ifvqc1g","pricing_plan_id":"cebpf4jnsgd1na2vs0mg"},{"bike_id":"804c38fd-cce1-4351-a801-6e65f50556ca","system_id":"levelo_inurba_marseille","lat":43.26211,"lon":5.37436,"is_reserved":false,"is_disabled":false,"rental_uris":{"android":"levelo://app?vid=804c38fd-cce1-4351-a801-6e65f50556ca","ios":"levelo://app?vid=804c38fd-cce1-4351-a801-6e65f50556ca"},"vehicle_type_id":"4","last_reported":1761308513,"current_range_meters":18000,"station_id":"ce4bhgp2rcd13ifvqfc0","pricing_plan_id":"cebpf4jnsgd1na2vs0mg"},{"bike_id":"3a96a2e1-43cf-4bcf-8c88-9cf5be0234ed","system_id":"levelo_inurba_marseille","lat":43.21741,"lon":5.34616,"is_reserved":false,"is_disabled":false,"rental_uris":{"android":"levelo://app?vid=3a96a2e1-43cf-4bcf-8c88-9cf5be0234ed","ios":"levelo://app?vid=3a96a2e1-43cf-4bcf-8c88-9cf5be0234ed"},"vehicle_type_id":"4","last_reported":1761308513,"current_range_meters":18000,"station_id":"st_cvj6r9ubvosntc0bgbag","pricing_plan_id":"cebpf4jnsgd1na2vs0mg"},{"bike_id":"cde4d6e4-f2b1-43b4-af25-16c69dbb7f41","system_id":"levelo_inurba_marseille","lat":43.32282,"lon":5.38276,"is_reserved":false,"is_disabled":false,"rental_uris":{"android":"levelo://app?vid=cde4d6e4-f2b1-43b4-af25-16c69dbb7f41","ios":"levelo://app?vid=cde4d6e4-f2b1-43b4-af25-16c69dbb7f41"},"vehicle_type_id":"4","last_reported":1761308513,"current_range_meters":18800,"station_id":"ce4bhr12rcd13ifvqhqg","pricing_plan_id":"cebpf4jnsgd1na2vs0mg"},{"bike_id":"753f70c3-3ac5-458e-8bfe-b518932df3ee","system_id":"levelo_inurba_marseille","lat":43.287117,"lon":5.379335,"is_reserved":false,"is_disabled":false,"rental_uris":{"android":"levelo://app?vid=753f70c3-3ac5-458e-8bfe-b518932df3ee","ios":"levelo://app?vid=753f70c3-3ac5-458e-8bfe-b518932df3ee"},"vehicle_type_id":"4","last_reported":1761308513,"current_range_meters":18800,"station_id":"","pricing_plan_id":"cebpf4jnsgd1na2vs0mg"},{"bike_id":"1e04bd5e-dba9-4c39-b5e3-df33312b1ae1","system_id":"levelo_inurba_marseille","lat":43.270629,"lon":5.382899,"is_reserved":false,"is_disabled":false,"rental_uris":{"android":"levelo://app?vid=1e04bd5e-dba9-4c39-b5e3-df33312b1ae1","ios":"levelo://app?vid=1e04bd5e-dba9-4c39-b5e3-df33312b1ae1"},"vehicle_type_id":"4","last_reported":1761308513,"current_range_meters":18800,"station_id":"st_d3n2fo6cfp8s73cte1j0","pricing_plan_id":"cebpf4jnsgd1na2vs0mg"},{"bike_id":"2db69d1e-cb7b-46b4-8df4-dd3e8f8ea7a3","system_id":"levelo_inurba_marseille","lat":43.27982,"lon":5.41667,"is_reserved":false,"is_disabled":false,"rental_uris":{"android":"levelo://app?vid=2db69d1e-cb7b-46b4-8df4-dd3e8f8ea7a3","ios":"levelo://app?vid=2db69d1e-cb7b-46b4-8df4-dd3e8f8ea7a3"},"vehicle_type_id":"4","last_reported":1761308513,"current_range_meters":18800,"station_id":"ce4bho12rcd13ifvqh1g","pricing_plan_id":"cebpf4jnsgd1na2vs0mg"},{"bike_id":"c071bfc4-2c76-4dd6-b3f4-491bd8da0d9a","system_id":"levelo_inurba_marseille","lat":43.28607,"lon":5.37069,"is_reserved":false,"is_disabled":false,"rental_uris":{"android":"levelo://app?vid=c071bfc4-2c76-4dd6-b3f4-491bd8da0d9a","ios":"levelo://app?vid=c071bfc4-2c76-4dd6-b3f4-491bd8da0d9a"},"vehicle_type_id":"4","last_reported":1761308513,"current_range_meters":18800,"station_id":"ce4bht12rcd13ifvqi60","pricing_plan_id":"cebpf4jnsgd1na2vs0mg"},{"bike_id":"14721257-1a5d-4125-b3de-b0aea448d1d1","system_id":"levelo_inurba_marseille","lat":43.29863,"lon":5.39725,"is_reserved":false,"is_disabled":false,"rental_uris":{"android":"levelo://app?vid=14721257-1a5d-4125-b3de-b0aea448d1d1","ios":"levelo://app?vid=14721257-1a5d-4125-b3de-b0aea448d1d1"},"vehicle_type_id":"4","last_reported":1761308513,"current_range_meters":18800,"station_id":"ce4bh0h2rcd13ifvqd50","pricing_plan_id":"cebpf4jnsgd1na2vs0mg"},{"bike_id":"38eafd4b-09a2-4886-8299-107119b4aa2f","system_id":"levelo_inurba_marseille","lat":43.3117,"lon":5.38718,"is_reserved":false,"is_disabled":false,"rental_uris":{"android":"levelo://app?vid=38eafd4b-09a2-4886-8299-107119b4aa2f","ios":"levelo://app?vid=38eafd4b-09a2-4886-8299-107119b4aa2f"},"vehicle_type_id":"4","last_reported":1761308513,"current_range_meters":18800,"station_id":"ce4bgv12rcd13ifvqcp0","pricing_plan_id":"cebpf4jnsgd1na2vs0mg"},{"bike_id":"d9c827f0-7e89-4a06-83b0-d50e7a322c89","system_id":"levelo_inurba_marseille","lat":43.231933,"lon":5.355518,"is_reserved":false,"is_disabled":false,"rental_uris":{"android":"levelo://app?vid=d9c827f0-7e89-4a06-83b0-d50e7a322c89","ios":"levelo://app?vid=d9c827f0-7e89-4a06-83b0-d50e7a322c89"},"vehicle_type_id":"4","last_reported":1761308513,"current_range_meters":19200,"station_id":"ce4bhu92rcd13ifvqi70","pricing_plan_id":"cebpf4jnsgd1na2vs0mg"},{"bike_id":"bfaea6f8-ccc6-44a7-83a6-9d7d9a7e60cc","system_id":"levelo_inurba_marseille","lat":43.26383,"lon":5.39737,"is_reserved":false,"is_disabled":false,"rental_uris":{"android":"levelo://app?vid=bfaea6f8-ccc6-44a7-83a6-9d7d9a7e60cc","ios":"levelo://app?vid=bfaea6f8-ccc6-44a7-83a6-9d7d9a7e60cc"},"vehicle_type_id":"4","last_reported":1761308513,"current_range_meters":19200,"station_id":"","pricing_plan_id":"cebpf4jnsgd1na2vs0mg"},{"bike_id":"0314410c-0b13-4156-b6a7-447bee8f3097","system_id":"levelo_inurba_marseille","lat":43.24166,"lon":5.36393,"is_reserved":false,"is_disabled":false,"rental_uris":{"android":"levelo://app?vid=0314410c-0b13-4156-b6a7-447bee8f3097","ios":"levelo://app?vid=0314410c-0b13-4156-b6a7-447bee8f3097"},"vehicle_type_id":"4","last_reported":1761308513,"current_range_meters":19200,"station_id":"cpo36qri1sfpv3e86is0","pricing_plan_id":"cebpf4jnsgd1na2vs0mg"},{"bike_id":"386a9c87-6707-4c56-9410-3952ef242f20","system_id":"levelo_inurba_marseille","lat":43.24052,"lon":5.37746,"is_reserved":false,"is_disabled":false,"rental_uris":{"android":"levelo://app?vid=386a9c87-6707-4c56-9410-3952ef242f20","ios":"levelo://app?vid=386a9c87-6707-4c56-9410-3952ef242f20"},"vehicle_type_id":"4","last_reported":1761308513,"current_range_meters":19200,"station_id":"ce4bhnp2rcd13ifvqgvg","pricing_plan_id":"cebpf4jnsgd1na2vs0mg"},{"bike_id":"fc7fd979-0880-44c3-8f55-b4e267471ac6","system_id":"levelo_inurba_marseille","lat":43.28848,"lon":5.35869,"is_reserved":false,"is_disabled":false,"rental_uris":{"android":"levelo://app?vid=fc7fd979-0880-44c3-8f55-b4e267471ac6","ios":"levelo://app?vid=fc7fd979-0880-44c3-8f55-b4e267471ac6"},"vehicle_type_id":"4","last_reported":1761308513,"current_range_meters":19200,"station_id":"ce4bhb12rcd13ifvqem0","pricing_plan_id":"cebpf4jnsgd1na2vs0mg"},{"bike_id":"1d91d2c9-29d3-4c7d-a6a8-29c5c39d1cce","system_id":"levelo_inurba_marseille","lat":43.22921,"lon":5.35381,"is_reserved":false,"is_disabled":false,"rental_uris":{"android":"levelo://app?vid=1d91d2c9-29d3-4c7d-a6a8-29c5c39d1cce","ios":"levelo://app?vid=1d91d2c9-29d3-4c7d-a6a8-29c5c39d1cce"},"vehicle_type_id":"4","last_reported":1761308513,"current_range_meters":19200,"station_id":"","pricing_plan_id":"cebpf4jnsgd1na2vs0mg"},{"bike_id":"0bee0626-b9a8-413e-bed7-d82dc19927df","system_id":"levelo_inurba_marseille","lat":43.31493,"lon":5.3733,"is_reserved":false,"is_disabled":false,"rental_uris":{"android":"levelo://app?vid=0bee0626-b9a8-413e-bed7-d82dc19927df","ios":"levelo://app?vid=0bee0626-b9a8-413e-bed7-d82dc19927df"},"vehicle_type_id":"4","last_reported":1761308513,"current_range_meters":19200,"station_id":"ce4bgt12rcd13ifvqcd0","pricing_plan_id":"cebpf4jnsgd1na2vs0mg"},{"bike_id":"85831b0c-ac03-4a31-ad4b-6acd383c62ca","system_id":"levelo_inurba_marseille","lat":43.27703,"lon":5.3882,"is_reserved":false,"is_disabled":false,"rental_uris":{"android":"levelo://app?vid=85831b0c-ac03-4a31-ad4b-6acd383c62ca","ios":"levelo://app?vid=85831b0c-ac03-4a31-ad4b-6acd383c62ca"},"vehicle_type_id":"4","last_reported":1761308513,"current_range_meters":19200,"station_id":"","pricing_plan_id":"cebpf4jnsgd1na2vs0mg"},{"bike_id":"46d5a9c8-8175-4777-a5c8-1e1a0f437065","system_id":"levelo_inurba_marseille","lat":43.2886,"lon":5.42521,"is_reserved":false,"is_disabled":false,"rental_uris":{"android":"levelo://app?vid=46d5a9c8-8175-4777-a5c8-1e1a0f437065","ios":"levelo://app?vid=46d5a9c8-8175-4777-a5c8-1e1a0f437065"},"vehicle_type_id":"4","last_reported":1761308513,"current_range_meters":19200,"station_id":"st_d3b462108ojc7389ooeg","pricing_plan_id":"cebpf4jnsgd1na2vs0mg"},{"bike_id":"d4f34596-cd96-4004-af96-068144e0795b","system_id":"levelo_inurba_marseille","lat":43.306831,"lon":5.422229,"is_reserved":false,"is_disabled":false,"rental_uris":{"android":"levelo://app?vid=d4f34596-cd96-4004-af96-068144e0795b","ios":"levelo://app?vid=d4f34596-cd96-4004-af96-068144e0795b"},"vehicle_type_id":"4","last_reported":1761308513,"current_range_meters":19200,"station_id":"","pricing_plan_id":"cebpf4jnsgd1na2vs0mg"},{"bike_id":"95178218-43d4-44be-8547-4761f50f213e","system_id":"levelo_inurba_marseille","lat":43.301345,"lon":5.387849,"is_reserved":false,"is_disabled":false,"rental_uris":{"android":"levelo://app?vid=95178218-43d4-44be-8547-4761f50f213e","ios":"levelo://app?vid=95178218-43d4-44be-8547-4761f50f213e"},"vehicle_type_id":"4","last_reported":1761308513,"current_range_meters":19200,"station_id":"ce4bghh2rcd13ifvqb60","pricing_plan_id":"cebpf4jnsgd1na2vs0mg"},{"bike_id":"8e92164c-deff-4fbd-9f4e-43ff81933572","system_id":"levelo_inurba_marseille","lat":43.29834,"lon":5.42008,"is_reserved":false,"is_disabled":false,"rental_uris":{"android":"levelo://app?vid=8e92164c-deff-4fbd-9f4e-43ff81933572","ios":"levelo://app?vid=8e92164c-deff-4fbd-9f4e-43ff81933572"},"vehicle_type_id":"4","last_reported":1761308513,"current_range_meters":19200,"station_id":"","pricing_plan_id":"cebpf4jnsgd1na2vs0mg"},{"bike_id":"affcb4d7-bd11-485d-ac87-73a3514edca3","system_id":"levelo_inurba_marseille","lat":43.21731,"lon":5.34625,"is_reserved":false,"is_disabled":false,"rental_uris":{"android":"levelo://app?vid=affcb4d7-bd11-485d-ac87-73a3514edca3","ios":"levelo://app?vid=affcb4d7-bd11-485d-ac87-73a3514edca3"},"vehicle_type_id":"4","last_reported":1761308513,"current_range_meters":19200,"station_id":"st_cvj6r9ubvosntc0bgbag","pricing_plan_id":"cebpf4jnsgd1na2vs0mg"},{"bike_id":"36aded85-2756-4b22-88f8-fa59b839ad33","system_id":"levelo_inurba_marseille","lat":43.29171,"lon":5.37154,"is_reserved":false,"is_disabled":false,"rental_uris":{"android":"levelo://app?vid=36aded85-2756-4b22-88f8-fa59b839ad33","ios":"levelo://app?vid=36aded85-2756-4b22-88f8-fa59b839ad33"},"vehicle_type_id":"4","last_reported":1761308513,"current_range_meters":19200,"station_id":"ce4bha92rcd13ifvqeh0","pricing_plan_id":"cebpf4jnsgd1na2vs0mg"},{"bike_id":"55273914-693f-490d-80db-da0ec13963c9","system_id":"levelo_inurba_marseille","lat":43.211938,"lon":5.350704,"is_reserved":false,"is_disabled":false,"rental_uris":{"android":"levelo://app?vid=55273914-693f-490d-80db-da0ec13963c9","ios":"levelo://app?vid=55273914-693f-490d-80db-da0ec13963c9"},"vehicle_type_id":"4","last_reported":1761308513,"current_range_meters":19600,"station_id":"","pricing_plan_id":"cebpf4jnsgd1na2vs0mg"},{"bike_id":"604c3aa0-e853-4b6d-ab4a-685e0249d6b3","system_id":"levelo_inurba_marseille","lat":43.26503,"lon":5.39558,"is_reserved":false,"is_disabled":false,"rental_uris":{"android":"levelo://app?vid=604c3aa0-e853-4b6d-ab4a-685e0249d6b3","ios":"levelo://app?vid=604c3aa0-e853-4b6d-ab4a-685e0249d6b3"},"vehicle_type_id":"4","last_reported":1761308513,"current_range_meters":19600,"station_id":"ce4bhi12rcd13ifvqfq0","pricing_plan_id":"cebpf4jnsgd1na2vs0mg"},{"bike_id":"8dfd96cb-4e16-436b-8416-07a0420efc2f","system_id":"levelo_inurba_marseille","lat":43.2979,"lon":5.38104,"is_reserved":false,"is_disabled":false,"rental_uris":{"android":"levelo://app?vid=8dfd96cb-4e16-436b-8416-07a0420efc2f","ios":"levelo://app?vid=8dfd96cb-4e16-436b-8416-07a0420efc2f"},"vehicle_type_id":"4","last_reported":1761308513,"current_range_meters":19600,"station_id":"ce4bgip2rcd13ifvqbb0","pricing_plan_id":"cebpf4jnsgd1na2vs0mg"},{"bike_id":"9489737c-7c2c-4f83-bc76-e520af4d2990","system_id":"levelo_inurba_marseille","lat":43.32368,"lon":5.3886,"is_reserved":false,"is_disabled":false,"rental_uris":{"android":"levelo://app?vid=9489737c-7c2c-4f83-bc76-e520af4d2990","ios":"levelo://app?vid=9489737c-7c2c-4f83-bc76-e520af4d2990"},"vehicle_type_id":"4","last_reported":1761308513,"current_range_meters":19600,"station_id":"ce4bhqp2rcd13ifvqhog","pricing_plan_id":"cebpf4jnsgd1na2vs0mg"},{"bike_id":"cda11ea8-cb8c-42e5-bc2b-612cd2892727","system_id":"levelo_inurba_marseille","lat":43.26563,"lon":5.40327,"is_reserved":false,"is_disabled":false,"rental_uris":{"android":"levelo://app?vid=cda11ea8-cb8c-42e5-bc2b-612cd2892727","ios":"levelo://app?vid=cda11ea8-cb8c-42e5-bc2b-612cd2892727"},"vehicle_type_id":"4","last_reported":1761308513,"current_range_meters":19600,"station_id":"ce4bhmp2rcd13ifvqgng","pricing_plan_id":"cebpf4jnsgd1na2vs0mg"},{"bike_id":"d414d448-0b34-4646-bd0e-0638622d7dea","system_id":"levelo_inurba_marseille","lat":43.30543,"lon":5.36546,"is_reserved":false,"is_disabled":false,"rental_uris":{"android":"levelo://app?vid=d414d448-0b34-4646-bd0e-0638622d7dea","ios":"levelo://app?vid=d414d448-0b34-4646-bd0e-0638622d7dea"},"vehicle_type_id":"4","last_reported":1761308513,"current_range_meters":19600,"station_id":"ce4bgs12rcd13ifvqcag","pricing_plan_id":"cebpf4jnsgd1na2vs0mg"},{"bike_id":"a3afe735-3826-428d-9982-b0b60a35200c","system_id":"levelo_inurba_marseille","lat":43.30308,"lon":5.36888,"is_reserved":false,"is_disabled":false,"rental_uris":{"android":"levelo://app?vid=a3afe735-3826-428d-9982-b0b60a35200c","ios":"levelo://app?vid=a3afe735-3826-428d-9982-b0b60a35200c"},"vehicle_type_id":"4","last_reported":1761308513,"current_range_meters":20000,"station_id":"ce4bgqh2rcd13ifvqc5g","pricing_plan_id":"cebpf4jnsgd1na2vs0mg"},{"bike_id":"ba9a9429-bfde-4653-87f1-2b95b92f5e70","system_id":"levelo_inurba_marseille","lat":43.28525,"lon":5.44098,"is_reserved":false,"is_disabled":false,"rental_uris":{"android":"levelo://app?vid=ba9a9429-bfde-4653-87f1-2b95b92f5e70","ios":"levelo://app?vid=ba9a9429-bfde-4653-87f1-2b95b92f5e70"},"vehicle_type_id":"4","last_reported":1761308513,"current_range_meters":20000,"station_id":"st_d3j3df2ikq2c7380ej80","pricing_plan_id":"cebpf4jnsgd1na2vs0mg"},{"bike_id":"b2e20cd2-c54c-4e77-b03f-069ffaf8b17b","system_id":"levelo_inurba_marseille","lat":43.21756,"lon":5.34583,"is_reserved":false,"is_disabled":false,"rental_uris":{"android":"levelo://app?vid=b2e20cd2-c54c-4e77-b03f-069ffaf8b17b","ios":"levelo://app?vid=b2e20cd2-c54c-4e77-b03f-069ffaf8b17b"},"vehicle_type_id":"4","last_reported":1761308513,"current_range_meters":20000,"station_id":"st_cvj6r9ubvosntc0bgbag","pricing_plan_id":"cebpf4jnsgd1na2vs0mg"},{"bike_id":"7db61789-20db-404a-a00a-4df032ceebc0","system_id":"levelo_inurba_marseille","lat":43.29792,"lon":5.38108,"is_reserved":false,"is_disabled":false,"rental_uris":{"android":"levelo://app?vid=7db61789-20db-404a-a00a-4df032ceebc0","ios":"levelo://app?vid=7db61789-20db-404a-a00a-4df032ceebc0"},"vehicle_type_id":"4","last_reported":1761308513,"current_range_meters":20000,"station_id":"ce4bgip2rcd13ifvqbb0","pricing_plan_id":"cebpf4jnsgd1na2vs0mg"},{"bike_id":"fbc51a66-9f5b-4793-bf47-376ff7c8c289","system_id":"levelo_inurba_marseille","lat":43.211942,"lon":5.350682,"is_reserved":false,"is_disabled":false,"rental_uris":{"android":"levelo://app?vid=fbc51a66-9f5b-4793-bf47-376ff7c8c289","ios":"levelo://app?vid=fbc51a66-9f5b-4793-bf47-376ff7c8c289"},"vehicle_type_id":"4","last_reported":1761308513,"current_range_meters":20000,"station_id":"st_cvj6sg6p6f1abm77japg","pricing_plan_id":"cebpf4jnsgd1na2vs0mg"},{"bike_id":"8c35a7e4-8378-4fdf-b42f-02e88b6199ca","system_id":"levelo_inurba_marseille","lat":43.32098,"lon":5.36778,"is_reserved":false,"is_disabled":false,"rental_uris":{"android":"levelo://app?vid=8c35a7e4-8378-4fdf-b42f-02e88b6199ca","ios":"levelo://app?vid=8c35a7e4-8378-4fdf-b42f-02e88b6199ca"},"vehicle_type_id":"4","last_reported":1761308513,"current_range_meters":20000,"station_id":"ce4bhrh2rcd13ifvqhug","pricing_plan_id":"cebpf4jnsgd1na2vs0mg"},{"bike_id":"4cb65326-7cff-43a0-8843-5fe66d2daaf7","system_id":"levelo_inurba_marseille","lat":43.21193,"lon":5.35073,"is_reserved":false,"is_disabled":false,"rental_uris":{"android":"levelo://app?vid=4cb65326-7cff-43a0-8843-5fe66d2daaf7","ios":"levelo://app?vid=4cb65326-7cff-43a0-8843-5fe66d2daaf7"},"vehicle_type_id":"4","last_reported":1761308513,"current_range_meters":20000,"station_id":"st_cvj6sg6p6f1abm77japg","pricing_plan_id":"cebpf4jnsgd1na2vs0mg"},{"bike_id":"90640141-1fd6-45b2-8644-784b17584b60","system_id":"levelo_inurba_marseille","lat":43.275077,"lon":5.409372,"is_reserved":false,"is_disabled":false,"rental_uris":{"android":"levelo://app?vid=90640141-1fd6-45b2-8644-784b17584b60","ios":"levelo://app?vid=90640141-1fd6-45b2-8644-784b17584b60"},"vehicle_type_id":"4","last_reported":1761308513,"current_range_meters":20000,"station_id":"ce4bhl12rcd13ifvqgf0","pricing_plan_id":"cebpf4jnsgd1na2vs0mg"},{"bike_id":"0bfa6bd3-fc9a-4af8-8366-1e29b209b461","system_id":"levelo_inurba_marseille","lat":43.23193,"lon":5.35559,"is_reserved":false,"is_disabled":false,"rental_uris":{"android":"levelo://app?vid=0bfa6bd3-fc9a-4af8-8366-1e29b209b461","ios":"levelo://app?vid=0bfa6bd3-fc9a-4af8-8366-1e29b209b461"},"vehicle_type_id":"4","last_reported":1761308513,"current_range_meters":20000,"station_id":"ce4bhu92rcd13ifvqi70","pricing_plan_id":"cebpf4jnsgd1na2vs0mg"},{"bike_id":"dab36927-4328-48fa-bffb-145a737de07e","system_id":"levelo_inurba_marseille","lat":43.30798,"lon":5.43512,"is_reserved":false,"is_disabled":true,"rental_uris":{"android":"levelo://app?vid=dab36927-4328-48fa-bffb-145a737de07e","ios":"levelo://app?vid=dab36927-4328-48fa-bffb-145a737de07e"},"vehicle_type_id":"4","last_reported":1761308513,"current_range_meters":20400,"station_id":"ce4bhph2rcd13ifvqheg","pricing_plan_id":"cebpf4jnsgd1na2vs0mg"},{"bike_id":"a3cb495f-04ef-4857-ae2d-9119eec85e54","system_id":"levelo_inurba_marseille","lat":43.31119,"lon":5.37785,"is_reserved":false,"is_disabled":false,"rental_uris":{"android":"levelo://app?vid=a3cb495f-04ef-4857-ae2d-9119eec85e54","ios":"levelo://app?vid=a3cb495f-04ef-4857-ae2d-9119eec85e54"},"vehicle_type_id":"4","last_reported":1761308513,"current_range_meters":20400,"station_id":"ce4bgt92rcd13ifvqcg0","pricing_plan_id":"cebpf4jnsgd1na2vs0mg"},{"bike_id":"a48b489a-127e-4aab-97a2-25cf37e655c9","system_id":"levelo_inurba_marseille","lat":43.309468,"lon":5.402882,"is_reserved":false,"is_disabled":false,"rental_uris":{"android":"levelo://app?vid=a48b489a-127e-4aab-97a2-25cf37e655c9","ios":"levelo://app?vid=a48b489a-127e-4aab-97a2-25cf37e655c9"},"vehicle_type_id":"4","last_reported":1761308513,"current_range_meters":20400,"station_id":"","pricing_plan_id":"cebpf4jnsgd1na2vs0mg"},{"bike_id":"20bde688-ebaf-42f5-a35e-41f29c721a1a","system_id":"levelo_inurba_marseille","lat":43.28226,"lon":5.39074,"is_reserved":false,"is_disabled":false,"rental_uris":{"android":"levelo://app?vid=20bde688-ebaf-42f5-a35e-41f29c721a1a","ios":"levelo://app?vid=20bde688-ebaf-42f5-a35e-41f29c721a1a"},"vehicle_type_id":"4","last_reported":1761308513,"current_range_meters":20400,"station_id":"ce4bhn92rcd13ifvqgsg","pricing_plan_id":"cebpf4jnsgd1na2vs0mg"},{"bike_id":"5b31f2cf-16e2-4d2e-922d-452b332958e4","system_id":"levelo_inurba_marseille","lat":43.29863,"lon":5.39732,"is_reserved":false,"is_disabled":false,"rental_uris":{"android":"levelo://app?vid=5b31f2cf-16e2-4d2e-922d-452b332958e4","ios":"levelo://app?vid=5b31f2cf-16e2-4d2e-922d-452b332958e4"},"vehicle_type_id":"4","last_reported":1761308513,"current_range_meters":20400,"station_id":"ce4bh0h2rcd13ifvqd50","pricing_plan_id":"cebpf4jnsgd1na2vs0mg"},{"bike_id":"4b336ac8-f146-4ba2-b0c6-7f5de28835f3","system_id":"levelo_inurba_marseille","lat":43.27939,"lon":5.41053,"is_reserved":false,"is_disabled":false,"rental_uris":{"android":"levelo://app?vid=4b336ac8-f146-4ba2-b0c6-7f5de28835f3","ios":"levelo://app?vid=4b336ac8-f146-4ba2-b0c6-7f5de28835f3"},"vehicle_type_id":"4","last_reported":1761308513,"current_range_meters":20400,"station_id":"ce4bhnp2rcd13ifvqh0g","pricing_plan_id":"cebpf4jnsgd1na2vs0mg"},{"bike_id":"aa4e4a50-0da6-4144-bbc5-ac74fc503d7f","system_id":"levelo_inurba_marseille","lat":43.28444,"lon":5.39195,"is_reserved":false,"is_disabled":false,"rental_uris":{"android":"levelo://app?vid=aa4e4a50-0da6-4144-bbc5-ac74fc503d7f","ios":"levelo://app?vid=aa4e4a50-0da6-4144-bbc5-ac74fc503d7f"},"vehicle_type_id":"4","last_reported":1761308513,"current_range_meters":20800,"station_id":"ce4bhoh2rcd13ifvqh5g","pricing_plan_id":"cebpf4jnsgd1na2vs0mg"},{"bike_id":"d8b94c76-12be-4eb0-bce7-30c4e778e3ab","system_id":"levelo_inurba_marseille","lat":43.28614,"lon":5.3511,"is_reserved":false,"is_disabled":false,"rental_uris":{"android":"levelo://app?vid=d8b94c76-12be-4eb0-bce7-30c4e778e3ab","ios":"levelo://app?vid=d8b94c76-12be-4eb0-bce7-30c4e778e3ab"},"vehicle_type_id":"4","last_reported":1761308513,"current_range_meters":20800,"station_id":"ce4bhch2rcd13ifvqeug","pricing_plan_id":"cebpf4jnsgd1na2vs0mg"},{"bike_id":"4a514008-51e9-4ae7-9b01-e78de94b68df","system_id":"levelo_inurba_marseille","lat":43.21188,"lon":5.3508,"is_reserved":false,"is_disabled":false,"rental_uris":{"android":"levelo://app?vid=4a514008-51e9-4ae7-9b01-e78de94b68df","ios":"levelo://app?vid=4a514008-51e9-4ae7-9b01-e78de94b68df"},"vehicle_type_id":"4","last_reported":1761308513,"current_range_meters":20800,"station_id":"st_cvj6sg6p6f1abm77japg","pricing_plan_id":"cebpf4jnsgd1na2vs0mg"},{"bike_id":"4b3954f9-2548-4d8b-9bbb-8f2839f9c02e","system_id":"levelo_inurba_marseille","lat":43.29712,"lon":5.37695,"is_reserved":false,"is_disabled":false,"rental_uris":{"android":"levelo://app?vid=4b3954f9-2548-4d8b-9bbb-8f2839f9c02e","ios":"levelo://app?vid=4b3954f9-2548-4d8b-9bbb-8f2839f9c02e"},"vehicle_type_id":"4","last_reported":1761308513,"current_range_meters":20800,"station_id":"ce4bgkh2rcd13ifvqbl0","pricing_plan_id":"cebpf4jnsgd1na2vs0mg"},{"bike_id":"e033c8e1-8c46-4f24-8dd9-d321e764d8ef","system_id":"levelo_inurba_marseille","lat":43.323352,"lon":5.382219,"is_reserved":false,"is_disabled":false,"rental_uris":{"android":"levelo://app?vid=e033c8e1-8c46-4f24-8dd9-d321e764d8ef","ios":"levelo://app?vid=e033c8e1-8c46-4f24-8dd9-d321e764d8ef"},"vehicle_type_id":"4","last_reported":1761308513,"current_range_meters":20800,"station_id":"ce4bhr12rcd13ifvqhqg","pricing_plan_id":"cebpf4jnsgd1na2vs0mg"},{"bike_id":"36ef565d-595c-4fe5-832e-9069968fcd08","system_id":"levelo_inurba_marseille","lat":43.325333,"lon":5.414547,"is_reserved":false,"is_disabled":true,"rental_uris":{"android":"levelo://app?vid=36ef565d-595c-4fe5-832e-9069968fcd08","ios":"levelo://app?vid=36ef565d-595c-4fe5-832e-9069968fcd08"},"vehicle_type_id":"4","last_reported":1761308513,"current_range_meters":20800,"station_id":"ce4bhq12rcd13ifvqhhg","pricing_plan_id":"cebpf4jnsgd1na2vs0mg"},{"bike_id":"cd3d0b45-4b45-418e-bca9-0818c8ea5ce5","system_id":"levelo_inurba_marseille","lat":43.33614,"lon":5.40996,"is_reserved":false,"is_disabled":false,"rental_uris":{"android":"levelo://app?vid=cd3d0b45-4b45-418e-bca9-0818c8ea5ce5","ios":"levelo://app?vid=cd3d0b45-4b45-418e-bca9-0818c8ea5ce5"},"vehicle_type_id":"4","last_reported":1761308513,"current_range_meters":20800,"station_id":"ce4bhqh2rcd13ifvqhmg","pricing_plan_id":"cebpf4jnsgd1na2vs0mg"},{"bike_id":"77f156b0-4f05-4a6e-a513-c6806bf33878","system_id":"levelo_inurba_marseille","lat":43.30311,"lon":5.36898,"is_reserved":false,"is_disabled":false,"rental_uris":{"android":"levelo://app?vid=77f156b0-4f05-4a6e-a513-c6806bf33878","ios":"levelo://app?vid=77f156b0-4f05-4a6e-a513-c6806bf33878"},"vehicle_type_id":"4","last_reported":1761308513,"current_range_meters":20800,"station_id":"ce4bgqh2rcd13ifvqc5g","pricing_plan_id":"cebpf4jnsgd1na2vs0mg"},