{"last_updated":1726495716,"ttl":30,"version":"2.2","data":{"bikes":[{"bike_id":"8aaad035-eb7c-4478-9f21-cddc0aa9c0c3","system_id":"levelo_inurba_marseille","lat":43.292679,"lon":5.384327,"is_reserved":false,"is_disabled":false,"rental_uris":{"android":"levelo://app?vid=8aaad035-eb7c-4478-9f21-cddc0aa9c0c3","ios":"levelo://app?vid=8aaad035-eb7c-4478-9f21-cddc0aa9c0c3"},"vehicle_type_id":"4","last_reported":1726495716,"current_range_meters":11200,"station_id":"ce4bh692rcd13ifvqea0","pricing_plan_id":"cebpf4jnsgd1na2vs0mg"},{"bike_id":"ab5e5d4d-171b-4627-b680-a6303e0d021c","system_id":"levelo_inurba_marseille","lat":43.262345,"lon":5.374528,"is_reserved":false,"is_disabled":false,"rental_uris":{"android":"levelo://app?vid=ab5e5d4d-171b-4627-b680-a6303e0d021c","ios":"levelo://app?vid=ab5e5d4d-171b-4627-b680-a6303e0d021c"},"vehicle_type_id":"4","last_reported":1726495716,"current_range_meters":24800,"station_id":"ce4bhgp2rcd13ifvqfc0","pricing_plan_id":"cebpf4jnsgd1na2vs0mg"},{"bike_id":"4176aaa7-8d1e-4bc6-a86c-da70adffc553","system_id":"levelo_inurba_marseille","lat":43.308725,"lon":5.396548,"is_reserved":false,"is_disabled":false,"rental_uris":{"android":"levelo://app?vid=4176aaa7-8d1e-4bc6-a86c-da70adffc553","ios":"levelo://app?vid=4176aaa7-8d1e-4bc6-a86c-da70adffc553"},"vehicle_type_id":"4","last_reported":1726495716,"current_range_meters":20800,"station_id":"ce4bh012rcd13ifvqcv0","pricing_plan_id":"cebpf4jnsgd1na2vs0mg"},{"bike_id":"8fbbab3a-6f2a-4cfe-b5d6-d805834de86b","system_id":"levelo_inurba_marseille","lat":43.28164,"lon":5.42651,"is_reserved":false,"is_disabled":false,"rental_uris":{"android":"levelo://app?vid=8fbbab3a-6f2a-4cfe-b5d6-d805834de86b","ios":"levelo://app?vid=8fbbab3a-6f2a-4cfe-b5d6-d805834de86b"},"vehicle_type_id":"4","last_reported":1726495716,"current_range_meters":36000,"station_id":"ce4bhnh2rcd13ifvqgug","pricing_plan_id":"cebpf4jnsgd1na2vs0mg"},{"bike_id":"43176770-eaee-4996-86c7-d408161e4ce6","system_id":"levelo_inurba_marseille","lat":43.29903,"lon":5.43658,"is_reserved":false,"is_disabled":false,"rental_uris":{"android":"levelo://app?vid=43176770-eaee-4996-86c7-d408161e4ce6","ios":"levelo://app?vid=43176770-eaee-4996-86c7-d408161e4ce6"},"vehicle_type_id":"4","last_reported":1726495716,"current_range_meters":11200,"station_id":"ce4bhpp2rcd13ifvqhfg","pricing_plan_id":"cebpf4jnsgd1na2vs0mg"},{"bike_id":"3abc31cb-090e-4e36-8ee4-b3c9630f67b5","system_id":"levelo_inurba_marseille","lat":43.29309,"lon":5.37472,"is_reserved":false,"is_disabled":false,"rental_uris":{"android":"levelo://app?vid=3abc31cb-090e-4e36-8ee4-b3c9630f67b5","ios":"levelo://app?vid=3abc31cb-090e-4e36-8ee4-b3c9630f67b5"},"vehicle_type_id":"4","last_reported":1726495716,"current_range_meters":33200,"station_id":"ce4bgi12rcd13ifvqb70","pricing_plan_id":"cebpf4jnsgd1na2vs0mg"},{"bike_id":"7e74ccf1-6e94-422c-bb3a-8867c576e37a","system_id":"levelo_inurba_marseille","lat":43.22931,"lon":5.35374,"is_reserved":false,"is_disabled":false,"rental_uris":{"android":"levelo://app?vid=7e74ccf1-6e94-422c-bb3a-8867c576e37a","ios":"levelo://app?vid=7e74ccf1-6e94-422c-bb3a-8867c576e37a"},"vehicle_type_id":"4","last_reported":1726495716,"current_range_meters":25200,"station_id":"cpo3532slgdg3j2ikp40","pricing_plan_id":"cebpf4jnsgd1na2vs0mg"},{"bike_id":"253d1e55-6b14-4b19-a1ba-1940e8d838ab","system_id":"levelo_inurba_marseille","lat":43.29201,"lon":5.39317,"is_reserved":false,"is_disabled":false,"rental_uris":{"android":"levelo://app?vid=253d1e55-6b14-4b19-a1ba-1940e8d838ab","ios":"levelo://app?vid=253d1e55-6b14-4b19-a1ba-1940e8d838ab"},"vehicle_type_id":"4","last_reported":1726495716,"current_range_meters":38800,"station_id":"ce4bh192rcd13ifvqdd0","pricing_plan_id":"cebpf4jnsgd1na2vs0mg"},{"bike_id":"8661cdbd-539b-4736-96ae-3b29c9f34a0b","system_id":"levelo_inurba_marseille","lat":43.24075,"lon":5.37753,"is_reserved":false,"is_disabled":false,"rental_uris":{"android":"levelo://app?vid=8661cdbd-539b-4736-96ae-3b29c9f34a0b","ios":"levelo://app?vid=8661cdbd-539b-4736-96ae-3b29c9f34a0b"},"vehicle_type_id":"4","last_reported":1726495716,"current_range_meters":38800,"station_id":"ce4bhnp2rcd13ifvqgvg","pricing_plan_id":"cebpf4jnsgd1na2vs0mg"},{"bike_id":"7ac7362e-63df-4a54-9f49-0b5316d033c3","system_id":"levelo_inurba_marseille","lat":43.29275,"lon":5.36843,"is_reserved":false,"is_disabled":false,"rental_uris":{"android":"levelo://app?vid=7ac7362e-63df-4a54-9f49-0b5316d033c3","ios":"levelo://app?vid=7ac7362e-63df-4a54-9f49-0b5316d033c3"},"vehicle_type_id":"4","last_reported":1726495716,"current_range_meters":28400,"station_id":"ce4bhbp2rcd13ifvqesg","pricing_plan_id":"cebpf4jnsgd1na2vs0mg"},{"bike_id":"9b6d7f52-af36-4e13-b3e4-bf7557e9e324","system_id":"levelo_inurba_marseille","lat":43.32001,"lon":5.38152,"is_reserved":false,"is_disabled":false,"rental_uris":{"android":"levelo://app?vid=9b6d7f52-af36-4e13-b3e4-bf7557e9e324","ios":"levelo://app?vid=9b6d7f52-af36-4e13-b3e4-bf7557e9e324"},"vehicle_type_id":"4","last_reported":1726495716,"current_range_meters":34800,"station_id":"ce4bhr12rcd13ifvqhpg","pricing_plan_id":"cebpf4jnsgd1na2vs0mg"},{"bike_id":"384348ca-f122-438b-a1b9-b8b8efdd7d64","system_id":"levelo_inurba_marseille","lat":43.24807,"lon":5.37453,"is_reserved":false,"is_disabled":false,"rental_uris":{"android":"levelo://app?vid=384348ca-f122-438b-a1b9-b8b8efdd7d64","ios":"levelo://app?vid=384348ca-f122-438b-a1b9-b8b8efdd7d64"},"vehicle_type_id":"4","last_reported":1726495716,"current_range_meters":14800,"station_id":"ce4bhgh2rcd13ifvqfb0","pricing_plan_id":"cebpf4jnsgd1na2vs0mg"},{"bike_id":"13ec4916-f0ea-4897-8afc-596425b42c42","system_id":"levelo_inurba_marseille","lat":43.23197,"lon":5.35557,"is_reserved":false,"is_disabled":false,"rental_uris":{"android":"levelo://app?vid=13ec4916-f0ea-4897-8afc-596425b42c42","ios":"levelo://app?vid=13ec4916-f0ea-4897-8afc-596425b42c42"},"vehicle_type_id":"4","last_reported":1726495716,"current_range_meters":16000,"station_id":"ce4bhu92rcd13ifvqi70","pricing_plan_id":"cebpf4jnsgd1na2vs0mg"},{"bike_id":"7576f7b2-4e36-40c0-b7ca-cce609bfe98b","system_id":"levelo_inurba_marseille","lat":43.30138,"lon":5.38764,"is_reserved":false,"is_disabled":false,"rental_uris":{"android":"levelo://app?vid=7576f7b2-4e36-40c0-b7ca-cce609bfe98b","ios":"levelo://app?vid=7576f7b2-4e36-40c0-b7ca-cce609bfe98b"},"vehicle_type_id":"4","last_reported":1726495716,"current_range_meters":8400,"station_id":"ce4bghh2rcd13ifvqb60","pricing_plan_id":"cebpf4jnsgd1na2vs0mg"},{"bike_id":"76c2ad49-6301-48ff-bc82-807c296aea33","system_id":"levelo_inurba_marseille","lat":43.33025,"lon":5.39045,"is_reserved":false,"is_disabled":false,"rental_uris":{"android":"levelo://app?vid=76c2ad49-6301-48ff-bc82-807c296aea33","ios":"levelo://app?vid=76c2ad49-6301-48ff-bc82-807c296aea33"},"vehicle_type_id":"4","last_reported":1726495716,"current_range_meters":4400,"station_id":"ce4bhr92rcd13ifvqhrg","pricing_plan_id":"cebpf4jnsgd1na2vs0mg"},{"bike_id":"bf881f84-1ceb-4933-928f-0e749e329d22","system_id":"levelo_inurba_marseille","lat":43.24084,"lon":5.37744,"is_reserved":false,"is_disabled":false,"rental_uris":{"android":"levelo://app?vid=bf881f84-1ceb-4933-928f-0e749e329d22","ios":"levelo://app?vid=bf881f84-1ceb-4933-928f-0e749e329d22"},"vehicle_type_id":"4","last_reported":1726495716,"current_range_meters":27200,"station_id":"ce4bhnp2rcd13ifvqgvg","pricing_plan_id":"cebpf4jnsgd1na2vs0mg"},{"bike_id":"bfa447db-59ee-46ab-9d3a-20ff2d96d1c3","system_id":"levelo_inurba_marseille","lat":43.28619,"lon":5.35102,"is_reserved":false,"is_disabled":false,"rental_uris":{"android":"levelo://app?vid=bfa447db-59ee-46ab-9d3a-20ff2d96d1c3","ios":"levelo://app?vid=bfa447db-59ee-46ab-9d3a-20ff2d96d1c3"},"vehicle_type_id":"4","last_reported":1726495716,"current_range_meters":37600,"station_id":"ce4bhch2rcd13ifvqeug","pricing_plan_id":"cebpf4jnsgd1na2vs0mg"},{"bike_id":"a5d028f3-e5ca-44bc-9f9e-717afb6f4795","system_id":"levelo_inurba_marseille","lat":43.33027,"lon":5.39035,"is_reserved":false,"is_disabled":false,"rental_uris":{"android":"levelo://app?vid=a5d028f3-e5ca-44bc-9f9e-717afb6f4795","ios":"levelo://app?vid=a5d028f3-e5ca-44bc-9f9e-717afb6f4795"},"vehicle_type_id":"4","last_reported":1726495716,"current_range_meters":10800,"station_id":"ce4bhr92rcd13ifvqhrg","pricing_plan_id":"cebpf4jnsgd1na2vs0mg"},{"bike_id":"57b87d5c-c819-4ef6-97b0-dab8fd8c8e55","system_id":"levelo_inurba_marseille","lat":43.24083,"lon":5.37746,"is_reserved":false,"is_disabled":false,"rental_uris":{"android":"levelo://app?vid=57b87d5c-c819-4ef6-97b0-dab8fd8c8e55","ios":"levelo://app?vid=57b87d5c-c819-4ef6-97b0-dab8fd8c8e55"},"vehicle_type_id":"4","last_reported":1726495716,"current_range_meters":36400,"station_id":"ce4bhnp2rcd13ifvqgvg","pricing_plan_id":"cebpf4jnsgd1na2vs0mg"},{"bike_id":"2a38eb51-46d8-4ee7-9a8a-fc59ed1b1add","system_id":"levelo_inurba_marseille","lat":43.24812,"lon":5.37458,"is_reserved":false,"is_disabled":false,"rental_uris":{"android":"levelo://app?vid=2a38eb51-46d8-4ee7-9a8a-fc59ed1b1add","ios":"levelo://app?vid=2a38eb51-46d8-4ee7-9a8a-fc59ed1b1add"},"vehicle_type_id":"4","last_reported":1726495716,"current_range_meters":30000,"station_id":"ce4bhgh2rcd13ifvqfb0","pricing_plan_id":"cebpf4jnsgd1na2vs0mg"},{"bike_id":"74c67d55-8a5f-40c9-8066-d68354718f8c","system_id":"levelo_inurba_marseille","lat":43.23196,"lon":5.35547,"is_reserved":false,"is_disabled":false,"rental_uris":{"android":"levelo://app?vid=74c67d55-8a5f-40c9-8066-d68354718f8c","ios":"levelo://app?vid=74c67d55-8a5f-40c9-8066-d68354718f8c"},"vehicle_type_id":"4","last_reported":1726495716,"current_range_meters":12400,"station_id":"ce4bhu92rcd13ifvqi70","pricing_plan_id":"cebpf4jnsgd1na2vs0mg"},{"bike_id":"f05d84f1-db17-4921-a353-e31d06725ec7","system_id":"levelo_inurba_marseille","lat":43.28282,"lon":5.35072,"is_reserved":false,"is_disabled":false,"rental_uris":{"android":"levelo://app?vid=f05d84f1-db17-4921-a353-e31d06725ec7","ios":"levelo://app?vid=f05d84f1-db17-4921-a353-e31d06725ec7"},"vehicle_type_id":"4","last_reported":1726495716,"current_range_meters":32000,"station_id":"ce4bhbp2rcd13ifvqerg","pricing_plan_id":"cebpf4jnsgd1na2vs0mg"},{"bike_id":"86587c55-4d4f-48e0-b067-7df60bf7560d","system_id":"levelo_inurba_marseille","lat":43.253967,"lon":5.376192,"is_reserved":false,"is_disabled":false,"rental_uris":{"android":"levelo://app?vid=86587c55-4d4f-48e0-b067-7df60bf7560d","ios":"levelo://app?vid=86587c55-4d4f-48e0-b067-7df60bf7560d"},"vehicle_type_id":"4","last_reported":1726495716,"current_range_meters":24000,"station_id":"ce4bhgh2rcd13ifvqfa0","pricing_plan_id":"cebpf4jnsgd1na2vs0mg"},{"bike_id":"f4fc0b87-1f02-4805-98ca-f2187fca17da","system_id":"levelo_inurba_marseille","lat":43.28269,"lon":5.35077,"is_reserved":false,"is_disabled":false,"rental_uris":{"android":"levelo://app?vid=f4fc0b87-1f02-4805-98ca-f2187fca17da","ios":"levelo://app?vid=f4fc0b87-1f02-4805-98ca-f2187fca17da"},"vehicle_type_id":"4","last_reported":1726495716,"current_range_meters":33200,"station_id":"ce4bhbp2rcd13ifvqerg","pricing_plan_id":"cebpf4jnsgd1na2vs0mg"},{"bike_id":"997cf817-130c-4d08-9a2e-aea2dac63382","system_id":"levelo_inurba_marseille","lat":43.29562,"lon":5.42285,"is_reserved":false,"is_disabled":false,"rental_uris":{"android":"levelo://app?vid=997cf817-130c-4d08-9a2e-aea2dac63382","ios":"levelo://app?vid=997cf817-130c-4d08-9a2e-aea2dac63382"},"vehicle_type_id":"4","last_reported":1726495716,"current_range_meters":37600,"station_id":"ce4bhph2rcd13ifvqhdg","pricing_plan_id":"cebpf4jnsgd1na2vs0mg"},{"bike_id":"b2513b12-f3d2-49d4-8edb-8eae653a35c1","system_id":"levelo_inurba_marseille","lat":43.29047,"lon":5.37568,"is_reserved":false,"is_disabled":false,"rental_uris":{"android":"levelo://app?vid=b2513b12-f3d2-49d4-8edb-8eae653a35c1","ios":"levelo://app?vid=b2513b12-f3d2-49d4-8edb-8eae653a35c1"},"vehicle_type_id":"4","last_reported":1726495716,"current_range_meters":27600,"station_id":"ce4bh692rcd13ifvqe90","pricing_plan_id":"cebpf4jnsgd1na2vs0mg"},{"bike_id":"de926bf7-1295-43c0-8367-941524b67039","system_id":"levelo_inurba_marseille","lat":43.25002,"lon":5.38927,"is_reserved":false,"is_disabled":false,"rental_uris":{"android":"levelo://app?vid=de926bf7-1295-43c0-8367-941524b67039","ios":"levelo://app?vid=de926bf7-1295-43c0-8367-941524b67039"},"vehicle_type_id":"4","last_reported":1726495716,"current_range_meters":39200,"station_id":"ce4bhgp2rcd13ifvqfd0","pricing_plan_id":"cebpf4jnsgd1na2vs0mg"},{"bike_id":"590b5b5b-8972-4c8d-a777-c642349563ff","system_id":"levelo_inurba_marseille","lat":43.28936,"lon":5.363848,"is_reserved":false,"is_disabled":false,"rental_uris":{"android":"levelo://app?vid=590b5b5b-8972-4c8d-a777-c642349563ff","ios":"levelo://app?vid=590b5b5b-8972-4c8d-a777-c642349563ff"},"vehicle_type_id":"4","last_reported":1726495716,"current_range_meters":24000,"station_id":"ce4bhc92rcd13ifvqetg","pricing_plan_id":"cebpf4jnsgd1na2vs0mg"},{"bike_id":"1ed8a0b3-92f7-4363-9b00-2fe39ac7defb","system_id":"levelo_inurba_marseille","lat":43.2985,"lon":5.36278,"is_reserved":false,"is_disabled":false,"rental_uris":{"android":"levelo://app?vid=1ed8a0b3-92f7-4363-9b00-2fe39ac7defb","ios":"levelo://app?vid=1ed8a0b3-92f7-4363-9b00-2fe39ac7defb"},"vehicle_type_id":"4","last_reported":1726495716,"current_range_meters":38800,"station_id":"ce4bgpp2rcd13ifvqc3g","pricing_plan_id":"cebpf4jnsgd1na2vs0mg"},{"bike_id":"ab3c48ba-0c28-42ca-8161-20180a1f8c49","system_id":"levelo_inurba_marseille","lat":43.315343,"lon":5.380304,"is_reserved":false,"is_disabled":false,"rental_uris":{"android":"levelo://app?vid=ab3c48ba-0c28-42ca-8161-20180a1f8c49","ios":"levelo://app?vid=ab3c48ba-0c28-42ca-8161-20180a1f8c49"},"vehicle_type_id":"4","last_reported":1726495716,"current_range_meters":30000,"station_id":"ce4bhsp2rcd13ifvqi50","pricing_plan_id":"cebpf4jnsgd1na2vs0mg"},{"bike_id":"0aa75f12-c942-44d1-92b7-0b3badf3bf13","system_id":"levelo_inurba_marseille","lat":43.27496,"lon":5.42446,"is_reserved":false,"is_disabled":false,"rental_uris":{"android":"levelo://app?vid=0aa75f12-c942-44d1-92b7-0b3badf3bf13","ios":"levelo://app?vid=0aa75f12-c942-44d1-92b7-0b3badf3bf13"},"vehicle_type_id":"4","last_reported":1726495716,"current_range_meters":29600,"station_id":"ce4bhn92rcd13ifvqgrg","pricing_plan_id":"cebpf4jnsgd1na2vs0mg"},{"bike_id":"e75bdf37-6017-4dd9-8183-f2edc970ca06","system_id":"levelo_inurba_marseille","lat":43.23198,"lon":5.35548,"is_reserved":false,"is_disabled":false,"rental_uris":{"android":"levelo://app?vid=e75bdf37-6017-4dd9-8183-f2edc970ca06","ios":"levelo://app?vid=e75bdf37-6017-4dd9-8183-f2edc970ca06"},"vehicle_type_id":"4","last_reported":1726495716,"current_range_meters":35600,"station_id":"ce4bhu92rcd13ifvqi70","pricing_plan_id":"cebpf4jnsgd1na2vs0mg"},{"bike_id":"2a9c29c6-284a-4deb-b3aa-7b7f03f595d2","system_id":"levelo_inurba_marseille","lat":43.286987,"lon":5.399777,"is_reserved":false,"is_disabled":false,"rental_uris":{"android":"levelo://app?vid=2a9c29c6-284a-4deb-b3aa-7b7f03f595d2","ios":"levelo://app?vid=2a9c29c6-284a-4deb-b3aa-7b7f03f595d2"},"vehicle_type_id":"4","last_reported":1726495716,"current_range_meters":13600,"station_id":"ce4bho92rcd13ifvqh3g","pricing_plan_id":"cebpf4jnsgd1na2vs0mg"},{"bike_id":"4eba395b-e010-4e1b-a88a-83b8dede48ec","system_id":"levelo_inurba_marseille","lat":43.289351,"lon":5.387299,"is_reserved":false,"is_disabled":false,"rental_uris":{"android":"levelo://app?vid=4eba395b-e010-4e1b-a88a-83b8dede48ec","ios":"levelo://app?vid=4eba395b-e010-4e1b-a88a-83b8dede48ec"},"vehicle_type_id":"4","last_reported":1726495716,"current_range_meters":22000,"station_id":"ce4bh4p2rcd13ifvqe0g","pricing_plan_id":"cebpf4jnsgd1na2vs0mg"},{"bike_id":"67dbd771-1799-428e-bc59-b52a3269cffc","system_id":"levelo_inurba_marseille","lat":43.27317,"lon":5.39077,"is_reserved":false,"is_disabled":false,"rental_uris":{"android":"levelo://app?vid=67dbd771-1799-428e-bc59-b52a3269cffc","ios":"levelo://app?vid=67dbd771-1799-428e-bc59-b52a3269cffc"},"vehicle_type_id":"4","last_reported":1726495716,"current_range_meters":30800,"station_id":"ce4bhgp2rcd13ifvqfe0","pricing_plan_id":"cebpf4jnsgd1na2vs0mg"},{"bike_id":"9048a29f-7cdc-4a5e-a17e-9ff87866c707","system_id":"levelo_inurba_marseille","lat":43.27326,"lon":5.39087,"is_reserved":false,"is_disabled":false,"rental_uris":{"android":"levelo://app?vid=9048a29f-7cdc-4a5e-a17e-9ff87866c707","ios":"levelo://app?vid=9048a29f-7cdc-4a5e-a17e-9ff87866c707"},"vehicle_type_id":"4","last_reported":1726495716,"current_range_meters":25200,"station_id":"ce4bhgp2rcd13ifvqfe0","pricing_plan_id":"cebpf4jnsgd1na2vs0mg"},{"bike_id":"41fe8f20-7381-4c9a-b173-a67a2621ec12","system_id":"levelo_inurba_marseille","lat":43.29014,"lon":5.35614,"is_reserved":false,"is_disabled":false,"rental_uris":{"android":"levelo://app?vid=41fe8f20-7381-4c9a-b173-a67a2621ec12","ios":"levelo://app?vid=41fe8f20-7381-4c9a-b173-a67a2621ec12"},"vehicle_type_id":"4","last_reported":1726495716,"current_range_meters":15200,"station_id":"ce4bhb92rcd13ifvqen0","pricing_plan_id":"cebpf4jnsgd1na2vs0mg"},{"bike_id":"b7e577f2-e522-472d-8d4c-d26793fc34ca","system_id":"levelo_inurba_marseille","lat":43.28084,"lon":5.39663,"is_reserved":false,"is_disabled":false,"rental_uris":{"android":"levelo://app?vid=b7e577f2-e522-472d-8d4c-d26793fc34ca","ios":"levelo://app?vid=b7e577f2-e522-472d-8d4c-d26793fc34ca"},"vehicle_type_id":"4","last_reported":1726495716,"current_range_meters":38800,"station_id":"ce4bho12rcd13ifvqh2g","pricing_plan_id":"cebpf4jnsgd1na2vs0mg"},{"bike_id":"e1fb1cfc-254e-44bd-afd4-23d853838bb3","system_id":"levelo_inurba_marseille","lat":43.27425,"lon":5.39406,"is_reserved":false,"is_disabled":false,"rental_uris":{"android":"levelo://app?vid=e1fb1cfc-254e-44bd-afd4-23d853838bb3","ios":"levelo://app?vid=e1fb1cfc-254e-44bd-afd4-23d853838bb3"},"vehicle_type_id":"4","last_reported":1726495716,"current_range_meters":37600,"station_id":"ce4bhdp2rcd13ifvqf20","pricing_plan_id":"cebpf4jnsgd1na2vs0mg"},{"bike_id":"c836d192-3400-4909-8320-8b8512159f8b","system_id":"levelo_inurba_marseille","lat":43.30313,"lon":5.36897,"is_reserved":false,"is_disabled":false,"rental_uris":{"android":"levelo://app?vid=c836d192-3400-4909-8320-8b8512159f8b","ios":"levelo://app?vid=c836d192-3400-4909-8320-8b8512159f8b"},"vehicle_type_id":"4","last_reported":1726495716,"current_range_meters":38000,"station_id":"ce4bgqh2rcd13ifvqc5g","pricing_plan_id":"cebpf4jnsgd1na2vs0mg"},{"bike_id":"f7c57d30-a3d0-4c37-9d77-2b1cd577055a","system_id":"levelo_inurba_marseille","lat":43.282715,"lon":5.350663,"is_reserved":false,"is_disabled":false,"rental_uris":{"android":"levelo://app?vid=f7c57d30-a3d0-4c37-9d77-2b1cd577055a","ios":"levelo://app?vid=f7c57d30-a3d0-4c37-9d77-2b1cd577055a"},"vehicle_type_id":"4","last_reported":1726495716,"current_range_meters":30800,"station_id":"ce4bhbh2rcd13ifvqeo0","pricing_plan_id":"cebpf4jnsgd1na2vs0mg"},{"bike_id":"352cc108-92f7-4ac2-98c9-c4f7714f9f3f","system_id":"levelo_inurba_marseille","lat":43.25935,"lon":5.40902,"is_reserved":false,"is_disabled":false,"rental_uris":{"android":"levelo://app?vid=352cc108-92f7-4ac2-98c9-c4f7714f9f3f","ios":"levelo://app?vid=352cc108-92f7-4ac2-98c9-c4f7714f9f3f"},"vehicle_type_id":"4","last_reported":1726495716,"current_range_meters":32400,"station_id":"ce4bhm92rcd13ifvqglg","pricing_plan_id":"cebpf4jnsgd1na2vs0mg"},{"bike_id":"14cc5075-0765-4614-a51f-8637d35e9abc","system_id":"levelo_inurba_marseille","lat":43.26948,"lon":5.40246,"is_reserved":false,"is_disabled":false,"rental_uris":{"android":"levelo://app?vid=14cc5075-0765-4614-a51f-8637d35e9abc","ios":"levelo://app?vid=14cc5075-0765-4614-a51f-8637d35e9abc"},"vehicle_type_id":"4","last_reported":1726495716,"current_range_meters":24000,"station_id":"cjm6bp8fraef2m0cb0m0","pricing_plan_id":"cebpf4jnsgd1na2vs0mg"},{"bike_id":"a15e1f31-d96f-4b07-aa34-8319422bbf65","system_id":"levelo_inurba_marseille","lat":43.2997,"lon":5.38492,"is_reserved":false,"is_disabled":false,"rental_uris":{"android":"levelo://app?vid=a15e1f31-d96f-4b07-aa34-8319422bbf65","ios":"levelo://app?vid=a15e1f31-d96f-4b07-aa34-8319422bbf65"},"vehicle_type_id":"4","last_reported":1726495716,"current_range_meters":38400,"station_id":"ce4bgj92rcd13ifvqbd0","pricing_plan_id":"cebpf4jnsgd1na2vs0mg"},{"bike_id":"b9698a86-1ec3-4eed-ac6f-4fc5121a02f0","system_id":"levelo_inurba_marseille","lat":43.30551,"lon":5.36696,"is_reserved":false,"is_disabled":false,"rental_uris":{"android":"levelo://app?vid=b9698a86-1ec3-4eed-ac6f-4fc5121a02f0","ios":"levelo://app?vid=b9698a86-1ec3-4eed-ac6f-4fc5121a02f0"},"vehicle_type_id":"4","last_reported":1726495716,"current_range_meters":38800,"station_id":"ce4bgrp2rcd13ifvqc9g","pricing_plan_id":"cebpf4jnsgd1na2vs0mg"},{"bike_id":"261fc049-0193-45d8-a646-4c3e6b94e404","system_id":"levelo_inurba_marseille","lat":43.25589,"lon":5.38227,"is_reserved":false,"is_disabled":false,"rental_uris":{"android":"levelo://app?vid=261fc049-0193-45d8-a646-4c3e6b94e404","ios":"levelo://app?vid=261fc049-0193-45d8-a646-4c3e6b94e404"},"vehicle_type_id":"4","last_reported":1726495716,"current_range_meters":18800,"station_id":"ce4bhih2rcd13ifvqfs0","pricing_plan_id":"cebpf4jnsgd1na2vs0mg"},{"bike_id":"f409a27c-3291-4d9b-ac57-9e74e75d80d1","system_id":"levelo_inurba_marseille","lat":43.32366,"lon":5.38878,"is_reserved":false,"is_disabled":false,"rental_uris":{"android":"levelo://app?vid=f409a27c-3291-4d9b-ac57-9e74e75d80d1","ios":"levelo://app?vid=f409a27c-3291-4d9b-ac57-9e74e75d80d1"},"vehicle_type_id":"4","last_reported":1726495716,"current_range_meters":20000,"station_id":"ce4bhqp2rcd13ifvqhog","pricing_plan_id":"cebpf4jnsgd1na2vs0mg"},{"bike_id":"b08c0aed-2034-4f12-938c-8d88c1cd58a6","system_id":"levelo_inurba_marseille","lat":43.30879,"lon":5.39646,"is_reserved":false,"is_disabled":false,"rental_uris":{"android":"levelo://app?vid=b08c0aed-2034-4f12-938c-8d88c1cd58a6","ios":"levelo://app?vid=b08c0aed-2034-4f12-938c-8d88c1cd58a6"},"vehicle_type_id":"4","last_reported":1726495716,"current_range_meters":11600,"station_id":"ce4bh012rcd13ifvqcv0","pricing_plan_id":"cebpf4jnsgd1na2vs0mg"},{"bike_id":"2df8d0ae-c0c2-46ab-a7e6-8667f0ebd31e","system_id":"levelo_inurba_marseille","lat":43.26574,"lon":5.39001,"is_reserved":false,"is_disabled":false,"rental_uris":{"android":"levelo://app?vid=2df8d0ae-c0c2-46ab-a7e6-8667f0ebd31e","ios":"levelo://app?vid=2df8d0ae-c0c2-46ab-a7e6-8667f0ebd31e"},"vehicle_type_id":"4","last_reported":1726495716,"current_range_meters":36800,"station_id":"ce4bhe12rcd13ifvqf30","pricing_plan_id":"cebpf4jnsgd1na2vs0mg"},{"bike_id":"a7649358-7b1e-4e20-b463-599f4ff8067d","system_id":"levelo_inurba_marseille","lat":43.25011,"lon":5.38917,"is_reserved":false,"is_disabled":false,"rental_uris":{"android":"levelo://app?vid=a7649358-7b1e-4e20-b463-599f4ff8067d","ios":"levelo://app?vid=a7649358-7b1e-4e20-b463-599f4ff8067d"},"vehicle_type_id":"4","last_reported":1726495716,"current_range_meters":34000,"station_id":"ce4bhgp2rcd13ifvqfd0","pricing_plan_id":"cebpf4jnsgd1na2vs0mg"},{"bike_id":"94263f23-bc87-4cb7-89ca-3355f4678cea","system_id":"levelo_inurba_marseille","lat":43.29725,"lon":5.37689,"is_reserved":false,"is_disabled":false,"rental_uris":{"android":"levelo://app?vid=94263f23-bc87-4cb7-89ca-3355f4678cea","ios":"levelo://app?vid=94263f23-bc87-4cb7-89ca-3355f4678cea"},"vehicle_type_id":"4","last_reported":1726495716,"current_range_meters":24000,"station_id":"ce4bgkh2rcd13ifvqbl0","pricing_plan_id":"cebpf4jnsgd1na2vs0mg"},{"bike_id":"b0076467-af2c-4620-88b9-aa243dc895fc","system_id":"levelo_inurba_marseille","lat":43.29932,"lon":5.36535,"is_reserved":false,"is_disabled":false,"rental_uris":{"android":"levelo://app?vid=b0076467-af2c-4620-88b9-aa243dc895fc","ios":"levelo://app?vid=b0076467-af2c-4620-88b9-aa243dc895fc"},"vehicle_type_id":"4","last_reported":1726495716,"current_range_meters":27200,"station_id":"ce4bgm92rcd13ifvqbr0","pricing_plan_id":"cebpf4jnsgd1na2vs0mg"},{"bike_id":"b918754b-56d0-437b-8182-be9d6ff52d2a","system_id":"levelo_inurba_marseille","lat":43.28469,"lon":5.35887,"is_reserved":false,"is_disabled":false,"rental_uris":{"android":"levelo://app?vid=b918754b-56d0-437b-8182-be9d6ff52d2a","ios":"levelo://app?vid=b918754b-56d0-437b-8182-be9d6ff52d2a"},"vehicle_type_id":"4","last_reported":1726495716,"current_range_meters":4000,"station_id":"ce4bhah2rcd13ifvqei0","pricing_plan_id":"cebpf4jnsgd1na2vs0mg"},{"bike_id":"c7f93bf2-2b30-4c5c-aa72-447b3f4a28ea","system_id":"levelo_inurba_marseille","lat":43.29899,"lon":5.43658,"is_reserved":false,"is_disabled":false,"rental_uris":{"android":"levelo://app?vid=c7f93bf2-2b30-4c5c-aa72-447b3f4a28ea","ios":"levelo://app?vid=c7f93bf2-2b30-4c5c-aa72-447b3f4a28ea"},"vehicle_type_id":"4","last_reported":1726495716,"current_range_meters":15200,"station_id":"ce4bhpp2rcd13ifvqhfg","pricing_plan_id":"cebpf4jnsgd1na2vs0mg"},{"bike_id":"c41b795b-234f-4f97-a583-26ad466b0e47","system_id":"levelo_inurba_marseille","lat":43.310602,"lon":5.424273,"is_reserved":false,"is_disabled":false,"rental_uris":{"android":"levelo://app?vid=c41b795b-234f-4f97-a583-26ad466b0e47","ios":"levelo://app?vid=c41b795b-234f-4f97-a583-26ad466b0e47"},"vehicle_type_id":"4","last_reported":1726495716,"current_range_meters":25200,"station_id":"ce4bhp92rcd13ifvqhag","pricing_plan_id":"cebpf4jnsgd1na2vs0mg"},{"bike_id":"0587dac1-d433-4fde-ac82-5f95d0df58bb","system_id":"levelo_inurba_marseille","lat":43.28414,"lon":5.34982,"is_reserved":false,"is_disabled":false,"rental_uris":{"android":"levelo://app?vid=0587dac1-d433-4fde-ac82-5f95d0df58bb","ios":"levelo://app?vid=0587dac1-d433-4fde-ac82-5f95d0df58bb"},"vehicle_type_id":"4","last_reported":1726495716,"current_range_meters":30400,"station_id":"ce4bhbh2rcd13ifvqepg","pricing_plan_id":"cebpf4jnsgd1na2vs0mg"},{"bike_id":"1bf1b9e2-eb6f-4206-9dd4-ba751e0b3fb5","system_id":"levelo_inurba_marseille","lat":43.28625,"lon":5.35106,"is_reserved":false,"is_disabled":false,"rental_uris":{"android":"levelo://app?vid=1bf1b9e2-eb6f-4206-9dd4-ba751e0b3fb5","ios":"levelo://app?vid=1bf1b9e2-eb6f-4206-9dd4-ba751e0b3fb5"},"vehicle_type_id":"4","last_reported":1726495716,"current_range_meters":16800,"station_id":"ce4bhch2rcd13ifvqeug","pricing_plan_id":"cebpf4jnsgd1na2vs0mg"},{"bike_id":"26db0265-0a91-4c66-8aa8-67a94f7eef0d","system_id":"levelo_inurba_marseille","lat":43.2694,"lon":5.40055,"is_reserved":false,"is_disabled":false,"rental_uris":{"android":"levelo://app?vid=26db0265-0a91-4c66-8aa8-67a94f7eef0d","ios":"levelo://app?vid=26db0265-0a91-4c66-8aa8-67a94f7eef0d"},"vehicle_type_id":"4","last_reported":1726495716,"current_range_meters":3600,"station_id":"","pricing_plan_id":"cebpf4jnsgd1na2vs0mg"},{"bike_id":"49b20a4a-88ba-4e27-8c12-a5c427e7dfa4","system_id":"levelo_inurba_marseille","lat":43.27174,"lon":5.40986,"is_reserved":false,"is_disabled":false,"rental_uris":{"android":"levelo://app?vid=49b20a4a-88ba-4e27-8c12-a5c427e7dfa4","ios":"levelo://app?vid=49b20a4a-88ba-4e27-8c12-a5c427e7dfa4"},"vehicle_type_id":"4","last_reported":1726495716,"current_range_meters":32400,"station_id":"ce4bhl12rcd13ifvqgf0","pricing_plan_id":"cebpf4jnsgd1na2vs0mg"},{"bike_id":"a7365753-b37e-4c2d-9c8c-ef8d8551277e","system_id":"levelo_inurba_marseille","lat":43.302461,"lon":5.400811,"is_reserved":false,"is_disabled":false,"rental_uris":{"android":"levelo://app?vid=a7365753-b37e-4c2d-9c8c-ef8d8551277e","ios":"levelo://app?vid=a7365753-b37e-4c2d-9c8c-ef8d8551277e"},"vehicle_type_id":"4","last_reported":1726495716,"current_range_meters":38800,"station_id":"ce4bgvh2rcd13ifvqcs0","pricing_plan_id":"cebpf4jnsgd1na2vs0mg"},{"bike_id":"f11e7ff0-02f4-4dde-acd0-55834ffc2064","system_id":"levelo_inurba_marseille","lat":43.25731,"lon":5.41106,"is_reserved":false,"is_disabled":false,"rental_uris":{"android":"levelo://app?vid=f11e7ff0-02f4-4dde-acd0-55834ffc2064","ios":"levelo://app?vid=f11e7ff0-02f4-4dde-acd0-55834ffc2064"},"vehicle_type_id":"4","last_reported":1726495716,"current_range_meters":18800,"station_id":"ce4bhkp2rcd13ifvqgd0","pricing_plan_id":"cebpf4jnsgd1na2vs0mg"},{"bike_id":"a7fa51d3-05cf-432c-a862-0fbf43aaf945","system_id":"levelo_inurba_marseille","lat":43.2721,"lon":5.39181,"is_reserved":false,"is_disabled":false,"rental_uris":{"android":"levelo://app?vid=a7fa51d3-05cf-432c-a862-0fbf43aaf945","ios":"levelo://app?vid=a7fa51d3-05cf-432c-a862-0fbf43aaf945"},"vehicle_type_id":"4","last_reported":1726495716,"current_range_meters":19200,"station_id":"ce4bhhp2rcd13ifvqfm0","pricing_plan_id":"cebpf4jnsgd1na2vs0mg"},{"bike_id":"52b9eebc-b7db-421e-b196-46301bed711a","system_id":"levelo_inurba_marseille","lat":43.284119,"lon":5.349792,"is_reserved":false,"is_disabled":false,"rental_uris":{"android":"levelo://app?vid=52b9eebc-b7db-421e-b196-46301bed711a","ios":"levelo://app?vid=52b9eebc-b7db-421e-b196-46301bed711a"},"vehicle_type_id":"4","last_reported":1726495716,"current_range_meters":22400,"station_id":"ce4bhbh2rcd13ifvqepg","pricing_plan_id":"cebpf4jnsgd1na2vs0mg"},{"bike_id":"309c51a6-dc88-4a59-a6d9-a8a9cfc51a1b","system_id":"levelo_inurba_marseille","lat":43.24549,"lon":5.39521,"is_reserved":false,"is_disabled":false,"rental_uris":{"android":"levelo://app?vid=309c51a6-dc88-4a59-a6d9-a8a9cfc51a1b","ios":"levelo://app?vid=309c51a6-dc88-4a59-a6d9-a8a9cfc51a1b"},"vehicle_type_id":"4","last_reported":1726495716,"current_range_meters":30400,"station_id":"ce4bhlp2rcd13ifvqgjg","pricing_plan_id":"cebpf4jnsgd1na2vs0mg"},{"bike_id":"7e34d840-6365-4a94-9c21-26783ae1d2df","system_id":"levelo_inurba_marseille","lat":43.29592,"lon":5.3822,"is_reserved":false,"is_disabled":false,"rental_uris":{"android":"levelo://app?vid=7e34d840-6365-4a94-9c21-26783ae1d2df","ios":"levelo://app?vid=7e34d840-6365-4a94-9c21-26783ae1d2df"},"vehicle_type_id":"4","last_reported":1726495716,"current_range_meters":30800,"station_id":"","pricing_plan_id":"cebpf4jnsgd1na2vs0mg"},{"bike_id":"4cab56f9-570c-4bb0-b5fe-c3a5b434a44f","system_id":"levelo_inurba_marseille","lat":43.26213,"lon":5.37439,"is_reserved":false,"is_disabled":false,"rental_uris":{"android":"levelo://app?vid=4cab56f9-570c-4bb0-b5fe-c3a5b434a44f","ios":"levelo://app?vid=4cab56f9-570c-4bb0-b5fe-c3a5b434a44f"},"vehicle_type_id":"4","last_reported":1726495716,"current_range_meters":38800,"station_id":"ce4bhgp2rcd13ifvqfc0","pricing_plan_id":"cebpf4jnsgd1na2vs0mg"},{"bike_id":"4153cc51-d4e8-4e56-a8fd-c1a04ecf3fa7","system_id":"levelo_inurba_marseille","lat":43.29963,"lon":5.41322,"is_reserved":false,"is_disabled":false,"rental_uris":{"android":"levelo://app?vid=4153cc51-d4e8-4e56-a8fd-c1a04ecf3fa7","ios":"levelo://app?vid=4153cc51-d4e8-4e56-a8fd-c1a04ecf3fa7"},"vehicle_type_id":"4","last_reported":1726495716,"current_range_meters":34800,"station_id":"ce4bhp12rcd13ifvqh9g","pricing_plan_id":"cebpf4jnsgd1na2vs0mg"},{"bike_id":"704bd4ff-c6ae-4fcf-a83a-81202466c629","system_id":"levelo_inurba_marseille","lat":43.29966,"lon":5.41318,"is_reserved":false,"is_disabled":false,"rental_uris":{"android":"levelo://app?vid=704bd4ff-c6ae-4fcf-a83a-81202466c629","ios":"levelo://app?vid=704bd4ff-c6ae-4fcf-a83a-81202466c629"},"vehicle_type_id":"4","last_reported":1726495716,"current_range_meters":19200,"station_id":"ce4bhp12rcd13ifvqh9g","pricing_plan_id":"cebpf4jnsgd1na2vs0mg"},{"bike_id":"8cb592d9-f82f-4171-894f-8d7ffa6525e5","system_id":"levelo_inurba_marseille","lat":43.23204,"lon":5.35547,"is_reserved":false,"is_disabled":false,"rental_uris":{"android":"levelo://app?vid=8cb592d9-f82f-4171-894f-8d7ffa6525e5","ios":"levelo://app?vid=8cb592d9-f82f-4171-894f-8d7ffa6525e5"},"vehicle_type_id":"4","last_reported":1726495716,"current_range_meters":24800,"station_id":"ce4bhu92rcd13ifvqi70","pricing_plan_id":"cebpf4jnsgd1na2vs0mg"},{"bike_id":"79752fd1-c487-410d-a206-6bc206b43c4f","system_id":"levelo_inurba_marseille","lat":43.30141,"lon":5.37413,"is_reserved":false,"is_disabled":false,"rental_uris":{"android":"levelo://app?vid=79752fd1-c487-410d-a206-6bc206b43c4f","ios":"levelo://app?vid=79752fd1-c487-410d-a206-6bc206b43c4f"},"vehicle_type_id":"4","last_reported":1726495716,"current_range_meters":38400,"station_id":"ce4bgs92rcd13ifvqcc0","pricing_plan_id":"cebpf4jnsgd1na2vs0mg"},{"bike_id":"e8577ff1-e7d5-4bd8-af09-a820a63b8b50","system_id":"levelo_inurba_marseille","lat":43.33032,"lon":5.39038,"is_reserved":false,"is_disabled":false,"rental_uris":{"android":"levelo://app?vid=e8577ff1-e7d5-4bd8-af09-a820a63b8b50","ios":"levelo://app?vid=e8577ff1-e7d5-4bd8-af09-a820a63b8b50"},"vehicle_type_id":"4","last_reported":1726495716,"current_range_meters":19600,"station_id":"ce4bhr92rcd13ifvqhrg","pricing_plan_id":"cebpf4jnsgd1na2vs0mg"},{"bike_id":"0a2202f3-1c9e-4177-9c2f-1fd6fa63547e","system_id":"levelo_inurba_marseille","lat":43.28263,"lon":5.35064,"is_reserved":false,"is_disabled":false,"rental_uris":{"android":"levelo://app?vid=0a2202f3-1c9e-4177-9c2f-1fd6fa63547e","ios":"levelo://app?vid=0a2202f3-1c9e-4177-9c2f-1fd6fa63547e"},"vehicle_type_id":"4","last_reported":1726495716,"current_range_meters":6400,"station_id":"ce4bhbp2rcd13ifvqerg","pricing_plan_id":"cebpf4jnsgd1na2vs0mg"},{"bike_id":"a3cbeda3-a54b-4643-9479-9c61af96558c","system_id":"levelo_inurba_marseille","lat":43.231943,"lon":5.355529,"is_reserved":false,"is_disabled":false,"rental_uris":{"android":"levelo://app?vid=a3cbeda3-a54b-4643-9479-9c61af96558c","ios":"levelo://app?vid=a3cbeda3-a54b-4643-9479-9c61af96558c"},"vehicle_type_id":"4","last_reported":1726495716,"current_range_meters":22400,"station_id":"ce4bhu92rcd13ifvqi70","pricing_plan_id":"cebpf4jnsgd1na2vs0mg"},{"bike_id":"23af3e5f-c4dd-433e-9385-25485af76f31","system_id":"levelo_inurba_marseille","lat":43.32491,"lon":5.3656,"is_reserved":false,"is_disabled":false,"rental_uris":{"android":"levelo://app?vid=23af3e5f-c4dd-433e-9385-25485af76f31","ios":"levelo://app?vid=23af3e5f-c4dd-433e-9385-25485af76f31"},"vehicle_type_id":"4","last_reported":1726495716,"current_range_meters":18000,"station_id":"ce4bhs12rcd13ifvqhvg","pricing_plan_id":"cebpf4jnsgd1na2vs0mg"},{"bike_id":"6fcb0470-5b2d-4c1d-8d35-ccfb07e79374","system_id":"levelo_inurba_marseille","lat":43.31333,"lon":5.39691,"is_reserved":false,"is_disabled":false,"rental_uris":{"android":"levelo://app?vid=6fcb0470-5b2d-4c1d-8d35-ccfb07e79374","ios":"levelo://app?vid=6fcb0470-5b2d-4c1d-8d35-ccfb07e79374"},"vehicle_type_id":"4","last_reported":1726495716,"current_range_meters":30400,"station_id":"ce4bgvp2rcd13ifvqcu0","pricing_plan_id":"cebpf4jnsgd1na2vs0mg"},{"bike_id":"9c25d7f9-3117-44f1-acec-713cdafffebf","system_id":"levelo_inurba_marseille","lat":43.34151,"lon":5.40915,"is_reserved":false,"is_disabled":false,"rental_uris":{"android":"levelo://app?vid=9c25d7f9-3117-44f1-acec-713cdafffebf","ios":"levelo://app?vid=9c25d7f9-3117-44f1-acec-713cdafffebf"},"vehicle_type_id":"4","last_reported":1726495716,"current_range_meters":32800,"station_id":"ce4bhqh2rcd13ifvqhlg","pricing_plan_id":"cebpf4jnsgd1na2vs0mg"},{"bike_id":"3e3ff3a6-6614-480d-b38b-a276f7604b95","system_id":"levelo_inurba_marseille","lat":43.30788,"lon":5.37655,"is_reserved":false,"is_disabled":false,"rental_uris":{"android":"levelo://app?vid=3e3ff3a6-6614-480d-b38b-a276f7604b95","ios":"levelo://app?vid=3e3ff3a6-6614-480d-b38b-a276f7604b95"},"vehicle_type_id":"4","last_reported":1726495716,"current_range_meters":38800,"station_id":"ce4bgv92rcd13ifvqcq0","pricing_plan_id":"cebpf4jnsgd1na2vs0mg"},{"bike_id":"b1db6496-7d7b-4acc-a88c-e5406d38e100","system_id":"levelo_inurba_marseille","lat":43.23198,"lon":5.35544,"is_reserved":false,"is_disabled":false,"rental_uris":{"android":"levelo://app?vid=b1db6496-7d7b-4acc-a88c-e5406d38e100","ios":"levelo://app?vid=b1db6496-7d7b-4acc-a88c-e5406d38e100"},"vehicle_type_id":"4","last_reported":1726495716,"current_range_meters":31200,"station_id":"ce4bhu92rcd13ifvqi70","pricing_plan_id":"cebpf4jnsgd1na2vs0mg"},{"bike_id":"ee721f16-71d0-49c8-9da4-858f78b55bcb","system_id":"levelo_inurba_marseille","lat":43.25944,"lon":5.40894,"is_reserved":false,"is_disabled":false,"rental_uris":{"android":"levelo://app?vid=ee721f16-71d0-49c8-9da4-858f78b55bcb","ios":"levelo://app?vid=ee721f16-71d0-49c8-9da4-858f78b55bcb"},"vehicle_type_id":"4","last_reported":1726495716,"current_range_meters":20000,"station_id":"ce4bhm92rcd13ifvqglg","pricing_plan_id":"cebpf4jnsgd1na2vs0mg"},{"bike_id":"fd818998-55c6-405e-89e6-7ea7503d9649","system_id":"levelo_inurba_marseille","lat":43.29628,"lon":5.40588,"is_reserved":false,"is_disabled":false,"rental_uris":{"android":"levelo://app?vid=fd818998-55c6-405e-89e6-7ea7503d9649","ios":"levelo://app?vid=fd818998-55c6-405e-89e6-7ea7503d9649"},"vehicle_type_id":"4","last_reported":1726495716,"current_range_meters":25200,"station_id":"ce4bh0h2rcd13ifvqd60","pricing_plan_id":"cebpf4jnsgd1na2vs0mg"},{"bike_id":"b4f69695-9d2b-41fd-8a43-ddb1e673cf01","system_id":"levelo_inurba_marseille","lat":43.27886,"lon":5.40733,"is_reserved":false,"is_disabled":false,"rental_uris":{"android":"levelo://app?vid=b4f69695-9d2b-41fd-8a43-ddb1e673cf01","ios":"levelo://app?vid=b4f69695-9d2b-41fd-8a43-ddb1e673cf01"},"vehicle_type_id":"4","last_reported":1726495716,"current_range_meters":30400,"station_id":"ce4bhnh2rcd13ifvqgtg","pricing_plan_id":"cebpf4jnsgd1na2vs0mg"},{"bike_id":"673c1b5e-9443-4dc4-bb54-52e29ea0abc7","system_id":"levelo_inurba_marseille","lat":43.23149,"lon":5.43721,"is_reserved":false,"is_disabled":false,"rental_uris":{"android":"levelo://app?vid=673c1b5e-9443-4dc4-bb54-52e29ea0abc7","ios":"levelo://app?vid=673c1b5e-9443-4dc4-bb54-52e29ea0abc7"},"vehicle_type_id":"4","last_reported":1726495716,"current_range_meters":32000,"station_id":"ce4bhmp2rcd13ifvqgog","pricing_plan_id":"cebpf4jnsgd1na2vs0mg"},{"bike_id":"5cf4c2f1-f092-4550-b8cf-369099ebc3bc","system_id":"levelo_inurba_marseille","lat":43.24564,"lon":5.41549,"is_reserved":false,"is_disabled":false,"rental_uris":{"android":"levelo://app?vid=5cf4c2f1-f092-4550-b8cf-369099ebc3bc","ios":"levelo://app?vid=5cf4c2f1-f092-4550-b8cf-369099ebc3bc"},"vehicle_type_id":"4","last_reported":1726495716,"current_range_meters":8400,"station_id":"ce4bhlh2rcd13ifvqgig","pricing_plan_id":"cebpf4jnsgd1na2vs0mg"},{"bike_id":"4721e0a5-8c0a-4c61-91fb-10c3ba183135","system_id":"levelo_inurba_marseille","lat":43.25009,"lon":5.38923,"is_reserved":false,"is_disabled":false,"rental_uris":{"android":"levelo://app?vid=4721e0a5-8c0a-4c61-91fb-10c3ba183135","ios":"levelo://app?vid=4721e0a5-8c0a-4c61-91fb-10c3ba183135"},"vehicle_type_id":"4","last_reported":1726495716,"current_range_meters":8800,"station_id":"ce4bhgp2rcd13ifvqfd0","pricing_plan_id":"cebpf4jnsgd1na2vs0mg"},{"bike_id":"cee6c614-0070-47b5-af92-02b115abd659","system_id":"levelo_inurba_marseille","lat":43.30547,"lon":5.36528,"is_reserved":false,"is_disabled":false,"rental_uris":{"android":"levelo://app?vid=cee6c614-0070-47b5-af92-02b115abd659","ios":"levelo://app?vid=cee6c614-0070-47b5-af92-02b115abd659"},"vehicle_type_id":"4","last_reported":1726495716,"current_range_meters":27200,"station_id":"ce4bgs12rcd13ifvqcag","pricing_plan_id":"cebpf4jnsgd1na2vs0mg"},{"bike_id":"223bcd1f-bde5-46f7-ab5f-e5751f9d998e","system_id":"levelo_inurba_marseille","lat":43.3055,"lon":5.36696,"is_reserved":false,"is_disabled":false,"rental_uris":{"android":"levelo://app?vid=223bcd1f-bde5-46f7-ab5f-e5751f9d998e","ios":"levelo://app?vid=223bcd1f-bde5-46f7-ab5f-e5751f9d998e"},"vehicle_type_id":"4","last_reported":1726495716,"current_range_meters":20800,"station_id":"ce4bgrp2rcd13ifvqc9g","pricing_plan_id":"cebpf4jnsgd1na2vs0mg"},{"bike_id":"b08950ba-02a0-46d4-8c68-863f0b3477e8","system_id":"levelo_inurba_marseille","lat":43.32485,"lon":5.36555,"is_reserved":false,"is_disabled":false,"rental_uris":{"android":"levelo://app?vid=b08950ba-02a0-46d4-8c68-863f0b3477e8","ios":"levelo://app?vid=b08950ba-02a0-46d4-8c68-863f0b3477e8"},"vehicle_type_id":"4","last_reported":1726495716,"current_range_meters":36800,"station_id":"ce4bhs12rcd13ifvqhvg","pricing_plan_id":"cebpf4jnsgd1na2vs0mg"},{"bike_id":"ddbeee60-e548-424a-b7b8-d57af5d577a2","system_id":"levelo_inurba_marseille","lat":43.29898,"lon":5.39748,"is_reserved":false,"is_disabled":false,"rental_uris":{"android":"levelo://app?vid=ddbeee60-e548-424a-b7b8-d57af5d577a2","ios":"levelo://app?vid=ddbeee60-e548-424a-b7b8-d57af5d577a2"},"vehicle_type_id":"4","last_reported":1726495716,"current_range_meters":38800,"station_id":"ce4bh0h2rcd13ifvqd50","pricing_plan_id":"cebpf4jnsgd1na2vs0mg"},{"bike_id":"b645ac77-0d58-4fa9-8ad3-947af8bdb1d9","system_id":"levelo_inurba_marseille","lat":43.29899,"lon":5.43659,"is_reserved":false,"is_disabled":false,"rental_uris":{"android":"levelo://app?vid=b645ac77-0d58-4fa9-8ad3-947af8bdb1d9","ios":"levelo://app?vid=b645ac77-0d58-4fa9-8ad3-947af8bdb1d9"},"vehicle_type_id":"4","last_reported":1726495716,"current_range_meters":28400,"station_id":"ce4bhpp2rcd13ifvqhfg","pricing_plan_id":"cebpf4jnsgd1na2vs0mg"},{"bike_id":"03515e55-0de8-4f6d-953a-abbf71a9cce4","system_id":"levelo_inurba_marseille","lat":43.24083,"lon":5.37755,"is_reserved":false,"is_disabled":false,"rental_uris":{"android":"levelo://app?vid=03515e55-0de8-4f6d-953a-abbf71a9cce4","ios":"levelo://app?vid=03515e55-0de8-4f6d-953a-abbf71a9cce4"},"vehicle_type_id":"4","last_reported":1726495716,"current_range_meters":10800,"station_id":"ce4bhnp2rcd13ifvqgvg","pricing_plan_id":"cebpf4jnsgd1na2vs0mg"},{"bike_id":"68c70869-82ea-4ed7-9394-09f2e93a0ddb","system_id":"levelo_inurba_marseille","lat":43.273682,"lon":5.362448,"is_reserved":false,"is_disabled":false,"rental_uris":{"android":"levelo://app?vid=68c70869-82ea-4ed7-9394-09f2e93a0ddb","ios":"levelo://app?vid=68c70869-82ea-4ed7-9394-09f2e93a0ddb"},"vehicle_type_id":"4","last_reported":1726495716,"current_range_meters":10800,"station_id":"ce4bhbh2rcd13ifvqeo0","pricing_plan_id":"cebpf4jnsgd1na2vs0mg"},{"bike_id":"c0f0c15c-2206-44e7-88e0-7bdf3065fa66","system_id":"levelo_inurba_marseille","lat":43.29983,"lon":5.37164,"is_reserved":false,"is_disabled":false,"rental_uris":{"android":"levelo://app?vid=c0f0c15c-2206-44e7-88e0-7bdf3065fa66","ios":"levelo://app?vid=c0f0c15c-2206-44e7-88e0-7bdf3065fa66"},"vehicle_type_id":"4","last_reported":1726495716,"current_range_meters":32400,"station_id":"ce4bgr92rcd13ifvqc7g","pricing_plan_id":"cebpf4jnsgd1na2vs0mg"},{"bike_id":"7abc2a25-404a-4f70-a7c0-c89315b5c4bc","system_id":"levelo_inurba_marseille","lat":43.30997,"lon":5.40052,"is_reserved":false,"is_disabled":false,"rental_uris":{"android":"levelo://app?vid=7abc2a25-404a-4f70-a7c0-c89315b5c4bc","ios":"levelo://app?vid=7abc2a25-404a-4f70-a7c0-c89315b5c4bc"},"vehicle_type_id":"4","last_reported":1726495716,"current_range_meters":26800,"station_id":"","pricing_plan_id":"cebpf4jnsgd1na2vs0mg"},{"bike_id":"a5306699-aa7b-4204-b727-7976ba1e747b","system_id":"levelo_inurba_marseille","lat":43.25936,"lon":5.40902,"is_reserved":false,"is_disabled":false,"rental_uris":{"android":"levelo://app?vid=a5306699-aa7b-4204-b727-7976ba1e747b","ios":"levelo://app?vid=a5306699-aa7b-4204-b727-7976ba1e747b"},"vehicle_type_id":"4","last_reported":1726495716,"current_range_meters":35200,"station_id":"ce4bhm92rcd13ifvqglg","pricing_plan_id":"cebpf4jnsgd1na2vs0mg"},{"bike_id":"677498c9-746b-4650-9a8e-2c7479635944","system_id":"levelo_inurba_marseille","lat":43.33022,"lon":5.3905,"is_reserved":false,"is_disabled":false,"rental_uris":{"android":"levelo://app?vid=677498c9-746b-4650-9a8e-2c7479635944","ios":"levelo://app?vid=677498c9-746b-4650-9a8e-2c7479635944"},"vehicle_type_id":"4","last_reported":1726495716,"current_range_meters":27200,"station_id":"ce4bhr92rcd13ifvqhrg","pricing_plan_id":"cebpf4jnsgd1na2vs0mg"},{"bike_id":"4054ec18-6eb9-47fe-8d35-44d9b58f9e73","system_id":"levelo_inurba_marseille","lat":43.337444,"lon":5.374475,"is_reserved":false,"is_disabled":false,"rental_uris":{"android":"levelo://app?vid=4054ec18-6eb9-47fe-8d35-44d9b58f9e73","ios":"levelo://app?vid=4054ec18-6eb9-47fe-8d35-44d9b58f9e73"},"vehicle_type_id":"4","last_reported":1726495716,"current_range_meters":26000,"station_id":"ce4bgvp2rcd13ifvqct0","pricing_plan_id":"cebpf4jnsgd1na2vs0mg"},{"bike_id":"71432464-259e-4330-b9e8-77414fb82bb7","system_id":"levelo_inurba_marseille","lat":43.29283,"lon":5.36842,"is_reserved":false,"is_disabled":false,"rental_uris":{"android":"levelo://app?vid=71432464-259e-4330-b9e8-77414fb82bb7","ios":"levelo://app?vid=71432464-259e-4330-b9e8-77414fb82bb7"},"vehicle_type_id":"4","last_reported":1726495716,"current_range_meters":18800,"station_id":"ce4bhbp2rcd13ifvqesg","pricing_plan_id":"cebpf4jnsgd1na2vs0mg"},{"bike_id":"38894744-911e-42cb-9034-5737d38051af","system_id":"levelo_inurba_marseille","lat":43.28275,"lon":5.35063,"is_reserved":false,"is_disabled":false,"rental_uris":{"android":"levelo://app?vid=38894744-911e-42cb-9034-5737d38051af","ios":"levelo://app?vid=38894744-911e-42cb-9034-5737d38051af"},"vehicle_type_id":"4","last_reported":1726495716,"current_range_meters":30800,"station_id":"ce4bhbp2rcd13ifvqerg","pricing_plan_id":"cebpf4jnsgd1na2vs0mg"},{"bike_id":"a09b8657-3298-4390-8dd5-f622909fc3da","system_id":"levelo_inurba_marseille","lat":43.31069,"lon":5.40089,"is_reserved":false,"is_disabled":false,"rental_uris":{"android":"levelo://app?vid=a09b8657-3298-4390-8dd5-f622909fc3da","ios":"levelo://app?vid=a09b8657-3298-4390-8dd5-f622909fc3da"},"vehicle_type_id":"4","last_reported":1726495716,"current_range_meters":38800,"station_id":"","pricing_plan_id":"cebpf4jnsgd1na2vs0mg"},{"bike_id":"072a6d16-7683-4506-9dc1-09d443e8f562","system_id":"levelo_inurba_marseille","lat":43.31371,"lon":5.36691,"is_reserved":false,"is_disabled":false,"rental_uris":{"android":"levelo://app?vid=072a6d16-7683-4506-9dc1-09d443e8f562","ios":"levelo://app?vid=072a6d16-7683-4506-9dc1-09d443e8f562"},"vehicle_type_id":"4","last_reported":1726495716,"current_range_meters":26000,"station_id":"ce4bgr92rcd13ifvqc6g","pricing_plan_id":"cebpf4jnsgd1na2vs0mg"},{"bike_id":"7e84a3ad-b6e2-47cb-a879-414e01b71399","system_id":"levelo_inurba_marseille","lat":43.27493,"lon":5.42441,"is_reserved":false,"is_disabled":false,"rental_uris":{"android":"levelo://app?vid=7e84a3ad-b6e2-47cb-a879-414e01b71399","ios":"levelo://app?vid=7e84a3ad-b6e2-47cb-a879-414e01b71399"},"vehicle_type_id":"4","last_reported":1726495716,"current_range_meters":36800,"station_id":"ce4bhn92rcd13ifvqgrg","pricing_plan_id":"cebpf4jnsgd1na2vs0mg"},{"bike_id":"08e5db66-49dd-4f1b-8574-a5680e50db71","system_id":"levelo_inurba_marseille","lat":43.29288,"lon":5.40114,"is_reserved":false,"is_disabled":false,"rental_uris":{"android":"levelo://app?vid=08e5db66-49dd-4f1b-8574-a5680e50db71","ios":"levelo://app?vid=08e5db66-49dd-4f1b-8574-a5680e50db71"},"vehicle_type_id":"4","last_reported":1726495716,"current_range_meters":27600,"station_id":"ce4bh312rcd13ifvqdk0","pricing_plan_id":"cebpf4jnsgd1na2vs0mg"},{"bike_id":"cf8bb925-2f34-4ac0-90a2-a3cae3790e74","system_id":"levelo_inurba_marseille","lat":43.26571,"lon":5.38991,"is_reserved":false,"is_disabled":false,"rental_uris":{"android":"levelo://app?vid=cf8bb925-2f34-4ac0-90a2-a3cae3790e74","ios":"levelo://app?vid=cf8bb925-2f34-4ac0-90a2-a3cae3790e74"},"vehicle_type_id":"4","last_reported":1726495716,"current_range_meters":24400,"station_id":"ce4bhe12rcd13ifvqf30","pricing_plan_id":"cebpf4jnsgd1na2vs0mg"},{"bike_id":"2ffeea75-1be2-40b1-ac1a-db3e41dddac3","system_id":"levelo_inurba_marseille","lat":43.26573,"lon":5.39002,"is_reserved":false,"is_disabled":false,"rental_uris":{"android":"levelo://app?vid=2ffeea75-1be2-40b1-ac1a-db3e41dddac3","ios":"levelo://app?vid=2ffeea75-1be2-40b1-ac1a-db3e41dddac3"},"vehicle_type_id":"4","last_reported":1726495716,"current_range_meters":9600,"station_id":"ce4bhe12rcd13ifvqf30","pricing_plan_id":"cebpf4jnsgd1na2vs0mg"},{"bike_id":"a17977b7-f5c8-458d-b64e-0e9931d6064c","system_id":"levelo_inurba_marseille","lat":43.25,"lon":5.38929,"is_reserved":false,"is_disabled":false,"rental_uris":{"android":"levelo://app?vid=a17977b7-f5c8-458d-b64e-0e9931d6064c","ios":"levelo://app?vid=a17977b7-f5c8-458d-b64e-0e9931d6064c"},"vehicle_type_id":"4","last_reported":1726495716,"current_range_meters":27600,"station_id":"ce4bhgp2rcd13ifvqfd0","pricing_plan_id":"cebpf4jnsgd1na2vs0mg"},{"bike_id":"dd2d821c-8b24-431f-a2ec-388c48a5aca8","system_id":"levelo_inurba_marseille","lat":43.24668,"lon":5.38168,"is_reserved":false,"is_disabled":false,"rental_uris":{"android":"levelo://app?vid=dd2d821c-8b24-431f-a2ec-388c48a5aca8","ios":"levelo://app?vid=dd2d821c-8b24-431f-a2ec-388c48a5aca8"},"vehicle_type_id":"4","last_reported":1726495716,"current_range_meters":38800,"station_id":"ce4bhih2rcd13ifvqfr0","pricing_plan_id":"cebpf4jnsgd1na2vs0mg"},{"bike_id":"fb100016-9583-4377-8e52-788ca009955c","system_id":"levelo_inurba_marseille","lat":43.29197,"lon":5.39338,"is_reserved":false,"is_disabled":false,"rental_uris":{"android":"levelo://app?vid=fb100016-9583-4377-8e52-788ca009955c","ios":"levelo://app?vid=fb100016-9583-4377-8e52-788ca009955c"},"vehicle_type_id":"4","last_reported":1726495716,"current_range_meters":10800,"station_id":"ce4bh192rcd13ifvqdd0","pricing_plan_id":"cebpf4jnsgd1na2vs0mg"},{"bike_id":"613500e7-734e-4c90-b180-b530482da983","system_id":"levelo_inurba_marseille","lat":43.27812,"lon":5.40659,"is_reserved":false,"is_disabled":false,"rental_uris":{"android":"levelo://app?vid=613500e7-734e-4c90-b180-b530482da983","ios":"levelo://app?vid=613500e7-734e-4c90-b180-b530482da983"},"vehicle_type_id":"4","last_reported":1726495716,"current_range_meters":27200,"station_id":"ce4bhnh2rcd13ifvqgtg","pricing_plan_id":"cebpf4jnsgd1na2vs0mg"},{"bike_id":"2b17c26f-d867-445e-b68a-2c6f8b249fd3","system_id":"levelo_inurba_marseille","lat":43.25123,"lon":5.40317,"is_reserved":false,"is_disabled":false,"rental_uris":{"android":"levelo://app?vid=2b17c26f-d867-445e-b68a-2c6f8b249fd3","ios":"levelo://app?vid=2b17c26f-d867-445e-b68a-2c6f8b249fd3"},"vehicle_type_id":"4","last_reported":1726495716,"current_range_meters":38800,"station_id":"ce4bhlh2rcd13ifvqgig","pricing_plan_id":"cebpf4jnsgd1na2vs0mg"},{"bike_id":"ec691235-7c9d-4902-ab19-70c119fc7803","system_id":"levelo_inurba_marseille","lat":43.310888,"lon":5.383733,"is_reserved":false,"is_disabled":false,"rental_uris":{"android":"levelo://app?vid=ec691235-7c9d-4902-ab19-70c119fc7803","ios":"levelo://app?vid=ec691235-7c9d-4902-ab19-70c119fc7803"},"vehicle_type_id":"4","last_reported":1726495716,"current_range_meters":3200,"station_id":"ce4bgv92rcd13ifvqcr0","pricing_plan_id":"cebpf4jnsgd1na2vs0mg"},{"bike_id":"34d94a26-ec93-4e8d-a6c6-3d558ea2d4e4","system_id":"levelo_inurba_marseille","lat":43.25941,"lon":5.40902,"is_reserved":false,"is_disabled":false,"rental_uris":{"android":"levelo://app?vid=34d94a26-ec93-4e8d-a6c6-3d558ea2d4e4","ios":"levelo://app?vid=34d94a26-ec93-4e8d-a6c6-3d558ea2d4e4"},"vehicle_type_id":"4","last_reported":1726495716,"current_range_meters":16800,"station_id":"ce4bhm92rcd13ifvqglg","pricing_plan_id":"cebpf4jnsgd1na2vs0mg"},{"bike_id":"4b2ba85a-29ad-44c1-a157-f219369e26f8","system_id":"levelo_inurba_marseille","lat":43.27497,"lon":5.4245,"is_reserved":false,"is_disabled":false,"rental_uris":{"android":"levelo://app?vid=4b2ba85a-29ad-44c1-a157-f219369e26f8","ios":"levelo://app?vid=4b2ba85a-29ad-44c1-a157-f219369e26f8"},"vehicle_type_id":"4","last_reported":1726495716,"current_range_meters":35600,"station_id":"ce4bhn92rcd13ifvqgrg","pricing_plan_id":"cebpf4jnsgd1na2vs0mg"},{"bike_id":"99684f50-b398-427b-a4e9-7ca0a0382c79","system_id":"levelo_inurba_marseille","lat":43.23202,"lon":5.35543,"is_reserved":false,"is_disabled":false,"rental_uris":{"android":"levelo://app?vid=99684f50-b398-427b-a4e9-7ca0a0382c79","ios":"levelo://app?vid=99684f50-b398-427b-a4e9-7ca0a0382c79"},"vehicle_type_id":"4","last_reported":1726495716,"current_range_meters":39200,"station_id":"ce4bhu92rcd13ifvqi70","pricing_plan_id":"cebpf4jnsgd1na2vs0mg"},{"bike_id":"a539c83d-af40-4a5b-bc2b-6b1214ec88bd","system_id":"levelo_inurba_marseille","lat":43.30321,"lon":5.36893,"is_reserved":false,"is_disabled":false,"rental_uris":{"android":"levelo://app?vid=a539c83d-af40-4a5b-bc2b-6b1214ec88bd","ios":"levelo://app?vid=a539c83d-af40-4a5b-bc2b-6b1214ec88bd"},"vehicle_type_id":"4","last_reported":1726495716,"current_range_meters":38800,"station_id":"ce4bgqh2rcd13ifvqc5g","pricing_plan_id":"cebpf4jnsgd1na2vs0mg"},{"bike_id":"1713f163-d2b1-4bf3-a721-d65fea6d9acf","system_id":"levelo_inurba_marseille","lat":43.3176,"lon":5.39014,"is_reserved":false,"is_disabled":false,"rental_uris":{"android":"levelo://app?vid=1713f163-d2b1-4bf3-a721-d65fea6d9acf","ios":"levelo://app?vid=1713f163-d2b1-4bf3-a721-d65fea6d9acf"},"vehicle_type_id":"4","last_reported":1726495716,"current_range_meters":32400,"station_id":"ce4bhqp2rcd13ifvqhng","pricing_plan_id":"cebpf4jnsgd1na2vs0mg"},{"bike_id":"4ba01153-3392-40e0-8d38-f742b42315d8","system_id":"levelo_inurba_marseille","lat":43.32294,"lon":5.38266,"is_reserved":false,"is_disabled":false,"rental_uris":{"android":"levelo://app?vid=4ba01153-3392-40e0-8d38-f742b42315d8","ios":"levelo://app?vid=4ba01153-3392-40e0-8d38-f742b42315d8"},"vehicle_type_id":"4","last_reported":1726495716,"current_range_meters":32000,"station_id":"ce4bhr12rcd13ifvqhqg","pricing_plan_id":"cebpf4jnsgd1na2vs0mg"},{"bike_id":"153327f8-291e-41af-94a9-e023e9cf839b","system_id":"levelo_inurba_marseille","lat":43.27943,"lon":5.41046,"is_reserved":false,"is_disabled":false,"rental_uris":{"android":"levelo://app?vid=153327f8-291e-41af-94a9-e023e9cf839b","ios":"levelo://app?vid=153327f8-291e-41af-94a9-e023e9cf839b"},"vehicle_type_id":"4","last_reported":1726495716,"current_range_meters":2000,"station_id":"ce4bhnp2rcd13ifvqh0g","pricing_plan_id":"cebpf4jnsgd1na2vs0mg"},{"bike_id":"0f808d02-6df2-4fb7-b534-a56f3c6d6147","system_id":"levelo_inurba_marseille","lat":43.32492,"lon":5.36551,"is_reserved":false,"is_disabled":false,"rental_uris":{"android":"levelo://app?vid=0f808d02-6df2-4fb7-b534-a56f3c6d6147","ios":"levelo://app?vid=0f808d02-6df2-4fb7-b534-a56f3c6d6147"},"vehicle_type_id":"4","last_reported":1726495716,"current_range_meters":30400,"station_id":"ce4bhs12rcd13ifvqhvg","pricing_plan_id":"cebpf4jnsgd1na2vs0mg"},{"bike_id":"bad6ad61-6fd6-4be5-b03e-1205a81ed59c","system_id":"levelo_inurba_marseille","lat":43.317291,"lon":5.424002,"is_reserved":false,"is_disabled":false,"rental_uris":{"android":"levelo://app?vid=bad6ad61-6fd6-4be5-b03e-1205a81ed59c","ios":"levelo://app?vid=bad6ad61-6fd6-4be5-b03e-1205a81ed59c"},"vehicle_type_id":"4","last_reported":1726495716,"current_range_meters":37600,"station_id":"ce4bhp92rcd13ifvqhbg","pricing_plan_id":"cebpf4jnsgd1na2vs0mg"},{"bike_id":"5586d3e5-948d-4b1b-bc04-513461f1fd5f","system_id":"levelo_inurba_marseille","lat":43.31503,"lon":5.37312,"is_reserved":false,"is_disabled":false,"rental_uris":{"android":"levelo://app?vid=5586d3e5-948d-4b1b-bc04-513461f1fd5f","ios":"levelo://app?vid=5586d3e5-948d-4b1b-bc04-513461f1fd5f"},"vehicle_type_id":"4","last_reported":1726495716,"current_range_meters":38800,"station_id":"ce4bgt12rcd13ifvqcd0","pricing_plan_id":"cebpf4jnsgd1na2vs0mg"},{"bike_id":"3008286b-0550-41ff-83c6-48c6cd11dca4","system_id":"levelo_inurba_marseille","lat":43.3095,"lon":5.3903,"is_reserved":false,"is_disabled":false,"rental_uris":{"android":"levelo://app?vid=3008286b-0550-41ff-83c6-48c6cd11dca4","ios":"levelo://app?vid=3008286b-0550-41ff-83c6-48c6cd11dca4"},"vehicle_type_id":"4","last_reported":1726495716,"current_range_meters":19200,"station_id":"ce4bgup2rcd13ifvqco0","pricing_plan_id":"cebpf4jnsgd1na2vs0mg"},{"bike_id":"5ec0c13d-c14b-4b07-a5ff-73f62012dcc9","system_id":"levelo_inurba_marseille","lat":43.32059,"lon":5.41554,"is_reserved":false,"is_disabled":false,"rental_uris":{"android":"levelo://app?vid=5ec0c13d-c14b-4b07-a5ff-73f62012dcc9","ios":"levelo://app?vid=5ec0c13d-c14b-4b07-a5ff-73f62012dcc9"},"vehicle_type_id":"4","last_reported":1726495716,"current_range_meters":18800,"station_id":"ce4bhq92rcd13ifvqhkg","pricing_plan_id":"cebpf4jnsgd1na2vs0mg"},{"bike_id":"359b5707-1739-4116-a3d5-b68f7a45fa10","system_id":"levelo_inurba_marseille","lat":43.291773,"lon":5.37209,"is_reserved":false,"is_disabled":false,"rental_uris":{"android":"levelo://app?vid=359b5707-1739-4116-a3d5-b68f7a45fa10","ios":"levelo://app?vid=359b5707-1739-4116-a3d5-b68f7a45fa10"},"vehicle_type_id":"4","last_reported":1726495716,"current_range_meters":10800,"station_id":"ce4bha92rcd13ifvqeh0","pricing_plan_id":"cebpf4jnsgd1na2vs0mg"},{"bike_id":"785783be-7bfb-4269-b660-c5c3fd28c889","system_id":"levelo_inurba_marseille","lat":43.27989,"lon":5.41652,"is_reserved":false,"is_disabled":false,"rental_uris":{"android":"levelo://app?vid=785783be-7bfb-4269-b660-c5c3fd28c889","ios":"levelo://app?vid=785783be-7bfb-4269-b660-c5c3fd28c889"},"vehicle_type_id":"4","last_reported":1726495716,"current_range_meters":28800,"station_id":"ce4bho12rcd13ifvqh1g","pricing_plan_id":"cebpf4jnsgd1na2vs0mg"},{"bike_id":"6c6ee1d0-c2fb-4b3f-9bb2-6d146d89fd43","system_id":"levelo_inurba_marseille","lat":43.2417,"lon":5.3639,"is_reserved":false,"is_disabled":false,"rental_uris":{"android":"levelo://app?vid=6c6ee1d0-c2fb-4b3f-9bb2-6d146d89fd43","ios":"levelo://app?vid=6c6ee1d0-c2fb-4b3f-9bb2-6d146d89fd43"},"vehicle_type_id":"4","last_reported":1726495716,"current_range_meters":3600,"station_id":"cpo36qri1sfpv3e86is0","pricing_plan_id":"cebpf4jnsgd1na2vs0mg"},{"bike_id":"b04b6ce9-50fd-4aaa-a676-ad31cf0a36a5","system_id":"levelo_inurba_marseille","lat":43.30583,"lon":5.37243,"is_reserved":false,"is_disabled":false,"rental_uris":{"android":"levelo://app?vid=b04b6ce9-50fd-4aaa-a676-ad31cf0a36a5","ios":"levelo://app?vid=b04b6ce9-50fd-4aaa-a676-ad31cf0a36a5"},"vehicle_type_id":"4","last_reported":1726495716,"current_range_meters":37600,"station_id":"ce4bgqh2rcd13ifvqc4g","pricing_plan_id":"cebpf4jnsgd1na2vs0mg"},{"bike_id":"9b63ba48-49dc-41b6-8742-1ca59afdc1a0","system_id":"levelo_inurba_marseille","lat":43.31531,"lon":5.37244,"is_reserved":false,"is_disabled":false,"rental_uris":{"android":"levelo://app?vid=9b63ba48-49dc-41b6-8742-1ca59afdc1a0","ios":"levelo://app?vid=9b63ba48-49dc-41b6-8742-1ca59afdc1a0"},"vehicle_type_id":"4","last_reported":1726495716,"current_range_meters":8800,"station_id":"","pricing_plan_id":"cebpf4jnsgd1na2vs0mg"},{"bike_id":"c43d8329-860b-4792-8ce2-387084c42c33","system_id":"levelo_inurba_marseille","lat":43.32493,"lon":5.36562,"is_reserved":false,"is_disabled":false,"rental_uris":{"android":"levelo://app?vid=c43d8329-860b-4792-8ce2-387084c42c33","ios":"levelo://app?vid=c43d8329-860b-4792-8ce2-387084c42c33"},"vehicle_type_id":"4","last_reported":1726495716,"current_range_meters":24000,"station_id":"ce4bhs12rcd13ifvqhvg","pricing_plan_id":"cebpf4jnsgd1na2vs0mg"},{"bike_id":"fc2d852d-5ca7-4877-84f9-d4c6bc2a645c","system_id":"levelo_inurba_marseille","lat":43.23971,"lon":5.36633,"is_reserved":false,"is_disabled":false,"rental_uris":{"android":"levelo://app?vid=fc2d852d-5ca7-4877-84f9-d4c6bc2a645c","ios":"levelo://app?vid=fc2d852d-5ca7-4877-84f9-d4c6bc2a645c"},"vehicle_type_id":"4","last_reported":1726495716,"current_range_meters":24400,"station_id":"ce4bhi12rcd13ifvqfp0","pricing_plan_id":"cebpf4jnsgd1na2vs0mg"},{"bike_id":"78ef158b-f472-48c4-a6d2-2dd6b3bb182b","system_id":"levelo_inurba_marseille","lat":43.28422,"lon":5.34992,"is_reserved":false,"is_disabled":false,"rental_uris":{"android":"levelo://app?vid=78ef158b-f472-48c4-a6d2-2dd6b3bb182b","ios":"levelo://app?vid=78ef158b-f472-48c4-a6d2-2dd6b3bb182b"},"vehicle_type_id":"4","last_reported":1726495716,"current_range_meters":20000,"station_id":"ce4bhbh2rcd13ifvqepg","pricing_plan_id":"cebpf4jnsgd1na2vs0mg"},{"bike_id":"e6c21cbb-a64c-440b-ad39-4a66fc0a1536","system_id":"levelo_inurba_marseille","lat":43.23068,"lon":5.35484,"is_reserved":false,"is_disabled":false,"rental_uris":{"android":"levelo://app?vid=e6c21cbb-a64c-440b-ad39-4a66fc0a1536","ios":"levelo://app?vid=e6c21cbb-a64c-440b-ad39-4a66fc0a1536"},"vehicle_type_id":"4","last_reported":1726495716,"current_range_meters":10000,"station_id":"cpo3342slgdg3j2ifvpg","pricing_plan_id":"cebpf4jnsgd1na2vs0mg"},{"bike_id":"25e305b7-c7fb-459a-bfdc-467ce5803429","system_id":"levelo_inurba_marseille","lat":43.2654,"lon":5.40316,"is_reserved":false,"is_disabled":false,"rental_uris":{"android":"levelo://app?vid=25e305b7-c7fb-459a-bfdc-467ce5803429","ios":"levelo://app?vid=25e305b7-c7fb-459a-bfdc-467ce5803429"},"vehicle_type_id":"4","last_reported":1726495716,"current_range_meters":36400,"station_id":"","pricing_plan_id":"cebpf4jnsgd1na2vs0mg"},{"bike_id":"1323acc4-1b26-41f6-bf7b-4bbc4ab15b31","system_id":"levelo_inurba_marseille","lat":43.26783,"lon":5.39409,"is_reserved":false,"is_disabled":false,"rental_uris":{"android":"levelo://app?vid=1323acc4-1b26-41f6-bf7b-4bbc4ab15b31","ios":"levelo://app?vid=1323acc4-1b26-41f6-bf7b-4bbc4ab15b31"},"vehicle_type_id":"4","last_reported":1726495716,"current_range_meters":14000,"station_id":"ce4bhh12rcd13ifvqfg0","pricing_plan_id":"cebpf4jnsgd1na2vs0mg"},{"bike_id":"ce703cb4-aa06-4ca3-9d0d-9d78109ec482","system_id":"levelo_inurba_marseille","lat":43.31242,"lon":5.36821,"is_reserved":false,"is_disabled":false,"rental_uris":{"android":"levelo://app?vid=ce703cb4-aa06-4ca3-9d0d-9d78109ec482","ios":"levelo://app?vid=ce703cb4-aa06-4ca3-9d0d-9d78109ec482"},"vehicle_type_id":"4","last_reported":1726495716,"current_range_meters":27600,"station_id":"ce4bgl92rcd13ifvqbq0","pricing_plan_id":"cebpf4jnsgd1na2vs0mg"},{"bike_id":"6ad2fe94-195b-4d58-9ac6-d3a9675a4c80","system_id":"levelo_inurba_marseille","lat":43.23069,"lon":5.3549,"is_reserved":false,"is_disabled":false,"rental_uris":{"android":"levelo://app?vid=6ad2fe94-195b-4d58-9ac6-d3a9675a4c80","ios":"levelo://app?vid=6ad2fe94-195b-4d58-9ac6-d3a9675a4c80"},"vehicle_type_id":"4","last_reported":1726495716,"current_range_meters":16400,"station_id":"cpo3342slgdg3j2ifvpg","pricing_plan_id":"cebpf4jnsgd1na2vs0mg"},{"bike_id":"6dd17a2f-59bb-4453-859d-2c09ab795824","system_id":"levelo_inurba_marseille","lat":43.33027,"lon":5.39038,"is_reserved":false,"is_disabled":false,"rental_uris":{"android":"levelo://app?vid=6dd17a2f-59bb-4453-859d-2c09ab795824","ios":"levelo://app?vid=6dd17a2f-59bb-4453-859d-2c09ab795824"},"vehicle_type_id":"4","last_reported":1726495716,"current_range_meters":36800,"station_id":"ce4bhr92rcd13ifvqhrg","pricing_plan_id":"cebpf4jnsgd1na2vs0mg"},{"bike_id":"2a129b36-46a3-4c6d-bee6-af6631ad7aff","system_id":"levelo_inurba_marseille","lat":43.30357,"lon":5.41869,"is_reserved":false,"is_disabled":false,"rental_uris":{"android":"levelo://app?vid=2a129b36-46a3-4c6d-bee6-af6631ad7aff","ios":"levelo://app?vid=2a129b36-46a3-4c6d-bee6-af6631ad7aff"},"vehicle_type_id":"4","last_reported":1726495716,"current_range_meters":22400,"station_id":"ce4bhop2rcd13ifvqh7g","pricing_plan_id":"cebpf4jnsgd1na2vs0mg"},{"bike_id":"fc2e8ef3-f33f-4409-a28c-80d42488b868","system_id":"levelo_inurba_marseille","lat":43.24811,"lon":5.37451,"is_reserved":false,"is_disabled":false,"rental_uris":{"android":"levelo://app?vid=fc2e8ef3-f33f-4409-a28c-80d42488b868","ios":"levelo://app?vid=fc2e8ef3-f33f-4409-a28c-80d42488b868"},"vehicle_type_id":"4","last_reported":1726495716,"current_range_meters":16800,"station_id":"ce4bhgh2rcd13ifvqfb0","pricing_plan_id":"cebpf4jnsgd1na2vs0mg"},{"bike_id":"31107505-eaac-4333-9ad5-121fa987ccaa","system_id":"levelo_inurba_marseille","lat":43.28447,"lon":5.392,"is_reserved":false,"is_disabled":false,"rental_uris":{"android":"levelo://app?vid=31107505-eaac-4333-9ad5-121fa987ccaa","ios":"levelo://app?vid=31107505-eaac-4333-9ad5-121fa987ccaa"},"vehicle_type_id":"4","last_reported":1726495716,"current_range_meters":36400,"station_id":"ce4bhoh2rcd13ifvqh5g","pricing_plan_id":"cebpf4jnsgd1na2vs0mg"},{"bike_id":"ee96fd0b-2e8e-46a7-9a56-213f944d9ccc","system_id":"levelo_inurba_marseille","lat":43.32493,"lon":5.36554,"is_reserved":false,"is_disabled":false,"rental_uris":{"android":"levelo://app?vid=ee96fd0b-2e8e-46a7-9a56-213f944d9ccc","ios":"levelo://app?vid=ee96fd0b-2e8e-46a7-9a56-213f944d9ccc"},"vehicle_type_id":"4","last_reported":1726495716,"current_range_meters":32000,"station_id":"ce4bhs12rcd13ifvqhvg","pricing_plan_id":"cebpf4jnsgd1na2vs0mg"},{"bike_id":"1144f570-f9b4-45ed-9f6f-77fd7ad6e2c0","system_id":"levelo_inurba_marseille","lat":43.29965,"lon":5.4132,"is_reserved":false,"is_disabled":false,"rental_uris":{"android":"levelo://app?vid=1144f570-f9b4-45ed-9f6f-77fd7ad6e2c0","ios":"levelo://app?vid=1144f570-f9b4-45ed-9f6f-77fd7ad6e2c0"},"vehicle_type_id":"4","last_reported":1726495716,"current_range_meters":22400,"station_id":"ce4bhp12rcd13ifvqh9g","pricing_plan_id":"cebpf4jnsgd1na2vs0mg"},{"bike_id":"6bd0a479-b34e-447d-b811-b090bcf271e1","system_id":"levelo_inurba_marseille","lat":43.29295,"lon":5.40129,"is_reserved":false,"is_disabled":false,"rental_uris":{"android":"levelo://app?vid=6bd0a479-b34e-447d-b811-b090bcf271e1","ios":"levelo://app?vid=6bd0a479-b34e-447d-b811-b090bcf271e1"},"vehicle_type_id":"4","last_reported":1726495716,"current_range_meters":24800,"station_id":"ce4bh312rcd13ifvqdk0","pricing_plan_id":"cebpf4jnsgd1na2vs0mg"},{"bike_id":"22f26e89-4ccd-47af-bb30-5f037502847c","system_id":"levelo_inurba_marseille","lat":43.23187,"lon":5.39985,"is_reserved":false,"is_disabled":false,"rental_uris":{"android":"levelo://app?vid=22f26e89-4ccd-47af-bb30-5f037502847c","ios":"levelo://app?vid=22f26e89-4ccd-47af-bb30-5f037502847c"},"vehicle_type_id":"4","last_reported":1726495716,"current_range_meters":32800,"station_id":"ce4bhn12rcd13ifvqgqg","pricing_plan_id":"cebpf4jnsgd1na2vs0mg"},{"bike_id":"7581687f-d0f8-4dd3-8d97-089e0f135119","system_id":"levelo_inurba_marseille","lat":43.29254,"lon":5.40907,"is_reserved":false,"is_disabled":false,"rental_uris":{"android":"levelo://app?vid=7581687f-d0f8-4dd3-8d97-089e0f135119","ios":"levelo://app?vid=7581687f-d0f8-4dd3-8d97-089e0f135119"},"vehicle_type_id":"4","last_reported":1726495716,"current_range_meters":23200,"station_id":"ce4bh192rcd13ifvqdc0","pricing_plan_id":"cebpf4jnsgd1na2vs0mg"},{"bike_id":"58eaf4dd-20c7-4430-8cc9-f27340e81d2b","system_id":"levelo_inurba_marseille","lat":43.25827,"lon":5.39426,"is_reserved":false,"is_disabled":false,"rental_uris":{"android":"levelo://app?vid=58eaf4dd-20c7-4430-8cc9-f27340e81d2b","ios":"levelo://app?vid=58eaf4dd-20c7-4430-8cc9-f27340e81d2b"},"vehicle_type_id":"4","last_reported":1726495716,"current_range_meters":16800,"station_id":"ce4bhip2rcd13ifvqft0","pricing_plan_id":"cebpf4jnsgd1na2vs0mg"},{"bike_id":"b7176f90-1b00-4928-b03a-5e1c1e2ace12","system_id":"levelo_inurba_marseille","lat":43.32498,"lon":5.3656,"is_reserved":false,"is_disabled":false,"rental_uris":{"android":"levelo://app?vid=b7176f90-1b00-4928-b03a-5e1c1e2ace12","ios":"levelo://app?vid=b7176f90-1b00-4928-b03a-5e1c1e2ace12"},"vehicle_type_id":"4","last_reported":1726495716,"current_range_meters":7200,"station_id":"ce4bhs12rcd13ifvqhvg","pricing_plan_id":"cebpf4jnsgd1na2vs0mg"},{"bike_id":"c796fb75-e12c-4246-9ae2-40ccb08367d1","system_id":"levelo_inurba_marseille","lat":43.27378,"lon":5.36252,"is_reserved":false,"is_disabled":false,"rental_uris":{"android":"levelo://app?vid=c796fb75-e12c-4246-9ae2-40ccb08367d1","ios":"levelo://app?vid=c796fb75-e12c-4246-9ae2-40ccb08367d1"},"vehicle_type_id":"4","last_reported":1726495716,"current_range_meters":22400,"station_id":"ce4bhbh2rcd13ifvqeo0","pricing_plan_id":"cebpf4jnsgd1na2vs0mg"},{"bike_id":"d058256b-c6a8-498a-bee5-fce4ff6caee2","system_id":"levelo_inurba_marseille","lat":43.26947,"lon":5.40235,"is_reserved":false,"is_disabled":false,"rental_uris":{"android":"levelo://app?vid=d058256b-c6a8-498a-bee5-fce4ff6caee2","ios":"levelo://app?vid=d058256b-c6a8-498a-bee5-fce4ff6caee2"},"vehicle_type_id":"4","last_reported":1726495716,"current_range_meters":38400,"station_id":"cjm6bp8fraef2m0cb0m0","pricing_plan_id":"cebpf4jnsgd1na2vs0mg"},{"bike_id":"65eecb51-7024-4f30-af20-d65f809bce2b","system_id":"levelo_inurba_marseille","lat":43.31479,"lon":5.38326,"is_reserved":false,"is_disabled":false,"rental_uris":{"android":"levelo://app?vid=65eecb51-7024-4f30-af20-d65f809bce2b","ios":"levelo://app?vid=65eecb51-7024-4f30-af20-d65f809bce2b"},"vehicle_type_id":"4","last_reported":1726495716,"current_range_meters":13600,"station_id":"ce4bgvp2rcd13ifvqcu0","pricing_plan_id":"cebpf4jnsgd1na2vs0mg"},{"bike_id":"28b3e53a-b365-48d9-979e-58cb1b2618a4","system_id":"levelo_inurba_marseille","lat":43.2792,"lon":5.39577,"is_reserved":false,"is_disabled":false,"rental_uris":{"android":"levelo://app?vid=28b3e53a-b365-48d9-979e-58cb1b2618a4","ios":"levelo://app?vid=28b3e53a-b365-48d9-979e-58cb1b2618a4"},"vehicle_type_id":"4","last_reported":1726495716,"current_range_meters":32000,"station_id":"ce4bhf92rcd13ifvqf40","pricing_plan_id":"cebpf4jnsgd1na2vs0mg"},{"bike_id":"714bd286-0914-421a-ac78-a8aec3d8de06","system_id":"levelo_inurba_marseille","lat":43.31722,"lon":5.43703,"is_reserved":false,"is_disabled":false,"rental_uris":{"android":"levelo://app?vid=714bd286-0914-421a-ac78-a8aec3d8de06","ios":"levelo://app?vid=714bd286-0914-421a-ac78-a8aec3d8de06"},"vehicle_type_id":"4","last_reported":1726495716,"current_range_meters":9200,"station_id":"ce4bhp92rcd13ifvqhcg","pricing_plan_id":"cebpf4jnsgd1na2vs0mg"},{"bike_id":"498b5bce-2598-4b96-8081-e004fdc4b71e","system_id":"levelo_inurba_marseille","lat":43.29973,"lon":5.38485,"is_reserved":false,"is_disabled":false,"rental_uris":{"android":"levelo://app?vid=498b5bce-2598-4b96-8081-e004fdc4b71e","ios":"levelo://app?vid=498b5bce-2598-4b96-8081-e004fdc4b71e"},"vehicle_type_id":"4","last_reported":1726495716,"current_range_meters":22800,"station_id":"ce4bgj92rcd13ifvqbd0","pricing_plan_id":"cebpf4jnsgd1na2vs0mg"},{"bike_id":"7e85eb27-9dee-4d5e-bdd3-2bb392c8040a","system_id":"levelo_inurba_marseille","lat":43.30223,"lon":5.39463,"is_reserved":false,"is_disabled":false,"rental_uris":{"android":"levelo://app?vid=7e85eb27-9dee-4d5e-bdd3-2bb392c8040a","ios":"levelo://app?vid=7e85eb27-9dee-4d5e-bdd3-2bb392c8040a"},"vehicle_type_id":"4","last_reported":1726495716,"current_range_meters":30800,"station_id":"ce4bh0p2rcd13ifvqd70","pricing_plan_id":"cebpf4jnsgd1na2vs0mg"},{"bike_id":"a18117be-7bd3-487f-af7a-2344c9ce9eb2","system_id":"levelo_inurba_marseille","lat":43.28276,"lon":5.35075,"is_reserved":false,"is_disabled":false,"rental_uris":{"android":"levelo://app?vid=a18117be-7bd3-487f-af7a-2344c9ce9eb2","ios":"levelo://app?vid=a18117be-7bd3-487f-af7a-2344c9ce9eb2"},"vehicle_type_id":"4","last_reported":1726495716,"current_range_meters":2800,"station_id":"ce4bhbp2rcd13ifvqerg","pricing_plan_id":"cebpf4jnsgd1na2vs0mg"},{"bike_id":"28d227ad-bafd-488d-8aad-9ae103ddecec","system_id":"levelo_inurba_marseille","lat":43.28417,"lon":5.3498,"is_reserved":false,"is_disabled":false,"rental_uris":{"android":"levelo://app?vid=28d227ad-bafd-488d-8aad-9ae103ddecec","ios":"levelo://app?vid=28d227ad-bafd-488d-8aad-9ae103ddecec"},"vehicle_type_id":"4","last_reported":1726495716,"current_range_meters":17200,"station_id":"ce4bhbh2rcd13ifvqepg","pricing_plan_id":"cebpf4jnsgd1na2vs0mg"},{"bike_id":"77be640b-ac4b-4617-be22-5763d79d29be","system_id":"levelo_inurba_marseille","lat":43.32486,"lon":5.36559,"is_reserved":false,"is_disabled":false,"rental_uris":{"android":"levelo://app?vid=77be640b-ac4b-4617-be22-5763d79d29be","ios":"levelo://app?vid=77be640b-ac4b-4617-be22-5763d79d29be"},"vehicle_type_id":"4","last_reported":1726495716,"current_range_meters":27600,"station_id":"ce4bhs12rcd13ifvqhvg","pricing_plan_id":"cebpf4jnsgd1na2vs0mg"},{"bike_id":"ede27382-2e15-413e-be39-239be05fdd62","system_id":"levelo_inurba_marseille","lat":43.23186,"lon":5.39989,"is_reserved":false,"is_disabled":false,"rental_uris":{"android":"levelo://app?vid=ede27382-2e15-413e-be39-239be05fdd62","ios":"levelo://app?vid=ede27382-2e15-413e-be39-239be05fdd62"},"vehicle_type_id":"4","last_reported":1726495716,"current_range_meters":35600,"station_id":"ce4bhn12rcd13ifvqgqg","pricing_plan_id":"cebpf4jnsgd1na2vs0mg"},{"bike_id":"a157e54e-68a6-47c0-a017-38765aaef1b1","system_id":"levelo_inurba_marseille","lat":43.27499,"lon":5.42448,"is_reserved":false,"is_disabled":false,"rental_uris":{"android":"levelo://app?vid=a157e54e-68a6-47c0-a017-38765aaef1b1","ios":"levelo://app?vid=a157e54e-68a6-47c0-a017-38765aaef1b1"},"vehicle_type_id":"4","last_reported":1726495716,"current_range_meters":29600,"station_id":"ce4bhn92rcd13ifvqgrg","pricing_plan_id":"cebpf4jnsgd1na2vs0mg"},{"bike_id":"f4cb07f7-6f8d-479d-967e-97fe26b88740","system_id":"levelo_inurba_marseille","lat":43.31331,"lon":5.39686,"is_reserved":false,"is_disabled":false,"rental_uris":{"android":"levelo://app?vid=f4cb07f7-6f8d-479d-967e-97fe26b88740","ios":"levelo://app?vid=f4cb07f7-6f8d-479d-967e-97fe26b88740"},"vehicle_type_id":"4","last_reported":1726495716,"current_range_meters":33600,"station_id":"ce4bgvp2rcd13ifvqcu0","pricing_plan_id":"cebpf4jnsgd1na2vs0mg"},{"bike_id":"6da566a6-1c56-4830-ad07-012b26ffeade","system_id":"levelo_inurba_marseille","lat":43.3249,"lon":5.36559,"is_reserved":false,"is_disabled":false,"rental_uris":{"android":"levelo://app?vid=6da566a6-1c56-4830-ad07-012b26ffeade","ios":"levelo://app?vid=6da566a6-1c56-4830-ad07-012b26ffeade"},"vehicle_type_id":"4","last_reported":1726495716,"current_range_meters":36800,"station_id":"ce4bhs12rcd13ifvqhvg","pricing_plan_id":"cebpf4jnsgd1na2vs0mg"},{"bike_id":"1690b1ed-0e04-434b-b513-4fb7e50b3f28","system_id":"levelo_inurba_marseille","lat":43.30146,"lon":5.37408,"is_reserved":false,"is_disabled":false,"rental_uris":{"android":"levelo://app?vid=1690b1ed-0e04-434b-b513-4fb7e50b3f28","ios":"levelo://app?vid=1690b1ed-0e04-434b-b513-4fb7e50b3f28"},"vehicle_type_id":"4","last_reported":1726495716,"current_range_meters":33200,"station_id":"ce4bgs92rcd13ifvqcc0","pricing_plan_id":"cebpf4jnsgd1na2vs0mg"},{"bike_id":"b7e318f9-9132-411a-90fb-eba3c066fa24","system_id":"levelo_inurba_marseille","lat":43.29533,"lon":5.38541,"is_reserved":false,"is_disabled":false,"rental_uris":{"android":"levelo://app?vid=b7e318f9-9132-411a-90fb-eba3c066fa24","ios":"levelo://app?vid=b7e318f9-9132-411a-90fb-eba3c066fa24"},"vehicle_type_id":"4","last_reported":1726495716,"current_range_meters":35200,"station_id":"ce4bgih2rcd13ifvqba0","pricing_plan_id":"cebpf4jnsgd1na2vs0mg"},{"bike_id":"2e95b63c-f6e4-4c4e-808c-eb3614b140b9","system_id":"levelo_inurba_marseille","lat":43.27593,"lon":5.38388,"is_reserved":false,"is_disabled":false,"rental_uris":{"android":"levelo://app?vid=2e95b63c-f6e4-4c4e-808c-eb3614b140b9","ios":"levelo://app?vid=2e95b63c-f6e4-4c4e-808c-eb3614b140b9"},"vehicle_type_id":"4","last_reported":1726495716,"current_range_meters":29600,"station_id":"","pricing_plan_id":"cebpf4jnsgd1na2vs0mg"},{"bike_id":"b02f6a7c-f012-4303-93ac-4d187086233e","system_id":"levelo_inurba_marseille","lat":43.3254,"lon":5.41424,"is_reserved":false,"is_disabled":false,"rental_uris":{"android":"levelo://app?vid=b02f6a7c-f012-4303-93ac-4d187086233e","ios":"levelo://app?vid=b02f6a7c-f012-4303-93ac-4d187086233e"},"vehicle_type_id":"4","last_reported":1726495716,"current_range_meters":22400,"station_id":"ce4bhq12rcd13ifvqhhg","pricing_plan_id":"cebpf4jnsgd1na2vs0mg"},{"bike_id":"d919000c-5aae-4fe3-9444-cda057a56741","system_id":"levelo_inurba_marseille","lat":43.30142,"lon":5.37415,"is_reserved":false,"is_disabled":false,"rental_uris":{"android":"levelo://app?vid=d919000c-5aae-4fe3-9444-cda057a56741","ios":"levelo://app?vid=d919000c-5aae-4fe3-9444-cda057a56741"},"vehicle_type_id":"4","last_reported":1726495716,"current_range_meters":39200,"station_id":"ce4bgs92rcd13ifvqcc0","pricing_plan_id":"cebpf4jnsgd1na2vs0mg"},{"bike_id":"cbaf03bf-0340-4293-a424-18d0ef0b595f","system_id":"levelo_inurba_marseille","lat":43.29897,"lon":5.43668,"is_reserved":false,"is_disabled":false,"rental_uris":{"android":"levelo://app?vid=cbaf03bf-0340-4293-a424-18d0ef0b595f","ios":"levelo://app?vid=cbaf03bf-0340-4293-a424-18d0ef0b595f"},"vehicle_type_id":"4","last_reported":1726495716,"current_range_meters":27200,"station_id":"ce4bhpp2rcd13ifvqhfg","pricing_plan_id":"cebpf4jnsgd1na2vs0mg"},{"bike_id":"fabd6680-bf5f-42cc-b8ce-1a55fdaaaa2c","system_id":"levelo_inurba_marseille","lat":43.28622,"lon":5.35107,"is_reserved":false,"is_disabled":false,"rental_uris":{"android":"levelo://app?vid=fabd6680-bf5f-42cc-b8ce-1a55fdaaaa2c","ios":"levelo://app?vid=fabd6680-bf5f-42cc-b8ce-1a55fdaaaa2c"},"vehicle_type_id":"4","last_reported":1726495716,"current_range_meters":36800,"station_id":"ce4bhch2rcd13ifvqeug","pricing_plan_id":"cebpf4jnsgd1na2vs0mg"},{"bike_id":"9310b7ad-2ca0-43b0-8762-7d9a2657eb36","system_id":"levelo_inurba_marseille","lat":43.26946,"lon":5.40244,"is_reserved":false,"is_disabled":false,"rental_uris":{"android":"levelo://app?vid=9310b7ad-2ca0-43b0-8762-7d9a2657eb36","ios":"levelo://app?vid=9310b7ad-2ca0-43b0-8762-7d9a2657eb36"},"vehicle_type_id":"4","last_reported":1726495716,"current_range_meters":32800,"station_id":"cjm6bp8fraef2m0cb0m0","pricing_plan_id":"cebpf4jnsgd1na2vs0mg"},{"bike_id":"5c62d84b-bcac-4078-9f3e-f282f882f378","system_id":"levelo_inurba_marseille","lat":43.26059,"lon":5.39392,"is_reserved":false,"is_disabled":false,"rental_uris":{"android":"levelo://app?vid=5c62d84b-bcac-4078-9f3e-f282f882f378","ios":"levelo://app?vid=5c62d84b-bcac-4078-9f3e-f282f882f378"},"vehicle_type_id":"4","last_reported":1726495716,"current_range_meters":29600,"station_id":"ce4bhh92rcd13ifvqfj0","pricing_plan_id":"cebpf4jnsgd1na2vs0mg"},{"bike_id":"103368f7-6cf9-4f61-a9f7-0e638a4ed99a","system_id":"levelo_inurba_marseille","lat":43.24082,"lon":5.37748,"is_reserved":false,"is_disabled":false,"rental_uris":{"android":"levelo://app?vid=103368f7-6cf9-4f61-a9f7-0e638a4ed99a","ios":"levelo://app?vid=103368f7-6cf9-4f61-a9f7-0e638a4ed99a"},"vehicle_type_id":"4","last_reported":1726495716,"current_range_meters":8000,"station_id":"ce4bhnp2rcd13ifvqgvg","pricing_plan_id":"cebpf4jnsgd1na2vs0mg"},{"bike_id":"44dd5463-3cfb-41e6-bef4-650b1023c04a","system_id":"levelo_inurba_marseille","lat":43.32052,"lon":5.41557,"is_reserved":false,"is_disabled":false,"rental_uris":{"android":"levelo://app?vid=44dd5463-3cfb-41e6-bef4-650b1023c04a","ios":"levelo://app?vid=44dd5463-3cfb-41e6-bef4-650b1023c04a"},"vehicle_type_id":"4","last_reported":1726495716,"current_range_meters":21600,"station_id":"ce4bhq92rcd13ifvqhkg","pricing_plan_id":"cebpf4jnsgd1na2vs0mg"},{"bike_id":"c1f0583f-8e3c-4753-8672-06523657dd56","system_id":"levelo_inurba_marseille","lat":43.24389,"lon":5.37061,"is_reserved":false,"is_disabled":false,"rental_uris":{"android":"levelo://app?vid=c1f0583f-8e3c-4753-8672-06523657dd56","ios":"levelo://app?vid=c1f0583f-8e3c-4753-8672-06523657dd56"},"vehicle_type_id":"4","last_reported":1726495716,"current_range_meters":34800,"station_id":"ce4bhhh2rcd13ifvqfk0","pricing_plan_id":"cebpf4jnsgd1na2vs0mg"},{"bike_id":"351b671a-30da-44c3-a90e-d32a2f12f512","system_id":"levelo_inurba_marseille","lat":43.29965,"lon":5.38499,"is_reserved":false,"is_disabled":false,"rental_uris":{"android":"levelo://app?vid=351b671a-30da-44c3-a90e-d32a2f12f512","ios":"levelo://app?vid=351b671a-30da-44c3-a90e-d32a2f12f512"},"vehicle_type_id":"4","last_reported":1726495716,"current_range_meters":6800,"station_id":"ce4bgj92rcd13ifvqbd0","pricing_plan_id":"cebpf4jnsgd1na2vs0mg"},{"bike_id":"88364098-1bfc-4b8b-b45f-170d19bea3e5","system_id":"levelo_inurba_marseille","lat":43.30258,"lon":5.37727,"is_reserved":false,"is_disabled":false,"rental_uris":{"android":"levelo://app?vid=88364098-1bfc-4b8b-b45f-170d19bea3e5","ios":"levelo://app?vid=88364098-1bfc-4b8b-b45f-170d19bea3e5"},"vehicle_type_id":"4","last_reported":1726495716,"current_range_meters":38400,"station_id":"ce4bguh2rcd13ifvqcj0","pricing_plan_id":"cebpf4jnsgd1na2vs0mg"},{"bike_id":"1aa4718f-9c27-4777-bb45-8e9f7bbf680a","system_id":"levelo_inurba_marseille","lat":43.28276,"lon":5.35065,"is_reserved":false,"is_disabled":false,"rental_uris":{"android":"levelo://app?vid=1aa4718f-9c27-4777-bb45-8e9f7bbf680a","ios":"levelo://app?vid=1aa4718f-9c27-4777-bb45-8e9f7bbf680a"},"vehicle_type_id":"4","last_reported":1726495716,"current_range_meters":6400,"station_id":"ce4bhbp2rcd13ifvqerg","pricing_plan_id":"cebpf4jnsgd1na2vs0mg"},{"bike_id":"6f86d2e9-8fcb-4973-8090-0d1828aab8f5","system_id":"levelo_inurba_marseille","lat":43.295715,"lon":5.375117,"is_reserved":false,"is_disabled":false,"rental_uris":{"android":"levelo://app?vid=6f86d2e9-8fcb-4973-8090-0d1828aab8f5","ios":"levelo://app?vid=6f86d2e9-8fcb-4973-8090-0d1828aab8f5"},"vehicle_type_id":"4","last_reported":1726495716,"current_range_meters":32800,"station_id":"ce4bgk12rcd13ifvqbj0","pricing_plan_id":"cebpf4jnsgd1na2vs0mg"},{"bike_id":"a5cadd93-c7fd-4b70-813b-b446914b6e43","system_id":"levelo_inurba_marseille","lat":43.294098,"lon":5.386253,"is_reserved":false,"is_disabled":false,"rental_uris":{"android":"levelo://app?vid=a5cadd93-c7fd-4b70-813b-b446914b6e43","ios":"levelo://app?vid=a5cadd93-c7fd-4b70-813b-b446914b6e43"},"vehicle_type_id":"4","last_reported":1726495716,"current_range_meters":7200,"station_id":"ce4bh2h2rcd13ifvqdh0","pricing_plan_id":"cebpf4jnsgd1na2vs0mg"},{"bike_id":"328d45f9-980e-4811-97c0-47d761861509","system_id":"levelo_inurba_marseille","lat":43.29847,"lon":5.37836,"is_reserved":false,"is_disabled":false,"rental_uris":{"android":"levelo://app?vid=328d45f9-980e-4811-97c0-47d761861509","ios":"levelo://app?vid=328d45f9-980e-4811-97c0-47d761861509"},"vehicle_type_id":"4","last_reported":1726495716,"current_range_meters":23200,"station_id":"ce4bgkh2rcd13ifvqbl0","pricing_plan_id":"cebpf4jnsgd1na2vs0mg"},{"bike_id":"4896d151-2d9e-453e-bdd1-c2fc4dc1aa85","system_id":"levelo_inurba_marseille","lat":43.24667,"lon":5.38162,"is_reserved":false,"is_disabled":false,"rental_uris":{"android":"levelo://app?vid=4896d151-2d9e-453e-bdd1-c2fc4dc1aa85","ios":"levelo://app?vid=4896d151-2d9e-453e-bdd1-c2fc4dc1aa85"},"vehicle_type_id":"4","last_reported":1726495716,"current_range_meters":38800,"station_id":"ce4bhih2rcd13ifvqfr0","pricing_plan_id":"cebpf4jnsgd1na2vs0mg"},{"bike_id":"d8a0bd84-3e0a-476a-b974-c2fd3059b61b","system_id":"levelo_inurba_marseille","lat":43.26788,"lon":5.39416,"is_reserved":false,"is_disabled":false,"rental_uris":{"android":"levelo://app?vid=d8a0bd84-3e0a-476a-b974-c2fd3059b61b","ios":"levelo://app?vid=d8a0bd84-3e0a-476a-b974-c2fd3059b61b"},"vehicle_type_id":"4","last_reported":1726495716,"current_range_meters":38800,"station_id":"ce4bhh12rcd13ifvqfg0","pricing_plan_id":"cebpf4jnsgd1na2vs0mg"},{"bike_id":"faf816e6-4e87-4e93-88d4-5861eae33b5c","system_id":"levelo_inurba_marseille","lat":43.2408,"lon":5.37754,"is_reserved":false,"is_disabled":false,"rental_uris":{"android":"levelo://app?vid=faf816e6-4e87-4e93-88d4-5861eae33b5c","ios":"levelo://app?vid=faf816e6-4e87-4e93-88d4-5861eae33b5c"},"vehicle_type_id":"4","last_reported":1726495716,"current_range_meters":20000,"station_id":"ce4bhnp2rcd13ifvqgvg","pricing_plan_id":"cebpf4jnsgd1na2vs0mg"},{"bike_id":"d1bc1a92-c34f-45bd-b470-2fca788491ee","system_id":"levelo_inurba_marseille","lat":43.32487,"lon":5.36575,"is_reserved":false,"is_disabled":false,"rental_uris":{"android":"levelo://app?vid=d1bc1a92-c34f-45bd-b470-2fca788491ee","ios":"levelo://app?vid=d1bc1a92-c34f-45bd-b470-2fca788491ee"},"vehicle_type_id":"4","last_reported":1726495716,"current_range_meters":37600,"station_id":"ce4bhs12rcd13ifvqhvg","pricing_plan_id":"cebpf4jnsgd1na2vs0mg"},{"bike_id":"cee10d99-1898-4113-b5b1-294a5b583914","system_id":"levelo_inurba_marseille","lat":43.292709,"lon":5.384334,"is_reserved":false,"is_disabled":false,"rental_uris":{"android":"levelo://app?vid=cee10d99-1898-4113-b5b1-294a5b583914","ios":"levelo://app?vid=cee10d99-1898-4113-b5b1-294a5b583914"},"vehicle_type_id":"4","last_reported":1726495716,"current_range_meters":28000,"station_id":"ce4bh692rcd13ifvqea0","pricing_plan_id":"cebpf4jnsgd1na2vs0mg"},{"bike_id":"1a44d78e-a177-4c63-aaac-9e7a5ca17f24","system_id":"levelo_inurba_marseille","lat":43.240777,"lon":5.377584,"is_reserved":false,"is_disabled":false,"rental_uris":{"android":"levelo://app?vid=1a44d78e-a177-4c63-aaac-9e7a5ca17f24","ios":"levelo://app?vid=1a44d78e-a177-4c63-aaac-9e7a5ca17f24"},"vehicle_type_id":"4","last_reported":1726495716,"current_range_meters":30400,"station_id":"ce4bhnp2rcd13ifvqgvg","pricing_plan_id":"cebpf4jnsgd1na2vs0mg"},{"bike_id":"fa690805-233a-4a70-a9f3-33f1b67cdb1f","system_id":"levelo_inurba_marseille","lat":43.32294,"lon":5.38256,"is_reserved":false,"is_disabled":false,"rental_uris":{"android":"levelo://app?vid=fa690805-233a-4a70-a9f3-33f1b67cdb1f","ios":"levelo://app?vid=fa690805-233a-4a70-a9f3-33f1b67cdb1f"},"vehicle_type_id":"4","last_reported":1726495716,"current_range_meters":36800,"station_id":"ce4bhr12rcd13ifvqhqg","pricing_plan_id":"cebpf4jnsgd1na2vs0mg"},{"bike_id":"8b608b96-fedf-4511-8d4b-09bad2606e1a","system_id":"levelo_inurba_marseille","lat":43.27728,"lon":5.41126,"is_reserved":false,"is_disabled":false,"rental_uris":{"android":"levelo://app?vid=8b608b96-fedf-4511-8d4b-09bad2606e1a","ios":"levelo://app?vid=8b608b96-fedf-4511-8d4b-09bad2606e1a"},"vehicle_type_id":"4","last_reported":1726495716,"current_range_meters":16000,"station_id":"","pricing_plan_id":"cebpf4jnsgd1na2vs0mg"},{"bike_id":"d687a8dc-c1c6-418b-a078-1f315f5fdb26","system_id":"levelo_inurba_marseille","lat":43.32494,"lon":5.36579,"is_reserved":false,"is_disabled":false,"rental_uris":{"android":"levelo://app?vid=d687a8dc-c1c6-418b-a078-1f315f5fdb26","ios":"levelo://app?vid=d687a8dc-c1c6-418b-a078-1f315f5fdb26"},"vehicle_type_id":"4","last_reported":1726495716,"current_range_meters":22000,"station_id":"ce4bhs12rcd13ifvqhvg","pricing_plan_id":"cebpf4jnsgd1na2vs0mg"},{"bike_id":"8be263a7-6b13-473c-8ec8-8f16446d7bd7","system_id":"levelo_inurba_marseille","lat":43.29709,"lon":5.36608,"is_reserved":false,"is_disabled":false,"rental_uris":{"android":"levelo://app?vid=8be263a7-6b13-473c-8ec8-8f16446d7bd7","ios":"levelo://app?vid=8be263a7-6b13-473c-8ec8-8f16446d7bd7"},"vehicle_type_id":"4","last_reported":1726495716,"current_range_meters":11200,"station_id":"ce4bgn12rcd13ifvqbt0","pricing_plan_id":"cebpf4jnsgd1na2vs0mg"},{"bike_id":"8dec1c77-7192-4796-b098-90ca4097a75a","system_id":"levelo_inurba_marseille","lat":43.29048,"lon":5.3707,"is_reserved":false,"is_disabled":false,"rental_uris":{"android":"levelo://app?vid=8dec1c77-7192-4796-b098-90ca4097a75a","ios":"levelo://app?vid=8dec1c77-7192-4796-b098-90ca4097a75a"},"vehicle_type_id":"4","last_reported":1726495716,"current_range_meters":7200,"station_id":"ce4bh5p2rcd13ifvqe4g","pricing_plan_id":"cebpf4jnsgd1na2vs0mg"},{"bike_id":"fa2b0a9f-66ad-4cd1-b7bb-93b9cffdc904","system_id":"levelo_inurba_marseille","lat":43.25934,"lon":5.40904,"is_reserved":false,"is_disabled":false,"rental_uris":{"android":"levelo://app?vid=fa2b0a9f-66ad-4cd1-b7bb-93b9cffdc904","ios":"levelo://app?vid=fa2b0a9f-66ad-4cd1-b7bb-93b9cffdc904"},"vehicle_type_id":"4","last_reported":1726495716,"current_range_meters":27200,"station_id":"ce4bhm92rcd13ifvqglg","pricing_plan_id":"cebpf4jnsgd1na2vs0mg"},{"bike_id":"d4c88bd5-a352-4ca1-93b6-38ee5b0f1032","system_id":"levelo_inurba_marseille","lat":43.28268,"lon":5.35063,"is_reserved":false,"is_disabled":false,"rental_uris":{"android":"levelo://app?vid=d4c88bd5-a352-4ca1-93b6-38ee5b0f1032","ios":"levelo://app?vid=d4c88bd5-a352-4ca1-93b6-38ee5b0f1032"},"vehicle_type_id":"4","last_reported":1726495716,"current_range_meters":20400,"station_id":"ce4bhbp2rcd13ifvqerg","pricing_plan_id":"cebpf4jnsgd1na2vs0mg"},{"bike_id":"28c6d943-5531-4458-8f95-af9087750f51","system_id":"levelo_inurba_marseille","lat":43.30545,"lon":5.36695,"is_reserved":false,"is_disabled":false,"rental_uris":{"android":"levelo://app?vid=28c6d943-5531-4458-8f95-af9087750f51","ios":"levelo://app?vid=28c6d943-5531-4458-8f95-af9087750f51"},"vehicle_type_id":"4","last_reported":1726495716,"current_range_meters":38800,"station_id":"ce4bgrp2rcd13ifvqc9g","pricing_plan_id":"cebpf4jnsgd1na2vs0mg"},{"bike_id":"fd55c62d-3254-4352-8b6a-fc74838c83ca","system_id":"levelo_inurba_marseille","lat":43.29924,"lon":5.37467,"is_reserved":false,"is_disabled":false,"rental_uris":{"android":"levelo://app?vid=fd55c62d-3254-4352-8b6a-fc74838c83ca","ios":"levelo://app?vid=fd55c62d-3254-4352-8b6a-fc74838c83ca"},"vehicle_type_id":"4","last_reported":1726495716,"current_range_meters":16800,"station_id":"ce4bgjh2rcd13ifvqbg0","pricing_plan_id":"cebpf4jnsgd1na2vs0mg"},{"bike_id":"ecc793a7-d63a-448e-bb48-c7138fa39d78","system_id":"levelo_inurba_marseille","lat":43.29308,"lon":5.37457,"is_reserved":false,"is_disabled":false,"rental_uris":{"android":"levelo://app?vid=ecc793a7-d63a-448e-bb48-c7138fa39d78","ios":"levelo://app?vid=ecc793a7-d63a-448e-bb48-c7138fa39d78"},"vehicle_type_id":"4","last_reported":1726495716,"current_range_meters":25600,"station_id":"ce4bgi12rcd13ifvqb70","pricing_plan_id":"cebpf4jnsgd1na2vs0mg"},{"bike_id":"77576eab-5f8a-4fe5-89b9-e7d53dc44f35","system_id":"levelo_inurba_marseille","lat":43.31168,"lon":5.38716,"is_reserved":false,"is_disabled":false,"rental_uris":{"android":"levelo://app?vid=77576eab-5f8a-4fe5-89b9-e7d53dc44f35","ios":"levelo://app?vid=77576eab-5f8a-4fe5-89b9-e7d53dc44f35"},"vehicle_type_id":"4","last_reported":1726495716,"current_range_meters":19200,"station_id":"ce4bgv12rcd13ifvqcp0","pricing_plan_id":"cebpf4jnsgd1na2vs0mg"},{"bike_id":"2bc00c15-b391-445f-8056-cc4a33f1972d","system_id":"levelo_inurba_marseille","lat":43.25719,"lon":5.4111,"is_reserved":false,"is_disabled":false,"rental_uris":{"android":"levelo://app?vid=2bc00c15-b391-445f-8056-cc4a33f1972d","ios":"levelo://app?vid=2bc00c15-b391-445f-8056-cc4a33f1972d"},"vehicle_type_id":"4","last_reported":1726495716,"current_range_meters":24000,"station_id":"ce4bhkp2rcd13ifvqgd0","pricing_plan_id":"cebpf4jnsgd1na2vs0mg"},{"bike_id":"d2ca61ed-07b0-4f91-990e-b98a38e76d1b","system_id":"levelo_inurba_marseille","lat":43.24073,"lon":5.37752,"is_reserved":false,"is_disabled":false,"rental_uris":{"android":"levelo://app?vid=d2ca61ed-07b0-4f91-990e-b98a38e76d1b","ios":"levelo://app?vid=d2ca61ed-07b0-4f91-990e-b98a38e76d1b"},"vehicle_type_id":"4","last_reported":1726495716,"current_range_meters":38800,"station_id":"ce4bhnp2rcd13ifvqgvg","pricing_plan_id":"cebpf4jnsgd1na2vs0mg"},{"bike_id":"05676a45-5ad0-47a1-bce0-8e23f33b2fbd","system_id":"levelo_inurba_marseille","lat":43.25944,"lon":5.40901,"is_reserved":false,"is_disabled":false,"rental_uris":{"android":"levelo://app?vid=05676a45-5ad0-47a1-bce0-8e23f33b2fbd","ios":"levelo://app?vid=05676a45-5ad0-47a1-bce0-8e23f33b2fbd"},"vehicle_type_id":"4","last_reported":1726495716,"current_range_meters":20400,"station_id":"ce4bhm92rcd13ifvqglg","pricing_plan_id":"cebpf4jnsgd1na2vs0mg"},{"bike_id":"8ce5a7f4-7567-41a9-933e-bdcf2ff2d630","system_id":"levelo_inurba_marseille","lat":43.25003,"lon":5.38938,"is_reserved":false,"is_disabled":false,"rental_uris":{"android":"levelo://app?vid=8ce5a7f4-7567-41a9-933e-bdcf2ff2d630","ios":"levelo://app?vid=8ce5a7f4-7567-41a9-933e-bdcf2ff2d630"},"vehicle_type_id":"4","last_reported":1726495716,"current_range_meters":14800,"station_id":"ce4bhgp2rcd13ifvqfd0","pricing_plan_id":"cebpf4jnsgd1na2vs0mg"},{"bike_id":"36c2e63c-e4e2-4e2c-8236-e50203b38b6a","system_id":"levelo_inurba_marseille","lat":43.30211,"lon":5.39462,"is_reserved":false,"is_disabled":false,"rental_uris":{"android":"levelo://app?vid=36c2e63c-e4e2-4e2c-8236-e50203b38b6a","ios":"levelo://app?vid=36c2e63c-e4e2-4e2c-8236-e50203b38b6a"},"vehicle_type_id":"4","last_reported":1726495716,"current_range_meters":32000,"station_id":"ce4bh0p2rcd13ifvqd70","pricing_plan_id":"cebpf4jnsgd1na2vs0mg"},{"bike_id":"a6450a4f-ab7d-46ce-8102-3f9585ec3842","system_id":"levelo_inurba_marseille","lat":43.29869,"lon":5.39742,"is_reserved":false,"is_disabled":false,"rental_uris":{"android":"levelo://app?vid=a6450a4f-ab7d-46ce-8102-3f9585ec3842","ios":"levelo://app?vid=a6450a4f-ab7d-46ce-8102-3f9585ec3842"},"vehicle_type_id":"4","last_reported":1726495716,"current_range_meters":36800,"station_id":"ce4bh0h2rcd13ifvqd50","pricing_plan_id":"cebpf4jnsgd1na2vs0mg"},{"bike_id":"f1e8ceee-9573-4b77-ab79-482d0d3b70cc","system_id":"levelo_inurba_marseille","lat":43.24176,"lon":5.36398,"is_reserved":false,"is_disabled":false,"rental_uris":{"android":"levelo://app?vid=f1e8ceee-9573-4b77-ab79-482d0d3b70cc","ios":"levelo://app?vid=f1e8ceee-9573-4b77-ab79-482d0d3b70cc"},"vehicle_type_id":"4","last_reported":1726495716,"current_range_meters":29600,"station_id":"cpo36qri1sfpv3e86is0","pricing_plan_id":"cebpf4jnsgd1na2vs0mg"},{"bike_id":"9e00eb09-2e9f-4fd4-9267-2fe6849c1532","system_id":"levelo_inurba_marseille","lat":43.29259,"lon":5.40905,"is_reserved":false,"is_disabled":false,"rental_uris":{"android":"levelo://app?vid=9e00eb09-2e9f-4fd4-9267-2fe6849c1532","ios":"levelo://app?vid=9e00eb09-2e9f-4fd4-9267-2fe6849c1532"},"vehicle_type_id":"4","last_reported":1726495716,"current_range_meters":37600,"station_id":"ce4bh192rcd13ifvqdc0","pricing_plan_id":"cebpf4jnsgd1na2vs0mg"},{"bike_id":"3c75de7d-8679-45f9-8119-2572acb449f5","system_id":"levelo_inurba_marseille","lat":43.2657,"lon":5.39008,"is_reserved":false,"is_disabled":false,"rental_uris":{"android":"levelo://app?vid=3c75de7d-8679-45f9-8119-2572acb449f5","ios":"levelo://app?vid=3c75de7d-8679-45f9-8119-2572acb449f5"},"vehicle_type_id":"4","last_reported":1726495716,"current_range_meters":36000,"station_id":"ce4bhe12rcd13ifvqf30","pricing_plan_id":"cebpf4jnsgd1na2vs0mg"},{"bike_id":"d49a1b67-e9eb-45b9-8bf5-1783eecf041a","system_id":"levelo_inurba_marseille","lat":43.29182,"lon":5.35804,"is_reserved":false,"is_disabled":false,"rental_uris":{"android":"levelo://app?vid=d49a1b67-e9eb-45b9-8bf5-1783eecf041a","ios":"levelo://app?vid=d49a1b67-e9eb-45b9-8bf5-1783eecf041a"},"vehicle_type_id":"4","last_reported":1726495716,"current_range_meters":14400,"station_id":"ce4bhb12rcd13ifvqel0","pricing_plan_id":"cebpf4jnsgd1na2vs0mg"},{"bike_id":"adf4f941-700f-425e-b99f-c6e9f081c463","system_id":"levelo_inurba_marseille","lat":43.30918,"lon":5.36847,"is_reserved":false,"is_disabled":false,"rental_uris":{"android":"levelo://app?vid=adf4f941-700f-425e-b99f-c6e9f081c463","ios":"levelo://app?vid=adf4f941-700f-425e-b99f-c6e9f081c463"},"vehicle_type_id":"4","last_reported":1726495716,"current_range_meters":38800,"station_id":"ce4bgn92rcd13ifvqbvg","pricing_plan_id":"cebpf4jnsgd1na2vs0mg"},{"bike_id":"f3fc704d-d8e6-463c-99d8-35d4e8adc75a","system_id":"levelo_inurba_marseille","lat":43.31079,"lon":5.3835,"is_reserved":false,"is_disabled":false,"rental_uris":{"android":"levelo://app?vid=f3fc704d-d8e6-463c-99d8-35d4e8adc75a","ios":"levelo://app?vid=f3fc704d-d8e6-463c-99d8-35d4e8adc75a"},"vehicle_type_id":"4","last_reported":1726495716,"current_range_meters":20400,"station_id":"ce4bgv92rcd13ifvqcr0","pricing_plan_id":"cebpf4jnsgd1na2vs0mg"},{"bike_id":"488980a2-2581-4786-a55f-6746fccab000","system_id":"levelo_inurba_marseille","lat":43.24077,"lon":5.37756,"is_reserved":false,"is_disabled":false,"rental_uris":{"android":"levelo://app?vid=488980a2-2581-4786-a55f-6746fccab000","ios":"levelo://app?vid=488980a2-2581-4786-a55f-6746fccab000"},"vehicle_type_id":"4","last_reported":1726495716,"current_range_meters":36000,"station_id":"ce4bhnp2rcd13ifvqgvg","pricing_plan_id":"cebpf4jnsgd1na2vs0mg"},{"bike_id":"dda0773e-a403-4774-8750-eeaccf12f3a2","system_id":"levelo_inurba_marseille","lat":43.33762,"lon":5.37454,"is_reserved":false,"is_disabled":false,"rental_uris":{"android":"levelo://app?vid=dda0773e-a403-4774-8750-eeaccf12f3a2","ios":"levelo://app?vid=dda0773e-a403-4774-8750-eeaccf12f3a2"},"vehicle_type_id":"4","last_reported":1726495716,"current_range_meters":38800,"station_id":"","pricing_plan_id":"cebpf4jnsgd1na2vs0mg"},{"bike_id":"ee4f2646-d2ea-4c6c-8dd6-1a1502464a6a","system_id":"levelo_inurba_marseille","lat":43.31328,"lon":5.39693,"is_reserved":false,"is_disabled":false,"rental_uris":{"android":"levelo://app?vid=ee4f2646-d2ea-4c6c-8dd6-1a1502464a6a","ios":"levelo://app?vid=ee4f2646-d2ea-4c6c-8dd6-1a1502464a6a"},"vehicle_type_id":"4","last_reported":1726495716,"current_range_meters":16800,"station_id":"ce4bgvp2rcd13ifvqcu0","pricing_plan_id":"cebpf4jnsgd1na2vs0mg"},{"bike_id":"638b0fad-2c0e-4978-8e33-2ab7cbec0a26","system_id":"levelo_inurba_marseille","lat":43.28271,"lon":5.35052,"is_reserved":false,"is_disabled":false,"rental_uris":{"android":"levelo://app?vid=638b0fad-2c0e-4978-8e33-2ab7cbec0a26","ios":"levelo://app?vid=638b0fad-2c0e-4978-8e33-2ab7cbec0a26"},"vehicle_type_id":"4","last_reported":1726495716,"current_range_meters":32000,"station_id":"ce4bhbp2rcd13ifvqerg","pricing_plan_id":"cebpf4jnsgd1na2vs0mg"},{"bike_id":"59ed01de-f72d-4794-b37d-5e470eaac2ba","system_id":"levelo_inurba_marseille","lat":43.3255,"lon":5.41416,"is_reserved":false,"is_disabled":false,"rental_uris":{"android":"levelo://app?vid=59ed01de-f72d-4794-b37d-5e470eaac2ba","ios":"levelo://app?vid=59ed01de-f72d-4794-b37d-5e470eaac2ba"},"vehicle_type_id":"4","last_reported":1726495716,"current_range_meters":3200,"station_id":"ce4bhq12rcd13ifvqhhg","pricing_plan_id":"cebpf4jnsgd1na2vs0mg"},{"bike_id":"8e871097-6ca9-458f-a7af-51bf04225af9","system_id":"levelo_inurba_marseille","lat":43.33032,"lon":5.39032,"is_reserved":false,"is_disabled":false,"rental_uris":{"android":"levelo://app?vid=8e871097-6ca9-458f-a7af-51bf04225af9","ios":"levelo://app?vid=8e871097-6ca9-458f-a7af-51bf04225af9"},"vehicle_type_id":"4","last_reported":1726495716,"current_range_meters":17600,"station_id":"ce4bhr92rcd13ifvqhrg","pricing_plan_id":"cebpf4jnsgd1na2vs0mg"},{"bike_id":"694ff864-2bf0-4394-8503-a129808daf75","system_id":"levelo_inurba_marseille","lat":43.2842,"lon":5.34991,"is_reserved":false,"is_disabled":false,"rental_uris":{"android":"levelo://app?vid=694ff864-2bf0-4394-8503-a129808daf75","ios":"levelo://app?vid=694ff864-2bf0-4394-8503-a129808daf75"},"vehicle_type_id":"4","last_reported":1726495716,"current_range_meters":13600,"station_id":"ce4bhbh2rcd13ifvqepg","pricing_plan_id":"cebpf4jnsgd1na2vs0mg"},{"bike_id":"4d484840-9730-4d89-bfc4-ab6d8dddff2d","system_id":"levelo_inurba_marseille","lat":43.27992,"lon":5.41653,"is_reserved":false,"is_disabled":false,"rental_uris":{"android":"levelo://app?vid=4d484840-9730-4d89-bfc4-ab6d8dddff2d","ios":"levelo://app?vid=4d484840-9730-4d89-bfc4-ab6d8dddff2d"},"vehicle_type_id":"4","last_reported":1726495716,"current_range_meters":36000,"station_id":"ce4bho12rcd13ifvqh1g","pricing_plan_id":"cebpf4jnsgd1na2vs0mg"},{"bike_id":"6355e703-11b8-4cc6-bcad-dde055c8e87d","system_id":"levelo_inurba_marseille","lat":43.25012,"lon":5.3892,"is_reserved":false,"is_disabled":false,"rental_uris":{"android":"levelo://app?vid=6355e703-11b8-4cc6-bcad-dde055c8e87d","ios":"levelo://app?vid=6355e703-11b8-4cc6-bcad-dde055c8e87d"},"vehicle_type_id":"4","last_reported":1726495716,"current_range_meters":38800,"station_id":"ce4bhgp2rcd13ifvqfd0","pricing_plan_id":"cebpf4jnsgd1na2vs0mg"},{"bike_id":"18f36b51-838b-46f8-9ad8-33cf10e0c950","system_id":"levelo_inurba_marseille","lat":43.3249,"lon":5.36551,"is_reserved":false,"is_disabled":false,"rental_uris":{"android":"levelo://app?vid=18f36b51-838b-46f8-9ad8-33cf10e0c950","ios":"levelo://app?vid=18f36b51-838b-46f8-9ad8-33cf10e0c950"},"vehicle_type_id":"4","last_reported":1726495716,"current_range_meters":38000,"station_id":"ce4bhs12rcd13ifvqhvg","pricing_plan_id":"cebpf4jnsgd1na2vs0mg"},{"bike_id":"4fdf6957-9be2-4dd5-815b-838938dcf8aa","system_id":"levelo_inurba_marseille","lat":43.2998,"lon":5.38501,"is_reserved":false,"is_disabled":false,"rental_uris":{"android":"levelo://app?vid=4fdf6957-9be2-4dd5-815b-838938dcf8aa","ios":"levelo://app?vid=4fdf6957-9be2-4dd5-815b-838938dcf8aa"},"vehicle_type_id":"4","last_reported":1726495716,"current_range_meters":39200,"station_id":"ce4bgj92rcd13ifvqbd0","pricing_plan_id":"cebpf4jnsgd1na2vs0mg"},{"bike_id":"eb4a8607-4840-45e0-82d9-2d48c7c3477e","system_id":"levelo_inurba_marseille","lat":43.316882,"lon":5.404733,"is_reserved":false,"is_disabled":false,"rental_uris":{"android":"levelo://app?vid=eb4a8607-4840-45e0-82d9-2d48c7c3477e","ios":"levelo://app?vid=eb4a8607-4840-45e0-82d9-2d48c7c3477e"},"vehicle_type_id":"4","last_reported":1726495716,"current_range_meters":20400,"station_id":"ce4bh012rcd13ifvqd00","pricing_plan_id":"cebpf4jnsgd1na2vs0mg"},