{"last_updated":1751551834,"ttl":60,"version":"2.2","data":{"bikes":[{"bike_id":"3da29fb8-fc97-44c6-b9ac-31dd456b2fd4","system_id":"levelo_inurba_marseille","lat":43.33771,"lon":5.37424,"is_reserved":false,"is_disabled":true,"rental_uris":{"android":"levelo://app?vid=3da29fb8-fc97-44c6-b9ac-31dd456b2fd4","ios":"levelo://app?vid=3da29fb8-fc97-44c6-b9ac-31dd456b2fd4"},"vehicle_type_id":"4","last_reported":1751551834,"current_range_meters":0,"station_id":"","pricing_plan_id":"cebpf4jnsgd1na2vs0mg"},{"bike_id":"01861ad8-a8d7-4be6-816e-651927c87584","system_id":"levelo_inurba_marseille","lat":43.33751,"lon":5.37456,"is_reserved":false,"is_disabled":true,"rental_uris":{"android":"levelo://app?vid=01861ad8-a8d7-4be6-816e-651927c87584","ios":"levelo://app?vid=01861ad8-a8d7-4be6-816e-651927c87584"},"vehicle_type_id":"4","last_reported":1751551834,"current_range_meters":0,"station_id":"","pricing_plan_id":"cebpf4jnsgd1na2vs0mg"},{"bike_id":"6e5b5a4d-1ee5-4068-9613-fb44ab4d8a9a","system_id":"levelo_inurba_marseille","lat":43.34864,"lon":5.34709,"is_reserved":false,"is_disabled":true,"rental_uris":{"android":"levelo://app?vid=6e5b5a4d-1ee5-4068-9613-fb44ab4d8a9a","ios":"levelo://app?vid=6e5b5a4d-1ee5-4068-9613-fb44ab4d8a9a"},"vehicle_type_id":"4","last_reported":1751551834,"current_range_meters":0,"station_id":"","pricing_plan_id":"cebpf4jnsgd1na2vs0mg"},{"bike_id":"8e365e3c-559a-4ba6-a6c5-4c159e2434fc","system_id":"levelo_inurba_marseille","lat":43.21744,"lon":5.34607,"is_reserved":false,"is_disabled":true,"rental_uris":{"android":"levelo://app?vid=8e365e3c-559a-4ba6-a6c5-4c159e2434fc","ios":"levelo://app?vid=8e365e3c-559a-4ba6-a6c5-4c159e2434fc"},"vehicle_type_id":"4","last_reported":1751551834,"current_range_meters":0,"station_id":"","pricing_plan_id":"cebpf4jnsgd1na2vs0mg"},{"bike_id":"5fe1f33a-ebc4-4182-b521-7ef3eadc1773","system_id":"levelo_inurba_marseille","lat":43.26908,"lon":5.36872,"is_reserved":false,"is_disabled":true,"rental_uris":{"android":"levelo://app?vid=5fe1f33a-ebc4-4182-b521-7ef3eadc1773","ios":"levelo://app?vid=5fe1f33a-ebc4-4182-b521-7ef3eadc1773"},"vehicle_type_id":"4","last_reported":1751551834,"current_range_meters":0,"station_id":"","pricing_plan_id":"cebpf4jnsgd1na2vs0mg"},{"bike_id":"4f8c7826-ef00-4467-b0a9-56921dcbf3b3","system_id":"levelo_inurba_marseille","lat":43.31167,"lon":5.38721,"is_reserved":false,"is_disabled":true,"rental_uris":{"android":"levelo://app?vid=4f8c7826-ef00-4467-b0a9-56921dcbf3b3","ios":"levelo://app?vid=4f8c7826-ef00-4467-b0a9-56921dcbf3b3"},"vehicle_type_id":"4","last_reported":1751551834,"current_range_meters":0,"station_id":"ce4bgv12rcd13ifvqcp0","pricing_plan_id":"cebpf4jnsgd1na2vs0mg"},{"bike_id":"8e520791-f3c2-458c-9680-3acd4b41f812","system_id":"levelo_inurba_marseille","lat":43.31169,"lon":5.38709,"is_reserved":false,"is_disabled":true,"rental_uris":{"android":"levelo://app?vid=8e520791-f3c2-458c-9680-3acd4b41f812","ios":"levelo://app?vid=8e520791-f3c2-458c-9680-3acd4b41f812"},"vehicle_type_id":"4","last_reported":1751551834,"current_range_meters":0,"station_id":"ce4bgv12rcd13ifvqcp0","pricing_plan_id":"cebpf4jnsgd1na2vs0mg"},{"bike_id":"e198fdcc-cd13-4de1-8bde-5dc6dca16ab0","system_id":"levelo_inurba_marseille","lat":43.31078,"lon":5.38381,"is_reserved":false,"is_disabled":true,"rental_uris":{"android":"levelo://app?vid=e198fdcc-cd13-4de1-8bde-5dc6dca16ab0","ios":"levelo://app?vid=e198fdcc-cd13-4de1-8bde-5dc6dca16ab0"},"vehicle_type_id":"4","last_reported":1751551834,"current_range_meters":0,"station_id":"ce4bgv92rcd13ifvqcr0","pricing_plan_id":"cebpf4jnsgd1na2vs0mg"},{"bike_id":"a254d8bd-e754-4714-be5b-dcf309581da8","system_id":"levelo_inurba_marseille","lat":43.29418,"lon":5.38613,"is_reserved":false,"is_disabled":true,"rental_uris":{"android":"levelo://app?vid=a254d8bd-e754-4714-be5b-dcf309581da8","ios":"levelo://app?vid=a254d8bd-e754-4714-be5b-dcf309581da8"},"vehicle_type_id":"4","last_reported":1751551834,"current_range_meters":0,"station_id":"ce4bh2h2rcd13ifvqdh0","pricing_plan_id":"cebpf4jnsgd1na2vs0mg"},{"bike_id":"6355f0e4-48ef-4b85-8b1b-6073e503efb5","system_id":"levelo_inurba_marseille","lat":43.29276,"lon":5.40132,"is_reserved":false,"is_disabled":true,"rental_uris":{"android":"levelo://app?vid=6355f0e4-48ef-4b85-8b1b-6073e503efb5","ios":"levelo://app?vid=6355f0e4-48ef-4b85-8b1b-6073e503efb5"},"vehicle_type_id":"4","last_reported":1751551834,"current_range_meters":0,"station_id":"ce4bh312rcd13ifvqdk0","pricing_plan_id":"cebpf4jnsgd1na2vs0mg"},{"bike_id":"84893065-6fc3-418c-9969-a03f8d7fccc1","system_id":"levelo_inurba_marseille","lat":43.28688,"lon":5.38678,"is_reserved":false,"is_disabled":true,"rental_uris":{"android":"levelo://app?vid=84893065-6fc3-418c-9969-a03f8d7fccc1","ios":"levelo://app?vid=84893065-6fc3-418c-9969-a03f8d7fccc1"},"vehicle_type_id":"4","last_reported":1751551834,"current_range_meters":0,"station_id":"ce4bh492rcd13ifvqdug","pricing_plan_id":"cebpf4jnsgd1na2vs0mg"},{"bike_id":"7e1af89e-c403-465f-82d8-c59ba7e76d89","system_id":"levelo_inurba_marseille","lat":43.290115,"lon":5.35623,"is_reserved":false,"is_disabled":true,"rental_uris":{"android":"levelo://app?vid=7e1af89e-c403-465f-82d8-c59ba7e76d89","ios":"levelo://app?vid=7e1af89e-c403-465f-82d8-c59ba7e76d89"},"vehicle_type_id":"4","last_reported":1751551834,"current_range_meters":0,"station_id":"ce4bhb92rcd13ifvqen0","pricing_plan_id":"cebpf4jnsgd1na2vs0mg"},{"bike_id":"9d073558-f145-4a10-bba2-ba169b867d97","system_id":"levelo_inurba_marseille","lat":43.28419,"lon":5.34988,"is_reserved":false,"is_disabled":true,"rental_uris":{"android":"levelo://app?vid=9d073558-f145-4a10-bba2-ba169b867d97","ios":"levelo://app?vid=9d073558-f145-4a10-bba2-ba169b867d97"},"vehicle_type_id":"4","last_reported":1751551834,"current_range_meters":0,"station_id":"ce4bhbh2rcd13ifvqepg","pricing_plan_id":"cebpf4jnsgd1na2vs0mg"},{"bike_id":"259d73eb-8183-4b01-98fb-27bb0900a583","system_id":"levelo_inurba_marseille","lat":43.24393,"lon":5.37054,"is_reserved":false,"is_disabled":true,"rental_uris":{"android":"levelo://app?vid=259d73eb-8183-4b01-98fb-27bb0900a583","ios":"levelo://app?vid=259d73eb-8183-4b01-98fb-27bb0900a583"},"vehicle_type_id":"4","last_reported":1751551834,"current_range_meters":0,"station_id":"ce4bhhh2rcd13ifvqfk0","pricing_plan_id":"cebpf4jnsgd1na2vs0mg"},{"bike_id":"45a36d42-3f75-4451-929c-2980bab85fb7","system_id":"levelo_inurba_marseille","lat":43.231653,"lon":5.437517,"is_reserved":false,"is_disabled":true,"rental_uris":{"android":"levelo://app?vid=45a36d42-3f75-4451-929c-2980bab85fb7","ios":"levelo://app?vid=45a36d42-3f75-4451-929c-2980bab85fb7"},"vehicle_type_id":"4","last_reported":1751551834,"current_range_meters":0,"station_id":"ce4bhmp2rcd13ifvqgog","pricing_plan_id":"cebpf4jnsgd1na2vs0mg"},{"bike_id":"74048b68-e069-4d0c-8b6b-30443c3a8faa","system_id":"levelo_inurba_marseille","lat":43.320407,"lon":5.415643,"is_reserved":false,"is_disabled":true,"rental_uris":{"android":"levelo://app?vid=74048b68-e069-4d0c-8b6b-30443c3a8faa","ios":"levelo://app?vid=74048b68-e069-4d0c-8b6b-30443c3a8faa"},"vehicle_type_id":"4","last_reported":1751551834,"current_range_meters":0,"station_id":"ce4bhq92rcd13ifvqhkg","pricing_plan_id":"cebpf4jnsgd1na2vs0mg"},{"bike_id":"e9115894-320f-4bfb-bee3-9d863c7aa0d7","system_id":"levelo_inurba_marseille","lat":43.31762,"lon":5.39014,"is_reserved":false,"is_disabled":true,"rental_uris":{"android":"levelo://app?vid=e9115894-320f-4bfb-bee3-9d863c7aa0d7","ios":"levelo://app?vid=e9115894-320f-4bfb-bee3-9d863c7aa0d7"},"vehicle_type_id":"4","last_reported":1751551834,"current_range_meters":0,"station_id":"ce4bhqp2rcd13ifvqhng","pricing_plan_id":"cebpf4jnsgd1na2vs0mg"},{"bike_id":"0ceedb97-b379-4d71-a0a5-a7aacfec8efe","system_id":"levelo_inurba_marseille","lat":43.23186,"lon":5.35552,"is_reserved":false,"is_disabled":true,"rental_uris":{"android":"levelo://app?vid=0ceedb97-b379-4d71-a0a5-a7aacfec8efe","ios":"levelo://app?vid=0ceedb97-b379-4d71-a0a5-a7aacfec8efe"},"vehicle_type_id":"4","last_reported":1751551834,"current_range_meters":0,"station_id":"ce4bhu92rcd13ifvqi70","pricing_plan_id":"cebpf4jnsgd1na2vs0mg"},{"bike_id":"34525e0e-88eb-4fe8-be83-e19f0f1185d3","system_id":"levelo_inurba_marseille","lat":43.22498,"lon":5.34781,"is_reserved":false,"is_disabled":true,"rental_uris":{"android":"levelo://app?vid=34525e0e-88eb-4fe8-be83-e19f0f1185d3","ios":"levelo://app?vid=34525e0e-88eb-4fe8-be83-e19f0f1185d3"},"vehicle_type_id":"4","last_reported":1751551834,"current_range_meters":0,"station_id":"st_cvj5dfep6f1abm77gieg","pricing_plan_id":"cebpf4jnsgd1na2vs0mg"},{"bike_id":"9795e511-4f68-494d-9846-41f87f5dd923","system_id":"levelo_inurba_marseille","lat":43.22492,"lon":5.34803,"is_reserved":false,"is_disabled":true,"rental_uris":{"android":"levelo://app?vid=9795e511-4f68-494d-9846-41f87f5dd923","ios":"levelo://app?vid=9795e511-4f68-494d-9846-41f87f5dd923"},"vehicle_type_id":"4","last_reported":1751551834,"current_range_meters":0,"station_id":"st_cvj5dfep6f1abm77gieg","pricing_plan_id":"cebpf4jnsgd1na2vs0mg"},{"bike_id":"7750661e-3127-4501-aa76-1d7cb6be5070","system_id":"levelo_inurba_marseille","lat":43.21758,"lon":5.34607,"is_reserved":false,"is_disabled":true,"rental_uris":{"android":"levelo://app?vid=7750661e-3127-4501-aa76-1d7cb6be5070","ios":"levelo://app?vid=7750661e-3127-4501-aa76-1d7cb6be5070"},"vehicle_type_id":"4","last_reported":1751551834,"current_range_meters":0,"station_id":"st_cvj6r9ubvosntc0bgbag","pricing_plan_id":"cebpf4jnsgd1na2vs0mg"},{"bike_id":"c27ffa5c-8d74-4089-a8a5-575b5c8db811","system_id":"levelo_inurba_marseille","lat":43.30561,"lon":5.36524,"is_reserved":false,"is_disabled":true,"rental_uris":{"android":"levelo://app?vid=c27ffa5c-8d74-4089-a8a5-575b5c8db811","ios":"levelo://app?vid=c27ffa5c-8d74-4089-a8a5-575b5c8db811"},"vehicle_type_id":"4","last_reported":1751551834,"current_range_meters":400,"station_id":"ce4bgs12rcd13ifvqcag","pricing_plan_id":"cebpf4jnsgd1na2vs0mg"},{"bike_id":"15e548eb-721a-40dc-9807-3fe421a5d4e7","system_id":"levelo_inurba_marseille","lat":43.30211,"lon":5.3947,"is_reserved":false,"is_disabled":true,"rental_uris":{"android":"levelo://app?vid=15e548eb-721a-40dc-9807-3fe421a5d4e7","ios":"levelo://app?vid=15e548eb-721a-40dc-9807-3fe421a5d4e7"},"vehicle_type_id":"4","last_reported":1751551834,"current_range_meters":400,"station_id":"ce4bh0p2rcd13ifvqd70","pricing_plan_id":"cebpf4jnsgd1na2vs0mg"},{"bike_id":"71750ec3-e3d4-4035-8113-416c5a1df250","system_id":"levelo_inurba_marseille","lat":43.29274,"lon":5.40111,"is_reserved":false,"is_disabled":true,"rental_uris":{"android":"levelo://app?vid=71750ec3-e3d4-4035-8113-416c5a1df250","ios":"levelo://app?vid=71750ec3-e3d4-4035-8113-416c5a1df250"},"vehicle_type_id":"4","last_reported":1751551834,"current_range_meters":400,"station_id":"ce4bh312rcd13ifvqdk0","pricing_plan_id":"cebpf4jnsgd1na2vs0mg"},{"bike_id":"f08d1be4-1455-4701-92ba-6417db9cd8af","system_id":"levelo_inurba_marseille","lat":43.28488,"lon":5.38413,"is_reserved":false,"is_disabled":true,"rental_uris":{"android":"levelo://app?vid=f08d1be4-1455-4701-92ba-6417db9cd8af","ios":"levelo://app?vid=f08d1be4-1455-4701-92ba-6417db9cd8af"},"vehicle_type_id":"4","last_reported":1751551834,"current_range_meters":400,"station_id":"ce4bh512rcd13ifvqe3g","pricing_plan_id":"cebpf4jnsgd1na2vs0mg"},{"bike_id":"75d0a17c-d0c5-45e5-9632-3722a87e82d5","system_id":"levelo_inurba_marseille","lat":43.32081,"lon":5.36779,"is_reserved":false,"is_disabled":true,"rental_uris":{"android":"levelo://app?vid=75d0a17c-d0c5-45e5-9632-3722a87e82d5","ios":"levelo://app?vid=75d0a17c-d0c5-45e5-9632-3722a87e82d5"},"vehicle_type_id":"4","last_reported":1751551834,"current_range_meters":400,"station_id":"ce4bhrh2rcd13ifvqhug","pricing_plan_id":"cebpf4jnsgd1na2vs0mg"},{"bike_id":"930ea802-d6da-4615-ba63-e24e38d03ddb","system_id":"levelo_inurba_marseille","lat":43.301879,"lon":5.400789,"is_reserved":false,"is_disabled":true,"rental_uris":{"android":"levelo://app?vid=930ea802-d6da-4615-ba63-e24e38d03ddb","ios":"levelo://app?vid=930ea802-d6da-4615-ba63-e24e38d03ddb"},"vehicle_type_id":"4","last_reported":1751551834,"current_range_meters":800,"station_id":"ce4bgvh2rcd13ifvqcs0","pricing_plan_id":"cebpf4jnsgd1na2vs0mg"},{"bike_id":"312846ef-0f02-4cb0-9ff7-844331029997","system_id":"levelo_inurba_marseille","lat":43.28265,"lon":5.35066,"is_reserved":false,"is_disabled":true,"rental_uris":{"android":"levelo://app?vid=312846ef-0f02-4cb0-9ff7-844331029997","ios":"levelo://app?vid=312846ef-0f02-4cb0-9ff7-844331029997"},"vehicle_type_id":"4","last_reported":1751551834,"current_range_meters":800,"station_id":"ce4bhbp2rcd13ifvqerg","pricing_plan_id":"cebpf4jnsgd1na2vs0mg"},{"bike_id":"11de543d-1583-44f8-a1ec-1fda76c1884c","system_id":"levelo_inurba_marseille","lat":43.279675,"lon":5.387405,"is_reserved":false,"is_disabled":true,"rental_uris":{"android":"levelo://app?vid=11de543d-1583-44f8-a1ec-1fda76c1884c","ios":"levelo://app?vid=11de543d-1583-44f8-a1ec-1fda76c1884c"},"vehicle_type_id":"4","last_reported":1751551834,"current_range_meters":800,"station_id":"ce4bhg12rcd13ifvqf80","pricing_plan_id":"cebpf4jnsgd1na2vs0mg"},{"bike_id":"b92f819d-38c6-460b-bd64-54a7292238b4","system_id":"levelo_inurba_marseille","lat":43.312296,"lon":5.368552,"is_reserved":false,"is_disabled":true,"rental_uris":{"android":"levelo://app?vid=b92f819d-38c6-460b-bd64-54a7292238b4","ios":"levelo://app?vid=b92f819d-38c6-460b-bd64-54a7292238b4"},"vehicle_type_id":"4","last_reported":1751551834,"current_range_meters":1200,"station_id":"ce4bgl92rcd13ifvqbq0","pricing_plan_id":"cebpf4jnsgd1na2vs0mg"},{"bike_id":"c19f43eb-238e-489e-ad19-cc88bfac3813","system_id":"levelo_inurba_marseille","lat":43.3133,"lon":5.39692,"is_reserved":false,"is_disabled":true,"rental_uris":{"android":"levelo://app?vid=c19f43eb-238e-489e-ad19-cc88bfac3813","ios":"levelo://app?vid=c19f43eb-238e-489e-ad19-cc88bfac3813"},"vehicle_type_id":"4","last_reported":1751551834,"current_range_meters":1600,"station_id":"ce4bgvp2rcd13ifvqcu0","pricing_plan_id":"cebpf4jnsgd1na2vs0mg"},{"bike_id":"78438d3a-758f-40e3-929e-20c7945d82dc","system_id":"levelo_inurba_marseille","lat":43.25086,"lon":5.39528,"is_reserved":false,"is_disabled":true,"rental_uris":{"android":"levelo://app?vid=78438d3a-758f-40e3-929e-20c7945d82dc","ios":"levelo://app?vid=78438d3a-758f-40e3-929e-20c7945d82dc"},"vehicle_type_id":"4","last_reported":1751551834,"current_range_meters":1600,"station_id":"ce4bhm12rcd13ifvqgkg","pricing_plan_id":"cebpf4jnsgd1na2vs0mg"},{"bike_id":"e418c519-f08b-4421-84c1-8ea16b5c982d","system_id":"levelo_inurba_marseille","lat":43.31365,"lon":5.36668,"is_reserved":false,"is_disabled":true,"rental_uris":{"android":"levelo://app?vid=e418c519-f08b-4421-84c1-8ea16b5c982d","ios":"levelo://app?vid=e418c519-f08b-4421-84c1-8ea16b5c982d"},"vehicle_type_id":"4","last_reported":1751551834,"current_range_meters":2000,"station_id":"ce4bgr92rcd13ifvqc6g","pricing_plan_id":"cebpf4jnsgd1na2vs0mg"},{"bike_id":"d3d85bfe-eaf3-4a5a-a4b5-36fd5b00b539","system_id":"levelo_inurba_marseille","lat":43.305245,"lon":5.367175,"is_reserved":false,"is_disabled":true,"rental_uris":{"android":"levelo://app?vid=d3d85bfe-eaf3-4a5a-a4b5-36fd5b00b539","ios":"levelo://app?vid=d3d85bfe-eaf3-4a5a-a4b5-36fd5b00b539"},"vehicle_type_id":"4","last_reported":1751551834,"current_range_meters":2000,"station_id":"ce4bgrp2rcd13ifvqc9g","pricing_plan_id":"cebpf4jnsgd1na2vs0mg"},{"bike_id":"76a100d9-4d35-421f-be53-2a50aecdcba0","system_id":"levelo_inurba_marseille","lat":43.31101,"lon":5.37767,"is_reserved":false,"is_disabled":true,"rental_uris":{"android":"levelo://app?vid=76a100d9-4d35-421f-be53-2a50aecdcba0","ios":"levelo://app?vid=76a100d9-4d35-421f-be53-2a50aecdcba0"},"vehicle_type_id":"4","last_reported":1751551834,"current_range_meters":2000,"station_id":"ce4bgt92rcd13ifvqcg0","pricing_plan_id":"cebpf4jnsgd1na2vs0mg"},{"bike_id":"7020defe-1e87-414a-9091-9d7dfa49d62b","system_id":"levelo_inurba_marseille","lat":43.28271,"lon":5.35066,"is_reserved":false,"is_disabled":true,"rental_uris":{"android":"levelo://app?vid=7020defe-1e87-414a-9091-9d7dfa49d62b","ios":"levelo://app?vid=7020defe-1e87-414a-9091-9d7dfa49d62b"},"vehicle_type_id":"4","last_reported":1751551834,"current_range_meters":2000,"station_id":"ce4bhbp2rcd13ifvqerg","pricing_plan_id":"cebpf4jnsgd1na2vs0mg"},{"bike_id":"00d428e8-08e9-408d-83f8-6e818b6ea087","system_id":"levelo_inurba_marseille","lat":43.24665,"lon":5.38165,"is_reserved":false,"is_disabled":true,"rental_uris":{"android":"levelo://app?vid=00d428e8-08e9-408d-83f8-6e818b6ea087","ios":"levelo://app?vid=00d428e8-08e9-408d-83f8-6e818b6ea087"},"vehicle_type_id":"4","last_reported":1751551834,"current_range_meters":2000,"station_id":"ce4bhih2rcd13ifvqfr0","pricing_plan_id":"cebpf4jnsgd1na2vs0mg"},{"bike_id":"a480ffaa-c5b5-4802-a751-fb4017a20116","system_id":"levelo_inurba_marseille","lat":43.23191,"lon":5.35558,"is_reserved":false,"is_disabled":true,"rental_uris":{"android":"levelo://app?vid=a480ffaa-c5b5-4802-a751-fb4017a20116","ios":"levelo://app?vid=a480ffaa-c5b5-4802-a751-fb4017a20116"},"vehicle_type_id":"4","last_reported":1751551834,"current_range_meters":2000,"station_id":"ce4bhu92rcd13ifvqi70","pricing_plan_id":"cebpf4jnsgd1na2vs0mg"},{"bike_id":"813bb339-3c48-4910-8355-5d31c6faa919","system_id":"levelo_inurba_marseille","lat":43.24069,"lon":5.37765,"is_reserved":false,"is_disabled":false,"rental_uris":{"android":"levelo://app?vid=813bb339-3c48-4910-8355-5d31c6faa919","ios":"levelo://app?vid=813bb339-3c48-4910-8355-5d31c6faa919"},"vehicle_type_id":"4","last_reported":1751551834,"current_range_meters":2800,"station_id":"ce4bhnp2rcd13ifvqgvg","pricing_plan_id":"cebpf4jnsgd1na2vs0mg"},{"bike_id":"82fe187f-756c-4548-a7c4-3fc3ac31b7d2","system_id":"levelo_inurba_marseille","lat":43.2177,"lon":5.34608,"is_reserved":false,"is_disabled":false,"rental_uris":{"android":"levelo://app?vid=82fe187f-756c-4548-a7c4-3fc3ac31b7d2","ios":"levelo://app?vid=82fe187f-756c-4548-a7c4-3fc3ac31b7d2"},"vehicle_type_id":"4","last_reported":1751551834,"current_range_meters":2800,"station_id":"st_cvj6r9ubvosntc0bgbag","pricing_plan_id":"cebpf4jnsgd1na2vs0mg"},{"bike_id":"52fca1e6-8ced-447a-8458-b55088d707ce","system_id":"levelo_inurba_marseille","lat":43.28413,"lon":5.34993,"is_reserved":false,"is_disabled":false,"rental_uris":{"android":"levelo://app?vid=52fca1e6-8ced-447a-8458-b55088d707ce","ios":"levelo://app?vid=52fca1e6-8ced-447a-8458-b55088d707ce"},"vehicle_type_id":"4","last_reported":1751551834,"current_range_meters":3600,"station_id":"ce4bhbh2rcd13ifvqepg","pricing_plan_id":"cebpf4jnsgd1na2vs0mg"},{"bike_id":"f01bc8f1-adbd-4ce7-b1a0-7a0fa10b7efb","system_id":"levelo_inurba_marseille","lat":43.330264,"lon":5.390646,"is_reserved":false,"is_disabled":false,"rental_uris":{"android":"levelo://app?vid=f01bc8f1-adbd-4ce7-b1a0-7a0fa10b7efb","ios":"levelo://app?vid=f01bc8f1-adbd-4ce7-b1a0-7a0fa10b7efb"},"vehicle_type_id":"4","last_reported":1751551834,"current_range_meters":3600,"station_id":"ce4bhr92rcd13ifvqhrg","pricing_plan_id":"cebpf4jnsgd1na2vs0mg"},{"bike_id":"ee5b420f-37cc-49e7-910c-5eec597e242a","system_id":"levelo_inurba_marseille","lat":43.292612,"lon":5.384254,"is_reserved":false,"is_disabled":false,"rental_uris":{"android":"levelo://app?vid=ee5b420f-37cc-49e7-910c-5eec597e242a","ios":"levelo://app?vid=ee5b420f-37cc-49e7-910c-5eec597e242a"},"vehicle_type_id":"4","last_reported":1751551834,"current_range_meters":4000,"station_id":"ce4bh692rcd13ifvqea0","pricing_plan_id":"cebpf4jnsgd1na2vs0mg"},{"bike_id":"4792b17c-c917-4b11-a8f3-6466f0a03dc8","system_id":"levelo_inurba_marseille","lat":43.23155,"lon":5.43719,"is_reserved":false,"is_disabled":false,"rental_uris":{"android":"levelo://app?vid=4792b17c-c917-4b11-a8f3-6466f0a03dc8","ios":"levelo://app?vid=4792b17c-c917-4b11-a8f3-6466f0a03dc8"},"vehicle_type_id":"4","last_reported":1751551834,"current_range_meters":4000,"station_id":"ce4bhmp2rcd13ifvqgog","pricing_plan_id":"cebpf4jnsgd1na2vs0mg"},{"bike_id":"85a77ae4-8629-4568-b070-e86f54f39397","system_id":"levelo_inurba_marseille","lat":43.304203,"lon":5.412903,"is_reserved":false,"is_disabled":false,"rental_uris":{"android":"levelo://app?vid=85a77ae4-8629-4568-b070-e86f54f39397","ios":"levelo://app?vid=85a77ae4-8629-4568-b070-e86f54f39397"},"vehicle_type_id":"4","last_reported":1751551834,"current_range_meters":4000,"station_id":"ce4bhop2rcd13ifvqh8g","pricing_plan_id":"cebpf4jnsgd1na2vs0mg"},{"bike_id":"8becf1b9-b72c-4763-a062-bbd587ae45bf","system_id":"levelo_inurba_marseille","lat":43.32637,"lon":5.42469,"is_reserved":false,"is_disabled":false,"rental_uris":{"android":"levelo://app?vid=8becf1b9-b72c-4763-a062-bbd587ae45bf","ios":"levelo://app?vid=8becf1b9-b72c-4763-a062-bbd587ae45bf"},"vehicle_type_id":"4","last_reported":1751551834,"current_range_meters":4400,"station_id":"","pricing_plan_id":"cebpf4jnsgd1na2vs0mg"},{"bike_id":"24a10207-fe7a-44ab-9f35-5620e2248236","system_id":"levelo_inurba_marseille","lat":43.30146,"lon":5.38078,"is_reserved":false,"is_disabled":false,"rental_uris":{"android":"levelo://app?vid=24a10207-fe7a-44ab-9f35-5620e2248236","ios":"levelo://app?vid=24a10207-fe7a-44ab-9f35-5620e2248236"},"vehicle_type_id":"4","last_reported":1751551834,"current_range_meters":4400,"station_id":"ce4bgjp2rcd13ifvqbh0","pricing_plan_id":"cebpf4jnsgd1na2vs0mg"},{"bike_id":"4a84c7af-2f04-4a73-9e20-f6a74b359fc4","system_id":"levelo_inurba_marseille","lat":43.30402,"lon":5.38885,"is_reserved":false,"is_disabled":false,"rental_uris":{"android":"levelo://app?vid=4a84c7af-2f04-4a73-9e20-f6a74b359fc4","ios":"levelo://app?vid=4a84c7af-2f04-4a73-9e20-f6a74b359fc4"},"vehicle_type_id":"4","last_reported":1751551834,"current_range_meters":4400,"station_id":"ce4bgk12rcd13ifvqbi0","pricing_plan_id":"cebpf4jnsgd1na2vs0mg"},{"bike_id":"88f0d88a-1dec-4977-a19a-71293da7fba4","system_id":"levelo_inurba_marseille","lat":43.323611,"lon":5.367465,"is_reserved":false,"is_disabled":false,"rental_uris":{"android":"levelo://app?vid=88f0d88a-1dec-4977-a19a-71293da7fba4","ios":"levelo://app?vid=88f0d88a-1dec-4977-a19a-71293da7fba4"},"vehicle_type_id":"4","last_reported":1751551834,"current_range_meters":4400,"station_id":"ce4bhsh2rcd13ifvqi2g","pricing_plan_id":"cebpf4jnsgd1na2vs0mg"},{"bike_id":"cb18e5c7-3a80-4343-89dc-0959310b2eaa","system_id":"levelo_inurba_marseille","lat":43.29603,"lon":5.38105,"is_reserved":false,"is_disabled":false,"rental_uris":{"android":"levelo://app?vid=cb18e5c7-3a80-4343-89dc-0959310b2eaa","ios":"levelo://app?vid=cb18e5c7-3a80-4343-89dc-0959310b2eaa"},"vehicle_type_id":"4","last_reported":1751551834,"current_range_meters":4800,"station_id":"ce4bgl12rcd13ifvqbo0","pricing_plan_id":"cebpf4jnsgd1na2vs0mg"},{"bike_id":"f1c6d01a-85e4-4652-baa4-2c27efd6fd10","system_id":"levelo_inurba_marseille","lat":43.292816,"lon":5.401181,"is_reserved":false,"is_disabled":false,"rental_uris":{"android":"levelo://app?vid=f1c6d01a-85e4-4652-baa4-2c27efd6fd10","ios":"levelo://app?vid=f1c6d01a-85e4-4652-baa4-2c27efd6fd10"},"vehicle_type_id":"4","last_reported":1751551834,"current_range_meters":4800,"station_id":"ce4bh312rcd13ifvqdk0","pricing_plan_id":"cebpf4jnsgd1na2vs0mg"},{"bike_id":"cba5b54b-79c5-4b17-abe0-2f4e94c57b41","system_id":"levelo_inurba_marseille","lat":43.2808,"lon":5.34795,"is_reserved":false,"is_disabled":false,"rental_uris":{"android":"levelo://app?vid=cba5b54b-79c5-4b17-abe0-2f4e94c57b41","ios":"levelo://app?vid=cba5b54b-79c5-4b17-abe0-2f4e94c57b41"},"vehicle_type_id":"4","last_reported":1751551834,"current_range_meters":5600,"station_id":"","pricing_plan_id":"cebpf4jnsgd1na2vs0mg"},{"bike_id":"1fa8b92c-7eac-4bc6-ac0e-807b5097f08e","system_id":"levelo_inurba_marseille","lat":43.29001,"lon":5.35602,"is_reserved":false,"is_disabled":false,"rental_uris":{"android":"levelo://app?vid=1fa8b92c-7eac-4bc6-ac0e-807b5097f08e","ios":"levelo://app?vid=1fa8b92c-7eac-4bc6-ac0e-807b5097f08e"},"vehicle_type_id":"4","last_reported":1751551834,"current_range_meters":5600,"station_id":"ce4bhb92rcd13ifvqen0","pricing_plan_id":"cebpf4jnsgd1na2vs0mg"},{"bike_id":"3fbceb20-d877-411e-a90d-f13a05e02fc6","system_id":"levelo_inurba_marseille","lat":43.3034,"lon":5.37932,"is_reserved":false,"is_disabled":false,"rental_uris":{"android":"levelo://app?vid=3fbceb20-d877-411e-a90d-f13a05e02fc6","ios":"levelo://app?vid=3fbceb20-d877-411e-a90d-f13a05e02fc6"},"vehicle_type_id":"4","last_reported":1751551834,"current_range_meters":6000,"station_id":"","pricing_plan_id":"cebpf4jnsgd1na2vs0mg"},{"bike_id":"df317eea-174b-49c1-ad3e-cd805cac56c7","system_id":"levelo_inurba_marseille","lat":43.29912,"lon":5.37474,"is_reserved":false,"is_disabled":false,"rental_uris":{"android":"levelo://app?vid=df317eea-174b-49c1-ad3e-cd805cac56c7","ios":"levelo://app?vid=df317eea-174b-49c1-ad3e-cd805cac56c7"},"vehicle_type_id":"4","last_reported":1751551834,"current_range_meters":6000,"station_id":"ce4bgjh2rcd13ifvqbg0","pricing_plan_id":"cebpf4jnsgd1na2vs0mg"},{"bike_id":"fd6d7656-f57e-4563-bf4e-0277364e7bdb","system_id":"levelo_inurba_marseille","lat":43.276169,"lon":5.361018,"is_reserved":false,"is_disabled":false,"rental_uris":{"android":"levelo://app?vid=fd6d7656-f57e-4563-bf4e-0277364e7bdb","ios":"levelo://app?vid=fd6d7656-f57e-4563-bf4e-0277364e7bdb"},"vehicle_type_id":"4","last_reported":1751551834,"current_range_meters":6400,"station_id":"ce4bgj92rcd13ifvqbe0","pricing_plan_id":"cebpf4jnsgd1na2vs0mg"},{"bike_id":"3f722d8d-7577-463c-85b5-1949a10e1f17","system_id":"levelo_inurba_marseille","lat":43.3078,"lon":5.3766,"is_reserved":false,"is_disabled":false,"rental_uris":{"android":"levelo://app?vid=3f722d8d-7577-463c-85b5-1949a10e1f17","ios":"levelo://app?vid=3f722d8d-7577-463c-85b5-1949a10e1f17"},"vehicle_type_id":"4","last_reported":1751551834,"current_range_meters":6400,"station_id":"ce4bgv92rcd13ifvqcq0","pricing_plan_id":"cebpf4jnsgd1na2vs0mg"},{"bike_id":"e0acf01f-4649-465b-8444-dad9120822a1","system_id":"levelo_inurba_marseille","lat":43.28941,"lon":5.36637,"is_reserved":false,"is_disabled":false,"rental_uris":{"android":"levelo://app?vid=e0acf01f-4649-465b-8444-dad9120822a1","ios":"levelo://app?vid=e0acf01f-4649-465b-8444-dad9120822a1"},"vehicle_type_id":"4","last_reported":1751551834,"current_range_meters":6400,"station_id":"ce4bhap2rcd13ifvqek0","pricing_plan_id":"cebpf4jnsgd1na2vs0mg"},{"bike_id":"27cd3a9b-37fc-4e25-b395-499086f91ac0","system_id":"levelo_inurba_marseille","lat":43.28436,"lon":5.39193,"is_reserved":false,"is_disabled":false,"rental_uris":{"android":"levelo://app?vid=27cd3a9b-37fc-4e25-b395-499086f91ac0","ios":"levelo://app?vid=27cd3a9b-37fc-4e25-b395-499086f91ac0"},"vehicle_type_id":"4","last_reported":1751551834,"current_range_meters":6400,"station_id":"ce4bhoh2rcd13ifvqh5g","pricing_plan_id":"cebpf4jnsgd1na2vs0mg"},{"bike_id":"d3b1ed87-49b4-4d4d-a519-912c9c400d73","system_id":"levelo_inurba_marseille","lat":43.28244,"lon":5.35078,"is_reserved":false,"is_disabled":false,"rental_uris":{"android":"levelo://app?vid=d3b1ed87-49b4-4d4d-a519-912c9c400d73","ios":"levelo://app?vid=d3b1ed87-49b4-4d4d-a519-912c9c400d73"},"vehicle_type_id":"4","last_reported":1751551834,"current_range_meters":7200,"station_id":"ce4bhbp2rcd13ifvqerg","pricing_plan_id":"cebpf4jnsgd1na2vs0mg"},{"bike_id":"de3d3d25-7354-49cb-8fa4-5acf1471cb8d","system_id":"levelo_inurba_marseille","lat":43.21186,"lon":5.3507,"is_reserved":false,"is_disabled":false,"rental_uris":{"android":"levelo://app?vid=de3d3d25-7354-49cb-8fa4-5acf1471cb8d","ios":"levelo://app?vid=de3d3d25-7354-49cb-8fa4-5acf1471cb8d"},"vehicle_type_id":"4","last_reported":1751551834,"current_range_meters":7200,"station_id":"st_cvj6sg6p6f1abm77japg","pricing_plan_id":"cebpf4jnsgd1na2vs0mg"},{"bike_id":"c73d2709-218b-49fe-b27e-d9cada7c0615","system_id":"levelo_inurba_marseille","lat":43.286961,"lon":5.373815,"is_reserved":false,"is_disabled":false,"rental_uris":{"android":"levelo://app?vid=c73d2709-218b-49fe-b27e-d9cada7c0615","ios":"levelo://app?vid=c73d2709-218b-49fe-b27e-d9cada7c0615"},"vehicle_type_id":"4","last_reported":1751551834,"current_range_meters":8000,"station_id":"","pricing_plan_id":"cebpf4jnsgd1na2vs0mg"},{"bike_id":"da921d92-526f-401b-95dc-b12109d1091d","system_id":"levelo_inurba_marseille","lat":43.36362,"lon":5.35031,"is_reserved":false,"is_disabled":false,"rental_uris":{"android":"levelo://app?vid=da921d92-526f-401b-95dc-b12109d1091d","ios":"levelo://app?vid=da921d92-526f-401b-95dc-b12109d1091d"},"vehicle_type_id":"4","last_reported":1751551834,"current_range_meters":8000,"station_id":"","pricing_plan_id":"cebpf4jnsgd1na2vs0mg"},{"bike_id":"63ef1ec6-e795-4626-be06-ea0e9f673b9a","system_id":"levelo_inurba_marseille","lat":43.28371,"lon":5.38634,"is_reserved":false,"is_disabled":false,"rental_uris":{"android":"levelo://app?vid=63ef1ec6-e795-4626-be06-ea0e9f673b9a","ios":"levelo://app?vid=63ef1ec6-e795-4626-be06-ea0e9f673b9a"},"vehicle_type_id":"4","last_reported":1751551834,"current_range_meters":8000,"station_id":"ce4bh492rcd13ifvqdvg","pricing_plan_id":"cebpf4jnsgd1na2vs0mg"},{"bike_id":"a62a0ef6-babe-44d3-9278-a9bccd58a7db","system_id":"levelo_inurba_marseille","lat":43.29555,"lon":5.42289,"is_reserved":false,"is_disabled":false,"rental_uris":{"android":"levelo://app?vid=a62a0ef6-babe-44d3-9278-a9bccd58a7db","ios":"levelo://app?vid=a62a0ef6-babe-44d3-9278-a9bccd58a7db"},"vehicle_type_id":"4","last_reported":1751551834,"current_range_meters":8000,"station_id":"ce4bhph2rcd13ifvqhdg","pricing_plan_id":"cebpf4jnsgd1na2vs0mg"},{"bike_id":"d3129ebf-e07f-45b3-a0a8-f613b1212ed6","system_id":"levelo_inurba_marseille","lat":43.21765,"lon":5.34594,"is_reserved":false,"is_disabled":false,"rental_uris":{"android":"levelo://app?vid=d3129ebf-e07f-45b3-a0a8-f613b1212ed6","ios":"levelo://app?vid=d3129ebf-e07f-45b3-a0a8-f613b1212ed6"},"vehicle_type_id":"4","last_reported":1751551834,"current_range_meters":8000,"station_id":"st_cvj6r9ubvosntc0bgbag","pricing_plan_id":"cebpf4jnsgd1na2vs0mg"},{"bike_id":"a331c36a-1815-4f21-a2d5-c08fc1e19f54","system_id":"levelo_inurba_marseille","lat":43.29551,"lon":5.37474,"is_reserved":false,"is_disabled":false,"rental_uris":{"android":"levelo://app?vid=a331c36a-1815-4f21-a2d5-c08fc1e19f54","ios":"levelo://app?vid=a331c36a-1815-4f21-a2d5-c08fc1e19f54"},"vehicle_type_id":"4","last_reported":1751551834,"current_range_meters":8400,"station_id":"","pricing_plan_id":"cebpf4jnsgd1na2vs0mg"},{"bike_id":"55e5ba9b-d042-484e-a5b7-5dfd96335824","system_id":"levelo_inurba_marseille","lat":43.28614,"lon":5.35104,"is_reserved":false,"is_disabled":false,"rental_uris":{"android":"levelo://app?vid=55e5ba9b-d042-484e-a5b7-5dfd96335824","ios":"levelo://app?vid=55e5ba9b-d042-484e-a5b7-5dfd96335824"},"vehicle_type_id":"4","last_reported":1751551834,"current_range_meters":8400,"station_id":"ce4bhch2rcd13ifvqeug","pricing_plan_id":"cebpf4jnsgd1na2vs0mg"},{"bike_id":"6b68e9ee-d16a-450a-9fff-93c38dcb10ee","system_id":"levelo_inurba_marseille","lat":43.30541,"lon":5.36555,"is_reserved":false,"is_disabled":false,"rental_uris":{"android":"levelo://app?vid=6b68e9ee-d16a-450a-9fff-93c38dcb10ee","ios":"levelo://app?vid=6b68e9ee-d16a-450a-9fff-93c38dcb10ee"},"vehicle_type_id":"4","last_reported":1751551834,"current_range_meters":8800,"station_id":"ce4bgs12rcd13ifvqcag","pricing_plan_id":"cebpf4jnsgd1na2vs0mg"},{"bike_id":"314dbc70-272b-467b-a8aa-4f2dd8d69042","system_id":"levelo_inurba_marseille","lat":43.30893,"lon":5.37203,"is_reserved":false,"is_disabled":false,"rental_uris":{"android":"levelo://app?vid=314dbc70-272b-467b-a8aa-4f2dd8d69042","ios":"levelo://app?vid=314dbc70-272b-467b-a8aa-4f2dd8d69042"},"vehicle_type_id":"4","last_reported":1751551834,"current_range_meters":8800,"station_id":"ce4bguh2rcd13ifvqckg","pricing_plan_id":"cebpf4jnsgd1na2vs0mg"},{"bike_id":"34ae105f-cd41-45ff-b895-0bae2a24e75b","system_id":"levelo_inurba_marseille","lat":43.284905,"lon":5.380395,"is_reserved":false,"is_disabled":false,"rental_uris":{"android":"levelo://app?vid=34ae105f-cd41-45ff-b895-0bae2a24e75b","ios":"levelo://app?vid=34ae105f-cd41-45ff-b895-0bae2a24e75b"},"vehicle_type_id":"4","last_reported":1751551834,"current_range_meters":8800,"station_id":"ce4bh412rcd13ifvqdr0","pricing_plan_id":"cebpf4jnsgd1na2vs0mg"},{"bike_id":"9eab7a16-0f94-4628-90fc-98c3241dfc39","system_id":"levelo_inurba_marseille","lat":43.282684,"lon":5.350521,"is_reserved":false,"is_disabled":false,"rental_uris":{"android":"levelo://app?vid=9eab7a16-0f94-4628-90fc-98c3241dfc39","ios":"levelo://app?vid=9eab7a16-0f94-4628-90fc-98c3241dfc39"},"vehicle_type_id":"4","last_reported":1751551834,"current_range_meters":8800,"station_id":"ce4bhbp2rcd13ifvqerg","pricing_plan_id":"cebpf4jnsgd1na2vs0mg"},{"bike_id":"b369f055-cd22-4fb6-a728-69430ded506c","system_id":"levelo_inurba_marseille","lat":43.21723,"lon":5.34655,"is_reserved":false,"is_disabled":false,"rental_uris":{"android":"levelo://app?vid=b369f055-cd22-4fb6-a728-69430ded506c","ios":"levelo://app?vid=b369f055-cd22-4fb6-a728-69430ded506c"},"vehicle_type_id":"4","last_reported":1751551834,"current_range_meters":8800,"station_id":"st_cvj6r9ubvosntc0bgbag","pricing_plan_id":"cebpf4jnsgd1na2vs0mg"},{"bike_id":"10516812-2b1e-4439-a750-b690945f8e8b","system_id":"levelo_inurba_marseille","lat":43.30919,"lon":5.40149,"is_reserved":false,"is_disabled":false,"rental_uris":{"android":"levelo://app?vid=10516812-2b1e-4439-a750-b690945f8e8b","ios":"levelo://app?vid=10516812-2b1e-4439-a750-b690945f8e8b"},"vehicle_type_id":"4","last_reported":1751551834,"current_range_meters":9200,"station_id":"ce4bgvp2rcd13ifvqct0","pricing_plan_id":"cebpf4jnsgd1na2vs0mg"},{"bike_id":"9a7d342a-ff8e-46c4-af1e-6e0519bd67dc","system_id":"levelo_inurba_marseille","lat":43.291433,"lon":5.355899,"is_reserved":false,"is_disabled":false,"rental_uris":{"android":"levelo://app?vid=9a7d342a-ff8e-46c4-af1e-6e0519bd67dc","ios":"levelo://app?vid=9a7d342a-ff8e-46c4-af1e-6e0519bd67dc"},"vehicle_type_id":"4","last_reported":1751551834,"current_range_meters":9600,"station_id":"","pricing_plan_id":"cebpf4jnsgd1na2vs0mg"},{"bike_id":"bf00a211-3496-4df0-8e4e-99767047ca09","system_id":"levelo_inurba_marseille","lat":43.29952,"lon":5.37621,"is_reserved":false,"is_disabled":false,"rental_uris":{"android":"levelo://app?vid=bf00a211-3496-4df0-8e4e-99767047ca09","ios":"levelo://app?vid=bf00a211-3496-4df0-8e4e-99767047ca09"},"vehicle_type_id":"4","last_reported":1751551834,"current_range_meters":9600,"station_id":"","pricing_plan_id":"cebpf4jnsgd1na2vs0mg"},{"bike_id":"3e405b37-1006-4dbc-94b5-ffc8771b36ee","system_id":"levelo_inurba_marseille","lat":43.301372,"lon":5.374222,"is_reserved":false,"is_disabled":false,"rental_uris":{"android":"levelo://app?vid=3e405b37-1006-4dbc-94b5-ffc8771b36ee","ios":"levelo://app?vid=3e405b37-1006-4dbc-94b5-ffc8771b36ee"},"vehicle_type_id":"4","last_reported":1751551834,"current_range_meters":9600,"station_id":"ce4bgs92rcd13ifvqcc0","pricing_plan_id":"cebpf4jnsgd1na2vs0mg"},{"bike_id":"b44c5f08-ff86-44db-a0f4-3b801f7529e3","system_id":"levelo_inurba_marseille","lat":43.32052,"lon":5.41533,"is_reserved":false,"is_disabled":false,"rental_uris":{"android":"levelo://app?vid=b44c5f08-ff86-44db-a0f4-3b801f7529e3","ios":"levelo://app?vid=b44c5f08-ff86-44db-a0f4-3b801f7529e3"},"vehicle_type_id":"4","last_reported":1751551834,"current_range_meters":9600,"station_id":"ce4bhq92rcd13ifvqhkg","pricing_plan_id":"cebpf4jnsgd1na2vs0mg"},{"bike_id":"22c65f34-5b9a-4ce8-b3b0-5a1a52b259a2","system_id":"levelo_inurba_marseille","lat":43.2971,"lon":5.40181,"is_reserved":false,"is_disabled":false,"rental_uris":{"android":"levelo://app?vid=22c65f34-5b9a-4ce8-b3b0-5a1a52b259a2","ios":"levelo://app?vid=22c65f34-5b9a-4ce8-b3b0-5a1a52b259a2"},"vehicle_type_id":"4","last_reported":1751551834,"current_range_meters":10000,"station_id":"","pricing_plan_id":"cebpf4jnsgd1na2vs0mg"},{"bike_id":"bcfd0eda-b9ab-4bec-9ca3-3f2b86617415","system_id":"levelo_inurba_marseille","lat":43.21214,"lon":5.35031,"is_reserved":false,"is_disabled":false,"rental_uris":{"android":"levelo://app?vid=bcfd0eda-b9ab-4bec-9ca3-3f2b86617415","ios":"levelo://app?vid=bcfd0eda-b9ab-4bec-9ca3-3f2b86617415"},"vehicle_type_id":"4","last_reported":1751551834,"current_range_meters":10000,"station_id":"","pricing_plan_id":"cebpf4jnsgd1na2vs0mg"},{"bike_id":"e26ba497-efc7-4420-b8c5-9fa5e27f2ce4","system_id":"levelo_inurba_marseille","lat":43.31368,"lon":5.3707,"is_reserved":false,"is_disabled":false,"rental_uris":{"android":"levelo://app?vid=e26ba497-efc7-4420-b8c5-9fa5e27f2ce4","ios":"levelo://app?vid=e26ba497-efc7-4420-b8c5-9fa5e27f2ce4"},"vehicle_type_id":"4","last_reported":1751551834,"current_range_meters":10000,"station_id":"","pricing_plan_id":"cebpf4jnsgd1na2vs0mg"},{"bike_id":"d36326d8-e081-4c29-ab78-eb73e8f5b0c2","system_id":"levelo_inurba_marseille","lat":43.30545,"lon":5.36702,"is_reserved":false,"is_disabled":false,"rental_uris":{"android":"levelo://app?vid=d36326d8-e081-4c29-ab78-eb73e8f5b0c2","ios":"levelo://app?vid=d36326d8-e081-4c29-ab78-eb73e8f5b0c2"},"vehicle_type_id":"4","last_reported":1751551834,"current_range_meters":10000,"station_id":"ce4bgrp2rcd13ifvqc9g","pricing_plan_id":"cebpf4jnsgd1na2vs0mg"},{"bike_id":"6f6738da-baf4-40b1-823c-0ca8eb70b266","system_id":"levelo_inurba_marseille","lat":43.28401,"lon":5.37507,"is_reserved":false,"is_disabled":false,"rental_uris":{"android":"levelo://app?vid=6f6738da-baf4-40b1-823c-0ca8eb70b266","ios":"levelo://app?vid=6f6738da-baf4-40b1-823c-0ca8eb70b266"},"vehicle_type_id":"4","last_reported":1751551834,"current_range_meters":10000,"station_id":"ce4bh412rcd13ifvqds0","pricing_plan_id":"cebpf4jnsgd1na2vs0mg"},{"bike_id":"758e4645-2cc4-4f3d-92bd-6f3ace0a79a0","system_id":"levelo_inurba_marseille","lat":43.28403,"lon":5.3752,"is_reserved":false,"is_disabled":false,"rental_uris":{"android":"levelo://app?vid=758e4645-2cc4-4f3d-92bd-6f3ace0a79a0","ios":"levelo://app?vid=758e4645-2cc4-4f3d-92bd-6f3ace0a79a0"},"vehicle_type_id":"4","last_reported":1751551834,"current_range_meters":10000,"station_id":"ce4bh412rcd13ifvqds0","pricing_plan_id":"cebpf4jnsgd1na2vs0mg"},{"bike_id":"4389f13e-846b-47b7-8130-838304bce67f","system_id":"levelo_inurba_marseille","lat":43.29003,"lon":5.35616,"is_reserved":false,"is_disabled":false,"rental_uris":{"android":"levelo://app?vid=4389f13e-846b-47b7-8130-838304bce67f","ios":"levelo://app?vid=4389f13e-846b-47b7-8130-838304bce67f"},"vehicle_type_id":"4","last_reported":1751551834,"current_range_meters":10000,"station_id":"ce4bhb92rcd13ifvqen0","pricing_plan_id":"cebpf4jnsgd1na2vs0mg"},{"bike_id":"d9827b44-e3f8-43d9-bb5c-ddd70f58939c","system_id":"levelo_inurba_marseille","lat":43.28267,"lon":5.35076,"is_reserved":false,"is_disabled":false,"rental_uris":{"android":"levelo://app?vid=d9827b44-e3f8-43d9-bb5c-ddd70f58939c","ios":"levelo://app?vid=d9827b44-e3f8-43d9-bb5c-ddd70f58939c"},"vehicle_type_id":"4","last_reported":1751551834,"current_range_meters":10000,"station_id":"ce4bhbp2rcd13ifvqerg","pricing_plan_id":"cebpf4jnsgd1na2vs0mg"},{"bike_id":"673524a2-2dea-4bf6-a3a6-cde551ff20b8","system_id":"levelo_inurba_marseille","lat":43.32111,"lon":5.36774,"is_reserved":false,"is_disabled":false,"rental_uris":{"android":"levelo://app?vid=673524a2-2dea-4bf6-a3a6-cde551ff20b8","ios":"levelo://app?vid=673524a2-2dea-4bf6-a3a6-cde551ff20b8"},"vehicle_type_id":"4","last_reported":1751551834,"current_range_meters":10000,"station_id":"ce4bhrh2rcd13ifvqhug","pricing_plan_id":"cebpf4jnsgd1na2vs0mg"},{"bike_id":"ef50a132-c502-4afc-a8c2-7de6a0df1152","system_id":"levelo_inurba_marseille","lat":43.225081,"lon":5.34786,"is_reserved":false,"is_disabled":false,"rental_uris":{"android":"levelo://app?vid=ef50a132-c502-4afc-a8c2-7de6a0df1152","ios":"levelo://app?vid=ef50a132-c502-4afc-a8c2-7de6a0df1152"},"vehicle_type_id":"4","last_reported":1751551834,"current_range_meters":10000,"station_id":"st_cvj5dfep6f1abm77gieg","pricing_plan_id":"cebpf4jnsgd1na2vs0mg"},{"bike_id":"afc263f7-1fa4-4f95-83ef-54521145c0e0","system_id":"levelo_inurba_marseille","lat":43.305556,"lon":5.36545,"is_reserved":false,"is_disabled":false,"rental_uris":{"android":"levelo://app?vid=afc263f7-1fa4-4f95-83ef-54521145c0e0","ios":"levelo://app?vid=afc263f7-1fa4-4f95-83ef-54521145c0e0"},"vehicle_type_id":"4","last_reported":1751551834,"current_range_meters":10800,"station_id":"ce4bgs12rcd13ifvqcag","pricing_plan_id":"cebpf4jnsgd1na2vs0mg"},{"bike_id":"59fcc669-a12e-4bad-9b07-6f97c23f6ab1","system_id":"levelo_inurba_marseille","lat":43.32484,"lon":5.36561,"is_reserved":false,"is_disabled":false,"rental_uris":{"android":"levelo://app?vid=59fcc669-a12e-4bad-9b07-6f97c23f6ab1","ios":"levelo://app?vid=59fcc669-a12e-4bad-9b07-6f97c23f6ab1"},"vehicle_type_id":"4","last_reported":1751551834,"current_range_meters":10800,"station_id":"ce4bhs12rcd13ifvqhvg","pricing_plan_id":"cebpf4jnsgd1na2vs0mg"},{"bike_id":"f1bfb814-a0e1-4f33-a70f-c593fcd3595a","system_id":"levelo_inurba_marseille","lat":43.21759,"lon":5.34593,"is_reserved":false,"is_disabled":false,"rental_uris":{"android":"levelo://app?vid=f1bfb814-a0e1-4f33-a70f-c593fcd3595a","ios":"levelo://app?vid=f1bfb814-a0e1-4f33-a70f-c593fcd3595a"},"vehicle_type_id":"4","last_reported":1751551834,"current_range_meters":10800,"station_id":"st_cvj6r9ubvosntc0bgbag","pricing_plan_id":"cebpf4jnsgd1na2vs0mg"},{"bike_id":"e008ae6b-ece5-437e-80a4-0de7dde7453d","system_id":"levelo_inurba_marseille","lat":43.23969,"lon":5.3663,"is_reserved":false,"is_disabled":false,"rental_uris":{"android":"levelo://app?vid=e008ae6b-ece5-437e-80a4-0de7dde7453d","ios":"levelo://app?vid=e008ae6b-ece5-437e-80a4-0de7dde7453d"},"vehicle_type_id":"4","last_reported":1751551834,"current_range_meters":11200,"station_id":"ce4bhi12rcd13ifvqfp0","pricing_plan_id":"cebpf4jnsgd1na2vs0mg"},{"bike_id":"163f19c4-3e82-44a5-b3a6-28f99bd40702","system_id":"levelo_inurba_marseille","lat":43.23939,"lon":5.36643,"is_reserved":false,"is_disabled":false,"rental_uris":{"android":"levelo://app?vid=163f19c4-3e82-44a5-b3a6-28f99bd40702","ios":"levelo://app?vid=163f19c4-3e82-44a5-b3a6-28f99bd40702"},"vehicle_type_id":"4","last_reported":1751551834,"current_range_meters":11200,"station_id":"ce4bhi12rcd13ifvqfp0","pricing_plan_id":"cebpf4jnsgd1na2vs0mg"},{"bike_id":"e36eeb04-35cc-4a52-97d7-6ba58bfe555b","system_id":"levelo_inurba_marseille","lat":43.2956,"lon":5.42292,"is_reserved":false,"is_disabled":false,"rental_uris":{"android":"levelo://app?vid=e36eeb04-35cc-4a52-97d7-6ba58bfe555b","ios":"levelo://app?vid=e36eeb04-35cc-4a52-97d7-6ba58bfe555b"},"vehicle_type_id":"4","last_reported":1751551834,"current_range_meters":11200,"station_id":"ce4bhph2rcd13ifvqhdg","pricing_plan_id":"cebpf4jnsgd1na2vs0mg"},{"bike_id":"16a8afe6-e43e-4d1b-a7bd-ed83d113735a","system_id":"levelo_inurba_marseille","lat":43.32436,"lon":5.41185,"is_reserved":false,"is_disabled":false,"rental_uris":{"android":"levelo://app?vid=16a8afe6-e43e-4d1b-a7bd-ed83d113735a","ios":"levelo://app?vid=16a8afe6-e43e-4d1b-a7bd-ed83d113735a"},"vehicle_type_id":"4","last_reported":1751551834,"current_range_meters":11600,"station_id":"","pricing_plan_id":"cebpf4jnsgd1na2vs0mg"},{"bike_id":"dd58afb6-d2b8-471f-b3d1-4b6dc117eb4a","system_id":"levelo_inurba_marseille","lat":43.2693,"lon":5.38923,"is_reserved":false,"is_disabled":false,"rental_uris":{"android":"levelo://app?vid=dd58afb6-d2b8-471f-b3d1-4b6dc117eb4a","ios":"levelo://app?vid=dd58afb6-d2b8-471f-b3d1-4b6dc117eb4a"},"vehicle_type_id":"4","last_reported":1751551834,"current_range_meters":11600,"station_id":"ce4bhhh2rcd13ifvqfl0","pricing_plan_id":"cebpf4jnsgd1na2vs0mg"},{"bike_id":"64bb485e-0856-48ce-befe-bde5a394f93d","system_id":"levelo_inurba_marseille","lat":43.276337,"lon":5.388715,"is_reserved":false,"is_disabled":false,"rental_uris":{"android":"levelo://app?vid=64bb485e-0856-48ce-befe-bde5a394f93d","ios":"levelo://app?vid=64bb485e-0856-48ce-befe-bde5a394f93d"},"vehicle_type_id":"4","last_reported":1751551834,"current_range_meters":11600,"station_id":"ce4bhi12rcd13ifvqfo0","pricing_plan_id":"cebpf4jnsgd1na2vs0mg"},{"bike_id":"02ef8374-2cca-46e9-a86c-fa0437827fa3","system_id":"levelo_inurba_marseille","lat":43.2314,"lon":5.43739,"is_reserved":false,"is_disabled":false,"rental_uris":{"android":"levelo://app?vid=02ef8374-2cca-46e9-a86c-fa0437827fa3","ios":"levelo://app?vid=02ef8374-2cca-46e9-a86c-fa0437827fa3"},"vehicle_type_id":"4","last_reported":1751551834,"current_range_meters":11600,"station_id":"ce4bhmp2rcd13ifvqgog","pricing_plan_id":"cebpf4jnsgd1na2vs0mg"},{"bike_id":"959e6f20-8ed0-4d36-bc1d-3efb82d6190b","system_id":"levelo_inurba_marseille","lat":43.21746,"lon":5.34608,"is_reserved":false,"is_disabled":false,"rental_uris":{"android":"levelo://app?vid=959e6f20-8ed0-4d36-bc1d-3efb82d6190b","ios":"levelo://app?vid=959e6f20-8ed0-4d36-bc1d-3efb82d6190b"},"vehicle_type_id":"4","last_reported":1751551834,"current_range_meters":11600,"station_id":"st_cvj6r9ubvosntc0bgbag","pricing_plan_id":"cebpf4jnsgd1na2vs0mg"},{"bike_id":"dd67424e-b6b5-448d-be23-23114be709a9","system_id":"levelo_inurba_marseille","lat":43.30973,"lon":5.3924,"is_reserved":false,"is_disabled":false,"rental_uris":{"android":"levelo://app?vid=dd67424e-b6b5-448d-be23-23114be709a9","ios":"levelo://app?vid=dd67424e-b6b5-448d-be23-23114be709a9"},"vehicle_type_id":"4","last_reported":1751551834,"current_range_meters":12000,"station_id":"","pricing_plan_id":"cebpf4jnsgd1na2vs0mg"},{"bike_id":"b1242795-0576-4e4d-a89f-9d7f8310ff08","system_id":"levelo_inurba_marseille","lat":43.24168,"lon":5.36403,"is_reserved":false,"is_disabled":false,"rental_uris":{"android":"levelo://app?vid=b1242795-0576-4e4d-a89f-9d7f8310ff08","ios":"levelo://app?vid=b1242795-0576-4e4d-a89f-9d7f8310ff08"},"vehicle_type_id":"4","last_reported":1751551834,"current_range_meters":12000,"station_id":"cpo36qri1sfpv3e86is0","pricing_plan_id":"cebpf4jnsgd1na2vs0mg"},{"bike_id":"d257c2ad-068c-463b-94e8-fe2d450e38ef","system_id":"levelo_inurba_marseille","lat":43.29711,"lon":5.36618,"is_reserved":false,"is_disabled":false,"rental_uris":{"android":"levelo://app?vid=d257c2ad-068c-463b-94e8-fe2d450e38ef","ios":"levelo://app?vid=d257c2ad-068c-463b-94e8-fe2d450e38ef"},"vehicle_type_id":"4","last_reported":1751551834,"current_range_meters":12400,"station_id":"ce4bgn12rcd13ifvqbt0","pricing_plan_id":"cebpf4jnsgd1na2vs0mg"},{"bike_id":"0e030323-4386-4e72-9a0d-0f6a2ff539de","system_id":"levelo_inurba_marseille","lat":43.29614,"lon":5.4056,"is_reserved":false,"is_disabled":false,"rental_uris":{"android":"levelo://app?vid=0e030323-4386-4e72-9a0d-0f6a2ff539de","ios":"levelo://app?vid=0e030323-4386-4e72-9a0d-0f6a2ff539de"},"vehicle_type_id":"4","last_reported":1751551834,"current_range_meters":12400,"station_id":"ce4bh0h2rcd13ifvqd60","pricing_plan_id":"cebpf4jnsgd1na2vs0mg"},{"bike_id":"57837b84-1d66-48f4-bb74-560934c39d2e","system_id":"levelo_inurba_marseille","lat":43.24804,"lon":5.37454,"is_reserved":false,"is_disabled":false,"rental_uris":{"android":"levelo://app?vid=57837b84-1d66-48f4-bb74-560934c39d2e","ios":"levelo://app?vid=57837b84-1d66-48f4-bb74-560934c39d2e"},"vehicle_type_id":"4","last_reported":1751551834,"current_range_meters":12400,"station_id":"ce4bhgh2rcd13ifvqfb0","pricing_plan_id":"cebpf4jnsgd1na2vs0mg"},{"bike_id":"6436c2cb-f64b-4a50-a13c-14f1dec4fb5c","system_id":"levelo_inurba_marseille","lat":43.30376,"lon":5.42485,"is_reserved":false,"is_disabled":false,"rental_uris":{"android":"levelo://app?vid=6436c2cb-f64b-4a50-a13c-14f1dec4fb5c","ios":"levelo://app?vid=6436c2cb-f64b-4a50-a13c-14f1dec4fb5c"},"vehicle_type_id":"4","last_reported":1751551834,"current_range_meters":12400,"station_id":"ce4bhoh2rcd13ifvqh6g","pricing_plan_id":"cebpf4jnsgd1na2vs0mg"},{"bike_id":"2fadb885-634d-45cb-82e4-8d54ddbb1141","system_id":"levelo_inurba_marseille","lat":43.23069,"lon":5.35481,"is_reserved":false,"is_disabled":false,"rental_uris":{"android":"levelo://app?vid=2fadb885-634d-45cb-82e4-8d54ddbb1141","ios":"levelo://app?vid=2fadb885-634d-45cb-82e4-8d54ddbb1141"},"vehicle_type_id":"4","last_reported":1751551834,"current_range_meters":12400,"station_id":"cpo3342slgdg3j2ifvpg","pricing_plan_id":"cebpf4jnsgd1na2vs0mg"},{"bike_id":"b30e31d7-58a6-4ca8-84c8-7339151a0883","system_id":"levelo_inurba_marseille","lat":43.2416,"lon":5.36401,"is_reserved":false,"is_disabled":false,"rental_uris":{"android":"levelo://app?vid=b30e31d7-58a6-4ca8-84c8-7339151a0883","ios":"levelo://app?vid=b30e31d7-58a6-4ca8-84c8-7339151a0883"},"vehicle_type_id":"4","last_reported":1751551834,"current_range_meters":12400,"station_id":"cpo36qri1sfpv3e86is0","pricing_plan_id":"cebpf4jnsgd1na2vs0mg"},{"bike_id":"747d8997-2d6d-49b4-bb13-decae52ff2de","system_id":"levelo_inurba_marseille","lat":43.287,"lon":5.3739,"is_reserved":false,"is_disabled":false,"rental_uris":{"android":"levelo://app?vid=747d8997-2d6d-49b4-bb13-decae52ff2de","ios":"levelo://app?vid=747d8997-2d6d-49b4-bb13-decae52ff2de"},"vehicle_type_id":"4","last_reported":1751551834,"current_range_meters":12800,"station_id":"ce4bh3p2rcd13ifvqdq0","pricing_plan_id":"cebpf4jnsgd1na2vs0mg"},{"bike_id":"f9706c7b-b034-4cc9-a09e-2a99cb0f5767","system_id":"levelo_inurba_marseille","lat":43.28036,"lon":5.36942,"is_reserved":false,"is_disabled":false,"rental_uris":{"android":"levelo://app?vid=f9706c7b-b034-4cc9-a09e-2a99cb0f5767","ios":"levelo://app?vid=f9706c7b-b034-4cc9-a09e-2a99cb0f5767"},"vehicle_type_id":"4","last_reported":1751551834,"current_range_meters":12800,"station_id":"ce4bha12rcd13ifvqef0","pricing_plan_id":"cebpf4jnsgd1na2vs0mg"},{"bike_id":"54fab35f-51ef-4a9c-acd2-c49135f77a54","system_id":"levelo_inurba_marseille","lat":43.32654,"lon":5.40977,"is_reserved":false,"is_disabled":false,"rental_uris":{"android":"levelo://app?vid=54fab35f-51ef-4a9c-acd2-c49135f77a54","ios":"levelo://app?vid=54fab35f-51ef-4a9c-acd2-c49135f77a54"},"vehicle_type_id":"4","last_reported":1751551834,"current_range_meters":12800,"station_id":"ce4bhpp2rcd13ifvqhgg","pricing_plan_id":"cebpf4jnsgd1na2vs0mg"},{"bike_id":"06478bcf-f5f1-4cba-b82a-41641402ed2b","system_id":"levelo_inurba_marseille","lat":43.3236,"lon":5.36752,"is_reserved":false,"is_disabled":false,"rental_uris":{"android":"levelo://app?vid=06478bcf-f5f1-4cba-b82a-41641402ed2b","ios":"levelo://app?vid=06478bcf-f5f1-4cba-b82a-41641402ed2b"},"vehicle_type_id":"4","last_reported":1751551834,"current_range_meters":12800,"station_id":"ce4bhsh2rcd13ifvqi2g","pricing_plan_id":"cebpf4jnsgd1na2vs0mg"},{"bike_id":"f85e4f4f-ebc0-48bf-bc0b-5dd4877ac835","system_id":"levelo_inurba_marseille","lat":43.28265,"lon":5.35073,"is_reserved":false,"is_disabled":false,"rental_uris":{"android":"levelo://app?vid=f85e4f4f-ebc0-48bf-bc0b-5dd4877ac835","ios":"levelo://app?vid=f85e4f4f-ebc0-48bf-bc0b-5dd4877ac835"},"vehicle_type_id":"4","last_reported":1751551834,"current_range_meters":13600,"station_id":"ce4bhbp2rcd13ifvqerg","pricing_plan_id":"cebpf4jnsgd1na2vs0mg"},{"bike_id":"e6ace702-1449-41e3-97f3-2e3a48f345d9","system_id":"levelo_inurba_marseille","lat":43.24646,"lon":5.38898,"is_reserved":false,"is_disabled":false,"rental_uris":{"android":"levelo://app?vid=e6ace702-1449-41e3-97f3-2e3a48f345d9","ios":"levelo://app?vid=e6ace702-1449-41e3-97f3-2e3a48f345d9"},"vehicle_type_id":"4","last_reported":1751551834,"current_range_meters":13600,"station_id":"ce4bhg12rcd13ifvqf60","pricing_plan_id":"cebpf4jnsgd1na2vs0mg"},{"bike_id":"912d67f3-78e7-48fd-8929-37f0572cfee4","system_id":"levelo_inurba_marseille","lat":43.26384,"lon":5.37434,"is_reserved":false,"is_disabled":false,"rental_uris":{"android":"levelo://app?vid=912d67f3-78e7-48fd-8929-37f0572cfee4","ios":"levelo://app?vid=912d67f3-78e7-48fd-8929-37f0572cfee4"},"vehicle_type_id":"4","last_reported":1751551834,"current_range_meters":14000,"station_id":"","pricing_plan_id":"cebpf4jnsgd1na2vs0mg"},{"bike_id":"a588469b-12ca-41c6-8c6f-3f3bda5b7f15","system_id":"levelo_inurba_marseille","lat":43.31545,"lon":5.38389,"is_reserved":false,"is_disabled":false,"rental_uris":{"android":"levelo://app?vid=a588469b-12ca-41c6-8c6f-3f3bda5b7f15","ios":"levelo://app?vid=a588469b-12ca-41c6-8c6f-3f3bda5b7f15"},"vehicle_type_id":"4","last_reported":1751551834,"current_range_meters":14000,"station_id":"","pricing_plan_id":"cebpf4jnsgd1na2vs0mg"},{"bike_id":"033b59db-b7d7-4796-9348-999a1950fbac","system_id":"levelo_inurba_marseille","lat":43.30947,"lon":5.39037,"is_reserved":false,"is_disabled":false,"rental_uris":{"android":"levelo://app?vid=033b59db-b7d7-4796-9348-999a1950fbac","ios":"levelo://app?vid=033b59db-b7d7-4796-9348-999a1950fbac"},"vehicle_type_id":"4","last_reported":1751551834,"current_range_meters":14000,"station_id":"ce4bgup2rcd13ifvqco0","pricing_plan_id":"cebpf4jnsgd1na2vs0mg"},{"bike_id":"cc82ae78-0452-4b34-9c51-646d167600fd","system_id":"levelo_inurba_marseille","lat":43.26679,"lon":5.38271,"is_reserved":false,"is_disabled":false,"rental_uris":{"android":"levelo://app?vid=cc82ae78-0452-4b34-9c51-646d167600fd","ios":"levelo://app?vid=cc82ae78-0452-4b34-9c51-646d167600fd"},"vehicle_type_id":"4","last_reported":1751551834,"current_range_meters":14000,"station_id":"ce4bhg92rcd13ifvqf90","pricing_plan_id":"cebpf4jnsgd1na2vs0mg"},{"bike_id":"ffc4ee84-d1be-4ebc-8ebf-1a1ca37b8401","system_id":"levelo_inurba_marseille","lat":43.30842,"lon":5.37435,"is_reserved":false,"is_disabled":false,"rental_uris":{"android":"levelo://app?vid=ffc4ee84-d1be-4ebc-8ebf-1a1ca37b8401","ios":"levelo://app?vid=ffc4ee84-d1be-4ebc-8ebf-1a1ca37b8401"},"vehicle_type_id":"4","last_reported":1751551834,"current_range_meters":14400,"station_id":"","pricing_plan_id":"cebpf4jnsgd1na2vs0mg"},{"bike_id":"208f3ca8-5ae1-4afa-bf93-2fb945fa389b","system_id":"levelo_inurba_marseille","lat":43.23058,"lon":5.35498,"is_reserved":false,"is_disabled":false,"rental_uris":{"android":"levelo://app?vid=208f3ca8-5ae1-4afa-bf93-2fb945fa389b","ios":"levelo://app?vid=208f3ca8-5ae1-4afa-bf93-2fb945fa389b"},"vehicle_type_id":"4","last_reported":1751551834,"current_range_meters":14400,"station_id":"cpo3342slgdg3j2ifvpg","pricing_plan_id":"cebpf4jnsgd1na2vs0mg"},{"bike_id":"b7a190bb-0b58-4561-847c-f01ec571983c","system_id":"levelo_inurba_marseille","lat":43.28405,"lon":5.35,"is_reserved":false,"is_disabled":false,"rental_uris":{"android":"levelo://app?vid=b7a190bb-0b58-4561-847c-f01ec571983c","ios":"levelo://app?vid=b7a190bb-0b58-4561-847c-f01ec571983c"},"vehicle_type_id":"4","last_reported":1751551834,"current_range_meters":14800,"station_id":"ce4bhbh2rcd13ifvqepg","pricing_plan_id":"cebpf4jnsgd1na2vs0mg"},{"bike_id":"52ff3d7a-32ed-48ca-b1ef-8582a610276b","system_id":"levelo_inurba_marseille","lat":43.28262,"lon":5.35072,"is_reserved":false,"is_disabled":false,"rental_uris":{"android":"levelo://app?vid=52ff3d7a-32ed-48ca-b1ef-8582a610276b","ios":"levelo://app?vid=52ff3d7a-32ed-48ca-b1ef-8582a610276b"},"vehicle_type_id":"4","last_reported":1751551834,"current_range_meters":14800,"station_id":"ce4bhbp2rcd13ifvqerg","pricing_plan_id":"cebpf4jnsgd1na2vs0mg"},{"bike_id":"9ab341e5-a0e8-45ef-b734-a30bc6c5341f","system_id":"levelo_inurba_marseille","lat":43.24804,"lon":5.37455,"is_reserved":false,"is_disabled":false,"rental_uris":{"android":"levelo://app?vid=9ab341e5-a0e8-45ef-b734-a30bc6c5341f","ios":"levelo://app?vid=9ab341e5-a0e8-45ef-b734-a30bc6c5341f"},"vehicle_type_id":"4","last_reported":1751551834,"current_range_meters":15200,"station_id":"ce4bhgh2rcd13ifvqfb0","pricing_plan_id":"cebpf4jnsgd1na2vs0mg"},{"bike_id":"ba154a12-11bd-42a5-958a-5992f5d043d1","system_id":"levelo_inurba_marseille","lat":43.304899,"lon":5.370583,"is_reserved":false,"is_disabled":false,"rental_uris":{"android":"levelo://app?vid=ba154a12-11bd-42a5-958a-5992f5d043d1","ios":"levelo://app?vid=ba154a12-11bd-42a5-958a-5992f5d043d1"},"vehicle_type_id":"4","last_reported":1751551834,"current_range_meters":16000,"station_id":"","pricing_plan_id":"cebpf4jnsgd1na2vs0mg"},{"bike_id":"f8b42013-1bb5-4854-b480-f4d6c9e5d5e9","system_id":"levelo_inurba_marseille","lat":43.30537,"lon":5.36537,"is_reserved":false,"is_disabled":false,"rental_uris":{"android":"levelo://app?vid=f8b42013-1bb5-4854-b480-f4d6c9e5d5e9","ios":"levelo://app?vid=f8b42013-1bb5-4854-b480-f4d6c9e5d5e9"},"vehicle_type_id":"4","last_reported":1751551834,"current_range_meters":16000,"station_id":"ce4bgs12rcd13ifvqcag","pricing_plan_id":"cebpf4jnsgd1na2vs0mg"},{"bike_id":"c5be3ec2-213f-45f8-bc35-24e6a1c22180","system_id":"levelo_inurba_marseille","lat":43.320532,"lon":5.41571,"is_reserved":false,"is_disabled":false,"rental_uris":{"android":"levelo://app?vid=c5be3ec2-213f-45f8-bc35-24e6a1c22180","ios":"levelo://app?vid=c5be3ec2-213f-45f8-bc35-24e6a1c22180"},"vehicle_type_id":"4","last_reported":1751551834,"current_range_meters":16000,"station_id":"ce4bhq92rcd13ifvqhkg","pricing_plan_id":"cebpf4jnsgd1na2vs0mg"},{"bike_id":"f4ec7cdf-07e1-45ef-b9a0-9719d9d3492c","system_id":"levelo_inurba_marseille","lat":43.230644,"lon":5.354948,"is_reserved":false,"is_disabled":false,"rental_uris":{"android":"levelo://app?vid=f4ec7cdf-07e1-45ef-b9a0-9719d9d3492c","ios":"levelo://app?vid=f4ec7cdf-07e1-45ef-b9a0-9719d9d3492c"},"vehicle_type_id":"4","last_reported":1751551834,"current_range_meters":16000,"station_id":"cpo3342slgdg3j2ifvpg","pricing_plan_id":"cebpf4jnsgd1na2vs0mg"},{"bike_id":"8b7a2dab-0526-41a3-bdeb-2f047369a7f4","system_id":"levelo_inurba_marseille","lat":43.22929,"lon":5.35377,"is_reserved":false,"is_disabled":false,"rental_uris":{"android":"levelo://app?vid=8b7a2dab-0526-41a3-bdeb-2f047369a7f4","ios":"levelo://app?vid=8b7a2dab-0526-41a3-bdeb-2f047369a7f4"},"vehicle_type_id":"4","last_reported":1751551834,"current_range_meters":16000,"station_id":"cpo3532slgdg3j2ikp40","pricing_plan_id":"cebpf4jnsgd1na2vs0mg"},{"bike_id":"37b84a38-055a-4a6e-a56a-8ff3d0c1b2ec","system_id":"levelo_inurba_marseille","lat":43.212026,"lon":5.350748,"is_reserved":false,"is_disabled":false,"rental_uris":{"android":"levelo://app?vid=37b84a38-055a-4a6e-a56a-8ff3d0c1b2ec","ios":"levelo://app?vid=37b84a38-055a-4a6e-a56a-8ff3d0c1b2ec"},"vehicle_type_id":"4","last_reported":1751551834,"current_range_meters":16000,"station_id":"st_cvj6sg6p6f1abm77japg","pricing_plan_id":"cebpf4jnsgd1na2vs0mg"},{"bike_id":"4d4995e7-0bba-4ac2-a238-afd84a5e99b5","system_id":"levelo_inurba_marseille","lat":43.304848,"lon":5.398345,"is_reserved":false,"is_disabled":false,"rental_uris":{"android":"levelo://app?vid=4d4995e7-0bba-4ac2-a238-afd84a5e99b5","ios":"levelo://app?vid=4d4995e7-0bba-4ac2-a238-afd84a5e99b5"},"vehicle_type_id":"4","last_reported":1751551834,"current_range_meters":16400,"station_id":"","pricing_plan_id":"cebpf4jnsgd1na2vs0mg"},{"bike_id":"175513bb-dce2-48e2-83c8-1e9f1cb23cd0","system_id":"levelo_inurba_marseille","lat":43.286255,"lon":5.412651,"is_reserved":false,"is_disabled":false,"rental_uris":{"android":"levelo://app?vid=175513bb-dce2-48e2-83c8-1e9f1cb23cd0","ios":"levelo://app?vid=175513bb-dce2-48e2-83c8-1e9f1cb23cd0"},"vehicle_type_id":"4","last_reported":1751551834,"current_range_meters":16400,"station_id":"","pricing_plan_id":"cebpf4jnsgd1na2vs0mg"},{"bike_id":"d6a97fc8-7c5d-4b77-9d38-d22003db8fe5","system_id":"levelo_inurba_marseille","lat":43.34721,"lon":5.36602,"is_reserved":false,"is_disabled":false,"rental_uris":{"android":"levelo://app?vid=d6a97fc8-7c5d-4b77-9d38-d22003db8fe5","ios":"levelo://app?vid=d6a97fc8-7c5d-4b77-9d38-d22003db8fe5"},"vehicle_type_id":"4","last_reported":1751551834,"current_range_meters":16400,"station_id":"","pricing_plan_id":"cebpf4jnsgd1na2vs0mg"},{"bike_id":"584442e8-4a71-4781-a742-cd8099665deb","system_id":"levelo_inurba_marseille","lat":43.27615,"lon":5.36113,"is_reserved":false,"is_disabled":false,"rental_uris":{"android":"levelo://app?vid=584442e8-4a71-4781-a742-cd8099665deb","ios":"levelo://app?vid=584442e8-4a71-4781-a742-cd8099665deb"},"vehicle_type_id":"4","last_reported":1751551834,"current_range_meters":16400,"station_id":"ce4bgj92rcd13ifvqbe0","pricing_plan_id":"cebpf4jnsgd1na2vs0mg"},{"bike_id":"76898084-2f03-47c8-a7a9-c03e79b3f406","system_id":"levelo_inurba_marseille","lat":43.30606,"lon":5.37229,"is_reserved":false,"is_disabled":false,"rental_uris":{"android":"levelo://app?vid=76898084-2f03-47c8-a7a9-c03e79b3f406","ios":"levelo://app?vid=76898084-2f03-47c8-a7a9-c03e79b3f406"},"vehicle_type_id":"4","last_reported":1751551834,"current_range_meters":16400,"station_id":"ce4bgqh2rcd13ifvqc4g","pricing_plan_id":"cebpf4jnsgd1na2vs0mg"},{"bike_id":"0d70ef30-b78c-4f43-b90d-adc0dd8466c8","system_id":"levelo_inurba_marseille","lat":43.31263,"lon":5.40156,"is_reserved":false,"is_disabled":false,"rental_uris":{"android":"levelo://app?vid=0d70ef30-b78c-4f43-b90d-adc0dd8466c8","ios":"levelo://app?vid=0d70ef30-b78c-4f43-b90d-adc0dd8466c8"},"vehicle_type_id":"4","last_reported":1751551834,"current_range_meters":16400,"station_id":"ce4bh092rcd13ifvqd30","pricing_plan_id":"cebpf4jnsgd1na2vs0mg"},{"bike_id":"df5a8fd7-5060-471d-85d6-9ea10611ca43","system_id":"levelo_inurba_marseille","lat":43.29258,"lon":5.40893,"is_reserved":false,"is_disabled":false,"rental_uris":{"android":"levelo://app?vid=df5a8fd7-5060-471d-85d6-9ea10611ca43","ios":"levelo://app?vid=df5a8fd7-5060-471d-85d6-9ea10611ca43"},"vehicle_type_id":"4","last_reported":1751551834,"current_range_meters":16400,"station_id":"ce4bh192rcd13ifvqdc0","pricing_plan_id":"cebpf4jnsgd1na2vs0mg"},{"bike_id":"d4a349db-f22d-4680-8253-fdaa0586ff9a","system_id":"levelo_inurba_marseille","lat":43.27383,"lon":5.36253,"is_reserved":false,"is_disabled":false,"rental_uris":{"android":"levelo://app?vid=d4a349db-f22d-4680-8253-fdaa0586ff9a","ios":"levelo://app?vid=d4a349db-f22d-4680-8253-fdaa0586ff9a"},"vehicle_type_id":"4","last_reported":1751551834,"current_range_meters":16400,"station_id":"ce4bhbh2rcd13ifvqeo0","pricing_plan_id":"cebpf4jnsgd1na2vs0mg"},{"bike_id":"da6086ab-9dd8-4f23-895b-e37367a1866f","system_id":"levelo_inurba_marseille","lat":43.28417,"lon":5.35004,"is_reserved":false,"is_disabled":false,"rental_uris":{"android":"levelo://app?vid=da6086ab-9dd8-4f23-895b-e37367a1866f","ios":"levelo://app?vid=da6086ab-9dd8-4f23-895b-e37367a1866f"},"vehicle_type_id":"4","last_reported":1751551834,"current_range_meters":16400,"station_id":"ce4bhbh2rcd13ifvqepg","pricing_plan_id":"cebpf4jnsgd1na2vs0mg"},{"bike_id":"44a9443d-3135-4a25-856d-9bda0e293f4a","system_id":"levelo_inurba_marseille","lat":43.28412,"lon":5.34997,"is_reserved":false,"is_disabled":false,"rental_uris":{"android":"levelo://app?vid=44a9443d-3135-4a25-856d-9bda0e293f4a","ios":"levelo://app?vid=44a9443d-3135-4a25-856d-9bda0e293f4a"},"vehicle_type_id":"4","last_reported":1751551834,"current_range_meters":16400,"station_id":"ce4bhbh2rcd13ifvqepg","pricing_plan_id":"cebpf4jnsgd1na2vs0mg"},{"bike_id":"301f9cdc-5b2a-4701-aae8-08283c8b94c6","system_id":"levelo_inurba_marseille","lat":43.28272,"lon":5.3508,"is_reserved":false,"is_disabled":false,"rental_uris":{"android":"levelo://app?vid=301f9cdc-5b2a-4701-aae8-08283c8b94c6","ios":"levelo://app?vid=301f9cdc-5b2a-4701-aae8-08283c8b94c6"},"vehicle_type_id":"4","last_reported":1751551834,"current_range_meters":16400,"station_id":"ce4bhbp2rcd13ifvqerg","pricing_plan_id":"cebpf4jnsgd1na2vs0mg"},{"bike_id":"db6b4215-49c9-4aef-845e-4d7d939d3d90","system_id":"levelo_inurba_marseille","lat":43.262146,"lon":5.374392,"is_reserved":false,"is_disabled":false,"rental_uris":{"android":"levelo://app?vid=db6b4215-49c9-4aef-845e-4d7d939d3d90","ios":"levelo://app?vid=db6b4215-49c9-4aef-845e-4d7d939d3d90"},"vehicle_type_id":"4","last_reported":1751551834,"current_range_meters":16400,"station_id":"ce4bhgp2rcd13ifvqfc0","pricing_plan_id":"cebpf4jnsgd1na2vs0mg"},{"bike_id":"429fa18c-0d06-4a5d-a9f7-cd69cbe19891","system_id":"levelo_inurba_marseille","lat":43.25487,"lon":5.37656,"is_reserved":false,"is_disabled":false,"rental_uris":{"android":"levelo://app?vid=429fa18c-0d06-4a5d-a9f7-cd69cbe19891","ios":"levelo://app?vid=429fa18c-0d06-4a5d-a9f7-cd69cbe19891"},"vehicle_type_id":"4","last_reported":1751551834,"current_range_meters":16400,"station_id":"ce4bhh12rcd13ifvqff0","pricing_plan_id":"cebpf4jnsgd1na2vs0mg"},{"bike_id":"d3b5bfdd-f6e7-4f77-af3a-0c2391684252","system_id":"levelo_inurba_marseille","lat":43.26209,"lon":5.37925,"is_reserved":false,"is_disabled":false,"rental_uris":{"android":"levelo://app?vid=d3b5bfdd-f6e7-4f77-af3a-0c2391684252","ios":"levelo://app?vid=d3b5bfdd-f6e7-4f77-af3a-0c2391684252"},"vehicle_type_id":"4","last_reported":1751551834,"current_range_meters":16400,"station_id":"ce4bhjp2rcd13ifvqg90","pricing_plan_id":"cebpf4jnsgd1na2vs0mg"},{"bike_id":"3aa961e2-37ff-4909-89b9-43d0009ca3cc","system_id":"levelo_inurba_marseille","lat":43.25721,"lon":5.41101,"is_reserved":false,"is_disabled":false,"rental_uris":{"android":"levelo://app?vid=3aa961e2-37ff-4909-89b9-43d0009ca3cc","ios":"levelo://app?vid=3aa961e2-37ff-4909-89b9-43d0009ca3cc"},"vehicle_type_id":"4","last_reported":1751551834,"current_range_meters":16400,"station_id":"ce4bhkp2rcd13ifvqgd0","pricing_plan_id":"cebpf4jnsgd1na2vs0mg"},{"bike_id":"7c67e7dd-7a7f-426b-9249-641f91643932","system_id":"levelo_inurba_marseille","lat":43.24169,"lon":5.36403,"is_reserved":false,"is_disabled":false,"rental_uris":{"android":"levelo://app?vid=7c67e7dd-7a7f-426b-9249-641f91643932","ios":"levelo://app?vid=7c67e7dd-7a7f-426b-9249-641f91643932"},"vehicle_type_id":"4","last_reported":1751551834,"current_range_meters":16400,"station_id":"cpo36qri1sfpv3e86is0","pricing_plan_id":"cebpf4jnsgd1na2vs0mg"},{"bike_id":"a6715104-7492-4ec6-a996-23050baf8551","system_id":"levelo_inurba_marseille","lat":43.22503,"lon":5.34782,"is_reserved":false,"is_disabled":false,"rental_uris":{"android":"levelo://app?vid=a6715104-7492-4ec6-a996-23050baf8551","ios":"levelo://app?vid=a6715104-7492-4ec6-a996-23050baf8551"},"vehicle_type_id":"4","last_reported":1751551834,"current_range_meters":16400,"station_id":"st_cvj5dfep6f1abm77gieg","pricing_plan_id":"cebpf4jnsgd1na2vs0mg"},{"bike_id":"0c4b7fdb-b39e-49b3-a2b0-ae3d0f43e89d","system_id":"levelo_inurba_marseille","lat":43.32884,"lon":5.40583,"is_reserved":false,"is_disabled":false,"rental_uris":{"android":"levelo://app?vid=0c4b7fdb-b39e-49b3-a2b0-ae3d0f43e89d","ios":"levelo://app?vid=0c4b7fdb-b39e-49b3-a2b0-ae3d0f43e89d"},"vehicle_type_id":"4","last_reported":1751551834,"current_range_meters":16800,"station_id":"","pricing_plan_id":"cebpf4jnsgd1na2vs0mg"},{"bike_id":"2596bf02-4b4e-4a73-96c0-306657fb5dc9","system_id":"levelo_inurba_marseille","lat":43.26229,"lon":5.37456,"is_reserved":false,"is_disabled":false,"rental_uris":{"android":"levelo://app?vid=2596bf02-4b4e-4a73-96c0-306657fb5dc9","ios":"levelo://app?vid=2596bf02-4b4e-4a73-96c0-306657fb5dc9"},"vehicle_type_id":"4","last_reported":1751551834,"current_range_meters":16800,"station_id":"","pricing_plan_id":"cebpf4jnsgd1na2vs0mg"},{"bike_id":"c2e76443-29a4-46ff-aedc-5a5ed6e3e5c2","system_id":"levelo_inurba_marseille","lat":43.30306,"lon":5.39212,"is_reserved":false,"is_disabled":false,"rental_uris":{"android":"levelo://app?vid=c2e76443-29a4-46ff-aedc-5a5ed6e3e5c2","ios":"levelo://app?vid=c2e76443-29a4-46ff-aedc-5a5ed6e3e5c2"},"vehicle_type_id":"4","last_reported":1751551834,"current_range_meters":16800,"station_id":"ce4bgkh2rcd13ifvqbk0","pricing_plan_id":"cebpf4jnsgd1na2vs0mg"},{"bike_id":"e249bc7b-e7c7-49fb-9370-c824eba936ad","system_id":"levelo_inurba_marseille","lat":43.29851,"lon":5.36278,"is_reserved":false,"is_disabled":false,"rental_uris":{"android":"levelo://app?vid=e249bc7b-e7c7-49fb-9370-c824eba936ad","ios":"levelo://app?vid=e249bc7b-e7c7-49fb-9370-c824eba936ad"},"vehicle_type_id":"4","last_reported":1751551834,"current_range_meters":16800,"station_id":"ce4bgpp2rcd13ifvqc3g","pricing_plan_id":"cebpf4jnsgd1na2vs0mg"},{"bike_id":"dc7743f8-d34d-4c66-bdc6-3063df5a2e54","system_id":"levelo_inurba_marseille","lat":43.30955,"lon":5.39026,"is_reserved":false,"is_disabled":false,"rental_uris":{"android":"levelo://app?vid=dc7743f8-d34d-4c66-bdc6-3063df5a2e54","ios":"levelo://app?vid=dc7743f8-d34d-4c66-bdc6-3063df5a2e54"},"vehicle_type_id":"4","last_reported":1751551834,"current_range_meters":16800,"station_id":"ce4bgup2rcd13ifvqco0","pricing_plan_id":"cebpf4jnsgd1na2vs0mg"},{"bike_id":"7fb23dfb-004c-4181-93e5-b877f558cff2","system_id":"levelo_inurba_marseille","lat":43.2839,"lon":5.37544,"is_reserved":false,"is_disabled":false,"rental_uris":{"android":"levelo://app?vid=7fb23dfb-004c-4181-93e5-b877f558cff2","ios":"levelo://app?vid=7fb23dfb-004c-4181-93e5-b877f558cff2"},"vehicle_type_id":"4","last_reported":1751551834,"current_range_meters":16800,"station_id":"ce4bh412rcd13ifvqds0","pricing_plan_id":"cebpf4jnsgd1na2vs0mg"},{"bike_id":"7ab1a795-ce92-4d6c-a196-1a8646dda6f4","system_id":"levelo_inurba_marseille","lat":43.28412,"lon":5.34996,"is_reserved":false,"is_disabled":false,"rental_uris":{"android":"levelo://app?vid=7ab1a795-ce92-4d6c-a196-1a8646dda6f4","ios":"levelo://app?vid=7ab1a795-ce92-4d6c-a196-1a8646dda6f4"},"vehicle_type_id":"4","last_reported":1751551834,"current_range_meters":16800,"station_id":"ce4bhbh2rcd13ifvqepg","pricing_plan_id":"cebpf4jnsgd1na2vs0mg"},{"bike_id":"80a421f9-82c6-43e6-aaa0-88dda18c110c","system_id":"levelo_inurba_marseille","lat":43.28404,"lon":5.34995,"is_reserved":false,"is_disabled":false,"rental_uris":{"android":"levelo://app?vid=80a421f9-82c6-43e6-aaa0-88dda18c110c","ios":"levelo://app?vid=80a421f9-82c6-43e6-aaa0-88dda18c110c"},"vehicle_type_id":"4","last_reported":1751551834,"current_range_meters":16800,"station_id":"ce4bhbh2rcd13ifvqepg","pricing_plan_id":"cebpf4jnsgd1na2vs0mg"},{"bike_id":"1b3560cd-fa89-47a8-a68c-be52a28f38d8","system_id":"levelo_inurba_marseille","lat":43.28264,"lon":5.35074,"is_reserved":false,"is_disabled":false,"rental_uris":{"android":"levelo://app?vid=1b3560cd-fa89-47a8-a68c-be52a28f38d8","ios":"levelo://app?vid=1b3560cd-fa89-47a8-a68c-be52a28f38d8"},"vehicle_type_id":"4","last_reported":1751551834,"current_range_meters":16800,"station_id":"ce4bhbp2rcd13ifvqerg","pricing_plan_id":"cebpf4jnsgd1na2vs0mg"},{"bike_id":"603f229c-09b9-4145-9510-d250a8eff49b","system_id":"levelo_inurba_marseille","lat":43.28607,"lon":5.35106,"is_reserved":false,"is_disabled":false,"rental_uris":{"android":"levelo://app?vid=603f229c-09b9-4145-9510-d250a8eff49b","ios":"levelo://app?vid=603f229c-09b9-4145-9510-d250a8eff49b"},"vehicle_type_id":"4","last_reported":1751551834,"current_range_meters":16800,"station_id":"ce4bhch2rcd13ifvqeug","pricing_plan_id":"cebpf4jnsgd1na2vs0mg"},{"bike_id":"47c7e6b6-def5-455b-8707-d3cbebfd8666","system_id":"levelo_inurba_marseille","lat":43.261918,"lon":5.37451,"is_reserved":false,"is_disabled":false,"rental_uris":{"android":"levelo://app?vid=47c7e6b6-def5-455b-8707-d3cbebfd8666","ios":"levelo://app?vid=47c7e6b6-def5-455b-8707-d3cbebfd8666"},"vehicle_type_id":"4","last_reported":1751551834,"current_range_meters":16800,"station_id":"ce4bhgp2rcd13ifvqfc0","pricing_plan_id":"cebpf4jnsgd1na2vs0mg"},{"bike_id":"cbdd3be9-9623-4bff-957a-36a0b3738a56","system_id":"levelo_inurba_marseille","lat":43.23153,"lon":5.43705,"is_reserved":false,"is_disabled":false,"rental_uris":{"android":"levelo://app?vid=cbdd3be9-9623-4bff-957a-36a0b3738a56","ios":"levelo://app?vid=cbdd3be9-9623-4bff-957a-36a0b3738a56"},"vehicle_type_id":"4","last_reported":1751551834,"current_range_meters":16800,"station_id":"ce4bhmp2rcd13ifvqgog","pricing_plan_id":"cebpf4jnsgd1na2vs0mg"},{"bike_id":"dfb985ba-4b04-4a74-8bf5-6483d9a51859","system_id":"levelo_inurba_marseille","lat":43.31757,"lon":5.39013,"is_reserved":false,"is_disabled":false,"rental_uris":{"android":"levelo://app?vid=dfb985ba-4b04-4a74-8bf5-6483d9a51859","ios":"levelo://app?vid=dfb985ba-4b04-4a74-8bf5-6483d9a51859"},"vehicle_type_id":"4","last_reported":1751551834,"current_range_meters":16800,"station_id":"ce4bhqp2rcd13ifvqhng","pricing_plan_id":"cebpf4jnsgd1na2vs0mg"},{"bike_id":"af213e10-6367-4cec-af17-63aa54d97712","system_id":"levelo_inurba_marseille","lat":43.2762,"lon":5.36107,"is_reserved":false,"is_disabled":false,"rental_uris":{"android":"levelo://app?vid=af213e10-6367-4cec-af17-63aa54d97712","ios":"levelo://app?vid=af213e10-6367-4cec-af17-63aa54d97712"},"vehicle_type_id":"4","last_reported":1751551834,"current_range_meters":17200,"station_id":"ce4bgj92rcd13ifvqbe0","pricing_plan_id":"cebpf4jnsgd1na2vs0mg"},{"bike_id":"4c193f7d-7602-4b8f-b948-dfb73b918f9d","system_id":"levelo_inurba_marseille","lat":43.30425,"lon":5.38884,"is_reserved":false,"is_disabled":false,"rental_uris":{"android":"levelo://app?vid=4c193f7d-7602-4b8f-b948-dfb73b918f9d","ios":"levelo://app?vid=4c193f7d-7602-4b8f-b948-dfb73b918f9d"},"vehicle_type_id":"4","last_reported":1751551834,"current_range_meters":17200,"station_id":"ce4bgk12rcd13ifvqbi0","pricing_plan_id":"cebpf4jnsgd1na2vs0mg"},{"bike_id":"22e739ea-2743-4f27-9d92-233ba4051487","system_id":"levelo_inurba_marseille","lat":43.29512,"lon":5.3752,"is_reserved":false,"is_disabled":false,"rental_uris":{"android":"levelo://app?vid=22e739ea-2743-4f27-9d92-233ba4051487","ios":"levelo://app?vid=22e739ea-2743-4f27-9d92-233ba4051487"},"vehicle_type_id":"4","last_reported":1751551834,"current_range_meters":17200,"station_id":"ce4bgkp2rcd13ifvqbmg","pricing_plan_id":"cebpf4jnsgd1na2vs0mg"},{"bike_id":"b19cea31-4713-475e-adff-68764a256fc0","system_id":"levelo_inurba_marseille","lat":43.30528,"lon":5.36738,"is_reserved":false,"is_disabled":false,"rental_uris":{"android":"levelo://app?vid=b19cea31-4713-475e-adff-68764a256fc0","ios":"levelo://app?vid=b19cea31-4713-475e-adff-68764a256fc0"},"vehicle_type_id":"4","last_reported":1751551834,"current_range_meters":17200,"station_id":"ce4bgrp2rcd13ifvqc9g","pricing_plan_id":"cebpf4jnsgd1na2vs0mg"},{"bike_id":"efd39573-3e62-4943-bd41-7a5e046acff7","system_id":"levelo_inurba_marseille","lat":43.27358,"lon":5.36259,"is_reserved":false,"is_disabled":false,"rental_uris":{"android":"levelo://app?vid=efd39573-3e62-4943-bd41-7a5e046acff7","ios":"levelo://app?vid=efd39573-3e62-4943-bd41-7a5e046acff7"},"vehicle_type_id":"4","last_reported":1751551834,"current_range_meters":17200,"station_id":"ce4bhbh2rcd13ifvqeo0","pricing_plan_id":"cebpf4jnsgd1na2vs0mg"},{"bike_id":"57e84e33-8ef2-49b0-9c52-2dd89adcc82a","system_id":"levelo_inurba_marseille","lat":43.231533,"lon":5.437109,"is_reserved":false,"is_disabled":false,"rental_uris":{"android":"levelo://app?vid=57e84e33-8ef2-49b0-9c52-2dd89adcc82a","ios":"levelo://app?vid=57e84e33-8ef2-49b0-9c52-2dd89adcc82a"},"vehicle_type_id":"4","last_reported":1751551834,"current_range_meters":17200,"station_id":"ce4bhmp2rcd13ifvqgog","pricing_plan_id":"cebpf4jnsgd1na2vs0mg"},{"bike_id":"7e21e8f2-09c8-4cc5-8113-278ebd23888d","system_id":"levelo_inurba_marseille","lat":43.212127,"lon":5.350753,"is_reserved":false,"is_disabled":false,"rental_uris":{"android":"levelo://app?vid=7e21e8f2-09c8-4cc5-8113-278ebd23888d","ios":"levelo://app?vid=7e21e8f2-09c8-4cc5-8113-278ebd23888d"},"vehicle_type_id":"4","last_reported":1751551834,"current_range_meters":17200,"station_id":"st_cvj6sg6p6f1abm77japg","pricing_plan_id":"cebpf4jnsgd1na2vs0mg"},{"bike_id":"dfbce5f2-d4be-4fb4-b96e-89f73ba79196","system_id":"levelo_inurba_marseille","lat":43.21193,"lon":5.35077,"is_reserved":false,"is_disabled":false,"rental_uris":{"android":"levelo://app?vid=dfbce5f2-d4be-4fb4-b96e-89f73ba79196","ios":"levelo://app?vid=dfbce5f2-d4be-4fb4-b96e-89f73ba79196"},"vehicle_type_id":"4","last_reported":1751551834,"current_range_meters":17200,"station_id":"st_cvj6sg6p6f1abm77japg","pricing_plan_id":"cebpf4jnsgd1na2vs0mg"},{"bike_id":"0c5e46df-9adb-4aa5-842c-17a1961c0106","system_id":"levelo_inurba_marseille","lat":43.27989,"lon":5.40687,"is_reserved":false,"is_disabled":false,"rental_uris":{"android":"levelo://app?vid=0c5e46df-9adb-4aa5-842c-17a1961c0106","ios":"levelo://app?vid=0c5e46df-9adb-4aa5-842c-17a1961c0106"},"vehicle_type_id":"4","last_reported":1751551834,"current_range_meters":17600,"station_id":"","pricing_plan_id":"cebpf4jnsgd1na2vs0mg"},{"bike_id":"936a5e33-875c-4939-9363-a425909bf8de","system_id":"levelo_inurba_marseille","lat":43.28462,"lon":5.38429,"is_reserved":false,"is_disabled":false,"rental_uris":{"android":"levelo://app?vid=936a5e33-875c-4939-9363-a425909bf8de","ios":"levelo://app?vid=936a5e33-875c-4939-9363-a425909bf8de"},"vehicle_type_id":"4","last_reported":1751551834,"current_range_meters":17600,"station_id":"ce4bh512rcd13ifvqe3g","pricing_plan_id":"cebpf4jnsgd1na2vs0mg"},{"bike_id":"d3d10cf1-dbf1-4c61-aeb8-a70311c53ecf","system_id":"levelo_inurba_marseille","lat":43.28266,"lon":5.35088,"is_reserved":false,"is_disabled":false,"rental_uris":{"android":"levelo://app?vid=d3d10cf1-dbf1-4c61-aeb8-a70311c53ecf","ios":"levelo://app?vid=d3d10cf1-dbf1-4c61-aeb8-a70311c53ecf"},"vehicle_type_id":"4","last_reported":1751551834,"current_range_meters":17600,"station_id":"ce4bhbp2rcd13ifvqerg","pricing_plan_id":"cebpf4jnsgd1na2vs0mg"},{"bike_id":"9568202d-996f-448e-a195-a3c1d7ff7d5f","system_id":"levelo_inurba_marseille","lat":43.28261,"lon":5.35074,"is_reserved":false,"is_disabled":false,"rental_uris":{"android":"levelo://app?vid=9568202d-996f-448e-a195-a3c1d7ff7d5f","ios":"levelo://app?vid=9568202d-996f-448e-a195-a3c1d7ff7d5f"},"vehicle_type_id":"4","last_reported":1751551834,"current_range_meters":17600,"station_id":"ce4bhbp2rcd13ifvqerg","pricing_plan_id":"cebpf4jnsgd1na2vs0mg"},{"bike_id":"072c1623-0cde-4bde-882e-9ebd9afe837d","system_id":"levelo_inurba_marseille","lat":43.23136,"lon":5.43741,"is_reserved":false,"is_disabled":false,"rental_uris":{"android":"levelo://app?vid=072c1623-0cde-4bde-882e-9ebd9afe837d","ios":"levelo://app?vid=072c1623-0cde-4bde-882e-9ebd9afe837d"},"vehicle_type_id":"4","last_reported":1751551834,"current_range_meters":17600,"station_id":"ce4bhmp2rcd13ifvqgog","pricing_plan_id":"cebpf4jnsgd1na2vs0mg"},{"bike_id":"04e6c422-f573-4b46-85ae-d31c2fc5977b","system_id":"levelo_inurba_marseille","lat":43.24165,"lon":5.364,"is_reserved":false,"is_disabled":false,"rental_uris":{"android":"levelo://app?vid=04e6c422-f573-4b46-85ae-d31c2fc5977b","ios":"levelo://app?vid=04e6c422-f573-4b46-85ae-d31c2fc5977b"},"vehicle_type_id":"4","last_reported":1751551834,"current_range_meters":17600,"station_id":"cpo36qri1sfpv3e86is0","pricing_plan_id":"cebpf4jnsgd1na2vs0mg"},{"bike_id":"5e197122-e8ec-4f01-b370-6bbfc10c6950","system_id":"levelo_inurba_marseille","lat":43.2119,"lon":5.35063,"is_reserved":false,"is_disabled":false,"rental_uris":{"android":"levelo://app?vid=5e197122-e8ec-4f01-b370-6bbfc10c6950","ios":"levelo://app?vid=5e197122-e8ec-4f01-b370-6bbfc10c6950"},"vehicle_type_id":"4","last_reported":1751551834,"current_range_meters":17600,"station_id":"st_cvj6sg6p6f1abm77japg","pricing_plan_id":"cebpf4jnsgd1na2vs0mg"},{"bike_id":"cc04118e-9312-4bf8-9106-d64e829afbaa","system_id":"levelo_inurba_marseille","lat":43.21203,"lon":5.350708,"is_reserved":false,"is_disabled":false,"rental_uris":{"android":"levelo://app?vid=cc04118e-9312-4bf8-9106-d64e829afbaa","ios":"levelo://app?vid=cc04118e-9312-4bf8-9106-d64e829afbaa"},"vehicle_type_id":"4","last_reported":1751551834,"current_range_meters":17600,"station_id":"st_cvj6sg6p6f1abm77japg","pricing_plan_id":"cebpf4jnsgd1na2vs0mg"},{"bike_id":"1c8ab180-05fd-405f-9922-b2b2c2d5142f","system_id":"levelo_inurba_marseille","lat":43.337906,"lon":5.381283,"is_reserved":false,"is_disabled":false,"rental_uris":{"android":"levelo://app?vid=1c8ab180-05fd-405f-9922-b2b2c2d5142f","ios":"levelo://app?vid=1c8ab180-05fd-405f-9922-b2b2c2d5142f"},"vehicle_type_id":"4","last_reported":1751551834,"current_range_meters":18000,"station_id":"","pricing_plan_id":"cebpf4jnsgd1na2vs0mg"},{"bike_id":"1d428c7d-8f7c-497b-ae1f-c7c661923e5c","system_id":"levelo_inurba_marseille","lat":43.30926,"lon":5.40147,"is_reserved":false,"is_disabled":false,"rental_uris":{"android":"levelo://app?vid=1d428c7d-8f7c-497b-ae1f-c7c661923e5c","ios":"levelo://app?vid=1d428c7d-8f7c-497b-ae1f-c7c661923e5c"},"vehicle_type_id":"4","last_reported":1751551834,"current_range_meters":18000,"station_id":"ce4bgvp2rcd13ifvqct0","pricing_plan_id":"cebpf4jnsgd1na2vs0mg"},{"bike_id":"2d659fe1-36b2-4981-bcd7-0c6fca4b3667","system_id":"levelo_inurba_marseille","lat":43.30895,"lon":5.39636,"is_reserved":false,"is_disabled":false,"rental_uris":{"android":"levelo://app?vid=2d659fe1-36b2-4981-bcd7-0c6fca4b3667","ios":"levelo://app?vid=2d659fe1-36b2-4981-bcd7-0c6fca4b3667"},"vehicle_type_id":"4","last_reported":1751551834,"current_range_meters":18000,"station_id":"ce4bh012rcd13ifvqcv0","pricing_plan_id":"cebpf4jnsgd1na2vs0mg"},{"bike_id":"b35c913a-6b27-4cc6-9ebb-fdd74d5d7c59","system_id":"levelo_inurba_marseille","lat":43.28409,"lon":5.3502,"is_reserved":false,"is_disabled":false,"rental_uris":{"android":"levelo://app?vid=b35c913a-6b27-4cc6-9ebb-fdd74d5d7c59","ios":"levelo://app?vid=b35c913a-6b27-4cc6-9ebb-fdd74d5d7c59"},"vehicle_type_id":"4","last_reported":1751551834,"current_range_meters":18000,"station_id":"ce4bhbh2rcd13ifvqepg","pricing_plan_id":"cebpf4jnsgd1na2vs0mg"},{"bike_id":"55aa929b-2db6-4ab6-8121-df233a47781a","system_id":"levelo_inurba_marseille","lat":43.26216,"lon":5.37443,"is_reserved":false,"is_disabled":false,"rental_uris":{"android":"levelo://app?vid=55aa929b-2db6-4ab6-8121-df233a47781a","ios":"levelo://app?vid=55aa929b-2db6-4ab6-8121-df233a47781a"},"vehicle_type_id":"4","last_reported":1751551834,"current_range_meters":18000,"station_id":"ce4bhgp2rcd13ifvqfc0","pricing_plan_id":"cebpf4jnsgd1na2vs0mg"},{"bike_id":"085a9b83-3f84-40f5-9e64-5af9b3d60f63","system_id":"levelo_inurba_marseille","lat":43.299,"lon":5.43664,"is_reserved":false,"is_disabled":false,"rental_uris":{"android":"levelo://app?vid=085a9b83-3f84-40f5-9e64-5af9b3d60f63","ios":"levelo://app?vid=085a9b83-3f84-40f5-9e64-5af9b3d60f63"},"vehicle_type_id":"4","last_reported":1751551834,"current_range_meters":18000,"station_id":"ce4bhpp2rcd13ifvqhfg","pricing_plan_id":"cebpf4jnsgd1na2vs0mg"},{"bike_id":"0513c824-3767-4454-ad0f-aa49fed42980","system_id":"levelo_inurba_marseille","lat":43.33021,"lon":5.39043,"is_reserved":false,"is_disabled":false,"rental_uris":{"android":"levelo://app?vid=0513c824-3767-4454-ad0f-aa49fed42980","ios":"levelo://app?vid=0513c824-3767-4454-ad0f-aa49fed42980"},"vehicle_type_id":"4","last_reported":1751551834,"current_range_meters":18000,"station_id":"ce4bhr92rcd13ifvqhrg","pricing_plan_id":"cebpf4jnsgd1na2vs0mg"},{"bike_id":"046a7880-e7ac-4e6a-a802-d0f574715c6b","system_id":"levelo_inurba_marseille","lat":43.33021,"lon":5.39016,"is_reserved":false,"is_disabled":false,"rental_uris":{"android":"levelo://app?vid=046a7880-e7ac-4e6a-a802-d0f574715c6b","ios":"levelo://app?vid=046a7880-e7ac-4e6a-a802-d0f574715c6b"},"vehicle_type_id":"4","last_reported":1751551834,"current_range_meters":18000,"station_id":"ce4bhr92rcd13ifvqhrg","pricing_plan_id":"cebpf4jnsgd1na2vs0mg"},{"bike_id":"9c7fc0fa-9a23-4d60-90c7-711d50481dc2","system_id":"levelo_inurba_marseille","lat":43.29913,"lon":5.37477,"is_reserved":false,"is_disabled":false,"rental_uris":{"android":"levelo://app?vid=9c7fc0fa-9a23-4d60-90c7-711d50481dc2","ios":"levelo://app?vid=9c7fc0fa-9a23-4d60-90c7-711d50481dc2"},"vehicle_type_id":"4","last_reported":1751551834,"current_range_meters":18800,"station_id":"ce4bgjh2rcd13ifvqbg0","pricing_plan_id":"cebpf4jnsgd1na2vs0mg"},{"bike_id":"bc63b8a0-5ae3-49f8-995e-a8f756420d3e","system_id":"levelo_inurba_marseille","lat":43.30938,"lon":5.40142,"is_reserved":false,"is_disabled":false,"rental_uris":{"android":"levelo://app?vid=bc63b8a0-5ae3-49f8-995e-a8f756420d3e","ios":"levelo://app?vid=bc63b8a0-5ae3-49f8-995e-a8f756420d3e"},"vehicle_type_id":"4","last_reported":1751551834,"current_range_meters":18800,"station_id":"ce4bgvp2rcd13ifvqct0","pricing_plan_id":"cebpf4jnsgd1na2vs0mg"},{"bike_id":"5e7c28ce-c1e0-45f8-9aa8-e38a3d89ec30","system_id":"levelo_inurba_marseille","lat":43.32539,"lon":5.41438,"is_reserved":false,"is_disabled":false,"rental_uris":{"android":"levelo://app?vid=5e7c28ce-c1e0-45f8-9aa8-e38a3d89ec30","ios":"levelo://app?vid=5e7c28ce-c1e0-45f8-9aa8-e38a3d89ec30"},"vehicle_type_id":"4","last_reported":1751551834,"current_range_meters":18800,"station_id":"ce4bhq12rcd13ifvqhhg","pricing_plan_id":"cebpf4jnsgd1na2vs0mg"},{"bike_id":"cbab8e8e-76d8-4b25-9f75-190c476c076a","system_id":"levelo_inurba_marseille","lat":43.33628,"lon":5.41037,"is_reserved":false,"is_disabled":false,"rental_uris":{"android":"levelo://app?vid=cbab8e8e-76d8-4b25-9f75-190c476c076a","ios":"levelo://app?vid=cbab8e8e-76d8-4b25-9f75-190c476c076a"},"vehicle_type_id":"4","last_reported":1751551834,"current_range_meters":18800,"station_id":"ce4bhqh2rcd13ifvqhmg","pricing_plan_id":"cebpf4jnsgd1na2vs0mg"},{"bike_id":"5ecbe7d9-b835-47e3-87d6-0fd67017673c","system_id":"levelo_inurba_marseille","lat":43.32086,"lon":5.36796,"is_reserved":false,"is_disabled":false,"rental_uris":{"android":"levelo://app?vid=5ecbe7d9-b835-47e3-87d6-0fd67017673c","ios":"levelo://app?vid=5ecbe7d9-b835-47e3-87d6-0fd67017673c"},"vehicle_type_id":"4","last_reported":1751551834,"current_range_meters":18800,"station_id":"ce4bhrh2rcd13ifvqhug","pricing_plan_id":"cebpf4jnsgd1na2vs0mg"},{"bike_id":"d3bdb41c-8b0a-446d-98af-e6de2988fc13","system_id":"levelo_inurba_marseille","lat":43.22508,"lon":5.34794,"is_reserved":false,"is_disabled":false,"rental_uris":{"android":"levelo://app?vid=d3bdb41c-8b0a-446d-98af-e6de2988fc13","ios":"levelo://app?vid=d3bdb41c-8b0a-446d-98af-e6de2988fc13"},"vehicle_type_id":"4","last_reported":1751551834,"current_range_meters":18800,"station_id":"st_cvj5dfep6f1abm77gieg","pricing_plan_id":"cebpf4jnsgd1na2vs0mg"},{"bike_id":"5f1e5526-9ff8-4075-8194-48a897f058b4","system_id":"levelo_inurba_marseille","lat":43.212,"lon":5.3507,"is_reserved":false,"is_disabled":false,"rental_uris":{"android":"levelo://app?vid=5f1e5526-9ff8-4075-8194-48a897f058b4","ios":"levelo://app?vid=5f1e5526-9ff8-4075-8194-48a897f058b4"},"vehicle_type_id":"4","last_reported":1751551834,"current_range_meters":18800,"station_id":"st_cvj6sg6p6f1abm77japg","pricing_plan_id":"cebpf4jnsgd1na2vs0mg"},{"bike_id":"d0580365-62f4-43ff-a948-8aef8057e454","system_id":"levelo_inurba_marseille","lat":43.30282,"lon":5.37708,"is_reserved":false,"is_disabled":false,"rental_uris":{"android":"levelo://app?vid=d0580365-62f4-43ff-a948-8aef8057e454","ios":"levelo://app?vid=d0580365-62f4-43ff-a948-8aef8057e454"},"vehicle_type_id":"4","last_reported":1751551834,"current_range_meters":19200,"station_id":"ce4bguh2rcd13ifvqcj0","pricing_plan_id":"cebpf4jnsgd1na2vs0mg"},{"bike_id":"5ca573f7-adce-4e65-a0a5-8aecba433aef","system_id":"levelo_inurba_marseille","lat":43.30948,"lon":5.39033,"is_reserved":false,"is_disabled":false,"rental_uris":{"android":"levelo://app?vid=5ca573f7-adce-4e65-a0a5-8aecba433aef","ios":"levelo://app?vid=5ca573f7-adce-4e65-a0a5-8aecba433aef"},"vehicle_type_id":"4","last_reported":1751551834,"current_range_meters":19200,"station_id":"ce4bgup2rcd13ifvqco0","pricing_plan_id":"cebpf4jnsgd1na2vs0mg"},{"bike_id":"2a94fd94-0515-4965-af38-1b5b6163f630","system_id":"levelo_inurba_marseille","lat":43.30426,"lon":5.39741,"is_reserved":false,"is_disabled":false,"rental_uris":{"android":"levelo://app?vid=2a94fd94-0515-4965-af38-1b5b6163f630","ios":"levelo://app?vid=2a94fd94-0515-4965-af38-1b5b6163f630"},"vehicle_type_id":"4","last_reported":1751551834,"current_range_meters":19200,"station_id":"ce4bh092rcd13ifvqd20","pricing_plan_id":"cebpf4jnsgd1na2vs0mg"},{"bike_id":"302a479a-4dd2-45be-8595-6cb99f1d3867","system_id":"levelo_inurba_marseille","lat":43.28352,"lon":5.38109,"is_reserved":false,"is_disabled":false,"rental_uris":{"android":"levelo://app?vid=302a479a-4dd2-45be-8595-6cb99f1d3867","ios":"levelo://app?vid=302a479a-4dd2-45be-8595-6cb99f1d3867"},"vehicle_type_id":"4","last_reported":1751551834,"current_range_meters":19200,"station_id":"ce4bh412rcd13ifvqdr0","pricing_plan_id":"cebpf4jnsgd1na2vs0mg"},{"bike_id":"2dddcf76-2a5c-416c-b77a-ce67ae732752","system_id":"levelo_inurba_marseille","lat":43.28729,"lon":5.3795,"is_reserved":false,"is_disabled":false,"rental_uris":{"android":"levelo://app?vid=2dddcf76-2a5c-416c-b77a-ce67ae732752","ios":"levelo://app?vid=2dddcf76-2a5c-416c-b77a-ce67ae732752"},"vehicle_type_id":"4","last_reported":1751551834,"current_range_meters":19200,"station_id":"ce4bh9p2rcd13ifvqec0","pricing_plan_id":"cebpf4jnsgd1na2vs0mg"},{"bike_id":"03b2e043-1035-4c63-9aad-797b1fe9c288","system_id":"levelo_inurba_marseille","lat":43.282654,"lon":5.350543,"is_reserved":false,"is_disabled":false,"rental_uris":{"android":"levelo://app?vid=03b2e043-1035-4c63-9aad-797b1fe9c288","ios":"levelo://app?vid=03b2e043-1035-4c63-9aad-797b1fe9c288"},"vehicle_type_id":"4","last_reported":1751551834,"current_range_meters":19200,"station_id":"ce4bhbp2rcd13ifvqerg","pricing_plan_id":"cebpf4jnsgd1na2vs0mg"},{"bike_id":"810c3467-9c46-4dcf-aa33-d05eff9105d9","system_id":"levelo_inurba_marseille","lat":43.27173,"lon":5.40993,"is_reserved":false,"is_disabled":false,"rental_uris":{"android":"levelo://app?vid=810c3467-9c46-4dcf-aa33-d05eff9105d9","ios":"levelo://app?vid=810c3467-9c46-4dcf-aa33-d05eff9105d9"},"vehicle_type_id":"4","last_reported":1751551834,"current_range_meters":19200,"station_id":"ce4bhl12rcd13ifvqgf0","pricing_plan_id":"cebpf4jnsgd1na2vs0mg"},{"bike_id":"08e81811-c9ab-430d-a98b-a4424b37dd49","system_id":"levelo_inurba_marseille","lat":43.29566,"lon":5.423,"is_reserved":false,"is_disabled":false,"rental_uris":{"android":"levelo://app?vid=08e81811-c9ab-430d-a98b-a4424b37dd49","ios":"levelo://app?vid=08e81811-c9ab-430d-a98b-a4424b37dd49"},"vehicle_type_id":"4","last_reported":1751551834,"current_range_meters":19200,"station_id":"ce4bhph2rcd13ifvqhdg","pricing_plan_id":"cebpf4jnsgd1na2vs0mg"},{"bike_id":"32c0fc37-6823-41d0-9497-8d1eea24742c","system_id":"levelo_inurba_marseille","lat":43.241701,"lon":5.364011,"is_reserved":false,"is_disabled":false,"rental_uris":{"android":"levelo://app?vid=32c0fc37-6823-41d0-9497-8d1eea24742c","ios":"levelo://app?vid=32c0fc37-6823-41d0-9497-8d1eea24742c"},"vehicle_type_id":"4","last_reported":1751551834,"current_range_meters":19200,"station_id":"cpo36qri1sfpv3e86is0","pricing_plan_id":"cebpf4jnsgd1na2vs0mg"},{"bike_id":"ba926bfc-9632-4680-b0ed-32a040d6fb83","system_id":"levelo_inurba_marseille","lat":43.21743,"lon":5.346,"is_reserved":false,"is_disabled":false,"rental_uris":{"android":"levelo://app?vid=ba926bfc-9632-4680-b0ed-32a040d6fb83","ios":"levelo://app?vid=ba926bfc-9632-4680-b0ed-32a040d6fb83"},"vehicle_type_id":"4","last_reported":1751551834,"current_range_meters":19200,"station_id":"st_cvj6r9ubvosntc0bgbag","pricing_plan_id":"cebpf4jnsgd1na2vs0mg"},{"bike_id":"b13877a6-4825-4d82-b46b-67fa8ad66c5d","system_id":"levelo_inurba_marseille","lat":43.21201,"lon":5.35066,"is_reserved":false,"is_disabled":false,"rental_uris":{"android":"levelo://app?vid=b13877a6-4825-4d82-b46b-67fa8ad66c5d","ios":"levelo://app?vid=b13877a6-4825-4d82-b46b-67fa8ad66c5d"},"vehicle_type_id":"4","last_reported":1751551834,"current_range_meters":19200,"station_id":"st_cvj6sg6p6f1abm77japg","pricing_plan_id":"cebpf4jnsgd1na2vs0mg"},{"bike_id":"7712491c-e18b-4b09-bb79-30880b357c07","system_id":"levelo_inurba_marseille","lat":43.2119,"lon":5.35075,"is_reserved":false,"is_disabled":false,"rental_uris":{"android":"levelo://app?vid=7712491c-e18b-4b09-bb79-30880b357c07","ios":"levelo://app?vid=7712491c-e18b-4b09-bb79-30880b357c07"},"vehicle_type_id":"4","last_reported":1751551834,"current_range_meters":19200,"station_id":"st_cvj6sg6p6f1abm77japg","pricing_plan_id":"cebpf4jnsgd1na2vs0mg"},{"bike_id":"39fa5f31-4afa-4271-a36e-400e3970d6f0","system_id":"levelo_inurba_marseille","lat":43.30407,"lon":5.37578,"is_reserved":false,"is_disabled":false,"rental_uris":{"android":"levelo://app?vid=39fa5f31-4afa-4271-a36e-400e3970d6f0","ios":"levelo://app?vid=39fa5f31-4afa-4271-a36e-400e3970d6f0"},"vehicle_type_id":"4","last_reported":1751551834,"current_range_meters":19600,"station_id":"","pricing_plan_id":"cebpf4jnsgd1na2vs0mg"},{"bike_id":"8b3755fc-2284-401e-bc3a-14d8474e8e49","system_id":"levelo_inurba_marseille","lat":43.289559,"lon":5.383888,"is_reserved":false,"is_disabled":false,"rental_uris":{"android":"levelo://app?vid=8b3755fc-2284-401e-bc3a-14d8474e8e49","ios":"levelo://app?vid=8b3755fc-2284-401e-bc3a-14d8474e8e49"},"vehicle_type_id":"4","last_reported":1751551834,"current_range_meters":19600,"station_id":"","pricing_plan_id":"cebpf4jnsgd1na2vs0mg"},{"bike_id":"2c22b76b-a1e8-4bea-aada-ca7641fe1d98","system_id":"levelo_inurba_marseille","lat":43.29599,"lon":5.38103,"is_reserved":false,"is_disabled":false,"rental_uris":{"android":"levelo://app?vid=2c22b76b-a1e8-4bea-aada-ca7641fe1d98","ios":"levelo://app?vid=2c22b76b-a1e8-4bea-aada-ca7641fe1d98"},"vehicle_type_id":"4","last_reported":1751551834,"current_range_meters":19600,"station_id":"ce4bgl12rcd13ifvqbo0","pricing_plan_id":"cebpf4jnsgd1na2vs0mg"},{"bike_id":"d6e4beea-9eae-48fa-a170-61b877438408","system_id":"levelo_inurba_marseille","lat":43.28263,"lon":5.35076,"is_reserved":false,"is_disabled":false,"rental_uris":{"android":"levelo://app?vid=d6e4beea-9eae-48fa-a170-61b877438408","ios":"levelo://app?vid=d6e4beea-9eae-48fa-a170-61b877438408"},"vehicle_type_id":"4","last_reported":1751551834,"current_range_meters":19600,"station_id":"ce4bhbp2rcd13ifvqerg","pricing_plan_id":"cebpf4jnsgd1na2vs0mg"},{"bike_id":"0223427c-f7c8-4956-bf8f-124881cdee3f","system_id":"levelo_inurba_marseille","lat":43.30354,"lon":5.41883,"is_reserved":false,"is_disabled":false,"rental_uris":{"android":"levelo://app?vid=0223427c-f7c8-4956-bf8f-124881cdee3f","ios":"levelo://app?vid=0223427c-f7c8-4956-bf8f-124881cdee3f"},"vehicle_type_id":"4","last_reported":1751551834,"current_range_meters":19600,"station_id":"ce4bhop2rcd13ifvqh7g","pricing_plan_id":"cebpf4jnsgd1na2vs0mg"},{"bike_id":"3eabe1e2-f9f5-41cb-a4ed-73ca7f909c5c","system_id":"levelo_inurba_marseille","lat":43.21751,"lon":5.34601,"is_reserved":false,"is_disabled":false,"rental_uris":{"android":"levelo://app?vid=3eabe1e2-f9f5-41cb-a4ed-73ca7f909c5c","ios":"levelo://app?vid=3eabe1e2-f9f5-41cb-a4ed-73ca7f909c5c"},"vehicle_type_id":"4","last_reported":1751551834,"current_range_meters":19600,"station_id":"st_cvj6r9ubvosntc0bgbag","pricing_plan_id":"cebpf4jnsgd1na2vs0mg"},{"bike_id":"b3d7a6ac-4ad8-404e-91ae-53d96dbbd9fb","system_id":"levelo_inurba_marseille","lat":43.21761,"lon":5.34608,"is_reserved":false,"is_disabled":false,"rental_uris":{"android":"levelo://app?vid=b3d7a6ac-4ad8-404e-91ae-53d96dbbd9fb","ios":"levelo://app?vid=b3d7a6ac-4ad8-404e-91ae-53d96dbbd9fb"},"vehicle_type_id":"4","last_reported":1751551834,"current_range_meters":19600,"station_id":"st_cvj6r9ubvosntc0bgbag","pricing_plan_id":"cebpf4jnsgd1na2vs0mg"},{"bike_id":"63acad33-6ce0-4879-bb8b-7b4910bd10f3","system_id":"levelo_inurba_marseille","lat":43.24804,"lon":5.41183,"is_reserved":false,"is_disabled":false,"rental_uris":{"android":"levelo://app?vid=63acad33-6ce0-4879-bb8b-7b4910bd10f3","ios":"levelo://app?vid=63acad33-6ce0-4879-bb8b-7b4910bd10f3"},"vehicle_type_id":"4","last_reported":1751551834,"current_range_meters":20000,"station_id":"","pricing_plan_id":"cebpf4jnsgd1na2vs0mg"},{"bike_id":"63d345d3-233b-4f1f-ac9e-d5877e987f8c","system_id":"levelo_inurba_marseille","lat":43.306,"lon":5.37232,"is_reserved":false,"is_disabled":false,"rental_uris":{"android":"levelo://app?vid=63d345d3-233b-4f1f-ac9e-d5877e987f8c","ios":"levelo://app?vid=63d345d3-233b-4f1f-ac9e-d5877e987f8c"},"vehicle_type_id":"4","last_reported":1751551834,"current_range_meters":20000,"station_id":"ce4bgqh2rcd13ifvqc4g","pricing_plan_id":"cebpf4jnsgd1na2vs0mg"},{"bike_id":"dc522fa3-6da0-4674-bdfd-6f9a6714e534","system_id":"levelo_inurba_marseille","lat":43.282692,"lon":5.350662,"is_reserved":false,"is_disabled":false,"rental_uris":{"android":"levelo://app?vid=dc522fa3-6da0-4674-bdfd-6f9a6714e534","ios":"levelo://app?vid=dc522fa3-6da0-4674-bdfd-6f9a6714e534"},"vehicle_type_id":"4","last_reported":1751551834,"current_range_meters":20000,"station_id":"ce4bhbp2rcd13ifvqerg","pricing_plan_id":"cebpf4jnsgd1na2vs0mg"},{"bike_id":"4b8da722-ee9e-48a4-a5e5-3a8a10364708","system_id":"levelo_inurba_marseille","lat":43.31226,"lon":5.37816,"is_reserved":false,"is_disabled":false,"rental_uris":{"android":"levelo://app?vid=4b8da722-ee9e-48a4-a5e5-3a8a10364708","ios":"levelo://app?vid=4b8da722-ee9e-48a4-a5e5-3a8a10364708"},"vehicle_type_id":"4","last_reported":1751551834,"current_range_meters":20400,"station_id":"","pricing_plan_id":"cebpf4jnsgd1na2vs0mg"},{"bike_id":"8d66cf0b-6cac-42b5-ac9f-884ca354166c","system_id":"levelo_inurba_marseille","lat":43.29315,"lon":5.3718,"is_reserved":false,"is_disabled":false,"rental_uris":{"android":"levelo://app?vid=8d66cf0b-6cac-42b5-ac9f-884ca354166c","ios":"levelo://app?vid=8d66cf0b-6cac-42b5-ac9f-884ca354166c"},"vehicle_type_id":"4","last_reported":1751551834,"current_range_meters":20400,"station_id":"ce4bgh92rcd13ifvqb40","pricing_plan_id":"cebpf4jnsgd1na2vs0mg"},{"bike_id":"0f7d77c5-7077-4066-abb4-4aeecab019be","system_id":"levelo_inurba_marseille","lat":43.312008,"lon":5.368752,"is_reserved":false,"is_disabled":false,"rental_uris":{"android":"levelo://app?vid=0f7d77c5-7077-4066-abb4-4aeecab019be","ios":"levelo://app?vid=0f7d77c5-7077-4066-abb4-4aeecab019be"},"vehicle_type_id":"4","last_reported":1751551834,"current_range_meters":20400,"station_id":"ce4bgl92rcd13ifvqbq0","pricing_plan_id":"cebpf4jnsgd1na2vs0mg"},{"bike_id":"0147dcfe-e9cc-4b68-aff3-5aba12b80b7f","system_id":"levelo_inurba_marseille","lat":43.29849,"lon":5.36287,"is_reserved":false,"is_disabled":false,"rental_uris":{"android":"levelo://app?vid=0147dcfe-e9cc-4b68-aff3-5aba12b80b7f","ios":"levelo://app?vid=0147dcfe-e9cc-4b68-aff3-5aba12b80b7f"},"vehicle_type_id":"4","last_reported":1751551834,"current_range_meters":20400,"station_id":"ce4bgpp2rcd13ifvqc3g","pricing_plan_id":"cebpf4jnsgd1na2vs0mg"},{"bike_id":"2cf376db-e1bd-492e-ba54-0d629886c39e","system_id":"levelo_inurba_marseille","lat":43.30958,"lon":5.39045,"is_reserved":false,"is_disabled":false,"rental_uris":{"android":"levelo://app?vid=2cf376db-e1bd-492e-ba54-0d629886c39e","ios":"levelo://app?vid=2cf376db-e1bd-492e-ba54-0d629886c39e"},"vehicle_type_id":"4","last_reported":1751551834,"current_range_meters":20400,"station_id":"ce4bgup2rcd13ifvqco0","pricing_plan_id":"cebpf4jnsgd1na2vs0mg"},{"bike_id":"36b6eec1-5603-4659-9dfa-05697c9ee354","system_id":"levelo_inurba_marseille","lat":43.23056,"lon":5.35506,"is_reserved":false,"is_disabled":false,"rental_uris":{"android":"levelo://app?vid=36b6eec1-5603-4659-9dfa-05697c9ee354","ios":"levelo://app?vid=36b6eec1-5603-4659-9dfa-05697c9ee354"},"vehicle_type_id":"4","last_reported":1751551834,"current_range_meters":20400,"station_id":"cpo3342slgdg3j2ifvpg","pricing_plan_id":"cebpf4jnsgd1na2vs0mg"},{"bike_id":"833bb9ff-7b15-4a8e-91f3-ff216ef28553","system_id":"levelo_inurba_marseille","lat":43.3169,"lon":5.37457,"is_reserved":false,"is_disabled":false,"rental_uris":{"android":"levelo://app?vid=833bb9ff-7b15-4a8e-91f3-ff216ef28553","ios":"levelo://app?vid=833bb9ff-7b15-4a8e-91f3-ff216ef28553"},"vehicle_type_id":"4","last_reported":1751551834,"current_range_meters":20800,"station_id":"","pricing_plan_id":"cebpf4jnsgd1na2vs0mg"},{"bike_id":"31f7672a-4c55-4755-acee-d6b275ea3711","system_id":"levelo_inurba_marseille","lat":43.30348,"lon":5.37884,"is_reserved":false,"is_disabled":false,"rental_uris":{"android":"levelo://app?vid=31f7672a-4c55-4755-acee-d6b275ea3711","ios":"levelo://app?vid=31f7672a-4c55-4755-acee-d6b275ea3711"},"vehicle_type_id":"4","last_reported":1751551834,"current_range_meters":20800,"station_id":"","pricing_plan_id":"cebpf4jnsgd1na2vs0mg"},{"bike_id":"4148c09b-80a7-41ce-8df6-fe4b6594432d","system_id":"levelo_inurba_marseille","lat":43.31113,"lon":5.37773,"is_reserved":false,"is_disabled":false,"rental_uris":{"android":"levelo://app?vid=4148c09b-80a7-41ce-8df6-fe4b6594432d","ios":"levelo://app?vid=4148c09b-80a7-41ce-8df6-fe4b6594432d"},"vehicle_type_id":"4","last_reported":1751551834,"current_range_meters":20800,"station_id":"ce4bgt92rcd13ifvqcg0","pricing_plan_id":"cebpf4jnsgd1na2vs0mg"},