{"last_updated":1777127850,"ttl":60,"version":"2.2","data":{"bikes":[{"bike_id":"b366ec7d-c192-4885-b939-048f6205fa48","system_id":"levelo_inurba_marseille","lat":43.28232,"lon":5.39061,"is_reserved":false,"is_disabled":false,"rental_uris":{"android":"levelo://app?vid=b366ec7d-c192-4885-b939-048f6205fa48","ios":"levelo://app?vid=b366ec7d-c192-4885-b939-048f6205fa48"},"vehicle_type_id":"4","last_reported":1777127851,"current_range_meters":2800,"station_id":"ce4bhn92rcd13ifvqgsg","pricing_plan_id":"cebpf4jnsgd1na2vs0mg"},{"bike_id":"fa769b93-38e4-4252-9169-12dd2ad5e5b8","system_id":"levelo_inurba_marseille","lat":43.3099,"lon":5.3906,"is_reserved":false,"is_disabled":false,"rental_uris":{"android":"levelo://app?vid=fa769b93-38e4-4252-9169-12dd2ad5e5b8","ios":"levelo://app?vid=fa769b93-38e4-4252-9169-12dd2ad5e5b8"},"vehicle_type_id":"4","last_reported":1777127851,"current_range_meters":2800,"station_id":"ce4bgup2rcd13ifvqco0","pricing_plan_id":"cebpf4jnsgd1na2vs0mg"},{"bike_id":"49d114f1-3141-4cfe-9c56-7ab861ce8068","system_id":"levelo_inurba_marseille","lat":43.30542,"lon":5.36552,"is_reserved":false,"is_disabled":false,"rental_uris":{"android":"levelo://app?vid=49d114f1-3141-4cfe-9c56-7ab861ce8068","ios":"levelo://app?vid=49d114f1-3141-4cfe-9c56-7ab861ce8068"},"vehicle_type_id":"4","last_reported":1777127851,"current_range_meters":2800,"station_id":"ce4bgs12rcd13ifvqcag","pricing_plan_id":"cebpf4jnsgd1na2vs0mg"},{"bike_id":"a41146b4-644e-4e3f-801b-007860addb1c","system_id":"levelo_inurba_marseille","lat":43.23967,"lon":5.3662,"is_reserved":false,"is_disabled":false,"rental_uris":{"android":"levelo://app?vid=a41146b4-644e-4e3f-801b-007860addb1c","ios":"levelo://app?vid=a41146b4-644e-4e3f-801b-007860addb1c"},"vehicle_type_id":"4","last_reported":1777127851,"current_range_meters":2800,"station_id":"ce4bhi12rcd13ifvqfp0","pricing_plan_id":"cebpf4jnsgd1na2vs0mg"},{"bike_id":"cd21f6c1-a1f8-4978-8025-1d254a6bf514","system_id":"levelo_inurba_marseille","lat":43.28487,"lon":5.48395,"is_reserved":false,"is_disabled":false,"rental_uris":{"android":"levelo://app?vid=cd21f6c1-a1f8-4978-8025-1d254a6bf514","ios":"levelo://app?vid=cd21f6c1-a1f8-4978-8025-1d254a6bf514"},"vehicle_type_id":"4","last_reported":1777127851,"current_range_meters":2800,"station_id":"st_d3svhcjqgbts73a3dn0g","pricing_plan_id":"cebpf4jnsgd1na2vs0mg"},{"bike_id":"e4aa67b0-3157-40c8-a9be-4e65f481bf69","system_id":"levelo_inurba_marseille","lat":43.2946,"lon":5.37602,"is_reserved":false,"is_disabled":false,"rental_uris":{"android":"levelo://app?vid=e4aa67b0-3157-40c8-a9be-4e65f481bf69","ios":"levelo://app?vid=e4aa67b0-3157-40c8-a9be-4e65f481bf69"},"vehicle_type_id":"4","last_reported":1777127851,"current_range_meters":2800,"station_id":"","pricing_plan_id":"cebpf4jnsgd1na2vs0mg"},{"bike_id":"26e311ec-734f-477f-9bdc-cee009d68abe","system_id":"levelo_inurba_marseille","lat":43.33555,"lon":5.37477,"is_reserved":false,"is_disabled":false,"rental_uris":{"android":"levelo://app?vid=26e311ec-734f-477f-9bdc-cee009d68abe","ios":"levelo://app?vid=26e311ec-734f-477f-9bdc-cee009d68abe"},"vehicle_type_id":"4","last_reported":1777127851,"current_range_meters":2800,"station_id":"st_d46tts09ee8s73dlu43g","pricing_plan_id":"cebpf4jnsgd1na2vs0mg"},{"bike_id":"e8d6ce3d-1aa9-47ef-9b48-93862ee5f7fd","system_id":"levelo_inurba_marseille","lat":43.21272,"lon":5.35423,"is_reserved":false,"is_disabled":false,"rental_uris":{"android":"levelo://app?vid=e8d6ce3d-1aa9-47ef-9b48-93862ee5f7fd","ios":"levelo://app?vid=e8d6ce3d-1aa9-47ef-9b48-93862ee5f7fd"},"vehicle_type_id":"4","last_reported":1777127851,"current_range_meters":2800,"station_id":"","pricing_plan_id":"cebpf4jnsgd1na2vs0mg"},{"bike_id":"cc64a705-fc67-42a0-aef5-b89c63e2b465","system_id":"levelo_inurba_marseille","lat":43.23202,"lon":5.35539,"is_reserved":false,"is_disabled":false,"rental_uris":{"android":"levelo://app?vid=cc64a705-fc67-42a0-aef5-b89c63e2b465","ios":"levelo://app?vid=cc64a705-fc67-42a0-aef5-b89c63e2b465"},"vehicle_type_id":"4","last_reported":1777127851,"current_range_meters":2800,"station_id":"ce4bhu92rcd13ifvqi70","pricing_plan_id":"cebpf4jnsgd1na2vs0mg"},{"bike_id":"e5c37f61-8b05-425b-b44e-b697d45b41b9","system_id":"levelo_inurba_marseille","lat":43.28572,"lon":5.39498,"is_reserved":false,"is_disabled":false,"rental_uris":{"android":"levelo://app?vid=e5c37f61-8b05-425b-b44e-b697d45b41b9","ios":"levelo://app?vid=e5c37f61-8b05-425b-b44e-b697d45b41b9"},"vehicle_type_id":"4","last_reported":1777127851,"current_range_meters":2800,"station_id":"ce4bh292rcd13ifvqdg0","pricing_plan_id":"cebpf4jnsgd1na2vs0mg"},{"bike_id":"89cb976b-df3a-46fc-a9ef-0025de561630","system_id":"levelo_inurba_marseille","lat":43.2942,"lon":5.43428,"is_reserved":false,"is_disabled":false,"rental_uris":{"android":"levelo://app?vid=89cb976b-df3a-46fc-a9ef-0025de561630","ios":"levelo://app?vid=89cb976b-df3a-46fc-a9ef-0025de561630"},"vehicle_type_id":"4","last_reported":1777127851,"current_range_meters":2800,"station_id":"","pricing_plan_id":"cebpf4jnsgd1na2vs0mg"},{"bike_id":"59d6f703-b46b-4347-8e79-a46eda958525","system_id":"levelo_inurba_marseille","lat":43.29543,"lon":5.37519,"is_reserved":false,"is_disabled":false,"rental_uris":{"android":"levelo://app?vid=59d6f703-b46b-4347-8e79-a46eda958525","ios":"levelo://app?vid=59d6f703-b46b-4347-8e79-a46eda958525"},"vehicle_type_id":"4","last_reported":1777127851,"current_range_meters":2800,"station_id":"ce4bgkp2rcd13ifvqbmg","pricing_plan_id":"cebpf4jnsgd1na2vs0mg"},{"bike_id":"4a12860e-8131-4ec7-b3ad-1248c64a557b","system_id":"levelo_inurba_marseille","lat":43.29891,"lon":5.43663,"is_reserved":false,"is_disabled":true,"rental_uris":{"android":"levelo://app?vid=4a12860e-8131-4ec7-b3ad-1248c64a557b","ios":"levelo://app?vid=4a12860e-8131-4ec7-b3ad-1248c64a557b"},"vehicle_type_id":"4","last_reported":1777127851,"current_range_meters":2800,"station_id":"ce4bhpp2rcd13ifvqhfg","pricing_plan_id":"cebpf4jnsgd1na2vs0mg"},{"bike_id":"051bb7a6-8b28-4a80-a902-10ee9ea856ed","system_id":"levelo_inurba_marseille","lat":43.24365,"lon":5.37086,"is_reserved":false,"is_disabled":false,"rental_uris":{"android":"levelo://app?vid=051bb7a6-8b28-4a80-a902-10ee9ea856ed","ios":"levelo://app?vid=051bb7a6-8b28-4a80-a902-10ee9ea856ed"},"vehicle_type_id":"4","last_reported":1777127851,"current_range_meters":2800,"station_id":"ce4bhhh2rcd13ifvqfk0","pricing_plan_id":"cebpf4jnsgd1na2vs0mg"},{"bike_id":"14656edc-27be-4dfe-9e14-5d904570ebc1","system_id":"levelo_inurba_marseille","lat":43.29923,"lon":5.36532,"is_reserved":false,"is_disabled":false,"rental_uris":{"android":"levelo://app?vid=14656edc-27be-4dfe-9e14-5d904570ebc1","ios":"levelo://app?vid=14656edc-27be-4dfe-9e14-5d904570ebc1"},"vehicle_type_id":"4","last_reported":1777127851,"current_range_meters":3200,"station_id":"ce4bgm92rcd13ifvqbr0","pricing_plan_id":"cebpf4jnsgd1na2vs0mg"},{"bike_id":"3762a15a-49a2-4fc6-b2e6-a79b5f91a12f","system_id":"levelo_inurba_marseille","lat":43.28472,"lon":5.48397,"is_reserved":false,"is_disabled":false,"rental_uris":{"android":"levelo://app?vid=3762a15a-49a2-4fc6-b2e6-a79b5f91a12f","ios":"levelo://app?vid=3762a15a-49a2-4fc6-b2e6-a79b5f91a12f"},"vehicle_type_id":"4","last_reported":1777127851,"current_range_meters":3200,"station_id":"","pricing_plan_id":"cebpf4jnsgd1na2vs0mg"},{"bike_id":"60cc7913-6cdb-45bd-a7fd-b50ca98b29f4","system_id":"levelo_inurba_marseille","lat":43.2119,"lon":5.35066,"is_reserved":false,"is_disabled":false,"rental_uris":{"android":"levelo://app?vid=60cc7913-6cdb-45bd-a7fd-b50ca98b29f4","ios":"levelo://app?vid=60cc7913-6cdb-45bd-a7fd-b50ca98b29f4"},"vehicle_type_id":"4","last_reported":1777127851,"current_range_meters":3200,"station_id":"st_cvj6sg6p6f1abm77japg","pricing_plan_id":"cebpf4jnsgd1na2vs0mg"},{"bike_id":"2813910b-bfe0-425f-a483-9778de4facfb","system_id":"levelo_inurba_marseille","lat":43.30248,"lon":5.44973,"is_reserved":false,"is_disabled":false,"rental_uris":{"android":"levelo://app?vid=2813910b-bfe0-425f-a483-9778de4facfb","ios":"levelo://app?vid=2813910b-bfe0-425f-a483-9778de4facfb"},"vehicle_type_id":"4","last_reported":1777127851,"current_range_meters":3200,"station_id":"","pricing_plan_id":"cebpf4jnsgd1na2vs0mg"},{"bike_id":"676f4845-6b49-4773-b82f-ef4c6a0d7c2d","system_id":"levelo_inurba_marseille","lat":43.26115,"lon":5.3751,"is_reserved":false,"is_disabled":false,"rental_uris":{"android":"levelo://app?vid=676f4845-6b49-4773-b82f-ef4c6a0d7c2d","ios":"levelo://app?vid=676f4845-6b49-4773-b82f-ef4c6a0d7c2d"},"vehicle_type_id":"4","last_reported":1777127851,"current_range_meters":3200,"station_id":"","pricing_plan_id":"cebpf4jnsgd1na2vs0mg"},{"bike_id":"3c3da94d-6525-4d6a-8cd1-3580864b0a6c","system_id":"levelo_inurba_marseille","lat":43.25093,"lon":5.39529,"is_reserved":false,"is_disabled":false,"rental_uris":{"android":"levelo://app?vid=3c3da94d-6525-4d6a-8cd1-3580864b0a6c","ios":"levelo://app?vid=3c3da94d-6525-4d6a-8cd1-3580864b0a6c"},"vehicle_type_id":"4","last_reported":1777127851,"current_range_meters":3200,"station_id":"ce4bhm12rcd13ifvqgkg","pricing_plan_id":"cebpf4jnsgd1na2vs0mg"},{"bike_id":"7c097651-4753-4299-9810-430d6e357ae8","system_id":"levelo_inurba_marseille","lat":43.24072,"lon":5.37754,"is_reserved":false,"is_disabled":false,"rental_uris":{"android":"levelo://app?vid=7c097651-4753-4299-9810-430d6e357ae8","ios":"levelo://app?vid=7c097651-4753-4299-9810-430d6e357ae8"},"vehicle_type_id":"4","last_reported":1777127851,"current_range_meters":3200,"station_id":"ce4bhnp2rcd13ifvqgvg","pricing_plan_id":"cebpf4jnsgd1na2vs0mg"},{"bike_id":"9551d018-5e78-4140-9905-79c000303a1d","system_id":"levelo_inurba_marseille","lat":43.284058,"lon":5.349898,"is_reserved":false,"is_disabled":false,"rental_uris":{"android":"levelo://app?vid=9551d018-5e78-4140-9905-79c000303a1d","ios":"levelo://app?vid=9551d018-5e78-4140-9905-79c000303a1d"},"vehicle_type_id":"4","last_reported":1777127851,"current_range_meters":3200,"station_id":"ce4bhbh2rcd13ifvqepg","pricing_plan_id":"cebpf4jnsgd1na2vs0mg"},{"bike_id":"9e85104a-07ce-4d60-aaba-03376c10effd","system_id":"levelo_inurba_marseille","lat":43.265477,"lon":5.372865,"is_reserved":false,"is_disabled":false,"rental_uris":{"android":"levelo://app?vid=9e85104a-07ce-4d60-aaba-03376c10effd","ios":"levelo://app?vid=9e85104a-07ce-4d60-aaba-03376c10effd"},"vehicle_type_id":"4","last_reported":1777127851,"current_range_meters":3600,"station_id":"","pricing_plan_id":"cebpf4jnsgd1na2vs0mg"},{"bike_id":"b38d89b8-c3c9-4fae-b6f2-09980d89f2e9","system_id":"levelo_inurba_marseille","lat":43.2848,"lon":5.48393,"is_reserved":false,"is_disabled":false,"rental_uris":{"android":"levelo://app?vid=b38d89b8-c3c9-4fae-b6f2-09980d89f2e9","ios":"levelo://app?vid=b38d89b8-c3c9-4fae-b6f2-09980d89f2e9"},"vehicle_type_id":"4","last_reported":1777127851,"current_range_meters":3600,"station_id":"","pricing_plan_id":"cebpf4jnsgd1na2vs0mg"},{"bike_id":"082e9381-5478-4fa8-bed1-a0ff7502c6ad","system_id":"levelo_inurba_marseille","lat":43.26215,"lon":5.37456,"is_reserved":false,"is_disabled":false,"rental_uris":{"android":"levelo://app?vid=082e9381-5478-4fa8-bed1-a0ff7502c6ad","ios":"levelo://app?vid=082e9381-5478-4fa8-bed1-a0ff7502c6ad"},"vehicle_type_id":"4","last_reported":1777127851,"current_range_meters":3600,"station_id":"ce4bhgp2rcd13ifvqfc0","pricing_plan_id":"cebpf4jnsgd1na2vs0mg"},{"bike_id":"ca11b121-54de-4f65-9d70-def3e0fa6aac","system_id":"levelo_inurba_marseille","lat":43.26488,"lon":5.39548,"is_reserved":false,"is_disabled":false,"rental_uris":{"android":"levelo://app?vid=ca11b121-54de-4f65-9d70-def3e0fa6aac","ios":"levelo://app?vid=ca11b121-54de-4f65-9d70-def3e0fa6aac"},"vehicle_type_id":"4","last_reported":1777127851,"current_range_meters":3600,"station_id":"ce4bhi12rcd13ifvqfq0","pricing_plan_id":"cebpf4jnsgd1na2vs0mg"},{"bike_id":"6992b3f8-21b2-4229-b228-6c7cd156c06b","system_id":"levelo_inurba_marseille","lat":43.30213,"lon":5.3948,"is_reserved":false,"is_disabled":false,"rental_uris":{"android":"levelo://app?vid=6992b3f8-21b2-4229-b228-6c7cd156c06b","ios":"levelo://app?vid=6992b3f8-21b2-4229-b228-6c7cd156c06b"},"vehicle_type_id":"4","last_reported":1777127851,"current_range_meters":3600,"station_id":"ce4bh0p2rcd13ifvqd70","pricing_plan_id":"cebpf4jnsgd1na2vs0mg"},{"bike_id":"7a8c1ed1-ce66-497c-91eb-0188139f5903","system_id":"levelo_inurba_marseille","lat":43.28596,"lon":5.35113,"is_reserved":false,"is_disabled":false,"rental_uris":{"android":"levelo://app?vid=7a8c1ed1-ce66-497c-91eb-0188139f5903","ios":"levelo://app?vid=7a8c1ed1-ce66-497c-91eb-0188139f5903"},"vehicle_type_id":"4","last_reported":1777127851,"current_range_meters":3600,"station_id":"ce4bhch2rcd13ifvqeug","pricing_plan_id":"cebpf4jnsgd1na2vs0mg"},{"bike_id":"1e59b61f-2bd5-4515-a192-979da044ddd9","system_id":"levelo_inurba_marseille","lat":43.23191,"lon":5.35553,"is_reserved":false,"is_disabled":false,"rental_uris":{"android":"levelo://app?vid=1e59b61f-2bd5-4515-a192-979da044ddd9","ios":"levelo://app?vid=1e59b61f-2bd5-4515-a192-979da044ddd9"},"vehicle_type_id":"4","last_reported":1777127851,"current_range_meters":3600,"station_id":"ce4bhu92rcd13ifvqi70","pricing_plan_id":"cebpf4jnsgd1na2vs0mg"},{"bike_id":"72d9601a-0ec2-4b04-94d9-f148f01fa707","system_id":"levelo_inurba_marseille","lat":43.23214,"lon":5.35527,"is_reserved":false,"is_disabled":false,"rental_uris":{"android":"levelo://app?vid=72d9601a-0ec2-4b04-94d9-f148f01fa707","ios":"levelo://app?vid=72d9601a-0ec2-4b04-94d9-f148f01fa707"},"vehicle_type_id":"4","last_reported":1777127851,"current_range_meters":4000,"station_id":"ce4bhu92rcd13ifvqi70","pricing_plan_id":"cebpf4jnsgd1na2vs0mg"},{"bike_id":"56d2a211-986e-423a-adb3-3a38f021acdd","system_id":"levelo_inurba_marseille","lat":43.30308,"lon":5.36889,"is_reserved":false,"is_disabled":false,"rental_uris":{"android":"levelo://app?vid=56d2a211-986e-423a-adb3-3a38f021acdd","ios":"levelo://app?vid=56d2a211-986e-423a-adb3-3a38f021acdd"},"vehicle_type_id":"4","last_reported":1777127851,"current_range_meters":4000,"station_id":"ce4bgqh2rcd13ifvqc5g","pricing_plan_id":"cebpf4jnsgd1na2vs0mg"},{"bike_id":"5aba8b50-85d9-4d23-a814-b5c0e1e3fd26","system_id":"levelo_inurba_marseille","lat":43.30903,"lon":5.402,"is_reserved":false,"is_disabled":false,"rental_uris":{"android":"levelo://app?vid=5aba8b50-85d9-4d23-a814-b5c0e1e3fd26","ios":"levelo://app?vid=5aba8b50-85d9-4d23-a814-b5c0e1e3fd26"},"vehicle_type_id":"4","last_reported":1777127851,"current_range_meters":4000,"station_id":"ce4bgvp2rcd13ifvqct0","pricing_plan_id":"cebpf4jnsgd1na2vs0mg"},{"bike_id":"1097c3c4-36e4-4d25-83ea-ff12a871d538","system_id":"levelo_inurba_marseille","lat":43.21753,"lon":5.346,"is_reserved":false,"is_disabled":false,"rental_uris":{"android":"levelo://app?vid=1097c3c4-36e4-4d25-83ea-ff12a871d538","ios":"levelo://app?vid=1097c3c4-36e4-4d25-83ea-ff12a871d538"},"vehicle_type_id":"4","last_reported":1777127851,"current_range_meters":4000,"station_id":"st_cvj6r9ubvosntc0bgbag","pricing_plan_id":"cebpf4jnsgd1na2vs0mg"},{"bike_id":"d9256f3c-3f03-492e-aef6-0aab1f490071","system_id":"levelo_inurba_marseille","lat":43.24818,"lon":5.37465,"is_reserved":false,"is_disabled":false,"rental_uris":{"android":"levelo://app?vid=d9256f3c-3f03-492e-aef6-0aab1f490071","ios":"levelo://app?vid=d9256f3c-3f03-492e-aef6-0aab1f490071"},"vehicle_type_id":"4","last_reported":1777127851,"current_range_meters":4000,"station_id":"ce4bhgh2rcd13ifvqfb0","pricing_plan_id":"cebpf4jnsgd1na2vs0mg"},{"bike_id":"18973bed-d649-4182-aa34-fe98d19c23a5","system_id":"levelo_inurba_marseille","lat":43.30587,"lon":5.39366,"is_reserved":false,"is_disabled":false,"rental_uris":{"android":"levelo://app?vid=18973bed-d649-4182-aa34-fe98d19c23a5","ios":"levelo://app?vid=18973bed-d649-4182-aa34-fe98d19c23a5"},"vehicle_type_id":"4","last_reported":1777127851,"current_range_meters":4000,"station_id":"ce4bh0p2rcd13ifvqd80","pricing_plan_id":"cebpf4jnsgd1na2vs0mg"},{"bike_id":"6533574e-7540-46ca-bc5e-62e7823dcedd","system_id":"levelo_inurba_marseille","lat":43.21735,"lon":5.34612,"is_reserved":false,"is_disabled":false,"rental_uris":{"android":"levelo://app?vid=6533574e-7540-46ca-bc5e-62e7823dcedd","ios":"levelo://app?vid=6533574e-7540-46ca-bc5e-62e7823dcedd"},"vehicle_type_id":"4","last_reported":1777127851,"current_range_meters":4000,"station_id":"st_cvj6r9ubvosntc0bgbag","pricing_plan_id":"cebpf4jnsgd1na2vs0mg"},{"bike_id":"7ab9e9d2-55c6-492f-8e60-126c7a6965ab","system_id":"levelo_inurba_marseille","lat":43.27967,"lon":5.3704,"is_reserved":false,"is_disabled":false,"rental_uris":{"android":"levelo://app?vid=7ab9e9d2-55c6-492f-8e60-126c7a6965ab","ios":"levelo://app?vid=7ab9e9d2-55c6-492f-8e60-126c7a6965ab"},"vehicle_type_id":"4","last_reported":1777127851,"current_range_meters":4000,"station_id":"","pricing_plan_id":"cebpf4jnsgd1na2vs0mg"},{"bike_id":"30ae163a-44ad-49ad-bf51-c1f54df5559c","system_id":"levelo_inurba_marseille","lat":43.28831,"lon":5.4251,"is_reserved":false,"is_disabled":false,"rental_uris":{"android":"levelo://app?vid=30ae163a-44ad-49ad-bf51-c1f54df5559c","ios":"levelo://app?vid=30ae163a-44ad-49ad-bf51-c1f54df5559c"},"vehicle_type_id":"4","last_reported":1777127851,"current_range_meters":4000,"station_id":"st_d3b462108ojc7389ooeg","pricing_plan_id":"cebpf4jnsgd1na2vs0mg"},{"bike_id":"a0c29d76-53a4-44e1-ad02-eed739d5224b","system_id":"levelo_inurba_marseille","lat":43.24163,"lon":5.36432,"is_reserved":false,"is_disabled":false,"rental_uris":{"android":"levelo://app?vid=a0c29d76-53a4-44e1-ad02-eed739d5224b","ios":"levelo://app?vid=a0c29d76-53a4-44e1-ad02-eed739d5224b"},"vehicle_type_id":"4","last_reported":1777127851,"current_range_meters":4000,"station_id":"cpo36qri1sfpv3e86is0","pricing_plan_id":"cebpf4jnsgd1na2vs0mg"},{"bike_id":"edf01b46-e630-4d5e-94cb-159eb5243fc3","system_id":"levelo_inurba_marseille","lat":43.23787,"lon":5.3663,"is_reserved":false,"is_disabled":false,"rental_uris":{"android":"levelo://app?vid=edf01b46-e630-4d5e-94cb-159eb5243fc3","ios":"levelo://app?vid=edf01b46-e630-4d5e-94cb-159eb5243fc3"},"vehicle_type_id":"4","last_reported":1777127851,"current_range_meters":4400,"station_id":"st_d3nk18o9ro0c73en2l3g","pricing_plan_id":"cebpf4jnsgd1na2vs0mg"},{"bike_id":"aa897415-67a0-4b07-b64e-cbc8da7d4792","system_id":"levelo_inurba_marseille","lat":43.24206,"lon":5.36407,"is_reserved":false,"is_disabled":false,"rental_uris":{"android":"levelo://app?vid=aa897415-67a0-4b07-b64e-cbc8da7d4792","ios":"levelo://app?vid=aa897415-67a0-4b07-b64e-cbc8da7d4792"},"vehicle_type_id":"4","last_reported":1777127851,"current_range_meters":4400,"station_id":"cpo36qri1sfpv3e86is0","pricing_plan_id":"cebpf4jnsgd1na2vs0mg"},{"bike_id":"b91d13a0-a3ac-4088-9caa-30d3bee89f73","system_id":"levelo_inurba_marseille","lat":43.28949,"lon":5.36421,"is_reserved":false,"is_disabled":false,"rental_uris":{"android":"levelo://app?vid=b91d13a0-a3ac-4088-9caa-30d3bee89f73","ios":"levelo://app?vid=b91d13a0-a3ac-4088-9caa-30d3bee89f73"},"vehicle_type_id":"4","last_reported":1777127851,"current_range_meters":4400,"station_id":"ce4bhc92rcd13ifvqetg","pricing_plan_id":"cebpf4jnsgd1na2vs0mg"},{"bike_id":"2c3d8c35-ac96-4f95-8feb-7990c2c66643","system_id":"levelo_inurba_marseille","lat":43.30885,"lon":5.37182,"is_reserved":false,"is_disabled":false,"rental_uris":{"android":"levelo://app?vid=2c3d8c35-ac96-4f95-8feb-7990c2c66643","ios":"levelo://app?vid=2c3d8c35-ac96-4f95-8feb-7990c2c66643"},"vehicle_type_id":"4","last_reported":1777127851,"current_range_meters":4400,"station_id":"ce4bguh2rcd13ifvqckg","pricing_plan_id":"cebpf4jnsgd1na2vs0mg"},{"bike_id":"edc2c6c1-d949-43e8-b98c-807ad86ceb6c","system_id":"levelo_inurba_marseille","lat":43.22552,"lon":5.41625,"is_reserved":false,"is_disabled":false,"rental_uris":{"android":"levelo://app?vid=edc2c6c1-d949-43e8-b98c-807ad86ceb6c","ios":"levelo://app?vid=edc2c6c1-d949-43e8-b98c-807ad86ceb6c"},"vehicle_type_id":"4","last_reported":1777127851,"current_range_meters":4400,"station_id":"st_d2o4gvlbi1j2169b742g","pricing_plan_id":"cebpf4jnsgd1na2vs0mg"},{"bike_id":"60be4b0d-4c83-4300-8220-7b23e159ba6b","system_id":"levelo_inurba_marseille","lat":43.24806,"lon":5.37453,"is_reserved":false,"is_disabled":false,"rental_uris":{"android":"levelo://app?vid=60be4b0d-4c83-4300-8220-7b23e159ba6b","ios":"levelo://app?vid=60be4b0d-4c83-4300-8220-7b23e159ba6b"},"vehicle_type_id":"4","last_reported":1777127851,"current_range_meters":4400,"station_id":"ce4bhgh2rcd13ifvqfb0","pricing_plan_id":"cebpf4jnsgd1na2vs0mg"},{"bike_id":"95419b71-8c86-4bde-8255-fe74b8ab1ef9","system_id":"levelo_inurba_marseille","lat":43.21192,"lon":5.35073,"is_reserved":false,"is_disabled":false,"rental_uris":{"android":"levelo://app?vid=95419b71-8c86-4bde-8255-fe74b8ab1ef9","ios":"levelo://app?vid=95419b71-8c86-4bde-8255-fe74b8ab1ef9"},"vehicle_type_id":"4","last_reported":1777127851,"current_range_meters":4400,"station_id":"st_cvj6sg6p6f1abm77japg","pricing_plan_id":"cebpf4jnsgd1na2vs0mg"},{"bike_id":"7e995e75-5bb4-45e6-ae17-a2c459e3e368","system_id":"levelo_inurba_marseille","lat":43.30151,"lon":5.39874,"is_reserved":false,"is_disabled":false,"rental_uris":{"android":"levelo://app?vid=7e995e75-5bb4-45e6-ae17-a2c459e3e368","ios":"levelo://app?vid=7e995e75-5bb4-45e6-ae17-a2c459e3e368"},"vehicle_type_id":"4","last_reported":1777127851,"current_range_meters":4400,"station_id":"ce4bh0h2rcd13ifvqd40","pricing_plan_id":"cebpf4jnsgd1na2vs0mg"},{"bike_id":"68385ad1-5a71-4622-9ac2-dcc837084f17","system_id":"levelo_inurba_marseille","lat":43.24076,"lon":5.37774,"is_reserved":false,"is_disabled":false,"rental_uris":{"android":"levelo://app?vid=68385ad1-5a71-4622-9ac2-dcc837084f17","ios":"levelo://app?vid=68385ad1-5a71-4622-9ac2-dcc837084f17"},"vehicle_type_id":"4","last_reported":1777127851,"current_range_meters":4400,"station_id":"ce4bhnp2rcd13ifvqgvg","pricing_plan_id":"cebpf4jnsgd1na2vs0mg"},{"bike_id":"5133295b-fd37-4123-a6de-09ec7fdf7419","system_id":"levelo_inurba_marseille","lat":43.3054,"lon":5.36549,"is_reserved":false,"is_disabled":false,"rental_uris":{"android":"levelo://app?vid=5133295b-fd37-4123-a6de-09ec7fdf7419","ios":"levelo://app?vid=5133295b-fd37-4123-a6de-09ec7fdf7419"},"vehicle_type_id":"4","last_reported":1777127851,"current_range_meters":4400,"station_id":"ce4bgs12rcd13ifvqcag","pricing_plan_id":"cebpf4jnsgd1na2vs0mg"},{"bike_id":"c7ac0306-6afc-4781-8692-f962ddfe1a23","system_id":"levelo_inurba_marseille","lat":43.32353,"lon":5.36741,"is_reserved":false,"is_disabled":false,"rental_uris":{"android":"levelo://app?vid=c7ac0306-6afc-4781-8692-f962ddfe1a23","ios":"levelo://app?vid=c7ac0306-6afc-4781-8692-f962ddfe1a23"},"vehicle_type_id":"4","last_reported":1777127851,"current_range_meters":4400,"station_id":"ce4bhsh2rcd13ifvqi2g","pricing_plan_id":"cebpf4jnsgd1na2vs0mg"},{"bike_id":"c73af032-90e2-49c8-97ab-62f5baec1972","system_id":"levelo_inurba_marseille","lat":43.30276,"lon":5.37702,"is_reserved":false,"is_disabled":false,"rental_uris":{"android":"levelo://app?vid=c73af032-90e2-49c8-97ab-62f5baec1972","ios":"levelo://app?vid=c73af032-90e2-49c8-97ab-62f5baec1972"},"vehicle_type_id":"4","last_reported":1777127851,"current_range_meters":4400,"station_id":"ce4bguh2rcd13ifvqcj0","pricing_plan_id":"cebpf4jnsgd1na2vs0mg"},{"bike_id":"9cb411e4-7d61-454f-8f78-f8a2f603eae0","system_id":"levelo_inurba_marseille","lat":43.26771,"lon":5.39424,"is_reserved":false,"is_disabled":false,"rental_uris":{"android":"levelo://app?vid=9cb411e4-7d61-454f-8f78-f8a2f603eae0","ios":"levelo://app?vid=9cb411e4-7d61-454f-8f78-f8a2f603eae0"},"vehicle_type_id":"4","last_reported":1777127851,"current_range_meters":4400,"station_id":"ce4bhh12rcd13ifvqfg0","pricing_plan_id":"cebpf4jnsgd1na2vs0mg"},{"bike_id":"e6379d0a-847a-45f7-a68d-5c4567327e9a","system_id":"levelo_inurba_marseille","lat":43.26193,"lon":5.37446,"is_reserved":false,"is_disabled":false,"rental_uris":{"android":"levelo://app?vid=e6379d0a-847a-45f7-a68d-5c4567327e9a","ios":"levelo://app?vid=e6379d0a-847a-45f7-a68d-5c4567327e9a"},"vehicle_type_id":"4","last_reported":1777127851,"current_range_meters":4400,"station_id":"ce4bhgp2rcd13ifvqfc0","pricing_plan_id":"cebpf4jnsgd1na2vs0mg"},{"bike_id":"3928a1b4-2843-4f5d-b7d3-263560e73a68","system_id":"levelo_inurba_marseille","lat":43.30682,"lon":5.40112,"is_reserved":false,"is_disabled":false,"rental_uris":{"android":"levelo://app?vid=3928a1b4-2843-4f5d-b7d3-263560e73a68","ios":"levelo://app?vid=3928a1b4-2843-4f5d-b7d3-263560e73a68"},"vehicle_type_id":"4","last_reported":1777127851,"current_range_meters":4800,"station_id":"ce4bh112rcd13ifvqda0","pricing_plan_id":"cebpf4jnsgd1na2vs0mg"},{"bike_id":"4af5f932-71ad-4954-ac3b-fecb2a352994","system_id":"levelo_inurba_marseille","lat":43.32389,"lon":5.36801,"is_reserved":false,"is_disabled":false,"rental_uris":{"android":"levelo://app?vid=4af5f932-71ad-4954-ac3b-fecb2a352994","ios":"levelo://app?vid=4af5f932-71ad-4954-ac3b-fecb2a352994"},"vehicle_type_id":"4","last_reported":1777127851,"current_range_meters":4800,"station_id":"","pricing_plan_id":"cebpf4jnsgd1na2vs0mg"},{"bike_id":"c5c1d2f0-ee72-4f1a-977d-695883ff14be","system_id":"levelo_inurba_marseille","lat":43.27372,"lon":5.3626,"is_reserved":false,"is_disabled":false,"rental_uris":{"android":"levelo://app?vid=c5c1d2f0-ee72-4f1a-977d-695883ff14be","ios":"levelo://app?vid=c5c1d2f0-ee72-4f1a-977d-695883ff14be"},"vehicle_type_id":"4","last_reported":1777127851,"current_range_meters":4800,"station_id":"ce4bhbh2rcd13ifvqeo0","pricing_plan_id":"cebpf4jnsgd1na2vs0mg"},{"bike_id":"1370c3f0-6074-43de-a93b-f7f87c829b3b","system_id":"levelo_inurba_marseille","lat":43.2912,"lon":5.39985,"is_reserved":false,"is_disabled":false,"rental_uris":{"android":"levelo://app?vid=1370c3f0-6074-43de-a93b-f7f87c829b3b","ios":"levelo://app?vid=1370c3f0-6074-43de-a93b-f7f87c829b3b"},"vehicle_type_id":"4","last_reported":1777127851,"current_range_meters":4800,"station_id":"","pricing_plan_id":"cebpf4jnsgd1na2vs0mg"},{"bike_id":"932e6c67-720e-4f79-bd2c-3c487f0be80f","system_id":"levelo_inurba_marseille","lat":43.24163,"lon":5.36402,"is_reserved":false,"is_disabled":false,"rental_uris":{"android":"levelo://app?vid=932e6c67-720e-4f79-bd2c-3c487f0be80f","ios":"levelo://app?vid=932e6c67-720e-4f79-bd2c-3c487f0be80f"},"vehicle_type_id":"4","last_reported":1777127851,"current_range_meters":4800,"station_id":"cpo36qri1sfpv3e86is0","pricing_plan_id":"cebpf4jnsgd1na2vs0mg"},{"bike_id":"4d5b4915-5fc0-4782-a3a4-e445cc2cf470","system_id":"levelo_inurba_marseille","lat":43.29871,"lon":5.42101,"is_reserved":false,"is_disabled":false,"rental_uris":{"android":"levelo://app?vid=4d5b4915-5fc0-4782-a3a4-e445cc2cf470","ios":"levelo://app?vid=4d5b4915-5fc0-4782-a3a4-e445cc2cf470"},"vehicle_type_id":"4","last_reported":1777127851,"current_range_meters":4800,"station_id":"st_d6tc004otcvc738tfe70","pricing_plan_id":"cebpf4jnsgd1na2vs0mg"},{"bike_id":"be11da49-7820-4cb4-9661-db8a32356194","system_id":"levelo_inurba_marseille","lat":43.28493,"lon":5.38557,"is_reserved":false,"is_disabled":false,"rental_uris":{"android":"levelo://app?vid=be11da49-7820-4cb4-9661-db8a32356194","ios":"levelo://app?vid=be11da49-7820-4cb4-9661-db8a32356194"},"vehicle_type_id":"4","last_reported":1777127851,"current_range_meters":4800,"station_id":"ce4bh8p2rcd13ifvqeb0","pricing_plan_id":"cebpf4jnsgd1na2vs0mg"},{"bike_id":"261b4d20-3fce-4a9a-b1df-f7d9447249df","system_id":"levelo_inurba_marseille","lat":43.28467,"lon":5.48418,"is_reserved":false,"is_disabled":false,"rental_uris":{"android":"levelo://app?vid=261b4d20-3fce-4a9a-b1df-f7d9447249df","ios":"levelo://app?vid=261b4d20-3fce-4a9a-b1df-f7d9447249df"},"vehicle_type_id":"4","last_reported":1777127851,"current_range_meters":4800,"station_id":"st_d3svhcjqgbts73a3dn0g","pricing_plan_id":"cebpf4jnsgd1na2vs0mg"},{"bike_id":"a17c566a-3c77-4744-af0d-8a49bbfa4bd3","system_id":"levelo_inurba_marseille","lat":43.225556,"lon":5.416309,"is_reserved":false,"is_disabled":false,"rental_uris":{"android":"levelo://app?vid=a17c566a-3c77-4744-af0d-8a49bbfa4bd3","ios":"levelo://app?vid=a17c566a-3c77-4744-af0d-8a49bbfa4bd3"},"vehicle_type_id":"4","last_reported":1777127851,"current_range_meters":4800,"station_id":"st_d2o4gvlbi1j2169b742g","pricing_plan_id":"cebpf4jnsgd1na2vs0mg"},{"bike_id":"f8b71621-9ee0-4284-b9b2-be8fa047ba8a","system_id":"levelo_inurba_marseille","lat":43.30131,"lon":5.43125,"is_reserved":false,"is_disabled":false,"rental_uris":{"android":"levelo://app?vid=f8b71621-9ee0-4284-b9b2-be8fa047ba8a","ios":"levelo://app?vid=f8b71621-9ee0-4284-b9b2-be8fa047ba8a"},"vehicle_type_id":"4","last_reported":1777127851,"current_range_meters":4800,"station_id":"st_d3js3co5814s73ftftug","pricing_plan_id":"cebpf4jnsgd1na2vs0mg"},{"bike_id":"3aaa1aba-ca49-4132-8b74-19c1dd6b5d77","system_id":"levelo_inurba_marseille","lat":43.28423,"lon":5.34999,"is_reserved":false,"is_disabled":false,"rental_uris":{"android":"levelo://app?vid=3aaa1aba-ca49-4132-8b74-19c1dd6b5d77","ios":"levelo://app?vid=3aaa1aba-ca49-4132-8b74-19c1dd6b5d77"},"vehicle_type_id":"4","last_reported":1777127851,"current_range_meters":4800,"station_id":"ce4bhbh2rcd13ifvqepg","pricing_plan_id":"cebpf4jnsgd1na2vs0mg"},{"bike_id":"27cd71a7-0940-4415-a67f-21597fbf1cd9","system_id":"levelo_inurba_marseille","lat":43.33008,"lon":5.39105,"is_reserved":false,"is_disabled":false,"rental_uris":{"android":"levelo://app?vid=27cd71a7-0940-4415-a67f-21597fbf1cd9","ios":"levelo://app?vid=27cd71a7-0940-4415-a67f-21597fbf1cd9"},"vehicle_type_id":"4","last_reported":1777127851,"current_range_meters":5600,"station_id":"","pricing_plan_id":"cebpf4jnsgd1na2vs0mg"},{"bike_id":"5be0883e-9142-4b71-9b48-50fc24227f7d","system_id":"levelo_inurba_marseille","lat":43.2417,"lon":5.36394,"is_reserved":false,"is_disabled":false,"rental_uris":{"android":"levelo://app?vid=5be0883e-9142-4b71-9b48-50fc24227f7d","ios":"levelo://app?vid=5be0883e-9142-4b71-9b48-50fc24227f7d"},"vehicle_type_id":"4","last_reported":1777127851,"current_range_meters":5600,"station_id":"cpo36qri1sfpv3e86is0","pricing_plan_id":"cebpf4jnsgd1na2vs0mg"},{"bike_id":"a05e872a-58aa-4d83-96e8-0131cf7c1294","system_id":"levelo_inurba_marseille","lat":43.24073,"lon":5.37758,"is_reserved":false,"is_disabled":false,"rental_uris":{"android":"levelo://app?vid=a05e872a-58aa-4d83-96e8-0131cf7c1294","ios":"levelo://app?vid=a05e872a-58aa-4d83-96e8-0131cf7c1294"},"vehicle_type_id":"4","last_reported":1777127851,"current_range_meters":5600,"station_id":"ce4bhnp2rcd13ifvqgvg","pricing_plan_id":"cebpf4jnsgd1na2vs0mg"},{"bike_id":"12e3170c-3401-42a8-b7fb-4950b48d21a8","system_id":"levelo_inurba_marseille","lat":43.24164,"lon":5.36423,"is_reserved":false,"is_disabled":false,"rental_uris":{"android":"levelo://app?vid=12e3170c-3401-42a8-b7fb-4950b48d21a8","ios":"levelo://app?vid=12e3170c-3401-42a8-b7fb-4950b48d21a8"},"vehicle_type_id":"4","last_reported":1777127851,"current_range_meters":5600,"station_id":"cpo36qri1sfpv3e86is0","pricing_plan_id":"cebpf4jnsgd1na2vs0mg"},{"bike_id":"18727794-a7fd-4caf-8ad7-e7c00923143f","system_id":"levelo_inurba_marseille","lat":43.24366,"lon":5.37083,"is_reserved":false,"is_disabled":false,"rental_uris":{"android":"levelo://app?vid=18727794-a7fd-4caf-8ad7-e7c00923143f","ios":"levelo://app?vid=18727794-a7fd-4caf-8ad7-e7c00923143f"},"vehicle_type_id":"4","last_reported":1777127851,"current_range_meters":5600,"station_id":"ce4bhhh2rcd13ifvqfk0","pricing_plan_id":"cebpf4jnsgd1na2vs0mg"},{"bike_id":"5b3d9390-602d-45b3-946e-ce010fcc24e8","system_id":"levelo_inurba_marseille","lat":43.23178,"lon":5.3999,"is_reserved":false,"is_disabled":false,"rental_uris":{"android":"levelo://app?vid=5b3d9390-602d-45b3-946e-ce010fcc24e8","ios":"levelo://app?vid=5b3d9390-602d-45b3-946e-ce010fcc24e8"},"vehicle_type_id":"4","last_reported":1777127851,"current_range_meters":5600,"station_id":"ce4bhn12rcd13ifvqgqg","pricing_plan_id":"cebpf4jnsgd1na2vs0mg"},{"bike_id":"91f37720-eb9c-4347-a962-0b04c0a3549b","system_id":"levelo_inurba_marseille","lat":43.24157,"lon":5.36395,"is_reserved":false,"is_disabled":false,"rental_uris":{"android":"levelo://app?vid=91f37720-eb9c-4347-a962-0b04c0a3549b","ios":"levelo://app?vid=91f37720-eb9c-4347-a962-0b04c0a3549b"},"vehicle_type_id":"4","last_reported":1777127851,"current_range_meters":5600,"station_id":"cpo36qri1sfpv3e86is0","pricing_plan_id":"cebpf4jnsgd1na2vs0mg"},{"bike_id":"745d9c85-028f-4beb-837f-34e50e789eb5","system_id":"levelo_inurba_marseille","lat":43.22564,"lon":5.41644,"is_reserved":false,"is_disabled":false,"rental_uris":{"android":"levelo://app?vid=745d9c85-028f-4beb-837f-34e50e789eb5","ios":"levelo://app?vid=745d9c85-028f-4beb-837f-34e50e789eb5"},"vehicle_type_id":"4","last_reported":1777127851,"current_range_meters":5600,"station_id":"st_d2o4gvlbi1j2169b742g","pricing_plan_id":"cebpf4jnsgd1na2vs0mg"},{"bike_id":"8c8d3a1e-3e2c-407c-b8ad-af868cc54226","system_id":"levelo_inurba_marseille","lat":43.294882,"lon":5.393907,"is_reserved":false,"is_disabled":false,"rental_uris":{"android":"levelo://app?vid=8c8d3a1e-3e2c-407c-b8ad-af868cc54226","ios":"levelo://app?vid=8c8d3a1e-3e2c-407c-b8ad-af868cc54226"},"vehicle_type_id":"4","last_reported":1777127851,"current_range_meters":6000,"station_id":"","pricing_plan_id":"cebpf4jnsgd1na2vs0mg"},{"bike_id":"1d368fe1-0c8f-4a40-864c-b54082c58fa1","system_id":"levelo_inurba_marseille","lat":43.33562,"lon":5.37479,"is_reserved":false,"is_disabled":false,"rental_uris":{"android":"levelo://app?vid=1d368fe1-0c8f-4a40-864c-b54082c58fa1","ios":"levelo://app?vid=1d368fe1-0c8f-4a40-864c-b54082c58fa1"},"vehicle_type_id":"4","last_reported":1777127851,"current_range_meters":6000,"station_id":"st_d46tts09ee8s73dlu43g","pricing_plan_id":"cebpf4jnsgd1na2vs0mg"},{"bike_id":"f2624277-c3c2-447d-b47c-955cb19d6b1f","system_id":"levelo_inurba_marseille","lat":43.22938,"lon":5.35374,"is_reserved":false,"is_disabled":false,"rental_uris":{"android":"levelo://app?vid=f2624277-c3c2-447d-b47c-955cb19d6b1f","ios":"levelo://app?vid=f2624277-c3c2-447d-b47c-955cb19d6b1f"},"vehicle_type_id":"4","last_reported":1777127851,"current_range_meters":6000,"station_id":"cpo3532slgdg3j2ikp40","pricing_plan_id":"cebpf4jnsgd1na2vs0mg"},{"bike_id":"f645e30b-5616-45b3-a17d-faf4a49d971d","system_id":"levelo_inurba_marseille","lat":43.31,"lon":5.37533,"is_reserved":false,"is_disabled":false,"rental_uris":{"android":"levelo://app?vid=f645e30b-5616-45b3-a17d-faf4a49d971d","ios":"levelo://app?vid=f645e30b-5616-45b3-a17d-faf4a49d971d"},"vehicle_type_id":"4","last_reported":1777127851,"current_range_meters":6000,"station_id":"","pricing_plan_id":"cebpf4jnsgd1na2vs0mg"},{"bike_id":"baf5e93f-baa0-4776-9800-afea43e9329e","system_id":"levelo_inurba_marseille","lat":43.23218,"lon":5.35608,"is_reserved":false,"is_disabled":false,"rental_uris":{"android":"levelo://app?vid=baf5e93f-baa0-4776-9800-afea43e9329e","ios":"levelo://app?vid=baf5e93f-baa0-4776-9800-afea43e9329e"},"vehicle_type_id":"4","last_reported":1777127851,"current_range_meters":6000,"station_id":"","pricing_plan_id":"cebpf4jnsgd1na2vs0mg"},{"bike_id":"45ad0d0e-efdd-4c05-bbcd-19b309dc3892","system_id":"levelo_inurba_marseille","lat":43.27987,"lon":5.41666,"is_reserved":false,"is_disabled":false,"rental_uris":{"android":"levelo://app?vid=45ad0d0e-efdd-4c05-bbcd-19b309dc3892","ios":"levelo://app?vid=45ad0d0e-efdd-4c05-bbcd-19b309dc3892"},"vehicle_type_id":"4","last_reported":1777127851,"current_range_meters":6000,"station_id":"ce4bho12rcd13ifvqh1g","pricing_plan_id":"cebpf4jnsgd1na2vs0mg"},{"bike_id":"2dd0f67f-4b21-431e-b687-cc3d42d4ed4f","system_id":"levelo_inurba_marseille","lat":43.24469,"lon":5.42533,"is_reserved":false,"is_disabled":false,"rental_uris":{"android":"levelo://app?vid=2dd0f67f-4b21-431e-b687-cc3d42d4ed4f","ios":"levelo://app?vid=2dd0f67f-4b21-431e-b687-cc3d42d4ed4f"},"vehicle_type_id":"4","last_reported":1777127851,"current_range_meters":6000,"station_id":"st_d4a3vfp97mjs738cd8kg","pricing_plan_id":"cebpf4jnsgd1na2vs0mg"},{"bike_id":"a3dee876-3af2-46d4-9131-1dd0997e500a","system_id":"levelo_inurba_marseille","lat":43.24416,"lon":5.37109,"is_reserved":false,"is_disabled":true,"rental_uris":{"android":"levelo://app?vid=a3dee876-3af2-46d4-9131-1dd0997e500a","ios":"levelo://app?vid=a3dee876-3af2-46d4-9131-1dd0997e500a"},"vehicle_type_id":"4","last_reported":1777127851,"current_range_meters":6000,"station_id":"ce4bhhh2rcd13ifvqfk0","pricing_plan_id":"cebpf4jnsgd1na2vs0mg"},{"bike_id":"9e736a24-151b-4861-9d3c-68515cd11e0f","system_id":"levelo_inurba_marseille","lat":43.32087,"lon":5.36776,"is_reserved":false,"is_disabled":false,"rental_uris":{"android":"levelo://app?vid=9e736a24-151b-4861-9d3c-68515cd11e0f","ios":"levelo://app?vid=9e736a24-151b-4861-9d3c-68515cd11e0f"},"vehicle_type_id":"4","last_reported":1777127851,"current_range_meters":6000,"station_id":"ce4bhrh2rcd13ifvqhug","pricing_plan_id":"cebpf4jnsgd1na2vs0mg"},{"bike_id":"a7cbe0fc-2978-4316-97d1-ceccbe82f174","system_id":"levelo_inurba_marseille","lat":43.26186,"lon":5.37919,"is_reserved":false,"is_disabled":false,"rental_uris":{"android":"levelo://app?vid=a7cbe0fc-2978-4316-97d1-ceccbe82f174","ios":"levelo://app?vid=a7cbe0fc-2978-4316-97d1-ceccbe82f174"},"vehicle_type_id":"4","last_reported":1777127851,"current_range_meters":6000,"station_id":"ce4bhjp2rcd13ifvqg90","pricing_plan_id":"cebpf4jnsgd1na2vs0mg"},{"bike_id":"c7317b11-016f-4032-9e11-d7dbe504a853","system_id":"levelo_inurba_marseille","lat":43.21735,"lon":5.34604,"is_reserved":false,"is_disabled":false,"rental_uris":{"android":"levelo://app?vid=c7317b11-016f-4032-9e11-d7dbe504a853","ios":"levelo://app?vid=c7317b11-016f-4032-9e11-d7dbe504a853"},"vehicle_type_id":"4","last_reported":1777127851,"current_range_meters":6000,"station_id":"st_cvj6r9ubvosntc0bgbag","pricing_plan_id":"cebpf4jnsgd1na2vs0mg"},{"bike_id":"0ce641a1-ca62-4f05-b894-4a72f77b98f2","system_id":"levelo_inurba_marseille","lat":43.32358,"lon":5.36743,"is_reserved":false,"is_disabled":false,"rental_uris":{"android":"levelo://app?vid=0ce641a1-ca62-4f05-b894-4a72f77b98f2","ios":"levelo://app?vid=0ce641a1-ca62-4f05-b894-4a72f77b98f2"},"vehicle_type_id":"4","last_reported":1777127851,"current_range_meters":6400,"station_id":"ce4bhsh2rcd13ifvqi2g","pricing_plan_id":"cebpf4jnsgd1na2vs0mg"},{"bike_id":"8688e3cc-c206-4226-a5a3-dbee7a519b27","system_id":"levelo_inurba_marseille","lat":43.29001,"lon":5.35623,"is_reserved":false,"is_disabled":false,"rental_uris":{"android":"levelo://app?vid=8688e3cc-c206-4226-a5a3-dbee7a519b27","ios":"levelo://app?vid=8688e3cc-c206-4226-a5a3-dbee7a519b27"},"vehicle_type_id":"4","last_reported":1777127851,"current_range_meters":6400,"station_id":"ce4bhb92rcd13ifvqen0","pricing_plan_id":"cebpf4jnsgd1na2vs0mg"},{"bike_id":"d6fe3b86-fbe0-4238-bde5-58230a708e15","system_id":"levelo_inurba_marseille","lat":43.2987,"lon":5.39737,"is_reserved":false,"is_disabled":false,"rental_uris":{"android":"levelo://app?vid=d6fe3b86-fbe0-4238-bde5-58230a708e15","ios":"levelo://app?vid=d6fe3b86-fbe0-4238-bde5-58230a708e15"},"vehicle_type_id":"4","last_reported":1777127851,"current_range_meters":6400,"station_id":"ce4bh0h2rcd13ifvqd50","pricing_plan_id":"cebpf4jnsgd1na2vs0mg"},{"bike_id":"7c7a6e62-e130-431f-b3ec-a07feec308d8","system_id":"levelo_inurba_marseille","lat":43.22703,"lon":5.34817,"is_reserved":false,"is_disabled":false,"rental_uris":{"android":"levelo://app?vid=7c7a6e62-e130-431f-b3ec-a07feec308d8","ios":"levelo://app?vid=7c7a6e62-e130-431f-b3ec-a07feec308d8"},"vehicle_type_id":"4","last_reported":1777127851,"current_range_meters":6400,"station_id":"","pricing_plan_id":"cebpf4jnsgd1na2vs0mg"},{"bike_id":"1da117f2-f893-4ac3-99f7-852c0750949e","system_id":"levelo_inurba_marseille","lat":43.27608,"lon":5.36133,"is_reserved":false,"is_disabled":false,"rental_uris":{"android":"levelo://app?vid=1da117f2-f893-4ac3-99f7-852c0750949e","ios":"levelo://app?vid=1da117f2-f893-4ac3-99f7-852c0750949e"},"vehicle_type_id":"4","last_reported":1777127851,"current_range_meters":6400,"station_id":"ce4bgj92rcd13ifvqbe0","pricing_plan_id":"cebpf4jnsgd1na2vs0mg"},{"bike_id":"229e4557-384d-4a68-9d9c-a426b264692f","system_id":"levelo_inurba_marseille","lat":43.2601,"lon":5.37556,"is_reserved":false,"is_disabled":false,"rental_uris":{"android":"levelo://app?vid=229e4557-384d-4a68-9d9c-a426b264692f","ios":"levelo://app?vid=229e4557-384d-4a68-9d9c-a426b264692f"},"vehicle_type_id":"4","last_reported":1777127851,"current_range_meters":6400,"station_id":"ce4bhgh2rcd13ifvqfa0","pricing_plan_id":"cebpf4jnsgd1na2vs0mg"},{"bike_id":"11b4237d-97ce-456f-9e98-53250e69d368","system_id":"levelo_inurba_marseille","lat":43.28285,"lon":5.35068,"is_reserved":false,"is_disabled":false,"rental_uris":{"android":"levelo://app?vid=11b4237d-97ce-456f-9e98-53250e69d368","ios":"levelo://app?vid=11b4237d-97ce-456f-9e98-53250e69d368"},"vehicle_type_id":"4","last_reported":1777127851,"current_range_meters":6400,"station_id":"ce4bhbp2rcd13ifvqerg","pricing_plan_id":"cebpf4jnsgd1na2vs0mg"},{"bike_id":"9278db47-07ec-490b-96cb-556e160c5c2f","system_id":"levelo_inurba_marseille","lat":43.29674,"lon":5.38058,"is_reserved":false,"is_disabled":false,"rental_uris":{"android":"levelo://app?vid=9278db47-07ec-490b-96cb-556e160c5c2f","ios":"levelo://app?vid=9278db47-07ec-490b-96cb-556e160c5c2f"},"vehicle_type_id":"4","last_reported":1777127851,"current_range_meters":6400,"station_id":"","pricing_plan_id":"cebpf4jnsgd1na2vs0mg"},{"bike_id":"219d0e76-da72-4224-ab57-f5a16ce71cd2","system_id":"levelo_inurba_marseille","lat":43.21728,"lon":5.34613,"is_reserved":false,"is_disabled":false,"rental_uris":{"android":"levelo://app?vid=219d0e76-da72-4224-ab57-f5a16ce71cd2","ios":"levelo://app?vid=219d0e76-da72-4224-ab57-f5a16ce71cd2"},"vehicle_type_id":"4","last_reported":1777127851,"current_range_meters":6400,"station_id":"st_cvj6r9ubvosntc0bgbag","pricing_plan_id":"cebpf4jnsgd1na2vs0mg"},{"bike_id":"75471a09-e4ee-4438-b4e9-ebcc3c66f359","system_id":"levelo_inurba_marseille","lat":43.21198,"lon":5.35078,"is_reserved":false,"is_disabled":false,"rental_uris":{"android":"levelo://app?vid=75471a09-e4ee-4438-b4e9-ebcc3c66f359","ios":"levelo://app?vid=75471a09-e4ee-4438-b4e9-ebcc3c66f359"},"vehicle_type_id":"4","last_reported":1777127851,"current_range_meters":6400,"station_id":"st_cvj6sg6p6f1abm77japg","pricing_plan_id":"cebpf4jnsgd1na2vs0mg"},{"bike_id":"6b50c11e-02a0-4d45-8994-7a4d05e976bc","system_id":"levelo_inurba_marseille","lat":43.29605,"lon":5.39781,"is_reserved":false,"is_disabled":false,"rental_uris":{"android":"levelo://app?vid=6b50c11e-02a0-4d45-8994-7a4d05e976bc","ios":"levelo://app?vid=6b50c11e-02a0-4d45-8994-7a4d05e976bc"},"vehicle_type_id":"4","last_reported":1777127851,"current_range_meters":6400,"station_id":"","pricing_plan_id":"cebpf4jnsgd1na2vs0mg"},{"bike_id":"95430d5b-44ff-449b-9e09-8a6c48d6930c","system_id":"levelo_inurba_marseille","lat":43.29738,"lon":5.37751,"is_reserved":false,"is_disabled":false,"rental_uris":{"android":"levelo://app?vid=95430d5b-44ff-449b-9e09-8a6c48d6930c","ios":"levelo://app?vid=95430d5b-44ff-449b-9e09-8a6c48d6930c"},"vehicle_type_id":"4","last_reported":1777127851,"current_range_meters":6400,"station_id":"","pricing_plan_id":"cebpf4jnsgd1na2vs0mg"},{"bike_id":"9f0d987b-8d48-4e64-b4fe-b8a48b427501","system_id":"levelo_inurba_marseille","lat":43.26545,"lon":5.37291,"is_reserved":false,"is_disabled":false,"rental_uris":{"android":"levelo://app?vid=9f0d987b-8d48-4e64-b4fe-b8a48b427501","ios":"levelo://app?vid=9f0d987b-8d48-4e64-b4fe-b8a48b427501"},"vehicle_type_id":"4","last_reported":1777127851,"current_range_meters":6400,"station_id":"ce4bhg12rcd13ifvqf70","pricing_plan_id":"cebpf4jnsgd1na2vs0mg"},{"bike_id":"318b0f19-64fa-4af9-92a2-6b5d9e2e4a7b","system_id":"levelo_inurba_marseille","lat":43.21193,"lon":5.35098,"is_reserved":false,"is_disabled":false,"rental_uris":{"android":"levelo://app?vid=318b0f19-64fa-4af9-92a2-6b5d9e2e4a7b","ios":"levelo://app?vid=318b0f19-64fa-4af9-92a2-6b5d9e2e4a7b"},"vehicle_type_id":"4","last_reported":1777127851,"current_range_meters":6400,"station_id":"st_cvj6sg6p6f1abm77japg","pricing_plan_id":"cebpf4jnsgd1na2vs0mg"},{"bike_id":"984de716-8c30-401d-8693-5473c802325c","system_id":"levelo_inurba_marseille","lat":43.29972,"lon":5.37187,"is_reserved":false,"is_disabled":false,"rental_uris":{"android":"levelo://app?vid=984de716-8c30-401d-8693-5473c802325c","ios":"levelo://app?vid=984de716-8c30-401d-8693-5473c802325c"},"vehicle_type_id":"4","last_reported":1777127851,"current_range_meters":6400,"station_id":"ce4bgr92rcd13ifvqc7g","pricing_plan_id":"cebpf4jnsgd1na2vs0mg"},{"bike_id":"5f296135-f5ca-4df2-a473-1a687d7ee080","system_id":"levelo_inurba_marseille","lat":43.29523,"lon":5.38547,"is_reserved":false,"is_disabled":false,"rental_uris":{"android":"levelo://app?vid=5f296135-f5ca-4df2-a473-1a687d7ee080","ios":"levelo://app?vid=5f296135-f5ca-4df2-a473-1a687d7ee080"},"vehicle_type_id":"4","last_reported":1777127851,"current_range_meters":6400,"station_id":"ce4bgih2rcd13ifvqba0","pricing_plan_id":"cebpf4jnsgd1na2vs0mg"},{"bike_id":"5091d3df-140a-4a96-ba1e-f44ab742c57b","system_id":"levelo_inurba_marseille","lat":43.23219,"lon":5.40078,"is_reserved":false,"is_disabled":true,"rental_uris":{"android":"levelo://app?vid=5091d3df-140a-4a96-ba1e-f44ab742c57b","ios":"levelo://app?vid=5091d3df-140a-4a96-ba1e-f44ab742c57b"},"vehicle_type_id":"4","last_reported":1777127851,"current_range_meters":6400,"station_id":"ce4bhn12rcd13ifvqgqg","pricing_plan_id":"cebpf4jnsgd1na2vs0mg"},{"bike_id":"ee90bc62-cc26-4ff6-99cf-0a7f4e35754e","system_id":"levelo_inurba_marseille","lat":43.336075,"lon":5.410318,"is_reserved":false,"is_disabled":false,"rental_uris":{"android":"levelo://app?vid=ee90bc62-cc26-4ff6-99cf-0a7f4e35754e","ios":"levelo://app?vid=ee90bc62-cc26-4ff6-99cf-0a7f4e35754e"},"vehicle_type_id":"4","last_reported":1777127851,"current_range_meters":6400,"station_id":"ce4bhqh2rcd13ifvqhmg","pricing_plan_id":"cebpf4jnsgd1na2vs0mg"},{"bike_id":"e4435d61-1aef-48eb-9ae3-81dbfa376867","system_id":"levelo_inurba_marseille","lat":43.24159,"lon":5.36413,"is_reserved":false,"is_disabled":false,"rental_uris":{"android":"levelo://app?vid=e4435d61-1aef-48eb-9ae3-81dbfa376867","ios":"levelo://app?vid=e4435d61-1aef-48eb-9ae3-81dbfa376867"},"vehicle_type_id":"4","last_reported":1777127851,"current_range_meters":6400,"station_id":"cpo36qri1sfpv3e86is0","pricing_plan_id":"cebpf4jnsgd1na2vs0mg"},{"bike_id":"54dd0309-49d2-49f6-bbb2-520a1e5622f4","system_id":"levelo_inurba_marseille","lat":43.24166,"lon":5.36402,"is_reserved":false,"is_disabled":false,"rental_uris":{"android":"levelo://app?vid=54dd0309-49d2-49f6-bbb2-520a1e5622f4","ios":"levelo://app?vid=54dd0309-49d2-49f6-bbb2-520a1e5622f4"},"vehicle_type_id":"4","last_reported":1777127851,"current_range_meters":6800,"station_id":"cpo36qri1sfpv3e86is0","pricing_plan_id":"cebpf4jnsgd1na2vs0mg"},{"bike_id":"c0126e79-e455-4033-aa6f-9cd2537e8b04","system_id":"levelo_inurba_marseille","lat":43.28716,"lon":5.46675,"is_reserved":false,"is_disabled":false,"rental_uris":{"android":"levelo://app?vid=c0126e79-e455-4033-aa6f-9cd2537e8b04","ios":"levelo://app?vid=c0126e79-e455-4033-aa6f-9cd2537e8b04"},"vehicle_type_id":"4","last_reported":1777127851,"current_range_meters":6800,"station_id":"st_d6tc3vkotcvc738tfjhg","pricing_plan_id":"cebpf4jnsgd1na2vs0mg"},{"bike_id":"64448080-9e2b-4a6e-a5eb-fd7381764743","system_id":"levelo_inurba_marseille","lat":43.24811,"lon":5.37463,"is_reserved":false,"is_disabled":false,"rental_uris":{"android":"levelo://app?vid=64448080-9e2b-4a6e-a5eb-fd7381764743","ios":"levelo://app?vid=64448080-9e2b-4a6e-a5eb-fd7381764743"},"vehicle_type_id":"4","last_reported":1777127851,"current_range_meters":6800,"station_id":"ce4bhgh2rcd13ifvqfb0","pricing_plan_id":"cebpf4jnsgd1na2vs0mg"},{"bike_id":"7102c569-a321-428c-bea1-893bb2879f49","system_id":"levelo_inurba_marseille","lat":43.28262,"lon":5.3507,"is_reserved":false,"is_disabled":false,"rental_uris":{"android":"levelo://app?vid=7102c569-a321-428c-bea1-893bb2879f49","ios":"levelo://app?vid=7102c569-a321-428c-bea1-893bb2879f49"},"vehicle_type_id":"4","last_reported":1777127851,"current_range_meters":6800,"station_id":"ce4bhbp2rcd13ifvqerg","pricing_plan_id":"cebpf4jnsgd1na2vs0mg"},{"bike_id":"9bcb5bad-dbb2-431c-9005-5d79941461cd","system_id":"levelo_inurba_marseille","lat":43.244,"lon":5.37089,"is_reserved":false,"is_disabled":false,"rental_uris":{"android":"levelo://app?vid=9bcb5bad-dbb2-431c-9005-5d79941461cd","ios":"levelo://app?vid=9bcb5bad-dbb2-431c-9005-5d79941461cd"},"vehicle_type_id":"4","last_reported":1777127851,"current_range_meters":6800,"station_id":"ce4bhhh2rcd13ifvqfk0","pricing_plan_id":"cebpf4jnsgd1na2vs0mg"},{"bike_id":"83ff799b-ef85-4f59-850b-2ff692df0808","system_id":"levelo_inurba_marseille","lat":43.29019,"lon":5.35605,"is_reserved":false,"is_disabled":false,"rental_uris":{"android":"levelo://app?vid=83ff799b-ef85-4f59-850b-2ff692df0808","ios":"levelo://app?vid=83ff799b-ef85-4f59-850b-2ff692df0808"},"vehicle_type_id":"4","last_reported":1777127851,"current_range_meters":6800,"station_id":"ce4bhb92rcd13ifvqen0","pricing_plan_id":"cebpf4jnsgd1na2vs0mg"},{"bike_id":"021c3599-d960-4255-bf18-8b3b47549997","system_id":"levelo_inurba_marseille","lat":43.30175,"lon":5.43067,"is_reserved":false,"is_disabled":false,"rental_uris":{"android":"levelo://app?vid=021c3599-d960-4255-bf18-8b3b47549997","ios":"levelo://app?vid=021c3599-d960-4255-bf18-8b3b47549997"},"vehicle_type_id":"4","last_reported":1777127851,"current_range_meters":6800,"station_id":"st_d3js3co5814s73ftftug","pricing_plan_id":"cebpf4jnsgd1na2vs0mg"},{"bike_id":"c3f054fd-ded2-42b9-b0a2-cb14a8a8f01d","system_id":"levelo_inurba_marseille","lat":43.3028,"lon":5.37725,"is_reserved":false,"is_disabled":false,"rental_uris":{"android":"levelo://app?vid=c3f054fd-ded2-42b9-b0a2-cb14a8a8f01d","ios":"levelo://app?vid=c3f054fd-ded2-42b9-b0a2-cb14a8a8f01d"},"vehicle_type_id":"4","last_reported":1777127851,"current_range_meters":6800,"station_id":"ce4bguh2rcd13ifvqcj0","pricing_plan_id":"cebpf4jnsgd1na2vs0mg"},{"bike_id":"32896887-9d74-49f7-8e67-3ffcd46dedd6","system_id":"levelo_inurba_marseille","lat":43.262151,"lon":5.374409,"is_reserved":false,"is_disabled":false,"rental_uris":{"android":"levelo://app?vid=32896887-9d74-49f7-8e67-3ffcd46dedd6","ios":"levelo://app?vid=32896887-9d74-49f7-8e67-3ffcd46dedd6"},"vehicle_type_id":"4","last_reported":1777127851,"current_range_meters":6800,"station_id":"ce4bhgp2rcd13ifvqfc0","pricing_plan_id":"cebpf4jnsgd1na2vs0mg"},{"bike_id":"d338e2d2-d394-4069-b886-5ae097076bdc","system_id":"levelo_inurba_marseille","lat":43.23146,"lon":5.43725,"is_reserved":false,"is_disabled":false,"rental_uris":{"android":"levelo://app?vid=d338e2d2-d394-4069-b886-5ae097076bdc","ios":"levelo://app?vid=d338e2d2-d394-4069-b886-5ae097076bdc"},"vehicle_type_id":"4","last_reported":1777127851,"current_range_meters":6800,"station_id":"ce4bhmp2rcd13ifvqgog","pricing_plan_id":"cebpf4jnsgd1na2vs0mg"},{"bike_id":"bcb98005-b3db-42e3-8d47-961f769e0379","system_id":"levelo_inurba_marseille","lat":43.23495,"lon":5.35921,"is_reserved":false,"is_disabled":false,"rental_uris":{"android":"levelo://app?vid=bcb98005-b3db-42e3-8d47-961f769e0379","ios":"levelo://app?vid=bcb98005-b3db-42e3-8d47-961f769e0379"},"vehicle_type_id":"4","last_reported":1777127851,"current_range_meters":6800,"station_id":"","pricing_plan_id":"cebpf4jnsgd1na2vs0mg"},{"bike_id":"f899884a-365d-4af6-943a-f70f2db9f759","system_id":"levelo_inurba_marseille","lat":43.24391,"lon":5.37036,"is_reserved":false,"is_disabled":false,"rental_uris":{"android":"levelo://app?vid=f899884a-365d-4af6-943a-f70f2db9f759","ios":"levelo://app?vid=f899884a-365d-4af6-943a-f70f2db9f759"},"vehicle_type_id":"4","last_reported":1777127851,"current_range_meters":6800,"station_id":"ce4bhhh2rcd13ifvqfk0","pricing_plan_id":"cebpf4jnsgd1na2vs0mg"},{"bike_id":"2212773c-9ef5-435f-82d0-4f327dcb47b0","system_id":"levelo_inurba_marseille","lat":43.28076,"lon":5.39662,"is_reserved":false,"is_disabled":false,"rental_uris":{"android":"levelo://app?vid=2212773c-9ef5-435f-82d0-4f327dcb47b0","ios":"levelo://app?vid=2212773c-9ef5-435f-82d0-4f327dcb47b0"},"vehicle_type_id":"4","last_reported":1777127851,"current_range_meters":6800,"station_id":"ce4bho12rcd13ifvqh2g","pricing_plan_id":"cebpf4jnsgd1na2vs0mg"},{"bike_id":"f6d271ad-a75f-4e07-a979-8e198a1f40d9","system_id":"levelo_inurba_marseille","lat":43.28662,"lon":5.3634,"is_reserved":false,"is_disabled":false,"rental_uris":{"android":"levelo://app?vid=f6d271ad-a75f-4e07-a979-8e198a1f40d9","ios":"levelo://app?vid=f6d271ad-a75f-4e07-a979-8e198a1f40d9"},"vehicle_type_id":"4","last_reported":1777127851,"current_range_meters":6800,"station_id":"ce4bhah2rcd13ifvqej0","pricing_plan_id":"cebpf4jnsgd1na2vs0mg"},{"bike_id":"da151389-e78f-4a80-84fe-4e4e4914dbe6","system_id":"levelo_inurba_marseille","lat":43.26547,"lon":5.37295,"is_reserved":false,"is_disabled":false,"rental_uris":{"android":"levelo://app?vid=da151389-e78f-4a80-84fe-4e4e4914dbe6","ios":"levelo://app?vid=da151389-e78f-4a80-84fe-4e4e4914dbe6"},"vehicle_type_id":"4","last_reported":1777127851,"current_range_meters":7200,"station_id":"ce4bhg12rcd13ifvqf70","pricing_plan_id":"cebpf4jnsgd1na2vs0mg"},{"bike_id":"4bbbb14a-8fcc-43d3-a29a-3f8be7e2f321","system_id":"levelo_inurba_marseille","lat":43.2935,"lon":5.37199,"is_reserved":false,"is_disabled":false,"rental_uris":{"android":"levelo://app?vid=4bbbb14a-8fcc-43d3-a29a-3f8be7e2f321","ios":"levelo://app?vid=4bbbb14a-8fcc-43d3-a29a-3f8be7e2f321"},"vehicle_type_id":"4","last_reported":1777127851,"current_range_meters":7200,"station_id":"","pricing_plan_id":"cebpf4jnsgd1na2vs0mg"},{"bike_id":"02373a73-0f4d-4b53-87b2-94c57901bb1f","system_id":"levelo_inurba_marseille","lat":43.27633,"lon":5.36091,"is_reserved":false,"is_disabled":false,"rental_uris":{"android":"levelo://app?vid=02373a73-0f4d-4b53-87b2-94c57901bb1f","ios":"levelo://app?vid=02373a73-0f4d-4b53-87b2-94c57901bb1f"},"vehicle_type_id":"4","last_reported":1777127851,"current_range_meters":7200,"station_id":"ce4bgj92rcd13ifvqbe0","pricing_plan_id":"cebpf4jnsgd1na2vs0mg"},{"bike_id":"21a9796d-95d3-4c73-ab7c-4e00a2b81b78","system_id":"levelo_inurba_marseille","lat":43.26212,"lon":5.37428,"is_reserved":false,"is_disabled":false,"rental_uris":{"android":"levelo://app?vid=21a9796d-95d3-4c73-ab7c-4e00a2b81b78","ios":"levelo://app?vid=21a9796d-95d3-4c73-ab7c-4e00a2b81b78"},"vehicle_type_id":"4","last_reported":1777127851,"current_range_meters":7200,"station_id":"ce4bhgp2rcd13ifvqfc0","pricing_plan_id":"cebpf4jnsgd1na2vs0mg"},{"bike_id":"90610949-5042-40f1-8252-076aeddd7d81","system_id":"levelo_inurba_marseille","lat":43.31928,"lon":5.36844,"is_reserved":false,"is_disabled":false,"rental_uris":{"android":"levelo://app?vid=90610949-5042-40f1-8252-076aeddd7d81","ios":"levelo://app?vid=90610949-5042-40f1-8252-076aeddd7d81"},"vehicle_type_id":"4","last_reported":1777127851,"current_range_meters":7200,"station_id":"","pricing_plan_id":"cebpf4jnsgd1na2vs0mg"},{"bike_id":"47cdfd85-c850-4193-aaa5-b5a23a2b2f3d","system_id":"levelo_inurba_marseille","lat":43.31096,"lon":5.37235,"is_reserved":false,"is_disabled":false,"rental_uris":{"android":"levelo://app?vid=47cdfd85-c850-4193-aaa5-b5a23a2b2f3d","ios":"levelo://app?vid=47cdfd85-c850-4193-aaa5-b5a23a2b2f3d"},"vehicle_type_id":"4","last_reported":1777127851,"current_range_meters":7200,"station_id":"st_d4kl2rp97mjs73e7tdfg","pricing_plan_id":"cebpf4jnsgd1na2vs0mg"},{"bike_id":"079d348b-32b8-4d0a-b7df-4d4bb7d889e3","system_id":"levelo_inurba_marseille","lat":43.24388,"lon":5.37061,"is_reserved":false,"is_disabled":false,"rental_uris":{"android":"levelo://app?vid=079d348b-32b8-4d0a-b7df-4d4bb7d889e3","ios":"levelo://app?vid=079d348b-32b8-4d0a-b7df-4d4bb7d889e3"},"vehicle_type_id":"4","last_reported":1777127851,"current_range_meters":7200,"station_id":"ce4bhhh2rcd13ifvqfk0","pricing_plan_id":"cebpf4jnsgd1na2vs0mg"},{"bike_id":"6a1cfa44-424c-4486-9c1d-4dd666a8eeca","system_id":"levelo_inurba_marseille","lat":43.21192,"lon":5.3506,"is_reserved":false,"is_disabled":false,"rental_uris":{"android":"levelo://app?vid=6a1cfa44-424c-4486-9c1d-4dd666a8eeca","ios":"levelo://app?vid=6a1cfa44-424c-4486-9c1d-4dd666a8eeca"},"vehicle_type_id":"4","last_reported":1777127851,"current_range_meters":7200,"station_id":"st_cvj6sg6p6f1abm77japg","pricing_plan_id":"cebpf4jnsgd1na2vs0mg"},{"bike_id":"9563826b-0be7-4f94-b085-04e65c96931e","system_id":"levelo_inurba_marseille","lat":43.28417,"lon":5.34986,"is_reserved":false,"is_disabled":false,"rental_uris":{"android":"levelo://app?vid=9563826b-0be7-4f94-b085-04e65c96931e","ios":"levelo://app?vid=9563826b-0be7-4f94-b085-04e65c96931e"},"vehicle_type_id":"4","last_reported":1777127851,"current_range_meters":7200,"station_id":"ce4bhbh2rcd13ifvqepg","pricing_plan_id":"cebpf4jnsgd1na2vs0mg"},{"bike_id":"a8bb8ec3-1182-4804-805b-fa65cc0931a2","system_id":"levelo_inurba_marseille","lat":43.26962,"lon":5.38642,"is_reserved":false,"is_disabled":false,"rental_uris":{"android":"levelo://app?vid=a8bb8ec3-1182-4804-805b-fa65cc0931a2","ios":"levelo://app?vid=a8bb8ec3-1182-4804-805b-fa65cc0931a2"},"vehicle_type_id":"4","last_reported":1777127851,"current_range_meters":7200,"station_id":"ce4bhh92rcd13ifvqfh0","pricing_plan_id":"cebpf4jnsgd1na2vs0mg"},{"bike_id":"85e28e2a-2421-4551-a813-382122811cec","system_id":"levelo_inurba_marseille","lat":43.3189,"lon":5.368,"is_reserved":false,"is_disabled":false,"rental_uris":{"android":"levelo://app?vid=85e28e2a-2421-4551-a813-382122811cec","ios":"levelo://app?vid=85e28e2a-2421-4551-a813-382122811cec"},"vehicle_type_id":"4","last_reported":1777127851,"current_range_meters":7200,"station_id":"st_d6o2h0d0559c73evc1b0","pricing_plan_id":"cebpf4jnsgd1na2vs0mg"},{"bike_id":"8b7c62ad-8abe-465b-915b-910b5410de34","system_id":"levelo_inurba_marseille","lat":43.27615,"lon":5.3611,"is_reserved":false,"is_disabled":false,"rental_uris":{"android":"levelo://app?vid=8b7c62ad-8abe-465b-915b-910b5410de34","ios":"levelo://app?vid=8b7c62ad-8abe-465b-915b-910b5410de34"},"vehicle_type_id":"4","last_reported":1777127851,"current_range_meters":7200,"station_id":"ce4bgj92rcd13ifvqbe0","pricing_plan_id":"cebpf4jnsgd1na2vs0mg"},{"bike_id":"541dbded-315f-4ca8-ac49-47fcb4294bb7","system_id":"levelo_inurba_marseille","lat":43.33525,"lon":5.37452,"is_reserved":false,"is_disabled":false,"rental_uris":{"android":"levelo://app?vid=541dbded-315f-4ca8-ac49-47fcb4294bb7","ios":"levelo://app?vid=541dbded-315f-4ca8-ac49-47fcb4294bb7"},"vehicle_type_id":"4","last_reported":1777127851,"current_range_meters":7200,"station_id":"st_d46tts09ee8s73dlu43g","pricing_plan_id":"cebpf4jnsgd1na2vs0mg"},{"bike_id":"86644608-3281-46a2-8b44-d64f326d4e72","system_id":"levelo_inurba_marseille","lat":43.28414,"lon":5.34981,"is_reserved":false,"is_disabled":false,"rental_uris":{"android":"levelo://app?vid=86644608-3281-46a2-8b44-d64f326d4e72","ios":"levelo://app?vid=86644608-3281-46a2-8b44-d64f326d4e72"},"vehicle_type_id":"4","last_reported":1777127851,"current_range_meters":7200,"station_id":"ce4bhbh2rcd13ifvqepg","pricing_plan_id":"cebpf4jnsgd1na2vs0mg"},{"bike_id":"d2dc1a36-51f9-4423-a54f-f3a7a5fdf737","system_id":"levelo_inurba_marseille","lat":43.23781,"lon":5.36628,"is_reserved":false,"is_disabled":false,"rental_uris":{"android":"levelo://app?vid=d2dc1a36-51f9-4423-a54f-f3a7a5fdf737","ios":"levelo://app?vid=d2dc1a36-51f9-4423-a54f-f3a7a5fdf737"},"vehicle_type_id":"4","last_reported":1777127851,"current_range_meters":7200,"station_id":"st_d3nk18o9ro0c73en2l3g","pricing_plan_id":"cebpf4jnsgd1na2vs0mg"},{"bike_id":"8b15ba47-baf1-40d5-b569-dfd5e2b00624","system_id":"levelo_inurba_marseille","lat":43.28268,"lon":5.35062,"is_reserved":false,"is_disabled":false,"rental_uris":{"android":"levelo://app?vid=8b15ba47-baf1-40d5-b569-dfd5e2b00624","ios":"levelo://app?vid=8b15ba47-baf1-40d5-b569-dfd5e2b00624"},"vehicle_type_id":"4","last_reported":1777127851,"current_range_meters":7200,"station_id":"ce4bhbp2rcd13ifvqerg","pricing_plan_id":"cebpf4jnsgd1na2vs0mg"},{"bike_id":"957c5d52-07e4-4946-ae29-aa458ccde110","system_id":"levelo_inurba_marseille","lat":43.31318,"lon":5.40177,"is_reserved":false,"is_disabled":false,"rental_uris":{"android":"levelo://app?vid=957c5d52-07e4-4946-ae29-aa458ccde110","ios":"levelo://app?vid=957c5d52-07e4-4946-ae29-aa458ccde110"},"vehicle_type_id":"4","last_reported":1777127851,"current_range_meters":7200,"station_id":"ce4bh092rcd13ifvqd30","pricing_plan_id":"cebpf4jnsgd1na2vs0mg"},{"bike_id":"b809a478-a9c7-42f3-a222-3d9cfda03045","system_id":"levelo_inurba_marseille","lat":43.28416,"lon":5.34992,"is_reserved":false,"is_disabled":false,"rental_uris":{"android":"levelo://app?vid=b809a478-a9c7-42f3-a222-3d9cfda03045","ios":"levelo://app?vid=b809a478-a9c7-42f3-a222-3d9cfda03045"},"vehicle_type_id":"4","last_reported":1777127851,"current_range_meters":7200,"station_id":"ce4bhbh2rcd13ifvqepg","pricing_plan_id":"cebpf4jnsgd1na2vs0mg"},{"bike_id":"38fab21f-3836-4230-86f4-8ba20b73f9b9","system_id":"levelo_inurba_marseille","lat":43.3128,"lon":5.40173,"is_reserved":false,"is_disabled":false,"rental_uris":{"android":"levelo://app?vid=38fab21f-3836-4230-86f4-8ba20b73f9b9","ios":"levelo://app?vid=38fab21f-3836-4230-86f4-8ba20b73f9b9"},"vehicle_type_id":"4","last_reported":1777127851,"current_range_meters":7200,"station_id":"ce4bh092rcd13ifvqd30","pricing_plan_id":"cebpf4jnsgd1na2vs0mg"},{"bike_id":"8d715502-1f4d-495a-aba7-e255ad4122f8","system_id":"levelo_inurba_marseille","lat":43.23959,"lon":5.36624,"is_reserved":false,"is_disabled":false,"rental_uris":{"android":"levelo://app?vid=8d715502-1f4d-495a-aba7-e255ad4122f8","ios":"levelo://app?vid=8d715502-1f4d-495a-aba7-e255ad4122f8"},"vehicle_type_id":"4","last_reported":1777127851,"current_range_meters":8000,"station_id":"ce4bhi12rcd13ifvqfp0","pricing_plan_id":"cebpf4jnsgd1na2vs0mg"},{"bike_id":"e4301bc3-acfe-47cc-acaa-b7d69e7cdaae","system_id":"levelo_inurba_marseille","lat":43.28433,"lon":5.3498,"is_reserved":false,"is_disabled":false,"rental_uris":{"android":"levelo://app?vid=e4301bc3-acfe-47cc-acaa-b7d69e7cdaae","ios":"levelo://app?vid=e4301bc3-acfe-47cc-acaa-b7d69e7cdaae"},"vehicle_type_id":"4","last_reported":1777127851,"current_range_meters":8000,"station_id":"ce4bhbh2rcd13ifvqepg","pricing_plan_id":"cebpf4jnsgd1na2vs0mg"},{"bike_id":"3fe60b2d-65d1-4d59-bf1e-422b9e7a469f","system_id":"levelo_inurba_marseille","lat":43.25011,"lon":5.38923,"is_reserved":false,"is_disabled":false,"rental_uris":{"android":"levelo://app?vid=3fe60b2d-65d1-4d59-bf1e-422b9e7a469f","ios":"levelo://app?vid=3fe60b2d-65d1-4d59-bf1e-422b9e7a469f"},"vehicle_type_id":"4","last_reported":1777127851,"current_range_meters":8000,"station_id":"ce4bhgp2rcd13ifvqfd0","pricing_plan_id":"cebpf4jnsgd1na2vs0mg"},{"bike_id":"4d040ed4-2f2f-4aeb-b484-49b4d95858e3","system_id":"levelo_inurba_marseille","lat":43.21175,"lon":5.35124,"is_reserved":false,"is_disabled":false,"rental_uris":{"android":"levelo://app?vid=4d040ed4-2f2f-4aeb-b484-49b4d95858e3","ios":"levelo://app?vid=4d040ed4-2f2f-4aeb-b484-49b4d95858e3"},"vehicle_type_id":"4","last_reported":1777127851,"current_range_meters":8000,"station_id":"st_cvj6sg6p6f1abm77japg","pricing_plan_id":"cebpf4jnsgd1na2vs0mg"},{"bike_id":"bcfbc128-d285-4d78-bf51-560ef0a60c72","system_id":"levelo_inurba_marseille","lat":43.2847,"lon":5.48398,"is_reserved":false,"is_disabled":false,"rental_uris":{"android":"levelo://app?vid=bcfbc128-d285-4d78-bf51-560ef0a60c72","ios":"levelo://app?vid=bcfbc128-d285-4d78-bf51-560ef0a60c72"},"vehicle_type_id":"4","last_reported":1777127851,"current_range_meters":8000,"station_id":"","pricing_plan_id":"cebpf4jnsgd1na2vs0mg"},{"bike_id":"548e4a82-32b2-49d2-a8d0-a6b1676f8a48","system_id":"levelo_inurba_marseille","lat":43.32451,"lon":5.36534,"is_reserved":false,"is_disabled":false,"rental_uris":{"android":"levelo://app?vid=548e4a82-32b2-49d2-a8d0-a6b1676f8a48","ios":"levelo://app?vid=548e4a82-32b2-49d2-a8d0-a6b1676f8a48"},"vehicle_type_id":"4","last_reported":1777127851,"current_range_meters":8000,"station_id":"ce4bhs12rcd13ifvqhvg","pricing_plan_id":"cebpf4jnsgd1na2vs0mg"},{"bike_id":"60a9daa5-0490-4028-9355-440f567ca0a0","system_id":"levelo_inurba_marseille","lat":43.28277,"lon":5.35096,"is_reserved":false,"is_disabled":false,"rental_uris":{"android":"levelo://app?vid=60a9daa5-0490-4028-9355-440f567ca0a0","ios":"levelo://app?vid=60a9daa5-0490-4028-9355-440f567ca0a0"},"vehicle_type_id":"4","last_reported":1777127851,"current_range_meters":8000,"station_id":"ce4bhbp2rcd13ifvqerg","pricing_plan_id":"cebpf4jnsgd1na2vs0mg"},{"bike_id":"fd49c6c8-309b-4094-a542-f795fb68b18f","system_id":"levelo_inurba_marseille","lat":43.3134,"lon":5.36736,"is_reserved":false,"is_disabled":false,"rental_uris":{"android":"levelo://app?vid=fd49c6c8-309b-4094-a542-f795fb68b18f","ios":"levelo://app?vid=fd49c6c8-309b-4094-a542-f795fb68b18f"},"vehicle_type_id":"4","last_reported":1777127851,"current_range_meters":8000,"station_id":"ce4bgr92rcd13ifvqc6g","pricing_plan_id":"cebpf4jnsgd1na2vs0mg"},{"bike_id":"90fac789-06e9-4c33-94b9-e82543e03c21","system_id":"levelo_inurba_marseille","lat":43.22567,"lon":5.41635,"is_reserved":false,"is_disabled":true,"rental_uris":{"android":"levelo://app?vid=90fac789-06e9-4c33-94b9-e82543e03c21","ios":"levelo://app?vid=90fac789-06e9-4c33-94b9-e82543e03c21"},"vehicle_type_id":"4","last_reported":1777127851,"current_range_meters":8000,"station_id":"st_d2o4gvlbi1j2169b742g","pricing_plan_id":"cebpf4jnsgd1na2vs0mg"},{"bike_id":"915f3511-b21b-4a84-8018-3a43f6b1a303","system_id":"levelo_inurba_marseille","lat":43.27092,"lon":5.42294,"is_reserved":false,"is_disabled":false,"rental_uris":{"android":"levelo://app?vid=915f3511-b21b-4a84-8018-3a43f6b1a303","ios":"levelo://app?vid=915f3511-b21b-4a84-8018-3a43f6b1a303"},"vehicle_type_id":"4","last_reported":1777127851,"current_range_meters":8000,"station_id":"ce4bhk92rcd13ifvqgb0","pricing_plan_id":"cebpf4jnsgd1na2vs0mg"},{"bike_id":"5e54dab6-8273-4aac-bd74-7f20b0407add","system_id":"levelo_inurba_marseille","lat":43.26213,"lon":5.37465,"is_reserved":false,"is_disabled":false,"rental_uris":{"android":"levelo://app?vid=5e54dab6-8273-4aac-bd74-7f20b0407add","ios":"levelo://app?vid=5e54dab6-8273-4aac-bd74-7f20b0407add"},"vehicle_type_id":"4","last_reported":1777127851,"current_range_meters":8000,"station_id":"ce4bhgp2rcd13ifvqfc0","pricing_plan_id":"cebpf4jnsgd1na2vs0mg"},{"bike_id":"d586cdf4-5403-43e7-a0b5-e22b60e0b0b1","system_id":"levelo_inurba_marseille","lat":43.273212,"lon":5.390739,"is_reserved":false,"is_disabled":false,"rental_uris":{"android":"levelo://app?vid=d586cdf4-5403-43e7-a0b5-e22b60e0b0b1","ios":"levelo://app?vid=d586cdf4-5403-43e7-a0b5-e22b60e0b0b1"},"vehicle_type_id":"4","last_reported":1777127851,"current_range_meters":8000,"station_id":"ce4bhgp2rcd13ifvqfe0","pricing_plan_id":"cebpf4jnsgd1na2vs0mg"},{"bike_id":"98dcaeec-337f-4357-b05e-e5b4a3f23233","system_id":"levelo_inurba_marseille","lat":43.28265,"lon":5.35072,"is_reserved":false,"is_disabled":false,"rental_uris":{"android":"levelo://app?vid=98dcaeec-337f-4357-b05e-e5b4a3f23233","ios":"levelo://app?vid=98dcaeec-337f-4357-b05e-e5b4a3f23233"},"vehicle_type_id":"4","last_reported":1777127851,"current_range_meters":8000,"station_id":"ce4bhbp2rcd13ifvqerg","pricing_plan_id":"cebpf4jnsgd1na2vs0mg"},{"bike_id":"0a58102a-2708-4449-a652-cef706edc64f","system_id":"levelo_inurba_marseille","lat":43.27624,"lon":5.36099,"is_reserved":false,"is_disabled":false,"rental_uris":{"android":"levelo://app?vid=0a58102a-2708-4449-a652-cef706edc64f","ios":"levelo://app?vid=0a58102a-2708-4449-a652-cef706edc64f"},"vehicle_type_id":"4","last_reported":1777127851,"current_range_meters":8000,"station_id":"ce4bgj92rcd13ifvqbe0","pricing_plan_id":"cebpf4jnsgd1na2vs0mg"},{"bike_id":"13e7be10-6f83-4572-bf5d-5f8835bdbf09","system_id":"levelo_inurba_marseille","lat":43.28284,"lon":5.35089,"is_reserved":false,"is_disabled":false,"rental_uris":{"android":"levelo://app?vid=13e7be10-6f83-4572-bf5d-5f8835bdbf09","ios":"levelo://app?vid=13e7be10-6f83-4572-bf5d-5f8835bdbf09"},"vehicle_type_id":"4","last_reported":1777127851,"current_range_meters":8400,"station_id":"ce4bhbp2rcd13ifvqerg","pricing_plan_id":"cebpf4jnsgd1na2vs0mg"},{"bike_id":"413e4623-e4a6-44c0-8fe0-f06c3e224af8","system_id":"levelo_inurba_marseille","lat":43.31921,"lon":5.36837,"is_reserved":false,"is_disabled":false,"rental_uris":{"android":"levelo://app?vid=413e4623-e4a6-44c0-8fe0-f06c3e224af8","ios":"levelo://app?vid=413e4623-e4a6-44c0-8fe0-f06c3e224af8"},"vehicle_type_id":"4","last_reported":1777127851,"current_range_meters":8400,"station_id":"st_d6o2h0d0559c73evc1b0","pricing_plan_id":"cebpf4jnsgd1na2vs0mg"},{"bike_id":"308f68c0-c326-4383-b2d4-3d5ce68f7df6","system_id":"levelo_inurba_marseille","lat":43.27992,"lon":5.36399,"is_reserved":false,"is_disabled":false,"rental_uris":{"android":"levelo://app?vid=308f68c0-c326-4383-b2d4-3d5ce68f7df6","ios":"levelo://app?vid=308f68c0-c326-4383-b2d4-3d5ce68f7df6"},"vehicle_type_id":"4","last_reported":1777127851,"current_range_meters":8400,"station_id":"","pricing_plan_id":"cebpf4jnsgd1na2vs0mg"},{"bike_id":"4fc4775c-5bbb-42d2-98f4-709236efa3b4","system_id":"levelo_inurba_marseille","lat":43.2175,"lon":5.34598,"is_reserved":false,"is_disabled":false,"rental_uris":{"android":"levelo://app?vid=4fc4775c-5bbb-42d2-98f4-709236efa3b4","ios":"levelo://app?vid=4fc4775c-5bbb-42d2-98f4-709236efa3b4"},"vehicle_type_id":"4","last_reported":1777127851,"current_range_meters":8400,"station_id":"st_cvj6r9ubvosntc0bgbag","pricing_plan_id":"cebpf4jnsgd1na2vs0mg"},{"bike_id":"044ce3d4-5f89-49a7-a22e-6dad240318c7","system_id":"levelo_inurba_marseille","lat":43.31261,"lon":5.40204,"is_reserved":false,"is_disabled":false,"rental_uris":{"android":"levelo://app?vid=044ce3d4-5f89-49a7-a22e-6dad240318c7","ios":"levelo://app?vid=044ce3d4-5f89-49a7-a22e-6dad240318c7"},"vehicle_type_id":"4","last_reported":1777127851,"current_range_meters":8400,"station_id":"ce4bh092rcd13ifvqd30","pricing_plan_id":"cebpf4jnsgd1na2vs0mg"},{"bike_id":"c09a800a-591e-4b28-b168-8e4e04226f1d","system_id":"levelo_inurba_marseille","lat":43.30512,"lon":5.36546,"is_reserved":false,"is_disabled":false,"rental_uris":{"android":"levelo://app?vid=c09a800a-591e-4b28-b168-8e4e04226f1d","ios":"levelo://app?vid=c09a800a-591e-4b28-b168-8e4e04226f1d"},"vehicle_type_id":"4","last_reported":1777127851,"current_range_meters":8400,"station_id":"","pricing_plan_id":"cebpf4jnsgd1na2vs0mg"},{"bike_id":"259c654c-0c38-430c-b0d1-1f4606e042f1","system_id":"levelo_inurba_marseille","lat":43.28934,"lon":5.36599,"is_reserved":false,"is_disabled":false,"rental_uris":{"android":"levelo://app?vid=259c654c-0c38-430c-b0d1-1f4606e042f1","ios":"levelo://app?vid=259c654c-0c38-430c-b0d1-1f4606e042f1"},"vehicle_type_id":"4","last_reported":1777127851,"current_range_meters":8400,"station_id":"ce4bhap2rcd13ifvqek0","pricing_plan_id":"cebpf4jnsgd1na2vs0mg"},{"bike_id":"58fbddb6-2343-4066-b00b-1f77fc0a14c0","system_id":"levelo_inurba_marseille","lat":43.27991,"lon":5.41662,"is_reserved":false,"is_disabled":false,"rental_uris":{"android":"levelo://app?vid=58fbddb6-2343-4066-b00b-1f77fc0a14c0","ios":"levelo://app?vid=58fbddb6-2343-4066-b00b-1f77fc0a14c0"},"vehicle_type_id":"4","last_reported":1777127851,"current_range_meters":8400,"station_id":"ce4bho12rcd13ifvqh1g","pricing_plan_id":"cebpf4jnsgd1na2vs0mg"},{"bike_id":"d1d5c7cf-8e64-4123-ad8a-ccd792fc4d10","system_id":"levelo_inurba_marseille","lat":43.29344,"lon":5.39897,"is_reserved":false,"is_disabled":false,"rental_uris":{"android":"levelo://app?vid=d1d5c7cf-8e64-4123-ad8a-ccd792fc4d10","ios":"levelo://app?vid=d1d5c7cf-8e64-4123-ad8a-ccd792fc4d10"},"vehicle_type_id":"4","last_reported":1777127851,"current_range_meters":8400,"station_id":"","pricing_plan_id":"cebpf4jnsgd1na2vs0mg"},{"bike_id":"f9b98806-d74c-46ef-8642-07dd46c19f4b","system_id":"levelo_inurba_marseille","lat":43.28683,"lon":5.46684,"is_reserved":false,"is_disabled":false,"rental_uris":{"android":"levelo://app?vid=f9b98806-d74c-46ef-8642-07dd46c19f4b","ios":"levelo://app?vid=f9b98806-d74c-46ef-8642-07dd46c19f4b"},"vehicle_type_id":"4","last_reported":1777127851,"current_range_meters":8400,"station_id":"st_d6tc3vkotcvc738tfjhg","pricing_plan_id":"cebpf4jnsgd1na2vs0mg"},{"bike_id":"6fa32363-d141-40d5-9e0f-6474642399fd","system_id":"levelo_inurba_marseille","lat":43.23204,"lon":5.35563,"is_reserved":false,"is_disabled":false,"rental_uris":{"android":"levelo://app?vid=6fa32363-d141-40d5-9e0f-6474642399fd","ios":"levelo://app?vid=6fa32363-d141-40d5-9e0f-6474642399fd"},"vehicle_type_id":"4","last_reported":1777127851,"current_range_meters":8400,"station_id":"ce4bhu92rcd13ifvqi70","pricing_plan_id":"cebpf4jnsgd1na2vs0mg"},{"bike_id":"1c4cdca7-6e64-458c-822f-52896c5e963e","system_id":"levelo_inurba_marseille","lat":43.32485,"lon":5.36546,"is_reserved":false,"is_disabled":false,"rental_uris":{"android":"levelo://app?vid=1c4cdca7-6e64-458c-822f-52896c5e963e","ios":"levelo://app?vid=1c4cdca7-6e64-458c-822f-52896c5e963e"},"vehicle_type_id":"4","last_reported":1777127851,"current_range_meters":8400,"station_id":"ce4bhs12rcd13ifvqhvg","pricing_plan_id":"cebpf4jnsgd1na2vs0mg"},{"bike_id":"73b29586-6035-4b17-8f89-10c778399a16","system_id":"levelo_inurba_marseille","lat":43.32005,"lon":5.38158,"is_reserved":false,"is_disabled":false,"rental_uris":{"android":"levelo://app?vid=73b29586-6035-4b17-8f89-10c778399a16","ios":"levelo://app?vid=73b29586-6035-4b17-8f89-10c778399a16"},"vehicle_type_id":"4","last_reported":1777127851,"current_range_meters":8400,"station_id":"ce4bhr12rcd13ifvqhpg","pricing_plan_id":"cebpf4jnsgd1na2vs0mg"},{"bike_id":"c79ba820-9ef7-4df6-88df-246b07782a50","system_id":"levelo_inurba_marseille","lat":43.28619,"lon":5.35111,"is_reserved":false,"is_disabled":false,"rental_uris":{"android":"levelo://app?vid=c79ba820-9ef7-4df6-88df-246b07782a50","ios":"levelo://app?vid=c79ba820-9ef7-4df6-88df-246b07782a50"},"vehicle_type_id":"4","last_reported":1777127851,"current_range_meters":8400,"station_id":"ce4bhch2rcd13ifvqeug","pricing_plan_id":"cebpf4jnsgd1na2vs0mg"},{"bike_id":"0fde5401-7ade-46db-91c6-75ece2ca48d2","system_id":"levelo_inurba_marseille","lat":43.2559,"lon":5.38241,"is_reserved":false,"is_disabled":false,"rental_uris":{"android":"levelo://app?vid=0fde5401-7ade-46db-91c6-75ece2ca48d2","ios":"levelo://app?vid=0fde5401-7ade-46db-91c6-75ece2ca48d2"},"vehicle_type_id":"4","last_reported":1777127851,"current_range_meters":8400,"station_id":"ce4bhih2rcd13ifvqfs0","pricing_plan_id":"cebpf4jnsgd1na2vs0mg"},{"bike_id":"9531fe83-7492-41bb-b0a9-23a0ab57a5e9","system_id":"levelo_inurba_marseille","lat":43.26543,"lon":5.37314,"is_reserved":false,"is_disabled":false,"rental_uris":{"android":"levelo://app?vid=9531fe83-7492-41bb-b0a9-23a0ab57a5e9","ios":"levelo://app?vid=9531fe83-7492-41bb-b0a9-23a0ab57a5e9"},"vehicle_type_id":"4","last_reported":1777127851,"current_range_meters":8400,"station_id":"ce4bhg12rcd13ifvqf70","pricing_plan_id":"cebpf4jnsgd1na2vs0mg"},{"bike_id":"c049792a-7e4f-4794-9cb8-3f58d2fa8f52","system_id":"levelo_inurba_marseille","lat":43.21756,"lon":5.34597,"is_reserved":false,"is_disabled":false,"rental_uris":{"android":"levelo://app?vid=c049792a-7e4f-4794-9cb8-3f58d2fa8f52","ios":"levelo://app?vid=c049792a-7e4f-4794-9cb8-3f58d2fa8f52"},"vehicle_type_id":"4","last_reported":1777127851,"current_range_meters":8400,"station_id":"st_cvj6r9ubvosntc0bgbag","pricing_plan_id":"cebpf4jnsgd1na2vs0mg"},{"bike_id":"6c5d9eee-c021-4343-8402-fd6f72839b70","system_id":"levelo_inurba_marseille","lat":43.29566,"lon":5.39994,"is_reserved":false,"is_disabled":false,"rental_uris":{"android":"levelo://app?vid=6c5d9eee-c021-4343-8402-fd6f72839b70","ios":"levelo://app?vid=6c5d9eee-c021-4343-8402-fd6f72839b70"},"vehicle_type_id":"4","last_reported":1777127851,"current_range_meters":8400,"station_id":"ce4bh312rcd13ifvqdj0","pricing_plan_id":"cebpf4jnsgd1na2vs0mg"},{"bike_id":"203a4c9c-7c2c-45d0-8aa6-73cdd321aed3","system_id":"levelo_inurba_marseille","lat":43.28421,"lon":5.34985,"is_reserved":false,"is_disabled":false,"rental_uris":{"android":"levelo://app?vid=203a4c9c-7c2c-45d0-8aa6-73cdd321aed3","ios":"levelo://app?vid=203a4c9c-7c2c-45d0-8aa6-73cdd321aed3"},"vehicle_type_id":"4","last_reported":1777127851,"current_range_meters":8400,"station_id":"ce4bhbh2rcd13ifvqepg","pricing_plan_id":"cebpf4jnsgd1na2vs0mg"},{"bike_id":"41657251-764f-4838-8ffc-84a163f957f5","system_id":"levelo_inurba_marseille","lat":43.28421,"lon":5.34974,"is_reserved":false,"is_disabled":false,"rental_uris":{"android":"levelo://app?vid=41657251-764f-4838-8ffc-84a163f957f5","ios":"levelo://app?vid=41657251-764f-4838-8ffc-84a163f957f5"},"vehicle_type_id":"4","last_reported":1777127851,"current_range_meters":8400,"station_id":"ce4bhbh2rcd13ifvqepg","pricing_plan_id":"cebpf4jnsgd1na2vs0mg"},{"bike_id":"0cd2fd7c-6402-466e-aa1b-fa186d7a7ed3","system_id":"levelo_inurba_marseille","lat":43.33194,"lon":5.37792,"is_reserved":false,"is_disabled":false,"rental_uris":{"android":"levelo://app?vid=0cd2fd7c-6402-466e-aa1b-fa186d7a7ed3","ios":"levelo://app?vid=0cd2fd7c-6402-466e-aa1b-fa186d7a7ed3"},"vehicle_type_id":"4","last_reported":1777127851,"current_range_meters":8800,"station_id":"","pricing_plan_id":"cebpf4jnsgd1na2vs0mg"},{"bike_id":"39d505bb-194c-48a6-bdd0-92d3bc36c2df","system_id":"levelo_inurba_marseille","lat":43.28486,"lon":5.38541,"is_reserved":false,"is_disabled":true,"rental_uris":{"android":"levelo://app?vid=39d505bb-194c-48a6-bdd0-92d3bc36c2df","ios":"levelo://app?vid=39d505bb-194c-48a6-bdd0-92d3bc36c2df"},"vehicle_type_id":"4","last_reported":1777127851,"current_range_meters":8800,"station_id":"ce4bh8p2rcd13ifvqeb0","pricing_plan_id":"cebpf4jnsgd1na2vs0mg"},{"bike_id":"9a7c39d8-ef30-4694-b180-b6fe0a089530","system_id":"levelo_inurba_marseille","lat":43.3016,"lon":5.43082,"is_reserved":false,"is_disabled":false,"rental_uris":{"android":"levelo://app?vid=9a7c39d8-ef30-4694-b180-b6fe0a089530","ios":"levelo://app?vid=9a7c39d8-ef30-4694-b180-b6fe0a089530"},"vehicle_type_id":"4","last_reported":1777127851,"current_range_meters":8800,"station_id":"","pricing_plan_id":"cebpf4jnsgd1na2vs0mg"},{"bike_id":"adc6061c-7968-465f-b141-f084abd57b66","system_id":"levelo_inurba_marseille","lat":43.22535,"lon":5.34816,"is_reserved":false,"is_disabled":false,"rental_uris":{"android":"levelo://app?vid=adc6061c-7968-465f-b141-f084abd57b66","ios":"levelo://app?vid=adc6061c-7968-465f-b141-f084abd57b66"},"vehicle_type_id":"4","last_reported":1777127851,"current_range_meters":8800,"station_id":"st_cvj5dfep6f1abm77gieg","pricing_plan_id":"cebpf4jnsgd1na2vs0mg"},{"bike_id":"7ac59c81-01df-4b8e-9807-86f926b0041a","system_id":"levelo_inurba_marseille","lat":43.28084,"lon":5.39132,"is_reserved":false,"is_disabled":false,"rental_uris":{"android":"levelo://app?vid=7ac59c81-01df-4b8e-9807-86f926b0041a","ios":"levelo://app?vid=7ac59c81-01df-4b8e-9807-86f926b0041a"},"vehicle_type_id":"4","last_reported":1777127851,"current_range_meters":8800,"station_id":"","pricing_plan_id":"cebpf4jnsgd1na2vs0mg"},{"bike_id":"428a4dc2-262f-4ab5-8f00-fb49be5b2651","system_id":"levelo_inurba_marseille","lat":43.25508,"lon":5.37654,"is_reserved":false,"is_disabled":false,"rental_uris":{"android":"levelo://app?vid=428a4dc2-262f-4ab5-8f00-fb49be5b2651","ios":"levelo://app?vid=428a4dc2-262f-4ab5-8f00-fb49be5b2651"},"vehicle_type_id":"4","last_reported":1777127851,"current_range_meters":8800,"station_id":"ce4bhh12rcd13ifvqff0","pricing_plan_id":"cebpf4jnsgd1na2vs0mg"},{"bike_id":"ace34436-51fe-4536-a1f6-cfa009f56977","system_id":"levelo_inurba_marseille","lat":43.33543,"lon":5.37482,"is_reserved":false,"is_disabled":false,"rental_uris":{"android":"levelo://app?vid=ace34436-51fe-4536-a1f6-cfa009f56977","ios":"levelo://app?vid=ace34436-51fe-4536-a1f6-cfa009f56977"},"vehicle_type_id":"4","last_reported":1777127851,"current_range_meters":8800,"station_id":"st_d46tts09ee8s73dlu43g","pricing_plan_id":"cebpf4jnsgd1na2vs0mg"},{"bike_id":"5d3fd44c-b59d-41d4-a478-9d5eb2e2ef58","system_id":"levelo_inurba_marseille","lat":43.30374,"lon":5.42485,"is_reserved":false,"is_disabled":false,"rental_uris":{"android":"levelo://app?vid=5d3fd44c-b59d-41d4-a478-9d5eb2e2ef58","ios":"levelo://app?vid=5d3fd44c-b59d-41d4-a478-9d5eb2e2ef58"},"vehicle_type_id":"4","last_reported":1777127851,"current_range_meters":8800,"station_id":"ce4bhoh2rcd13ifvqh6g","pricing_plan_id":"cebpf4jnsgd1na2vs0mg"},{"bike_id":"5687bcf3-d7dc-457c-91e4-c37491638fcd","system_id":"levelo_inurba_marseille","lat":43.24174,"lon":5.36395,"is_reserved":false,"is_disabled":false,"rental_uris":{"android":"levelo://app?vid=5687bcf3-d7dc-457c-91e4-c37491638fcd","ios":"levelo://app?vid=5687bcf3-d7dc-457c-91e4-c37491638fcd"},"vehicle_type_id":"4","last_reported":1777127851,"current_range_meters":8800,"station_id":"cpo36qri1sfpv3e86is0","pricing_plan_id":"cebpf4jnsgd1na2vs0mg"},{"bike_id":"7d7edd84-0fa3-48c7-8728-ef8dd9d19770","system_id":"levelo_inurba_marseille","lat":43.24388,"lon":5.37046,"is_reserved":false,"is_disabled":false,"rental_uris":{"android":"levelo://app?vid=7d7edd84-0fa3-48c7-8728-ef8dd9d19770","ios":"levelo://app?vid=7d7edd84-0fa3-48c7-8728-ef8dd9d19770"},"vehicle_type_id":"4","last_reported":1777127851,"current_range_meters":8800,"station_id":"ce4bhhh2rcd13ifvqfk0","pricing_plan_id":"cebpf4jnsgd1na2vs0mg"},{"bike_id":"12351776-ce4e-4c65-be2a-084ee71a31ed","system_id":"levelo_inurba_marseille","lat":43.24055,"lon":5.37795,"is_reserved":false,"is_disabled":false,"rental_uris":{"android":"levelo://app?vid=12351776-ce4e-4c65-be2a-084ee71a31ed","ios":"levelo://app?vid=12351776-ce4e-4c65-be2a-084ee71a31ed"},"vehicle_type_id":"4","last_reported":1777127851,"current_range_meters":8800,"station_id":"ce4bhnp2rcd13ifvqgvg","pricing_plan_id":"cebpf4jnsgd1na2vs0mg"},{"bike_id":"5a1f1740-b73d-483b-a0f1-683a5996556c","system_id":"levelo_inurba_marseille","lat":43.29002,"lon":5.35571,"is_reserved":false,"is_disabled":false,"rental_uris":{"android":"levelo://app?vid=5a1f1740-b73d-483b-a0f1-683a5996556c","ios":"levelo://app?vid=5a1f1740-b73d-483b-a0f1-683a5996556c"},"vehicle_type_id":"4","last_reported":1777127851,"current_range_meters":8800,"station_id":"ce4bhb92rcd13ifvqen0","pricing_plan_id":"cebpf4jnsgd1na2vs0mg"},{"bike_id":"071d1e71-48c5-45bd-bc37-ce81033af5ba","system_id":"levelo_inurba_marseille","lat":43.3153,"lon":5.38022,"is_reserved":false,"is_disabled":false,"rental_uris":{"android":"levelo://app?vid=071d1e71-48c5-45bd-bc37-ce81033af5ba","ios":"levelo://app?vid=071d1e71-48c5-45bd-bc37-ce81033af5ba"},"vehicle_type_id":"4","last_reported":1777127851,"current_range_meters":8800,"station_id":"ce4bhsp2rcd13ifvqi50","pricing_plan_id":"cebpf4jnsgd1na2vs0mg"},{"bike_id":"270b3504-7efc-4ad9-a72b-907087bacf0e","system_id":"levelo_inurba_marseille","lat":43.23148,"lon":5.43715,"is_reserved":false,"is_disabled":false,"rental_uris":{"android":"levelo://app?vid=270b3504-7efc-4ad9-a72b-907087bacf0e","ios":"levelo://app?vid=270b3504-7efc-4ad9-a72b-907087bacf0e"},"vehicle_type_id":"4","last_reported":1777127851,"current_range_meters":8800,"station_id":"ce4bhmp2rcd13ifvqgog","pricing_plan_id":"cebpf4jnsgd1na2vs0mg"},{"bike_id":"b52ce4cd-f7a0-4003-8e38-639a3c4f7f35","system_id":"levelo_inurba_marseille","lat":43.2826,"lon":5.35071,"is_reserved":false,"is_disabled":false,"rental_uris":{"android":"levelo://app?vid=b52ce4cd-f7a0-4003-8e38-639a3c4f7f35","ios":"levelo://app?vid=b52ce4cd-f7a0-4003-8e38-639a3c4f7f35"},"vehicle_type_id":"4","last_reported":1777127851,"current_range_meters":8800,"station_id":"ce4bhbp2rcd13ifvqerg","pricing_plan_id":"cebpf4jnsgd1na2vs0mg"},{"bike_id":"9f4261e2-0123-4127-a475-2c17e63faf15","system_id":"levelo_inurba_marseille","lat":43.29847,"lon":5.3632,"is_reserved":false,"is_disabled":false,"rental_uris":{"android":"levelo://app?vid=9f4261e2-0123-4127-a475-2c17e63faf15","ios":"levelo://app?vid=9f4261e2-0123-4127-a475-2c17e63faf15"},"vehicle_type_id":"4","last_reported":1777127851,"current_range_meters":8800,"station_id":"ce4bgpp2rcd13ifvqc3g","pricing_plan_id":"cebpf4jnsgd1na2vs0mg"},{"bike_id":"7d507d55-089b-4da6-9cba-e3bba178d923","system_id":"levelo_inurba_marseille","lat":43.23207,"lon":5.40007,"is_reserved":false,"is_disabled":false,"rental_uris":{"android":"levelo://app?vid=7d507d55-089b-4da6-9cba-e3bba178d923","ios":"levelo://app?vid=7d507d55-089b-4da6-9cba-e3bba178d923"},"vehicle_type_id":"4","last_reported":1777127851,"current_range_meters":8800,"station_id":"ce4bhn12rcd13ifvqgqg","pricing_plan_id":"cebpf4jnsgd1na2vs0mg"},{"bike_id":"70c7e508-dee8-4c48-84ef-dd92c8416275","system_id":"levelo_inurba_marseille","lat":43.24171,"lon":5.36388,"is_reserved":false,"is_disabled":false,"rental_uris":{"android":"levelo://app?vid=70c7e508-dee8-4c48-84ef-dd92c8416275","ios":"levelo://app?vid=70c7e508-dee8-4c48-84ef-dd92c8416275"},"vehicle_type_id":"4","last_reported":1777127851,"current_range_meters":8800,"station_id":"cpo36qri1sfpv3e86is0","pricing_plan_id":"cebpf4jnsgd1na2vs0mg"},{"bike_id":"17fe3f56-b486-40dd-ac6a-710ede14c97d","system_id":"levelo_inurba_marseille","lat":43.314869,"lon":5.373029,"is_reserved":false,"is_disabled":false,"rental_uris":{"android":"levelo://app?vid=17fe3f56-b486-40dd-ac6a-710ede14c97d","ios":"levelo://app?vid=17fe3f56-b486-40dd-ac6a-710ede14c97d"},"vehicle_type_id":"4","last_reported":1777127851,"current_range_meters":8800,"station_id":"","pricing_plan_id":"cebpf4jnsgd1na2vs0mg"},{"bike_id":"06558e5b-846f-4e20-b375-c8972d75dc5a","system_id":"levelo_inurba_marseille","lat":43.27341,"lon":5.43143,"is_reserved":false,"is_disabled":false,"rental_uris":{"android":"levelo://app?vid=06558e5b-846f-4e20-b375-c8972d75dc5a","ios":"levelo://app?vid=06558e5b-846f-4e20-b375-c8972d75dc5a"},"vehicle_type_id":"4","last_reported":1777127851,"current_range_meters":8800,"station_id":"","pricing_plan_id":"cebpf4jnsgd1na2vs0mg"},{"bike_id":"fea5a28c-0167-4a62-9062-e629ed9b3e8f","system_id":"levelo_inurba_marseille","lat":43.28467,"lon":5.48406,"is_reserved":false,"is_disabled":false,"rental_uris":{"android":"levelo://app?vid=fea5a28c-0167-4a62-9062-e629ed9b3e8f","ios":"levelo://app?vid=fea5a28c-0167-4a62-9062-e629ed9b3e8f"},"vehicle_type_id":"4","last_reported":1777127851,"current_range_meters":8800,"station_id":"st_d3svhcjqgbts73a3dn0g","pricing_plan_id":"cebpf4jnsgd1na2vs0mg"},{"bike_id":"8b97f946-fcb4-410f-81f1-cbc57e0d7c92","system_id":"levelo_inurba_marseille","lat":43.21194,"lon":5.35074,"is_reserved":false,"is_disabled":false,"rental_uris":{"android":"levelo://app?vid=8b97f946-fcb4-410f-81f1-cbc57e0d7c92","ios":"levelo://app?vid=8b97f946-fcb4-410f-81f1-cbc57e0d7c92"},"vehicle_type_id":"4","last_reported":1777127851,"current_range_meters":8800,"station_id":"st_cvj6sg6p6f1abm77japg","pricing_plan_id":"cebpf4jnsgd1na2vs0mg"},{"bike_id":"e2dcb29f-4a4b-4158-a332-40fb65f2354a","system_id":"levelo_inurba_marseille","lat":43.24157,"lon":5.3639,"is_reserved":false,"is_disabled":false,"rental_uris":{"android":"levelo://app?vid=e2dcb29f-4a4b-4158-a332-40fb65f2354a","ios":"levelo://app?vid=e2dcb29f-4a4b-4158-a332-40fb65f2354a"},"vehicle_type_id":"4","last_reported":1777127851,"current_range_meters":8800,"station_id":"cpo36qri1sfpv3e86is0","pricing_plan_id":"cebpf4jnsgd1na2vs0mg"},{"bike_id":"331aed36-1bf5-4901-b2f4-ca1bfe5bd1c0","system_id":"levelo_inurba_marseille","lat":43.21188,"lon":5.35094,"is_reserved":false,"is_disabled":false,"rental_uris":{"android":"levelo://app?vid=331aed36-1bf5-4901-b2f4-ca1bfe5bd1c0","ios":"levelo://app?vid=331aed36-1bf5-4901-b2f4-ca1bfe5bd1c0"},"vehicle_type_id":"4","last_reported":1777127851,"current_range_meters":8800,"station_id":"st_cvj6sg6p6f1abm77japg","pricing_plan_id":"cebpf4jnsgd1na2vs0mg"},{"bike_id":"8a5790dc-093e-4cbc-8087-dbff8a7cc82d","system_id":"levelo_inurba_marseille","lat":43.28412,"lon":5.34987,"is_reserved":false,"is_disabled":false,"rental_uris":{"android":"levelo://app?vid=8a5790dc-093e-4cbc-8087-dbff8a7cc82d","ios":"levelo://app?vid=8a5790dc-093e-4cbc-8087-dbff8a7cc82d"},"vehicle_type_id":"4","last_reported":1777127851,"current_range_meters":8800,"station_id":"ce4bhbh2rcd13ifvqepg","pricing_plan_id":"cebpf4jnsgd1na2vs0mg"},{"bike_id":"648bc781-8e68-4ccd-aedc-987a153e904f","system_id":"levelo_inurba_marseille","lat":43.29265,"lon":5.38457,"is_reserved":false,"is_disabled":false,"rental_uris":{"android":"levelo://app?vid=648bc781-8e68-4ccd-aedc-987a153e904f","ios":"levelo://app?vid=648bc781-8e68-4ccd-aedc-987a153e904f"},"vehicle_type_id":"4","last_reported":1777127851,"current_range_meters":8800,"station_id":"ce4bh692rcd13ifvqea0","pricing_plan_id":"cebpf4jnsgd1na2vs0mg"},{"bike_id":"e79bde01-2f2e-4687-9114-2908a926683e","system_id":"levelo_inurba_marseille","lat":43.33535,"lon":5.37449,"is_reserved":false,"is_disabled":false,"rental_uris":{"android":"levelo://app?vid=e79bde01-2f2e-4687-9114-2908a926683e","ios":"levelo://app?vid=e79bde01-2f2e-4687-9114-2908a926683e"},"vehicle_type_id":"4","last_reported":1777127851,"current_range_meters":8800,"station_id":"st_d46tts09ee8s73dlu43g","pricing_plan_id":"cebpf4jnsgd1na2vs0mg"},{"bike_id":"d3fc06ed-a4a6-4ebd-a012-f82f411a860e","system_id":"levelo_inurba_marseille","lat":43.21186,"lon":5.35113,"is_reserved":false,"is_disabled":false,"rental_uris":{"android":"levelo://app?vid=d3fc06ed-a4a6-4ebd-a012-f82f411a860e","ios":"levelo://app?vid=d3fc06ed-a4a6-4ebd-a012-f82f411a860e"},"vehicle_type_id":"4","last_reported":1777127851,"current_range_meters":8800,"station_id":"st_cvj6sg6p6f1abm77japg","pricing_plan_id":"cebpf4jnsgd1na2vs0mg"},{"bike_id":"f54a3e2b-dc7d-43e4-9ec4-c307f6dd19f3","system_id":"levelo_inurba_marseille","lat":43.26206,"lon":5.3744,"is_reserved":false,"is_disabled":false,"rental_uris":{"android":"levelo://app?vid=f54a3e2b-dc7d-43e4-9ec4-c307f6dd19f3","ios":"levelo://app?vid=f54a3e2b-dc7d-43e4-9ec4-c307f6dd19f3"},"vehicle_type_id":"4","last_reported":1777127851,"current_range_meters":8800,"station_id":"ce4bhgp2rcd13ifvqfc0","pricing_plan_id":"cebpf4jnsgd1na2vs0mg"},{"bike_id":"08cec904-649f-497e-b8aa-842823ecc321","system_id":"levelo_inurba_marseille","lat":43.27811,"lon":5.40727,"is_reserved":false,"is_disabled":false,"rental_uris":{"android":"levelo://app?vid=08cec904-649f-497e-b8aa-842823ecc321","ios":"levelo://app?vid=08cec904-649f-497e-b8aa-842823ecc321"},"vehicle_type_id":"4","last_reported":1777127851,"current_range_meters":8800,"station_id":"ce4bhnh2rcd13ifvqgtg","pricing_plan_id":"cebpf4jnsgd1na2vs0mg"},{"bike_id":"19fd01a5-3b10-4853-a6c3-f48a4aabc8a7","system_id":"levelo_inurba_marseille","lat":43.26194,"lon":5.37443,"is_reserved":false,"is_disabled":false,"rental_uris":{"android":"levelo://app?vid=19fd01a5-3b10-4853-a6c3-f48a4aabc8a7","ios":"levelo://app?vid=19fd01a5-3b10-4853-a6c3-f48a4aabc8a7"},"vehicle_type_id":"4","last_reported":1777127851,"current_range_meters":8800,"station_id":"ce4bhgp2rcd13ifvqfc0","pricing_plan_id":"cebpf4jnsgd1na2vs0mg"},{"bike_id":"2092086a-8ddf-42d2-b358-27a0cfaee87e","system_id":"levelo_inurba_marseille","lat":43.27361,"lon":5.36244,"is_reserved":false,"is_disabled":false,"rental_uris":{"android":"levelo://app?vid=2092086a-8ddf-42d2-b358-27a0cfaee87e","ios":"levelo://app?vid=2092086a-8ddf-42d2-b358-27a0cfaee87e"},"vehicle_type_id":"4","last_reported":1777127851,"current_range_meters":8800,"station_id":"ce4bhbh2rcd13ifvqeo0","pricing_plan_id":"cebpf4jnsgd1na2vs0mg"},{"bike_id":"bce6b424-5434-4a5e-b71a-5a803fa5a237","system_id":"levelo_inurba_marseille","lat":43.2173,"lon":5.34619,"is_reserved":false,"is_disabled":false,"rental_uris":{"android":"levelo://app?vid=bce6b424-5434-4a5e-b71a-5a803fa5a237","ios":"levelo://app?vid=bce6b424-5434-4a5e-b71a-5a803fa5a237"},"vehicle_type_id":"4","last_reported":1777127851,"current_range_meters":8800,"station_id":"st_cvj6r9ubvosntc0bgbag","pricing_plan_id":"cebpf4jnsgd1na2vs0mg"},{"bike_id":"21ebab07-8c90-4027-a949-405f988b7312","system_id":"levelo_inurba_marseille","lat":43.28266,"lon":5.35073,"is_reserved":false,"is_disabled":false,"rental_uris":{"android":"levelo://app?vid=21ebab07-8c90-4027-a949-405f988b7312","ios":"levelo://app?vid=21ebab07-8c90-4027-a949-405f988b7312"},"vehicle_type_id":"4","last_reported":1777127851,"current_range_meters":8800,"station_id":"ce4bhbp2rcd13ifvqerg","pricing_plan_id":"cebpf4jnsgd1na2vs0mg"},{"bike_id":"f33c6c9d-346a-4c73-9b31-f3ca6fe92254","system_id":"levelo_inurba_marseille","lat":43.29614,"lon":5.3773,"is_reserved":false,"is_disabled":true,"rental_uris":{"android":"levelo://app?vid=f33c6c9d-346a-4c73-9b31-f3ca6fe92254","ios":"levelo://app?vid=f33c6c9d-346a-4c73-9b31-f3ca6fe92254"},"vehicle_type_id":"4","last_reported":1777127851,"current_range_meters":8800,"station_id":"ce4bgi92rcd13ifvqb90","pricing_plan_id":"cebpf4jnsgd1na2vs0mg"},{"bike_id":"26882210-997c-4922-b3e5-8a44e2a594af","system_id":"levelo_inurba_marseille","lat":43.2557,"lon":5.37577,"is_reserved":false,"is_disabled":false,"rental_uris":{"android":"levelo://app?vid=26882210-997c-4922-b3e5-8a44e2a594af","ios":"levelo://app?vid=26882210-997c-4922-b3e5-8a44e2a594af"},"vehicle_type_id":"4","last_reported":1777127851,"current_range_meters":8800,"station_id":"","pricing_plan_id":"cebpf4jnsgd1na2vs0mg"},{"bike_id":"547de274-0599-4322-b7fc-96e11b9846a5","system_id":"levelo_inurba_marseille","lat":43.26563,"lon":5.39013,"is_reserved":false,"is_disabled":false,"rental_uris":{"android":"levelo://app?vid=547de274-0599-4322-b7fc-96e11b9846a5","ios":"levelo://app?vid=547de274-0599-4322-b7fc-96e11b9846a5"},"vehicle_type_id":"4","last_reported":1777127851,"current_range_meters":8800,"station_id":"ce4bhe12rcd13ifvqf30","pricing_plan_id":"cebpf4jnsgd1na2vs0mg"},{"bike_id":"07408139-0e0b-42d2-ac2d-94af4e4d3d13","system_id":"levelo_inurba_marseille","lat":43.26499,"lon":5.39585,"is_reserved":false,"is_disabled":false,"rental_uris":{"android":"levelo://app?vid=07408139-0e0b-42d2-ac2d-94af4e4d3d13","ios":"levelo://app?vid=07408139-0e0b-42d2-ac2d-94af4e4d3d13"},"vehicle_type_id":"4","last_reported":1777127851,"current_range_meters":9200,"station_id":"ce4bhi12rcd13ifvqfq0","pricing_plan_id":"cebpf4jnsgd1na2vs0mg"},{"bike_id":"a7abb83b-d8f7-4b04-81c9-42ce1f31f52a","system_id":"levelo_inurba_marseille","lat":43.27603,"lon":5.36147,"is_reserved":false,"is_disabled":false,"rental_uris":{"android":"levelo://app?vid=a7abb83b-d8f7-4b04-81c9-42ce1f31f52a","ios":"levelo://app?vid=a7abb83b-d8f7-4b04-81c9-42ce1f31f52a"},"vehicle_type_id":"4","last_reported":1777127851,"current_range_meters":9200,"station_id":"ce4bgj92rcd13ifvqbe0","pricing_plan_id":"cebpf4jnsgd1na2vs0mg"},{"bike_id":"93bd5723-b50b-4151-82ea-a453023635ae","system_id":"levelo_inurba_marseille","lat":43.28281,"lon":5.35094,"is_reserved":false,"is_disabled":false,"rental_uris":{"android":"levelo://app?vid=93bd5723-b50b-4151-82ea-a453023635ae","ios":"levelo://app?vid=93bd5723-b50b-4151-82ea-a453023635ae"},"vehicle_type_id":"4","last_reported":1777127851,"current_range_meters":9200,"station_id":"ce4bhbp2rcd13ifvqerg","pricing_plan_id":"cebpf4jnsgd1na2vs0mg"},{"bike_id":"e9caee44-b787-4c36-a632-4bd6c1ec7cfa","system_id":"levelo_inurba_marseille","lat":43.2845,"lon":5.48436,"is_reserved":false,"is_disabled":false,"rental_uris":{"android":"levelo://app?vid=e9caee44-b787-4c36-a632-4bd6c1ec7cfa","ios":"levelo://app?vid=e9caee44-b787-4c36-a632-4bd6c1ec7cfa"},"vehicle_type_id":"4","last_reported":1777127851,"current_range_meters":9200,"station_id":"st_d3svhcjqgbts73a3dn0g","pricing_plan_id":"cebpf4jnsgd1na2vs0mg"},{"bike_id":"0c6214b3-1f39-42aa-a453-078e28578513","system_id":"levelo_inurba_marseille","lat":43.29968,"lon":5.37182,"is_reserved":false,"is_disabled":false,"rental_uris":{"android":"levelo://app?vid=0c6214b3-1f39-42aa-a453-078e28578513","ios":"levelo://app?vid=0c6214b3-1f39-42aa-a453-078e28578513"},"vehicle_type_id":"4","last_reported":1777127851,"current_range_meters":9200,"station_id":"ce4bgr92rcd13ifvqc7g","pricing_plan_id":"cebpf4jnsgd1na2vs0mg"},{"bike_id":"7c6f5d31-a587-415f-8cb8-7c50045d3add","system_id":"levelo_inurba_marseille","lat":43.23134,"lon":5.43726,"is_reserved":false,"is_disabled":false,"rental_uris":{"android":"levelo://app?vid=7c6f5d31-a587-415f-8cb8-7c50045d3add","ios":"levelo://app?vid=7c6f5d31-a587-415f-8cb8-7c50045d3add"},"vehicle_type_id":"4","last_reported":1777127851,"current_range_meters":9200,"station_id":"ce4bhmp2rcd13ifvqgog","pricing_plan_id":"cebpf4jnsgd1na2vs0mg"},{"bike_id":"6dd2e471-8f9a-413e-8916-93a322347800","system_id":"levelo_inurba_marseille","lat":43.27377,"lon":5.36263,"is_reserved":false,"is_disabled":false,"rental_uris":{"android":"levelo://app?vid=6dd2e471-8f9a-413e-8916-93a322347800","ios":"levelo://app?vid=6dd2e471-8f9a-413e-8916-93a322347800"},"vehicle_type_id":"4","last_reported":1777127851,"current_range_meters":9200,"station_id":"ce4bhbh2rcd13ifvqeo0","pricing_plan_id":"cebpf4jnsgd1na2vs0mg"},{"bike_id":"8b54c2fe-91d6-414d-b053-a12a35141416","system_id":"levelo_inurba_marseille","lat":43.24402,"lon":5.37068,"is_reserved":false,"is_disabled":false,"rental_uris":{"android":"levelo://app?vid=8b54c2fe-91d6-414d-b053-a12a35141416","ios":"levelo://app?vid=8b54c2fe-91d6-414d-b053-a12a35141416"},"vehicle_type_id":"4","last_reported":1777127851,"current_range_meters":9200,"station_id":"ce4bhhh2rcd13ifvqfk0","pricing_plan_id":"cebpf4jnsgd1na2vs0mg"},{"bike_id":"624ad92d-de25-4b22-a09d-02c1f4de90a4","system_id":"levelo_inurba_marseille","lat":43.30541,"lon":5.36775,"is_reserved":false,"is_disabled":false,"rental_uris":{"android":"levelo://app?vid=624ad92d-de25-4b22-a09d-02c1f4de90a4","ios":"levelo://app?vid=624ad92d-de25-4b22-a09d-02c1f4de90a4"},"vehicle_type_id":"4","last_reported":1777127851,"current_range_meters":9200,"station_id":"ce4bgrp2rcd13ifvqc9g","pricing_plan_id":"cebpf4jnsgd1na2vs0mg"},{"bike_id":"e788ca34-60df-4b1c-a1a5-a422788eab30","system_id":"levelo_inurba_marseille","lat":43.30377,"lon":5.42488,"is_reserved":false,"is_disabled":false,"rental_uris":{"android":"levelo://app?vid=e788ca34-60df-4b1c-a1a5-a422788eab30","ios":"levelo://app?vid=e788ca34-60df-4b1c-a1a5-a422788eab30"},"vehicle_type_id":"4","last_reported":1777127851,"current_range_meters":9200,"station_id":"ce4bhoh2rcd13ifvqh6g","pricing_plan_id":"cebpf4jnsgd1na2vs0mg"},{"bike_id":"4e94d113-262a-4aaf-a72c-6bdae3259207","system_id":"levelo_inurba_marseille","lat":43.28273,"lon":5.35072,"is_reserved":false,"is_disabled":false,"rental_uris":{"android":"levelo://app?vid=4e94d113-262a-4aaf-a72c-6bdae3259207","ios":"levelo://app?vid=4e94d113-262a-4aaf-a72c-6bdae3259207"},"vehicle_type_id":"4","last_reported":1777127851,"current_range_meters":9200,"station_id":"ce4bhbp2rcd13ifvqerg","pricing_plan_id":"cebpf4jnsgd1na2vs0mg"},{"bike_id":"f1cffc7b-9140-4f3f-acd5-1357e8e47054","system_id":"levelo_inurba_marseille","lat":43.22526,"lon":5.34823,"is_reserved":false,"is_disabled":false,"rental_uris":{"android":"levelo://app?vid=f1cffc7b-9140-4f3f-acd5-1357e8e47054","ios":"levelo://app?vid=f1cffc7b-9140-4f3f-acd5-1357e8e47054"},"vehicle_type_id":"4","last_reported":1777127851,"current_range_meters":9200,"station_id":"st_cvj5dfep6f1abm77gieg","pricing_plan_id":"cebpf4jnsgd1na2vs0mg"},{"bike_id":"05a33fd5-e436-4ad0-a907-865e546c41d5","system_id":"levelo_inurba_marseille","lat":43.22554,"lon":5.41613,"is_reserved":false,"is_disabled":true,"rental_uris":{"android":"levelo://app?vid=05a33fd5-e436-4ad0-a907-865e546c41d5","ios":"levelo://app?vid=05a33fd5-e436-4ad0-a907-865e546c41d5"},"vehicle_type_id":"4","last_reported":1777127851,"current_range_meters":9200,"station_id":"","pricing_plan_id":"cebpf4jnsgd1na2vs0mg"},{"bike_id":"c542f9ae-4a1e-49bf-95b1-9297e91777ec","system_id":"levelo_inurba_marseille","lat":43.26898,"lon":5.36792,"is_reserved":false,"is_disabled":false,"rental_uris":{"android":"levelo://app?vid=c542f9ae-4a1e-49bf-95b1-9297e91777ec","ios":"levelo://app?vid=c542f9ae-4a1e-49bf-95b1-9297e91777ec"},"vehicle_type_id":"4","last_reported":1777127851,"current_range_meters":9200,"station_id":"","pricing_plan_id":"cebpf4jnsgd1na2vs0mg"},