{"last_updated":1743084580,"ttl":60,"version":"2.2","data":{"bikes":[{"bike_id":"bf6d3711-68f5-4721-8ea8-2d0601182f38","system_id":"levelo_inurba_marseille","lat":43.33746,"lon":5.3745,"is_reserved":false,"is_disabled":true,"rental_uris":{"android":"levelo://app?vid=bf6d3711-68f5-4721-8ea8-2d0601182f38","ios":"levelo://app?vid=bf6d3711-68f5-4721-8ea8-2d0601182f38"},"vehicle_type_id":"4","last_reported":1743084580,"current_range_meters":0,"station_id":"","pricing_plan_id":"cebpf4jnsgd1na2vs0mg"},{"bike_id":"fc8e8371-f4e9-4721-bc19-563801e389dc","system_id":"levelo_inurba_marseille","lat":43.337444,"lon":5.374475,"is_reserved":false,"is_disabled":false,"rental_uris":{"android":"levelo://app?vid=fc8e8371-f4e9-4721-bc19-563801e389dc","ios":"levelo://app?vid=fc8e8371-f4e9-4721-bc19-563801e389dc"},"vehicle_type_id":"4","last_reported":1743084580,"current_range_meters":11200,"station_id":"","pricing_plan_id":"cebpf4jnsgd1na2vs0mg"},{"bike_id":"7ff8bbfb-d8a6-4f7f-b963-3cef9e7a8262","system_id":"levelo_inurba_marseille","lat":43.314575,"lon":5.369646,"is_reserved":false,"is_disabled":true,"rental_uris":{"android":"levelo://app?vid=7ff8bbfb-d8a6-4f7f-b963-3cef9e7a8262","ios":"levelo://app?vid=7ff8bbfb-d8a6-4f7f-b963-3cef9e7a8262"},"vehicle_type_id":"4","last_reported":1743084580,"current_range_meters":0,"station_id":"","pricing_plan_id":"cebpf4jnsgd1na2vs0mg"},{"bike_id":"54739101-93ac-4ff2-ac89-3384dd1e877c","system_id":"levelo_inurba_marseille","lat":43.31543,"lon":5.37856,"is_reserved":false,"is_disabled":true,"rental_uris":{"android":"levelo://app?vid=54739101-93ac-4ff2-ac89-3384dd1e877c","ios":"levelo://app?vid=54739101-93ac-4ff2-ac89-3384dd1e877c"},"vehicle_type_id":"4","last_reported":1743084580,"current_range_meters":0,"station_id":"","pricing_plan_id":"cebpf4jnsgd1na2vs0mg"},{"bike_id":"306bbe1b-255e-465f-9c82-619129be6b5a","system_id":"levelo_inurba_marseille","lat":43.26575,"lon":5.39616,"is_reserved":false,"is_disabled":true,"rental_uris":{"android":"levelo://app?vid=306bbe1b-255e-465f-9c82-619129be6b5a","ios":"levelo://app?vid=306bbe1b-255e-465f-9c82-619129be6b5a"},"vehicle_type_id":"4","last_reported":1743084580,"current_range_meters":0,"station_id":"","pricing_plan_id":"cebpf4jnsgd1na2vs0mg"},{"bike_id":"50ff7c75-a079-4d6a-839a-474e9455a827","system_id":"levelo_inurba_marseille","lat":43.31304,"lon":5.36759,"is_reserved":false,"is_disabled":true,"rental_uris":{"android":"levelo://app?vid=50ff7c75-a079-4d6a-839a-474e9455a827","ios":"levelo://app?vid=50ff7c75-a079-4d6a-839a-474e9455a827"},"vehicle_type_id":"4","last_reported":1743084580,"current_range_meters":0,"station_id":"","pricing_plan_id":"cebpf4jnsgd1na2vs0mg"},{"bike_id":"be6725c0-5c09-4663-99b8-0b7371d27e21","system_id":"levelo_inurba_marseille","lat":43.25484,"lon":5.37528,"is_reserved":false,"is_disabled":true,"rental_uris":{"android":"levelo://app?vid=be6725c0-5c09-4663-99b8-0b7371d27e21","ios":"levelo://app?vid=be6725c0-5c09-4663-99b8-0b7371d27e21"},"vehicle_type_id":"4","last_reported":1743084580,"current_range_meters":0,"station_id":"","pricing_plan_id":"cebpf4jnsgd1na2vs0mg"},{"bike_id":"e01b37d2-694f-4478-b219-216c31b79260","system_id":"levelo_inurba_marseille","lat":43.25235,"lon":5.38082,"is_reserved":false,"is_disabled":true,"rental_uris":{"android":"levelo://app?vid=e01b37d2-694f-4478-b219-216c31b79260","ios":"levelo://app?vid=e01b37d2-694f-4478-b219-216c31b79260"},"vehicle_type_id":"4","last_reported":1743084580,"current_range_meters":0,"station_id":"","pricing_plan_id":"cebpf4jnsgd1na2vs0mg"},{"bike_id":"634c433d-3db3-4fd8-8be9-8b653dae530e","system_id":"levelo_inurba_marseille","lat":43.28034,"lon":5.39007,"is_reserved":false,"is_disabled":true,"rental_uris":{"android":"levelo://app?vid=634c433d-3db3-4fd8-8be9-8b653dae530e","ios":"levelo://app?vid=634c433d-3db3-4fd8-8be9-8b653dae530e"},"vehicle_type_id":"4","last_reported":1743084580,"current_range_meters":0,"station_id":"","pricing_plan_id":"cebpf4jnsgd1na2vs0mg"},{"bike_id":"9d19f9fa-7485-4d1f-bed7-90bbaf80101a","system_id":"levelo_inurba_marseille","lat":43.30142,"lon":5.38781,"is_reserved":false,"is_disabled":true,"rental_uris":{"android":"levelo://app?vid=9d19f9fa-7485-4d1f-bed7-90bbaf80101a","ios":"levelo://app?vid=9d19f9fa-7485-4d1f-bed7-90bbaf80101a"},"vehicle_type_id":"4","last_reported":1743084580,"current_range_meters":0,"station_id":"ce4bghh2rcd13ifvqb60","pricing_plan_id":"cebpf4jnsgd1na2vs0mg"},{"bike_id":"7b9f369c-045a-4802-a493-c80ff667c658","system_id":"levelo_inurba_marseille","lat":43.31704,"lon":5.40492,"is_reserved":false,"is_disabled":true,"rental_uris":{"android":"levelo://app?vid=7b9f369c-045a-4802-a493-c80ff667c658","ios":"levelo://app?vid=7b9f369c-045a-4802-a493-c80ff667c658"},"vehicle_type_id":"4","last_reported":1743084580,"current_range_meters":0,"station_id":"ce4bh012rcd13ifvqd00","pricing_plan_id":"cebpf4jnsgd1na2vs0mg"},{"bike_id":"4976105a-aae3-423e-a4e9-d1698264495a","system_id":"levelo_inurba_marseille","lat":43.2738,"lon":5.36258,"is_reserved":false,"is_disabled":true,"rental_uris":{"android":"levelo://app?vid=4976105a-aae3-423e-a4e9-d1698264495a","ios":"levelo://app?vid=4976105a-aae3-423e-a4e9-d1698264495a"},"vehicle_type_id":"4","last_reported":1743084580,"current_range_meters":0,"station_id":"ce4bhbh2rcd13ifvqeo0","pricing_plan_id":"cebpf4jnsgd1na2vs0mg"},{"bike_id":"bdfab68e-e57b-4a43-adab-0850680bf9c5","system_id":"levelo_inurba_marseille","lat":43.28418,"lon":5.34976,"is_reserved":false,"is_disabled":true,"rental_uris":{"android":"levelo://app?vid=bdfab68e-e57b-4a43-adab-0850680bf9c5","ios":"levelo://app?vid=bdfab68e-e57b-4a43-adab-0850680bf9c5"},"vehicle_type_id":"4","last_reported":1743084580,"current_range_meters":0,"station_id":"ce4bhbh2rcd13ifvqepg","pricing_plan_id":"cebpf4jnsgd1na2vs0mg"},{"bike_id":"a7402fb4-6bbd-4c49-87cf-db2afdc1966d","system_id":"levelo_inurba_marseille","lat":43.2862,"lon":5.35106,"is_reserved":false,"is_disabled":true,"rental_uris":{"android":"levelo://app?vid=a7402fb4-6bbd-4c49-87cf-db2afdc1966d","ios":"levelo://app?vid=a7402fb4-6bbd-4c49-87cf-db2afdc1966d"},"vehicle_type_id":"4","last_reported":1743084580,"current_range_meters":0,"station_id":"ce4bhch2rcd13ifvqeug","pricing_plan_id":"cebpf4jnsgd1na2vs0mg"},{"bike_id":"cecabe0c-0acf-4a9f-9c32-2383929af969","system_id":"levelo_inurba_marseille","lat":43.26563,"lon":5.39014,"is_reserved":false,"is_disabled":true,"rental_uris":{"android":"levelo://app?vid=cecabe0c-0acf-4a9f-9c32-2383929af969","ios":"levelo://app?vid=cecabe0c-0acf-4a9f-9c32-2383929af969"},"vehicle_type_id":"4","last_reported":1743084580,"current_range_meters":0,"station_id":"ce4bhe12rcd13ifvqf30","pricing_plan_id":"cebpf4jnsgd1na2vs0mg"},{"bike_id":"0104b178-7537-4f95-89f9-8746db5b05fd","system_id":"levelo_inurba_marseille","lat":43.26222,"lon":5.40464,"is_reserved":false,"is_disabled":true,"rental_uris":{"android":"levelo://app?vid=0104b178-7537-4f95-89f9-8746db5b05fd","ios":"levelo://app?vid=0104b178-7537-4f95-89f9-8746db5b05fd"},"vehicle_type_id":"4","last_reported":1743084580,"current_range_meters":0,"station_id":"ce4bhmh2rcd13ifvqgmg","pricing_plan_id":"cebpf4jnsgd1na2vs0mg"},{"bike_id":"487c4265-aae2-47f3-8d7e-eacb8ddc66ff","system_id":"levelo_inurba_marseille","lat":43.2315,"lon":5.43714,"is_reserved":false,"is_disabled":true,"rental_uris":{"android":"levelo://app?vid=487c4265-aae2-47f3-8d7e-eacb8ddc66ff","ios":"levelo://app?vid=487c4265-aae2-47f3-8d7e-eacb8ddc66ff"},"vehicle_type_id":"4","last_reported":1743084580,"current_range_meters":0,"station_id":"ce4bhmp2rcd13ifvqgog","pricing_plan_id":"cebpf4jnsgd1na2vs0mg"},{"bike_id":"d1956415-f74a-4acb-b065-259517664373","system_id":"levelo_inurba_marseille","lat":43.231529,"lon":5.437024,"is_reserved":false,"is_disabled":true,"rental_uris":{"android":"levelo://app?vid=d1956415-f74a-4acb-b065-259517664373","ios":"levelo://app?vid=d1956415-f74a-4acb-b065-259517664373"},"vehicle_type_id":"4","last_reported":1743084580,"current_range_meters":0,"station_id":"ce4bhmp2rcd13ifvqgog","pricing_plan_id":"cebpf4jnsgd1na2vs0mg"},{"bike_id":"d20584bf-0145-415e-be4e-d70e9c39a8eb","system_id":"levelo_inurba_marseille","lat":43.32453,"lon":5.41366,"is_reserved":false,"is_disabled":true,"rental_uris":{"android":"levelo://app?vid=d20584bf-0145-415e-be4e-d70e9c39a8eb","ios":"levelo://app?vid=d20584bf-0145-415e-be4e-d70e9c39a8eb"},"vehicle_type_id":"4","last_reported":1743084580,"current_range_meters":0,"station_id":"ce4bhq12rcd13ifvqhhg","pricing_plan_id":"cebpf4jnsgd1na2vs0mg"},{"bike_id":"7330879e-63b0-4c83-89e5-a7f36696718f","system_id":"levelo_inurba_marseille","lat":43.33609,"lon":5.40953,"is_reserved":false,"is_disabled":true,"rental_uris":{"android":"levelo://app?vid=7330879e-63b0-4c83-89e5-a7f36696718f","ios":"levelo://app?vid=7330879e-63b0-4c83-89e5-a7f36696718f"},"vehicle_type_id":"4","last_reported":1743084580,"current_range_meters":0,"station_id":"ce4bhqh2rcd13ifvqhmg","pricing_plan_id":"cebpf4jnsgd1na2vs0mg"},{"bike_id":"e08eec3c-53c4-42ff-b6d9-946994808df2","system_id":"levelo_inurba_marseille","lat":43.31075,"lon":5.38357,"is_reserved":false,"is_disabled":true,"rental_uris":{"android":"levelo://app?vid=e08eec3c-53c4-42ff-b6d9-946994808df2","ios":"levelo://app?vid=e08eec3c-53c4-42ff-b6d9-946994808df2"},"vehicle_type_id":"4","last_reported":1743084580,"current_range_meters":400,"station_id":"ce4bgv92rcd13ifvqcr0","pricing_plan_id":"cebpf4jnsgd1na2vs0mg"},{"bike_id":"a7a33609-e9f3-4d1b-b938-6645bb0182bd","system_id":"levelo_inurba_marseille","lat":43.28912,"lon":5.36662,"is_reserved":false,"is_disabled":true,"rental_uris":{"android":"levelo://app?vid=a7a33609-e9f3-4d1b-b938-6645bb0182bd","ios":"levelo://app?vid=a7a33609-e9f3-4d1b-b938-6645bb0182bd"},"vehicle_type_id":"4","last_reported":1743084580,"current_range_meters":400,"station_id":"ce4bhap2rcd13ifvqek0","pricing_plan_id":"cebpf4jnsgd1na2vs0mg"},{"bike_id":"90ed0278-e199-4f33-b631-bb6c03ab539d","system_id":"levelo_inurba_marseille","lat":43.27899,"lon":5.38014,"is_reserved":false,"is_disabled":true,"rental_uris":{"android":"levelo://app?vid=90ed0278-e199-4f33-b631-bb6c03ab539d","ios":"levelo://app?vid=90ed0278-e199-4f33-b631-bb6c03ab539d"},"vehicle_type_id":"4","last_reported":1743084580,"current_range_meters":400,"station_id":"ce4bhf92rcd13ifvqf50","pricing_plan_id":"cebpf4jnsgd1na2vs0mg"},{"bike_id":"cdc7ac8a-0bf9-4c4a-95ba-2f8d9aa11528","system_id":"levelo_inurba_marseille","lat":43.26955,"lon":5.38644,"is_reserved":false,"is_disabled":true,"rental_uris":{"android":"levelo://app?vid=cdc7ac8a-0bf9-4c4a-95ba-2f8d9aa11528","ios":"levelo://app?vid=cdc7ac8a-0bf9-4c4a-95ba-2f8d9aa11528"},"vehicle_type_id":"4","last_reported":1743084580,"current_range_meters":400,"station_id":"ce4bhh92rcd13ifvqfh0","pricing_plan_id":"cebpf4jnsgd1na2vs0mg"},{"bike_id":"f902cd99-2722-462c-96f8-b541d2e9e1c0","system_id":"levelo_inurba_marseille","lat":43.335943,"lon":5.410101,"is_reserved":false,"is_disabled":true,"rental_uris":{"android":"levelo://app?vid=f902cd99-2722-462c-96f8-b541d2e9e1c0","ios":"levelo://app?vid=f902cd99-2722-462c-96f8-b541d2e9e1c0"},"vehicle_type_id":"4","last_reported":1743084580,"current_range_meters":400,"station_id":"ce4bhqh2rcd13ifvqhmg","pricing_plan_id":"cebpf4jnsgd1na2vs0mg"},{"bike_id":"2a3afad6-d6a3-48ff-92f8-7ee0e9d27c7a","system_id":"levelo_inurba_marseille","lat":43.28728,"lon":5.36096,"is_reserved":false,"is_disabled":true,"rental_uris":{"android":"levelo://app?vid=2a3afad6-d6a3-48ff-92f8-7ee0e9d27c7a","ios":"levelo://app?vid=2a3afad6-d6a3-48ff-92f8-7ee0e9d27c7a"},"vehicle_type_id":"4","last_reported":1743084580,"current_range_meters":400,"station_id":"cki0cbj6b192h4jlfktg","pricing_plan_id":"cebpf4jnsgd1na2vs0mg"},{"bike_id":"6de2ab79-f383-4609-ae1f-e0e25be966dd","system_id":"levelo_inurba_marseille","lat":43.31219,"lon":5.36855,"is_reserved":false,"is_disabled":true,"rental_uris":{"android":"levelo://app?vid=6de2ab79-f383-4609-ae1f-e0e25be966dd","ios":"levelo://app?vid=6de2ab79-f383-4609-ae1f-e0e25be966dd"},"vehicle_type_id":"4","last_reported":1743084580,"current_range_meters":800,"station_id":"ce4bgl92rcd13ifvqbq0","pricing_plan_id":"cebpf4jnsgd1na2vs0mg"},{"bike_id":"d3de519d-8b44-4567-a95f-9d8e8e8555e8","system_id":"levelo_inurba_marseille","lat":43.29631,"lon":5.40592,"is_reserved":false,"is_disabled":true,"rental_uris":{"android":"levelo://app?vid=d3de519d-8b44-4567-a95f-9d8e8e8555e8","ios":"levelo://app?vid=d3de519d-8b44-4567-a95f-9d8e8e8555e8"},"vehicle_type_id":"4","last_reported":1743084580,"current_range_meters":800,"station_id":"ce4bh0h2rcd13ifvqd60","pricing_plan_id":"cebpf4jnsgd1na2vs0mg"},{"bike_id":"f5eb2fce-e711-4213-ac77-33558f41bda3","system_id":"levelo_inurba_marseille","lat":43.29193,"lon":5.3826,"is_reserved":false,"is_disabled":true,"rental_uris":{"android":"levelo://app?vid=f5eb2fce-e711-4213-ac77-33558f41bda3","ios":"levelo://app?vid=f5eb2fce-e711-4213-ac77-33558f41bda3"},"vehicle_type_id":"4","last_reported":1743084580,"current_range_meters":800,"station_id":"ce4bh512rcd13ifvqe2g","pricing_plan_id":"cebpf4jnsgd1na2vs0mg"},{"bike_id":"f2704b9c-c316-4f5f-9155-65f7581186ce","system_id":"levelo_inurba_marseille","lat":43.28049,"lon":5.3696,"is_reserved":false,"is_disabled":true,"rental_uris":{"android":"levelo://app?vid=f2704b9c-c316-4f5f-9155-65f7581186ce","ios":"levelo://app?vid=f2704b9c-c316-4f5f-9155-65f7581186ce"},"vehicle_type_id":"4","last_reported":1743084580,"current_range_meters":800,"station_id":"ce4bha12rcd13ifvqef0","pricing_plan_id":"cebpf4jnsgd1na2vs0mg"},{"bike_id":"1dfd77f5-269e-4955-87ea-0fe34058894c","system_id":"levelo_inurba_marseille","lat":43.25496,"lon":5.3765,"is_reserved":false,"is_disabled":true,"rental_uris":{"android":"levelo://app?vid=1dfd77f5-269e-4955-87ea-0fe34058894c","ios":"levelo://app?vid=1dfd77f5-269e-4955-87ea-0fe34058894c"},"vehicle_type_id":"4","last_reported":1743084580,"current_range_meters":800,"station_id":"ce4bhh12rcd13ifvqff0","pricing_plan_id":"cebpf4jnsgd1na2vs0mg"},{"bike_id":"3f736ef3-5eb0-4ce0-8b89-66e0457d2771","system_id":"levelo_inurba_marseille","lat":43.23178,"lon":5.39985,"is_reserved":false,"is_disabled":true,"rental_uris":{"android":"levelo://app?vid=3f736ef3-5eb0-4ce0-8b89-66e0457d2771","ios":"levelo://app?vid=3f736ef3-5eb0-4ce0-8b89-66e0457d2771"},"vehicle_type_id":"4","last_reported":1743084580,"current_range_meters":800,"station_id":"ce4bhn12rcd13ifvqgqg","pricing_plan_id":"cebpf4jnsgd1na2vs0mg"},{"bike_id":"1a2fd17b-23a1-4efd-a79f-f5bcd99988d3","system_id":"levelo_inurba_marseille","lat":43.312261,"lon":5.368659,"is_reserved":false,"is_disabled":true,"rental_uris":{"android":"levelo://app?vid=1a2fd17b-23a1-4efd-a79f-f5bcd99988d3","ios":"levelo://app?vid=1a2fd17b-23a1-4efd-a79f-f5bcd99988d3"},"vehicle_type_id":"4","last_reported":1743084580,"current_range_meters":1200,"station_id":"ce4bgl92rcd13ifvqbq0","pricing_plan_id":"cebpf4jnsgd1na2vs0mg"},{"bike_id":"d4892c2d-aa8a-45b4-9061-43123ce5b36b","system_id":"levelo_inurba_marseille","lat":43.31362,"lon":5.36703,"is_reserved":false,"is_disabled":true,"rental_uris":{"android":"levelo://app?vid=d4892c2d-aa8a-45b4-9061-43123ce5b36b","ios":"levelo://app?vid=d4892c2d-aa8a-45b4-9061-43123ce5b36b"},"vehicle_type_id":"4","last_reported":1743084580,"current_range_meters":1200,"station_id":"ce4bgr92rcd13ifvqc6g","pricing_plan_id":"cebpf4jnsgd1na2vs0mg"},{"bike_id":"e4cdbab6-09c8-4486-9290-ede85506f8c9","system_id":"levelo_inurba_marseille","lat":43.30953,"lon":5.39032,"is_reserved":false,"is_disabled":true,"rental_uris":{"android":"levelo://app?vid=e4cdbab6-09c8-4486-9290-ede85506f8c9","ios":"levelo://app?vid=e4cdbab6-09c8-4486-9290-ede85506f8c9"},"vehicle_type_id":"4","last_reported":1743084580,"current_range_meters":1200,"station_id":"ce4bgup2rcd13ifvqco0","pricing_plan_id":"cebpf4jnsgd1na2vs0mg"},{"bike_id":"39d5a63c-0e79-4e40-9973-0515f97134eb","system_id":"levelo_inurba_marseille","lat":43.29101,"lon":5.38119,"is_reserved":false,"is_disabled":true,"rental_uris":{"android":"levelo://app?vid=39d5a63c-0e79-4e40-9973-0515f97134eb","ios":"levelo://app?vid=39d5a63c-0e79-4e40-9973-0515f97134eb"},"vehicle_type_id":"4","last_reported":1743084580,"current_range_meters":1200,"station_id":"ce4bh512rcd13ifvqe2g","pricing_plan_id":"cebpf4jnsgd1na2vs0mg"},{"bike_id":"538dba27-d9b2-4aa9-a6db-3914f0896dce","system_id":"levelo_inurba_marseille","lat":43.27381,"lon":5.36253,"is_reserved":false,"is_disabled":true,"rental_uris":{"android":"levelo://app?vid=538dba27-d9b2-4aa9-a6db-3914f0896dce","ios":"levelo://app?vid=538dba27-d9b2-4aa9-a6db-3914f0896dce"},"vehicle_type_id":"4","last_reported":1743084580,"current_range_meters":1200,"station_id":"ce4bhbh2rcd13ifvqeo0","pricing_plan_id":"cebpf4jnsgd1na2vs0mg"},{"bike_id":"c6761584-36f4-4785-9f51-625b04b37d50","system_id":"levelo_inurba_marseille","lat":43.266857,"lon":5.382797,"is_reserved":false,"is_disabled":true,"rental_uris":{"android":"levelo://app?vid=c6761584-36f4-4785-9f51-625b04b37d50","ios":"levelo://app?vid=c6761584-36f4-4785-9f51-625b04b37d50"},"vehicle_type_id":"4","last_reported":1743084580,"current_range_meters":1200,"station_id":"ce4bhg92rcd13ifvqf90","pricing_plan_id":"cebpf4jnsgd1na2vs0mg"},{"bike_id":"d479e471-f995-4148-81bc-e011b605339c","system_id":"levelo_inurba_marseille","lat":43.255005,"lon":5.376537,"is_reserved":false,"is_disabled":false,"rental_uris":{"android":"levelo://app?vid=d479e471-f995-4148-81bc-e011b605339c","ios":"levelo://app?vid=d479e471-f995-4148-81bc-e011b605339c"},"vehicle_type_id":"4","last_reported":1743084580,"current_range_meters":1200,"station_id":"ce4bhh12rcd13ifvqff0","pricing_plan_id":"cebpf4jnsgd1na2vs0mg"},{"bike_id":"aad5ea6d-34b8-4027-8252-864c6a392f65","system_id":"levelo_inurba_marseille","lat":43.23143,"lon":5.43721,"is_reserved":false,"is_disabled":true,"rental_uris":{"android":"levelo://app?vid=aad5ea6d-34b8-4027-8252-864c6a392f65","ios":"levelo://app?vid=aad5ea6d-34b8-4027-8252-864c6a392f65"},"vehicle_type_id":"4","last_reported":1743084580,"current_range_meters":1200,"station_id":"ce4bhmp2rcd13ifvqgog","pricing_plan_id":"cebpf4jnsgd1na2vs0mg"},{"bike_id":"b75bacae-e2dd-4094-8687-ee78ae3f22ed","system_id":"levelo_inurba_marseille","lat":43.29424,"lon":5.38624,"is_reserved":false,"is_disabled":true,"rental_uris":{"android":"levelo://app?vid=b75bacae-e2dd-4094-8687-ee78ae3f22ed","ios":"levelo://app?vid=b75bacae-e2dd-4094-8687-ee78ae3f22ed"},"vehicle_type_id":"4","last_reported":1743084580,"current_range_meters":1600,"station_id":"ce4bh2h2rcd13ifvqdh0","pricing_plan_id":"cebpf4jnsgd1na2vs0mg"},{"bike_id":"3091bd10-56fa-425f-be4b-5ffcb471476e","system_id":"levelo_inurba_marseille","lat":43.29008,"lon":5.35622,"is_reserved":false,"is_disabled":true,"rental_uris":{"android":"levelo://app?vid=3091bd10-56fa-425f-be4b-5ffcb471476e","ios":"levelo://app?vid=3091bd10-56fa-425f-be4b-5ffcb471476e"},"vehicle_type_id":"4","last_reported":1743084580,"current_range_meters":1600,"station_id":"ce4bh412rcd13ifvqdr0","pricing_plan_id":"cebpf4jnsgd1na2vs0mg"},{"bike_id":"d1794337-7464-4939-a771-c6d25ca82e41","system_id":"levelo_inurba_marseille","lat":43.26929,"lon":5.38918,"is_reserved":false,"is_disabled":true,"rental_uris":{"android":"levelo://app?vid=d1794337-7464-4939-a771-c6d25ca82e41","ios":"levelo://app?vid=d1794337-7464-4939-a771-c6d25ca82e41"},"vehicle_type_id":"4","last_reported":1743084580,"current_range_meters":1600,"station_id":"ce4bhhh2rcd13ifvqfl0","pricing_plan_id":"cebpf4jnsgd1na2vs0mg"},{"bike_id":"52b92db8-03a6-47b0-97df-aa526f99b586","system_id":"levelo_inurba_marseille","lat":43.282623,"lon":5.350555,"is_reserved":false,"is_disabled":true,"rental_uris":{"android":"levelo://app?vid=52b92db8-03a6-47b0-97df-aa526f99b586","ios":"levelo://app?vid=52b92db8-03a6-47b0-97df-aa526f99b586"},"vehicle_type_id":"4","last_reported":1743084580,"current_range_meters":1600,"station_id":"ce4bhnp2rcd13ifvqgvg","pricing_plan_id":"cebpf4jnsgd1na2vs0mg"},{"bike_id":"13403afe-97ce-42fd-99b4-f4e5dcd4b9ed","system_id":"levelo_inurba_marseille","lat":43.318817,"lon":5.407424,"is_reserved":false,"is_disabled":false,"rental_uris":{"android":"levelo://app?vid=13403afe-97ce-42fd-99b4-f4e5dcd4b9ed","ios":"levelo://app?vid=13403afe-97ce-42fd-99b4-f4e5dcd4b9ed"},"vehicle_type_id":"4","last_reported":1743084580,"current_range_meters":1600,"station_id":"ce4bhq12rcd13ifvqhig","pricing_plan_id":"cebpf4jnsgd1na2vs0mg"},{"bike_id":"340ad8e7-ba6f-4b42-a215-08f71a144d5a","system_id":"levelo_inurba_marseille","lat":43.230591,"lon":5.354922,"is_reserved":false,"is_disabled":true,"rental_uris":{"android":"levelo://app?vid=340ad8e7-ba6f-4b42-a215-08f71a144d5a","ios":"levelo://app?vid=340ad8e7-ba6f-4b42-a215-08f71a144d5a"},"vehicle_type_id":"4","last_reported":1743084580,"current_range_meters":1600,"station_id":"cpo3342slgdg3j2ifvpg","pricing_plan_id":"cebpf4jnsgd1na2vs0mg"},{"bike_id":"ec0a1053-3f90-42d9-9b0e-7af1b2dc034b","system_id":"levelo_inurba_marseille","lat":43.29309,"lon":5.37164,"is_reserved":false,"is_disabled":true,"rental_uris":{"android":"levelo://app?vid=ec0a1053-3f90-42d9-9b0e-7af1b2dc034b","ios":"levelo://app?vid=ec0a1053-3f90-42d9-9b0e-7af1b2dc034b"},"vehicle_type_id":"4","last_reported":1743084580,"current_range_meters":2000,"station_id":"ce4bgh92rcd13ifvqb40","pricing_plan_id":"cebpf4jnsgd1na2vs0mg"},{"bike_id":"6d4011c8-4f80-44b9-9412-1bf5eff9b6be","system_id":"levelo_inurba_marseille","lat":43.30925,"lon":5.40141,"is_reserved":false,"is_disabled":true,"rental_uris":{"android":"levelo://app?vid=6d4011c8-4f80-44b9-9412-1bf5eff9b6be","ios":"levelo://app?vid=6d4011c8-4f80-44b9-9412-1bf5eff9b6be"},"vehicle_type_id":"4","last_reported":1743084580,"current_range_meters":2000,"station_id":"ce4bgvp2rcd13ifvqct0","pricing_plan_id":"cebpf4jnsgd1na2vs0mg"},{"bike_id":"9fb0d249-fdf7-4880-9693-04b419dcd804","system_id":"levelo_inurba_marseille","lat":43.28841,"lon":5.39309,"is_reserved":false,"is_disabled":true,"rental_uris":{"android":"levelo://app?vid=9fb0d249-fdf7-4880-9693-04b419dcd804","ios":"levelo://app?vid=9fb0d249-fdf7-4880-9693-04b419dcd804"},"vehicle_type_id":"4","last_reported":1743084580,"current_range_meters":2000,"station_id":"ce4bh2p2rcd13ifvqdi0","pricing_plan_id":"cebpf4jnsgd1na2vs0mg"},{"bike_id":"c76cb115-14ea-4c3d-830a-1d64b80735a8","system_id":"levelo_inurba_marseille","lat":43.28266,"lon":5.35069,"is_reserved":false,"is_disabled":true,"rental_uris":{"android":"levelo://app?vid=c76cb115-14ea-4c3d-830a-1d64b80735a8","ios":"levelo://app?vid=c76cb115-14ea-4c3d-830a-1d64b80735a8"},"vehicle_type_id":"4","last_reported":1743084580,"current_range_meters":2000,"station_id":"ce4bhbp2rcd13ifvqerg","pricing_plan_id":"cebpf4jnsgd1na2vs0mg"},{"bike_id":"3d7bca97-4334-4ba0-9451-0a09e0997845","system_id":"levelo_inurba_marseille","lat":43.23146,"lon":5.43709,"is_reserved":false,"is_disabled":true,"rental_uris":{"android":"levelo://app?vid=3d7bca97-4334-4ba0-9451-0a09e0997845","ios":"levelo://app?vid=3d7bca97-4334-4ba0-9451-0a09e0997845"},"vehicle_type_id":"4","last_reported":1743084580,"current_range_meters":2000,"station_id":"ce4bhmp2rcd13ifvqgog","pricing_plan_id":"cebpf4jnsgd1na2vs0mg"},{"bike_id":"7cbb83a2-1c7c-47bd-87b1-f6dce11eb405","system_id":"levelo_inurba_marseille","lat":43.24187,"lon":5.39703,"is_reserved":false,"is_disabled":true,"rental_uris":{"android":"levelo://app?vid=7cbb83a2-1c7c-47bd-87b1-f6dce11eb405","ios":"levelo://app?vid=7cbb83a2-1c7c-47bd-87b1-f6dce11eb405"},"vehicle_type_id":"4","last_reported":1743084580,"current_range_meters":2000,"station_id":"ce4bhn12rcd13ifvqgpg","pricing_plan_id":"cebpf4jnsgd1na2vs0mg"},{"bike_id":"5a40f0bb-d306-4d94-81b7-4d8e6089ef11","system_id":"levelo_inurba_marseille","lat":43.29092,"lon":5.38157,"is_reserved":false,"is_disabled":false,"rental_uris":{"android":"levelo://app?vid=5a40f0bb-d306-4d94-81b7-4d8e6089ef11","ios":"levelo://app?vid=5a40f0bb-d306-4d94-81b7-4d8e6089ef11"},"vehicle_type_id":"4","last_reported":1743084580,"current_range_meters":3200,"station_id":"ce4bh512rcd13ifvqe2g","pricing_plan_id":"cebpf4jnsgd1na2vs0mg"},{"bike_id":"94e8a33d-d923-4aa8-8f60-4e1f9b951e0c","system_id":"levelo_inurba_marseille","lat":43.28928,"lon":5.36634,"is_reserved":false,"is_disabled":false,"rental_uris":{"android":"levelo://app?vid=94e8a33d-d923-4aa8-8f60-4e1f9b951e0c","ios":"levelo://app?vid=94e8a33d-d923-4aa8-8f60-4e1f9b951e0c"},"vehicle_type_id":"4","last_reported":1743084580,"current_range_meters":3200,"station_id":"ce4bhap2rcd13ifvqek0","pricing_plan_id":"cebpf4jnsgd1na2vs0mg"},{"bike_id":"11379ec6-6b12-4c83-b2f5-cad8477bb9fd","system_id":"levelo_inurba_marseille","lat":43.23182,"lon":5.3999,"is_reserved":false,"is_disabled":false,"rental_uris":{"android":"levelo://app?vid=11379ec6-6b12-4c83-b2f5-cad8477bb9fd","ios":"levelo://app?vid=11379ec6-6b12-4c83-b2f5-cad8477bb9fd"},"vehicle_type_id":"4","last_reported":1743084580,"current_range_meters":3200,"station_id":"ce4bhn12rcd13ifvqgqg","pricing_plan_id":"cebpf4jnsgd1na2vs0mg"},{"bike_id":"39132323-c731-49ab-98e3-c68cfd77b0de","system_id":"levelo_inurba_marseille","lat":43.26412,"lon":5.40389,"is_reserved":false,"is_disabled":false,"rental_uris":{"android":"levelo://app?vid=39132323-c731-49ab-98e3-c68cfd77b0de","ios":"levelo://app?vid=39132323-c731-49ab-98e3-c68cfd77b0de"},"vehicle_type_id":"4","last_reported":1743084580,"current_range_meters":3600,"station_id":"","pricing_plan_id":"cebpf4jnsgd1na2vs0mg"},{"bike_id":"3ee242bf-25cf-4c71-b23e-50d561d66abe","system_id":"levelo_inurba_marseille","lat":43.2846,"lon":5.35891,"is_reserved":false,"is_disabled":false,"rental_uris":{"android":"levelo://app?vid=3ee242bf-25cf-4c71-b23e-50d561d66abe","ios":"levelo://app?vid=3ee242bf-25cf-4c71-b23e-50d561d66abe"},"vehicle_type_id":"4","last_reported":1743084580,"current_range_meters":3600,"station_id":"ce4bhah2rcd13ifvqei0","pricing_plan_id":"cebpf4jnsgd1na2vs0mg"},{"bike_id":"e792963e-e14b-44fd-b270-eaedfd60a784","system_id":"levelo_inurba_marseille","lat":43.27321,"lon":5.39085,"is_reserved":false,"is_disabled":false,"rental_uris":{"android":"levelo://app?vid=e792963e-e14b-44fd-b270-eaedfd60a784","ios":"levelo://app?vid=e792963e-e14b-44fd-b270-eaedfd60a784"},"vehicle_type_id":"4","last_reported":1743084580,"current_range_meters":3600,"station_id":"ce4bhgp2rcd13ifvqfe0","pricing_plan_id":"cebpf4jnsgd1na2vs0mg"},{"bike_id":"32c0e8a8-3183-4f24-9239-339d42d89b9b","system_id":"levelo_inurba_marseille","lat":43.31226,"lon":5.36884,"is_reserved":false,"is_disabled":false,"rental_uris":{"android":"levelo://app?vid=32c0e8a8-3183-4f24-9239-339d42d89b9b","ios":"levelo://app?vid=32c0e8a8-3183-4f24-9239-339d42d89b9b"},"vehicle_type_id":"4","last_reported":1743084580,"current_range_meters":4000,"station_id":"ce4bgl92rcd13ifvqbq0","pricing_plan_id":"cebpf4jnsgd1na2vs0mg"},{"bike_id":"598e1521-ea09-4968-bac1-208db71d337f","system_id":"levelo_inurba_marseille","lat":43.31239,"lon":5.36878,"is_reserved":false,"is_disabled":false,"rental_uris":{"android":"levelo://app?vid=598e1521-ea09-4968-bac1-208db71d337f","ios":"levelo://app?vid=598e1521-ea09-4968-bac1-208db71d337f"},"vehicle_type_id":"4","last_reported":1743084580,"current_range_meters":4000,"station_id":"ce4bgl92rcd13ifvqbq0","pricing_plan_id":"cebpf4jnsgd1na2vs0mg"},{"bike_id":"d6af039c-e4c5-407d-a4d7-b5368d1927e8","system_id":"levelo_inurba_marseille","lat":43.3254,"lon":5.41425,"is_reserved":false,"is_disabled":false,"rental_uris":{"android":"levelo://app?vid=d6af039c-e4c5-407d-a4d7-b5368d1927e8","ios":"levelo://app?vid=d6af039c-e4c5-407d-a4d7-b5368d1927e8"},"vehicle_type_id":"4","last_reported":1743084580,"current_range_meters":4000,"station_id":"ce4bhq12rcd13ifvqhhg","pricing_plan_id":"cebpf4jnsgd1na2vs0mg"},{"bike_id":"bcad4280-6d71-4d18-a452-ac04b99fb991","system_id":"levelo_inurba_marseille","lat":43.31386,"lon":5.36709,"is_reserved":false,"is_disabled":false,"rental_uris":{"android":"levelo://app?vid=bcad4280-6d71-4d18-a452-ac04b99fb991","ios":"levelo://app?vid=bcad4280-6d71-4d18-a452-ac04b99fb991"},"vehicle_type_id":"4","last_reported":1743084580,"current_range_meters":4400,"station_id":"","pricing_plan_id":"cebpf4jnsgd1na2vs0mg"},{"bike_id":"17a90738-8465-47b4-91ce-2d931607694a","system_id":"levelo_inurba_marseille","lat":43.28717,"lon":5.37947,"is_reserved":false,"is_disabled":false,"rental_uris":{"android":"levelo://app?vid=17a90738-8465-47b4-91ce-2d931607694a","ios":"levelo://app?vid=17a90738-8465-47b4-91ce-2d931607694a"},"vehicle_type_id":"4","last_reported":1743084580,"current_range_meters":4400,"station_id":"ce4bh9p2rcd13ifvqec0","pricing_plan_id":"cebpf4jnsgd1na2vs0mg"},{"bike_id":"95ade788-b235-406f-9a48-08c4ad2826b7","system_id":"levelo_inurba_marseille","lat":43.28939,"lon":5.36637,"is_reserved":false,"is_disabled":false,"rental_uris":{"android":"levelo://app?vid=95ade788-b235-406f-9a48-08c4ad2826b7","ios":"levelo://app?vid=95ade788-b235-406f-9a48-08c4ad2826b7"},"vehicle_type_id":"4","last_reported":1743084580,"current_range_meters":4400,"station_id":"ce4bhap2rcd13ifvqek0","pricing_plan_id":"cebpf4jnsgd1na2vs0mg"},{"bike_id":"41e6c608-b868-4653-8715-ebe7f9ea6688","system_id":"levelo_inurba_marseille","lat":43.29007,"lon":5.35595,"is_reserved":false,"is_disabled":false,"rental_uris":{"android":"levelo://app?vid=41e6c608-b868-4653-8715-ebe7f9ea6688","ios":"levelo://app?vid=41e6c608-b868-4653-8715-ebe7f9ea6688"},"vehicle_type_id":"4","last_reported":1743084580,"current_range_meters":4400,"station_id":"ce4bhb92rcd13ifvqen0","pricing_plan_id":"cebpf4jnsgd1na2vs0mg"},{"bike_id":"ea20248a-486b-41a2-a35b-540175fa9041","system_id":"levelo_inurba_marseille","lat":43.29255,"lon":5.36856,"is_reserved":false,"is_disabled":false,"rental_uris":{"android":"levelo://app?vid=ea20248a-486b-41a2-a35b-540175fa9041","ios":"levelo://app?vid=ea20248a-486b-41a2-a35b-540175fa9041"},"vehicle_type_id":"4","last_reported":1743084580,"current_range_meters":4400,"station_id":"ce4bhbp2rcd13ifvqesg","pricing_plan_id":"cebpf4jnsgd1na2vs0mg"},{"bike_id":"5aed16b5-1469-48e7-8406-522a4e5aaff9","system_id":"levelo_inurba_marseille","lat":43.24666,"lon":5.38143,"is_reserved":false,"is_disabled":false,"rental_uris":{"android":"levelo://app?vid=5aed16b5-1469-48e7-8406-522a4e5aaff9","ios":"levelo://app?vid=5aed16b5-1469-48e7-8406-522a4e5aaff9"},"vehicle_type_id":"4","last_reported":1743084580,"current_range_meters":4400,"station_id":"ce4bhih2rcd13ifvqfr0","pricing_plan_id":"cebpf4jnsgd1na2vs0mg"},{"bike_id":"03b836a2-30c9-4d97-84ce-cae6504c3c84","system_id":"levelo_inurba_marseille","lat":43.32106,"lon":5.36767,"is_reserved":false,"is_disabled":false,"rental_uris":{"android":"levelo://app?vid=03b836a2-30c9-4d97-84ce-cae6504c3c84","ios":"levelo://app?vid=03b836a2-30c9-4d97-84ce-cae6504c3c84"},"vehicle_type_id":"4","last_reported":1743084580,"current_range_meters":4400,"station_id":"ce4bhrh2rcd13ifvqhug","pricing_plan_id":"cebpf4jnsgd1na2vs0mg"},{"bike_id":"1e0b2636-48a1-4292-92c0-73b807651a12","system_id":"levelo_inurba_marseille","lat":43.289703,"lon":5.37838,"is_reserved":false,"is_disabled":false,"rental_uris":{"android":"levelo://app?vid=1e0b2636-48a1-4292-92c0-73b807651a12","ios":"levelo://app?vid=1e0b2636-48a1-4292-92c0-73b807651a12"},"vehicle_type_id":"4","last_reported":1743084580,"current_range_meters":4800,"station_id":"ce4bgip2rcd13ifvqbb0","pricing_plan_id":"cebpf4jnsgd1na2vs0mg"},{"bike_id":"4402835c-a1e4-45be-97f6-9d8b9f04f4b0","system_id":"levelo_inurba_marseille","lat":43.30544,"lon":5.36551,"is_reserved":false,"is_disabled":false,"rental_uris":{"android":"levelo://app?vid=4402835c-a1e4-45be-97f6-9d8b9f04f4b0","ios":"levelo://app?vid=4402835c-a1e4-45be-97f6-9d8b9f04f4b0"},"vehicle_type_id":"4","last_reported":1743084580,"current_range_meters":4800,"station_id":"ce4bgs12rcd13ifvqcag","pricing_plan_id":"cebpf4jnsgd1na2vs0mg"},{"bike_id":"0eff710e-829c-408c-970a-61ada0b1f52b","system_id":"levelo_inurba_marseille","lat":43.298737,"lon":5.397271,"is_reserved":false,"is_disabled":false,"rental_uris":{"android":"levelo://app?vid=0eff710e-829c-408c-970a-61ada0b1f52b","ios":"levelo://app?vid=0eff710e-829c-408c-970a-61ada0b1f52b"},"vehicle_type_id":"4","last_reported":1743084580,"current_range_meters":4800,"station_id":"ce4bh0h2rcd13ifvqd50","pricing_plan_id":"cebpf4jnsgd1na2vs0mg"},{"bike_id":"a5fb06d1-c469-4515-9522-548b956fd2b3","system_id":"levelo_inurba_marseille","lat":43.31738,"lon":5.39005,"is_reserved":false,"is_disabled":false,"rental_uris":{"android":"levelo://app?vid=a5fb06d1-c469-4515-9522-548b956fd2b3","ios":"levelo://app?vid=a5fb06d1-c469-4515-9522-548b956fd2b3"},"vehicle_type_id":"4","last_reported":1743084580,"current_range_meters":4800,"station_id":"ce4bhqp2rcd13ifvqhng","pricing_plan_id":"cebpf4jnsgd1na2vs0mg"},{"bike_id":"251f7a57-9ef6-4171-86e6-df31f243954d","system_id":"levelo_inurba_marseille","lat":43.29624,"lon":5.37755,"is_reserved":false,"is_disabled":false,"rental_uris":{"android":"levelo://app?vid=251f7a57-9ef6-4171-86e6-df31f243954d","ios":"levelo://app?vid=251f7a57-9ef6-4171-86e6-df31f243954d"},"vehicle_type_id":"4","last_reported":1743084580,"current_range_meters":5600,"station_id":"ce4bgi92rcd13ifvqb90","pricing_plan_id":"cebpf4jnsgd1na2vs0mg"},{"bike_id":"693dda60-4779-48b9-b750-16467e1d0b53","system_id":"levelo_inurba_marseille","lat":43.31226,"lon":5.36863,"is_reserved":false,"is_disabled":false,"rental_uris":{"android":"levelo://app?vid=693dda60-4779-48b9-b750-16467e1d0b53","ios":"levelo://app?vid=693dda60-4779-48b9-b750-16467e1d0b53"},"vehicle_type_id":"4","last_reported":1743084580,"current_range_meters":5600,"station_id":"ce4bgl92rcd13ifvqbq0","pricing_plan_id":"cebpf4jnsgd1na2vs0mg"},{"bike_id":"61563a71-7a09-41ad-8c63-dd7d0c498efb","system_id":"levelo_inurba_marseille","lat":43.26201,"lon":5.37935,"is_reserved":false,"is_disabled":false,"rental_uris":{"android":"levelo://app?vid=61563a71-7a09-41ad-8c63-dd7d0c498efb","ios":"levelo://app?vid=61563a71-7a09-41ad-8c63-dd7d0c498efb"},"vehicle_type_id":"4","last_reported":1743084580,"current_range_meters":5600,"station_id":"ce4bhjp2rcd13ifvqg90","pricing_plan_id":"cebpf4jnsgd1na2vs0mg"},{"bike_id":"7a243ddc-5526-4d4d-b7ca-9672baa3a32c","system_id":"levelo_inurba_marseille","lat":43.25124,"lon":5.4031,"is_reserved":false,"is_disabled":false,"rental_uris":{"android":"levelo://app?vid=7a243ddc-5526-4d4d-b7ca-9672baa3a32c","ios":"levelo://app?vid=7a243ddc-5526-4d4d-b7ca-9672baa3a32c"},"vehicle_type_id":"4","last_reported":1743084580,"current_range_meters":5600,"station_id":"ce4bhlh2rcd13ifvqgig","pricing_plan_id":"cebpf4jnsgd1na2vs0mg"},{"bike_id":"2a306d21-2753-4a79-be8e-8eedc92335b1","system_id":"levelo_inurba_marseille","lat":43.24068,"lon":5.37755,"is_reserved":false,"is_disabled":false,"rental_uris":{"android":"levelo://app?vid=2a306d21-2753-4a79-be8e-8eedc92335b1","ios":"levelo://app?vid=2a306d21-2753-4a79-be8e-8eedc92335b1"},"vehicle_type_id":"4","last_reported":1743084580,"current_range_meters":5600,"station_id":"ce4bhnp2rcd13ifvqgvg","pricing_plan_id":"cebpf4jnsgd1na2vs0mg"},{"bike_id":"8a9602e7-e6f2-4dac-845f-cea224e49dd5","system_id":"levelo_inurba_marseille","lat":43.23071,"lon":5.35504,"is_reserved":false,"is_disabled":false,"rental_uris":{"android":"levelo://app?vid=8a9602e7-e6f2-4dac-845f-cea224e49dd5","ios":"levelo://app?vid=8a9602e7-e6f2-4dac-845f-cea224e49dd5"},"vehicle_type_id":"4","last_reported":1743084580,"current_range_meters":5600,"station_id":"cpo3342slgdg3j2ifvpg","pricing_plan_id":"cebpf4jnsgd1na2vs0mg"},{"bike_id":"3440ae68-e205-42cf-8956-9a783c13588d","system_id":"levelo_inurba_marseille","lat":43.23061,"lon":5.35504,"is_reserved":false,"is_disabled":false,"rental_uris":{"android":"levelo://app?vid=3440ae68-e205-42cf-8956-9a783c13588d","ios":"levelo://app?vid=3440ae68-e205-42cf-8956-9a783c13588d"},"vehicle_type_id":"4","last_reported":1743084580,"current_range_meters":6000,"station_id":"cpo3342slgdg3j2ifvpg","pricing_plan_id":"cebpf4jnsgd1na2vs0mg"},{"bike_id":"420caf47-dad2-451c-8438-68ae568eee92","system_id":"levelo_inurba_marseille","lat":43.31378,"lon":5.36706,"is_reserved":false,"is_disabled":false,"rental_uris":{"android":"levelo://app?vid=420caf47-dad2-451c-8438-68ae568eee92","ios":"levelo://app?vid=420caf47-dad2-451c-8438-68ae568eee92"},"vehicle_type_id":"4","last_reported":1743084580,"current_range_meters":6400,"station_id":"ce4bgr92rcd13ifvqc6g","pricing_plan_id":"cebpf4jnsgd1na2vs0mg"},{"bike_id":"3a774410-69b6-4137-a82a-75ced0c35de2","system_id":"levelo_inurba_marseille","lat":43.29226,"lon":5.36084,"is_reserved":false,"is_disabled":false,"rental_uris":{"android":"levelo://app?vid=3a774410-69b6-4137-a82a-75ced0c35de2","ios":"levelo://app?vid=3a774410-69b6-4137-a82a-75ced0c35de2"},"vehicle_type_id":"4","last_reported":1743084580,"current_range_meters":6400,"station_id":"ce4bhbh2rcd13ifvqeqg","pricing_plan_id":"cebpf4jnsgd1na2vs0mg"},{"bike_id":"f22dd984-23ed-4af6-b4bb-c3d5c828c367","system_id":"levelo_inurba_marseille","lat":43.27944,"lon":5.41056,"is_reserved":false,"is_disabled":false,"rental_uris":{"android":"levelo://app?vid=f22dd984-23ed-4af6-b4bb-c3d5c828c367","ios":"levelo://app?vid=f22dd984-23ed-4af6-b4bb-c3d5c828c367"},"vehicle_type_id":"4","last_reported":1743084580,"current_range_meters":6400,"station_id":"ce4bhnp2rcd13ifvqh0g","pricing_plan_id":"cebpf4jnsgd1na2vs0mg"},{"bike_id":"1dd765a9-64b4-439c-a196-df55419cc971","system_id":"levelo_inurba_marseille","lat":43.24163,"lon":5.36415,"is_reserved":false,"is_disabled":false,"rental_uris":{"android":"levelo://app?vid=1dd765a9-64b4-439c-a196-df55419cc971","ios":"levelo://app?vid=1dd765a9-64b4-439c-a196-df55419cc971"},"vehicle_type_id":"4","last_reported":1743084580,"current_range_meters":6400,"station_id":"cpo36qri1sfpv3e86is0","pricing_plan_id":"cebpf4jnsgd1na2vs0mg"},{"bike_id":"a2aa94aa-e95a-4a80-a3a5-656d494e6ca1","system_id":"levelo_inurba_marseille","lat":43.305438,"lon":5.365419,"is_reserved":false,"is_disabled":false,"rental_uris":{"android":"levelo://app?vid=a2aa94aa-e95a-4a80-a3a5-656d494e6ca1","ios":"levelo://app?vid=a2aa94aa-e95a-4a80-a3a5-656d494e6ca1"},"vehicle_type_id":"4","last_reported":1743084580,"current_range_meters":6800,"station_id":"ce4bgs12rcd13ifvqcag","pricing_plan_id":"cebpf4jnsgd1na2vs0mg"},{"bike_id":"40c7b35e-43e2-4d00-9eb0-17df63709d48","system_id":"levelo_inurba_marseille","lat":43.3112,"lon":5.3778,"is_reserved":false,"is_disabled":false,"rental_uris":{"android":"levelo://app?vid=40c7b35e-43e2-4d00-9eb0-17df63709d48","ios":"levelo://app?vid=40c7b35e-43e2-4d00-9eb0-17df63709d48"},"vehicle_type_id":"4","last_reported":1743084580,"current_range_meters":6800,"station_id":"ce4bgt92rcd13ifvqcg0","pricing_plan_id":"cebpf4jnsgd1na2vs0mg"},{"bike_id":"0c035c8e-4e94-4105-9364-6cd74fe51ad1","system_id":"levelo_inurba_marseille","lat":43.30274,"lon":5.37699,"is_reserved":false,"is_disabled":false,"rental_uris":{"android":"levelo://app?vid=0c035c8e-4e94-4105-9364-6cd74fe51ad1","ios":"levelo://app?vid=0c035c8e-4e94-4105-9364-6cd74fe51ad1"},"vehicle_type_id":"4","last_reported":1743084580,"current_range_meters":6800,"station_id":"ce4bguh2rcd13ifvqcj0","pricing_plan_id":"cebpf4jnsgd1na2vs0mg"},{"bike_id":"cc031383-15ba-4cd5-a2b5-28b25e7e4869","system_id":"levelo_inurba_marseille","lat":43.27908,"lon":5.39593,"is_reserved":false,"is_disabled":false,"rental_uris":{"android":"levelo://app?vid=cc031383-15ba-4cd5-a2b5-28b25e7e4869","ios":"levelo://app?vid=cc031383-15ba-4cd5-a2b5-28b25e7e4869"},"vehicle_type_id":"4","last_reported":1743084580,"current_range_meters":6800,"station_id":"ce4bhf92rcd13ifvqf40","pricing_plan_id":"cebpf4jnsgd1na2vs0mg"},{"bike_id":"843ccbe8-0c5b-46de-b39c-b437250640f0","system_id":"levelo_inurba_marseille","lat":43.26028,"lon":5.37546,"is_reserved":false,"is_disabled":false,"rental_uris":{"android":"levelo://app?vid=843ccbe8-0c5b-46de-b39c-b437250640f0","ios":"levelo://app?vid=843ccbe8-0c5b-46de-b39c-b437250640f0"},"vehicle_type_id":"4","last_reported":1743084580,"current_range_meters":6800,"station_id":"ce4bhgh2rcd13ifvqfa0","pricing_plan_id":"cebpf4jnsgd1na2vs0mg"},{"bike_id":"f17bb7bb-4549-45a6-a8c5-a1760814a158","system_id":"levelo_inurba_marseille","lat":43.27821,"lon":5.40709,"is_reserved":false,"is_disabled":false,"rental_uris":{"android":"levelo://app?vid=f17bb7bb-4549-45a6-a8c5-a1760814a158","ios":"levelo://app?vid=f17bb7bb-4549-45a6-a8c5-a1760814a158"},"vehicle_type_id":"4","last_reported":1743084580,"current_range_meters":6800,"station_id":"ce4bhnh2rcd13ifvqgtg","pricing_plan_id":"cebpf4jnsgd1na2vs0mg"},{"bike_id":"8f4c6599-c57c-47f3-b859-da4512b39b4a","system_id":"levelo_inurba_marseille","lat":43.30536,"lon":5.3651,"is_reserved":false,"is_disabled":false,"rental_uris":{"android":"levelo://app?vid=8f4c6599-c57c-47f3-b859-da4512b39b4a","ios":"levelo://app?vid=8f4c6599-c57c-47f3-b859-da4512b39b4a"},"vehicle_type_id":"4","last_reported":1743084580,"current_range_meters":7200,"station_id":"","pricing_plan_id":"cebpf4jnsgd1na2vs0mg"},{"bike_id":"94d2585a-410f-4c11-8e97-07a976eb67fc","system_id":"levelo_inurba_marseille","lat":43.30159,"lon":5.38087,"is_reserved":false,"is_disabled":false,"rental_uris":{"android":"levelo://app?vid=94d2585a-410f-4c11-8e97-07a976eb67fc","ios":"levelo://app?vid=94d2585a-410f-4c11-8e97-07a976eb67fc"},"vehicle_type_id":"4","last_reported":1743084580,"current_range_meters":7200,"station_id":"ce4bgjp2rcd13ifvqbh0","pricing_plan_id":"cebpf4jnsgd1na2vs0mg"},{"bike_id":"b7f60bc2-4afb-4fdb-a899-7dccd4ef55d5","system_id":"levelo_inurba_marseille","lat":43.29713,"lon":5.36606,"is_reserved":false,"is_disabled":false,"rental_uris":{"android":"levelo://app?vid=b7f60bc2-4afb-4fdb-a899-7dccd4ef55d5","ios":"levelo://app?vid=b7f60bc2-4afb-4fdb-a899-7dccd4ef55d5"},"vehicle_type_id":"4","last_reported":1743084580,"current_range_meters":7200,"station_id":"ce4bgn12rcd13ifvqbt0","pricing_plan_id":"cebpf4jnsgd1na2vs0mg"},{"bike_id":"f60faaab-ea07-4087-870d-673edd45b169","system_id":"levelo_inurba_marseille","lat":43.29065,"lon":5.37174,"is_reserved":false,"is_disabled":false,"rental_uris":{"android":"levelo://app?vid=f60faaab-ea07-4087-870d-673edd45b169","ios":"levelo://app?vid=f60faaab-ea07-4087-870d-673edd45b169"},"vehicle_type_id":"4","last_reported":1743084580,"current_range_meters":7200,"station_id":"ce4bh5p2rcd13ifvqe4g","pricing_plan_id":"cebpf4jnsgd1na2vs0mg"},{"bike_id":"1e4e8a55-ba7e-4c4c-966b-fdbaff99271b","system_id":"levelo_inurba_marseille","lat":43.28707,"lon":5.37932,"is_reserved":false,"is_disabled":false,"rental_uris":{"android":"levelo://app?vid=1e4e8a55-ba7e-4c4c-966b-fdbaff99271b","ios":"levelo://app?vid=1e4e8a55-ba7e-4c4c-966b-fdbaff99271b"},"vehicle_type_id":"4","last_reported":1743084580,"current_range_meters":7200,"station_id":"ce4bh9p2rcd13ifvqec0","pricing_plan_id":"cebpf4jnsgd1na2vs0mg"},{"bike_id":"f21a10e7-dc29-48c3-a356-f0fba888e108","system_id":"levelo_inurba_marseille","lat":43.27382,"lon":5.36263,"is_reserved":false,"is_disabled":false,"rental_uris":{"android":"levelo://app?vid=f21a10e7-dc29-48c3-a356-f0fba888e108","ios":"levelo://app?vid=f21a10e7-dc29-48c3-a356-f0fba888e108"},"vehicle_type_id":"4","last_reported":1743084580,"current_range_meters":7200,"station_id":"ce4bhbh2rcd13ifvqeo0","pricing_plan_id":"cebpf4jnsgd1na2vs0mg"},{"bike_id":"e4da3e84-b2d2-487a-9e61-555ac0256fc0","system_id":"levelo_inurba_marseille","lat":43.2696,"lon":5.38622,"is_reserved":false,"is_disabled":false,"rental_uris":{"android":"levelo://app?vid=e4da3e84-b2d2-487a-9e61-555ac0256fc0","ios":"levelo://app?vid=e4da3e84-b2d2-487a-9e61-555ac0256fc0"},"vehicle_type_id":"4","last_reported":1743084580,"current_range_meters":7200,"station_id":"ce4bhh92rcd13ifvqfh0","pricing_plan_id":"cebpf4jnsgd1na2vs0mg"},{"bike_id":"8d029d9f-5e4c-41c8-8f66-c3b58e254d98","system_id":"levelo_inurba_marseille","lat":43.3255,"lon":5.41437,"is_reserved":false,"is_disabled":false,"rental_uris":{"android":"levelo://app?vid=8d029d9f-5e4c-41c8-8f66-c3b58e254d98","ios":"levelo://app?vid=8d029d9f-5e4c-41c8-8f66-c3b58e254d98"},"vehicle_type_id":"4","last_reported":1743084580,"current_range_meters":7200,"station_id":"ce4bhq12rcd13ifvqhhg","pricing_plan_id":"cebpf4jnsgd1na2vs0mg"},{"bike_id":"84a7a785-5392-42bc-8088-fb903bcc7f5c","system_id":"levelo_inurba_marseille","lat":43.23065,"lon":5.35495,"is_reserved":false,"is_disabled":false,"rental_uris":{"android":"levelo://app?vid=84a7a785-5392-42bc-8088-fb903bcc7f5c","ios":"levelo://app?vid=84a7a785-5392-42bc-8088-fb903bcc7f5c"},"vehicle_type_id":"4","last_reported":1743084580,"current_range_meters":7200,"station_id":"cpo3342slgdg3j2ifvpg","pricing_plan_id":"cebpf4jnsgd1na2vs0mg"},{"bike_id":"85d0fa0c-b5b9-41cd-ba43-951901672dab","system_id":"levelo_inurba_marseille","lat":43.25604,"lon":5.38984,"is_reserved":false,"is_disabled":false,"rental_uris":{"android":"levelo://app?vid=85d0fa0c-b5b9-41cd-ba43-951901672dab","ios":"levelo://app?vid=85d0fa0c-b5b9-41cd-ba43-951901672dab"},"vehicle_type_id":"4","last_reported":1743084580,"current_range_meters":8000,"station_id":"","pricing_plan_id":"cebpf4jnsgd1na2vs0mg"},{"bike_id":"dc8ccdc9-a018-4504-b0a9-676297905591","system_id":"levelo_inurba_marseille","lat":43.29292,"lon":5.36984,"is_reserved":false,"is_disabled":false,"rental_uris":{"android":"levelo://app?vid=dc8ccdc9-a018-4504-b0a9-676297905591","ios":"levelo://app?vid=dc8ccdc9-a018-4504-b0a9-676297905591"},"vehicle_type_id":"4","last_reported":1743084580,"current_range_meters":8000,"station_id":"","pricing_plan_id":"cebpf4jnsgd1na2vs0mg"},{"bike_id":"5028a8b8-9012-4212-9e64-e7392f0d5d5b","system_id":"levelo_inurba_marseille","lat":43.30919,"lon":5.36854,"is_reserved":false,"is_disabled":false,"rental_uris":{"android":"levelo://app?vid=5028a8b8-9012-4212-9e64-e7392f0d5d5b","ios":"levelo://app?vid=5028a8b8-9012-4212-9e64-e7392f0d5d5b"},"vehicle_type_id":"4","last_reported":1743084580,"current_range_meters":8000,"station_id":"ce4bgn92rcd13ifvqbvg","pricing_plan_id":"cebpf4jnsgd1na2vs0mg"},{"bike_id":"1bdb47d8-a4c7-4118-bdaf-4834ca1aaf27","system_id":"levelo_inurba_marseille","lat":43.30553,"lon":5.36532,"is_reserved":false,"is_disabled":false,"rental_uris":{"android":"levelo://app?vid=1bdb47d8-a4c7-4118-bdaf-4834ca1aaf27","ios":"levelo://app?vid=1bdb47d8-a4c7-4118-bdaf-4834ca1aaf27"},"vehicle_type_id":"4","last_reported":1743084580,"current_range_meters":8000,"station_id":"ce4bgs12rcd13ifvqcag","pricing_plan_id":"cebpf4jnsgd1na2vs0mg"},{"bike_id":"12ba5eeb-f0fa-4486-a4c9-56508bca0119","system_id":"levelo_inurba_marseille","lat":43.305623,"lon":5.365448,"is_reserved":false,"is_disabled":false,"rental_uris":{"android":"levelo://app?vid=12ba5eeb-f0fa-4486-a4c9-56508bca0119","ios":"levelo://app?vid=12ba5eeb-f0fa-4486-a4c9-56508bca0119"},"vehicle_type_id":"4","last_reported":1743084580,"current_range_meters":8000,"station_id":"ce4bgs12rcd13ifvqcag","pricing_plan_id":"cebpf4jnsgd1na2vs0mg"},{"bike_id":"edce3d10-9e67-4307-b38a-0d783376232d","system_id":"levelo_inurba_marseille","lat":43.28711,"lon":5.37905,"is_reserved":false,"is_disabled":false,"rental_uris":{"android":"levelo://app?vid=edce3d10-9e67-4307-b38a-0d783376232d","ios":"levelo://app?vid=edce3d10-9e67-4307-b38a-0d783376232d"},"vehicle_type_id":"4","last_reported":1743084580,"current_range_meters":8000,"station_id":"ce4bh9p2rcd13ifvqec0","pricing_plan_id":"cebpf4jnsgd1na2vs0mg"},{"bike_id":"586f0775-f3c8-4d7f-b5fd-76805e6871fd","system_id":"levelo_inurba_marseille","lat":43.28418,"lon":5.34985,"is_reserved":false,"is_disabled":false,"rental_uris":{"android":"levelo://app?vid=586f0775-f3c8-4d7f-b5fd-76805e6871fd","ios":"levelo://app?vid=586f0775-f3c8-4d7f-b5fd-76805e6871fd"},"vehicle_type_id":"4","last_reported":1743084580,"current_range_meters":8000,"station_id":"ce4bhbh2rcd13ifvqepg","pricing_plan_id":"cebpf4jnsgd1na2vs0mg"},{"bike_id":"c16e847d-9004-4d45-a068-68d22f10083e","system_id":"levelo_inurba_marseille","lat":43.28267,"lon":5.35064,"is_reserved":false,"is_disabled":false,"rental_uris":{"android":"levelo://app?vid=c16e847d-9004-4d45-a068-68d22f10083e","ios":"levelo://app?vid=c16e847d-9004-4d45-a068-68d22f10083e"},"vehicle_type_id":"4","last_reported":1743084580,"current_range_meters":8000,"station_id":"ce4bhbp2rcd13ifvqerg","pricing_plan_id":"cebpf4jnsgd1na2vs0mg"},{"bike_id":"14da4bda-c361-4435-a31e-e43c10b985b7","system_id":"levelo_inurba_marseille","lat":43.28265,"lon":5.35067,"is_reserved":false,"is_disabled":false,"rental_uris":{"android":"levelo://app?vid=14da4bda-c361-4435-a31e-e43c10b985b7","ios":"levelo://app?vid=14da4bda-c361-4435-a31e-e43c10b985b7"},"vehicle_type_id":"4","last_reported":1743084580,"current_range_meters":8000,"station_id":"ce4bhbp2rcd13ifvqerg","pricing_plan_id":"cebpf4jnsgd1na2vs0mg"},{"bike_id":"effdf418-28fa-471f-9d26-3185d0c71267","system_id":"levelo_inurba_marseille","lat":43.25114,"lon":5.4033,"is_reserved":false,"is_disabled":false,"rental_uris":{"android":"levelo://app?vid=effdf418-28fa-471f-9d26-3185d0c71267","ios":"levelo://app?vid=effdf418-28fa-471f-9d26-3185d0c71267"},"vehicle_type_id":"4","last_reported":1743084580,"current_range_meters":8000,"station_id":"ce4bhlh2rcd13ifvqgig","pricing_plan_id":"cebpf4jnsgd1na2vs0mg"},{"bike_id":"9b0db4f1-c6a1-4ca7-86c5-ec1daffe0ea2","system_id":"levelo_inurba_marseille","lat":43.25093,"lon":5.39519,"is_reserved":false,"is_disabled":false,"rental_uris":{"android":"levelo://app?vid=9b0db4f1-c6a1-4ca7-86c5-ec1daffe0ea2","ios":"levelo://app?vid=9b0db4f1-c6a1-4ca7-86c5-ec1daffe0ea2"},"vehicle_type_id":"4","last_reported":1743084580,"current_range_meters":8000,"station_id":"ce4bhm12rcd13ifvqgkg","pricing_plan_id":"cebpf4jnsgd1na2vs0mg"},{"bike_id":"1b543932-d5d1-46d8-8c50-5e82d73320ed","system_id":"levelo_inurba_marseille","lat":43.23148,"lon":5.43736,"is_reserved":false,"is_disabled":false,"rental_uris":{"android":"levelo://app?vid=1b543932-d5d1-46d8-8c50-5e82d73320ed","ios":"levelo://app?vid=1b543932-d5d1-46d8-8c50-5e82d73320ed"},"vehicle_type_id":"4","last_reported":1743084580,"current_range_meters":8000,"station_id":"ce4bhmp2rcd13ifvqgog","pricing_plan_id":"cebpf4jnsgd1na2vs0mg"},{"bike_id":"49b3eaf0-ad58-4b80-8a90-e3f9df0c3ebe","system_id":"levelo_inurba_marseille","lat":43.28156,"lon":5.42639,"is_reserved":false,"is_disabled":false,"rental_uris":{"android":"levelo://app?vid=49b3eaf0-ad58-4b80-8a90-e3f9df0c3ebe","ios":"levelo://app?vid=49b3eaf0-ad58-4b80-8a90-e3f9df0c3ebe"},"vehicle_type_id":"4","last_reported":1743084580,"current_range_meters":8000,"station_id":"ce4bhnh2rcd13ifvqgug","pricing_plan_id":"cebpf4jnsgd1na2vs0mg"},{"bike_id":"fac85444-a50b-40f4-9b8b-e2c7a754f786","system_id":"levelo_inurba_marseille","lat":43.22936,"lon":5.35382,"is_reserved":false,"is_disabled":false,"rental_uris":{"android":"levelo://app?vid=fac85444-a50b-40f4-9b8b-e2c7a754f786","ios":"levelo://app?vid=fac85444-a50b-40f4-9b8b-e2c7a754f786"},"vehicle_type_id":"4","last_reported":1743084580,"current_range_meters":8000,"station_id":"cpo3532slgdg3j2ikp40","pricing_plan_id":"cebpf4jnsgd1na2vs0mg"},{"bike_id":"00d4b1fc-b9e3-4d51-ae94-335ca22166c0","system_id":"levelo_inurba_marseille","lat":43.30154,"lon":5.38079,"is_reserved":false,"is_disabled":false,"rental_uris":{"android":"levelo://app?vid=00d4b1fc-b9e3-4d51-ae94-335ca22166c0","ios":"levelo://app?vid=00d4b1fc-b9e3-4d51-ae94-335ca22166c0"},"vehicle_type_id":"4","last_reported":1743084580,"current_range_meters":8400,"station_id":"ce4bgjp2rcd13ifvqbh0","pricing_plan_id":"cebpf4jnsgd1na2vs0mg"},{"bike_id":"18460cf5-915d-48eb-8bb6-4a7b73794a0c","system_id":"levelo_inurba_marseille","lat":43.31229,"lon":5.3687,"is_reserved":false,"is_disabled":false,"rental_uris":{"android":"levelo://app?vid=18460cf5-915d-48eb-8bb6-4a7b73794a0c","ios":"levelo://app?vid=18460cf5-915d-48eb-8bb6-4a7b73794a0c"},"vehicle_type_id":"4","last_reported":1743084580,"current_range_meters":8400,"station_id":"ce4bgl92rcd13ifvqbq0","pricing_plan_id":"cebpf4jnsgd1na2vs0mg"},{"bike_id":"e6160a0d-2401-43c2-a235-d43441e0acae","system_id":"levelo_inurba_marseille","lat":43.288802,"lon":5.360111,"is_reserved":false,"is_disabled":false,"rental_uris":{"android":"levelo://app?vid=e6160a0d-2401-43c2-a235-d43441e0acae","ios":"levelo://app?vid=e6160a0d-2401-43c2-a235-d43441e0acae"},"vehicle_type_id":"4","last_reported":1743084580,"current_range_meters":8400,"station_id":"ce4bhb12rcd13ifvqem0","pricing_plan_id":"cebpf4jnsgd1na2vs0mg"},{"bike_id":"67ca4c93-6d7b-4022-a751-ce3304d96e67","system_id":"levelo_inurba_marseille","lat":43.28271,"lon":5.35061,"is_reserved":false,"is_disabled":false,"rental_uris":{"android":"levelo://app?vid=67ca4c93-6d7b-4022-a751-ce3304d96e67","ios":"levelo://app?vid=67ca4c93-6d7b-4022-a751-ce3304d96e67"},"vehicle_type_id":"4","last_reported":1743084580,"current_range_meters":8400,"station_id":"ce4bhbp2rcd13ifvqerg","pricing_plan_id":"cebpf4jnsgd1na2vs0mg"},{"bike_id":"813f18ed-22bd-46a4-bbbd-1a4b45fcd91d","system_id":"levelo_inurba_marseille","lat":43.27932,"lon":5.396,"is_reserved":false,"is_disabled":false,"rental_uris":{"android":"levelo://app?vid=813f18ed-22bd-46a4-bbbd-1a4b45fcd91d","ios":"levelo://app?vid=813f18ed-22bd-46a4-bbbd-1a4b45fcd91d"},"vehicle_type_id":"4","last_reported":1743084580,"current_range_meters":8400,"station_id":"ce4bhf92rcd13ifvqf40","pricing_plan_id":"cebpf4jnsgd1na2vs0mg"},{"bike_id":"97bf1f31-0d04-46cb-a58e-3281b1dad2be","system_id":"levelo_inurba_marseille","lat":43.272059,"lon":5.391883,"is_reserved":false,"is_disabled":false,"rental_uris":{"android":"levelo://app?vid=97bf1f31-0d04-46cb-a58e-3281b1dad2be","ios":"levelo://app?vid=97bf1f31-0d04-46cb-a58e-3281b1dad2be"},"vehicle_type_id":"4","last_reported":1743084580,"current_range_meters":8400,"station_id":"ce4bhhp2rcd13ifvqfm0","pricing_plan_id":"cebpf4jnsgd1na2vs0mg"},{"bike_id":"936b5da0-a4f3-4086-80ad-dad75d8a5f9b","system_id":"levelo_inurba_marseille","lat":43.278403,"lon":5.392152,"is_reserved":false,"is_disabled":false,"rental_uris":{"android":"levelo://app?vid=936b5da0-a4f3-4086-80ad-dad75d8a5f9b","ios":"levelo://app?vid=936b5da0-a4f3-4086-80ad-dad75d8a5f9b"},"vehicle_type_id":"4","last_reported":1743084580,"current_range_meters":8400,"station_id":"ce4bhjp2rcd13ifvqga0","pricing_plan_id":"cebpf4jnsgd1na2vs0mg"},{"bike_id":"7813f42a-8d11-4b2a-b077-be9650363461","system_id":"levelo_inurba_marseille","lat":43.2316,"lon":5.43702,"is_reserved":false,"is_disabled":false,"rental_uris":{"android":"levelo://app?vid=7813f42a-8d11-4b2a-b077-be9650363461","ios":"levelo://app?vid=7813f42a-8d11-4b2a-b077-be9650363461"},"vehicle_type_id":"4","last_reported":1743084580,"current_range_meters":8400,"station_id":"ce4bhmp2rcd13ifvqgog","pricing_plan_id":"cebpf4jnsgd1na2vs0mg"},{"bike_id":"629dc58e-f1fa-4c78-b496-582f20ae1d69","system_id":"levelo_inurba_marseille","lat":43.23148,"lon":5.43719,"is_reserved":false,"is_disabled":false,"rental_uris":{"android":"levelo://app?vid=629dc58e-f1fa-4c78-b496-582f20ae1d69","ios":"levelo://app?vid=629dc58e-f1fa-4c78-b496-582f20ae1d69"},"vehicle_type_id":"4","last_reported":1743084580,"current_range_meters":8400,"station_id":"ce4bhmp2rcd13ifvqgog","pricing_plan_id":"cebpf4jnsgd1na2vs0mg"},{"bike_id":"409d9c1a-9091-4819-af78-8e2ce37d6649","system_id":"levelo_inurba_marseille","lat":43.2781,"lon":5.40715,"is_reserved":false,"is_disabled":false,"rental_uris":{"android":"levelo://app?vid=409d9c1a-9091-4819-af78-8e2ce37d6649","ios":"levelo://app?vid=409d9c1a-9091-4819-af78-8e2ce37d6649"},"vehicle_type_id":"4","last_reported":1743084580,"current_range_meters":8400,"station_id":"ce4bhnh2rcd13ifvqgtg","pricing_plan_id":"cebpf4jnsgd1na2vs0mg"},{"bike_id":"25f5ae66-9bed-4bb5-9e41-64fcd661e193","system_id":"levelo_inurba_marseille","lat":43.3126,"lon":5.36867,"is_reserved":false,"is_disabled":false,"rental_uris":{"android":"levelo://app?vid=25f5ae66-9bed-4bb5-9e41-64fcd661e193","ios":"levelo://app?vid=25f5ae66-9bed-4bb5-9e41-64fcd661e193"},"vehicle_type_id":"4","last_reported":1743084580,"current_range_meters":8800,"station_id":"ce4bgl92rcd13ifvqbq0","pricing_plan_id":"cebpf4jnsgd1na2vs0mg"},{"bike_id":"5878fffe-7548-44e5-acbc-42a696d8fe65","system_id":"levelo_inurba_marseille","lat":43.308,"lon":5.38156,"is_reserved":false,"is_disabled":false,"rental_uris":{"android":"levelo://app?vid=5878fffe-7548-44e5-acbc-42a696d8fe65","ios":"levelo://app?vid=5878fffe-7548-44e5-acbc-42a696d8fe65"},"vehicle_type_id":"4","last_reported":1743084580,"current_range_meters":8800,"station_id":"ce4bgt12rcd13ifvqce0","pricing_plan_id":"cebpf4jnsgd1na2vs0mg"},{"bike_id":"54cfd3f4-3a63-4e76-a676-cf05502379e8","system_id":"levelo_inurba_marseille","lat":43.27371,"lon":5.36266,"is_reserved":false,"is_disabled":false,"rental_uris":{"android":"levelo://app?vid=54cfd3f4-3a63-4e76-a676-cf05502379e8","ios":"levelo://app?vid=54cfd3f4-3a63-4e76-a676-cf05502379e8"},"vehicle_type_id":"4","last_reported":1743084580,"current_range_meters":8800,"station_id":"ce4bhbh2rcd13ifvqeo0","pricing_plan_id":"cebpf4jnsgd1na2vs0mg"},{"bike_id":"99122cd7-e025-4329-991d-c2d464c73009","system_id":"levelo_inurba_marseille","lat":43.28267,"lon":5.35074,"is_reserved":false,"is_disabled":false,"rental_uris":{"android":"levelo://app?vid=99122cd7-e025-4329-991d-c2d464c73009","ios":"levelo://app?vid=99122cd7-e025-4329-991d-c2d464c73009"},"vehicle_type_id":"4","last_reported":1743084580,"current_range_meters":8800,"station_id":"ce4bhbp2rcd13ifvqerg","pricing_plan_id":"cebpf4jnsgd1na2vs0mg"},{"bike_id":"ff379a4f-b8f4-474c-94ec-a27a236d7bff","system_id":"levelo_inurba_marseille","lat":43.28264,"lon":5.35068,"is_reserved":false,"is_disabled":false,"rental_uris":{"android":"levelo://app?vid=ff379a4f-b8f4-474c-94ec-a27a236d7bff","ios":"levelo://app?vid=ff379a4f-b8f4-474c-94ec-a27a236d7bff"},"vehicle_type_id":"4","last_reported":1743084580,"current_range_meters":8800,"station_id":"ce4bhbp2rcd13ifvqerg","pricing_plan_id":"cebpf4jnsgd1na2vs0mg"},{"bike_id":"1f6d4f18-ea25-4fe5-be8d-fe30c3d20869","system_id":"levelo_inurba_marseille","lat":43.24392,"lon":5.37056,"is_reserved":false,"is_disabled":false,"rental_uris":{"android":"levelo://app?vid=1f6d4f18-ea25-4fe5-be8d-fe30c3d20869","ios":"levelo://app?vid=1f6d4f18-ea25-4fe5-be8d-fe30c3d20869"},"vehicle_type_id":"4","last_reported":1743084580,"current_range_meters":8800,"station_id":"ce4bhhh2rcd13ifvqfk0","pricing_plan_id":"cebpf4jnsgd1na2vs0mg"},{"bike_id":"34caa1c1-8e11-41a1-bc2a-f9d56610b910","system_id":"levelo_inurba_marseille","lat":43.264978,"lon":5.395347,"is_reserved":false,"is_disabled":false,"rental_uris":{"android":"levelo://app?vid=34caa1c1-8e11-41a1-bc2a-f9d56610b910","ios":"levelo://app?vid=34caa1c1-8e11-41a1-bc2a-f9d56610b910"},"vehicle_type_id":"4","last_reported":1743084580,"current_range_meters":8800,"station_id":"ce4bhi12rcd13ifvqfq0","pricing_plan_id":"cebpf4jnsgd1na2vs0mg"},{"bike_id":"5cd41ede-1055-43ba-aa48-e30641c512a4","system_id":"levelo_inurba_marseille","lat":43.24083,"lon":5.37777,"is_reserved":false,"is_disabled":false,"rental_uris":{"android":"levelo://app?vid=5cd41ede-1055-43ba-aa48-e30641c512a4","ios":"levelo://app?vid=5cd41ede-1055-43ba-aa48-e30641c512a4"},"vehicle_type_id":"4","last_reported":1743084580,"current_range_meters":8800,"station_id":"ce4bhnp2rcd13ifvqgvg","pricing_plan_id":"cebpf4jnsgd1na2vs0mg"},{"bike_id":"338750b4-f5f3-4dde-8238-635ab9277b6d","system_id":"levelo_inurba_marseille","lat":43.28157,"lon":5.42648,"is_reserved":false,"is_disabled":false,"rental_uris":{"android":"levelo://app?vid=338750b4-f5f3-4dde-8238-635ab9277b6d","ios":"levelo://app?vid=338750b4-f5f3-4dde-8238-635ab9277b6d"},"vehicle_type_id":"4","last_reported":1743084580,"current_range_meters":9200,"station_id":"","pricing_plan_id":"cebpf4jnsgd1na2vs0mg"},{"bike_id":"6edd2bd2-72b1-4887-ba49-954167f3d056","system_id":"levelo_inurba_marseille","lat":43.28415,"lon":5.37524,"is_reserved":false,"is_disabled":false,"rental_uris":{"android":"levelo://app?vid=6edd2bd2-72b1-4887-ba49-954167f3d056","ios":"levelo://app?vid=6edd2bd2-72b1-4887-ba49-954167f3d056"},"vehicle_type_id":"4","last_reported":1743084580,"current_range_meters":9200,"station_id":"ce4bh412rcd13ifvqds0","pricing_plan_id":"cebpf4jnsgd1na2vs0mg"},{"bike_id":"fdf21363-9ac8-4be3-a7a8-8ae1b7a4ebba","system_id":"levelo_inurba_marseille","lat":43.29257,"lon":5.38446,"is_reserved":false,"is_disabled":false,"rental_uris":{"android":"levelo://app?vid=fdf21363-9ac8-4be3-a7a8-8ae1b7a4ebba","ios":"levelo://app?vid=fdf21363-9ac8-4be3-a7a8-8ae1b7a4ebba"},"vehicle_type_id":"4","last_reported":1743084580,"current_range_meters":9200,"station_id":"ce4bh692rcd13ifvqea0","pricing_plan_id":"cebpf4jnsgd1na2vs0mg"},{"bike_id":"83c296a3-74a2-4498-8955-12ede1464fc5","system_id":"levelo_inurba_marseille","lat":43.27376,"lon":5.36258,"is_reserved":false,"is_disabled":false,"rental_uris":{"android":"levelo://app?vid=83c296a3-74a2-4498-8955-12ede1464fc5","ios":"levelo://app?vid=83c296a3-74a2-4498-8955-12ede1464fc5"},"vehicle_type_id":"4","last_reported":1743084580,"current_range_meters":9200,"station_id":"ce4bhbh2rcd13ifvqeo0","pricing_plan_id":"cebpf4jnsgd1na2vs0mg"},{"bike_id":"a0aa2b66-8d81-4f41-ae27-5d11fde4f918","system_id":"levelo_inurba_marseille","lat":43.28411,"lon":5.34977,"is_reserved":false,"is_disabled":false,"rental_uris":{"android":"levelo://app?vid=a0aa2b66-8d81-4f41-ae27-5d11fde4f918","ios":"levelo://app?vid=a0aa2b66-8d81-4f41-ae27-5d11fde4f918"},"vehicle_type_id":"4","last_reported":1743084580,"current_range_meters":9200,"station_id":"ce4bhbh2rcd13ifvqepg","pricing_plan_id":"cebpf4jnsgd1na2vs0mg"},{"bike_id":"2f9176ec-6cfc-4731-a30f-1b9add93dd05","system_id":"levelo_inurba_marseille","lat":43.27823,"lon":5.40715,"is_reserved":false,"is_disabled":false,"rental_uris":{"android":"levelo://app?vid=2f9176ec-6cfc-4731-a30f-1b9add93dd05","ios":"levelo://app?vid=2f9176ec-6cfc-4731-a30f-1b9add93dd05"},"vehicle_type_id":"4","last_reported":1743084580,"current_range_meters":9200,"station_id":"ce4bhnh2rcd13ifvqgtg","pricing_plan_id":"cebpf4jnsgd1na2vs0mg"},{"bike_id":"1b43fc25-3ea0-48b3-af2c-a67610b49dc2","system_id":"levelo_inurba_marseille","lat":43.31392,"lon":5.36747,"is_reserved":false,"is_disabled":false,"rental_uris":{"android":"levelo://app?vid=1b43fc25-3ea0-48b3-af2c-a67610b49dc2","ios":"levelo://app?vid=1b43fc25-3ea0-48b3-af2c-a67610b49dc2"},"vehicle_type_id":"4","last_reported":1743084580,"current_range_meters":9600,"station_id":"","pricing_plan_id":"cebpf4jnsgd1na2vs0mg"},{"bike_id":"f67f98a3-54a8-47d6-b2ff-11adab6ff5d2","system_id":"levelo_inurba_marseille","lat":43.31222,"lon":5.36867,"is_reserved":false,"is_disabled":false,"rental_uris":{"android":"levelo://app?vid=f67f98a3-54a8-47d6-b2ff-11adab6ff5d2","ios":"levelo://app?vid=f67f98a3-54a8-47d6-b2ff-11adab6ff5d2"},"vehicle_type_id":"4","last_reported":1743084580,"current_range_meters":9600,"station_id":"ce4bgl92rcd13ifvqbq0","pricing_plan_id":"cebpf4jnsgd1na2vs0mg"},{"bike_id":"7d230f0c-819a-4ef9-8fda-3cbcb02bf8d7","system_id":"levelo_inurba_marseille","lat":43.30591,"lon":5.36518,"is_reserved":false,"is_disabled":false,"rental_uris":{"android":"levelo://app?vid=7d230f0c-819a-4ef9-8fda-3cbcb02bf8d7","ios":"levelo://app?vid=7d230f0c-819a-4ef9-8fda-3cbcb02bf8d7"},"vehicle_type_id":"4","last_reported":1743084580,"current_range_meters":9600,"station_id":"ce4bgs12rcd13ifvqcag","pricing_plan_id":"cebpf4jnsgd1na2vs0mg"},{"bike_id":"e2d85809-0c95-461d-bf43-b58e61b7d9ff","system_id":"levelo_inurba_marseille","lat":43.30564,"lon":5.36546,"is_reserved":false,"is_disabled":false,"rental_uris":{"android":"levelo://app?vid=e2d85809-0c95-461d-bf43-b58e61b7d9ff","ios":"levelo://app?vid=e2d85809-0c95-461d-bf43-b58e61b7d9ff"},"vehicle_type_id":"4","last_reported":1743084580,"current_range_meters":9600,"station_id":"ce4bgs12rcd13ifvqcag","pricing_plan_id":"cebpf4jnsgd1na2vs0mg"},{"bike_id":"8df4227f-6e39-49ce-9e71-16591882dfe9","system_id":"levelo_inurba_marseille","lat":43.30472,"lon":5.37906,"is_reserved":false,"is_disabled":false,"rental_uris":{"android":"levelo://app?vid=8df4227f-6e39-49ce-9e71-16591882dfe9","ios":"levelo://app?vid=8df4227f-6e39-49ce-9e71-16591882dfe9"},"vehicle_type_id":"4","last_reported":1743084580,"current_range_meters":9600,"station_id":"ce4bgup2rcd13ifvqcn0","pricing_plan_id":"cebpf4jnsgd1na2vs0mg"},{"bike_id":"43b37bdd-479c-4f68-a412-d5dd1e6fc09c","system_id":"levelo_inurba_marseille","lat":43.28974,"lon":5.37833,"is_reserved":false,"is_disabled":false,"rental_uris":{"android":"levelo://app?vid=43b37bdd-479c-4f68-a412-d5dd1e6fc09c","ios":"levelo://app?vid=43b37bdd-479c-4f68-a412-d5dd1e6fc09c"},"vehicle_type_id":"4","last_reported":1743084580,"current_range_meters":9600,"station_id":"ce4bh9p2rcd13ifvqed0","pricing_plan_id":"cebpf4jnsgd1na2vs0mg"},{"bike_id":"d78bef9c-ed08-4dd3-be8c-89d87f9036be","system_id":"levelo_inurba_marseille","lat":43.2843,"lon":5.34994,"is_reserved":false,"is_disabled":false,"rental_uris":{"android":"levelo://app?vid=d78bef9c-ed08-4dd3-be8c-89d87f9036be","ios":"levelo://app?vid=d78bef9c-ed08-4dd3-be8c-89d87f9036be"},"vehicle_type_id":"4","last_reported":1743084580,"current_range_meters":9600,"station_id":"ce4bhbh2rcd13ifvqepg","pricing_plan_id":"cebpf4jnsgd1na2vs0mg"},{"bike_id":"4abd9af2-5f98-4b47-b1ae-766df2d1c200","system_id":"levelo_inurba_marseille","lat":43.28619,"lon":5.35111,"is_reserved":false,"is_disabled":false,"rental_uris":{"android":"levelo://app?vid=4abd9af2-5f98-4b47-b1ae-766df2d1c200","ios":"levelo://app?vid=4abd9af2-5f98-4b47-b1ae-766df2d1c200"},"vehicle_type_id":"4","last_reported":1743084580,"current_range_meters":9600,"station_id":"ce4bhch2rcd13ifvqeug","pricing_plan_id":"cebpf4jnsgd1na2vs0mg"},{"bike_id":"f8a5e80a-07e7-47f3-bfaf-ffc91ab4dc2c","system_id":"levelo_inurba_marseille","lat":43.26961,"lon":5.38625,"is_reserved":false,"is_disabled":false,"rental_uris":{"android":"levelo://app?vid=f8a5e80a-07e7-47f3-bfaf-ffc91ab4dc2c","ios":"levelo://app?vid=f8a5e80a-07e7-47f3-bfaf-ffc91ab4dc2c"},"vehicle_type_id":"4","last_reported":1743084580,"current_range_meters":9600,"station_id":"ce4bhh92rcd13ifvqfh0","pricing_plan_id":"cebpf4jnsgd1na2vs0mg"},{"bike_id":"1c10fa61-6b4d-46b3-b34b-1e0ab4cb2fcd","system_id":"levelo_inurba_marseille","lat":43.26236,"lon":5.40464,"is_reserved":false,"is_disabled":false,"rental_uris":{"android":"levelo://app?vid=1c10fa61-6b4d-46b3-b34b-1e0ab4cb2fcd","ios":"levelo://app?vid=1c10fa61-6b4d-46b3-b34b-1e0ab4cb2fcd"},"vehicle_type_id":"4","last_reported":1743084580,"current_range_meters":9600,"station_id":"ce4bhmh2rcd13ifvqgmg","pricing_plan_id":"cebpf4jnsgd1na2vs0mg"},{"bike_id":"0a5fbe17-09e7-4568-83ad-36886fbbc522","system_id":"levelo_inurba_marseille","lat":43.24078,"lon":5.37755,"is_reserved":false,"is_disabled":false,"rental_uris":{"android":"levelo://app?vid=0a5fbe17-09e7-4568-83ad-36886fbbc522","ios":"levelo://app?vid=0a5fbe17-09e7-4568-83ad-36886fbbc522"},"vehicle_type_id":"4","last_reported":1743084580,"current_range_meters":9600,"station_id":"ce4bhnp2rcd13ifvqgvg","pricing_plan_id":"cebpf4jnsgd1na2vs0mg"},{"bike_id":"c18155db-65c7-4d5a-8c5b-923eb75c675d","system_id":"levelo_inurba_marseille","lat":43.32108,"lon":5.36787,"is_reserved":false,"is_disabled":false,"rental_uris":{"android":"levelo://app?vid=c18155db-65c7-4d5a-8c5b-923eb75c675d","ios":"levelo://app?vid=c18155db-65c7-4d5a-8c5b-923eb75c675d"},"vehicle_type_id":"4","last_reported":1743084580,"current_range_meters":9600,"station_id":"ce4bhrh2rcd13ifvqhug","pricing_plan_id":"cebpf4jnsgd1na2vs0mg"},{"bike_id":"2b4b8fef-95a7-48bd-b9be-914fb24212e3","system_id":"levelo_inurba_marseille","lat":43.29794,"lon":5.38109,"is_reserved":false,"is_disabled":false,"rental_uris":{"android":"levelo://app?vid=2b4b8fef-95a7-48bd-b9be-914fb24212e3","ios":"levelo://app?vid=2b4b8fef-95a7-48bd-b9be-914fb24212e3"},"vehicle_type_id":"4","last_reported":1743084580,"current_range_meters":10000,"station_id":"ce4bgip2rcd13ifvqbb0","pricing_plan_id":"cebpf4jnsgd1na2vs0mg"},{"bike_id":"a59617b2-b27e-4d17-a012-51f58ec58414","system_id":"levelo_inurba_marseille","lat":43.2971,"lon":5.37705,"is_reserved":false,"is_disabled":false,"rental_uris":{"android":"levelo://app?vid=a59617b2-b27e-4d17-a012-51f58ec58414","ios":"levelo://app?vid=a59617b2-b27e-4d17-a012-51f58ec58414"},"vehicle_type_id":"4","last_reported":1743084580,"current_range_meters":10000,"station_id":"ce4bgkh2rcd13ifvqbl0","pricing_plan_id":"cebpf4jnsgd1na2vs0mg"},{"bike_id":"0800d7c5-49b7-44bb-bf91-db959408c16f","system_id":"levelo_inurba_marseille","lat":43.28413,"lon":5.37519,"is_reserved":false,"is_disabled":false,"rental_uris":{"android":"levelo://app?vid=0800d7c5-49b7-44bb-bf91-db959408c16f","ios":"levelo://app?vid=0800d7c5-49b7-44bb-bf91-db959408c16f"},"vehicle_type_id":"4","last_reported":1743084580,"current_range_meters":10000,"station_id":"ce4bh412rcd13ifvqds0","pricing_plan_id":"cebpf4jnsgd1na2vs0mg"},{"bike_id":"1c21b756-e036-4348-8b3e-23fd217ddfa2","system_id":"levelo_inurba_marseille","lat":43.26944,"lon":5.38642,"is_reserved":false,"is_disabled":false,"rental_uris":{"android":"levelo://app?vid=1c21b756-e036-4348-8b3e-23fd217ddfa2","ios":"levelo://app?vid=1c21b756-e036-4348-8b3e-23fd217ddfa2"},"vehicle_type_id":"4","last_reported":1743084580,"current_range_meters":10000,"station_id":"ce4bhh92rcd13ifvqfh0","pricing_plan_id":"cebpf4jnsgd1na2vs0mg"},{"bike_id":"b7df044c-a420-415e-b7b7-345aa8eb07fc","system_id":"levelo_inurba_marseille","lat":43.31842,"lon":5.38728,"is_reserved":false,"is_disabled":false,"rental_uris":{"android":"levelo://app?vid=b7df044c-a420-415e-b7b7-345aa8eb07fc","ios":"levelo://app?vid=b7df044c-a420-415e-b7b7-345aa8eb07fc"},"vehicle_type_id":"4","last_reported":1743084580,"current_range_meters":10800,"station_id":"","pricing_plan_id":"cebpf4jnsgd1na2vs0mg"},{"bike_id":"e13796b3-7802-48d3-a160-30a831410612","system_id":"levelo_inurba_marseille","lat":43.309083,"lon":5.36856,"is_reserved":false,"is_disabled":false,"rental_uris":{"android":"levelo://app?vid=e13796b3-7802-48d3-a160-30a831410612","ios":"levelo://app?vid=e13796b3-7802-48d3-a160-30a831410612"},"vehicle_type_id":"4","last_reported":1743084580,"current_range_meters":10800,"station_id":"ce4bgn92rcd13ifvqbvg","pricing_plan_id":"cebpf4jnsgd1na2vs0mg"},{"bike_id":"0babef85-e197-4320-9f84-3786439eec8c","system_id":"levelo_inurba_marseille","lat":43.28675,"lon":5.38663,"is_reserved":false,"is_disabled":false,"rental_uris":{"android":"levelo://app?vid=0babef85-e197-4320-9f84-3786439eec8c","ios":"levelo://app?vid=0babef85-e197-4320-9f84-3786439eec8c"},"vehicle_type_id":"4","last_reported":1743084580,"current_range_meters":10800,"station_id":"ce4bh492rcd13ifvqdug","pricing_plan_id":"cebpf4jnsgd1na2vs0mg"},{"bike_id":"a2ff9691-06bf-45e4-92a4-a9ea5f6b7bb3","system_id":"levelo_inurba_marseille","lat":43.28267,"lon":5.35067,"is_reserved":false,"is_disabled":false,"rental_uris":{"android":"levelo://app?vid=a2ff9691-06bf-45e4-92a4-a9ea5f6b7bb3","ios":"levelo://app?vid=a2ff9691-06bf-45e4-92a4-a9ea5f6b7bb3"},"vehicle_type_id":"4","last_reported":1743084580,"current_range_meters":10800,"station_id":"ce4bhbp2rcd13ifvqerg","pricing_plan_id":"cebpf4jnsgd1na2vs0mg"},{"bike_id":"51e827e3-0a1b-4c8f-a929-0e05b6eb028b","system_id":"levelo_inurba_marseille","lat":43.27959,"lon":5.38695,"is_reserved":false,"is_disabled":false,"rental_uris":{"android":"levelo://app?vid=51e827e3-0a1b-4c8f-a929-0e05b6eb028b","ios":"levelo://app?vid=51e827e3-0a1b-4c8f-a929-0e05b6eb028b"},"vehicle_type_id":"4","last_reported":1743084580,"current_range_meters":10800,"station_id":"ce4bhg12rcd13ifvqf80","pricing_plan_id":"cebpf4jnsgd1na2vs0mg"},{"bike_id":"29eaf88a-ce36-43eb-9819-242b3ace0304","system_id":"levelo_inurba_marseille","lat":43.26489,"lon":5.39543,"is_reserved":false,"is_disabled":false,"rental_uris":{"android":"levelo://app?vid=29eaf88a-ce36-43eb-9819-242b3ace0304","ios":"levelo://app?vid=29eaf88a-ce36-43eb-9819-242b3ace0304"},"vehicle_type_id":"4","last_reported":1743084580,"current_range_meters":10800,"station_id":"ce4bhi12rcd13ifvqfq0","pricing_plan_id":"cebpf4jnsgd1na2vs0mg"},{"bike_id":"3a9bdcca-abab-46db-a40a-336182c98f57","system_id":"levelo_inurba_marseille","lat":43.27818,"lon":5.40718,"is_reserved":false,"is_disabled":false,"rental_uris":{"android":"levelo://app?vid=3a9bdcca-abab-46db-a40a-336182c98f57","ios":"levelo://app?vid=3a9bdcca-abab-46db-a40a-336182c98f57"},"vehicle_type_id":"4","last_reported":1743084580,"current_range_meters":10800,"station_id":"ce4bhnh2rcd13ifvqgtg","pricing_plan_id":"cebpf4jnsgd1na2vs0mg"},{"bike_id":"dec478eb-2343-4d72-af0d-489f7015c36d","system_id":"levelo_inurba_marseille","lat":43.24074,"lon":5.37766,"is_reserved":false,"is_disabled":false,"rental_uris":{"android":"levelo://app?vid=dec478eb-2343-4d72-af0d-489f7015c36d","ios":"levelo://app?vid=dec478eb-2343-4d72-af0d-489f7015c36d"},"vehicle_type_id":"4","last_reported":1743084580,"current_range_meters":10800,"station_id":"ce4bhnp2rcd13ifvqgvg","pricing_plan_id":"cebpf4jnsgd1na2vs0mg"},{"bike_id":"dee19a89-a423-464a-9a44-df2825c63a05","system_id":"levelo_inurba_marseille","lat":43.24074,"lon":5.3774,"is_reserved":false,"is_disabled":false,"rental_uris":{"android":"levelo://app?vid=dee19a89-a423-464a-9a44-df2825c63a05","ios":"levelo://app?vid=dee19a89-a423-464a-9a44-df2825c63a05"},"vehicle_type_id":"4","last_reported":1743084580,"current_range_meters":10800,"station_id":"ce4bhnp2rcd13ifvqgvg","pricing_plan_id":"cebpf4jnsgd1na2vs0mg"},{"bike_id":"0ac88cdf-dd3a-494f-aaa5-2b24d1ce393f","system_id":"levelo_inurba_marseille","lat":43.23199,"lon":5.35557,"is_reserved":false,"is_disabled":false,"rental_uris":{"android":"levelo://app?vid=0ac88cdf-dd3a-494f-aaa5-2b24d1ce393f","ios":"levelo://app?vid=0ac88cdf-dd3a-494f-aaa5-2b24d1ce393f"},"vehicle_type_id":"4","last_reported":1743084580,"current_range_meters":10800,"station_id":"ce4bhu92rcd13ifvqi70","pricing_plan_id":"cebpf4jnsgd1na2vs0mg"},{"bike_id":"025425bb-1287-4df2-9401-0428a6e93f63","system_id":"levelo_inurba_marseille","lat":43.30915,"lon":5.36864,"is_reserved":false,"is_disabled":false,"rental_uris":{"android":"levelo://app?vid=025425bb-1287-4df2-9401-0428a6e93f63","ios":"levelo://app?vid=025425bb-1287-4df2-9401-0428a6e93f63"},"vehicle_type_id":"4","last_reported":1743084580,"current_range_meters":11200,"station_id":"ce4bgn92rcd13ifvqbvg","pricing_plan_id":"cebpf4jnsgd1na2vs0mg"},{"bike_id":"e52d9e43-7497-4d67-b32d-f3fbcd89e489","system_id":"levelo_inurba_marseille","lat":43.297577,"lon":5.380673,"is_reserved":false,"is_disabled":false,"rental_uris":{"android":"levelo://app?vid=e52d9e43-7497-4d67-b32d-f3fbcd89e489","ios":"levelo://app?vid=e52d9e43-7497-4d67-b32d-f3fbcd89e489"},"vehicle_type_id":"4","last_reported":1743084580,"current_range_meters":11200,"station_id":"ce4bh092rcd13ifvqd30","pricing_plan_id":"cebpf4jnsgd1na2vs0mg"},{"bike_id":"3fbe1556-8639-4440-98d0-ebb7bbf7790f","system_id":"levelo_inurba_marseille","lat":43.28259,"lon":5.35078,"is_reserved":false,"is_disabled":false,"rental_uris":{"android":"levelo://app?vid=3fbe1556-8639-4440-98d0-ebb7bbf7790f","ios":"levelo://app?vid=3fbe1556-8639-4440-98d0-ebb7bbf7790f"},"vehicle_type_id":"4","last_reported":1743084580,"current_range_meters":11200,"station_id":"ce4bhbp2rcd13ifvqerg","pricing_plan_id":"cebpf4jnsgd1na2vs0mg"},{"bike_id":"00f8a823-b5b1-4799-904b-6136ec63ab41","system_id":"levelo_inurba_marseille","lat":43.28621,"lon":5.35115,"is_reserved":false,"is_disabled":false,"rental_uris":{"android":"levelo://app?vid=00f8a823-b5b1-4799-904b-6136ec63ab41","ios":"levelo://app?vid=00f8a823-b5b1-4799-904b-6136ec63ab41"},"vehicle_type_id":"4","last_reported":1743084580,"current_range_meters":11200,"station_id":"ce4bhch2rcd13ifvqeug","pricing_plan_id":"cebpf4jnsgd1na2vs0mg"},{"bike_id":"f4fdf5e5-75c1-43d7-9e64-569cd129ff10","system_id":"levelo_inurba_marseille","lat":43.27904,"lon":5.38015,"is_reserved":false,"is_disabled":false,"rental_uris":{"android":"levelo://app?vid=f4fdf5e5-75c1-43d7-9e64-569cd129ff10","ios":"levelo://app?vid=f4fdf5e5-75c1-43d7-9e64-569cd129ff10"},"vehicle_type_id":"4","last_reported":1743084580,"current_range_meters":11200,"station_id":"ce4bhf92rcd13ifvqf50","pricing_plan_id":"cebpf4jnsgd1na2vs0mg"},{"bike_id":"2079e143-15fb-4fca-b428-1dcdbd2da2aa","system_id":"levelo_inurba_marseille","lat":43.27812,"lon":5.40713,"is_reserved":false,"is_disabled":false,"rental_uris":{"android":"levelo://app?vid=2079e143-15fb-4fca-b428-1dcdbd2da2aa","ios":"levelo://app?vid=2079e143-15fb-4fca-b428-1dcdbd2da2aa"},"vehicle_type_id":"4","last_reported":1743084580,"current_range_meters":11200,"station_id":"ce4bhnh2rcd13ifvqgtg","pricing_plan_id":"cebpf4jnsgd1na2vs0mg"},{"bike_id":"25c93242-72e6-4525-aea7-7d96e2cd1825","system_id":"levelo_inurba_marseille","lat":43.33062,"lon":5.40849,"is_reserved":false,"is_disabled":false,"rental_uris":{"android":"levelo://app?vid=25c93242-72e6-4525-aea7-7d96e2cd1825","ios":"levelo://app?vid=25c93242-72e6-4525-aea7-7d96e2cd1825"},"vehicle_type_id":"4","last_reported":1743084580,"current_range_meters":11600,"station_id":"","pricing_plan_id":"cebpf4jnsgd1na2vs0mg"},{"bike_id":"3d290f3b-e4f4-46ff-bb6d-65fa0034a269","system_id":"levelo_inurba_marseille","lat":43.31216,"lon":5.36876,"is_reserved":false,"is_disabled":false,"rental_uris":{"android":"levelo://app?vid=3d290f3b-e4f4-46ff-bb6d-65fa0034a269","ios":"levelo://app?vid=3d290f3b-e4f4-46ff-bb6d-65fa0034a269"},"vehicle_type_id":"4","last_reported":1743084580,"current_range_meters":11600,"station_id":"ce4bgl92rcd13ifvqbq0","pricing_plan_id":"cebpf4jnsgd1na2vs0mg"},{"bike_id":"9a15a95f-cf9b-4362-bb25-0b5170108c0a","system_id":"levelo_inurba_marseille","lat":43.30534,"lon":5.36558,"is_reserved":false,"is_disabled":false,"rental_uris":{"android":"levelo://app?vid=9a15a95f-cf9b-4362-bb25-0b5170108c0a","ios":"levelo://app?vid=9a15a95f-cf9b-4362-bb25-0b5170108c0a"},"vehicle_type_id":"4","last_reported":1743084580,"current_range_meters":11600,"station_id":"ce4bgs12rcd13ifvqcag","pricing_plan_id":"cebpf4jnsgd1na2vs0mg"},{"bike_id":"c699ef28-ff05-43a8-a0bd-f85589c57772","system_id":"levelo_inurba_marseille","lat":43.30135,"lon":5.37408,"is_reserved":false,"is_disabled":false,"rental_uris":{"android":"levelo://app?vid=c699ef28-ff05-43a8-a0bd-f85589c57772","ios":"levelo://app?vid=c699ef28-ff05-43a8-a0bd-f85589c57772"},"vehicle_type_id":"4","last_reported":1743084580,"current_range_meters":11600,"station_id":"ce4bgs92rcd13ifvqcc0","pricing_plan_id":"cebpf4jnsgd1na2vs0mg"},{"bike_id":"333b5426-8099-42e7-becc-a9cb23023f13","system_id":"levelo_inurba_marseille","lat":43.29005,"lon":5.35614,"is_reserved":false,"is_disabled":false,"rental_uris":{"android":"levelo://app?vid=333b5426-8099-42e7-becc-a9cb23023f13","ios":"levelo://app?vid=333b5426-8099-42e7-becc-a9cb23023f13"},"vehicle_type_id":"4","last_reported":1743084580,"current_range_meters":11600,"station_id":"ce4bhb92rcd13ifvqen0","pricing_plan_id":"cebpf4jnsgd1na2vs0mg"},{"bike_id":"12de2a5d-af1a-406f-ae29-1792c23b418c","system_id":"levelo_inurba_marseille","lat":43.28412,"lon":5.34977,"is_reserved":false,"is_disabled":false,"rental_uris":{"android":"levelo://app?vid=12de2a5d-af1a-406f-ae29-1792c23b418c","ios":"levelo://app?vid=12de2a5d-af1a-406f-ae29-1792c23b418c"},"vehicle_type_id":"4","last_reported":1743084580,"current_range_meters":11600,"station_id":"ce4bhbh2rcd13ifvqepg","pricing_plan_id":"cebpf4jnsgd1na2vs0mg"},{"bike_id":"aee00f26-d637-4fed-9408-ef857d6c90c1","system_id":"levelo_inurba_marseille","lat":43.25499,"lon":5.3765,"is_reserved":false,"is_disabled":false,"rental_uris":{"android":"levelo://app?vid=aee00f26-d637-4fed-9408-ef857d6c90c1","ios":"levelo://app?vid=aee00f26-d637-4fed-9408-ef857d6c90c1"},"vehicle_type_id":"4","last_reported":1743084580,"current_range_meters":11600,"station_id":"ce4bhh12rcd13ifvqff0","pricing_plan_id":"cebpf4jnsgd1na2vs0mg"},{"bike_id":"3d925b18-32bd-4c1e-890d-2ee787fb4dc4","system_id":"levelo_inurba_marseille","lat":43.24542,"lon":5.39534,"is_reserved":false,"is_disabled":false,"rental_uris":{"android":"levelo://app?vid=3d925b18-32bd-4c1e-890d-2ee787fb4dc4","ios":"levelo://app?vid=3d925b18-32bd-4c1e-890d-2ee787fb4dc4"},"vehicle_type_id":"4","last_reported":1743084580,"current_range_meters":11600,"station_id":"ce4bhlp2rcd13ifvqgjg","pricing_plan_id":"cebpf4jnsgd1na2vs0mg"},{"bike_id":"59b78039-07c8-4481-876d-404938d15499","system_id":"levelo_inurba_marseille","lat":43.305275,"lon":5.365379,"is_reserved":false,"is_disabled":false,"rental_uris":{"android":"levelo://app?vid=59b78039-07c8-4481-876d-404938d15499","ios":"levelo://app?vid=59b78039-07c8-4481-876d-404938d15499"},"vehicle_type_id":"4","last_reported":1743084580,"current_range_meters":12000,"station_id":"ce4bgs12rcd13ifvqcag","pricing_plan_id":"cebpf4jnsgd1na2vs0mg"},{"bike_id":"000e4dca-b64b-4bb0-bdc8-729125ae86da","system_id":"levelo_inurba_marseille","lat":43.31081,"lon":5.3836,"is_reserved":false,"is_disabled":false,"rental_uris":{"android":"levelo://app?vid=000e4dca-b64b-4bb0-bdc8-729125ae86da","ios":"levelo://app?vid=000e4dca-b64b-4bb0-bdc8-729125ae86da"},"vehicle_type_id":"4","last_reported":1743084580,"current_range_meters":12000,"station_id":"ce4bgv92rcd13ifvqcr0","pricing_plan_id":"cebpf4jnsgd1na2vs0mg"},{"bike_id":"76501b58-b509-4332-9745-c84184bf8b51","system_id":"levelo_inurba_marseille","lat":43.28712,"lon":5.37935,"is_reserved":false,"is_disabled":false,"rental_uris":{"android":"levelo://app?vid=76501b58-b509-4332-9745-c84184bf8b51","ios":"levelo://app?vid=76501b58-b509-4332-9745-c84184bf8b51"},"vehicle_type_id":"4","last_reported":1743084580,"current_range_meters":12000,"station_id":"ce4bh9p2rcd13ifvqec0","pricing_plan_id":"cebpf4jnsgd1na2vs0mg"},{"bike_id":"8aad297a-b9c5-4077-91af-3eadc1d4ca69","system_id":"levelo_inurba_marseille","lat":43.239638,"lon":5.366212,"is_reserved":false,"is_disabled":false,"rental_uris":{"android":"levelo://app?vid=8aad297a-b9c5-4077-91af-3eadc1d4ca69","ios":"levelo://app?vid=8aad297a-b9c5-4077-91af-3eadc1d4ca69"},"vehicle_type_id":"4","last_reported":1743084580,"current_range_meters":12000,"station_id":"ce4bhi12rcd13ifvqfp0","pricing_plan_id":"cebpf4jnsgd1na2vs0mg"},{"bike_id":"60d0dbbf-88d3-4a52-a6d0-645622533b79","system_id":"levelo_inurba_marseille","lat":43.23153,"lon":5.43707,"is_reserved":false,"is_disabled":false,"rental_uris":{"android":"levelo://app?vid=60d0dbbf-88d3-4a52-a6d0-645622533b79","ios":"levelo://app?vid=60d0dbbf-88d3-4a52-a6d0-645622533b79"},"vehicle_type_id":"4","last_reported":1743084580,"current_range_meters":12000,"station_id":"ce4bhmp2rcd13ifvqgog","pricing_plan_id":"cebpf4jnsgd1na2vs0mg"},{"bike_id":"19221227-42ec-4f4b-8f04-42a0818e22f5","system_id":"levelo_inurba_marseille","lat":43.32107,"lon":5.36793,"is_reserved":false,"is_disabled":false,"rental_uris":{"android":"levelo://app?vid=19221227-42ec-4f4b-8f04-42a0818e22f5","ios":"levelo://app?vid=19221227-42ec-4f4b-8f04-42a0818e22f5"},"vehicle_type_id":"4","last_reported":1743084580,"current_range_meters":12000,"station_id":"ce4bhrh2rcd13ifvqhug","pricing_plan_id":"cebpf4jnsgd1na2vs0mg"},{"bike_id":"929dc956-2b4d-4a62-a433-5892161c84a1","system_id":"levelo_inurba_marseille","lat":43.324892,"lon":5.365524,"is_reserved":false,"is_disabled":false,"rental_uris":{"android":"levelo://app?vid=929dc956-2b4d-4a62-a433-5892161c84a1","ios":"levelo://app?vid=929dc956-2b4d-4a62-a433-5892161c84a1"},"vehicle_type_id":"4","last_reported":1743084580,"current_range_meters":12000,"station_id":"ce4bhs12rcd13ifvqhvg","pricing_plan_id":"cebpf4jnsgd1na2vs0mg"},{"bike_id":"4605e24d-65b2-4424-9d4d-b88f889f4b8e","system_id":"levelo_inurba_marseille","lat":43.28104,"lon":5.3987,"is_reserved":false,"is_disabled":false,"rental_uris":{"android":"levelo://app?vid=4605e24d-65b2-4424-9d4d-b88f889f4b8e","ios":"levelo://app?vid=4605e24d-65b2-4424-9d4d-b88f889f4b8e"},"vehicle_type_id":"4","last_reported":1743084580,"current_range_meters":12400,"station_id":"","pricing_plan_id":"cebpf4jnsgd1na2vs0mg"},{"bike_id":"f20c1623-69ec-48a0-9b4d-d4396bc7908b","system_id":"levelo_inurba_marseille","lat":43.30525,"lon":5.36548,"is_reserved":false,"is_disabled":false,"rental_uris":{"android":"levelo://app?vid=f20c1623-69ec-48a0-9b4d-d4396bc7908b","ios":"levelo://app?vid=f20c1623-69ec-48a0-9b4d-d4396bc7908b"},"vehicle_type_id":"4","last_reported":1743084580,"current_range_meters":12400,"station_id":"ce4bgs12rcd13ifvqcag","pricing_plan_id":"cebpf4jnsgd1na2vs0mg"},{"bike_id":"d25417c9-7e7b-484a-b661-ddc856c85c7d","system_id":"levelo_inurba_marseille","lat":43.28948,"lon":5.36415,"is_reserved":false,"is_disabled":false,"rental_uris":{"android":"levelo://app?vid=d25417c9-7e7b-484a-b661-ddc856c85c7d","ios":"levelo://app?vid=d25417c9-7e7b-484a-b661-ddc856c85c7d"},"vehicle_type_id":"4","last_reported":1743084580,"current_range_meters":12400,"station_id":"ce4bhc92rcd13ifvqetg","pricing_plan_id":"cebpf4jnsgd1na2vs0mg"},{"bike_id":"1fff7ab0-4878-4859-9abb-ba779bd2ab17","system_id":"levelo_inurba_marseille","lat":43.27211,"lon":5.39182,"is_reserved":false,"is_disabled":false,"rental_uris":{"android":"levelo://app?vid=1fff7ab0-4878-4859-9abb-ba779bd2ab17","ios":"levelo://app?vid=1fff7ab0-4878-4859-9abb-ba779bd2ab17"},"vehicle_type_id":"4","last_reported":1743084580,"current_range_meters":12400,"station_id":"ce4bhhp2rcd13ifvqfm0","pricing_plan_id":"cebpf4jnsgd1na2vs0mg"},{"bike_id":"243bcfbe-ccb9-403f-9adc-ce38eaefa35c","system_id":"levelo_inurba_marseille","lat":43.246664,"lon":5.381725,"is_reserved":false,"is_disabled":false,"rental_uris":{"android":"levelo://app?vid=243bcfbe-ccb9-403f-9adc-ce38eaefa35c","ios":"levelo://app?vid=243bcfbe-ccb9-403f-9adc-ce38eaefa35c"},"vehicle_type_id":"4","last_reported":1743084580,"current_range_meters":12400,"station_id":"ce4bhih2rcd13ifvqfr0","pricing_plan_id":"cebpf4jnsgd1na2vs0mg"},{"bike_id":"f2f62e1f-4778-43ff-aa99-60a0f71fa1fc","system_id":"levelo_inurba_marseille","lat":43.23149,"lon":5.43723,"is_reserved":false,"is_disabled":false,"rental_uris":{"android":"levelo://app?vid=f2f62e1f-4778-43ff-aa99-60a0f71fa1fc","ios":"levelo://app?vid=f2f62e1f-4778-43ff-aa99-60a0f71fa1fc"},"vehicle_type_id":"4","last_reported":1743084580,"current_range_meters":12400,"station_id":"ce4bhmp2rcd13ifvqgog","pricing_plan_id":"cebpf4jnsgd1na2vs0mg"},{"bike_id":"c2732af0-5c49-461b-97a2-36617449356c","system_id":"levelo_inurba_marseille","lat":43.29686,"lon":5.37294,"is_reserved":false,"is_disabled":false,"rental_uris":{"android":"levelo://app?vid=c2732af0-5c49-461b-97a2-36617449356c","ios":"levelo://app?vid=c2732af0-5c49-461b-97a2-36617449356c"},"vehicle_type_id":"4","last_reported":1743084580,"current_range_meters":12800,"station_id":"ce4bgk12rcd13ifvqbj0","pricing_plan_id":"cebpf4jnsgd1na2vs0mg"},{"bike_id":"9581ecb6-05d3-4632-a311-4e5d01e8cb8e","system_id":"levelo_inurba_marseille","lat":43.30542,"lon":5.3656,"is_reserved":false,"is_disabled":false,"rental_uris":{"android":"levelo://app?vid=9581ecb6-05d3-4632-a311-4e5d01e8cb8e","ios":"levelo://app?vid=9581ecb6-05d3-4632-a311-4e5d01e8cb8e"},"vehicle_type_id":"4","last_reported":1743084580,"current_range_meters":12800,"station_id":"ce4bgs12rcd13ifvqcag","pricing_plan_id":"cebpf4jnsgd1na2vs0mg"},{"bike_id":"e2d92596-b15f-48e1-9d22-eccca5e2e3d1","system_id":"levelo_inurba_marseille","lat":43.292603,"lon":5.409128,"is_reserved":false,"is_disabled":false,"rental_uris":{"android":"levelo://app?vid=e2d92596-b15f-48e1-9d22-eccca5e2e3d1","ios":"levelo://app?vid=e2d92596-b15f-48e1-9d22-eccca5e2e3d1"},"vehicle_type_id":"4","last_reported":1743084580,"current_range_meters":12800,"station_id":"ce4bh192rcd13ifvqdc0","pricing_plan_id":"cebpf4jnsgd1na2vs0mg"},{"bike_id":"ce5dc413-c0af-44e2-b6e9-e5f933305376","system_id":"levelo_inurba_marseille","lat":43.290717,"lon":5.37177,"is_reserved":false,"is_disabled":false,"rental_uris":{"android":"levelo://app?vid=ce5dc413-c0af-44e2-b6e9-e5f933305376","ios":"levelo://app?vid=ce5dc413-c0af-44e2-b6e9-e5f933305376"},"vehicle_type_id":"4","last_reported":1743084580,"current_range_meters":12800,"station_id":"ce4bh5p2rcd13ifvqe4g","pricing_plan_id":"cebpf4jnsgd1na2vs0mg"},{"bike_id":"b884697a-ad9f-4e94-95be-b2f67dc81d83","system_id":"levelo_inurba_marseille","lat":43.24646,"lon":5.38897,"is_reserved":false,"is_disabled":false,"rental_uris":{"android":"levelo://app?vid=b884697a-ad9f-4e94-95be-b2f67dc81d83","ios":"levelo://app?vid=b884697a-ad9f-4e94-95be-b2f67dc81d83"},"vehicle_type_id":"4","last_reported":1743084580,"current_range_meters":12800,"station_id":"ce4bhg12rcd13ifvqf60","pricing_plan_id":"cebpf4jnsgd1na2vs0mg"},{"bike_id":"5f16fa23-28c4-4a4a-bfc9-23811c3aa80f","system_id":"levelo_inurba_marseille","lat":43.26057,"lon":5.394,"is_reserved":false,"is_disabled":false,"rental_uris":{"android":"levelo://app?vid=5f16fa23-28c4-4a4a-bfc9-23811c3aa80f","ios":"levelo://app?vid=5f16fa23-28c4-4a4a-bfc9-23811c3aa80f"},"vehicle_type_id":"4","last_reported":1743084580,"current_range_meters":12800,"station_id":"ce4bhh92rcd13ifvqfj0","pricing_plan_id":"cebpf4jnsgd1na2vs0mg"},{"bike_id":"f7a799e2-da07-48b3-831e-17caa45a68a4","system_id":"levelo_inurba_marseille","lat":43.24666,"lon":5.38168,"is_reserved":false,"is_disabled":false,"rental_uris":{"android":"levelo://app?vid=f7a799e2-da07-48b3-831e-17caa45a68a4","ios":"levelo://app?vid=f7a799e2-da07-48b3-831e-17caa45a68a4"},"vehicle_type_id":"4","last_reported":1743084580,"current_range_meters":12800,"station_id":"ce4bhih2rcd13ifvqfr0","pricing_plan_id":"cebpf4jnsgd1na2vs0mg"},{"bike_id":"1c471c3f-144b-463d-aa91-3811fdaa5642","system_id":"levelo_inurba_marseille","lat":43.24075,"lon":5.3775,"is_reserved":false,"is_disabled":false,"rental_uris":{"android":"levelo://app?vid=1c471c3f-144b-463d-aa91-3811fdaa5642","ios":"levelo://app?vid=1c471c3f-144b-463d-aa91-3811fdaa5642"},"vehicle_type_id":"4","last_reported":1743084580,"current_range_meters":12800,"station_id":"ce4bhnp2rcd13ifvqgvg","pricing_plan_id":"cebpf4jnsgd1na2vs0mg"},{"bike_id":"df767ddd-5f05-41e7-9ca1-d7a3b4ddff9f","system_id":"levelo_inurba_marseille","lat":43.24082,"lon":5.37739,"is_reserved":false,"is_disabled":false,"rental_uris":{"android":"levelo://app?vid=df767ddd-5f05-41e7-9ca1-d7a3b4ddff9f","ios":"levelo://app?vid=df767ddd-5f05-41e7-9ca1-d7a3b4ddff9f"},"vehicle_type_id":"4","last_reported":1743084580,"current_range_meters":12800,"station_id":"ce4bhnp2rcd13ifvqgvg","pricing_plan_id":"cebpf4jnsgd1na2vs0mg"},{"bike_id":"e0f854e6-2375-437d-a78b-6d5bf2ead237","system_id":"levelo_inurba_marseille","lat":43.33414,"lon":5.40054,"is_reserved":false,"is_disabled":false,"rental_uris":{"android":"levelo://app?vid=e0f854e6-2375-437d-a78b-6d5bf2ead237","ios":"levelo://app?vid=e0f854e6-2375-437d-a78b-6d5bf2ead237"},"vehicle_type_id":"4","last_reported":1743084580,"current_range_meters":13600,"station_id":"","pricing_plan_id":"cebpf4jnsgd1na2vs0mg"},{"bike_id":"aef508a9-abfb-4348-92a4-49850feea651","system_id":"levelo_inurba_marseille","lat":43.27379,"lon":5.36259,"is_reserved":false,"is_disabled":false,"rental_uris":{"android":"levelo://app?vid=aef508a9-abfb-4348-92a4-49850feea651","ios":"levelo://app?vid=aef508a9-abfb-4348-92a4-49850feea651"},"vehicle_type_id":"4","last_reported":1743084580,"current_range_meters":13600,"station_id":"ce4bhbh2rcd13ifvqeo0","pricing_plan_id":"cebpf4jnsgd1na2vs0mg"},{"bike_id":"cc47bdae-e849-4c2a-a9b3-b38e0f1eb05b","system_id":"levelo_inurba_marseille","lat":43.25004,"lon":5.38945,"is_reserved":false,"is_disabled":false,"rental_uris":{"android":"levelo://app?vid=cc47bdae-e849-4c2a-a9b3-b38e0f1eb05b","ios":"levelo://app?vid=cc47bdae-e849-4c2a-a9b3-b38e0f1eb05b"},"vehicle_type_id":"4","last_reported":1743084580,"current_range_meters":13600,"station_id":"ce4bhgp2rcd13ifvqfd0","pricing_plan_id":"cebpf4jnsgd1na2vs0mg"},{"bike_id":"fca480f8-b315-42ed-8b94-e43ecf953dd7","system_id":"levelo_inurba_marseille","lat":43.26948,"lon":5.38659,"is_reserved":false,"is_disabled":false,"rental_uris":{"android":"levelo://app?vid=fca480f8-b315-42ed-8b94-e43ecf953dd7","ios":"levelo://app?vid=fca480f8-b315-42ed-8b94-e43ecf953dd7"},"vehicle_type_id":"4","last_reported":1743084580,"current_range_meters":13600,"station_id":"ce4bhh92rcd13ifvqfh0","pricing_plan_id":"cebpf4jnsgd1na2vs0mg"},{"bike_id":"86f30ee5-de09-4826-8dd8-a6fbbe8a7d1b","system_id":"levelo_inurba_marseille","lat":43.25939,"lon":5.40903,"is_reserved":false,"is_disabled":false,"rental_uris":{"android":"levelo://app?vid=86f30ee5-de09-4826-8dd8-a6fbbe8a7d1b","ios":"levelo://app?vid=86f30ee5-de09-4826-8dd8-a6fbbe8a7d1b"},"vehicle_type_id":"4","last_reported":1743084580,"current_range_meters":13600,"station_id":"ce4bhm92rcd13ifvqglg","pricing_plan_id":"cebpf4jnsgd1na2vs0mg"},{"bike_id":"6bb7a53f-f012-4855-bb26-37beff24b62c","system_id":"levelo_inurba_marseille","lat":43.23062,"lon":5.35495,"is_reserved":false,"is_disabled":false,"rental_uris":{"android":"levelo://app?vid=6bb7a53f-f012-4855-bb26-37beff24b62c","ios":"levelo://app?vid=6bb7a53f-f012-4855-bb26-37beff24b62c"},"vehicle_type_id":"4","last_reported":1743084580,"current_range_meters":13600,"station_id":"cpo3342slgdg3j2ifvpg","pricing_plan_id":"cebpf4jnsgd1na2vs0mg"},{"bike_id":"c8d3b3e1-534a-498e-9c59-a5d62b7136cf","system_id":"levelo_inurba_marseille","lat":43.2488,"lon":5.38314,"is_reserved":false,"is_disabled":false,"rental_uris":{"android":"levelo://app?vid=c8d3b3e1-534a-498e-9c59-a5d62b7136cf","ios":"levelo://app?vid=c8d3b3e1-534a-498e-9c59-a5d62b7136cf"},"vehicle_type_id":"4","last_reported":1743084580,"current_range_meters":14000,"station_id":"","pricing_plan_id":"cebpf4jnsgd1na2vs0mg"},{"bike_id":"0d1c50d4-b875-40a6-bc9b-8161484a1dcb","system_id":"levelo_inurba_marseille","lat":43.29909,"lon":5.38144,"is_reserved":false,"is_disabled":false,"rental_uris":{"android":"levelo://app?vid=0d1c50d4-b875-40a6-bc9b-8161484a1dcb","ios":"levelo://app?vid=0d1c50d4-b875-40a6-bc9b-8161484a1dcb"},"vehicle_type_id":"4","last_reported":1743084580,"current_range_meters":14000,"station_id":"ce4bgj12rcd13ifvqbc0","pricing_plan_id":"cebpf4jnsgd1na2vs0mg"},{"bike_id":"b90ea539-cd4c-4e2f-8708-ffa01e215a77","system_id":"levelo_inurba_marseille","lat":43.31374,"lon":5.36742,"is_reserved":false,"is_disabled":false,"rental_uris":{"android":"levelo://app?vid=b90ea539-cd4c-4e2f-8708-ffa01e215a77","ios":"levelo://app?vid=b90ea539-cd4c-4e2f-8708-ffa01e215a77"},"vehicle_type_id":"4","last_reported":1743084580,"current_range_meters":14000,"station_id":"ce4bgr92rcd13ifvqc6g","pricing_plan_id":"cebpf4jnsgd1na2vs0mg"},{"bike_id":"2e95a620-73b3-45ca-b4c7-84e270c45e41","system_id":"levelo_inurba_marseille","lat":43.28614,"lon":5.35104,"is_reserved":false,"is_disabled":false,"rental_uris":{"android":"levelo://app?vid=2e95a620-73b3-45ca-b4c7-84e270c45e41","ios":"levelo://app?vid=2e95a620-73b3-45ca-b4c7-84e270c45e41"},"vehicle_type_id":"4","last_reported":1743084580,"current_range_meters":14000,"station_id":"ce4bhch2rcd13ifvqeug","pricing_plan_id":"cebpf4jnsgd1na2vs0mg"},{"bike_id":"98a5ddf0-31d3-4bf0-acda-5c9dfda08049","system_id":"levelo_inurba_marseille","lat":43.27487,"lon":5.42455,"is_reserved":false,"is_disabled":false,"rental_uris":{"android":"levelo://app?vid=98a5ddf0-31d3-4bf0-acda-5c9dfda08049","ios":"levelo://app?vid=98a5ddf0-31d3-4bf0-acda-5c9dfda08049"},"vehicle_type_id":"4","last_reported":1743084580,"current_range_meters":14000,"station_id":"ce4bhn92rcd13ifvqgrg","pricing_plan_id":"cebpf4jnsgd1na2vs0mg"},{"bike_id":"1c14bf9c-ada4-4a36-8853-740a1a2c000a","system_id":"levelo_inurba_marseille","lat":43.231986,"lon":5.355584,"is_reserved":false,"is_disabled":false,"rental_uris":{"android":"levelo://app?vid=1c14bf9c-ada4-4a36-8853-740a1a2c000a","ios":"levelo://app?vid=1c14bf9c-ada4-4a36-8853-740a1a2c000a"},"vehicle_type_id":"4","last_reported":1743084580,"current_range_meters":14000,"station_id":"ce4bhu92rcd13ifvqi70","pricing_plan_id":"cebpf4jnsgd1na2vs0mg"},{"bike_id":"f4a75c25-5066-4bfd-ac2b-48f6facad99d","system_id":"levelo_inurba_marseille","lat":43.23069,"lon":5.35494,"is_reserved":false,"is_disabled":false,"rental_uris":{"android":"levelo://app?vid=f4a75c25-5066-4bfd-ac2b-48f6facad99d","ios":"levelo://app?vid=f4a75c25-5066-4bfd-ac2b-48f6facad99d"},"vehicle_type_id":"4","last_reported":1743084580,"current_range_meters":14000,"station_id":"cpo3342slgdg3j2ifvpg","pricing_plan_id":"cebpf4jnsgd1na2vs0mg"},{"bike_id":"8ce3e8ad-9362-40c8-9284-29a9342d7b87","system_id":"levelo_inurba_marseille","lat":43.30556,"lon":5.36441,"is_reserved":false,"is_disabled":false,"rental_uris":{"android":"levelo://app?vid=8ce3e8ad-9362-40c8-9284-29a9342d7b87","ios":"levelo://app?vid=8ce3e8ad-9362-40c8-9284-29a9342d7b87"},"vehicle_type_id":"4","last_reported":1743084580,"current_range_meters":14400,"station_id":"","pricing_plan_id":"cebpf4jnsgd1na2vs0mg"},{"bike_id":"561e290b-4db1-442c-80bd-c38abf13836d","system_id":"levelo_inurba_marseille","lat":43.27076,"lon":5.42275,"is_reserved":false,"is_disabled":false,"rental_uris":{"android":"levelo://app?vid=561e290b-4db1-442c-80bd-c38abf13836d","ios":"levelo://app?vid=561e290b-4db1-442c-80bd-c38abf13836d"},"vehicle_type_id":"4","last_reported":1743084580,"current_range_meters":14400,"station_id":"ce4bhk92rcd13ifvqgb0","pricing_plan_id":"cebpf4jnsgd1na2vs0mg"},{"bike_id":"e808b7f4-f7d3-41f8-a757-3da978745c6b","system_id":"levelo_inurba_marseille","lat":43.26233,"lon":5.40442,"is_reserved":false,"is_disabled":false,"rental_uris":{"android":"levelo://app?vid=e808b7f4-f7d3-41f8-a757-3da978745c6b","ios":"levelo://app?vid=e808b7f4-f7d3-41f8-a757-3da978745c6b"},"vehicle_type_id":"4","last_reported":1743084580,"current_range_meters":14400,"station_id":"ce4bhmh2rcd13ifvqgmg","pricing_plan_id":"cebpf4jnsgd1na2vs0mg"},{"bike_id":"5a64d06d-50f2-4651-a133-a3fb2c3af1b9","system_id":"levelo_inurba_marseille","lat":43.28704,"lon":5.3997,"is_reserved":false,"is_disabled":false,"rental_uris":{"android":"levelo://app?vid=5a64d06d-50f2-4651-a133-a3fb2c3af1b9","ios":"levelo://app?vid=5a64d06d-50f2-4651-a133-a3fb2c3af1b9"},"vehicle_type_id":"4","last_reported":1743084580,"current_range_meters":14400,"station_id":"ce4bho92rcd13ifvqh3g","pricing_plan_id":"cebpf4jnsgd1na2vs0mg"},{"bike_id":"dcd722aa-e2d0-4aa8-af47-3f3f8b2bfad0","system_id":"levelo_inurba_marseille","lat":43.32371,"lon":5.38889,"is_reserved":false,"is_disabled":false,"rental_uris":{"android":"levelo://app?vid=dcd722aa-e2d0-4aa8-af47-3f3f8b2bfad0","ios":"levelo://app?vid=dcd722aa-e2d0-4aa8-af47-3f3f8b2bfad0"},"vehicle_type_id":"4","last_reported":1743084580,"current_range_meters":14400,"station_id":"ce4bhqp2rcd13ifvqhog","pricing_plan_id":"cebpf4jnsgd1na2vs0mg"},{"bike_id":"2e919ca5-ce98-4c47-a9d7-66e6ab7584e4","system_id":"levelo_inurba_marseille","lat":43.32129,"lon":5.36777,"is_reserved":false,"is_disabled":false,"rental_uris":{"android":"levelo://app?vid=2e919ca5-ce98-4c47-a9d7-66e6ab7584e4","ios":"levelo://app?vid=2e919ca5-ce98-4c47-a9d7-66e6ab7584e4"},"vehicle_type_id":"4","last_reported":1743084580,"current_range_meters":14400,"station_id":"ce4bhrh2rcd13ifvqhug","pricing_plan_id":"cebpf4jnsgd1na2vs0mg"},{"bike_id":"5dd0627a-5f4a-4db5-a8ba-ceede2f23d8c","system_id":"levelo_inurba_marseille","lat":43.25087,"lon":5.39528,"is_reserved":false,"is_disabled":false,"rental_uris":{"android":"levelo://app?vid=5dd0627a-5f4a-4db5-a8ba-ceede2f23d8c","ios":"levelo://app?vid=5dd0627a-5f4a-4db5-a8ba-ceede2f23d8c"},"vehicle_type_id":"4","last_reported":1743084580,"current_range_meters":14800,"station_id":"ce4bhm12rcd13ifvqgkg","pricing_plan_id":"cebpf4jnsgd1na2vs0mg"},{"bike_id":"a1cd59d9-6206-49db-a5ae-df298a1fcf5b","system_id":"levelo_inurba_marseille","lat":43.24176,"lon":5.39729,"is_reserved":false,"is_disabled":false,"rental_uris":{"android":"levelo://app?vid=a1cd59d9-6206-49db-a5ae-df298a1fcf5b","ios":"levelo://app?vid=a1cd59d9-6206-49db-a5ae-df298a1fcf5b"},"vehicle_type_id":"4","last_reported":1743084580,"current_range_meters":14800,"station_id":"ce4bhn12rcd13ifvqgpg","pricing_plan_id":"cebpf4jnsgd1na2vs0mg"},{"bike_id":"3b651af4-6b71-4985-aa71-b161986adfc0","system_id":"levelo_inurba_marseille","lat":43.27808,"lon":5.40727,"is_reserved":false,"is_disabled":false,"rental_uris":{"android":"levelo://app?vid=3b651af4-6b71-4985-aa71-b161986adfc0","ios":"levelo://app?vid=3b651af4-6b71-4985-aa71-b161986adfc0"},"vehicle_type_id":"4","last_reported":1743084580,"current_range_meters":14800,"station_id":"ce4bhnh2rcd13ifvqgtg","pricing_plan_id":"cebpf4jnsgd1na2vs0mg"},