{"last_updated":1686251086,"ttl":30,"version":"2.2","data":{"bikes":[{"bike_id":"8b6199f3-5af6-4c5a-9291-addcf2f6239e","system_id":"levelo_inurba_marseille","lat":43.309076,"lon":5.368465,"is_reserved":false,"is_disabled":false,"rental_uris":{"android":"levelo://app?vid=8b6199f3-5af6-4c5a-9291-addcf2f6239e","ios":"levelo://app?vid=8b6199f3-5af6-4c5a-9291-addcf2f6239e"},"vehicle_type_id":"4","last_reported":1686251087,"current_range_meters":3600,"station_id":"ce4bgn92rcd13ifvqbvg","pricing_plan_id":"free"},{"bike_id":"c6699cfc-6f7d-4ee1-9146-5289e6f2fc49","system_id":"levelo_inurba_marseille","lat":43.308614,"lon":5.372098,"is_reserved":false,"is_disabled":false,"rental_uris":{"android":"levelo://app?vid=c6699cfc-6f7d-4ee1-9146-5289e6f2fc49","ios":"levelo://app?vid=c6699cfc-6f7d-4ee1-9146-5289e6f2fc49"},"vehicle_type_id":"4","last_reported":1686251087,"current_range_meters":0,"station_id":"ce4bguh2rcd13ifvqckg","pricing_plan_id":"free"},{"bike_id":"9937c74c-2917-42de-b629-681dcf9f5b3a","system_id":"levelo_inurba_marseille","lat":43.308606,"lon":5.372099,"is_reserved":false,"is_disabled":false,"rental_uris":{"android":"levelo://app?vid=9937c74c-2917-42de-b629-681dcf9f5b3a","ios":"levelo://app?vid=9937c74c-2917-42de-b629-681dcf9f5b3a"},"vehicle_type_id":"4","last_reported":1686251087,"current_range_meters":16400,"station_id":"ce4bguh2rcd13ifvqckg","pricing_plan_id":"free"},{"bike_id":"1f83cf68-6ce3-49b5-8087-8c468133edf9","system_id":"levelo_inurba_marseille","lat":43.30537,"lon":5.367345,"is_reserved":false,"is_disabled":false,"rental_uris":{"android":"levelo://app?vid=1f83cf68-6ce3-49b5-8087-8c468133edf9","ios":"levelo://app?vid=1f83cf68-6ce3-49b5-8087-8c468133edf9"},"vehicle_type_id":"4","last_reported":1686251087,"current_range_meters":31200,"station_id":"ce4bgrp2rcd13ifvqc9g","pricing_plan_id":"free"},{"bike_id":"b6134052-f8c9-4371-bbd0-a9cc16bdc117","system_id":"levelo_inurba_marseille","lat":43.30537,"lon":5.367345,"is_reserved":false,"is_disabled":false,"rental_uris":{"android":"levelo://app?vid=b6134052-f8c9-4371-bbd0-a9cc16bdc117","ios":"levelo://app?vid=b6134052-f8c9-4371-bbd0-a9cc16bdc117"},"vehicle_type_id":"4","last_reported":1686251087,"current_range_meters":31200,"station_id":"ce4bgrp2rcd13ifvqc9g","pricing_plan_id":"free"},{"bike_id":"48e1ff44-90ee-4849-aa16-00eae8753c7e","system_id":"levelo_inurba_marseille","lat":43.30537,"lon":5.367345,"is_reserved":false,"is_disabled":false,"rental_uris":{"android":"levelo://app?vid=48e1ff44-90ee-4849-aa16-00eae8753c7e","ios":"levelo://app?vid=48e1ff44-90ee-4849-aa16-00eae8753c7e"},"vehicle_type_id":"4","last_reported":1686251087,"current_range_meters":31200,"station_id":"ce4bgrp2rcd13ifvqc9g","pricing_plan_id":"free"},{"bike_id":"4ce7fe61-27a1-4bf6-9d1e-ba2a5bc550b2","system_id":"levelo_inurba_marseille","lat":43.32017,"lon":5.36571,"is_reserved":false,"is_disabled":false,"rental_uris":{"android":"levelo://app?vid=4ce7fe61-27a1-4bf6-9d1e-ba2a5bc550b2","ios":"levelo://app?vid=4ce7fe61-27a1-4bf6-9d1e-ba2a5bc550b2"},"vehicle_type_id":"4","last_reported":1686251087,"current_range_meters":22400,"station_id":"","pricing_plan_id":"free"},{"bike_id":"2fa4a81b-a627-412b-98a8-ae05d250205f","system_id":"levelo_inurba_marseille","lat":43.305989,"lon":5.37225,"is_reserved":false,"is_disabled":false,"rental_uris":{"android":"levelo://app?vid=2fa4a81b-a627-412b-98a8-ae05d250205f","ios":"levelo://app?vid=2fa4a81b-a627-412b-98a8-ae05d250205f"},"vehicle_type_id":"4","last_reported":1686251087,"current_range_meters":0,"station_id":"ce4bgqh2rcd13ifvqc4g","pricing_plan_id":"free"},{"bike_id":"ec55faca-c520-4821-ac9c-9f2ccb25cecc","system_id":"levelo_inurba_marseille","lat":43.311243,"lon":5.377688,"is_reserved":false,"is_disabled":false,"rental_uris":{"android":"levelo://app?vid=ec55faca-c520-4821-ac9c-9f2ccb25cecc","ios":"levelo://app?vid=ec55faca-c520-4821-ac9c-9f2ccb25cecc"},"vehicle_type_id":"4","last_reported":1686251087,"current_range_meters":0,"station_id":"","pricing_plan_id":"free"},{"bike_id":"48dac536-df64-4c1e-8a83-2db726d7e984","system_id":"levelo_inurba_marseille","lat":43.311125,"lon":5.377624,"is_reserved":false,"is_disabled":false,"rental_uris":{"android":"levelo://app?vid=48dac536-df64-4c1e-8a83-2db726d7e984","ios":"levelo://app?vid=48dac536-df64-4c1e-8a83-2db726d7e984"},"vehicle_type_id":"4","last_reported":1686251087,"current_range_meters":2400,"station_id":"ce4bgt92rcd13ifvqcg0","pricing_plan_id":"free"},{"bike_id":"82dd898e-3b1d-497b-ae29-961cb0b0bd7f","system_id":"levelo_inurba_marseille","lat":43.315289,"lon":5.380349,"is_reserved":false,"is_disabled":false,"rental_uris":{"android":"levelo://app?vid=82dd898e-3b1d-497b-ae29-961cb0b0bd7f","ios":"levelo://app?vid=82dd898e-3b1d-497b-ae29-961cb0b0bd7f"},"vehicle_type_id":"4","last_reported":1686251087,"current_range_meters":0,"station_id":"ce4bhsp2rcd13ifvqi50","pricing_plan_id":"free"},{"bike_id":"aa32a82c-384a-4274-af17-093d82425d6c","system_id":"levelo_inurba_marseille","lat":43.301939,"lon":5.366286,"is_reserved":false,"is_disabled":false,"rental_uris":{"android":"levelo://app?vid=aa32a82c-384a-4274-af17-093d82425d6c","ios":"levelo://app?vid=aa32a82c-384a-4274-af17-093d82425d6c"},"vehicle_type_id":"4","last_reported":1686251087,"current_range_meters":21600,"station_id":"ce4bgrh2rcd13ifvqc8g","pricing_plan_id":"free"},{"bike_id":"1a63f548-8b68-4666-854e-e7490b1fe764","system_id":"levelo_inurba_marseille","lat":43.30813,"lon":5.38142,"is_reserved":false,"is_disabled":false,"rental_uris":{"android":"levelo://app?vid=1a63f548-8b68-4666-854e-e7490b1fe764","ios":"levelo://app?vid=1a63f548-8b68-4666-854e-e7490b1fe764"},"vehicle_type_id":"4","last_reported":1686251087,"current_range_meters":0,"station_id":"ce4bgt12rcd13ifvqce0","pricing_plan_id":"free"},{"bike_id":"961e3c4a-bf87-4af1-b50a-6b671a61d8b7","system_id":"levelo_inurba_marseille","lat":43.308012,"lon":5.381511,"is_reserved":false,"is_disabled":false,"rental_uris":{"android":"levelo://app?vid=961e3c4a-bf87-4af1-b50a-6b671a61d8b7","ios":"levelo://app?vid=961e3c4a-bf87-4af1-b50a-6b671a61d8b7"},"vehicle_type_id":"4","last_reported":1686251087,"current_range_meters":0,"station_id":"ce4bgt12rcd13ifvqce0","pricing_plan_id":"free"},{"bike_id":"b47274c5-037d-4f4d-b0bc-50aafbebd5ed","system_id":"levelo_inurba_marseille","lat":43.308012,"lon":5.381511,"is_reserved":false,"is_disabled":false,"rental_uris":{"android":"levelo://app?vid=b47274c5-037d-4f4d-b0bc-50aafbebd5ed","ios":"levelo://app?vid=b47274c5-037d-4f4d-b0bc-50aafbebd5ed"},"vehicle_type_id":"4","last_reported":1686251087,"current_range_meters":2400,"station_id":"ce4bgt12rcd13ifvqce0","pricing_plan_id":"free"},{"bike_id":"38033aa4-fb61-44d1-9790-31f02bbdb65f","system_id":"levelo_inurba_marseille","lat":43.302784,"lon":5.377158,"is_reserved":false,"is_disabled":false,"rental_uris":{"android":"levelo://app?vid=38033aa4-fb61-44d1-9790-31f02bbdb65f","ios":"levelo://app?vid=38033aa4-fb61-44d1-9790-31f02bbdb65f"},"vehicle_type_id":"4","last_reported":1686251087,"current_range_meters":23200,"station_id":"ce4bguh2rcd13ifvqcj0","pricing_plan_id":"free"},{"bike_id":"615ecdbd-99e4-46f8-8663-c810c3ee1e09","system_id":"levelo_inurba_marseille","lat":43.302784,"lon":5.377158,"is_reserved":false,"is_disabled":false,"rental_uris":{"android":"levelo://app?vid=615ecdbd-99e4-46f8-8663-c810c3ee1e09","ios":"levelo://app?vid=615ecdbd-99e4-46f8-8663-c810c3ee1e09"},"vehicle_type_id":"4","last_reported":1686251087,"current_range_meters":28800,"station_id":"ce4bguh2rcd13ifvqcj0","pricing_plan_id":"free"},{"bike_id":"7afc88c3-775b-41ba-93a4-2696bd5c44d9","system_id":"levelo_inurba_marseille","lat":43.302784,"lon":5.377158,"is_reserved":false,"is_disabled":false,"rental_uris":{"android":"levelo://app?vid=7afc88c3-775b-41ba-93a4-2696bd5c44d9","ios":"levelo://app?vid=7afc88c3-775b-41ba-93a4-2696bd5c44d9"},"vehicle_type_id":"4","last_reported":1686251087,"current_range_meters":29600,"station_id":"ce4bguh2rcd13ifvqcj0","pricing_plan_id":"free"},{"bike_id":"6e9c9323-d850-40eb-874a-77649d3e3a3a","system_id":"levelo_inurba_marseille","lat":43.302784,"lon":5.377158,"is_reserved":false,"is_disabled":false,"rental_uris":{"android":"levelo://app?vid=6e9c9323-d850-40eb-874a-77649d3e3a3a","ios":"levelo://app?vid=6e9c9323-d850-40eb-874a-77649d3e3a3a"},"vehicle_type_id":"4","last_reported":1686251087,"current_range_meters":29200,"station_id":"ce4bguh2rcd13ifvqcj0","pricing_plan_id":"free"},{"bike_id":"81ceb44e-9866-49ae-b371-e98c88ee55d4","system_id":"levelo_inurba_marseille","lat":43.302784,"lon":5.377158,"is_reserved":false,"is_disabled":false,"rental_uris":{"android":"levelo://app?vid=81ceb44e-9866-49ae-b371-e98c88ee55d4","ios":"levelo://app?vid=81ceb44e-9866-49ae-b371-e98c88ee55d4"},"vehicle_type_id":"4","last_reported":1686251087,"current_range_meters":27200,"station_id":"ce4bguh2rcd13ifvqcj0","pricing_plan_id":"free"},{"bike_id":"2e0df944-4f8c-4df6-b3c2-a2a21d1ff3b3","system_id":"levelo_inurba_marseille","lat":43.319935,"lon":5.381699,"is_reserved":false,"is_disabled":false,"rental_uris":{"android":"levelo://app?vid=2e0df944-4f8c-4df6-b3c2-a2a21d1ff3b3","ios":"levelo://app?vid=2e0df944-4f8c-4df6-b3c2-a2a21d1ff3b3"},"vehicle_type_id":"4","last_reported":1686251087,"current_range_meters":0,"station_id":"ce4bhr12rcd13ifvqhpg","pricing_plan_id":"free"},{"bike_id":"a87d4f9b-a0fe-4564-b74d-d5e67028b4ce","system_id":"levelo_inurba_marseille","lat":43.319935,"lon":5.381699,"is_reserved":false,"is_disabled":false,"rental_uris":{"android":"levelo://app?vid=a87d4f9b-a0fe-4564-b74d-d5e67028b4ce","ios":"levelo://app?vid=a87d4f9b-a0fe-4564-b74d-d5e67028b4ce"},"vehicle_type_id":"4","last_reported":1686251087,"current_range_meters":6000,"station_id":"ce4bhr12rcd13ifvqhpg","pricing_plan_id":"free"},{"bike_id":"0ab79bb0-5701-472f-bc16-9531b0dcbffe","system_id":"levelo_inurba_marseille","lat":43.319935,"lon":5.381699,"is_reserved":false,"is_disabled":false,"rental_uris":{"android":"levelo://app?vid=0ab79bb0-5701-472f-bc16-9531b0dcbffe","ios":"levelo://app?vid=0ab79bb0-5701-472f-bc16-9531b0dcbffe"},"vehicle_type_id":"4","last_reported":1686251087,"current_range_meters":6400,"station_id":"ce4bhr12rcd13ifvqhpg","pricing_plan_id":"free"},{"bike_id":"8907de89-0866-461e-84e7-77d875c4d33e","system_id":"levelo_inurba_marseille","lat":43.319935,"lon":5.381699,"is_reserved":false,"is_disabled":false,"rental_uris":{"android":"levelo://app?vid=8907de89-0866-461e-84e7-77d875c4d33e","ios":"levelo://app?vid=8907de89-0866-461e-84e7-77d875c4d33e"},"vehicle_type_id":"4","last_reported":1686251087,"current_range_meters":3600,"station_id":"ce4bhr12rcd13ifvqhpg","pricing_plan_id":"free"},{"bike_id":"5d7e2d8f-bc23-4304-800f-6f26edd1f6b2","system_id":"levelo_inurba_marseille","lat":43.313571,"lon":5.384829,"is_reserved":false,"is_disabled":false,"rental_uris":{"android":"levelo://app?vid=5d7e2d8f-bc23-4304-800f-6f26edd1f6b2","ios":"levelo://app?vid=5d7e2d8f-bc23-4304-800f-6f26edd1f6b2"},"vehicle_type_id":"4","last_reported":1686251087,"current_range_meters":2400,"station_id":"ce4bgt92rcd13ifvqcf0","pricing_plan_id":"free"},{"bike_id":"49922b3c-415c-4296-9d77-effad64dd380","system_id":"levelo_inurba_marseille","lat":43.31171,"lon":5.38711,"is_reserved":false,"is_disabled":false,"rental_uris":{"android":"levelo://app?vid=49922b3c-415c-4296-9d77-effad64dd380","ios":"levelo://app?vid=49922b3c-415c-4296-9d77-effad64dd380"},"vehicle_type_id":"4","last_reported":1686251087,"current_range_meters":6000,"station_id":"ce4bgv12rcd13ifvqcp0","pricing_plan_id":"free"},{"bike_id":"4fc2946c-9355-4002-a316-82f08fbb66b6","system_id":"levelo_inurba_marseille","lat":43.311722,"lon":5.387247,"is_reserved":false,"is_disabled":false,"rental_uris":{"android":"levelo://app?vid=4fc2946c-9355-4002-a316-82f08fbb66b6","ios":"levelo://app?vid=4fc2946c-9355-4002-a316-82f08fbb66b6"},"vehicle_type_id":"4","last_reported":1686251087,"current_range_meters":26000,"station_id":"ce4bgv12rcd13ifvqcp0","pricing_plan_id":"free"},{"bike_id":"5e26b5c4-2e5f-473c-9937-dd9664eefd5c","system_id":"levelo_inurba_marseille","lat":43.31181,"lon":5.38714,"is_reserved":false,"is_disabled":false,"rental_uris":{"android":"levelo://app?vid=5e26b5c4-2e5f-473c-9937-dd9664eefd5c","ios":"levelo://app?vid=5e26b5c4-2e5f-473c-9937-dd9664eefd5c"},"vehicle_type_id":"4","last_reported":1686251087,"current_range_meters":0,"station_id":"ce4bgv12rcd13ifvqcp0","pricing_plan_id":"free"},{"bike_id":"bf088a44-a24d-4ff6-a0fc-514116badddb","system_id":"levelo_inurba_marseille","lat":43.299243,"lon":5.374807,"is_reserved":false,"is_disabled":false,"rental_uris":{"android":"levelo://app?vid=bf088a44-a24d-4ff6-a0fc-514116badddb","ios":"levelo://app?vid=bf088a44-a24d-4ff6-a0fc-514116badddb"},"vehicle_type_id":"4","last_reported":1686251087,"current_range_meters":0,"station_id":"ce4bgjh2rcd13ifvqbg0","pricing_plan_id":"free"},{"bike_id":"82b736dc-23b9-43c4-b912-d595eb7379cd","system_id":"levelo_inurba_marseille","lat":43.311696,"lon":5.387155,"is_reserved":false,"is_disabled":false,"rental_uris":{"android":"levelo://app?vid=82b736dc-23b9-43c4-b912-d595eb7379cd","ios":"levelo://app?vid=82b736dc-23b9-43c4-b912-d595eb7379cd"},"vehicle_type_id":"4","last_reported":1686251087,"current_range_meters":5200,"station_id":"ce4bgv12rcd13ifvqcp0","pricing_plan_id":"free"},{"bike_id":"fef53817-f1b1-4041-b47e-8b7a327e42eb","system_id":"levelo_inurba_marseille","lat":43.3117,"lon":5.3872,"is_reserved":false,"is_disabled":false,"rental_uris":{"android":"levelo://app?vid=fef53817-f1b1-4041-b47e-8b7a327e42eb","ios":"levelo://app?vid=fef53817-f1b1-4041-b47e-8b7a327e42eb"},"vehicle_type_id":"4","last_reported":1686251087,"current_range_meters":800,"station_id":"ce4bgv12rcd13ifvqcp0","pricing_plan_id":"free"},{"bike_id":"1d22240d-be1f-455b-bf87-c46003355f45","system_id":"levelo_inurba_marseille","lat":43.3117,"lon":5.38721,"is_reserved":false,"is_disabled":false,"rental_uris":{"android":"levelo://app?vid=1d22240d-be1f-455b-bf87-c46003355f45","ios":"levelo://app?vid=1d22240d-be1f-455b-bf87-c46003355f45"},"vehicle_type_id":"4","last_reported":1686251087,"current_range_meters":13600,"station_id":"ce4bgv12rcd13ifvqcp0","pricing_plan_id":"free"},{"bike_id":"822c2ce5-6b64-471a-9060-264344f2ba93","system_id":"levelo_inurba_marseille","lat":43.297794,"lon":5.370888,"is_reserved":false,"is_disabled":false,"rental_uris":{"android":"levelo://app?vid=822c2ce5-6b64-471a-9060-264344f2ba93","ios":"levelo://app?vid=822c2ce5-6b64-471a-9060-264344f2ba93"},"vehicle_type_id":"4","last_reported":1686251087,"current_range_meters":0,"station_id":"ce4bgop2rcd13ifvqc1g","pricing_plan_id":"free"},{"bike_id":"7f132e46-4c9e-4243-a979-6a9444c5be8f","system_id":"levelo_inurba_marseille","lat":43.32829,"lon":5.36693,"is_reserved":false,"is_disabled":false,"rental_uris":{"android":"levelo://app?vid=7f132e46-4c9e-4243-a979-6a9444c5be8f","ios":"levelo://app?vid=7f132e46-4c9e-4243-a979-6a9444c5be8f"},"vehicle_type_id":"4","last_reported":1686251087,"current_range_meters":2400,"station_id":"ce4bhs92rcd13ifvqi0g","pricing_plan_id":"free"},{"bike_id":"5d685f07-d5b7-4c6d-8116-16de67ed4d28","system_id":"levelo_inurba_marseille","lat":43.29587,"lon":5.3674,"is_reserved":false,"is_disabled":false,"rental_uris":{"android":"levelo://app?vid=5d685f07-d5b7-4c6d-8116-16de67ed4d28","ios":"levelo://app?vid=5d685f07-d5b7-4c6d-8116-16de67ed4d28"},"vehicle_type_id":"4","last_reported":1686251087,"current_range_meters":18400,"station_id":"ce4bgph2rcd13ifvqc2g","pricing_plan_id":"free"},{"bike_id":"0aee9a30-7645-4ff8-b38b-a1bc8c6d64ec","system_id":"levelo_inurba_marseille","lat":43.29619,"lon":5.37151,"is_reserved":false,"is_disabled":false,"rental_uris":{"android":"levelo://app?vid=0aee9a30-7645-4ff8-b38b-a1bc8c6d64ec","ios":"levelo://app?vid=0aee9a30-7645-4ff8-b38b-a1bc8c6d64ec"},"vehicle_type_id":"4","last_reported":1686251087,"current_range_meters":0,"station_id":"","pricing_plan_id":"free"},{"bike_id":"107e244d-3d85-4ce4-bc2b-3a75d744302f","system_id":"levelo_inurba_marseille","lat":43.29595,"lon":5.37086,"is_reserved":false,"is_disabled":false,"rental_uris":{"android":"levelo://app?vid=107e244d-3d85-4ce4-bc2b-3a75d744302f","ios":"levelo://app?vid=107e244d-3d85-4ce4-bc2b-3a75d744302f"},"vehicle_type_id":"4","last_reported":1686251087,"current_range_meters":0,"station_id":"","pricing_plan_id":"free"},{"bike_id":"9e9d1f5b-3f1d-45a9-acd7-e7a229ab9f91","system_id":"levelo_inurba_marseille","lat":43.296935,"lon":5.376544,"is_reserved":false,"is_disabled":false,"rental_uris":{"android":"levelo://app?vid=9e9d1f5b-3f1d-45a9-acd7-e7a229ab9f91","ios":"levelo://app?vid=9e9d1f5b-3f1d-45a9-acd7-e7a229ab9f91"},"vehicle_type_id":"4","last_reported":1686251087,"current_range_meters":0,"station_id":"ce4bgkh2rcd13ifvqbl0","pricing_plan_id":"free"},{"bike_id":"b47860b3-69f7-4db0-bf88-cceeda5edff9","system_id":"levelo_inurba_marseille","lat":43.309589,"lon":5.390258,"is_reserved":false,"is_disabled":false,"rental_uris":{"android":"levelo://app?vid=b47860b3-69f7-4db0-bf88-cceeda5edff9","ios":"levelo://app?vid=b47860b3-69f7-4db0-bf88-cceeda5edff9"},"vehicle_type_id":"4","last_reported":1686251087,"current_range_meters":10400,"station_id":"ce4bgup2rcd13ifvqco0","pricing_plan_id":"free"},{"bike_id":"ee7b1405-19ce-4a46-bedb-77c1819c3243","system_id":"levelo_inurba_marseille","lat":43.309589,"lon":5.390258,"is_reserved":false,"is_disabled":false,"rental_uris":{"android":"levelo://app?vid=ee7b1405-19ce-4a46-bedb-77c1819c3243","ios":"levelo://app?vid=ee7b1405-19ce-4a46-bedb-77c1819c3243"},"vehicle_type_id":"4","last_reported":1686251087,"current_range_meters":31200,"station_id":"ce4bgup2rcd13ifvqco0","pricing_plan_id":"free"},{"bike_id":"d6f60a7e-a794-4a27-84dd-b16914d77ad6","system_id":"levelo_inurba_marseille","lat":43.309589,"lon":5.390258,"is_reserved":false,"is_disabled":false,"rental_uris":{"android":"levelo://app?vid=d6f60a7e-a794-4a27-84dd-b16914d77ad6","ios":"levelo://app?vid=d6f60a7e-a794-4a27-84dd-b16914d77ad6"},"vehicle_type_id":"4","last_reported":1686251087,"current_range_meters":12400,"station_id":"ce4bgup2rcd13ifvqco0","pricing_plan_id":"free"},{"bike_id":"417620cb-0752-4ef3-9b92-de3ae61b4d35","system_id":"levelo_inurba_marseille","lat":43.295748,"lon":5.37522,"is_reserved":false,"is_disabled":false,"rental_uris":{"android":"levelo://app?vid=417620cb-0752-4ef3-9b92-de3ae61b4d35","ios":"levelo://app?vid=417620cb-0752-4ef3-9b92-de3ae61b4d35"},"vehicle_type_id":"4","last_reported":1686251087,"current_range_meters":0,"station_id":"ce4bgh92rcd13ifvqb50","pricing_plan_id":"free"},{"bike_id":"37dbeb8c-eff9-4b4c-82a9-3eec6d5d9c95","system_id":"levelo_inurba_marseille","lat":43.298037,"lon":5.381066,"is_reserved":false,"is_disabled":false,"rental_uris":{"android":"levelo://app?vid=37dbeb8c-eff9-4b4c-82a9-3eec6d5d9c95","ios":"levelo://app?vid=37dbeb8c-eff9-4b4c-82a9-3eec6d5d9c95"},"vehicle_type_id":"4","last_reported":1686251087,"current_range_meters":0,"station_id":"ce4bgip2rcd13ifvqbb0","pricing_plan_id":"free"},{"bike_id":"73c4fb7f-48d3-4487-8e56-1030de35f997","system_id":"levelo_inurba_marseille","lat":43.304278,"lon":5.388868,"is_reserved":false,"is_disabled":false,"rental_uris":{"android":"levelo://app?vid=73c4fb7f-48d3-4487-8e56-1030de35f997","ios":"levelo://app?vid=73c4fb7f-48d3-4487-8e56-1030de35f997"},"vehicle_type_id":"4","last_reported":1686251087,"current_range_meters":21600,"station_id":"ce4bgk12rcd13ifvqbi0","pricing_plan_id":"free"},{"bike_id":"ad845a2c-baae-4fad-ac8f-4216453d077e","system_id":"levelo_inurba_marseille","lat":43.298037,"lon":5.381066,"is_reserved":false,"is_disabled":false,"rental_uris":{"android":"levelo://app?vid=ad845a2c-baae-4fad-ac8f-4216453d077e","ios":"levelo://app?vid=ad845a2c-baae-4fad-ac8f-4216453d077e"},"vehicle_type_id":"4","last_reported":1686251087,"current_range_meters":14400,"station_id":"ce4bgip2rcd13ifvqbb0","pricing_plan_id":"free"},{"bike_id":"781a0080-d51e-4aa8-8c8a-3c715f10c31a","system_id":"levelo_inurba_marseille","lat":43.29606,"lon":5.37706,"is_reserved":false,"is_disabled":false,"rental_uris":{"android":"levelo://app?vid=781a0080-d51e-4aa8-8c8a-3c715f10c31a","ios":"levelo://app?vid=781a0080-d51e-4aa8-8c8a-3c715f10c31a"},"vehicle_type_id":"4","last_reported":1686251087,"current_range_meters":28800,"station_id":"","pricing_plan_id":"free"},{"bike_id":"6c46c5d6-8e7c-4225-a280-38f8bdd46e82","system_id":"levelo_inurba_marseille","lat":43.29579,"lon":5.37623,"is_reserved":false,"is_disabled":false,"rental_uris":{"android":"levelo://app?vid=6c46c5d6-8e7c-4225-a280-38f8bdd46e82","ios":"levelo://app?vid=6c46c5d6-8e7c-4225-a280-38f8bdd46e82"},"vehicle_type_id":"4","last_reported":1686251087,"current_range_meters":7200,"station_id":"","pricing_plan_id":"free"},{"bike_id":"f5a14006-65bd-4629-8aa0-f9be35a6b4de","system_id":"levelo_inurba_marseille","lat":43.32367,"lon":5.388836,"is_reserved":false,"is_disabled":false,"rental_uris":{"android":"levelo://app?vid=f5a14006-65bd-4629-8aa0-f9be35a6b4de","ios":"levelo://app?vid=f5a14006-65bd-4629-8aa0-f9be35a6b4de"},"vehicle_type_id":"4","last_reported":1686251087,"current_range_meters":9600,"station_id":"ce4bhqp2rcd13ifvqhog","pricing_plan_id":"free"},{"bike_id":"87bb2c1e-ea53-44b4-b8f1-ecb8fc2a77a7","system_id":"levelo_inurba_marseille","lat":43.32371,"lon":5.38883,"is_reserved":false,"is_disabled":false,"rental_uris":{"android":"levelo://app?vid=87bb2c1e-ea53-44b4-b8f1-ecb8fc2a77a7","ios":"levelo://app?vid=87bb2c1e-ea53-44b4-b8f1-ecb8fc2a77a7"},"vehicle_type_id":"4","last_reported":1686251087,"current_range_meters":24400,"station_id":"ce4bhqp2rcd13ifvqhog","pricing_plan_id":"free"},{"bike_id":"639054e4-bf53-493f-93e7-f8222d728fc5","system_id":"levelo_inurba_marseille","lat":43.32367,"lon":5.38893,"is_reserved":false,"is_disabled":false,"rental_uris":{"android":"levelo://app?vid=639054e4-bf53-493f-93e7-f8222d728fc5","ios":"levelo://app?vid=639054e4-bf53-493f-93e7-f8222d728fc5"},"vehicle_type_id":"4","last_reported":1686251087,"current_range_meters":9600,"station_id":"ce4bhqp2rcd13ifvqhog","pricing_plan_id":"free"},{"bike_id":"e2c31cd1-6605-4ad4-804d-82388d866c6a","system_id":"levelo_inurba_marseille","lat":43.29601,"lon":5.381084,"is_reserved":false,"is_disabled":false,"rental_uris":{"android":"levelo://app?vid=e2c31cd1-6605-4ad4-804d-82388d866c6a","ios":"levelo://app?vid=e2c31cd1-6605-4ad4-804d-82388d866c6a"},"vehicle_type_id":"4","last_reported":1686251087,"current_range_meters":3600,"station_id":"ce4bgl12rcd13ifvqbo0","pricing_plan_id":"free"},{"bike_id":"24af4f6a-87f6-42aa-be72-8126d245643c","system_id":"levelo_inurba_marseille","lat":43.293249,"lon":5.371578,"is_reserved":false,"is_disabled":false,"rental_uris":{"android":"levelo://app?vid=24af4f6a-87f6-42aa-be72-8126d245643c","ios":"levelo://app?vid=24af4f6a-87f6-42aa-be72-8126d245643c"},"vehicle_type_id":"4","last_reported":1686251087,"current_range_meters":12400,"station_id":"ce4bgh92rcd13ifvqb40","pricing_plan_id":"free"},{"bike_id":"cf0ea41b-d5be-4197-94ef-8cd5675d0dd4","system_id":"levelo_inurba_marseille","lat":43.293249,"lon":5.371578,"is_reserved":false,"is_disabled":false,"rental_uris":{"android":"levelo://app?vid=cf0ea41b-d5be-4197-94ef-8cd5675d0dd4","ios":"levelo://app?vid=cf0ea41b-d5be-4197-94ef-8cd5675d0dd4"},"vehicle_type_id":"4","last_reported":1686251087,"current_range_meters":24400,"station_id":"ce4bgh92rcd13ifvqb40","pricing_plan_id":"free"},{"bike_id":"6103a4c4-030f-4a84-94ef-c344af7ef4b5","system_id":"levelo_inurba_marseille","lat":43.293009,"lon":5.374584,"is_reserved":false,"is_disabled":false,"rental_uris":{"android":"levelo://app?vid=6103a4c4-030f-4a84-94ef-c344af7ef4b5","ios":"levelo://app?vid=6103a4c4-030f-4a84-94ef-c344af7ef4b5"},"vehicle_type_id":"4","last_reported":1686251087,"current_range_meters":21600,"station_id":"ce4bgi12rcd13ifvqb70","pricing_plan_id":"free"},{"bike_id":"7fbce495-933b-458b-8c7b-1282a77e7988","system_id":"levelo_inurba_marseille","lat":43.30298,"lon":5.39213,"is_reserved":false,"is_disabled":false,"rental_uris":{"android":"levelo://app?vid=7fbce495-933b-458b-8c7b-1282a77e7988","ios":"levelo://app?vid=7fbce495-933b-458b-8c7b-1282a77e7988"},"vehicle_type_id":"4","last_reported":1686251087,"current_range_meters":8800,"station_id":"ce4bgkh2rcd13ifvqbk0","pricing_plan_id":"free"},{"bike_id":"61e4ccfd-dc98-4837-8123-2dfa5e087f42","system_id":"levelo_inurba_marseille","lat":43.293723,"lon":5.378443,"is_reserved":false,"is_disabled":false,"rental_uris":{"android":"levelo://app?vid=61e4ccfd-dc98-4837-8123-2dfa5e087f42","ios":"levelo://app?vid=61e4ccfd-dc98-4837-8123-2dfa5e087f42"},"vehicle_type_id":"4","last_reported":1686251087,"current_range_meters":10400,"station_id":"","pricing_plan_id":"free"},{"bike_id":"527c5855-b889-426b-b7ae-ea19c355ebe0","system_id":"levelo_inurba_marseille","lat":43.309038,"lon":5.396546,"is_reserved":false,"is_disabled":false,"rental_uris":{"android":"levelo://app?vid=527c5855-b889-426b-b7ae-ea19c355ebe0","ios":"levelo://app?vid=527c5855-b889-426b-b7ae-ea19c355ebe0"},"vehicle_type_id":"4","last_reported":1686251087,"current_range_meters":22800,"station_id":"ce4bh012rcd13ifvqcv0","pricing_plan_id":"free"},{"bike_id":"08117aa7-5024-4470-b464-d905cecce71b","system_id":"levelo_inurba_marseille","lat":43.309038,"lon":5.396546,"is_reserved":false,"is_disabled":false,"rental_uris":{"android":"levelo://app?vid=08117aa7-5024-4470-b464-d905cecce71b","ios":"levelo://app?vid=08117aa7-5024-4470-b464-d905cecce71b"},"vehicle_type_id":"4","last_reported":1686251087,"current_range_meters":0,"station_id":"ce4bh012rcd13ifvqcv0","pricing_plan_id":"free"},{"bike_id":"ef5558d2-fdf2-4e6c-a361-303d09acc9af","system_id":"levelo_inurba_marseille","lat":43.29529,"lon":5.385581,"is_reserved":false,"is_disabled":false,"rental_uris":{"android":"levelo://app?vid=ef5558d2-fdf2-4e6c-a361-303d09acc9af","ios":"levelo://app?vid=ef5558d2-fdf2-4e6c-a361-303d09acc9af"},"vehicle_type_id":"4","last_reported":1686251087,"current_range_meters":2400,"station_id":"ce4bgih2rcd13ifvqba0","pricing_plan_id":"free"},{"bike_id":"2a2ababe-8dd2-4dff-af51-17d1f53f4b46","system_id":"levelo_inurba_marseille","lat":43.290779,"lon":5.371482,"is_reserved":false,"is_disabled":false,"rental_uris":{"android":"levelo://app?vid=2a2ababe-8dd2-4dff-af51-17d1f53f4b46","ios":"levelo://app?vid=2a2ababe-8dd2-4dff-af51-17d1f53f4b46"},"vehicle_type_id":"4","last_reported":1686251087,"current_range_meters":0,"station_id":"ce4bh5p2rcd13ifvqe4g","pricing_plan_id":"free"},{"bike_id":"5671706f-e019-4583-bd33-69f0bae37a4b","system_id":"levelo_inurba_marseille","lat":43.290624,"lon":5.359245,"is_reserved":false,"is_disabled":false,"rental_uris":{"android":"levelo://app?vid=5671706f-e019-4583-bd33-69f0bae37a4b","ios":"levelo://app?vid=5671706f-e019-4583-bd33-69f0bae37a4b"},"vehicle_type_id":"4","last_reported":1686251087,"current_range_meters":30400,"station_id":"ce4bha92rcd13ifvqeg0","pricing_plan_id":"free"},{"bike_id":"5b9b0258-c4df-4582-9d3b-58cf167b65cd","system_id":"levelo_inurba_marseille","lat":43.294153,"lon":5.386305,"is_reserved":false,"is_disabled":false,"rental_uris":{"android":"levelo://app?vid=5b9b0258-c4df-4582-9d3b-58cf167b65cd","ios":"levelo://app?vid=5b9b0258-c4df-4582-9d3b-58cf167b65cd"},"vehicle_type_id":"4","last_reported":1686251087,"current_range_meters":10000,"station_id":"ce4bh2h2rcd13ifvqdh0","pricing_plan_id":"free"},{"bike_id":"1d01387e-9464-4821-8823-fe3c6301a512","system_id":"levelo_inurba_marseille","lat":43.294153,"lon":5.386305,"is_reserved":false,"is_disabled":false,"rental_uris":{"android":"levelo://app?vid=1d01387e-9464-4821-8823-fe3c6301a512","ios":"levelo://app?vid=1d01387e-9464-4821-8823-fe3c6301a512"},"vehicle_type_id":"4","last_reported":1686251087,"current_range_meters":18400,"station_id":"ce4bh2h2rcd13ifvqdh0","pricing_plan_id":"free"},{"bike_id":"c3341e06-2406-4057-a91f-124620e002b5","system_id":"levelo_inurba_marseille","lat":43.294162,"lon":5.386292,"is_reserved":false,"is_disabled":false,"rental_uris":{"android":"levelo://app?vid=c3341e06-2406-4057-a91f-124620e002b5","ios":"levelo://app?vid=c3341e06-2406-4057-a91f-124620e002b5"},"vehicle_type_id":"4","last_reported":1686251087,"current_range_meters":1200,"station_id":"ce4bh2h2rcd13ifvqdh0","pricing_plan_id":"free"},{"bike_id":"6609bf20-6a9d-4b4b-9c6b-e1185a2a75e4","system_id":"levelo_inurba_marseille","lat":43.292642,"lon":5.384254,"is_reserved":false,"is_disabled":false,"rental_uris":{"android":"levelo://app?vid=6609bf20-6a9d-4b4b-9c6b-e1185a2a75e4","ios":"levelo://app?vid=6609bf20-6a9d-4b4b-9c6b-e1185a2a75e4"},"vehicle_type_id":"4","last_reported":1686251087,"current_range_meters":400,"station_id":"ce4bh692rcd13ifvqea0","pricing_plan_id":"free"},{"bike_id":"dbbf818c-b506-4c69-a5ce-519f63bbea52","system_id":"levelo_inurba_marseille","lat":43.292642,"lon":5.384254,"is_reserved":false,"is_disabled":false,"rental_uris":{"android":"levelo://app?vid=dbbf818c-b506-4c69-a5ce-519f63bbea52","ios":"levelo://app?vid=dbbf818c-b506-4c69-a5ce-519f63bbea52"},"vehicle_type_id":"4","last_reported":1686251087,"current_range_meters":2800,"station_id":"ce4bh692rcd13ifvqea0","pricing_plan_id":"free"},{"bike_id":"fa482f3f-1bbd-474b-a853-e8e12061b623","system_id":"levelo_inurba_marseille","lat":43.304296,"lon":5.397513,"is_reserved":false,"is_disabled":false,"rental_uris":{"android":"levelo://app?vid=fa482f3f-1bbd-474b-a853-e8e12061b623","ios":"levelo://app?vid=fa482f3f-1bbd-474b-a853-e8e12061b623"},"vehicle_type_id":"4","last_reported":1686251087,"current_range_meters":26400,"station_id":"ce4bh092rcd13ifvqd20","pricing_plan_id":"free"},{"bike_id":"c9bf4542-5dda-4af2-8dec-e6fb1f0bf21a","system_id":"levelo_inurba_marseille","lat":43.304296,"lon":5.397513,"is_reserved":false,"is_disabled":false,"rental_uris":{"android":"levelo://app?vid=c9bf4542-5dda-4af2-8dec-e6fb1f0bf21a","ios":"levelo://app?vid=c9bf4542-5dda-4af2-8dec-e6fb1f0bf21a"},"vehicle_type_id":"4","last_reported":1686251087,"current_range_meters":22800,"station_id":"ce4bh092rcd13ifvqd20","pricing_plan_id":"free"},{"bike_id":"7898a738-9a99-4207-9254-cec3fb88ed78","system_id":"levelo_inurba_marseille","lat":43.33041,"lon":5.38916,"is_reserved":false,"is_disabled":false,"rental_uris":{"android":"levelo://app?vid=7898a738-9a99-4207-9254-cec3fb88ed78","ios":"levelo://app?vid=7898a738-9a99-4207-9254-cec3fb88ed78"},"vehicle_type_id":"4","last_reported":1686251087,"current_range_meters":24800,"station_id":"ce4bhr92rcd13ifvqhrg","pricing_plan_id":"free"},{"bike_id":"c5d61fb1-3189-46d0-88cd-e5b13b2f85da","system_id":"levelo_inurba_marseille","lat":43.33042,"lon":5.38918,"is_reserved":false,"is_disabled":false,"rental_uris":{"android":"levelo://app?vid=c5d61fb1-3189-46d0-88cd-e5b13b2f85da","ios":"levelo://app?vid=c5d61fb1-3189-46d0-88cd-e5b13b2f85da"},"vehicle_type_id":"4","last_reported":1686251087,"current_range_meters":22400,"station_id":"ce4bhr92rcd13ifvqhrg","pricing_plan_id":"free"},{"bike_id":"5103420d-338f-4f56-a0f3-7e019e5c9924","system_id":"levelo_inurba_marseille","lat":43.33041,"lon":5.3892,"is_reserved":false,"is_disabled":false,"rental_uris":{"android":"levelo://app?vid=5103420d-338f-4f56-a0f3-7e019e5c9924","ios":"levelo://app?vid=5103420d-338f-4f56-a0f3-7e019e5c9924"},"vehicle_type_id":"4","last_reported":1686251087,"current_range_meters":22800,"station_id":"ce4bhr92rcd13ifvqhrg","pricing_plan_id":"free"},{"bike_id":"525c4daf-7688-46eb-8c01-8b80d6fc04d9","system_id":"levelo_inurba_marseille","lat":43.330471,"lon":5.389153,"is_reserved":false,"is_disabled":false,"rental_uris":{"android":"levelo://app?vid=525c4daf-7688-46eb-8c01-8b80d6fc04d9","ios":"levelo://app?vid=525c4daf-7688-46eb-8c01-8b80d6fc04d9"},"vehicle_type_id":"4","last_reported":1686251087,"current_range_meters":25600,"station_id":"","pricing_plan_id":"free"},{"bike_id":"50be3487-1d11-48f3-b8ef-a02bd4845d0b","system_id":"levelo_inurba_marseille","lat":43.33043,"lon":5.38924,"is_reserved":false,"is_disabled":false,"rental_uris":{"android":"levelo://app?vid=50be3487-1d11-48f3-b8ef-a02bd4845d0b","ios":"levelo://app?vid=50be3487-1d11-48f3-b8ef-a02bd4845d0b"},"vehicle_type_id":"4","last_reported":1686251087,"current_range_meters":26800,"station_id":"ce4bhr92rcd13ifvqhrg","pricing_plan_id":"free"},{"bike_id":"eebb0572-4916-4105-a791-7d74572be411","system_id":"levelo_inurba_marseille","lat":43.290103,"lon":5.356114,"is_reserved":false,"is_disabled":false,"rental_uris":{"android":"levelo://app?vid=eebb0572-4916-4105-a791-7d74572be411","ios":"levelo://app?vid=eebb0572-4916-4105-a791-7d74572be411"},"vehicle_type_id":"4","last_reported":1686251087,"current_range_meters":12000,"station_id":"ce4bhb92rcd13ifvqen0","pricing_plan_id":"free"},{"bike_id":"0175e5aa-0447-43e7-87eb-ff6c3d267880","system_id":"levelo_inurba_marseille","lat":43.295169,"lon":5.390426,"is_reserved":false,"is_disabled":false,"rental_uris":{"android":"levelo://app?vid=0175e5aa-0447-43e7-87eb-ff6c3d267880","ios":"levelo://app?vid=0175e5aa-0447-43e7-87eb-ff6c3d267880"},"vehicle_type_id":"4","last_reported":1686251087,"current_range_meters":8000,"station_id":"ce4bh3p2rcd13ifvqdp0","pricing_plan_id":"free"},{"bike_id":"ccba32b4-08d8-4479-86a6-7f4bfb2846fb","system_id":"levelo_inurba_marseille","lat":43.31992,"lon":5.39919,"is_reserved":false,"is_disabled":false,"rental_uris":{"android":"levelo://app?vid=ccba32b4-08d8-4479-86a6-7f4bfb2846fb","ios":"levelo://app?vid=ccba32b4-08d8-4479-86a6-7f4bfb2846fb"},"vehicle_type_id":"4","last_reported":1686251087,"current_range_meters":0,"station_id":"","pricing_plan_id":"free"},{"bike_id":"d3c226a5-dd73-4d5e-935d-9f1dbacf709b","system_id":"levelo_inurba_marseille","lat":43.30929,"lon":5.40133,"is_reserved":false,"is_disabled":false,"rental_uris":{"android":"levelo://app?vid=d3c226a5-dd73-4d5e-935d-9f1dbacf709b","ios":"levelo://app?vid=d3c226a5-dd73-4d5e-935d-9f1dbacf709b"},"vehicle_type_id":"4","last_reported":1686251087,"current_range_meters":8400,"station_id":"","pricing_plan_id":"free"},{"bike_id":"b7f1a644-d66d-4bbf-9b3d-301ef1c29b78","system_id":"levelo_inurba_marseille","lat":43.33745,"lon":5.37443,"is_reserved":false,"is_disabled":false,"rental_uris":{"android":"levelo://app?vid=b7f1a644-d66d-4bbf-9b3d-301ef1c29b78","ios":"levelo://app?vid=b7f1a644-d66d-4bbf-9b3d-301ef1c29b78"},"vehicle_type_id":"4","last_reported":1686251087,"current_range_meters":28000,"station_id":"","pricing_plan_id":"free"},{"bike_id":"ca97e488-a7f4-4dda-afa4-f84c1715e79f","system_id":"levelo_inurba_marseille","lat":43.33741,"lon":5.37474,"is_reserved":false,"is_disabled":false,"rental_uris":{"android":"levelo://app?vid=ca97e488-a7f4-4dda-afa4-f84c1715e79f","ios":"levelo://app?vid=ca97e488-a7f4-4dda-afa4-f84c1715e79f"},"vehicle_type_id":"4","last_reported":1686251087,"current_range_meters":0,"station_id":"","pricing_plan_id":"free"},{"bike_id":"bf4b07bc-f4b6-48f9-b77e-66ec24318ced","system_id":"levelo_inurba_marseille","lat":43.33748,"lon":5.37482,"is_reserved":false,"is_disabled":false,"rental_uris":{"android":"levelo://app?vid=bf4b07bc-f4b6-48f9-b77e-66ec24318ced","ios":"levelo://app?vid=bf4b07bc-f4b6-48f9-b77e-66ec24318ced"},"vehicle_type_id":"4","last_reported":1686251087,"current_range_meters":9200,"station_id":"","pricing_plan_id":"free"},{"bike_id":"265c0905-166c-408b-8d33-95a8e86424e1","system_id":"levelo_inurba_marseille","lat":43.337582,"lon":5.374483,"is_reserved":false,"is_disabled":false,"rental_uris":{"android":"levelo://app?vid=265c0905-166c-408b-8d33-95a8e86424e1","ios":"levelo://app?vid=265c0905-166c-408b-8d33-95a8e86424e1"},"vehicle_type_id":"4","last_reported":1686251087,"current_range_meters":23200,"station_id":"","pricing_plan_id":"free"},{"bike_id":"fb041ec1-b611-46eb-9d8b-3229cfb3396a","system_id":"levelo_inurba_marseille","lat":43.33768,"lon":5.37459,"is_reserved":false,"is_disabled":false,"rental_uris":{"android":"levelo://app?vid=fb041ec1-b611-46eb-9d8b-3229cfb3396a","ios":"levelo://app?vid=fb041ec1-b611-46eb-9d8b-3229cfb3396a"},"vehicle_type_id":"4","last_reported":1686251087,"current_range_meters":30400,"station_id":"","pricing_plan_id":"free"},{"bike_id":"ef310309-e471-4d3c-b0c6-bbc3edcaf036","system_id":"levelo_inurba_marseille","lat":43.286591,"lon":5.363346,"is_reserved":false,"is_disabled":false,"rental_uris":{"android":"levelo://app?vid=ef310309-e471-4d3c-b0c6-bbc3edcaf036","ios":"levelo://app?vid=ef310309-e471-4d3c-b0c6-bbc3edcaf036"},"vehicle_type_id":"4","last_reported":1686251087,"current_range_meters":23200,"station_id":"ce4bhah2rcd13ifvqej0","pricing_plan_id":"free"},{"bike_id":"eaa76de0-1f28-4ed1-b1f2-f42729fc775c","system_id":"levelo_inurba_marseille","lat":43.286591,"lon":5.363346,"is_reserved":false,"is_disabled":false,"rental_uris":{"android":"levelo://app?vid=eaa76de0-1f28-4ed1-b1f2-f42729fc775c","ios":"levelo://app?vid=eaa76de0-1f28-4ed1-b1f2-f42729fc775c"},"vehicle_type_id":"4","last_reported":1686251087,"current_range_meters":28000,"station_id":"ce4bhah2rcd13ifvqej0","pricing_plan_id":"free"},{"bike_id":"bfdfe741-4b22-4978-a0db-1a7db8d486ba","system_id":"levelo_inurba_marseille","lat":43.28698,"lon":5.37387,"is_reserved":false,"is_disabled":false,"rental_uris":{"android":"levelo://app?vid=bfdfe741-4b22-4978-a0db-1a7db8d486ba","ios":"levelo://app?vid=bfdfe741-4b22-4978-a0db-1a7db8d486ba"},"vehicle_type_id":"4","last_reported":1686251087,"current_range_meters":6800,"station_id":"","pricing_plan_id":"free"},{"bike_id":"feba6ab0-4af0-482b-98f4-695a52333158","system_id":"levelo_inurba_marseille","lat":43.295196,"lon":5.39397,"is_reserved":false,"is_disabled":false,"rental_uris":{"android":"levelo://app?vid=feba6ab0-4af0-482b-98f4-695a52333158","ios":"levelo://app?vid=feba6ab0-4af0-482b-98f4-695a52333158"},"vehicle_type_id":"4","last_reported":1686251087,"current_range_meters":800,"station_id":"ce4bh292rcd13ifvqdf0","pricing_plan_id":"free"},{"bike_id":"0a068de7-d6bb-4d0c-9338-9333450f08ab","system_id":"levelo_inurba_marseille","lat":43.290345,"lon":5.38646,"is_reserved":false,"is_disabled":false,"rental_uris":{"android":"levelo://app?vid=0a068de7-d6bb-4d0c-9338-9333450f08ab","ios":"levelo://app?vid=0a068de7-d6bb-4d0c-9338-9333450f08ab"},"vehicle_type_id":"4","last_reported":1686251087,"current_range_meters":23600,"station_id":"ce4bh4p2rcd13ifvqe0g","pricing_plan_id":"free"},{"bike_id":"71dc0f65-f704-44e5-b354-30ab9f32c6ab","system_id":"levelo_inurba_marseille","lat":43.290336,"lon":5.386425,"is_reserved":false,"is_disabled":false,"rental_uris":{"android":"levelo://app?vid=71dc0f65-f704-44e5-b354-30ab9f32c6ab","ios":"levelo://app?vid=71dc0f65-f704-44e5-b354-30ab9f32c6ab"},"vehicle_type_id":"4","last_reported":1686251087,"current_range_meters":6400,"station_id":"ce4bh4p2rcd13ifvqe0g","pricing_plan_id":"free"},{"bike_id":"c2465460-1007-4a64-92db-bb270dee560a","system_id":"levelo_inurba_marseille","lat":43.290345,"lon":5.38646,"is_reserved":false,"is_disabled":false,"rental_uris":{"android":"levelo://app?vid=c2465460-1007-4a64-92db-bb270dee560a","ios":"levelo://app?vid=c2465460-1007-4a64-92db-bb270dee560a"},"vehicle_type_id":"4","last_reported":1686251087,"current_range_meters":0,"station_id":"ce4bh4p2rcd13ifvqe0g","pricing_plan_id":"free"},{"bike_id":"cbe5ae28-65e7-4237-abc1-81e67a93cd31","system_id":"levelo_inurba_marseille","lat":43.290336,"lon":5.386425,"is_reserved":false,"is_disabled":false,"rental_uris":{"android":"levelo://app?vid=cbe5ae28-65e7-4237-abc1-81e67a93cd31","ios":"levelo://app?vid=cbe5ae28-65e7-4237-abc1-81e67a93cd31"},"vehicle_type_id":"4","last_reported":1686251087,"current_range_meters":6400,"station_id":"ce4bh4p2rcd13ifvqe0g","pricing_plan_id":"free"},{"bike_id":"8ac78b84-c76d-4a52-afa7-9364374cbe02","system_id":"levelo_inurba_marseille","lat":43.286039,"lon":5.370679,"is_reserved":false,"is_disabled":false,"rental_uris":{"android":"levelo://app?vid=8ac78b84-c76d-4a52-afa7-9364374cbe02","ios":"levelo://app?vid=8ac78b84-c76d-4a52-afa7-9364374cbe02"},"vehicle_type_id":"4","last_reported":1686251087,"current_range_meters":0,"station_id":"ce4bht12rcd13ifvqi60","pricing_plan_id":"free"},{"bike_id":"c71fb33b-8021-4063-8f4a-ad5a83802dbe","system_id":"levelo_inurba_marseille","lat":43.28607,"lon":5.3706,"is_reserved":false,"is_disabled":false,"rental_uris":{"android":"levelo://app?vid=c71fb33b-8021-4063-8f4a-ad5a83802dbe","ios":"levelo://app?vid=c71fb33b-8021-4063-8f4a-ad5a83802dbe"},"vehicle_type_id":"4","last_reported":1686251087,"current_range_meters":0,"station_id":"ce4bht12rcd13ifvqi60","pricing_plan_id":"free"},{"bike_id":"8c306d35-d71f-43b8-a7ba-730387ea1445","system_id":"levelo_inurba_marseille","lat":43.28725,"lon":5.37938,"is_reserved":false,"is_disabled":false,"rental_uris":{"android":"levelo://app?vid=8c306d35-d71f-43b8-a7ba-730387ea1445","ios":"levelo://app?vid=8c306d35-d71f-43b8-a7ba-730387ea1445"},"vehicle_type_id":"4","last_reported":1686251087,"current_range_meters":1600,"station_id":"ce4bh9p2rcd13ifvqec0","pricing_plan_id":"free"},{"bike_id":"bbc6ed9c-d7b0-4496-90f8-e96be2498ff6","system_id":"levelo_inurba_marseille","lat":43.31705,"lon":5.40496,"is_reserved":false,"is_disabled":false,"rental_uris":{"android":"levelo://app?vid=bbc6ed9c-d7b0-4496-90f8-e96be2498ff6","ios":"levelo://app?vid=bbc6ed9c-d7b0-4496-90f8-e96be2498ff6"},"vehicle_type_id":"4","last_reported":1686251087,"current_range_meters":5200,"station_id":"","pricing_plan_id":"free"},{"bike_id":"c0c361fa-8669-41c8-9ed5-421dc9fc6055","system_id":"levelo_inurba_marseille","lat":43.29207,"lon":5.39324,"is_reserved":false,"is_disabled":false,"rental_uris":{"android":"levelo://app?vid=c0c361fa-8669-41c8-9ed5-421dc9fc6055","ios":"levelo://app?vid=c0c361fa-8669-41c8-9ed5-421dc9fc6055"},"vehicle_type_id":"4","last_reported":1686251087,"current_range_meters":16400,"station_id":"","pricing_plan_id":"free"},{"bike_id":"05993d08-53cd-489b-938f-9aeaa06838e9","system_id":"levelo_inurba_marseille","lat":43.284534,"lon":5.358662,"is_reserved":false,"is_disabled":false,"rental_uris":{"android":"levelo://app?vid=05993d08-53cd-489b-938f-9aeaa06838e9","ios":"levelo://app?vid=05993d08-53cd-489b-938f-9aeaa06838e9"},"vehicle_type_id":"4","last_reported":1686251087,"current_range_meters":14400,"station_id":"ce4bhah2rcd13ifvqei0","pricing_plan_id":"free"},{"bike_id":"ac8b0559-7cea-47c7-90f4-a17ddac528f2","system_id":"levelo_inurba_marseille","lat":43.28621,"lon":5.35101,"is_reserved":false,"is_disabled":false,"rental_uris":{"android":"levelo://app?vid=ac8b0559-7cea-47c7-90f4-a17ddac528f2","ios":"levelo://app?vid=ac8b0559-7cea-47c7-90f4-a17ddac528f2"},"vehicle_type_id":"4","last_reported":1686251087,"current_range_meters":0,"station_id":"","pricing_plan_id":"free"},{"bike_id":"60394f25-17b0-421f-a22a-9273a52f78d6","system_id":"levelo_inurba_marseille","lat":43.29568,"lon":5.39992,"is_reserved":false,"is_disabled":false,"rental_uris":{"android":"levelo://app?vid=60394f25-17b0-421f-a22a-9273a52f78d6","ios":"levelo://app?vid=60394f25-17b0-421f-a22a-9273a52f78d6"},"vehicle_type_id":"4","last_reported":1686251087,"current_range_meters":0,"station_id":"ce4bh312rcd13ifvqdj0","pricing_plan_id":"free"},{"bike_id":"8f5063dd-acad-4f08-bc9c-0b4ea8e0f039","system_id":"levelo_inurba_marseille","lat":43.284787,"lon":5.384116,"is_reserved":false,"is_disabled":false,"rental_uris":{"android":"levelo://app?vid=8f5063dd-acad-4f08-bc9c-0b4ea8e0f039","ios":"levelo://app?vid=8f5063dd-acad-4f08-bc9c-0b4ea8e0f039"},"vehicle_type_id":"4","last_reported":1686251087,"current_range_meters":3600,"station_id":"ce4bh512rcd13ifvqe3g","pricing_plan_id":"free"},{"bike_id":"b076a4fc-a17e-4ccd-8d50-bc13b35532a6","system_id":"levelo_inurba_marseille","lat":43.283494,"lon":5.380945,"is_reserved":false,"is_disabled":false,"rental_uris":{"android":"levelo://app?vid=b076a4fc-a17e-4ccd-8d50-bc13b35532a6","ios":"levelo://app?vid=b076a4fc-a17e-4ccd-8d50-bc13b35532a6"},"vehicle_type_id":"4","last_reported":1686251087,"current_range_meters":0,"station_id":"ce4bh412rcd13ifvqdr0","pricing_plan_id":"free"},{"bike_id":"ae232d39-b160-410f-a53c-e104a0631f2e","system_id":"levelo_inurba_marseille","lat":43.32412,"lon":5.4068,"is_reserved":false,"is_disabled":false,"rental_uris":{"android":"levelo://app?vid=ae232d39-b160-410f-a53c-e104a0631f2e","ios":"levelo://app?vid=ae232d39-b160-410f-a53c-e104a0631f2e"},"vehicle_type_id":"4","last_reported":1686251087,"current_range_meters":23600,"station_id":"","pricing_plan_id":"free"},{"bike_id":"ddd64aa6-780a-4221-87aa-50f0c94a5b90","system_id":"levelo_inurba_marseille","lat":43.292724,"lon":5.401131,"is_reserved":false,"is_disabled":false,"rental_uris":{"android":"levelo://app?vid=ddd64aa6-780a-4221-87aa-50f0c94a5b90","ios":"levelo://app?vid=ddd64aa6-780a-4221-87aa-50f0c94a5b90"},"vehicle_type_id":"4","last_reported":1686251087,"current_range_meters":0,"station_id":"ce4bh312rcd13ifvqdk0","pricing_plan_id":"free"},{"bike_id":"9cc47ae5-be30-45b6-85f9-d8455b7bc350","system_id":"levelo_inurba_marseille","lat":43.28361,"lon":5.38547,"is_reserved":false,"is_disabled":false,"rental_uris":{"android":"levelo://app?vid=9cc47ae5-be30-45b6-85f9-d8455b7bc350","ios":"levelo://app?vid=9cc47ae5-be30-45b6-85f9-d8455b7bc350"},"vehicle_type_id":"4","last_reported":1686251087,"current_range_meters":0,"station_id":"","pricing_plan_id":"free"},{"bike_id":"2d302447-d4ec-4ed3-81b2-d07c8dba417a","system_id":"levelo_inurba_marseille","lat":43.283502,"lon":5.386471,"is_reserved":false,"is_disabled":false,"rental_uris":{"android":"levelo://app?vid=2d302447-d4ec-4ed3-81b2-d07c8dba417a","ios":"levelo://app?vid=2d302447-d4ec-4ed3-81b2-d07c8dba417a"},"vehicle_type_id":"4","last_reported":1686251087,"current_range_meters":18000,"station_id":"ce4bh492rcd13ifvqdvg","pricing_plan_id":"free"},{"bike_id":"f71f41fa-ba45-4f2c-afee-4243e689af82","system_id":"levelo_inurba_marseille","lat":43.282754,"lon":5.350519,"is_reserved":false,"is_disabled":false,"rental_uris":{"android":"levelo://app?vid=f71f41fa-ba45-4f2c-afee-4243e689af82","ios":"levelo://app?vid=f71f41fa-ba45-4f2c-afee-4243e689af82"},"vehicle_type_id":"4","last_reported":1686251087,"current_range_meters":20000,"station_id":"ce4bhbp2rcd13ifvqerg","pricing_plan_id":"free"},{"bike_id":"b930c453-4a8c-4905-ac94-0909c947165e","system_id":"levelo_inurba_marseille","lat":43.282744,"lon":5.350533,"is_reserved":false,"is_disabled":false,"rental_uris":{"android":"levelo://app?vid=b930c453-4a8c-4905-ac94-0909c947165e","ios":"levelo://app?vid=b930c453-4a8c-4905-ac94-0909c947165e"},"vehicle_type_id":"4","last_reported":1686251087,"current_range_meters":2000,"station_id":"ce4bhbp2rcd13ifvqerg","pricing_plan_id":"free"},{"bike_id":"ca5348e3-8da3-4eae-b4ed-c0340ed71e53","system_id":"levelo_inurba_marseille","lat":43.282754,"lon":5.350519,"is_reserved":false,"is_disabled":false,"rental_uris":{"android":"levelo://app?vid=ca5348e3-8da3-4eae-b4ed-c0340ed71e53","ios":"levelo://app?vid=ca5348e3-8da3-4eae-b4ed-c0340ed71e53"},"vehicle_type_id":"4","last_reported":1686251087,"current_range_meters":13600,"station_id":"ce4bhbp2rcd13ifvqerg","pricing_plan_id":"free"},{"bike_id":"496aa5b6-fe0a-4e0f-b56a-e7ab2f466623","system_id":"levelo_inurba_marseille","lat":43.282754,"lon":5.350519,"is_reserved":false,"is_disabled":false,"rental_uris":{"android":"levelo://app?vid=496aa5b6-fe0a-4e0f-b56a-e7ab2f466623","ios":"levelo://app?vid=496aa5b6-fe0a-4e0f-b56a-e7ab2f466623"},"vehicle_type_id":"4","last_reported":1686251087,"current_range_meters":3600,"station_id":"ce4bhbp2rcd13ifvqerg","pricing_plan_id":"free"},{"bike_id":"25e8b32d-5de3-4896-b94c-17c63b4ac1bf","system_id":"levelo_inurba_marseille","lat":43.284462,"lon":5.392121,"is_reserved":false,"is_disabled":false,"rental_uris":{"android":"levelo://app?vid=25e8b32d-5de3-4896-b94c-17c63b4ac1bf","ios":"levelo://app?vid=25e8b32d-5de3-4896-b94c-17c63b4ac1bf"},"vehicle_type_id":"4","last_reported":1686251087,"current_range_meters":4000,"station_id":"ce4bhoh2rcd13ifvqh5g","pricing_plan_id":"free"},{"bike_id":"0ab176a2-a074-4277-980f-4345f48c5a5e","system_id":"levelo_inurba_marseille","lat":43.32656,"lon":5.40993,"is_reserved":false,"is_disabled":false,"rental_uris":{"android":"levelo://app?vid=0ab176a2-a074-4277-980f-4345f48c5a5e","ios":"levelo://app?vid=0ab176a2-a074-4277-980f-4345f48c5a5e"},"vehicle_type_id":"4","last_reported":1686251087,"current_range_meters":16000,"station_id":"","pricing_plan_id":"free"},{"bike_id":"2b269f4d-13d3-481f-8b13-66e1100986b6","system_id":"levelo_inurba_marseille","lat":43.28125,"lon":5.34639,"is_reserved":false,"is_disabled":false,"rental_uris":{"android":"levelo://app?vid=2b269f4d-13d3-481f-8b13-66e1100986b6","ios":"levelo://app?vid=2b269f4d-13d3-481f-8b13-66e1100986b6"},"vehicle_type_id":"4","last_reported":1686251087,"current_range_meters":3600,"station_id":"","pricing_plan_id":"free"},{"bike_id":"29581c17-e4a9-499c-a474-2380726c9020","system_id":"levelo_inurba_marseille","lat":43.32044,"lon":5.41549,"is_reserved":false,"is_disabled":false,"rental_uris":{"android":"levelo://app?vid=29581c17-e4a9-499c-a474-2380726c9020","ios":"levelo://app?vid=29581c17-e4a9-499c-a474-2380726c9020"},"vehicle_type_id":"4","last_reported":1686251087,"current_range_meters":5200,"station_id":"","pricing_plan_id":"free"},{"bike_id":"2d0a0970-0dab-4c16-9217-d4bc4660c003","system_id":"levelo_inurba_marseille","lat":43.320045,"lon":5.415046,"is_reserved":false,"is_disabled":false,"rental_uris":{"android":"levelo://app?vid=2d0a0970-0dab-4c16-9217-d4bc4660c003","ios":"levelo://app?vid=2d0a0970-0dab-4c16-9217-d4bc4660c003"},"vehicle_type_id":"4","last_reported":1686251087,"current_range_meters":0,"station_id":"ce4bhq92rcd13ifvqhkg","pricing_plan_id":"free"},{"bike_id":"b6d1e90e-f90b-4422-9e17-98a644ab2b4e","system_id":"levelo_inurba_marseille","lat":43.279742,"lon":5.38744,"is_reserved":false,"is_disabled":false,"rental_uris":{"android":"levelo://app?vid=b6d1e90e-f90b-4422-9e17-98a644ab2b4e","ios":"levelo://app?vid=b6d1e90e-f90b-4422-9e17-98a644ab2b4e"},"vehicle_type_id":"4","last_reported":1686251087,"current_range_meters":22800,"station_id":"ce4bhg12rcd13ifvqf80","pricing_plan_id":"free"},{"bike_id":"ab28cfb0-b0b6-426f-a19d-e334622d2ddb","system_id":"levelo_inurba_marseille","lat":43.292569,"lon":5.409107,"is_reserved":false,"is_disabled":false,"rental_uris":{"android":"levelo://app?vid=ab28cfb0-b0b6-426f-a19d-e334622d2ddb","ios":"levelo://app?vid=ab28cfb0-b0b6-426f-a19d-e334622d2ddb"},"vehicle_type_id":"4","last_reported":1686251087,"current_range_meters":0,"station_id":"ce4bh192rcd13ifvqdc0","pricing_plan_id":"free"},{"bike_id":"51903ad4-fce9-4d1f-945d-5221f6b35b3c","system_id":"levelo_inurba_marseille","lat":43.27621,"lon":5.36102,"is_reserved":false,"is_disabled":false,"rental_uris":{"android":"levelo://app?vid=51903ad4-fce9-4d1f-945d-5221f6b35b3c","ios":"levelo://app?vid=51903ad4-fce9-4d1f-945d-5221f6b35b3c"},"vehicle_type_id":"4","last_reported":1686251087,"current_range_meters":3200,"station_id":"ce4bgj92rcd13ifvqbe0","pricing_plan_id":"free"},{"bike_id":"d94c5494-12fe-42a0-ac35-ff9c86197ac1","system_id":"levelo_inurba_marseille","lat":43.27612,"lon":5.3611,"is_reserved":false,"is_disabled":false,"rental_uris":{"android":"levelo://app?vid=d94c5494-12fe-42a0-ac35-ff9c86197ac1","ios":"levelo://app?vid=d94c5494-12fe-42a0-ac35-ff9c86197ac1"},"vehicle_type_id":"4","last_reported":1686251087,"current_range_meters":0,"station_id":"ce4bgj92rcd13ifvqbe0","pricing_plan_id":"free"},{"bike_id":"9a6369c6-d30a-479b-8993-56b75581640b","system_id":"levelo_inurba_marseille","lat":43.273613,"lon":5.362705,"is_reserved":false,"is_disabled":false,"rental_uris":{"android":"levelo://app?vid=9a6369c6-d30a-479b-8993-56b75581640b","ios":"levelo://app?vid=9a6369c6-d30a-479b-8993-56b75581640b"},"vehicle_type_id":"4","last_reported":1686251087,"current_range_meters":10800,"station_id":"ce4bhbh2rcd13ifvqeo0","pricing_plan_id":"free"},{"bike_id":"28a4e891-222e-447e-a173-5e3477cf025a","system_id":"levelo_inurba_marseille","lat":43.33605,"lon":5.41028,"is_reserved":false,"is_disabled":false,"rental_uris":{"android":"levelo://app?vid=28a4e891-222e-447e-a173-5e3477cf025a","ios":"levelo://app?vid=28a4e891-222e-447e-a173-5e3477cf025a"},"vehicle_type_id":"4","last_reported":1686251087,"current_range_meters":800,"station_id":"ce4bhqh2rcd13ifvqhmg","pricing_plan_id":"free"},{"bike_id":"83113b8c-b6e0-4d3a-8ece-0c5eebcd2dd0","system_id":"levelo_inurba_marseille","lat":43.276769,"lon":5.388787,"is_reserved":false,"is_disabled":false,"rental_uris":{"android":"levelo://app?vid=83113b8c-b6e0-4d3a-8ece-0c5eebcd2dd0","ios":"levelo://app?vid=83113b8c-b6e0-4d3a-8ece-0c5eebcd2dd0"},"vehicle_type_id":"4","last_reported":1686251087,"current_range_meters":23600,"station_id":"ce4bhi12rcd13ifvqfo0","pricing_plan_id":"free"},{"bike_id":"9a27b3c4-fbf8-4801-b926-10a8ffb1a67d","system_id":"levelo_inurba_marseille","lat":43.310785,"lon":5.424305,"is_reserved":false,"is_disabled":false,"rental_uris":{"android":"levelo://app?vid=9a27b3c4-fbf8-4801-b926-10a8ffb1a67d","ios":"levelo://app?vid=9a27b3c4-fbf8-4801-b926-10a8ffb1a67d"},"vehicle_type_id":"4","last_reported":1686251087,"current_range_meters":24000,"station_id":"ce4bhp92rcd13ifvqhag","pricing_plan_id":"free"},{"bike_id":"cb361806-7d5e-46cb-91fe-3363938d02e9","system_id":"levelo_inurba_marseille","lat":43.28252,"lon":5.40817,"is_reserved":false,"is_disabled":false,"rental_uris":{"android":"levelo://app?vid=cb361806-7d5e-46cb-91fe-3363938d02e9","ios":"levelo://app?vid=cb361806-7d5e-46cb-91fe-3363938d02e9"},"vehicle_type_id":"4","last_reported":1686251087,"current_range_meters":24800,"station_id":"","pricing_plan_id":"free"},{"bike_id":"df9b686f-3666-44a5-a684-a976322a033a","system_id":"levelo_inurba_marseille","lat":43.295523,"lon":5.422926,"is_reserved":false,"is_disabled":false,"rental_uris":{"android":"levelo://app?vid=df9b686f-3666-44a5-a684-a976322a033a","ios":"levelo://app?vid=df9b686f-3666-44a5-a684-a976322a033a"},"vehicle_type_id":"4","last_reported":1686251087,"current_range_meters":0,"station_id":"ce4bhph2rcd13ifvqhdg","pricing_plan_id":"free"},{"bike_id":"3811e2d8-99ee-46f0-897c-cbc61f8f69de","system_id":"levelo_inurba_marseille","lat":43.28032,"lon":5.40831,"is_reserved":false,"is_disabled":false,"rental_uris":{"android":"levelo://app?vid=3811e2d8-99ee-46f0-897c-cbc61f8f69de","ios":"levelo://app?vid=3811e2d8-99ee-46f0-897c-cbc61f8f69de"},"vehicle_type_id":"4","last_reported":1686251087,"current_range_meters":800,"station_id":"","pricing_plan_id":"free"},{"bike_id":"7e120fb1-3d99-4af3-9452-b3b0ed37c62f","system_id":"levelo_inurba_marseille","lat":43.278128,"lon":5.407195,"is_reserved":false,"is_disabled":false,"rental_uris":{"android":"levelo://app?vid=7e120fb1-3d99-4af3-9452-b3b0ed37c62f","ios":"levelo://app?vid=7e120fb1-3d99-4af3-9452-b3b0ed37c62f"},"vehicle_type_id":"4","last_reported":1686251087,"current_range_meters":0,"station_id":"ce4bhnh2rcd13ifvqgtg","pricing_plan_id":"free"},{"bike_id":"7f11f856-26ac-40a1-b50c-3e6523d64a82","system_id":"levelo_inurba_marseille","lat":43.278128,"lon":5.407195,"is_reserved":false,"is_disabled":false,"rental_uris":{"android":"levelo://app?vid=7f11f856-26ac-40a1-b50c-3e6523d64a82","ios":"levelo://app?vid=7f11f856-26ac-40a1-b50c-3e6523d64a82"},"vehicle_type_id":"4","last_reported":1686251087,"current_range_meters":4000,"station_id":"ce4bhnh2rcd13ifvqgtg","pricing_plan_id":"free"},{"bike_id":"c141212d-43c8-475c-b73f-e16611d10568","system_id":"levelo_inurba_marseille","lat":43.269467,"lon":5.386439,"is_reserved":false,"is_disabled":false,"rental_uris":{"android":"levelo://app?vid=c141212d-43c8-475c-b73f-e16611d10568","ios":"levelo://app?vid=c141212d-43c8-475c-b73f-e16611d10568"},"vehicle_type_id":"4","last_reported":1686251087,"current_range_meters":0,"station_id":"ce4bhh92rcd13ifvqfh0","pricing_plan_id":"free"},{"bike_id":"ec49ad68-6103-4649-8c09-c29ca594f823","system_id":"levelo_inurba_marseille","lat":43.2655,"lon":5.37284,"is_reserved":false,"is_disabled":false,"rental_uris":{"android":"levelo://app?vid=ec49ad68-6103-4649-8c09-c29ca594f823","ios":"levelo://app?vid=ec49ad68-6103-4649-8c09-c29ca594f823"},"vehicle_type_id":"4","last_reported":1686251087,"current_range_meters":13600,"station_id":"ce4bhg12rcd13ifvqf70","pricing_plan_id":"free"},{"bike_id":"911f431e-9037-4be3-abda-61dd24c92aeb","system_id":"levelo_inurba_marseille","lat":43.26548,"lon":5.37296,"is_reserved":false,"is_disabled":false,"rental_uris":{"android":"levelo://app?vid=911f431e-9037-4be3-abda-61dd24c92aeb","ios":"levelo://app?vid=911f431e-9037-4be3-abda-61dd24c92aeb"},"vehicle_type_id":"4","last_reported":1686251087,"current_range_meters":30800,"station_id":"ce4bhg12rcd13ifvqf70","pricing_plan_id":"free"},{"bike_id":"20c5ba33-3bce-48d0-b978-27bd5d84aec7","system_id":"levelo_inurba_marseille","lat":43.28948,"lon":5.4243,"is_reserved":false,"is_disabled":false,"rental_uris":{"android":"levelo://app?vid=20c5ba33-3bce-48d0-b978-27bd5d84aec7","ios":"levelo://app?vid=20c5ba33-3bce-48d0-b978-27bd5d84aec7"},"vehicle_type_id":"4","last_reported":1686251087,"current_range_meters":2800,"station_id":"","pricing_plan_id":"free"},{"bike_id":"7ae5529b-10b8-4968-be0e-d073cde10040","system_id":"levelo_inurba_marseille","lat":43.27996,"lon":5.416624,"is_reserved":false,"is_disabled":false,"rental_uris":{"android":"levelo://app?vid=7ae5529b-10b8-4968-be0e-d073cde10040","ios":"levelo://app?vid=7ae5529b-10b8-4968-be0e-d073cde10040"},"vehicle_type_id":"4","last_reported":1686251087,"current_range_meters":0,"station_id":"ce4bho12rcd13ifvqh1g","pricing_plan_id":"free"},{"bike_id":"cd1ef42a-cc6c-4223-9f79-31071cc74dad","system_id":"levelo_inurba_marseille","lat":43.27988,"lon":5.41657,"is_reserved":false,"is_disabled":false,"rental_uris":{"android":"levelo://app?vid=cd1ef42a-cc6c-4223-9f79-31071cc74dad","ios":"levelo://app?vid=cd1ef42a-cc6c-4223-9f79-31071cc74dad"},"vehicle_type_id":"4","last_reported":1686251087,"current_range_meters":0,"station_id":"ce4bho12rcd13ifvqh1g","pricing_plan_id":"free"},{"bike_id":"754efdcf-675d-4982-9ee5-14b68d14b922","system_id":"levelo_inurba_marseille","lat":43.26786,"lon":5.39414,"is_reserved":false,"is_disabled":false,"rental_uris":{"android":"levelo://app?vid=754efdcf-675d-4982-9ee5-14b68d14b922","ios":"levelo://app?vid=754efdcf-675d-4982-9ee5-14b68d14b922"},"vehicle_type_id":"4","last_reported":1686251087,"current_range_meters":0,"station_id":"ce4bhh12rcd13ifvqfg0","pricing_plan_id":"free"},{"bike_id":"4d73eb28-b08d-494e-b763-026c937446ab","system_id":"levelo_inurba_marseille","lat":43.26786,"lon":5.39416,"is_reserved":false,"is_disabled":false,"rental_uris":{"android":"levelo://app?vid=4d73eb28-b08d-494e-b763-026c937446ab","ios":"levelo://app?vid=4d73eb28-b08d-494e-b763-026c937446ab"},"vehicle_type_id":"4","last_reported":1686251087,"current_range_meters":2400,"station_id":"ce4bhh12rcd13ifvqfg0","pricing_plan_id":"free"},{"bike_id":"d5ec43bf-1c38-40cb-beaf-a45100499424","system_id":"levelo_inurba_marseille","lat":43.26784,"lon":5.39412,"is_reserved":false,"is_disabled":false,"rental_uris":{"android":"levelo://app?vid=d5ec43bf-1c38-40cb-beaf-a45100499424","ios":"levelo://app?vid=d5ec43bf-1c38-40cb-beaf-a45100499424"},"vehicle_type_id":"4","last_reported":1686251087,"current_range_meters":28800,"station_id":"ce4bhh12rcd13ifvqfg0","pricing_plan_id":"free"},{"bike_id":"c56886e7-1c07-4e4e-8d95-1bfcba15fecf","system_id":"levelo_inurba_marseille","lat":43.308,"lon":5.43522,"is_reserved":false,"is_disabled":false,"rental_uris":{"android":"levelo://app?vid=c56886e7-1c07-4e4e-8d95-1bfcba15fecf","ios":"levelo://app?vid=c56886e7-1c07-4e4e-8d95-1bfcba15fecf"},"vehicle_type_id":"4","last_reported":1686251087,"current_range_meters":4400,"station_id":"","pricing_plan_id":"free"},{"bike_id":"90d0f491-d9ef-4703-b8b3-7016ea73f0f0","system_id":"levelo_inurba_marseille","lat":43.265569,"lon":5.390047,"is_reserved":false,"is_disabled":false,"rental_uris":{"android":"levelo://app?vid=90d0f491-d9ef-4703-b8b3-7016ea73f0f0","ios":"levelo://app?vid=90d0f491-d9ef-4703-b8b3-7016ea73f0f0"},"vehicle_type_id":"4","last_reported":1686251087,"current_range_meters":5600,"station_id":"ce4bhe12rcd13ifvqf30","pricing_plan_id":"free"},{"bike_id":"d8487424-c171-461e-a636-bcaac7d0e841","system_id":"levelo_inurba_marseille","lat":43.265569,"lon":5.390047,"is_reserved":false,"is_disabled":false,"rental_uris":{"android":"levelo://app?vid=d8487424-c171-461e-a636-bcaac7d0e841","ios":"levelo://app?vid=d8487424-c171-461e-a636-bcaac7d0e841"},"vehicle_type_id":"4","last_reported":1686251087,"current_range_meters":22400,"station_id":"ce4bhe12rcd13ifvqf30","pricing_plan_id":"free"},{"bike_id":"b0f82b0d-4254-4710-af92-1b2e9f397767","system_id":"levelo_inurba_marseille","lat":43.26234,"lon":5.37046,"is_reserved":false,"is_disabled":false,"rental_uris":{"android":"levelo://app?vid=b0f82b0d-4254-4710-af92-1b2e9f397767","ios":"levelo://app?vid=b0f82b0d-4254-4710-af92-1b2e9f397767"},"vehicle_type_id":"4","last_reported":1686251087,"current_range_meters":23200,"station_id":"","pricing_plan_id":"free"},{"bike_id":"b27e3fee-aa6b-48cc-ac62-2bbb5078314a","system_id":"levelo_inurba_marseille","lat":43.271388,"lon":5.409269,"is_reserved":false,"is_disabled":false,"rental_uris":{"android":"levelo://app?vid=b27e3fee-aa6b-48cc-ac62-2bbb5078314a","ios":"levelo://app?vid=b27e3fee-aa6b-48cc-ac62-2bbb5078314a"},"vehicle_type_id":"4","last_reported":1686251087,"current_range_meters":0,"station_id":"ce4bhl12rcd13ifvqgf0","pricing_plan_id":"free"},{"bike_id":"fd22746b-fcfc-470c-a140-8a1e1922d97e","system_id":"levelo_inurba_marseille","lat":43.267959,"lon":5.402687,"is_reserved":false,"is_disabled":false,"rental_uris":{"android":"levelo://app?vid=fd22746b-fcfc-470c-a140-8a1e1922d97e","ios":"levelo://app?vid=fd22746b-fcfc-470c-a140-8a1e1922d97e"},"vehicle_type_id":"4","last_reported":1686251087,"current_range_meters":29200,"station_id":"ce501612rcd8frsf0b60","pricing_plan_id":"free"},{"bike_id":"7334b8ee-b3a4-472d-ad6f-11b3081d508d","system_id":"levelo_inurba_marseille","lat":43.267959,"lon":5.402687,"is_reserved":false,"is_disabled":false,"rental_uris":{"android":"levelo://app?vid=7334b8ee-b3a4-472d-ad6f-11b3081d508d","ios":"levelo://app?vid=7334b8ee-b3a4-472d-ad6f-11b3081d508d"},"vehicle_type_id":"4","last_reported":1686251087,"current_range_meters":0,"station_id":"ce501612rcd8frsf0b60","pricing_plan_id":"free"},{"bike_id":"7b16b738-f650-4cea-88ee-870b528607b2","system_id":"levelo_inurba_marseille","lat":43.298768,"lon":5.43643,"is_reserved":false,"is_disabled":false,"rental_uris":{"android":"levelo://app?vid=7b16b738-f650-4cea-88ee-870b528607b2","ios":"levelo://app?vid=7b16b738-f650-4cea-88ee-870b528607b2"},"vehicle_type_id":"4","last_reported":1686251087,"current_range_meters":18000,"station_id":"ce4bhpp2rcd13ifvqhfg","pricing_plan_id":"free"},{"bike_id":"b7817cd8-c497-43af-8bdd-004373b69472","system_id":"levelo_inurba_marseille","lat":43.298768,"lon":5.43643,"is_reserved":false,"is_disabled":false,"rental_uris":{"android":"levelo://app?vid=b7817cd8-c497-43af-8bdd-004373b69472","ios":"levelo://app?vid=b7817cd8-c497-43af-8bdd-004373b69472"},"vehicle_type_id":"4","last_reported":1686251087,"current_range_meters":800,"station_id":"ce4bhpp2rcd13ifvqhfg","pricing_plan_id":"free"},{"bike_id":"7aca12d6-7fce-421a-a478-ebef75f58ba6","system_id":"levelo_inurba_marseille","lat":43.298768,"lon":5.43643,"is_reserved":false,"is_disabled":false,"rental_uris":{"android":"levelo://app?vid=7aca12d6-7fce-421a-a478-ebef75f58ba6","ios":"levelo://app?vid=7aca12d6-7fce-421a-a478-ebef75f58ba6"},"vehicle_type_id":"4","last_reported":1686251087,"current_range_meters":400,"station_id":"ce4bhpp2rcd13ifvqhfg","pricing_plan_id":"free"},{"bike_id":"a68161fa-9ac5-4ff1-9f4a-002796de2a4b","system_id":"levelo_inurba_marseille","lat":43.298768,"lon":5.43643,"is_reserved":false,"is_disabled":false,"rental_uris":{"android":"levelo://app?vid=a68161fa-9ac5-4ff1-9f4a-002796de2a4b","ios":"levelo://app?vid=a68161fa-9ac5-4ff1-9f4a-002796de2a4b"},"vehicle_type_id":"4","last_reported":1686251087,"current_range_meters":3200,"station_id":"ce4bhpp2rcd13ifvqhfg","pricing_plan_id":"free"},{"bike_id":"78bfaefe-2050-46ba-9b47-a6eaec5e367b","system_id":"levelo_inurba_marseille","lat":43.27831,"lon":5.42168,"is_reserved":false,"is_disabled":false,"rental_uris":{"android":"levelo://app?vid=78bfaefe-2050-46ba-9b47-a6eaec5e367b","ios":"levelo://app?vid=78bfaefe-2050-46ba-9b47-a6eaec5e367b"},"vehicle_type_id":"4","last_reported":1686251087,"current_range_meters":29600,"station_id":"","pricing_plan_id":"free"},{"bike_id":"0abd466f-ae7a-4789-a218-e3b2c168a2b3","system_id":"levelo_inurba_marseille","lat":43.25961,"lon":5.3755,"is_reserved":false,"is_disabled":false,"rental_uris":{"android":"levelo://app?vid=0abd466f-ae7a-4789-a218-e3b2c168a2b3","ios":"levelo://app?vid=0abd466f-ae7a-4789-a218-e3b2c168a2b3"},"vehicle_type_id":"4","last_reported":1686251087,"current_range_meters":9200,"station_id":"","pricing_plan_id":"free"},{"bike_id":"40d076fa-5757-454d-8306-58d061f0a096","system_id":"levelo_inurba_marseille","lat":43.2607,"lon":5.393983,"is_reserved":false,"is_disabled":false,"rental_uris":{"android":"levelo://app?vid=40d076fa-5757-454d-8306-58d061f0a096","ios":"levelo://app?vid=40d076fa-5757-454d-8306-58d061f0a096"},"vehicle_type_id":"4","last_reported":1686251087,"current_range_meters":17600,"station_id":"ce4bhh92rcd13ifvqfj0","pricing_plan_id":"free"},{"bike_id":"1d34637b-a82a-4638-876a-d2fee8476a35","system_id":"levelo_inurba_marseille","lat":43.309076,"lon":5.368465,"is_reserved":false,"is_disabled":false,"rental_uris":{"android":"levelo://app?vid=1d34637b-a82a-4638-876a-d2fee8476a35","ios":"levelo://app?vid=1d34637b-a82a-4638-876a-d2fee8476a35"},"vehicle_type_id":"4","last_reported":1686251087,"current_range_meters":8000,"station_id":"ce4bgn92rcd13ifvqbvg","pricing_plan_id":"free"},{"bike_id":"6873a9c2-6ae4-4381-9d46-a1330a9f5351","system_id":"levelo_inurba_marseille","lat":43.28858,"lon":5.43908,"is_reserved":false,"is_disabled":false,"rental_uris":{"android":"levelo://app?vid=6873a9c2-6ae4-4381-9d46-a1330a9f5351","ios":"levelo://app?vid=6873a9c2-6ae4-4381-9d46-a1330a9f5351"},"vehicle_type_id":"4","last_reported":1686251087,"current_range_meters":26800,"station_id":"","pricing_plan_id":"free"},{"bike_id":"a781a343-b241-4f95-ab3c-8b2df648c6cb","system_id":"levelo_inurba_marseille","lat":43.33312,"lon":5.44167,"is_reserved":false,"is_disabled":false,"rental_uris":{"android":"levelo://app?vid=a781a343-b241-4f95-ab3c-8b2df648c6cb","ios":"levelo://app?vid=a781a343-b241-4f95-ab3c-8b2df648c6cb"},"vehicle_type_id":"4","last_reported":1686251087,"current_range_meters":12400,"station_id":"","pricing_plan_id":"free"},{"bike_id":"dc9e0482-b620-40db-97b7-aee83dd09892","system_id":"levelo_inurba_marseille","lat":43.25576,"lon":5.38241,"is_reserved":false,"is_disabled":false,"rental_uris":{"android":"levelo://app?vid=dc9e0482-b620-40db-97b7-aee83dd09892","ios":"levelo://app?vid=dc9e0482-b620-40db-97b7-aee83dd09892"},"vehicle_type_id":"4","last_reported":1686251087,"current_range_meters":19200,"station_id":"ce4bhih2rcd13ifvqfs0","pricing_plan_id":"free"},{"bike_id":"d97ed007-35fb-4467-84b1-41b7cd17ca6e","system_id":"levelo_inurba_marseille","lat":43.254947,"lon":5.376454,"is_reserved":false,"is_disabled":false,"rental_uris":{"android":"levelo://app?vid=d97ed007-35fb-4467-84b1-41b7cd17ca6e","ios":"levelo://app?vid=d97ed007-35fb-4467-84b1-41b7cd17ca6e"},"vehicle_type_id":"4","last_reported":1686251087,"current_range_meters":3600,"station_id":"ce4bhh12rcd13ifvqff0","pricing_plan_id":"free"},{"bike_id":"5cb64c5c-b918-4e8e-b60b-814938b25589","system_id":"levelo_inurba_marseille","lat":43.255,"lon":5.37648,"is_reserved":false,"is_disabled":false,"rental_uris":{"android":"levelo://app?vid=5cb64c5c-b918-4e8e-b60b-814938b25589","ios":"levelo://app?vid=5cb64c5c-b918-4e8e-b60b-814938b25589"},"vehicle_type_id":"4","last_reported":1686251087,"current_range_meters":31200,"station_id":"ce4bhh12rcd13ifvqff0","pricing_plan_id":"free"},{"bike_id":"4371cbc7-1729-451e-b85a-377136a3a242","system_id":"levelo_inurba_marseille","lat":43.25499,"lon":5.37651,"is_reserved":false,"is_disabled":false,"rental_uris":{"android":"levelo://app?vid=4371cbc7-1729-451e-b85a-377136a3a242","ios":"levelo://app?vid=4371cbc7-1729-451e-b85a-377136a3a242"},"vehicle_type_id":"4","last_reported":1686251087,"current_range_meters":30400,"station_id":"ce4bhh12rcd13ifvqff0","pricing_plan_id":"free"},{"bike_id":"b7dead98-b5b3-4730-b707-94ed16255947","system_id":"levelo_inurba_marseille","lat":43.25497,"lon":5.37652,"is_reserved":false,"is_disabled":false,"rental_uris":{"android":"levelo://app?vid=b7dead98-b5b3-4730-b707-94ed16255947","ios":"levelo://app?vid=b7dead98-b5b3-4730-b707-94ed16255947"},"vehicle_type_id":"4","last_reported":1686251087,"current_range_meters":31200,"station_id":"ce4bhh12rcd13ifvqff0","pricing_plan_id":"free"},{"bike_id":"47267d9c-522f-40ae-8b08-2ad28b79225b","system_id":"levelo_inurba_marseille","lat":43.254947,"lon":5.376454,"is_reserved":false,"is_disabled":false,"rental_uris":{"android":"levelo://app?vid=47267d9c-522f-40ae-8b08-2ad28b79225b","ios":"levelo://app?vid=47267d9c-522f-40ae-8b08-2ad28b79225b"},"vehicle_type_id":"4","last_reported":1686251087,"current_range_meters":31200,"station_id":"ce4bhh12rcd13ifvqff0","pricing_plan_id":"free"},{"bike_id":"2e2f55bf-b872-4705-8e88-40ee560d5e1a","system_id":"levelo_inurba_marseille","lat":43.254947,"lon":5.376454,"is_reserved":false,"is_disabled":false,"rental_uris":{"android":"levelo://app?vid=2e2f55bf-b872-4705-8e88-40ee560d5e1a","ios":"levelo://app?vid=2e2f55bf-b872-4705-8e88-40ee560d5e1a"},"vehicle_type_id":"4","last_reported":1686251087,"current_range_meters":14800,"station_id":"ce4bhh12rcd13ifvqff0","pricing_plan_id":"free"},{"bike_id":"ea2874a6-ac99-4865-b734-3f2ed89fe210","system_id":"levelo_inurba_marseille","lat":43.27068,"lon":5.42271,"is_reserved":false,"is_disabled":false,"rental_uris":{"android":"levelo://app?vid=ea2874a6-ac99-4865-b734-3f2ed89fe210","ios":"levelo://app?vid=ea2874a6-ac99-4865-b734-3f2ed89fe210"},"vehicle_type_id":"4","last_reported":1686251087,"current_range_meters":6400,"station_id":"ce4bhk92rcd13ifvqgb0","pricing_plan_id":"free"},{"bike_id":"63fe30b7-d672-4fb6-852e-019e800cd388","system_id":"levelo_inurba_marseille","lat":43.27068,"lon":5.42272,"is_reserved":false,"is_disabled":false,"rental_uris":{"android":"levelo://app?vid=63fe30b7-d672-4fb6-852e-019e800cd388","ios":"levelo://app?vid=63fe30b7-d672-4fb6-852e-019e800cd388"},"vehicle_type_id":"4","last_reported":1686251087,"current_range_meters":5200,"station_id":"ce4bhk92rcd13ifvqgb0","pricing_plan_id":"free"},{"bike_id":"cd96ffe2-0308-45de-b87e-166c53b5ea03","system_id":"levelo_inurba_marseille","lat":43.270721,"lon":5.422764,"is_reserved":false,"is_disabled":false,"rental_uris":{"android":"levelo://app?vid=cd96ffe2-0308-45de-b87e-166c53b5ea03","ios":"levelo://app?vid=cd96ffe2-0308-45de-b87e-166c53b5ea03"},"vehicle_type_id":"4","last_reported":1686251087,"current_range_meters":10000,"station_id":"ce4bhk92rcd13ifvqgb0","pricing_plan_id":"free"},{"bike_id":"43b480f7-dcee-4422-8226-071dfdf90bb8","system_id":"levelo_inurba_marseille","lat":43.270721,"lon":5.422764,"is_reserved":false,"is_disabled":false,"rental_uris":{"android":"levelo://app?vid=43b480f7-dcee-4422-8226-071dfdf90bb8","ios":"levelo://app?vid=43b480f7-dcee-4422-8226-071dfdf90bb8"},"vehicle_type_id":"4","last_reported":1686251087,"current_range_meters":30400,"station_id":"ce4bhk92rcd13ifvqgb0","pricing_plan_id":"free"},{"bike_id":"2d164d25-32f6-449c-9d8b-52599c239737","system_id":"levelo_inurba_marseille","lat":43.26241,"lon":5.41311,"is_reserved":false,"is_disabled":false,"rental_uris":{"android":"levelo://app?vid=2d164d25-32f6-449c-9d8b-52599c239737","ios":"levelo://app?vid=2d164d25-32f6-449c-9d8b-52599c239737"},"vehicle_type_id":"4","last_reported":1686251087,"current_range_meters":6800,"station_id":"","pricing_plan_id":"free"},{"bike_id":"0185af5b-b7a3-4b7f-be55-246b918f63da","system_id":"levelo_inurba_marseille","lat":43.25934,"lon":5.40909,"is_reserved":false,"is_disabled":false,"rental_uris":{"android":"levelo://app?vid=0185af5b-b7a3-4b7f-be55-246b918f63da","ios":"levelo://app?vid=0185af5b-b7a3-4b7f-be55-246b918f63da"},"vehicle_type_id":"4","last_reported":1686251087,"current_range_meters":2400,"station_id":"","pricing_plan_id":"free"},{"bike_id":"dba426fa-0286-49c8-aabd-18bb8c710250","system_id":"levelo_inurba_marseille","lat":43.25929,"lon":5.40909,"is_reserved":false,"is_disabled":false,"rental_uris":{"android":"levelo://app?vid=dba426fa-0286-49c8-aabd-18bb8c710250","ios":"levelo://app?vid=dba426fa-0286-49c8-aabd-18bb8c710250"},"vehicle_type_id":"4","last_reported":1686251087,"current_range_meters":21200,"station_id":"","pricing_plan_id":"free"},{"bike_id":"116fb517-ed39-4f40-b988-2a95b7fc816f","system_id":"levelo_inurba_marseille","lat":43.25002,"lon":5.3891,"is_reserved":false,"is_disabled":false,"rental_uris":{"android":"levelo://app?vid=116fb517-ed39-4f40-b988-2a95b7fc816f","ios":"levelo://app?vid=116fb517-ed39-4f40-b988-2a95b7fc816f"},"vehicle_type_id":"4","last_reported":1686251087,"current_range_meters":30400,"station_id":"ce4bhgp2rcd13ifvqfd0","pricing_plan_id":"free"},{"bike_id":"bd685546-2778-49c3-9647-109d57774d65","system_id":"levelo_inurba_marseille","lat":43.250009,"lon":5.389195,"is_reserved":false,"is_disabled":false,"rental_uris":{"android":"levelo://app?vid=bd685546-2778-49c3-9647-109d57774d65","ios":"levelo://app?vid=bd685546-2778-49c3-9647-109d57774d65"},"vehicle_type_id":"4","last_reported":1686251087,"current_range_meters":7200,"station_id":"ce4bhgp2rcd13ifvqfd0","pricing_plan_id":"free"},{"bike_id":"43730728-d5f4-4d86-9aca-fe72efb33021","system_id":"levelo_inurba_marseille","lat":43.250966,"lon":5.395186,"is_reserved":false,"is_disabled":false,"rental_uris":{"android":"levelo://app?vid=43730728-d5f4-4d86-9aca-fe72efb33021","ios":"levelo://app?vid=43730728-d5f4-4d86-9aca-fe72efb33021"},"vehicle_type_id":"4","last_reported":1686251087,"current_range_meters":24000,"station_id":"ce4bhm12rcd13ifvqgkg","pricing_plan_id":"free"},{"bike_id":"8cc0a69e-da5c-4260-8a6e-d3c0ec53c039","system_id":"levelo_inurba_marseille","lat":43.243884,"lon":5.370737,"is_reserved":false,"is_disabled":false,"rental_uris":{"android":"levelo://app?vid=8cc0a69e-da5c-4260-8a6e-d3c0ec53c039","ios":"levelo://app?vid=8cc0a69e-da5c-4260-8a6e-d3c0ec53c039"},"vehicle_type_id":"4","last_reported":1686251087,"current_range_meters":0,"station_id":"ce4bhhh2rcd13ifvqfk0","pricing_plan_id":"free"},{"bike_id":"24a5093d-201d-4905-951e-4acc96c9505a","system_id":"levelo_inurba_marseille","lat":43.25102,"lon":5.403214,"is_reserved":false,"is_disabled":false,"rental_uris":{"android":"levelo://app?vid=24a5093d-201d-4905-951e-4acc96c9505a","ios":"levelo://app?vid=24a5093d-201d-4905-951e-4acc96c9505a"},"vehicle_type_id":"4","last_reported":1686251087,"current_range_meters":2800,"station_id":"ce4bhlh2rcd13ifvqgig","pricing_plan_id":"free"},{"bike_id":"a47a75ca-4de0-47c7-8719-ce2cf95c87aa","system_id":"levelo_inurba_marseille","lat":43.245581,"lon":5.395069,"is_reserved":false,"is_disabled":false,"rental_uris":{"android":"levelo://app?vid=a47a75ca-4de0-47c7-8719-ce2cf95c87aa","ios":"levelo://app?vid=a47a75ca-4de0-47c7-8719-ce2cf95c87aa"},"vehicle_type_id":"4","last_reported":1686251087,"current_range_meters":14000,"station_id":"ce4bhlp2rcd13ifvqgjg","pricing_plan_id":"free"},{"bike_id":"e4679164-3fed-4207-bc30-5af5da9171bb","system_id":"levelo_inurba_marseille","lat":43.245581,"lon":5.395069,"is_reserved":false,"is_disabled":false,"rental_uris":{"android":"levelo://app?vid=e4679164-3fed-4207-bc30-5af5da9171bb","ios":"levelo://app?vid=e4679164-3fed-4207-bc30-5af5da9171bb"},"vehicle_type_id":"4","last_reported":1686251087,"current_range_meters":12000,"station_id":"ce4bhlp2rcd13ifvqgjg","pricing_plan_id":"free"},{"bike_id":"0662262d-c1b5-43ed-a541-62735e4ddd22","system_id":"levelo_inurba_marseille","lat":43.244912,"lon":5.401913,"is_reserved":false,"is_disabled":false,"rental_uris":{"android":"levelo://app?vid=0662262d-c1b5-43ed-a541-62735e4ddd22","ios":"levelo://app?vid=0662262d-c1b5-43ed-a541-62735e4ddd22"},"vehicle_type_id":"4","last_reported":1686251087,"current_range_meters":0,"station_id":"ce4bhs92rcd13ifvqi0g","pricing_plan_id":"free"},{"bike_id":"d3b49f61-f9bd-43f3-a281-0a2fb9b51c91","system_id":"levelo_inurba_marseille","lat":43.23298,"lon":5.35286,"is_reserved":false,"is_disabled":false,"rental_uris":{"android":"levelo://app?vid=d3b49f61-f9bd-43f3-a281-0a2fb9b51c91","ios":"levelo://app?vid=d3b49f61-f9bd-43f3-a281-0a2fb9b51c91"},"vehicle_type_id":"4","last_reported":1686251087,"current_range_meters":22000,"station_id":"","pricing_plan_id":"free"},{"bike_id":"596bf2f0-220c-4ef6-a062-229e445f45f2","system_id":"levelo_inurba_marseille","lat":43.23249,"lon":5.35432,"is_reserved":false,"is_disabled":false,"rental_uris":{"android":"levelo://app?vid=596bf2f0-220c-4ef6-a062-229e445f45f2","ios":"levelo://app?vid=596bf2f0-220c-4ef6-a062-229e445f45f2"},"vehicle_type_id":"4","last_reported":1686251087,"current_range_meters":8000,"station_id":"","pricing_plan_id":"free"},{"bike_id":"58bdd804-da75-4d54-b358-be1b4b052690","system_id":"levelo_inurba_marseille","lat":43.231794,"lon":5.400052,"is_reserved":false,"is_disabled":false,"rental_uris":{"android":"levelo://app?vid=58bdd804-da75-4d54-b358-be1b4b052690","ios":"levelo://app?vid=58bdd804-da75-4d54-b358-be1b4b052690"},"vehicle_type_id":"4","last_reported":1686251087,"current_range_meters":31600,"station_id":"ce4bhn12rcd13ifvqgqg","pricing_plan_id":"free"},{"bike_id":"9d317af0-f5f1-4f41-a6a7-b11c162bfb81","system_id":"levelo_inurba_marseille","lat":43.23187,"lon":5.39988,"is_reserved":false,"is_disabled":false,"rental_uris":{"android":"levelo://app?vid=9d317af0-f5f1-4f41-a6a7-b11c162bfb81","ios":"levelo://app?vid=9d317af0-f5f1-4f41-a6a7-b11c162bfb81"},"vehicle_type_id":"4","last_reported":1686251087,"current_range_meters":30400,"station_id":"ce4bhn12rcd13ifvqgqg","pricing_plan_id":"free"},{"bike_id":"25d0d742-9c61-48f6-89bc-675b65df376a","system_id":"levelo_inurba_marseille","lat":43.231794,"lon":5.400052,"is_reserved":false,"is_disabled":false,"rental_uris":{"android":"levelo://app?vid=25d0d742-9c61-48f6-89bc-675b65df376a","ios":"levelo://app?vid=25d0d742-9c61-48f6-89bc-675b65df376a"},"vehicle_type_id":"4","last_reported":1686251087,"current_range_meters":20800,"station_id":"ce4bhn12rcd13ifvqgqg","pricing_plan_id":"free"}]}}