{"last_updated":1758226311,"ttl":60,"version":"2.2","data":{"bikes":[{"bike_id":"284a0b88-43f7-4d9b-a6bd-fe7b3b346dbb","system_id":"levelo_inurba_marseille","lat":43.24633,"lon":5.43143,"is_reserved":false,"is_disabled":false,"rental_uris":{"android":"levelo://app?vid=284a0b88-43f7-4d9b-a6bd-fe7b3b346dbb","ios":"levelo://app?vid=284a0b88-43f7-4d9b-a6bd-fe7b3b346dbb"},"vehicle_type_id":"4","last_reported":1758226311,"current_range_meters":2800,"station_id":"st_d2m6c4gdas8pm72e190g","pricing_plan_id":"cebpf4jnsgd1na2vs0mg"},{"bike_id":"97f7b34d-700c-4741-9587-0cfa34179638","system_id":"levelo_inurba_marseille","lat":43.28463,"lon":5.35898,"is_reserved":false,"is_disabled":false,"rental_uris":{"android":"levelo://app?vid=97f7b34d-700c-4741-9587-0cfa34179638","ios":"levelo://app?vid=97f7b34d-700c-4741-9587-0cfa34179638"},"vehicle_type_id":"4","last_reported":1758226311,"current_range_meters":2800,"station_id":"ce4bhah2rcd13ifvqei0","pricing_plan_id":"cebpf4jnsgd1na2vs0mg"},{"bike_id":"4dca9603-8078-4fd1-835d-58fc014ff613","system_id":"levelo_inurba_marseille","lat":43.29292,"lon":5.37466,"is_reserved":false,"is_disabled":false,"rental_uris":{"android":"levelo://app?vid=4dca9603-8078-4fd1-835d-58fc014ff613","ios":"levelo://app?vid=4dca9603-8078-4fd1-835d-58fc014ff613"},"vehicle_type_id":"4","last_reported":1758226311,"current_range_meters":3200,"station_id":"ce4bgi12rcd13ifvqb70","pricing_plan_id":"cebpf4jnsgd1na2vs0mg"},{"bike_id":"775af279-8ac9-4585-9121-809be9b13265","system_id":"levelo_inurba_marseille","lat":43.33808,"lon":5.37451,"is_reserved":false,"is_disabled":false,"rental_uris":{"android":"levelo://app?vid=775af279-8ac9-4585-9121-809be9b13265","ios":"levelo://app?vid=775af279-8ac9-4585-9121-809be9b13265"},"vehicle_type_id":"4","last_reported":1758226311,"current_range_meters":3600,"station_id":"","pricing_plan_id":"cebpf4jnsgd1na2vs0mg"},{"bike_id":"e5f11f1d-347e-4aac-ada1-321d54a5248b","system_id":"levelo_inurba_marseille","lat":43.29569,"lon":5.37522,"is_reserved":false,"is_disabled":false,"rental_uris":{"android":"levelo://app?vid=e5f11f1d-347e-4aac-ada1-321d54a5248b","ios":"levelo://app?vid=e5f11f1d-347e-4aac-ada1-321d54a5248b"},"vehicle_type_id":"4","last_reported":1758226311,"current_range_meters":3600,"station_id":"","pricing_plan_id":"cebpf4jnsgd1na2vs0mg"},{"bike_id":"77811c5c-7c67-4666-980f-d57457173d6c","system_id":"levelo_inurba_marseille","lat":43.29304,"lon":5.37197,"is_reserved":false,"is_disabled":false,"rental_uris":{"android":"levelo://app?vid=77811c5c-7c67-4666-980f-d57457173d6c","ios":"levelo://app?vid=77811c5c-7c67-4666-980f-d57457173d6c"},"vehicle_type_id":"4","last_reported":1758226311,"current_range_meters":4000,"station_id":"","pricing_plan_id":"cebpf4jnsgd1na2vs0mg"},{"bike_id":"003515e8-8117-44bb-979d-5f47e8d50fda","system_id":"levelo_inurba_marseille","lat":43.3068,"lon":5.37623,"is_reserved":false,"is_disabled":false,"rental_uris":{"android":"levelo://app?vid=003515e8-8117-44bb-979d-5f47e8d50fda","ios":"levelo://app?vid=003515e8-8117-44bb-979d-5f47e8d50fda"},"vehicle_type_id":"4","last_reported":1758226311,"current_range_meters":4000,"station_id":"","pricing_plan_id":"cebpf4jnsgd1na2vs0mg"},{"bike_id":"e4866abf-7b6c-485b-a3fa-c4b24c73d8b9","system_id":"levelo_inurba_marseille","lat":43.25085,"lon":5.39516,"is_reserved":false,"is_disabled":true,"rental_uris":{"android":"levelo://app?vid=e4866abf-7b6c-485b-a3fa-c4b24c73d8b9","ios":"levelo://app?vid=e4866abf-7b6c-485b-a3fa-c4b24c73d8b9"},"vehicle_type_id":"4","last_reported":1758226311,"current_range_meters":4000,"station_id":"ce4bhm12rcd13ifvqgkg","pricing_plan_id":"cebpf4jnsgd1na2vs0mg"},{"bike_id":"059c0ba7-1dcb-4f29-8d05-6060640937cc","system_id":"levelo_inurba_marseille","lat":43.32943,"lon":5.39194,"is_reserved":false,"is_disabled":false,"rental_uris":{"android":"levelo://app?vid=059c0ba7-1dcb-4f29-8d05-6060640937cc","ios":"levelo://app?vid=059c0ba7-1dcb-4f29-8d05-6060640937cc"},"vehicle_type_id":"4","last_reported":1758226311,"current_range_meters":4400,"station_id":"","pricing_plan_id":"cebpf4jnsgd1na2vs0mg"},{"bike_id":"ad213009-03ca-4b9e-b1c7-99e9bf0017ae","system_id":"levelo_inurba_marseille","lat":43.28354,"lon":5.38101,"is_reserved":false,"is_disabled":false,"rental_uris":{"android":"levelo://app?vid=ad213009-03ca-4b9e-b1c7-99e9bf0017ae","ios":"levelo://app?vid=ad213009-03ca-4b9e-b1c7-99e9bf0017ae"},"vehicle_type_id":"4","last_reported":1758226311,"current_range_meters":4400,"station_id":"ce4bh412rcd13ifvqdr0","pricing_plan_id":"cebpf4jnsgd1na2vs0mg"},{"bike_id":"b6a849af-ac5e-4a53-b7a0-1ab6f8274914","system_id":"levelo_inurba_marseille","lat":43.29611,"lon":5.37703,"is_reserved":false,"is_disabled":true,"rental_uris":{"android":"levelo://app?vid=b6a849af-ac5e-4a53-b7a0-1ab6f8274914","ios":"levelo://app?vid=b6a849af-ac5e-4a53-b7a0-1ab6f8274914"},"vehicle_type_id":"4","last_reported":1758226311,"current_range_meters":4400,"station_id":"","pricing_plan_id":"cebpf4jnsgd1na2vs0mg"},{"bike_id":"5cebaa99-7be9-4a3f-9cc0-5cdfdaef03f0","system_id":"levelo_inurba_marseille","lat":43.22551,"lon":5.34771,"is_reserved":false,"is_disabled":false,"rental_uris":{"android":"levelo://app?vid=5cebaa99-7be9-4a3f-9cc0-5cdfdaef03f0","ios":"levelo://app?vid=5cebaa99-7be9-4a3f-9cc0-5cdfdaef03f0"},"vehicle_type_id":"4","last_reported":1758226311,"current_range_meters":4800,"station_id":"","pricing_plan_id":"cebpf4jnsgd1na2vs0mg"},{"bike_id":"2d7f4502-1327-459a-84e9-5517247d5b9d","system_id":"levelo_inurba_marseille","lat":43.30331,"lon":5.40428,"is_reserved":false,"is_disabled":false,"rental_uris":{"android":"levelo://app?vid=2d7f4502-1327-459a-84e9-5517247d5b9d","ios":"levelo://app?vid=2d7f4502-1327-459a-84e9-5517247d5b9d"},"vehicle_type_id":"4","last_reported":1758226311,"current_range_meters":4800,"station_id":"ce4bh012rcd13ifvqd10","pricing_plan_id":"cebpf4jnsgd1na2vs0mg"},{"bike_id":"aef83e64-d43b-4503-bf3e-f383f330ae18","system_id":"levelo_inurba_marseille","lat":43.30871,"lon":5.39662,"is_reserved":false,"is_disabled":false,"rental_uris":{"android":"levelo://app?vid=aef83e64-d43b-4503-bf3e-f383f330ae18","ios":"levelo://app?vid=aef83e64-d43b-4503-bf3e-f383f330ae18"},"vehicle_type_id":"4","last_reported":1758226311,"current_range_meters":4800,"station_id":"ce4bh012rcd13ifvqcv0","pricing_plan_id":"cebpf4jnsgd1na2vs0mg"},{"bike_id":"a925eb13-d534-48b9-8610-0bc763f8113e","system_id":"levelo_inurba_marseille","lat":43.23148,"lon":5.43728,"is_reserved":false,"is_disabled":false,"rental_uris":{"android":"levelo://app?vid=a925eb13-d534-48b9-8610-0bc763f8113e","ios":"levelo://app?vid=a925eb13-d534-48b9-8610-0bc763f8113e"},"vehicle_type_id":"4","last_reported":1758226311,"current_range_meters":5600,"station_id":"ce4bhmp2rcd13ifvqgog","pricing_plan_id":"cebpf4jnsgd1na2vs0mg"},{"bike_id":"ec829067-a228-43e2-a6c4-f04f35f8cdc4","system_id":"levelo_inurba_marseille","lat":43.27981,"lon":5.38742,"is_reserved":false,"is_disabled":false,"rental_uris":{"android":"levelo://app?vid=ec829067-a228-43e2-a6c4-f04f35f8cdc4","ios":"levelo://app?vid=ec829067-a228-43e2-a6c4-f04f35f8cdc4"},"vehicle_type_id":"4","last_reported":1758226311,"current_range_meters":5600,"station_id":"ce4bhg12rcd13ifvqf80","pricing_plan_id":"cebpf4jnsgd1na2vs0mg"},{"bike_id":"537146fd-77f3-4a7e-aef6-61209f803e53","system_id":"levelo_inurba_marseille","lat":43.30275,"lon":5.37704,"is_reserved":false,"is_disabled":true,"rental_uris":{"android":"levelo://app?vid=537146fd-77f3-4a7e-aef6-61209f803e53","ios":"levelo://app?vid=537146fd-77f3-4a7e-aef6-61209f803e53"},"vehicle_type_id":"4","last_reported":1758226311,"current_range_meters":5600,"station_id":"","pricing_plan_id":"cebpf4jnsgd1na2vs0mg"},{"bike_id":"e8a8f414-eed4-4bd5-a706-74001628bff7","system_id":"levelo_inurba_marseille","lat":43.28231,"lon":5.39073,"is_reserved":false,"is_disabled":false,"rental_uris":{"android":"levelo://app?vid=e8a8f414-eed4-4bd5-a706-74001628bff7","ios":"levelo://app?vid=e8a8f414-eed4-4bd5-a706-74001628bff7"},"vehicle_type_id":"4","last_reported":1758226311,"current_range_meters":5600,"station_id":"ce4bhn92rcd13ifvqgsg","pricing_plan_id":"cebpf4jnsgd1na2vs0mg"},{"bike_id":"e820c689-e974-4315-9bed-010e44b9c698","system_id":"levelo_inurba_marseille","lat":43.28117,"lon":5.3502,"is_reserved":false,"is_disabled":false,"rental_uris":{"android":"levelo://app?vid=e820c689-e974-4315-9bed-010e44b9c698","ios":"levelo://app?vid=e820c689-e974-4315-9bed-010e44b9c698"},"vehicle_type_id":"4","last_reported":1758226311,"current_range_meters":6000,"station_id":"","pricing_plan_id":"cebpf4jnsgd1na2vs0mg"},{"bike_id":"ee3a25b0-b6f9-4367-8444-1f32983fbef6","system_id":"levelo_inurba_marseille","lat":43.297081,"lon":5.377094,"is_reserved":false,"is_disabled":true,"rental_uris":{"android":"levelo://app?vid=ee3a25b0-b6f9-4367-8444-1f32983fbef6","ios":"levelo://app?vid=ee3a25b0-b6f9-4367-8444-1f32983fbef6"},"vehicle_type_id":"4","last_reported":1758226311,"current_range_meters":6000,"station_id":"","pricing_plan_id":"cebpf4jnsgd1na2vs0mg"},{"bike_id":"67e614ee-f435-41f5-97b4-cf2ba3fe485b","system_id":"levelo_inurba_marseille","lat":43.31991,"lon":5.38162,"is_reserved":false,"is_disabled":false,"rental_uris":{"android":"levelo://app?vid=67e614ee-f435-41f5-97b4-cf2ba3fe485b","ios":"levelo://app?vid=67e614ee-f435-41f5-97b4-cf2ba3fe485b"},"vehicle_type_id":"4","last_reported":1758226311,"current_range_meters":6000,"station_id":"ce4bhr12rcd13ifvqhpg","pricing_plan_id":"cebpf4jnsgd1na2vs0mg"},{"bike_id":"81ea6637-4118-4bfe-b01c-7d60e0449db6","system_id":"levelo_inurba_marseille","lat":43.29602,"lon":5.37721,"is_reserved":false,"is_disabled":true,"rental_uris":{"android":"levelo://app?vid=81ea6637-4118-4bfe-b01c-7d60e0449db6","ios":"levelo://app?vid=81ea6637-4118-4bfe-b01c-7d60e0449db6"},"vehicle_type_id":"4","last_reported":1758226311,"current_range_meters":6400,"station_id":"","pricing_plan_id":"cebpf4jnsgd1na2vs0mg"},{"bike_id":"1ab78e47-ad2c-48b7-bc54-1eb7591fa851","system_id":"levelo_inurba_marseille","lat":43.29572,"lon":5.37525,"is_reserved":false,"is_disabled":false,"rental_uris":{"android":"levelo://app?vid=1ab78e47-ad2c-48b7-bc54-1eb7591fa851","ios":"levelo://app?vid=1ab78e47-ad2c-48b7-bc54-1eb7591fa851"},"vehicle_type_id":"4","last_reported":1758226311,"current_range_meters":6400,"station_id":"","pricing_plan_id":"cebpf4jnsgd1na2vs0mg"},{"bike_id":"5ea0da1c-f675-4947-bf3a-757359488437","system_id":"levelo_inurba_marseille","lat":43.246652,"lon":5.381542,"is_reserved":false,"is_disabled":false,"rental_uris":{"android":"levelo://app?vid=5ea0da1c-f675-4947-bf3a-757359488437","ios":"levelo://app?vid=5ea0da1c-f675-4947-bf3a-757359488437"},"vehicle_type_id":"4","last_reported":1758226311,"current_range_meters":6400,"station_id":"ce4bhih2rcd13ifvqfr0","pricing_plan_id":"cebpf4jnsgd1na2vs0mg"},{"bike_id":"54a73ed1-4c7c-44e6-a609-412406427760","system_id":"levelo_inurba_marseille","lat":43.291782,"lon":5.371438,"is_reserved":false,"is_disabled":true,"rental_uris":{"android":"levelo://app?vid=54a73ed1-4c7c-44e6-a609-412406427760","ios":"levelo://app?vid=54a73ed1-4c7c-44e6-a609-412406427760"},"vehicle_type_id":"4","last_reported":1758226311,"current_range_meters":6800,"station_id":"ce4bha92rcd13ifvqeh0","pricing_plan_id":"cebpf4jnsgd1na2vs0mg"},{"bike_id":"009aab25-890a-4889-b7bb-6993ba689b82","system_id":"levelo_inurba_marseille","lat":43.25085,"lon":5.39507,"is_reserved":false,"is_disabled":false,"rental_uris":{"android":"levelo://app?vid=009aab25-890a-4889-b7bb-6993ba689b82","ios":"levelo://app?vid=009aab25-890a-4889-b7bb-6993ba689b82"},"vehicle_type_id":"4","last_reported":1758226311,"current_range_meters":6800,"station_id":"ce4bhm12rcd13ifvqgkg","pricing_plan_id":"cebpf4jnsgd1na2vs0mg"},{"bike_id":"7946db72-673c-4907-9726-60d5d31621e7","system_id":"levelo_inurba_marseille","lat":43.29522,"lon":5.39019,"is_reserved":false,"is_disabled":false,"rental_uris":{"android":"levelo://app?vid=7946db72-673c-4907-9726-60d5d31621e7","ios":"levelo://app?vid=7946db72-673c-4907-9726-60d5d31621e7"},"vehicle_type_id":"4","last_reported":1758226311,"current_range_meters":7200,"station_id":"ce4bh3p2rcd13ifvqdp0","pricing_plan_id":"cebpf4jnsgd1na2vs0mg"},{"bike_id":"a3de2fd2-66bd-482d-8c7a-3205970c4f72","system_id":"levelo_inurba_marseille","lat":43.265418,"lon":5.373075,"is_reserved":false,"is_disabled":true,"rental_uris":{"android":"levelo://app?vid=a3de2fd2-66bd-482d-8c7a-3205970c4f72","ios":"levelo://app?vid=a3de2fd2-66bd-482d-8c7a-3205970c4f72"},"vehicle_type_id":"4","last_reported":1758226311,"current_range_meters":7200,"station_id":"ce4bhg12rcd13ifvqf70","pricing_plan_id":"cebpf4jnsgd1na2vs0mg"},{"bike_id":"190d0825-c1b9-4efd-8a03-d87285d4a5b6","system_id":"levelo_inurba_marseille","lat":43.29807,"lon":5.37749,"is_reserved":false,"is_disabled":false,"rental_uris":{"android":"levelo://app?vid=190d0825-c1b9-4efd-8a03-d87285d4a5b6","ios":"levelo://app?vid=190d0825-c1b9-4efd-8a03-d87285d4a5b6"},"vehicle_type_id":"4","last_reported":1758226311,"current_range_meters":7200,"station_id":"","pricing_plan_id":"cebpf4jnsgd1na2vs0mg"},{"bike_id":"e64c65e0-73c0-459a-ab68-95f6e3fc3812","system_id":"levelo_inurba_marseille","lat":43.27676,"lon":5.38906,"is_reserved":false,"is_disabled":false,"rental_uris":{"android":"levelo://app?vid=e64c65e0-73c0-459a-ab68-95f6e3fc3812","ios":"levelo://app?vid=e64c65e0-73c0-459a-ab68-95f6e3fc3812"},"vehicle_type_id":"4","last_reported":1758226311,"current_range_meters":8400,"station_id":"ce4bhi12rcd13ifvqfo0","pricing_plan_id":"cebpf4jnsgd1na2vs0mg"},{"bike_id":"5c899ebd-3845-49e8-bcb7-647c1ace8294","system_id":"levelo_inurba_marseille","lat":43.29541,"lon":5.39015,"is_reserved":false,"is_disabled":false,"rental_uris":{"android":"levelo://app?vid=5c899ebd-3845-49e8-bcb7-647c1ace8294","ios":"levelo://app?vid=5c899ebd-3845-49e8-bcb7-647c1ace8294"},"vehicle_type_id":"4","last_reported":1758226311,"current_range_meters":8000,"station_id":"ce4bh3p2rcd13ifvqdp0","pricing_plan_id":"cebpf4jnsgd1na2vs0mg"},{"bike_id":"93af8969-2aa0-4338-9430-ec64f99198f7","system_id":"levelo_inurba_marseille","lat":43.30333,"lon":5.40437,"is_reserved":false,"is_disabled":false,"rental_uris":{"android":"levelo://app?vid=93af8969-2aa0-4338-9430-ec64f99198f7","ios":"levelo://app?vid=93af8969-2aa0-4338-9430-ec64f99198f7"},"vehicle_type_id":"4","last_reported":1758226311,"current_range_meters":8000,"station_id":"ce4bh012rcd13ifvqd10","pricing_plan_id":"cebpf4jnsgd1na2vs0mg"},{"bike_id":"ed43197b-1645-40d8-9b6a-72f86d09b150","system_id":"levelo_inurba_marseille","lat":43.31177,"lon":5.38708,"is_reserved":false,"is_disabled":false,"rental_uris":{"android":"levelo://app?vid=ed43197b-1645-40d8-9b6a-72f86d09b150","ios":"levelo://app?vid=ed43197b-1645-40d8-9b6a-72f86d09b150"},"vehicle_type_id":"4","last_reported":1758226311,"current_range_meters":8000,"station_id":"ce4bgv12rcd13ifvqcp0","pricing_plan_id":"cebpf4jnsgd1na2vs0mg"},{"bike_id":"0905b6af-d2c8-4556-a1d6-37009cbeb92b","system_id":"levelo_inurba_marseille","lat":43.30252,"lon":5.4008,"is_reserved":false,"is_disabled":false,"rental_uris":{"android":"levelo://app?vid=0905b6af-d2c8-4556-a1d6-37009cbeb92b","ios":"levelo://app?vid=0905b6af-d2c8-4556-a1d6-37009cbeb92b"},"vehicle_type_id":"4","last_reported":1758226311,"current_range_meters":8400,"station_id":"ce4bgvh2rcd13ifvqcs0","pricing_plan_id":"cebpf4jnsgd1na2vs0mg"},{"bike_id":"04552cb1-695e-4691-be00-9249ea43c2ba","system_id":"levelo_inurba_marseille","lat":43.31226,"lon":5.40132,"is_reserved":false,"is_disabled":false,"rental_uris":{"android":"levelo://app?vid=04552cb1-695e-4691-be00-9249ea43c2ba","ios":"levelo://app?vid=04552cb1-695e-4691-be00-9249ea43c2ba"},"vehicle_type_id":"4","last_reported":1758226311,"current_range_meters":9200,"station_id":"","pricing_plan_id":"cebpf4jnsgd1na2vs0mg"},{"bike_id":"3b8b87b4-c2d4-49fb-97c9-8b8f774a7e66","system_id":"levelo_inurba_marseille","lat":43.337444,"lon":5.374475,"is_reserved":false,"is_disabled":false,"rental_uris":{"android":"levelo://app?vid=3b8b87b4-c2d4-49fb-97c9-8b8f774a7e66","ios":"levelo://app?vid=3b8b87b4-c2d4-49fb-97c9-8b8f774a7e66"},"vehicle_type_id":"4","last_reported":1758226311,"current_range_meters":8400,"station_id":"","pricing_plan_id":"cebpf4jnsgd1na2vs0mg"},{"bike_id":"dfdd2fb7-4161-4db0-9763-c5c63e35ccfa","system_id":"levelo_inurba_marseille","lat":43.29421,"lon":5.39777,"is_reserved":false,"is_disabled":false,"rental_uris":{"android":"levelo://app?vid=dfdd2fb7-4161-4db0-9763-c5c63e35ccfa","ios":"levelo://app?vid=dfdd2fb7-4161-4db0-9763-c5c63e35ccfa"},"vehicle_type_id":"4","last_reported":1758226311,"current_range_meters":8400,"station_id":"ce4bh3h2rcd13ifvqdo0","pricing_plan_id":"cebpf4jnsgd1na2vs0mg"},{"bike_id":"55dabd6d-650f-4485-8c0b-6a5763700e61","system_id":"levelo_inurba_marseille","lat":43.25768,"lon":5.38719,"is_reserved":false,"is_disabled":false,"rental_uris":{"android":"levelo://app?vid=55dabd6d-650f-4485-8c0b-6a5763700e61","ios":"levelo://app?vid=55dabd6d-650f-4485-8c0b-6a5763700e61"},"vehicle_type_id":"4","last_reported":1758226311,"current_range_meters":8400,"station_id":"","pricing_plan_id":"cebpf4jnsgd1na2vs0mg"},{"bike_id":"19796a31-a993-45d4-badb-c72a83a13c83","system_id":"levelo_inurba_marseille","lat":43.29027,"lon":5.37565,"is_reserved":false,"is_disabled":false,"rental_uris":{"android":"levelo://app?vid=19796a31-a993-45d4-badb-c72a83a13c83","ios":"levelo://app?vid=19796a31-a993-45d4-badb-c72a83a13c83"},"vehicle_type_id":"4","last_reported":1758226311,"current_range_meters":8000,"station_id":"ce4bh692rcd13ifvqe90","pricing_plan_id":"cebpf4jnsgd1na2vs0mg"},{"bike_id":"34204743-a723-4435-950f-16b638938353","system_id":"levelo_inurba_marseille","lat":43.22567,"lon":5.4164,"is_reserved":false,"is_disabled":false,"rental_uris":{"android":"levelo://app?vid=34204743-a723-4435-950f-16b638938353","ios":"levelo://app?vid=34204743-a723-4435-950f-16b638938353"},"vehicle_type_id":"4","last_reported":1758226311,"current_range_meters":8400,"station_id":"st_d2o4gvlbi1j2169b742g","pricing_plan_id":"cebpf4jnsgd1na2vs0mg"},{"bike_id":"b8455ce7-990c-4ca2-9f95-e2cfbf7db63b","system_id":"levelo_inurba_marseille","lat":43.28418,"lon":5.37505,"is_reserved":false,"is_disabled":false,"rental_uris":{"android":"levelo://app?vid=b8455ce7-990c-4ca2-9f95-e2cfbf7db63b","ios":"levelo://app?vid=b8455ce7-990c-4ca2-9f95-e2cfbf7db63b"},"vehicle_type_id":"4","last_reported":1758226311,"current_range_meters":8800,"station_id":"ce4bh412rcd13ifvqds0","pricing_plan_id":"cebpf4jnsgd1na2vs0mg"},{"bike_id":"45afe5f4-5cbe-49c2-a913-33c967100178","system_id":"levelo_inurba_marseille","lat":43.29776,"lon":5.380931,"is_reserved":false,"is_disabled":false,"rental_uris":{"android":"levelo://app?vid=45afe5f4-5cbe-49c2-a913-33c967100178","ios":"levelo://app?vid=45afe5f4-5cbe-49c2-a913-33c967100178"},"vehicle_type_id":"4","last_reported":1758226311,"current_range_meters":8800,"station_id":"","pricing_plan_id":"cebpf4jnsgd1na2vs0mg"},{"bike_id":"b063cf6a-1647-4ffc-80cf-c94c95059441","system_id":"levelo_inurba_marseille","lat":43.317588,"lon":5.390194,"is_reserved":false,"is_disabled":false,"rental_uris":{"android":"levelo://app?vid=b063cf6a-1647-4ffc-80cf-c94c95059441","ios":"levelo://app?vid=b063cf6a-1647-4ffc-80cf-c94c95059441"},"vehicle_type_id":"4","last_reported":1758226311,"current_range_meters":9200,"station_id":"ce4bhqp2rcd13ifvqhng","pricing_plan_id":"cebpf4jnsgd1na2vs0mg"},{"bike_id":"55dfb17a-dc13-4669-82ac-2c676d600c2d","system_id":"levelo_inurba_marseille","lat":43.31351,"lon":5.37936,"is_reserved":false,"is_disabled":true,"rental_uris":{"android":"levelo://app?vid=55dfb17a-dc13-4669-82ac-2c676d600c2d","ios":"levelo://app?vid=55dfb17a-dc13-4669-82ac-2c676d600c2d"},"vehicle_type_id":"4","last_reported":1758226311,"current_range_meters":9200,"station_id":"","pricing_plan_id":"cebpf4jnsgd1na2vs0mg"},{"bike_id":"f16a1701-0444-4fc2-a62f-d620cb223a94","system_id":"levelo_inurba_marseille","lat":43.29715,"lon":5.36615,"is_reserved":false,"is_disabled":true,"rental_uris":{"android":"levelo://app?vid=f16a1701-0444-4fc2-a62f-d620cb223a94","ios":"levelo://app?vid=f16a1701-0444-4fc2-a62f-d620cb223a94"},"vehicle_type_id":"4","last_reported":1758226311,"current_range_meters":9200,"station_id":"ce4bgn12rcd13ifvqbt0","pricing_plan_id":"cebpf4jnsgd1na2vs0mg"},{"bike_id":"41e63163-43fc-46c4-85a5-d5c101abae28","system_id":"levelo_inurba_marseille","lat":43.307089,"lon":5.370632,"is_reserved":false,"is_disabled":false,"rental_uris":{"android":"levelo://app?vid=41e63163-43fc-46c4-85a5-d5c101abae28","ios":"levelo://app?vid=41e63163-43fc-46c4-85a5-d5c101abae28"},"vehicle_type_id":"4","last_reported":1758226311,"current_range_meters":9200,"station_id":"ce4bgqh2rcd13ifvqc4g","pricing_plan_id":"cebpf4jnsgd1na2vs0mg"},{"bike_id":"30bf0cd8-e919-42e6-a337-4b1a8f1949cd","system_id":"levelo_inurba_marseille","lat":43.30138,"lon":5.37414,"is_reserved":false,"is_disabled":true,"rental_uris":{"android":"levelo://app?vid=30bf0cd8-e919-42e6-a337-4b1a8f1949cd","ios":"levelo://app?vid=30bf0cd8-e919-42e6-a337-4b1a8f1949cd"},"vehicle_type_id":"4","last_reported":1758226311,"current_range_meters":9200,"station_id":"","pricing_plan_id":"cebpf4jnsgd1na2vs0mg"},{"bike_id":"4f524c52-f35e-48b9-a8fa-b56f6b14018b","system_id":"levelo_inurba_marseille","lat":43.29705,"lon":5.36617,"is_reserved":false,"is_disabled":false,"rental_uris":{"android":"levelo://app?vid=4f524c52-f35e-48b9-a8fa-b56f6b14018b","ios":"levelo://app?vid=4f524c52-f35e-48b9-a8fa-b56f6b14018b"},"vehicle_type_id":"4","last_reported":1758226311,"current_range_meters":9600,"station_id":"ce4bgn12rcd13ifvqbt0","pricing_plan_id":"cebpf4jnsgd1na2vs0mg"},{"bike_id":"cb8a0ce4-79b9-4540-855a-6fdaf7874735","system_id":"levelo_inurba_marseille","lat":43.24659,"lon":5.38162,"is_reserved":false,"is_disabled":false,"rental_uris":{"android":"levelo://app?vid=cb8a0ce4-79b9-4540-855a-6fdaf7874735","ios":"levelo://app?vid=cb8a0ce4-79b9-4540-855a-6fdaf7874735"},"vehicle_type_id":"4","last_reported":1758226311,"current_range_meters":9600,"station_id":"ce4bhih2rcd13ifvqfr0","pricing_plan_id":"cebpf4jnsgd1na2vs0mg"},{"bike_id":"d507ce46-00f5-4d3f-ba03-b31a89c0d325","system_id":"levelo_inurba_marseille","lat":43.225353,"lon":5.348406,"is_reserved":false,"is_disabled":false,"rental_uris":{"android":"levelo://app?vid=d507ce46-00f5-4d3f-ba03-b31a89c0d325","ios":"levelo://app?vid=d507ce46-00f5-4d3f-ba03-b31a89c0d325"},"vehicle_type_id":"4","last_reported":1758226311,"current_range_meters":9600,"station_id":"","pricing_plan_id":"cebpf4jnsgd1na2vs0mg"},{"bike_id":"5701fe9c-3e98-4b9f-a910-5eb395d4e5d3","system_id":"levelo_inurba_marseille","lat":43.29944,"lon":5.37477,"is_reserved":false,"is_disabled":false,"rental_uris":{"android":"levelo://app?vid=5701fe9c-3e98-4b9f-a910-5eb395d4e5d3","ios":"levelo://app?vid=5701fe9c-3e98-4b9f-a910-5eb395d4e5d3"},"vehicle_type_id":"4","last_reported":1758226311,"current_range_meters":9600,"station_id":"","pricing_plan_id":"cebpf4jnsgd1na2vs0mg"},{"bike_id":"4af429df-07e1-4f8e-89f8-d4a6b62e1fcb","system_id":"levelo_inurba_marseille","lat":43.28107,"lon":5.37836,"is_reserved":false,"is_disabled":false,"rental_uris":{"android":"levelo://app?vid=4af429df-07e1-4f8e-89f8-d4a6b62e1fcb","ios":"levelo://app?vid=4af429df-07e1-4f8e-89f8-d4a6b62e1fcb"},"vehicle_type_id":"4","last_reported":1758226311,"current_range_meters":9600,"station_id":"ce4bha12rcd13ifvqee0","pricing_plan_id":"cebpf4jnsgd1na2vs0mg"},{"bike_id":"872afdda-899f-4c35-adfc-57c30fdb9afa","system_id":"levelo_inurba_marseille","lat":43.316467,"lon":5.398405,"is_reserved":false,"is_disabled":false,"rental_uris":{"android":"levelo://app?vid=872afdda-899f-4c35-adfc-57c30fdb9afa","ios":"levelo://app?vid=872afdda-899f-4c35-adfc-57c30fdb9afa"},"vehicle_type_id":"4","last_reported":1758226311,"current_range_meters":10000,"station_id":"ce4bgth2rcd13ifvqch0","pricing_plan_id":"cebpf4jnsgd1na2vs0mg"},{"bike_id":"7455ab97-ba58-4b1f-9638-3798a732d1ab","system_id":"levelo_inurba_marseille","lat":43.2255,"lon":5.41638,"is_reserved":false,"is_disabled":false,"rental_uris":{"android":"levelo://app?vid=7455ab97-ba58-4b1f-9638-3798a732d1ab","ios":"levelo://app?vid=7455ab97-ba58-4b1f-9638-3798a732d1ab"},"vehicle_type_id":"4","last_reported":1758226311,"current_range_meters":10800,"station_id":"st_d2o4gvlbi1j2169b742g","pricing_plan_id":"cebpf4jnsgd1na2vs0mg"},{"bike_id":"b801db4f-f1d2-415f-9fea-9bf464d4a719","system_id":"levelo_inurba_marseille","lat":43.31223,"lon":5.36866,"is_reserved":false,"is_disabled":false,"rental_uris":{"android":"levelo://app?vid=b801db4f-f1d2-415f-9fea-9bf464d4a719","ios":"levelo://app?vid=b801db4f-f1d2-415f-9fea-9bf464d4a719"},"vehicle_type_id":"4","last_reported":1758226311,"current_range_meters":9600,"station_id":"ce4bgl92rcd13ifvqbq0","pricing_plan_id":"cebpf4jnsgd1na2vs0mg"},{"bike_id":"d1788760-0706-4b90-8999-db00a9e42210","system_id":"levelo_inurba_marseille","lat":43.32797,"lon":5.41011,"is_reserved":false,"is_disabled":true,"rental_uris":{"android":"levelo://app?vid=d1788760-0706-4b90-8999-db00a9e42210","ios":"levelo://app?vid=d1788760-0706-4b90-8999-db00a9e42210"},"vehicle_type_id":"4","last_reported":1758226311,"current_range_meters":11200,"station_id":"","pricing_plan_id":"cebpf4jnsgd1na2vs0mg"},{"bike_id":"64b8f5d2-16ee-4c85-a97d-7145fcb10104","system_id":"levelo_inurba_marseille","lat":43.225343,"lon":5.348349,"is_reserved":false,"is_disabled":false,"rental_uris":{"android":"levelo://app?vid=64b8f5d2-16ee-4c85-a97d-7145fcb10104","ios":"levelo://app?vid=64b8f5d2-16ee-4c85-a97d-7145fcb10104"},"vehicle_type_id":"4","last_reported":1758226311,"current_range_meters":11600,"station_id":"","pricing_plan_id":"cebpf4jnsgd1na2vs0mg"},{"bike_id":"bb61045e-f217-4297-b478-d3703b43d184","system_id":"levelo_inurba_marseille","lat":43.33728,"lon":5.39181,"is_reserved":false,"is_disabled":false,"rental_uris":{"android":"levelo://app?vid=bb61045e-f217-4297-b478-d3703b43d184","ios":"levelo://app?vid=bb61045e-f217-4297-b478-d3703b43d184"},"vehicle_type_id":"4","last_reported":1758226311,"current_range_meters":11600,"station_id":"ce4bhr92rcd13ifvqhsg","pricing_plan_id":"cebpf4jnsgd1na2vs0mg"},{"bike_id":"d04fc2d4-762e-44a4-981a-2b3a8470f385","system_id":"levelo_inurba_marseille","lat":43.318845,"lon":5.407402,"is_reserved":false,"is_disabled":false,"rental_uris":{"android":"levelo://app?vid=d04fc2d4-762e-44a4-981a-2b3a8470f385","ios":"levelo://app?vid=d04fc2d4-762e-44a4-981a-2b3a8470f385"},"vehicle_type_id":"4","last_reported":1758226311,"current_range_meters":11600,"station_id":"ce4bhq12rcd13ifvqhig","pricing_plan_id":"cebpf4jnsgd1na2vs0mg"},{"bike_id":"315f367b-945e-48e9-9810-8183f084f5fc","system_id":"levelo_inurba_marseille","lat":43.27488,"lon":5.42458,"is_reserved":false,"is_disabled":true,"rental_uris":{"android":"levelo://app?vid=315f367b-945e-48e9-9810-8183f084f5fc","ios":"levelo://app?vid=315f367b-945e-48e9-9810-8183f084f5fc"},"vehicle_type_id":"4","last_reported":1758226311,"current_range_meters":11600,"station_id":"ce4bhn92rcd13ifvqgrg","pricing_plan_id":"cebpf4jnsgd1na2vs0mg"},{"bike_id":"b990c82e-b27b-440f-a540-e63c0d05ead3","system_id":"levelo_inurba_marseille","lat":43.2845,"lon":5.35902,"is_reserved":false,"is_disabled":false,"rental_uris":{"android":"levelo://app?vid=b990c82e-b27b-440f-a540-e63c0d05ead3","ios":"levelo://app?vid=b990c82e-b27b-440f-a540-e63c0d05ead3"},"vehicle_type_id":"4","last_reported":1758226311,"current_range_meters":12000,"station_id":"ce4bhah2rcd13ifvqei0","pricing_plan_id":"cebpf4jnsgd1na2vs0mg"},{"bike_id":"241d771c-6401-45a2-8562-e8700417a52e","system_id":"levelo_inurba_marseille","lat":43.27945,"lon":5.4105,"is_reserved":false,"is_disabled":false,"rental_uris":{"android":"levelo://app?vid=241d771c-6401-45a2-8562-e8700417a52e","ios":"levelo://app?vid=241d771c-6401-45a2-8562-e8700417a52e"},"vehicle_type_id":"4","last_reported":1758226311,"current_range_meters":12000,"station_id":"ce4bhnp2rcd13ifvqh0g","pricing_plan_id":"cebpf4jnsgd1na2vs0mg"},{"bike_id":"a217ba4a-5291-44a4-9877-53edf08f79ec","system_id":"levelo_inurba_marseille","lat":43.31108,"lon":5.37769,"is_reserved":false,"is_disabled":false,"rental_uris":{"android":"levelo://app?vid=a217ba4a-5291-44a4-9877-53edf08f79ec","ios":"levelo://app?vid=a217ba4a-5291-44a4-9877-53edf08f79ec"},"vehicle_type_id":"4","last_reported":1758226311,"current_range_meters":12000,"station_id":"ce4bgt92rcd13ifvqcg0","pricing_plan_id":"cebpf4jnsgd1na2vs0mg"},{"bike_id":"8fed0799-bfe0-4849-afb7-aca2072a5bed","system_id":"levelo_inurba_marseille","lat":43.31326,"lon":5.39696,"is_reserved":false,"is_disabled":false,"rental_uris":{"android":"levelo://app?vid=8fed0799-bfe0-4849-afb7-aca2072a5bed","ios":"levelo://app?vid=8fed0799-bfe0-4849-afb7-aca2072a5bed"},"vehicle_type_id":"4","last_reported":1758226311,"current_range_meters":12000,"station_id":"ce4bgvp2rcd13ifvqcu0","pricing_plan_id":"cebpf4jnsgd1na2vs0mg"},{"bike_id":"5fc44cff-b4a6-4731-9568-5d8f0356142d","system_id":"levelo_inurba_marseille","lat":43.278093,"lon":5.407154,"is_reserved":false,"is_disabled":false,"rental_uris":{"android":"levelo://app?vid=5fc44cff-b4a6-4731-9568-5d8f0356142d","ios":"levelo://app?vid=5fc44cff-b4a6-4731-9568-5d8f0356142d"},"vehicle_type_id":"4","last_reported":1758226311,"current_range_meters":12000,"station_id":"ce4bhnh2rcd13ifvqgtg","pricing_plan_id":"cebpf4jnsgd1na2vs0mg"},{"bike_id":"cf66592a-d8fa-4c6c-9927-5d7a9fef5026","system_id":"levelo_inurba_marseille","lat":43.26268,"lon":5.39859,"is_reserved":false,"is_disabled":false,"rental_uris":{"android":"levelo://app?vid=cf66592a-d8fa-4c6c-9927-5d7a9fef5026","ios":"levelo://app?vid=cf66592a-d8fa-4c6c-9927-5d7a9fef5026"},"vehicle_type_id":"4","last_reported":1758226311,"current_range_meters":12000,"station_id":"","pricing_plan_id":"cebpf4jnsgd1na2vs0mg"},{"bike_id":"42323a1a-489c-43cb-90ae-c675b27444d5","system_id":"levelo_inurba_marseille","lat":43.21646,"lon":5.34378,"is_reserved":false,"is_disabled":false,"rental_uris":{"android":"levelo://app?vid=42323a1a-489c-43cb-90ae-c675b27444d5","ios":"levelo://app?vid=42323a1a-489c-43cb-90ae-c675b27444d5"},"vehicle_type_id":"4","last_reported":1758226311,"current_range_meters":12000,"station_id":"","pricing_plan_id":"cebpf4jnsgd1na2vs0mg"},{"bike_id":"1b5aff9b-acf0-4bd0-ad5b-25ba9263ed76","system_id":"levelo_inurba_marseille","lat":43.29257,"lon":5.40911,"is_reserved":false,"is_disabled":false,"rental_uris":{"android":"levelo://app?vid=1b5aff9b-acf0-4bd0-ad5b-25ba9263ed76","ios":"levelo://app?vid=1b5aff9b-acf0-4bd0-ad5b-25ba9263ed76"},"vehicle_type_id":"4","last_reported":1758226311,"current_range_meters":12000,"station_id":"ce4bh192rcd13ifvqdc0","pricing_plan_id":"cebpf4jnsgd1na2vs0mg"},{"bike_id":"090927f5-955a-49e1-b0ec-691f013f015c","system_id":"levelo_inurba_marseille","lat":43.31705,"lon":5.37752,"is_reserved":false,"is_disabled":false,"rental_uris":{"android":"levelo://app?vid=090927f5-955a-49e1-b0ec-691f013f015c","ios":"levelo://app?vid=090927f5-955a-49e1-b0ec-691f013f015c"},"vehicle_type_id":"4","last_reported":1758226311,"current_range_meters":12000,"station_id":"ce4bgth2rcd13ifvqch0","pricing_plan_id":"cebpf4jnsgd1na2vs0mg"},{"bike_id":"25b2da70-3345-491c-80f8-92888481b5a8","system_id":"levelo_inurba_marseille","lat":43.31365,"lon":5.38497,"is_reserved":false,"is_disabled":true,"rental_uris":{"android":"levelo://app?vid=25b2da70-3345-491c-80f8-92888481b5a8","ios":"levelo://app?vid=25b2da70-3345-491c-80f8-92888481b5a8"},"vehicle_type_id":"4","last_reported":1758226311,"current_range_meters":12000,"station_id":"ce4bgt92rcd13ifvqcf0","pricing_plan_id":"cebpf4jnsgd1na2vs0mg"},{"bike_id":"eb2c84e1-700b-45b0-a155-6cda4de20135","system_id":"levelo_inurba_marseille","lat":43.29971,"lon":5.38501,"is_reserved":false,"is_disabled":false,"rental_uris":{"android":"levelo://app?vid=eb2c84e1-700b-45b0-a155-6cda4de20135","ios":"levelo://app?vid=eb2c84e1-700b-45b0-a155-6cda4de20135"},"vehicle_type_id":"4","last_reported":1758226311,"current_range_meters":12400,"station_id":"","pricing_plan_id":"cebpf4jnsgd1na2vs0mg"},{"bike_id":"6fe5ee4d-d638-47ed-9e67-4166b3f93870","system_id":"levelo_inurba_marseille","lat":43.25314,"lon":5.42216,"is_reserved":false,"is_disabled":false,"rental_uris":{"android":"levelo://app?vid=6fe5ee4d-d638-47ed-9e67-4166b3f93870","ios":"levelo://app?vid=6fe5ee4d-d638-47ed-9e67-4166b3f93870"},"vehicle_type_id":"4","last_reported":1758226311,"current_range_meters":12400,"station_id":"st_d2m65c5bi1j21697t3ng","pricing_plan_id":"cebpf4jnsgd1na2vs0mg"},{"bike_id":"6c9dbf1a-31ef-4771-bf33-3ae72e0ebbfc","system_id":"levelo_inurba_marseille","lat":43.29529,"lon":5.38537,"is_reserved":false,"is_disabled":false,"rental_uris":{"android":"levelo://app?vid=6c9dbf1a-31ef-4771-bf33-3ae72e0ebbfc","ios":"levelo://app?vid=6c9dbf1a-31ef-4771-bf33-3ae72e0ebbfc"},"vehicle_type_id":"4","last_reported":1758226311,"current_range_meters":12400,"station_id":"ce4bgih2rcd13ifvqba0","pricing_plan_id":"cebpf4jnsgd1na2vs0mg"},{"bike_id":"6d04ecbb-a728-40b1-b701-23b740f7319e","system_id":"levelo_inurba_marseille","lat":43.21749,"lon":5.34613,"is_reserved":false,"is_disabled":true,"rental_uris":{"android":"levelo://app?vid=6d04ecbb-a728-40b1-b701-23b740f7319e","ios":"levelo://app?vid=6d04ecbb-a728-40b1-b701-23b740f7319e"},"vehicle_type_id":"4","last_reported":1758226311,"current_range_meters":12400,"station_id":"st_cvj6r9ubvosntc0bgbag","pricing_plan_id":"cebpf4jnsgd1na2vs0mg"},{"bike_id":"f1cb89fd-3aae-45dd-8b07-61c162b2375e","system_id":"levelo_inurba_marseille","lat":43.33775,"lon":5.37472,"is_reserved":false,"is_disabled":false,"rental_uris":{"android":"levelo://app?vid=f1cb89fd-3aae-45dd-8b07-61c162b2375e","ios":"levelo://app?vid=f1cb89fd-3aae-45dd-8b07-61c162b2375e"},"vehicle_type_id":"4","last_reported":1758226311,"current_range_meters":12400,"station_id":"","pricing_plan_id":"cebpf4jnsgd1na2vs0mg"},{"bike_id":"80a9a218-f77f-42ce-8136-b0dceb9fc366","system_id":"levelo_inurba_marseille","lat":43.267867,"lon":5.394102,"is_reserved":false,"is_disabled":false,"rental_uris":{"android":"levelo://app?vid=80a9a218-f77f-42ce-8136-b0dceb9fc366","ios":"levelo://app?vid=80a9a218-f77f-42ce-8136-b0dceb9fc366"},"vehicle_type_id":"4","last_reported":1758226311,"current_range_meters":12800,"station_id":"ce4bhh12rcd13ifvqfg0","pricing_plan_id":"cebpf4jnsgd1na2vs0mg"},{"bike_id":"cad97885-b582-49b2-8b83-0a6c3d079fc6","system_id":"levelo_inurba_marseille","lat":43.297018,"lon":5.365873,"is_reserved":false,"is_disabled":false,"rental_uris":{"android":"levelo://app?vid=cad97885-b582-49b2-8b83-0a6c3d079fc6","ios":"levelo://app?vid=cad97885-b582-49b2-8b83-0a6c3d079fc6"},"vehicle_type_id":"4","last_reported":1758226311,"current_range_meters":12800,"station_id":"ce4bgn12rcd13ifvqbt0","pricing_plan_id":"cebpf4jnsgd1na2vs0mg"},{"bike_id":"be9ee84b-9ec1-497c-800c-5907ad1418ae","system_id":"levelo_inurba_marseille","lat":43.2257,"lon":5.41637,"is_reserved":false,"is_disabled":false,"rental_uris":{"android":"levelo://app?vid=be9ee84b-9ec1-497c-800c-5907ad1418ae","ios":"levelo://app?vid=be9ee84b-9ec1-497c-800c-5907ad1418ae"},"vehicle_type_id":"4","last_reported":1758226311,"current_range_meters":12800,"station_id":"st_d2o4gvlbi1j2169b742g","pricing_plan_id":"cebpf4jnsgd1na2vs0mg"},{"bike_id":"f1ae138c-027c-4cb1-a059-d3ce84f4f94f","system_id":"levelo_inurba_marseille","lat":43.28617,"lon":5.35107,"is_reserved":false,"is_disabled":false,"rental_uris":{"android":"levelo://app?vid=f1ae138c-027c-4cb1-a059-d3ce84f4f94f","ios":"levelo://app?vid=f1ae138c-027c-4cb1-a059-d3ce84f4f94f"},"vehicle_type_id":"4","last_reported":1758226311,"current_range_meters":12800,"station_id":"ce4bhch2rcd13ifvqeug","pricing_plan_id":"cebpf4jnsgd1na2vs0mg"},{"bike_id":"addacddc-09b3-40e7-b391-8b261ef588dd","system_id":"levelo_inurba_marseille","lat":43.2846,"lon":5.35888,"is_reserved":false,"is_disabled":false,"rental_uris":{"android":"levelo://app?vid=addacddc-09b3-40e7-b391-8b261ef588dd","ios":"levelo://app?vid=addacddc-09b3-40e7-b391-8b261ef588dd"},"vehicle_type_id":"4","last_reported":1758226311,"current_range_meters":13600,"station_id":"ce4bhah2rcd13ifvqei0","pricing_plan_id":"cebpf4jnsgd1na2vs0mg"},{"bike_id":"a4faa1fd-62ee-404a-aff8-b79ea6b6b5d2","system_id":"levelo_inurba_marseille","lat":43.32986,"lon":5.39245,"is_reserved":false,"is_disabled":false,"rental_uris":{"android":"levelo://app?vid=a4faa1fd-62ee-404a-aff8-b79ea6b6b5d2","ios":"levelo://app?vid=a4faa1fd-62ee-404a-aff8-b79ea6b6b5d2"},"vehicle_type_id":"4","last_reported":1758226311,"current_range_meters":13600,"station_id":"","pricing_plan_id":"cebpf4jnsgd1na2vs0mg"},{"bike_id":"d9f0ae84-d732-44f5-b420-064e325a0d60","system_id":"levelo_inurba_marseille","lat":43.320183,"lon":5.381343,"is_reserved":false,"is_disabled":false,"rental_uris":{"android":"levelo://app?vid=d9f0ae84-d732-44f5-b420-064e325a0d60","ios":"levelo://app?vid=d9f0ae84-d732-44f5-b420-064e325a0d60"},"vehicle_type_id":"4","last_reported":1758226311,"current_range_meters":13600,"station_id":"","pricing_plan_id":"cebpf4jnsgd1na2vs0mg"},{"bike_id":"fa0847a4-8d8b-47a2-9c0d-c16fe7a48c9b","system_id":"levelo_inurba_marseille","lat":43.330285,"lon":5.390556,"is_reserved":false,"is_disabled":false,"rental_uris":{"android":"levelo://app?vid=fa0847a4-8d8b-47a2-9c0d-c16fe7a48c9b","ios":"levelo://app?vid=fa0847a4-8d8b-47a2-9c0d-c16fe7a48c9b"},"vehicle_type_id":"4","last_reported":1758226311,"current_range_meters":13600,"station_id":"","pricing_plan_id":"cebpf4jnsgd1na2vs0mg"},{"bike_id":"ff44f1ad-2efa-4491-b8e1-7e77aa981a6b","system_id":"levelo_inurba_marseille","lat":43.30137,"lon":5.37412,"is_reserved":false,"is_disabled":true,"rental_uris":{"android":"levelo://app?vid=ff44f1ad-2efa-4491-b8e1-7e77aa981a6b","ios":"levelo://app?vid=ff44f1ad-2efa-4491-b8e1-7e77aa981a6b"},"vehicle_type_id":"4","last_reported":1758226311,"current_range_meters":13600,"station_id":"","pricing_plan_id":"cebpf4jnsgd1na2vs0mg"},{"bike_id":"97ffe5a9-be9a-4af7-bf24-45bd3ac0f7cc","system_id":"levelo_inurba_marseille","lat":43.30316,"lon":5.36908,"is_reserved":false,"is_disabled":false,"rental_uris":{"android":"levelo://app?vid=97ffe5a9-be9a-4af7-bf24-45bd3ac0f7cc","ios":"levelo://app?vid=97ffe5a9-be9a-4af7-bf24-45bd3ac0f7cc"},"vehicle_type_id":"4","last_reported":1758226311,"current_range_meters":14000,"station_id":"","pricing_plan_id":"cebpf4jnsgd1na2vs0mg"},{"bike_id":"e0f956c9-a3bd-4040-872f-d8e2d33665d0","system_id":"levelo_inurba_marseille","lat":43.33603,"lon":5.41037,"is_reserved":false,"is_disabled":false,"rental_uris":{"android":"levelo://app?vid=e0f956c9-a3bd-4040-872f-d8e2d33665d0","ios":"levelo://app?vid=e0f956c9-a3bd-4040-872f-d8e2d33665d0"},"vehicle_type_id":"4","last_reported":1758226311,"current_range_meters":14000,"station_id":"ce4bhqh2rcd13ifvqhmg","pricing_plan_id":"cebpf4jnsgd1na2vs0mg"},{"bike_id":"b984469b-926b-4466-8aa4-6aef8238a5ef","system_id":"levelo_inurba_marseille","lat":43.2798,"lon":5.41655,"is_reserved":false,"is_disabled":false,"rental_uris":{"android":"levelo://app?vid=b984469b-926b-4466-8aa4-6aef8238a5ef","ios":"levelo://app?vid=b984469b-926b-4466-8aa4-6aef8238a5ef"},"vehicle_type_id":"4","last_reported":1758226311,"current_range_meters":14000,"station_id":"ce4bho12rcd13ifvqh1g","pricing_plan_id":"cebpf4jnsgd1na2vs0mg"},{"bike_id":"14b0b536-1224-48a2-9649-a40684ff5788","system_id":"levelo_inurba_marseille","lat":43.29616,"lon":5.37748,"is_reserved":false,"is_disabled":true,"rental_uris":{"android":"levelo://app?vid=14b0b536-1224-48a2-9649-a40684ff5788","ios":"levelo://app?vid=14b0b536-1224-48a2-9649-a40684ff5788"},"vehicle_type_id":"4","last_reported":1758226311,"current_range_meters":14000,"station_id":"","pricing_plan_id":"cebpf4jnsgd1na2vs0mg"},{"bike_id":"22f0687d-25d3-4094-9c4a-293a61e189a6","system_id":"levelo_inurba_marseille","lat":43.2463,"lon":5.39626,"is_reserved":false,"is_disabled":false,"rental_uris":{"android":"levelo://app?vid=22f0687d-25d3-4094-9c4a-293a61e189a6","ios":"levelo://app?vid=22f0687d-25d3-4094-9c4a-293a61e189a6"},"vehicle_type_id":"4","last_reported":1758226311,"current_range_meters":14000,"station_id":"","pricing_plan_id":"cebpf4jnsgd1na2vs0mg"},{"bike_id":"a9621001-2c6b-4543-8731-b323e0537a33","system_id":"levelo_inurba_marseille","lat":43.29872,"lon":5.38911,"is_reserved":false,"is_disabled":false,"rental_uris":{"android":"levelo://app?vid=a9621001-2c6b-4543-8731-b323e0537a33","ios":"levelo://app?vid=a9621001-2c6b-4543-8731-b323e0537a33"},"vehicle_type_id":"4","last_reported":1758226311,"current_range_meters":14400,"station_id":"ce4bh392rcd13ifvqdl0","pricing_plan_id":"cebpf4jnsgd1na2vs0mg"},{"bike_id":"54b6ff1b-a260-45b4-bd2b-6e1a8f26c203","system_id":"levelo_inurba_marseille","lat":43.27427,"lon":5.39416,"is_reserved":false,"is_disabled":false,"rental_uris":{"android":"levelo://app?vid=54b6ff1b-a260-45b4-bd2b-6e1a8f26c203","ios":"levelo://app?vid=54b6ff1b-a260-45b4-bd2b-6e1a8f26c203"},"vehicle_type_id":"4","last_reported":1758226311,"current_range_meters":14400,"station_id":"ce4bhdp2rcd13ifvqf20","pricing_plan_id":"cebpf4jnsgd1na2vs0mg"},{"bike_id":"fd3a0326-2a3c-43e2-9115-12582d567d67","system_id":"levelo_inurba_marseille","lat":43.27942,"lon":5.41042,"is_reserved":false,"is_disabled":false,"rental_uris":{"android":"levelo://app?vid=fd3a0326-2a3c-43e2-9115-12582d567d67","ios":"levelo://app?vid=fd3a0326-2a3c-43e2-9115-12582d567d67"},"vehicle_type_id":"4","last_reported":1758226311,"current_range_meters":14800,"station_id":"ce4bhnp2rcd13ifvqh0g","pricing_plan_id":"cebpf4jnsgd1na2vs0mg"},{"bike_id":"7fdfd559-41cb-48f8-8e52-71d78b380f31","system_id":"levelo_inurba_marseille","lat":43.29263,"lon":5.40904,"is_reserved":false,"is_disabled":false,"rental_uris":{"android":"levelo://app?vid=7fdfd559-41cb-48f8-8e52-71d78b380f31","ios":"levelo://app?vid=7fdfd559-41cb-48f8-8e52-71d78b380f31"},"vehicle_type_id":"4","last_reported":1758226311,"current_range_meters":14800,"station_id":"ce4bh192rcd13ifvqdc0","pricing_plan_id":"cebpf4jnsgd1na2vs0mg"},{"bike_id":"e942f984-8fe7-48d1-8f04-3806656b9996","system_id":"levelo_inurba_marseille","lat":43.33614,"lon":5.37945,"is_reserved":false,"is_disabled":false,"rental_uris":{"android":"levelo://app?vid=e942f984-8fe7-48d1-8f04-3806656b9996","ios":"levelo://app?vid=e942f984-8fe7-48d1-8f04-3806656b9996"},"vehicle_type_id":"4","last_reported":1758226311,"current_range_meters":14800,"station_id":"","pricing_plan_id":"cebpf4jnsgd1na2vs0mg"},{"bike_id":"7f090b8f-e931-4def-ac6b-3ca5bab392cb","system_id":"levelo_inurba_marseille","lat":43.25922,"lon":5.40907,"is_reserved":false,"is_disabled":false,"rental_uris":{"android":"levelo://app?vid=7f090b8f-e931-4def-ac6b-3ca5bab392cb","ios":"levelo://app?vid=7f090b8f-e931-4def-ac6b-3ca5bab392cb"},"vehicle_type_id":"4","last_reported":1758226311,"current_range_meters":14800,"station_id":"ce4bhm92rcd13ifvqglg","pricing_plan_id":"cebpf4jnsgd1na2vs0mg"},{"bike_id":"7eed94c4-182d-4460-826b-78b4ef60c719","system_id":"levelo_inurba_marseille","lat":43.295859,"lon":5.375163,"is_reserved":false,"is_disabled":false,"rental_uris":{"android":"levelo://app?vid=7eed94c4-182d-4460-826b-78b4ef60c719","ios":"levelo://app?vid=7eed94c4-182d-4460-826b-78b4ef60c719"},"vehicle_type_id":"4","last_reported":1758226311,"current_range_meters":14800,"station_id":"","pricing_plan_id":"cebpf4jnsgd1na2vs0mg"},{"bike_id":"ab412f17-899e-4861-8087-c1777f8b5874","system_id":"levelo_inurba_marseille","lat":43.30136,"lon":5.38781,"is_reserved":false,"is_disabled":false,"rental_uris":{"android":"levelo://app?vid=ab412f17-899e-4861-8087-c1777f8b5874","ios":"levelo://app?vid=ab412f17-899e-4861-8087-c1777f8b5874"},"vehicle_type_id":"4","last_reported":1758226311,"current_range_meters":14800,"station_id":"ce4bghh2rcd13ifvqb60","pricing_plan_id":"cebpf4jnsgd1na2vs0mg"},{"bike_id":"1c1cd90a-dd80-49cb-b85e-e47508f5e091","system_id":"levelo_inurba_marseille","lat":43.30786,"lon":5.37629,"is_reserved":false,"is_disabled":false,"rental_uris":{"android":"levelo://app?vid=1c1cd90a-dd80-49cb-b85e-e47508f5e091","ios":"levelo://app?vid=1c1cd90a-dd80-49cb-b85e-e47508f5e091"},"vehicle_type_id":"4","last_reported":1758226311,"current_range_meters":15200,"station_id":"ce4bgv92rcd13ifvqcq0","pricing_plan_id":"cebpf4jnsgd1na2vs0mg"},{"bike_id":"85728324-69b8-43ad-843a-f00c9e388117","system_id":"levelo_inurba_marseille","lat":43.30314,"lon":5.36892,"is_reserved":false,"is_disabled":false,"rental_uris":{"android":"levelo://app?vid=85728324-69b8-43ad-843a-f00c9e388117","ios":"levelo://app?vid=85728324-69b8-43ad-843a-f00c9e388117"},"vehicle_type_id":"4","last_reported":1758226311,"current_range_meters":15200,"station_id":"ce4bgqh2rcd13ifvqc5g","pricing_plan_id":"cebpf4jnsgd1na2vs0mg"},{"bike_id":"6b0fd84a-3eea-4ada-9249-7e18b29a3235","system_id":"levelo_inurba_marseille","lat":43.25498,"lon":5.37649,"is_reserved":false,"is_disabled":false,"rental_uris":{"android":"levelo://app?vid=6b0fd84a-3eea-4ada-9249-7e18b29a3235","ios":"levelo://app?vid=6b0fd84a-3eea-4ada-9249-7e18b29a3235"},"vehicle_type_id":"4","last_reported":1758226311,"current_range_meters":15200,"station_id":"ce4bhh12rcd13ifvqff0","pricing_plan_id":"cebpf4jnsgd1na2vs0mg"},{"bike_id":"3664ea3d-ae95-4cde-bb2b-40c0f83d2411","system_id":"levelo_inurba_marseille","lat":43.25814,"lon":5.39423,"is_reserved":false,"is_disabled":false,"rental_uris":{"android":"levelo://app?vid=3664ea3d-ae95-4cde-bb2b-40c0f83d2411","ios":"levelo://app?vid=3664ea3d-ae95-4cde-bb2b-40c0f83d2411"},"vehicle_type_id":"4","last_reported":1758226311,"current_range_meters":15200,"station_id":"ce4bhip2rcd13ifvqft0","pricing_plan_id":"cebpf4jnsgd1na2vs0mg"},{"bike_id":"3e6927fc-eb6e-42a6-bbb3-572741a168b6","system_id":"levelo_inurba_marseille","lat":43.23153,"lon":5.43704,"is_reserved":false,"is_disabled":false,"rental_uris":{"android":"levelo://app?vid=3e6927fc-eb6e-42a6-bbb3-572741a168b6","ios":"levelo://app?vid=3e6927fc-eb6e-42a6-bbb3-572741a168b6"},"vehicle_type_id":"4","last_reported":1758226311,"current_range_meters":15200,"station_id":"ce4bhmp2rcd13ifvqgog","pricing_plan_id":"cebpf4jnsgd1na2vs0mg"},{"bike_id":"438ead59-de14-4fa0-a61d-03a70a4122ae","system_id":"levelo_inurba_marseille","lat":43.31639,"lon":5.38333,"is_reserved":false,"is_disabled":false,"rental_uris":{"android":"levelo://app?vid=438ead59-de14-4fa0-a61d-03a70a4122ae","ios":"levelo://app?vid=438ead59-de14-4fa0-a61d-03a70a4122ae"},"vehicle_type_id":"4","last_reported":1758226311,"current_range_meters":15200,"station_id":"","pricing_plan_id":"cebpf4jnsgd1na2vs0mg"},{"bike_id":"a79b898c-a80d-4a7f-a00e-b16b69a20a31","system_id":"levelo_inurba_marseille","lat":43.30315,"lon":5.39186,"is_reserved":false,"is_disabled":false,"rental_uris":{"android":"levelo://app?vid=a79b898c-a80d-4a7f-a00e-b16b69a20a31","ios":"levelo://app?vid=a79b898c-a80d-4a7f-a00e-b16b69a20a31"},"vehicle_type_id":"4","last_reported":1758226311,"current_range_meters":15200,"station_id":"ce4bgkh2rcd13ifvqbk0","pricing_plan_id":"cebpf4jnsgd1na2vs0mg"},{"bike_id":"9bcc9cf1-9f64-4525-ad76-916ea34ba713","system_id":"levelo_inurba_marseille","lat":43.28705,"lon":5.37379,"is_reserved":false,"is_disabled":false,"rental_uris":{"android":"levelo://app?vid=9bcc9cf1-9f64-4525-ad76-916ea34ba713","ios":"levelo://app?vid=9bcc9cf1-9f64-4525-ad76-916ea34ba713"},"vehicle_type_id":"4","last_reported":1758226311,"current_range_meters":15200,"station_id":"ce4bh3p2rcd13ifvqdq0","pricing_plan_id":"cebpf4jnsgd1na2vs0mg"},{"bike_id":"fb78ea42-e26f-45b3-a617-d3474b811b72","system_id":"levelo_inurba_marseille","lat":43.2982,"lon":5.37967,"is_reserved":false,"is_disabled":false,"rental_uris":{"android":"levelo://app?vid=fb78ea42-e26f-45b3-a617-d3474b811b72","ios":"levelo://app?vid=fb78ea42-e26f-45b3-a617-d3474b811b72"},"vehicle_type_id":"4","last_reported":1758226311,"current_range_meters":16000,"station_id":"","pricing_plan_id":"cebpf4jnsgd1na2vs0mg"},{"bike_id":"9d8b4944-013e-4958-9415-40d7b5ee9701","system_id":"levelo_inurba_marseille","lat":43.3161,"lon":5.38184,"is_reserved":false,"is_disabled":false,"rental_uris":{"android":"levelo://app?vid=9d8b4944-013e-4958-9415-40d7b5ee9701","ios":"levelo://app?vid=9d8b4944-013e-4958-9415-40d7b5ee9701"},"vehicle_type_id":"4","last_reported":1758226311,"current_range_meters":16000,"station_id":"","pricing_plan_id":"cebpf4jnsgd1na2vs0mg"},{"bike_id":"3f5c73b7-0645-4a05-928c-24b2984644e6","system_id":"levelo_inurba_marseille","lat":43.29531,"lon":5.3855,"is_reserved":false,"is_disabled":false,"rental_uris":{"android":"levelo://app?vid=3f5c73b7-0645-4a05-928c-24b2984644e6","ios":"levelo://app?vid=3f5c73b7-0645-4a05-928c-24b2984644e6"},"vehicle_type_id":"4","last_reported":1758226311,"current_range_meters":16000,"station_id":"ce4bgih2rcd13ifvqba0","pricing_plan_id":"cebpf4jnsgd1na2vs0mg"},{"bike_id":"2ce0a5e2-208e-4dc5-a280-b3ed84984427","system_id":"levelo_inurba_marseille","lat":43.30605,"lon":5.37229,"is_reserved":false,"is_disabled":false,"rental_uris":{"android":"levelo://app?vid=2ce0a5e2-208e-4dc5-a280-b3ed84984427","ios":"levelo://app?vid=2ce0a5e2-208e-4dc5-a280-b3ed84984427"},"vehicle_type_id":"4","last_reported":1758226311,"current_range_meters":16000,"station_id":"ce4bgqh2rcd13ifvqc4g","pricing_plan_id":"cebpf4jnsgd1na2vs0mg"},{"bike_id":"f9418cc9-c64d-43d9-9060-3aeedd69cdee","system_id":"levelo_inurba_marseille","lat":43.33073,"lon":5.37869,"is_reserved":false,"is_disabled":false,"rental_uris":{"android":"levelo://app?vid=f9418cc9-c64d-43d9-9060-3aeedd69cdee","ios":"levelo://app?vid=f9418cc9-c64d-43d9-9060-3aeedd69cdee"},"vehicle_type_id":"4","last_reported":1758226311,"current_range_meters":16000,"station_id":"","pricing_plan_id":"cebpf4jnsgd1na2vs0mg"},{"bike_id":"d2324bdd-208c-46d7-bc1b-e2cb180bc544","system_id":"levelo_inurba_marseille","lat":43.29565,"lon":5.37539,"is_reserved":false,"is_disabled":false,"rental_uris":{"android":"levelo://app?vid=d2324bdd-208c-46d7-bc1b-e2cb180bc544","ios":"levelo://app?vid=d2324bdd-208c-46d7-bc1b-e2cb180bc544"},"vehicle_type_id":"4","last_reported":1758226311,"current_range_meters":16400,"station_id":"","pricing_plan_id":"cebpf4jnsgd1na2vs0mg"},{"bike_id":"e66c68cd-7f3f-4122-a8f2-0fe7ee95afaf","system_id":"levelo_inurba_marseille","lat":43.30796,"lon":5.43523,"is_reserved":false,"is_disabled":false,"rental_uris":{"android":"levelo://app?vid=e66c68cd-7f3f-4122-a8f2-0fe7ee95afaf","ios":"levelo://app?vid=e66c68cd-7f3f-4122-a8f2-0fe7ee95afaf"},"vehicle_type_id":"4","last_reported":1758226311,"current_range_meters":16400,"station_id":"ce4bhph2rcd13ifvqheg","pricing_plan_id":"cebpf4jnsgd1na2vs0mg"},{"bike_id":"bf6e6d27-c09e-4725-9fbc-20073fd5a515","system_id":"levelo_inurba_marseille","lat":43.289376,"lon":5.396214,"is_reserved":false,"is_disabled":false,"rental_uris":{"android":"levelo://app?vid=bf6e6d27-c09e-4725-9fbc-20073fd5a515","ios":"levelo://app?vid=bf6e6d27-c09e-4725-9fbc-20073fd5a515"},"vehicle_type_id":"4","last_reported":1758226311,"current_range_meters":16400,"station_id":"","pricing_plan_id":"cebpf4jnsgd1na2vs0mg"},{"bike_id":"57c60fc5-1114-490b-a8b8-560cad2d2f21","system_id":"levelo_inurba_marseille","lat":43.29798,"lon":5.38095,"is_reserved":false,"is_disabled":false,"rental_uris":{"android":"levelo://app?vid=57c60fc5-1114-490b-a8b8-560cad2d2f21","ios":"levelo://app?vid=57c60fc5-1114-490b-a8b8-560cad2d2f21"},"vehicle_type_id":"4","last_reported":1758226311,"current_range_meters":16400,"station_id":"","pricing_plan_id":"cebpf4jnsgd1na2vs0mg"},{"bike_id":"0960e3dd-c358-4474-bd10-8223758e1f6b","system_id":"levelo_inurba_marseille","lat":43.296996,"lon":5.376855,"is_reserved":false,"is_disabled":false,"rental_uris":{"android":"levelo://app?vid=0960e3dd-c358-4474-bd10-8223758e1f6b","ios":"levelo://app?vid=0960e3dd-c358-4474-bd10-8223758e1f6b"},"vehicle_type_id":"4","last_reported":1758226311,"current_range_meters":16400,"station_id":"","pricing_plan_id":"cebpf4jnsgd1na2vs0mg"},{"bike_id":"06319b1f-bb7d-4df8-beb6-4cc890d4ea37","system_id":"levelo_inurba_marseille","lat":43.33761,"lon":5.37452,"is_reserved":false,"is_disabled":false,"rental_uris":{"android":"levelo://app?vid=06319b1f-bb7d-4df8-beb6-4cc890d4ea37","ios":"levelo://app?vid=06319b1f-bb7d-4df8-beb6-4cc890d4ea37"},"vehicle_type_id":"4","last_reported":1758226311,"current_range_meters":16800,"station_id":"","pricing_plan_id":"cebpf4jnsgd1na2vs0mg"},{"bike_id":"e6dca5bc-228c-4a4f-b7c0-9db4b04e0349","system_id":"levelo_inurba_marseille","lat":43.29781,"lon":5.39343,"is_reserved":false,"is_disabled":false,"rental_uris":{"android":"levelo://app?vid=e6dca5bc-228c-4a4f-b7c0-9db4b04e0349","ios":"levelo://app?vid=e6dca5bc-228c-4a4f-b7c0-9db4b04e0349"},"vehicle_type_id":"4","last_reported":1758226311,"current_range_meters":17600,"station_id":"chh1huq6cuj3fo74tm60","pricing_plan_id":"cebpf4jnsgd1na2vs0mg"},{"bike_id":"c43882b1-5e02-4ad9-b699-728f77e5b88f","system_id":"levelo_inurba_marseille","lat":43.31443,"lon":5.37311,"is_reserved":false,"is_disabled":true,"rental_uris":{"android":"levelo://app?vid=c43882b1-5e02-4ad9-b699-728f77e5b88f","ios":"levelo://app?vid=c43882b1-5e02-4ad9-b699-728f77e5b88f"},"vehicle_type_id":"4","last_reported":1758226311,"current_range_meters":16800,"station_id":"ce4bgt12rcd13ifvqcd0","pricing_plan_id":"cebpf4jnsgd1na2vs0mg"},{"bike_id":"4b25ad77-301b-4be3-89f8-94f9df20251d","system_id":"levelo_inurba_marseille","lat":43.27496,"lon":5.4247,"is_reserved":false,"is_disabled":true,"rental_uris":{"android":"levelo://app?vid=4b25ad77-301b-4be3-89f8-94f9df20251d","ios":"levelo://app?vid=4b25ad77-301b-4be3-89f8-94f9df20251d"},"vehicle_type_id":"4","last_reported":1758226311,"current_range_meters":16800,"station_id":"ce4bhn92rcd13ifvqgrg","pricing_plan_id":"cebpf4jnsgd1na2vs0mg"},{"bike_id":"e453dace-db83-43d0-87fd-33a5ee4cf8c1","system_id":"levelo_inurba_marseille","lat":43.29629,"lon":5.40597,"is_reserved":false,"is_disabled":false,"rental_uris":{"android":"levelo://app?vid=e453dace-db83-43d0-87fd-33a5ee4cf8c1","ios":"levelo://app?vid=e453dace-db83-43d0-87fd-33a5ee4cf8c1"},"vehicle_type_id":"4","last_reported":1758226311,"current_range_meters":16800,"station_id":"ce4bh0h2rcd13ifvqd60","pricing_plan_id":"cebpf4jnsgd1na2vs0mg"},{"bike_id":"83981190-f3d9-45bf-a46e-4ee5e9cd6e7e","system_id":"levelo_inurba_marseille","lat":43.23183,"lon":5.39985,"is_reserved":false,"is_disabled":false,"rental_uris":{"android":"levelo://app?vid=83981190-f3d9-45bf-a46e-4ee5e9cd6e7e","ios":"levelo://app?vid=83981190-f3d9-45bf-a46e-4ee5e9cd6e7e"},"vehicle_type_id":"4","last_reported":1758226311,"current_range_meters":17200,"station_id":"ce4bhn12rcd13ifvqgqg","pricing_plan_id":"cebpf4jnsgd1na2vs0mg"},{"bike_id":"43d57fd4-047e-4ac8-97e5-ec9b96239472","system_id":"levelo_inurba_marseille","lat":43.32943,"lon":5.39096,"is_reserved":false,"is_disabled":false,"rental_uris":{"android":"levelo://app?vid=43d57fd4-047e-4ac8-97e5-ec9b96239472","ios":"levelo://app?vid=43d57fd4-047e-4ac8-97e5-ec9b96239472"},"vehicle_type_id":"4","last_reported":1758226311,"current_range_meters":17200,"station_id":"","pricing_plan_id":"cebpf4jnsgd1na2vs0mg"},{"bike_id":"ad9d870c-2eaa-485c-9c83-6cfc3220de33","system_id":"levelo_inurba_marseille","lat":43.29795,"lon":5.38126,"is_reserved":false,"is_disabled":false,"rental_uris":{"android":"levelo://app?vid=ad9d870c-2eaa-485c-9c83-6cfc3220de33","ios":"levelo://app?vid=ad9d870c-2eaa-485c-9c83-6cfc3220de33"},"vehicle_type_id":"4","last_reported":1758226311,"current_range_meters":17600,"station_id":"","pricing_plan_id":"cebpf4jnsgd1na2vs0mg"},{"bike_id":"7df5983d-afc7-4c15-a3e6-ba7d41a736f9","system_id":"levelo_inurba_marseille","lat":43.24541,"lon":5.37325,"is_reserved":false,"is_disabled":true,"rental_uris":{"android":"levelo://app?vid=7df5983d-afc7-4c15-a3e6-ba7d41a736f9","ios":"levelo://app?vid=7df5983d-afc7-4c15-a3e6-ba7d41a736f9"},"vehicle_type_id":"4","last_reported":1758226311,"current_range_meters":17600,"station_id":"","pricing_plan_id":"cebpf4jnsgd1na2vs0mg"},{"bike_id":"53c6e5a6-8181-42aa-a81a-988bc880327d","system_id":"levelo_inurba_marseille","lat":43.295481,"lon":5.375076,"is_reserved":false,"is_disabled":false,"rental_uris":{"android":"levelo://app?vid=53c6e5a6-8181-42aa-a81a-988bc880327d","ios":"levelo://app?vid=53c6e5a6-8181-42aa-a81a-988bc880327d"},"vehicle_type_id":"4","last_reported":1758226311,"current_range_meters":17600,"station_id":"ce4bgkp2rcd13ifvqbmg","pricing_plan_id":"cebpf4jnsgd1na2vs0mg"},{"bike_id":"9c0693b2-33f4-40d9-85fa-754a770a9d54","system_id":"levelo_inurba_marseille","lat":43.295188,"lon":5.390328,"is_reserved":false,"is_disabled":false,"rental_uris":{"android":"levelo://app?vid=9c0693b2-33f4-40d9-85fa-754a770a9d54","ios":"levelo://app?vid=9c0693b2-33f4-40d9-85fa-754a770a9d54"},"vehicle_type_id":"4","last_reported":1758226311,"current_range_meters":17600,"station_id":"ce4bh312rcd13ifvqdj0","pricing_plan_id":"cebpf4jnsgd1na2vs0mg"},{"bike_id":"e90810e4-17da-4699-bbdc-8e13199f333d","system_id":"levelo_inurba_marseille","lat":43.253417,"lon":5.421713,"is_reserved":false,"is_disabled":false,"rental_uris":{"android":"levelo://app?vid=e90810e4-17da-4699-bbdc-8e13199f333d","ios":"levelo://app?vid=e90810e4-17da-4699-bbdc-8e13199f333d"},"vehicle_type_id":"4","last_reported":1758226311,"current_range_meters":17600,"station_id":"ce4bh692rcd13ifvqea0","pricing_plan_id":"cebpf4jnsgd1na2vs0mg"},{"bike_id":"2fb64963-6f0a-435b-b83f-fd53a606b36f","system_id":"levelo_inurba_marseille","lat":43.23196,"lon":5.35559,"is_reserved":false,"is_disabled":false,"rental_uris":{"android":"levelo://app?vid=2fb64963-6f0a-435b-b83f-fd53a606b36f","ios":"levelo://app?vid=2fb64963-6f0a-435b-b83f-fd53a606b36f"},"vehicle_type_id":"4","last_reported":1758226311,"current_range_meters":18000,"station_id":"ce4bhu92rcd13ifvqi70","pricing_plan_id":"cebpf4jnsgd1na2vs0mg"},{"bike_id":"3bc55b74-eb07-4466-8bdc-16723c3f40c8","system_id":"levelo_inurba_marseille","lat":43.26609,"lon":5.39356,"is_reserved":false,"is_disabled":false,"rental_uris":{"android":"levelo://app?vid=3bc55b74-eb07-4466-8bdc-16723c3f40c8","ios":"levelo://app?vid=3bc55b74-eb07-4466-8bdc-16723c3f40c8"},"vehicle_type_id":"4","last_reported":1758226311,"current_range_meters":18000,"station_id":"","pricing_plan_id":"cebpf4jnsgd1na2vs0mg"},{"bike_id":"0a3d03ba-1f6a-44ca-a65e-469bfa88fd1f","system_id":"levelo_inurba_marseille","lat":43.29214,"lon":5.36302,"is_reserved":false,"is_disabled":false,"rental_uris":{"android":"levelo://app?vid=0a3d03ba-1f6a-44ca-a65e-469bfa88fd1f","ios":"levelo://app?vid=0a3d03ba-1f6a-44ca-a65e-469bfa88fd1f"},"vehicle_type_id":"4","last_reported":1758226311,"current_range_meters":18000,"station_id":"","pricing_plan_id":"cebpf4jnsgd1na2vs0mg"},{"bike_id":"f85a8c4d-f9d0-4136-9b57-8bfb28db950c","system_id":"levelo_inurba_marseille","lat":43.31854,"lon":5.3742,"is_reserved":false,"is_disabled":false,"rental_uris":{"android":"levelo://app?vid=f85a8c4d-f9d0-4136-9b57-8bfb28db950c","ios":"levelo://app?vid=f85a8c4d-f9d0-4136-9b57-8bfb28db950c"},"vehicle_type_id":"4","last_reported":1758226311,"current_range_meters":18000,"station_id":"","pricing_plan_id":"cebpf4jnsgd1na2vs0mg"},{"bike_id":"7d478366-e96f-4053-92ee-6bcf2d9d6fd8","system_id":"levelo_inurba_marseille","lat":43.29491,"lon":5.39402,"is_reserved":false,"is_disabled":false,"rental_uris":{"android":"levelo://app?vid=7d478366-e96f-4053-92ee-6bcf2d9d6fd8","ios":"levelo://app?vid=7d478366-e96f-4053-92ee-6bcf2d9d6fd8"},"vehicle_type_id":"4","last_reported":1758226311,"current_range_meters":18000,"station_id":"ce4bh292rcd13ifvqdf0","pricing_plan_id":"cebpf4jnsgd1na2vs0mg"},{"bike_id":"3e702ed9-8abd-4ec7-a28b-ab33e7617bcc","system_id":"levelo_inurba_marseille","lat":43.29617,"lon":5.37148,"is_reserved":false,"is_disabled":false,"rental_uris":{"android":"levelo://app?vid=3e702ed9-8abd-4ec7-a28b-ab33e7617bcc","ios":"levelo://app?vid=3e702ed9-8abd-4ec7-a28b-ab33e7617bcc"},"vehicle_type_id":"4","last_reported":1758226311,"current_range_meters":18000,"station_id":"","pricing_plan_id":"cebpf4jnsgd1na2vs0mg"},{"bike_id":"1fa387bd-766d-41e0-87b3-8d6eb25d0bc0","system_id":"levelo_inurba_marseille","lat":43.29573,"lon":5.37535,"is_reserved":false,"is_disabled":false,"rental_uris":{"android":"levelo://app?vid=1fa387bd-766d-41e0-87b3-8d6eb25d0bc0","ios":"levelo://app?vid=1fa387bd-766d-41e0-87b3-8d6eb25d0bc0"},"vehicle_type_id":"4","last_reported":1758226311,"current_range_meters":18800,"station_id":"","pricing_plan_id":"cebpf4jnsgd1na2vs0mg"},{"bike_id":"73d02e95-e5a4-4300-aaf4-5842cc070637","system_id":"levelo_inurba_marseille","lat":43.2849,"lon":5.38444,"is_reserved":false,"is_disabled":true,"rental_uris":{"android":"levelo://app?vid=73d02e95-e5a4-4300-aaf4-5842cc070637","ios":"levelo://app?vid=73d02e95-e5a4-4300-aaf4-5842cc070637"},"vehicle_type_id":"4","last_reported":1758226311,"current_range_meters":18800,"station_id":"ce4bh512rcd13ifvqe3g","pricing_plan_id":"cebpf4jnsgd1na2vs0mg"},{"bike_id":"3169406c-5de0-45a9-8805-833a2a54ce9b","system_id":"levelo_inurba_marseille","lat":43.29533,"lon":5.38538,"is_reserved":false,"is_disabled":false,"rental_uris":{"android":"levelo://app?vid=3169406c-5de0-45a9-8805-833a2a54ce9b","ios":"levelo://app?vid=3169406c-5de0-45a9-8805-833a2a54ce9b"},"vehicle_type_id":"4","last_reported":1758226311,"current_range_meters":18800,"station_id":"ce4bgih2rcd13ifvqba0","pricing_plan_id":"cebpf4jnsgd1na2vs0mg"},{"bike_id":"4b8537a5-4736-4d92-b52d-2168a000a2e9","system_id":"levelo_inurba_marseille","lat":43.28936,"lon":5.36421,"is_reserved":false,"is_disabled":true,"rental_uris":{"android":"levelo://app?vid=4b8537a5-4736-4d92-b52d-2168a000a2e9","ios":"levelo://app?vid=4b8537a5-4736-4d92-b52d-2168a000a2e9"},"vehicle_type_id":"4","last_reported":1758226311,"current_range_meters":18800,"station_id":"ce4bhc92rcd13ifvqetg","pricing_plan_id":"cebpf4jnsgd1na2vs0mg"},{"bike_id":"42c9fc80-3cab-430f-bcbe-6bbd6863a727","system_id":"levelo_inurba_marseille","lat":43.29528,"lon":5.38549,"is_reserved":false,"is_disabled":true,"rental_uris":{"android":"levelo://app?vid=42c9fc80-3cab-430f-bcbe-6bbd6863a727","ios":"levelo://app?vid=42c9fc80-3cab-430f-bcbe-6bbd6863a727"},"vehicle_type_id":"4","last_reported":1758226311,"current_range_meters":18800,"station_id":"ce4bgih2rcd13ifvqba0","pricing_plan_id":"cebpf4jnsgd1na2vs0mg"},{"bike_id":"4b3e8128-0cba-44be-a6fb-61899439f2dd","system_id":"levelo_inurba_marseille","lat":43.23191,"lon":5.39978,"is_reserved":false,"is_disabled":false,"rental_uris":{"android":"levelo://app?vid=4b3e8128-0cba-44be-a6fb-61899439f2dd","ios":"levelo://app?vid=4b3e8128-0cba-44be-a6fb-61899439f2dd"},"vehicle_type_id":"4","last_reported":1758226311,"current_range_meters":18800,"station_id":"ce4bhn12rcd13ifvqgqg","pricing_plan_id":"cebpf4jnsgd1na2vs0mg"},{"bike_id":"518eef5b-9e3c-4b06-94a9-56e70af9d262","system_id":"levelo_inurba_marseille","lat":43.30793,"lon":5.38149,"is_reserved":false,"is_disabled":true,"rental_uris":{"android":"levelo://app?vid=518eef5b-9e3c-4b06-94a9-56e70af9d262","ios":"levelo://app?vid=518eef5b-9e3c-4b06-94a9-56e70af9d262"},"vehicle_type_id":"4","last_reported":1758226311,"current_range_meters":18800,"station_id":"ce4bgt12rcd13ifvqce0","pricing_plan_id":"cebpf4jnsgd1na2vs0mg"},{"bike_id":"ce720cd8-8843-477b-b04d-01f6542f39a0","system_id":"levelo_inurba_marseille","lat":43.27917,"lon":5.39587,"is_reserved":false,"is_disabled":false,"rental_uris":{"android":"levelo://app?vid=ce720cd8-8843-477b-b04d-01f6542f39a0","ios":"levelo://app?vid=ce720cd8-8843-477b-b04d-01f6542f39a0"},"vehicle_type_id":"4","last_reported":1758226311,"current_range_meters":18800,"station_id":"ce4bhf92rcd13ifvqf40","pricing_plan_id":"cebpf4jnsgd1na2vs0mg"},{"bike_id":"7e000f6d-acc1-422a-9119-228a935d2e49","system_id":"levelo_inurba_marseille","lat":43.30602,"lon":5.37241,"is_reserved":false,"is_disabled":false,"rental_uris":{"android":"levelo://app?vid=7e000f6d-acc1-422a-9119-228a935d2e49","ios":"levelo://app?vid=7e000f6d-acc1-422a-9119-228a935d2e49"},"vehicle_type_id":"4","last_reported":1758226311,"current_range_meters":19200,"station_id":"ce4bgqh2rcd13ifvqc4g","pricing_plan_id":"cebpf4jnsgd1na2vs0mg"},{"bike_id":"59d394c9-e18a-4c43-b3c0-6b5c6966c72e","system_id":"levelo_inurba_marseille","lat":43.23961,"lon":5.36652,"is_reserved":false,"is_disabled":false,"rental_uris":{"android":"levelo://app?vid=59d394c9-e18a-4c43-b3c0-6b5c6966c72e","ios":"levelo://app?vid=59d394c9-e18a-4c43-b3c0-6b5c6966c72e"},"vehicle_type_id":"4","last_reported":1758226311,"current_range_meters":19200,"station_id":"ce4bhi12rcd13ifvqfp0","pricing_plan_id":"cebpf4jnsgd1na2vs0mg"},{"bike_id":"40646b6d-992c-4d14-b0f8-6c16472024c2","system_id":"levelo_inurba_marseille","lat":43.21747,"lon":5.34612,"is_reserved":false,"is_disabled":true,"rental_uris":{"android":"levelo://app?vid=40646b6d-992c-4d14-b0f8-6c16472024c2","ios":"levelo://app?vid=40646b6d-992c-4d14-b0f8-6c16472024c2"},"vehicle_type_id":"4","last_reported":1758226311,"current_range_meters":19200,"station_id":"","pricing_plan_id":"cebpf4jnsgd1na2vs0mg"},{"bike_id":"835975a0-27c7-47e7-bc1c-b8ba0b505127","system_id":"levelo_inurba_marseille","lat":43.3258,"lon":5.37806,"is_reserved":false,"is_disabled":false,"rental_uris":{"android":"levelo://app?vid=835975a0-27c7-47e7-bc1c-b8ba0b505127","ios":"levelo://app?vid=835975a0-27c7-47e7-bc1c-b8ba0b505127"},"vehicle_type_id":"4","last_reported":1758226311,"current_range_meters":19200,"station_id":"","pricing_plan_id":"cebpf4jnsgd1na2vs0mg"},{"bike_id":"c4706891-6ce1-4440-91ff-a3ecf2ff007e","system_id":"levelo_inurba_marseille","lat":43.26374,"lon":5.40075,"is_reserved":false,"is_disabled":false,"rental_uris":{"android":"levelo://app?vid=c4706891-6ce1-4440-91ff-a3ecf2ff007e","ios":"levelo://app?vid=c4706891-6ce1-4440-91ff-a3ecf2ff007e"},"vehicle_type_id":"4","last_reported":1758226311,"current_range_meters":19600,"station_id":"","pricing_plan_id":"cebpf4jnsgd1na2vs0mg"},{"bike_id":"b1aea033-d9a7-44a7-8a23-2e263bbc1dee","system_id":"levelo_inurba_marseille","lat":43.3056,"lon":5.38127,"is_reserved":false,"is_disabled":false,"rental_uris":{"android":"levelo://app?vid=b1aea033-d9a7-44a7-8a23-2e263bbc1dee","ios":"levelo://app?vid=b1aea033-d9a7-44a7-8a23-2e263bbc1dee"},"vehicle_type_id":"4","last_reported":1758226311,"current_range_meters":19600,"station_id":"","pricing_plan_id":"cebpf4jnsgd1na2vs0mg"},{"bike_id":"0eda2df8-e078-4c8b-b031-6ac4115ed463","system_id":"levelo_inurba_marseille","lat":43.320001,"lon":5.381626,"is_reserved":false,"is_disabled":false,"rental_uris":{"android":"levelo://app?vid=0eda2df8-e078-4c8b-b031-6ac4115ed463","ios":"levelo://app?vid=0eda2df8-e078-4c8b-b031-6ac4115ed463"},"vehicle_type_id":"4","last_reported":1758226311,"current_range_meters":19600,"station_id":"ce4bhr12rcd13ifvqhpg","pricing_plan_id":"cebpf4jnsgd1na2vs0mg"},{"bike_id":"05018165-60d4-4042-bbac-a332c9bdb241","system_id":"levelo_inurba_marseille","lat":43.2707,"lon":5.42277,"is_reserved":false,"is_disabled":false,"rental_uris":{"android":"levelo://app?vid=05018165-60d4-4042-bbac-a332c9bdb241","ios":"levelo://app?vid=05018165-60d4-4042-bbac-a332c9bdb241"},"vehicle_type_id":"4","last_reported":1758226311,"current_range_meters":20000,"station_id":"ce4bhk92rcd13ifvqgb0","pricing_plan_id":"cebpf4jnsgd1na2vs0mg"},{"bike_id":"4a72620c-6bd2-49b2-89d5-f8400bda3120","system_id":"levelo_inurba_marseille","lat":43.27058,"lon":5.40258,"is_reserved":false,"is_disabled":false,"rental_uris":{"android":"levelo://app?vid=4a72620c-6bd2-49b2-89d5-f8400bda3120","ios":"levelo://app?vid=4a72620c-6bd2-49b2-89d5-f8400bda3120"},"vehicle_type_id":"4","last_reported":1758226311,"current_range_meters":20000,"station_id":"ce4bhk92rcd13ifvqgc0","pricing_plan_id":"cebpf4jnsgd1na2vs0mg"},{"bike_id":"55d1bc08-fd54-4a82-afc7-2adcaa7b1c4e","system_id":"levelo_inurba_marseille","lat":43.30043,"lon":5.37732,"is_reserved":false,"is_disabled":false,"rental_uris":{"android":"levelo://app?vid=55d1bc08-fd54-4a82-afc7-2adcaa7b1c4e","ios":"levelo://app?vid=55d1bc08-fd54-4a82-afc7-2adcaa7b1c4e"},"vehicle_type_id":"4","last_reported":1758226311,"current_range_meters":20000,"station_id":"","pricing_plan_id":"cebpf4jnsgd1na2vs0mg"},{"bike_id":"af92115d-6f7a-49ce-a65e-77f9182df835","system_id":"levelo_inurba_marseille","lat":43.21752,"lon":5.34604,"is_reserved":false,"is_disabled":true,"rental_uris":{"android":"levelo://app?vid=af92115d-6f7a-49ce-a65e-77f9182df835","ios":"levelo://app?vid=af92115d-6f7a-49ce-a65e-77f9182df835"},"vehicle_type_id":"4","last_reported":1758226311,"current_range_meters":20400,"station_id":"st_cvj6r9ubvosntc0bgbag","pricing_plan_id":"cebpf4jnsgd1na2vs0mg"},{"bike_id":"35df5f28-4997-40a2-b5bf-859d6a1b33bf","system_id":"levelo_inurba_marseille","lat":43.29761,"lon":5.37103,"is_reserved":false,"is_disabled":false,"rental_uris":{"android":"levelo://app?vid=35df5f28-4997-40a2-b5bf-859d6a1b33bf","ios":"levelo://app?vid=35df5f28-4997-40a2-b5bf-859d6a1b33bf"},"vehicle_type_id":"4","last_reported":1758226311,"current_range_meters":20400,"station_id":"","pricing_plan_id":"cebpf4jnsgd1na2vs0mg"},{"bike_id":"5304049e-91d5-46c7-b1ae-caae14291e88","system_id":"levelo_inurba_marseille","lat":43.29246,"lon":5.37624,"is_reserved":false,"is_disabled":true,"rental_uris":{"android":"levelo://app?vid=5304049e-91d5-46c7-b1ae-caae14291e88","ios":"levelo://app?vid=5304049e-91d5-46c7-b1ae-caae14291e88"},"vehicle_type_id":"4","last_reported":1758226311,"current_range_meters":20400,"station_id":"ce4bgi12rcd13ifvqb80","pricing_plan_id":"cebpf4jnsgd1na2vs0mg"},{"bike_id":"0ba3e781-3cc1-460b-a893-aeb90239c42e","system_id":"levelo_inurba_marseille","lat":43.29601,"lon":5.38114,"is_reserved":false,"is_disabled":false,"rental_uris":{"android":"levelo://app?vid=0ba3e781-3cc1-460b-a893-aeb90239c42e","ios":"levelo://app?vid=0ba3e781-3cc1-460b-a893-aeb90239c42e"},"vehicle_type_id":"4","last_reported":1758226311,"current_range_meters":20400,"station_id":"","pricing_plan_id":"cebpf4jnsgd1na2vs0mg"},{"bike_id":"cc1428be-12e6-41b2-8fa9-f73e9402f117","system_id":"levelo_inurba_marseille","lat":43.250074,"lon":5.375764,"is_reserved":false,"is_disabled":false,"rental_uris":{"android":"levelo://app?vid=cc1428be-12e6-41b2-8fa9-f73e9402f117","ios":"levelo://app?vid=cc1428be-12e6-41b2-8fa9-f73e9402f117"},"vehicle_type_id":"4","last_reported":1758226311,"current_range_meters":20400,"station_id":"ce4bhgh2rcd13ifvqfb0","pricing_plan_id":"cebpf4jnsgd1na2vs0mg"},{"bike_id":"af0490b6-c1c9-4895-8a15-568d23e0a730","system_id":"levelo_inurba_marseille","lat":43.28079,"lon":5.40773,"is_reserved":false,"is_disabled":false,"rental_uris":{"android":"levelo://app?vid=af0490b6-c1c9-4895-8a15-568d23e0a730","ios":"levelo://app?vid=af0490b6-c1c9-4895-8a15-568d23e0a730"},"vehicle_type_id":"4","last_reported":1758226311,"current_range_meters":20400,"station_id":"","pricing_plan_id":"cebpf4jnsgd1na2vs0mg"},{"bike_id":"f83da096-fd96-4f22-919f-04210660cf99","system_id":"levelo_inurba_marseille","lat":43.26225,"lon":5.37434,"is_reserved":false,"is_disabled":false,"rental_uris":{"android":"levelo://app?vid=f83da096-fd96-4f22-919f-04210660cf99","ios":"levelo://app?vid=f83da096-fd96-4f22-919f-04210660cf99"},"vehicle_type_id":"4","last_reported":1758226311,"current_range_meters":20400,"station_id":"ce4bhgp2rcd13ifvqfc0","pricing_plan_id":"cebpf4jnsgd1na2vs0mg"},{"bike_id":"161cad8a-69cf-4221-a60e-26db5a988d29","system_id":"levelo_inurba_marseille","lat":43.27492,"lon":5.42471,"is_reserved":false,"is_disabled":true,"rental_uris":{"android":"levelo://app?vid=161cad8a-69cf-4221-a60e-26db5a988d29","ios":"levelo://app?vid=161cad8a-69cf-4221-a60e-26db5a988d29"},"vehicle_type_id":"4","last_reported":1758226311,"current_range_meters":20400,"station_id":"ce4bhn92rcd13ifvqgrg","pricing_plan_id":"cebpf4jnsgd1na2vs0mg"},{"bike_id":"58a214fc-c4eb-4d08-a0b1-cc7c1bc45206","system_id":"levelo_inurba_marseille","lat":43.29549,"lon":5.38533,"is_reserved":false,"is_disabled":false,"rental_uris":{"android":"levelo://app?vid=58a214fc-c4eb-4d08-a0b1-cc7c1bc45206","ios":"levelo://app?vid=58a214fc-c4eb-4d08-a0b1-cc7c1bc45206"},"vehicle_type_id":"4","last_reported":1758226311,"current_range_meters":20400,"station_id":"ce4bgih2rcd13ifvqba0","pricing_plan_id":"cebpf4jnsgd1na2vs0mg"},{"bike_id":"94a1f4d9-9138-40d9-9752-5a5695344afb","system_id":"levelo_inurba_marseille","lat":43.27828,"lon":5.3921,"is_reserved":false,"is_disabled":false,"rental_uris":{"android":"levelo://app?vid=94a1f4d9-9138-40d9-9752-5a5695344afb","ios":"levelo://app?vid=94a1f4d9-9138-40d9-9752-5a5695344afb"},"vehicle_type_id":"4","last_reported":1758226311,"current_range_meters":20800,"station_id":"ce4bhjp2rcd13ifvqga0","pricing_plan_id":"cebpf4jnsgd1na2vs0mg"},{"bike_id":"4a9dd138-82e2-4eb6-bdfa-88185317c15e","system_id":"levelo_inurba_marseille","lat":43.246623,"lon":5.381574,"is_reserved":false,"is_disabled":false,"rental_uris":{"android":"levelo://app?vid=4a9dd138-82e2-4eb6-bdfa-88185317c15e","ios":"levelo://app?vid=4a9dd138-82e2-4eb6-bdfa-88185317c15e"},"vehicle_type_id":"4","last_reported":1758226311,"current_range_meters":20800,"station_id":"ce4bhih2rcd13ifvqfr0","pricing_plan_id":"cebpf4jnsgd1na2vs0mg"},{"bike_id":"30ad3ab2-4ee1-40b0-9946-6c9083c0b11e","system_id":"levelo_inurba_marseille","lat":43.28725,"lon":5.36095,"is_reserved":false,"is_disabled":false,"rental_uris":{"android":"levelo://app?vid=30ad3ab2-4ee1-40b0-9946-6c9083c0b11e","ios":"levelo://app?vid=30ad3ab2-4ee1-40b0-9946-6c9083c0b11e"},"vehicle_type_id":"4","last_reported":1758226311,"current_range_meters":20800,"station_id":"cki0cbj6b192h4jlfktg","pricing_plan_id":"cebpf4jnsgd1na2vs0mg"},{"bike_id":"39ab0b98-4d84-44a3-8d3e-8142a5ea8e45","system_id":"levelo_inurba_marseille","lat":43.29534,"lon":5.38551,"is_reserved":false,"is_disabled":false,"rental_uris":{"android":"levelo://app?vid=39ab0b98-4d84-44a3-8d3e-8142a5ea8e45","ios":"levelo://app?vid=39ab0b98-4d84-44a3-8d3e-8142a5ea8e45"},"vehicle_type_id":"4","last_reported":1758226311,"current_range_meters":20800,"station_id":"ce4bgih2rcd13ifvqba0","pricing_plan_id":"cebpf4jnsgd1na2vs0mg"},{"bike_id":"d7bef412-2577-4ef8-9a48-17ed47d0fae4","system_id":"levelo_inurba_marseille","lat":43.225311,"lon":5.348271,"is_reserved":false,"is_disabled":false,"rental_uris":{"android":"levelo://app?vid=d7bef412-2577-4ef8-9a48-17ed47d0fae4","ios":"levelo://app?vid=d7bef412-2577-4ef8-9a48-17ed47d0fae4"},"vehicle_type_id":"4","last_reported":1758226311,"current_range_meters":21600,"station_id":"","pricing_plan_id":"cebpf4jnsgd1na2vs0mg"},{"bike_id":"b810ec46-97ab-4356-95f9-0c9d02506d5a","system_id":"levelo_inurba_marseille","lat":43.24458,"lon":5.39039,"is_reserved":false,"is_disabled":false,"rental_uris":{"android":"levelo://app?vid=b810ec46-97ab-4356-95f9-0c9d02506d5a","ios":"levelo://app?vid=b810ec46-97ab-4356-95f9-0c9d02506d5a"},"vehicle_type_id":"4","last_reported":1758226311,"current_range_meters":21600,"station_id":"","pricing_plan_id":"cebpf4jnsgd1na2vs0mg"},{"bike_id":"9d013e62-c03f-430f-9c64-8518c935dabc","system_id":"levelo_inurba_marseille","lat":43.28224,"lon":5.39056,"is_reserved":false,"is_disabled":false,"rental_uris":{"android":"levelo://app?vid=9d013e62-c03f-430f-9c64-8518c935dabc","ios":"levelo://app?vid=9d013e62-c03f-430f-9c64-8518c935dabc"},"vehicle_type_id":"4","last_reported":1758226311,"current_range_meters":21600,"station_id":"ce4bhn92rcd13ifvqgsg","pricing_plan_id":"cebpf4jnsgd1na2vs0mg"},{"bike_id":"3d158a28-bece-4b10-9f82-ab3eb3313408","system_id":"levelo_inurba_marseille","lat":43.337485,"lon":5.374512,"is_reserved":false,"is_disabled":false,"rental_uris":{"android":"levelo://app?vid=3d158a28-bece-4b10-9f82-ab3eb3313408","ios":"levelo://app?vid=3d158a28-bece-4b10-9f82-ab3eb3313408"},"vehicle_type_id":"4","last_reported":1758226311,"current_range_meters":21600,"station_id":"","pricing_plan_id":"cebpf4jnsgd1na2vs0mg"},{"bike_id":"17e2a758-4bfa-4040-919a-c52801e1eaab","system_id":"levelo_inurba_marseille","lat":43.30888,"lon":5.39653,"is_reserved":false,"is_disabled":true,"rental_uris":{"android":"levelo://app?vid=17e2a758-4bfa-4040-919a-c52801e1eaab","ios":"levelo://app?vid=17e2a758-4bfa-4040-919a-c52801e1eaab"},"vehicle_type_id":"4","last_reported":1758226311,"current_range_meters":21600,"station_id":"ce4bh012rcd13ifvqcv0","pricing_plan_id":"cebpf4jnsgd1na2vs0mg"},{"bike_id":"ee1af2ff-4a41-4df2-ad5b-eac20de83cd3","system_id":"levelo_inurba_marseille","lat":43.29537,"lon":5.37508,"is_reserved":false,"is_disabled":false,"rental_uris":{"android":"levelo://app?vid=ee1af2ff-4a41-4df2-ad5b-eac20de83cd3","ios":"levelo://app?vid=ee1af2ff-4a41-4df2-ad5b-eac20de83cd3"},"vehicle_type_id":"4","last_reported":1758226311,"current_range_meters":21600,"station_id":"","pricing_plan_id":"cebpf4jnsgd1na2vs0mg"},{"bike_id":"0f7caa9f-1d1a-40d7-9b4a-2f8720e63681","system_id":"levelo_inurba_marseille","lat":43.30861,"lon":5.37534,"is_reserved":false,"is_disabled":false,"rental_uris":{"android":"levelo://app?vid=0f7caa9f-1d1a-40d7-9b4a-2f8720e63681","ios":"levelo://app?vid=0f7caa9f-1d1a-40d7-9b4a-2f8720e63681"},"vehicle_type_id":"4","last_reported":1758226311,"current_range_meters":22000,"station_id":"","pricing_plan_id":"cebpf4jnsgd1na2vs0mg"},{"bike_id":"43656096-3901-4c1c-ba91-d79ba028e521","system_id":"levelo_inurba_marseille","lat":43.274942,"lon":5.424564,"is_reserved":false,"is_disabled":true,"rental_uris":{"android":"levelo://app?vid=43656096-3901-4c1c-ba91-d79ba028e521","ios":"levelo://app?vid=43656096-3901-4c1c-ba91-d79ba028e521"},"vehicle_type_id":"4","last_reported":1758226311,"current_range_meters":22000,"station_id":"ce4bhn92rcd13ifvqgrg","pricing_plan_id":"cebpf4jnsgd1na2vs0mg"},{"bike_id":"b1ac904c-8483-4b61-abb8-c8d7defdbf68","system_id":"levelo_inurba_marseille","lat":43.30596,"lon":5.39363,"is_reserved":false,"is_disabled":false,"rental_uris":{"android":"levelo://app?vid=b1ac904c-8483-4b61-abb8-c8d7defdbf68","ios":"levelo://app?vid=b1ac904c-8483-4b61-abb8-c8d7defdbf68"},"vehicle_type_id":"4","last_reported":1758226311,"current_range_meters":22000,"station_id":"ce4bh0p2rcd13ifvqd80","pricing_plan_id":"cebpf4jnsgd1na2vs0mg"},{"bike_id":"f9ca771f-69b1-435d-9c5f-e2af31630f2f","system_id":"levelo_inurba_marseille","lat":43.25115,"lon":5.40321,"is_reserved":false,"is_disabled":false,"rental_uris":{"android":"levelo://app?vid=f9ca771f-69b1-435d-9c5f-e2af31630f2f","ios":"levelo://app?vid=f9ca771f-69b1-435d-9c5f-e2af31630f2f"},"vehicle_type_id":"4","last_reported":1758226311,"current_range_meters":22000,"station_id":"ce4bhlh2rcd13ifvqgig","pricing_plan_id":"cebpf4jnsgd1na2vs0mg"},{"bike_id":"a826ad86-657e-471a-9f88-068a8cb0ac1f","system_id":"levelo_inurba_marseille","lat":43.28139,"lon":5.42629,"is_reserved":false,"is_disabled":true,"rental_uris":{"android":"levelo://app?vid=a826ad86-657e-471a-9f88-068a8cb0ac1f","ios":"levelo://app?vid=a826ad86-657e-471a-9f88-068a8cb0ac1f"},"vehicle_type_id":"4","last_reported":1758226311,"current_range_meters":22000,"station_id":"ce4bhnh2rcd13ifvqgug","pricing_plan_id":"cebpf4jnsgd1na2vs0mg"},{"bike_id":"2c734c36-442f-468e-ab47-e34ad5183e32","system_id":"levelo_inurba_marseille","lat":43.25772,"lon":5.41047,"is_reserved":false,"is_disabled":false,"rental_uris":{"android":"levelo://app?vid=2c734c36-442f-468e-ab47-e34ad5183e32","ios":"levelo://app?vid=2c734c36-442f-468e-ab47-e34ad5183e32"},"vehicle_type_id":"4","last_reported":1758226311,"current_range_meters":22400,"station_id":"","pricing_plan_id":"cebpf4jnsgd1na2vs0mg"},{"bike_id":"312f4859-dd75-4504-9781-c3b916c17267","system_id":"levelo_inurba_marseille","lat":43.32475,"lon":5.36571,"is_reserved":false,"is_disabled":false,"rental_uris":{"android":"levelo://app?vid=312f4859-dd75-4504-9781-c3b916c17267","ios":"levelo://app?vid=312f4859-dd75-4504-9781-c3b916c17267"},"vehicle_type_id":"4","last_reported":1758226311,"current_range_meters":22400,"station_id":"ce4bhs12rcd13ifvqhvg","pricing_plan_id":"cebpf4jnsgd1na2vs0mg"},{"bike_id":"969e50c3-a6fa-49a2-8381-35f10a15b038","system_id":"levelo_inurba_marseille","lat":43.22566,"lon":5.41642,"is_reserved":false,"is_disabled":false,"rental_uris":{"android":"levelo://app?vid=969e50c3-a6fa-49a2-8381-35f10a15b038","ios":"levelo://app?vid=969e50c3-a6fa-49a2-8381-35f10a15b038"},"vehicle_type_id":"4","last_reported":1758226311,"current_range_meters":22400,"station_id":"st_d2o4gvlbi1j2169b742g","pricing_plan_id":"cebpf4jnsgd1na2vs0mg"},{"bike_id":"4a749a94-5918-421d-86d7-2bf8486fd35c","system_id":"levelo_inurba_marseille","lat":43.28421,"lon":5.37507,"is_reserved":false,"is_disabled":false,"rental_uris":{"android":"levelo://app?vid=4a749a94-5918-421d-86d7-2bf8486fd35c","ios":"levelo://app?vid=4a749a94-5918-421d-86d7-2bf8486fd35c"},"vehicle_type_id":"4","last_reported":1758226311,"current_range_meters":22400,"station_id":"ce4bh412rcd13ifvqds0","pricing_plan_id":"cebpf4jnsgd1na2vs0mg"},{"bike_id":"94b543c1-8b01-4dea-b115-d6d380ba006f","system_id":"levelo_inurba_marseille","lat":43.29878,"lon":5.39732,"is_reserved":false,"is_disabled":false,"rental_uris":{"android":"levelo://app?vid=94b543c1-8b01-4dea-b115-d6d380ba006f","ios":"levelo://app?vid=94b543c1-8b01-4dea-b115-d6d380ba006f"},"vehicle_type_id":"4","last_reported":1758226311,"current_range_meters":22400,"station_id":"ce4bh0h2rcd13ifvqd50","pricing_plan_id":"cebpf4jnsgd1na2vs0mg"},{"bike_id":"5cbc7cff-2be0-4a23-a00a-40aa78638829","system_id":"levelo_inurba_marseille","lat":43.2928,"lon":5.40121,"is_reserved":false,"is_disabled":false,"rental_uris":{"android":"levelo://app?vid=5cbc7cff-2be0-4a23-a00a-40aa78638829","ios":"levelo://app?vid=5cbc7cff-2be0-4a23-a00a-40aa78638829"},"vehicle_type_id":"4","last_reported":1758226311,"current_range_meters":22400,"station_id":"ce4bh312rcd13ifvqdk0","pricing_plan_id":"cebpf4jnsgd1na2vs0mg"},{"bike_id":"a07a513e-e5a9-4481-8592-d991379bc662","system_id":"levelo_inurba_marseille","lat":43.337536,"lon":5.374536,"is_reserved":false,"is_disabled":false,"rental_uris":{"android":"levelo://app?vid=a07a513e-e5a9-4481-8592-d991379bc662","ios":"levelo://app?vid=a07a513e-e5a9-4481-8592-d991379bc662"},"vehicle_type_id":"4","last_reported":1758226311,"current_range_meters":22400,"station_id":"","pricing_plan_id":"cebpf4jnsgd1na2vs0mg"},{"bike_id":"2a00cb84-e9e6-4781-804d-0494d7480777","system_id":"levelo_inurba_marseille","lat":43.22548,"lon":5.41628,"is_reserved":false,"is_disabled":false,"rental_uris":{"android":"levelo://app?vid=2a00cb84-e9e6-4781-804d-0494d7480777","ios":"levelo://app?vid=2a00cb84-e9e6-4781-804d-0494d7480777"},"vehicle_type_id":"4","last_reported":1758226311,"current_range_meters":23200,"station_id":"st_d2o4gvlbi1j2169b742g","pricing_plan_id":"cebpf4jnsgd1na2vs0mg"},{"bike_id":"68adab37-f5ad-4072-b58a-fe6c68285ca6","system_id":"levelo_inurba_marseille","lat":43.30615,"lon":5.3765,"is_reserved":false,"is_disabled":false,"rental_uris":{"android":"levelo://app?vid=68adab37-f5ad-4072-b58a-fe6c68285ca6","ios":"levelo://app?vid=68adab37-f5ad-4072-b58a-fe6c68285ca6"},"vehicle_type_id":"4","last_reported":1758226311,"current_range_meters":23200,"station_id":"","pricing_plan_id":"cebpf4jnsgd1na2vs0mg"},{"bike_id":"9f89d114-0170-46e7-aa93-86a4e6ff45ff","system_id":"levelo_inurba_marseille","lat":43.23182,"lon":5.39988,"is_reserved":false,"is_disabled":false,"rental_uris":{"android":"levelo://app?vid=9f89d114-0170-46e7-aa93-86a4e6ff45ff","ios":"levelo://app?vid=9f89d114-0170-46e7-aa93-86a4e6ff45ff"},"vehicle_type_id":"4","last_reported":1758226311,"current_range_meters":23200,"station_id":"ce4bhn12rcd13ifvqgqg","pricing_plan_id":"cebpf4jnsgd1na2vs0mg"},{"bike_id":"4f36a2a5-dbb4-4f74-9b72-d68418c17e37","system_id":"levelo_inurba_marseille","lat":43.27934,"lon":5.41038,"is_reserved":false,"is_disabled":false,"rental_uris":{"android":"levelo://app?vid=4f36a2a5-dbb4-4f74-9b72-d68418c17e37","ios":"levelo://app?vid=4f36a2a5-dbb4-4f74-9b72-d68418c17e37"},"vehicle_type_id":"4","last_reported":1758226311,"current_range_meters":23200,"station_id":"ce4bhnp2rcd13ifvqh0g","pricing_plan_id":"cebpf4jnsgd1na2vs0mg"},{"bike_id":"77e68aea-7f47-4d5a-9b7a-6e3e4d65d888","system_id":"levelo_inurba_marseille","lat":43.307992,"lon":5.435278,"is_reserved":false,"is_disabled":false,"rental_uris":{"android":"levelo://app?vid=77e68aea-7f47-4d5a-9b7a-6e3e4d65d888","ios":"levelo://app?vid=77e68aea-7f47-4d5a-9b7a-6e3e4d65d888"},"vehicle_type_id":"4","last_reported":1758226311,"current_range_meters":23200,"station_id":"ce4bhph2rcd13ifvqheg","pricing_plan_id":"cebpf4jnsgd1na2vs0mg"},{"bike_id":"82457c56-3f74-485e-a800-55621c5c4bd7","system_id":"levelo_inurba_marseille","lat":43.305592,"lon":5.384387,"is_reserved":false,"is_disabled":false,"rental_uris":{"android":"levelo://app?vid=82457c56-3f74-485e-a800-55621c5c4bd7","ios":"levelo://app?vid=82457c56-3f74-485e-a800-55621c5c4bd7"},"vehicle_type_id":"4","last_reported":1758226311,"current_range_meters":23200,"station_id":"ce4bgg92rcd13ifvqb30","pricing_plan_id":"cebpf4jnsgd1na2vs0mg"},{"bike_id":"9d0220b8-e536-4c12-aec6-492eb3c54730","system_id":"levelo_inurba_marseille","lat":43.29304,"lon":5.37158,"is_reserved":false,"is_disabled":false,"rental_uris":{"android":"levelo://app?vid=9d0220b8-e536-4c12-aec6-492eb3c54730","ios":"levelo://app?vid=9d0220b8-e536-4c12-aec6-492eb3c54730"},"vehicle_type_id":"4","last_reported":1758226311,"current_range_meters":23200,"station_id":"","pricing_plan_id":"cebpf4jnsgd1na2vs0mg"},{"bike_id":"9b52b6e3-d05b-4172-a1c7-31515339c594","system_id":"levelo_inurba_marseille","lat":43.29745,"lon":5.38057,"is_reserved":false,"is_disabled":false,"rental_uris":{"android":"levelo://app?vid=9b52b6e3-d05b-4172-a1c7-31515339c594","ios":"levelo://app?vid=9b52b6e3-d05b-4172-a1c7-31515339c594"},"vehicle_type_id":"4","last_reported":1758226311,"current_range_meters":24000,"station_id":"","pricing_plan_id":"cebpf4jnsgd1na2vs0mg"},{"bike_id":"980b3274-4080-4af4-8eeb-54f0c49fdd82","system_id":"levelo_inurba_marseille","lat":43.3011,"lon":5.39083,"is_reserved":false,"is_disabled":false,"rental_uris":{"android":"levelo://app?vid=980b3274-4080-4af4-8eeb-54f0c49fdd82","ios":"levelo://app?vid=980b3274-4080-4af4-8eeb-54f0c49fdd82"},"vehicle_type_id":"4","last_reported":1758226311,"current_range_meters":24000,"station_id":"ce4bh192rcd13ifvqdb0","pricing_plan_id":"cebpf4jnsgd1na2vs0mg"},{"bike_id":"7f0caab0-894b-42f9-94eb-6d9e6311403c","system_id":"levelo_inurba_marseille","lat":43.3015,"lon":5.37384,"is_reserved":false,"is_disabled":true,"rental_uris":{"android":"levelo://app?vid=7f0caab0-894b-42f9-94eb-6d9e6311403c","ios":"levelo://app?vid=7f0caab0-894b-42f9-94eb-6d9e6311403c"},"vehicle_type_id":"4","last_reported":1758226311,"current_range_meters":24000,"station_id":"","pricing_plan_id":"cebpf4jnsgd1na2vs0mg"},{"bike_id":"7d26d3fd-10c0-4103-bdff-da9217648ab8","system_id":"levelo_inurba_marseille","lat":43.31169,"lon":5.38704,"is_reserved":false,"is_disabled":false,"rental_uris":{"android":"levelo://app?vid=7d26d3fd-10c0-4103-bdff-da9217648ab8","ios":"levelo://app?vid=7d26d3fd-10c0-4103-bdff-da9217648ab8"},"vehicle_type_id":"4","last_reported":1758226311,"current_range_meters":24000,"station_id":"ce4bgv12rcd13ifvqcp0","pricing_plan_id":"cebpf4jnsgd1na2vs0mg"},{"bike_id":"dcdd866e-1f27-4d6c-8e97-423c982a6c06","system_id":"levelo_inurba_marseille","lat":43.3029,"lon":5.39215,"is_reserved":false,"is_disabled":false,"rental_uris":{"android":"levelo://app?vid=dcdd866e-1f27-4d6c-8e97-423c982a6c06","ios":"levelo://app?vid=dcdd866e-1f27-4d6c-8e97-423c982a6c06"},"vehicle_type_id":"4","last_reported":1758226311,"current_range_meters":24000,"station_id":"ce4bgkh2rcd13ifvqbk0","pricing_plan_id":"cebpf4jnsgd1na2vs0mg"},{"bike_id":"b8af4056-fb36-4e39-a4f0-5cd179383459","system_id":"levelo_inurba_marseille","lat":43.32918,"lon":5.38949,"is_reserved":false,"is_disabled":false,"rental_uris":{"android":"levelo://app?vid=b8af4056-fb36-4e39-a4f0-5cd179383459","ios":"levelo://app?vid=b8af4056-fb36-4e39-a4f0-5cd179383459"},"vehicle_type_id":"4","last_reported":1758226311,"current_range_meters":24000,"station_id":"","pricing_plan_id":"cebpf4jnsgd1na2vs0mg"},{"bike_id":"484773ad-b334-4455-9aca-99776a9bbd53","system_id":"levelo_inurba_marseille","lat":43.29573,"lon":5.39977,"is_reserved":false,"is_disabled":false,"rental_uris":{"android":"levelo://app?vid=484773ad-b334-4455-9aca-99776a9bbd53","ios":"levelo://app?vid=484773ad-b334-4455-9aca-99776a9bbd53"},"vehicle_type_id":"4","last_reported":1758226311,"current_range_meters":24400,"station_id":"ce4bh312rcd13ifvqdj0","pricing_plan_id":"cebpf4jnsgd1na2vs0mg"},{"bike_id":"97514a44-1f4d-4ae1-a270-04ca7b75c621","system_id":"levelo_inurba_marseille","lat":43.28863,"lon":5.42523,"is_reserved":false,"is_disabled":false,"rental_uris":{"android":"levelo://app?vid=97514a44-1f4d-4ae1-a270-04ca7b75c621","ios":"levelo://app?vid=97514a44-1f4d-4ae1-a270-04ca7b75c621"},"vehicle_type_id":"4","last_reported":1758226311,"current_range_meters":24400,"station_id":"","pricing_plan_id":"cebpf4jnsgd1na2vs0mg"},{"bike_id":"19195992-fa48-4430-a57f-633da9738714","system_id":"levelo_inurba_marseille","lat":43.29708,"lon":5.36615,"is_reserved":false,"is_disabled":false,"rental_uris":{"android":"levelo://app?vid=19195992-fa48-4430-a57f-633da9738714","ios":"levelo://app?vid=19195992-fa48-4430-a57f-633da9738714"},"vehicle_type_id":"4","last_reported":1758226311,"current_range_meters":24400,"station_id":"ce4bgn12rcd13ifvqbt0","pricing_plan_id":"cebpf4jnsgd1na2vs0mg"},{"bike_id":"84c885ab-3e95-4436-86c4-85ddb8c0180c","system_id":"levelo_inurba_marseille","lat":43.27906,"lon":5.39583,"is_reserved":false,"is_disabled":false,"rental_uris":{"android":"levelo://app?vid=84c885ab-3e95-4436-86c4-85ddb8c0180c","ios":"levelo://app?vid=84c885ab-3e95-4436-86c4-85ddb8c0180c"},"vehicle_type_id":"4","last_reported":1758226311,"current_range_meters":24400,"station_id":"ce4bhf92rcd13ifvqf40","pricing_plan_id":"cebpf4jnsgd1na2vs0mg"},{"bike_id":"e5dd9a0e-a122-4005-a718-fcd69b226c9b","system_id":"levelo_inurba_marseille","lat":43.29708,"lon":5.37679,"is_reserved":false,"is_disabled":true,"rental_uris":{"android":"levelo://app?vid=e5dd9a0e-a122-4005-a718-fcd69b226c9b","ios":"levelo://app?vid=e5dd9a0e-a122-4005-a718-fcd69b226c9b"},"vehicle_type_id":"4","last_reported":1758226311,"current_range_meters":24400,"station_id":"","pricing_plan_id":"cebpf4jnsgd1na2vs0mg"},{"bike_id":"37f99d20-8b7f-45c6-94aa-9a4143897022","system_id":"levelo_inurba_marseille","lat":43.30924,"lon":5.40131,"is_reserved":false,"is_disabled":false,"rental_uris":{"android":"levelo://app?vid=37f99d20-8b7f-45c6-94aa-9a4143897022","ios":"levelo://app?vid=37f99d20-8b7f-45c6-94aa-9a4143897022"},"vehicle_type_id":"4","last_reported":1758226311,"current_range_meters":24400,"station_id":"","pricing_plan_id":"cebpf4jnsgd1na2vs0mg"},{"bike_id":"76bbf107-7ec5-4826-b296-ab629ecd14ab","system_id":"levelo_inurba_marseille","lat":43.29848,"lon":5.42046,"is_reserved":false,"is_disabled":false,"rental_uris":{"android":"levelo://app?vid=76bbf107-7ec5-4826-b296-ab629ecd14ab","ios":"levelo://app?vid=76bbf107-7ec5-4826-b296-ab629ecd14ab"},"vehicle_type_id":"4","last_reported":1758226311,"current_range_meters":24400,"station_id":"","pricing_plan_id":"cebpf4jnsgd1na2vs0mg"},{"bike_id":"2121eea8-97b6-457c-968a-f2a0338a6b2d","system_id":"levelo_inurba_marseille","lat":43.29529,"lon":5.38547,"is_reserved":false,"is_disabled":false,"rental_uris":{"android":"levelo://app?vid=2121eea8-97b6-457c-968a-f2a0338a6b2d","ios":"levelo://app?vid=2121eea8-97b6-457c-968a-f2a0338a6b2d"},"vehicle_type_id":"4","last_reported":1758226311,"current_range_meters":24800,"station_id":"ce4bgih2rcd13ifvqba0","pricing_plan_id":"cebpf4jnsgd1na2vs0mg"},{"bike_id":"de21b68d-b3be-4965-b449-2b57940a1b60","system_id":"levelo_inurba_marseille","lat":43.30949,"lon":5.39032,"is_reserved":false,"is_disabled":false,"rental_uris":{"android":"levelo://app?vid=de21b68d-b3be-4965-b449-2b57940a1b60","ios":"levelo://app?vid=de21b68d-b3be-4965-b449-2b57940a1b60"},"vehicle_type_id":"4","last_reported":1758226311,"current_range_meters":24800,"station_id":"ce4bgup2rcd13ifvqco0","pricing_plan_id":"cebpf4jnsgd1na2vs0mg"},{"bike_id":"cfe6dec4-7099-43b3-9e41-3212cd5eeadd","system_id":"levelo_inurba_marseille","lat":43.29609,"lon":5.37723,"is_reserved":false,"is_disabled":true,"rental_uris":{"android":"levelo://app?vid=cfe6dec4-7099-43b3-9e41-3212cd5eeadd","ios":"levelo://app?vid=cfe6dec4-7099-43b3-9e41-3212cd5eeadd"},"vehicle_type_id":"4","last_reported":1758226311,"current_range_meters":24800,"station_id":"","pricing_plan_id":"cebpf4jnsgd1na2vs0mg"},{"bike_id":"932aaedf-dd17-4047-8c0a-8fa28c4ede96","system_id":"levelo_inurba_marseille","lat":43.33769,"lon":5.37491,"is_reserved":false,"is_disabled":false,"rental_uris":{"android":"levelo://app?vid=932aaedf-dd17-4047-8c0a-8fa28c4ede96","ios":"levelo://app?vid=932aaedf-dd17-4047-8c0a-8fa28c4ede96"},"vehicle_type_id":"4","last_reported":1758226311,"current_range_meters":24800,"station_id":"","pricing_plan_id":"cebpf4jnsgd1na2vs0mg"},{"bike_id":"d971a214-8b7e-4bd0-a2e3-ee441b8193d3","system_id":"levelo_inurba_marseille","lat":43.29295,"lon":5.37466,"is_reserved":false,"is_disabled":false,"rental_uris":{"android":"levelo://app?vid=d971a214-8b7e-4bd0-a2e3-ee441b8193d3","ios":"levelo://app?vid=d971a214-8b7e-4bd0-a2e3-ee441b8193d3"},"vehicle_type_id":"4","last_reported":1758226311,"current_range_meters":24800,"station_id":"ce4bgi12rcd13ifvqb70","pricing_plan_id":"cebpf4jnsgd1na2vs0mg"},{"bike_id":"7e685c95-69f2-40ef-adfd-0edbd0e27f57","system_id":"levelo_inurba_marseille","lat":43.29971,"lon":5.37178,"is_reserved":false,"is_disabled":false,"rental_uris":{"android":"levelo://app?vid=7e685c95-69f2-40ef-adfd-0edbd0e27f57","ios":"levelo://app?vid=7e685c95-69f2-40ef-adfd-0edbd0e27f57"},"vehicle_type_id":"4","last_reported":1758226311,"current_range_meters":24800,"station_id":"","pricing_plan_id":"cebpf4jnsgd1na2vs0mg"},{"bike_id":"94a9d6a0-78fd-4355-9108-515aafac4ea1","system_id":"levelo_inurba_marseille","lat":43.31357,"lon":5.36707,"is_reserved":false,"is_disabled":false,"rental_uris":{"android":"levelo://app?vid=94a9d6a0-78fd-4355-9108-515aafac4ea1","ios":"levelo://app?vid=94a9d6a0-78fd-4355-9108-515aafac4ea1"},"vehicle_type_id":"4","last_reported":1758226311,"current_range_meters":25600,"station_id":"ce4bgr92rcd13ifvqc6g","pricing_plan_id":"cebpf4jnsgd1na2vs0mg"},{"bike_id":"24657ddd-a232-4fe5-92e4-b1834dc6ce65","system_id":"levelo_inurba_marseille","lat":43.28697,"lon":5.3998,"is_reserved":false,"is_disabled":false,"rental_uris":{"android":"levelo://app?vid=24657ddd-a232-4fe5-92e4-b1834dc6ce65","ios":"levelo://app?vid=24657ddd-a232-4fe5-92e4-b1834dc6ce65"},"vehicle_type_id":"4","last_reported":1758226311,"current_range_meters":25200,"station_id":"ce4bho92rcd13ifvqh3g","pricing_plan_id":"cebpf4jnsgd1na2vs0mg"},{"bike_id":"d5dd4804-e76f-427d-b2db-3cea612d338f","system_id":"levelo_inurba_marseille","lat":43.27901,"lon":5.38017,"is_reserved":false,"is_disabled":false,"rental_uris":{"android":"levelo://app?vid=d5dd4804-e76f-427d-b2db-3cea612d338f","ios":"levelo://app?vid=d5dd4804-e76f-427d-b2db-3cea612d338f"},"vehicle_type_id":"4","last_reported":1758226311,"current_range_meters":25200,"station_id":"ce4bhf92rcd13ifvqf50","pricing_plan_id":"cebpf4jnsgd1na2vs0mg"},{"bike_id":"ce5eebfb-f89a-4680-92e0-9b0f8b1831a6","system_id":"levelo_inurba_marseille","lat":43.29617,"lon":5.3771,"is_reserved":false,"is_disabled":true,"rental_uris":{"android":"levelo://app?vid=ce5eebfb-f89a-4680-92e0-9b0f8b1831a6","ios":"levelo://app?vid=ce5eebfb-f89a-4680-92e0-9b0f8b1831a6"},"vehicle_type_id":"4","last_reported":1758226311,"current_range_meters":25200,"station_id":"","pricing_plan_id":"cebpf4jnsgd1na2vs0mg"},{"bike_id":"2d8a824e-97bb-47a1-b142-600af46ba213","system_id":"levelo_inurba_marseille","lat":43.24803,"lon":5.37453,"is_reserved":false,"is_disabled":false,"rental_uris":{"android":"levelo://app?vid=2d8a824e-97bb-47a1-b142-600af46ba213","ios":"levelo://app?vid=2d8a824e-97bb-47a1-b142-600af46ba213"},"vehicle_type_id":"4","last_reported":1758226311,"current_range_meters":25200,"station_id":"ce4bhgh2rcd13ifvqfb0","pricing_plan_id":"cebpf4jnsgd1na2vs0mg"},{"bike_id":"4266b374-d4bf-4fd2-bb94-51b2d7d40946","system_id":"levelo_inurba_marseille","lat":43.22562,"lon":5.41636,"is_reserved":false,"is_disabled":false,"rental_uris":{"android":"levelo://app?vid=4266b374-d4bf-4fd2-bb94-51b2d7d40946","ios":"levelo://app?vid=4266b374-d4bf-4fd2-bb94-51b2d7d40946"},"vehicle_type_id":"4","last_reported":1758226311,"current_range_meters":25200,"station_id":"st_d2o4gvlbi1j2169b742g","pricing_plan_id":"cebpf4jnsgd1na2vs0mg"},{"bike_id":"5ebdbe86-9bd9-4f97-a39b-82a77b050d9a","system_id":"levelo_inurba_marseille","lat":43.23189,"lon":5.39998,"is_reserved":false,"is_disabled":false,"rental_uris":{"android":"levelo://app?vid=5ebdbe86-9bd9-4f97-a39b-82a77b050d9a","ios":"levelo://app?vid=5ebdbe86-9bd9-4f97-a39b-82a77b050d9a"},"vehicle_type_id":"4","last_reported":1758226311,"current_range_meters":25200,"station_id":"ce4bhn12rcd13ifvqgqg","pricing_plan_id":"cebpf4jnsgd1na2vs0mg"},{"bike_id":"65201847-9cc5-4858-b783-32a87c66d952","system_id":"levelo_inurba_marseille","lat":43.28873,"lon":5.42532,"is_reserved":false,"is_disabled":false,"rental_uris":{"android":"levelo://app?vid=65201847-9cc5-4858-b783-32a87c66d952","ios":"levelo://app?vid=65201847-9cc5-4858-b783-32a87c66d952"},"vehicle_type_id":"4","last_reported":1758226311,"current_range_meters":25200,"station_id":"","pricing_plan_id":"cebpf4jnsgd1na2vs0mg"},{"bike_id":"1d0b5d60-568f-4170-98dc-84bbc30b1c4e","system_id":"levelo_inurba_marseille","lat":43.28359,"lon":5.43838,"is_reserved":false,"is_disabled":false,"rental_uris":{"android":"levelo://app?vid=1d0b5d60-568f-4170-98dc-84bbc30b1c4e","ios":"levelo://app?vid=1d0b5d60-568f-4170-98dc-84bbc30b1c4e"},"vehicle_type_id":"4","last_reported":1758226311,"current_range_meters":25200,"station_id":"","pricing_plan_id":"cebpf4jnsgd1na2vs0mg"},{"bike_id":"18dcb7e5-9c11-4191-9483-b66b1ce69919","system_id":"levelo_inurba_marseille","lat":43.30132,"lon":5.38795,"is_reserved":false,"is_disabled":false,"rental_uris":{"android":"levelo://app?vid=18dcb7e5-9c11-4191-9483-b66b1ce69919","ios":"levelo://app?vid=18dcb7e5-9c11-4191-9483-b66b1ce69919"},"vehicle_type_id":"4","last_reported":1758226311,"current_range_meters":25600,"station_id":"ce4bghh2rcd13ifvqb60","pricing_plan_id":"cebpf4jnsgd1na2vs0mg"},{"bike_id":"1d68f655-16d8-491c-96c0-f88a1444d0aa","system_id":"levelo_inurba_marseille","lat":43.29843,"lon":5.36267,"is_reserved":false,"is_disabled":false,"rental_uris":{"android":"levelo://app?vid=1d68f655-16d8-491c-96c0-f88a1444d0aa","ios":"levelo://app?vid=1d68f655-16d8-491c-96c0-f88a1444d0aa"},"vehicle_type_id":"4","last_reported":1758226311,"current_range_meters":25600,"station_id":"ce4bgpp2rcd13ifvqc3g","pricing_plan_id":"cebpf4jnsgd1na2vs0mg"},{"bike_id":"b709b1de-3955-4581-b798-9dc1df4d6a3f","system_id":"levelo_inurba_marseille","lat":43.28512,"lon":5.38485,"is_reserved":false,"is_disabled":true,"rental_uris":{"android":"levelo://app?vid=b709b1de-3955-4581-b798-9dc1df4d6a3f","ios":"levelo://app?vid=b709b1de-3955-4581-b798-9dc1df4d6a3f"},"vehicle_type_id":"4","last_reported":1758226311,"current_range_meters":25600,"station_id":"ce4bh512rcd13ifvqe3g","pricing_plan_id":"cebpf4jnsgd1na2vs0mg"},{"bike_id":"bd497fb2-693f-4b6f-a663-154962e56b83","system_id":"levelo_inurba_marseille","lat":43.30593,"lon":5.39359,"is_reserved":false,"is_disabled":false,"rental_uris":{"android":"levelo://app?vid=bd497fb2-693f-4b6f-a663-154962e56b83","ios":"levelo://app?vid=bd497fb2-693f-4b6f-a663-154962e56b83"},"vehicle_type_id":"4","last_reported":1758226311,"current_range_meters":25600,"station_id":"ce4bh0p2rcd13ifvqd80","pricing_plan_id":"cebpf4jnsgd1na2vs0mg"},{"bike_id":"b82633f6-d933-4b99-ace7-1ce7fca5d23e","system_id":"levelo_inurba_marseille","lat":43.24389,"lon":5.37062,"is_reserved":false,"is_disabled":false,"rental_uris":{"android":"levelo://app?vid=b82633f6-d933-4b99-ace7-1ce7fca5d23e","ios":"levelo://app?vid=b82633f6-d933-4b99-ace7-1ce7fca5d23e"},"vehicle_type_id":"4","last_reported":1758226311,"current_range_meters":25200,"station_id":"ce4bhhh2rcd13ifvqfk0","pricing_plan_id":"cebpf4jnsgd1na2vs0mg"},