{"last_updated":1741885600,"ttl":60,"version":"2.2","data":{"bikes":[{"bike_id":"6c7f7fc9-ecf0-4195-90c4-c20a77cebf78","system_id":"levelo_inurba_marseille","lat":43.30931,"lon":5.4015,"is_reserved":false,"is_disabled":false,"rental_uris":{"android":"levelo://app?vid=6c7f7fc9-ecf0-4195-90c4-c20a77cebf78","ios":"levelo://app?vid=6c7f7fc9-ecf0-4195-90c4-c20a77cebf78"},"vehicle_type_id":"4","last_reported":1741885600,"current_range_meters":2800,"station_id":"ce4bgvp2rcd13ifvqct0","pricing_plan_id":"cebpf4jnsgd1na2vs0mg"},{"bike_id":"207a05d3-9e97-4b84-a3a9-f87e1437994c","system_id":"levelo_inurba_marseille","lat":43.276257,"lon":5.361087,"is_reserved":false,"is_disabled":false,"rental_uris":{"android":"levelo://app?vid=207a05d3-9e97-4b84-a3a9-f87e1437994c","ios":"levelo://app?vid=207a05d3-9e97-4b84-a3a9-f87e1437994c"},"vehicle_type_id":"4","last_reported":1741885600,"current_range_meters":2800,"station_id":"ce4bgj92rcd13ifvqbe0","pricing_plan_id":"cebpf4jnsgd1na2vs0mg"},{"bike_id":"8a97ccd3-13dc-465b-8442-0cd8f5dfe94b","system_id":"levelo_inurba_marseille","lat":43.27328,"lon":5.39066,"is_reserved":false,"is_disabled":false,"rental_uris":{"android":"levelo://app?vid=8a97ccd3-13dc-465b-8442-0cd8f5dfe94b","ios":"levelo://app?vid=8a97ccd3-13dc-465b-8442-0cd8f5dfe94b"},"vehicle_type_id":"4","last_reported":1741885600,"current_range_meters":2800,"station_id":"ce4bhgp2rcd13ifvqfe0","pricing_plan_id":"cebpf4jnsgd1na2vs0mg"},{"bike_id":"7841b469-4b72-4c33-b3a3-44f7e1ad5970","system_id":"levelo_inurba_marseille","lat":43.29306,"lon":5.37474,"is_reserved":false,"is_disabled":false,"rental_uris":{"android":"levelo://app?vid=7841b469-4b72-4c33-b3a3-44f7e1ad5970","ios":"levelo://app?vid=7841b469-4b72-4c33-b3a3-44f7e1ad5970"},"vehicle_type_id":"4","last_reported":1741885600,"current_range_meters":2800,"station_id":"ce4bgi12rcd13ifvqb70","pricing_plan_id":"cebpf4jnsgd1na2vs0mg"},{"bike_id":"531135d0-fd5c-4525-857b-c3945db203d6","system_id":"levelo_inurba_marseille","lat":43.27426,"lon":5.39418,"is_reserved":false,"is_disabled":false,"rental_uris":{"android":"levelo://app?vid=531135d0-fd5c-4525-857b-c3945db203d6","ios":"levelo://app?vid=531135d0-fd5c-4525-857b-c3945db203d6"},"vehicle_type_id":"4","last_reported":1741885600,"current_range_meters":2800,"station_id":"ce4bhdp2rcd13ifvqf20","pricing_plan_id":"cebpf4jnsgd1na2vs0mg"},{"bike_id":"54d97014-89bb-4f6a-85e6-7fd97f8a0def","system_id":"levelo_inurba_marseille","lat":43.33014,"lon":5.39021,"is_reserved":false,"is_disabled":false,"rental_uris":{"android":"levelo://app?vid=54d97014-89bb-4f6a-85e6-7fd97f8a0def","ios":"levelo://app?vid=54d97014-89bb-4f6a-85e6-7fd97f8a0def"},"vehicle_type_id":"4","last_reported":1741885600,"current_range_meters":3200,"station_id":"ce4bhr92rcd13ifvqhrg","pricing_plan_id":"cebpf4jnsgd1na2vs0mg"},{"bike_id":"bfff1fda-1033-4991-8c8a-4e55bb35d580","system_id":"levelo_inurba_marseille","lat":43.3089,"lon":5.39644,"is_reserved":false,"is_disabled":false,"rental_uris":{"android":"levelo://app?vid=bfff1fda-1033-4991-8c8a-4e55bb35d580","ios":"levelo://app?vid=bfff1fda-1033-4991-8c8a-4e55bb35d580"},"vehicle_type_id":"4","last_reported":1741885600,"current_range_meters":3200,"station_id":"ce4bh012rcd13ifvqcv0","pricing_plan_id":"cebpf4jnsgd1na2vs0mg"},{"bike_id":"2983cd67-b878-442a-a5f1-edd993b911fa","system_id":"levelo_inurba_marseille","lat":43.265,"lon":5.39538,"is_reserved":false,"is_disabled":false,"rental_uris":{"android":"levelo://app?vid=2983cd67-b878-442a-a5f1-edd993b911fa","ios":"levelo://app?vid=2983cd67-b878-442a-a5f1-edd993b911fa"},"vehicle_type_id":"4","last_reported":1741885600,"current_range_meters":3200,"station_id":"ce4bhi12rcd13ifvqfq0","pricing_plan_id":"cebpf4jnsgd1na2vs0mg"},{"bike_id":"5f52682f-3d49-40a3-9b81-985aea71c6d4","system_id":"levelo_inurba_marseille","lat":43.32667,"lon":5.40992,"is_reserved":false,"is_disabled":false,"rental_uris":{"android":"levelo://app?vid=5f52682f-3d49-40a3-9b81-985aea71c6d4","ios":"levelo://app?vid=5f52682f-3d49-40a3-9b81-985aea71c6d4"},"vehicle_type_id":"4","last_reported":1741885600,"current_range_meters":3600,"station_id":"ce4bhpp2rcd13ifvqhgg","pricing_plan_id":"cebpf4jnsgd1na2vs0mg"},{"bike_id":"41dd9068-6faa-4d68-8a25-2539331ddf4b","system_id":"levelo_inurba_marseille","lat":43.28042,"lon":5.36946,"is_reserved":false,"is_disabled":false,"rental_uris":{"android":"levelo://app?vid=41dd9068-6faa-4d68-8a25-2539331ddf4b","ios":"levelo://app?vid=41dd9068-6faa-4d68-8a25-2539331ddf4b"},"vehicle_type_id":"4","last_reported":1741885600,"current_range_meters":3600,"station_id":"ce4bha12rcd13ifvqef0","pricing_plan_id":"cebpf4jnsgd1na2vs0mg"},{"bike_id":"a8e43b30-00bc-4c2f-9579-d05960cb337f","system_id":"levelo_inurba_marseille","lat":43.26557,"lon":5.39011,"is_reserved":false,"is_disabled":false,"rental_uris":{"android":"levelo://app?vid=a8e43b30-00bc-4c2f-9579-d05960cb337f","ios":"levelo://app?vid=a8e43b30-00bc-4c2f-9579-d05960cb337f"},"vehicle_type_id":"4","last_reported":1741885600,"current_range_meters":3600,"station_id":"ce4bhe12rcd13ifvqf30","pricing_plan_id":"cebpf4jnsgd1na2vs0mg"},{"bike_id":"a478d3b8-07d0-4e82-b604-3f8da310533b","system_id":"levelo_inurba_marseille","lat":43.29802,"lon":5.40403,"is_reserved":false,"is_disabled":false,"rental_uris":{"android":"levelo://app?vid=a478d3b8-07d0-4e82-b604-3f8da310533b","ios":"levelo://app?vid=a478d3b8-07d0-4e82-b604-3f8da310533b"},"vehicle_type_id":"4","last_reported":1741885600,"current_range_meters":3600,"station_id":"ce4bh112rcd13ifvqd90","pricing_plan_id":"cebpf4jnsgd1na2vs0mg"},{"bike_id":"6a2aebc8-555f-4cac-9b9d-413e1513cfdb","system_id":"levelo_inurba_marseille","lat":43.33031,"lon":5.3904,"is_reserved":false,"is_disabled":false,"rental_uris":{"android":"levelo://app?vid=6a2aebc8-555f-4cac-9b9d-413e1513cfdb","ios":"levelo://app?vid=6a2aebc8-555f-4cac-9b9d-413e1513cfdb"},"vehicle_type_id":"4","last_reported":1741885600,"current_range_meters":4000,"station_id":"ce4bhr92rcd13ifvqhrg","pricing_plan_id":"cebpf4jnsgd1na2vs0mg"},{"bike_id":"d506a175-d16b-417e-8a3a-f2241e0e262e","system_id":"levelo_inurba_marseille","lat":43.30933,"lon":5.37878,"is_reserved":false,"is_disabled":false,"rental_uris":{"android":"levelo://app?vid=d506a175-d16b-417e-8a3a-f2241e0e262e","ios":"levelo://app?vid=d506a175-d16b-417e-8a3a-f2241e0e262e"},"vehicle_type_id":"4","last_reported":1741885600,"current_range_meters":4000,"station_id":"","pricing_plan_id":"cebpf4jnsgd1na2vs0mg"},{"bike_id":"b7750009-6836-4f4d-8e60-d86893e18e14","system_id":"levelo_inurba_marseille","lat":43.31022,"lon":5.37116,"is_reserved":false,"is_disabled":false,"rental_uris":{"android":"levelo://app?vid=b7750009-6836-4f4d-8e60-d86893e18e14","ios":"levelo://app?vid=b7750009-6836-4f4d-8e60-d86893e18e14"},"vehicle_type_id":"4","last_reported":1741885600,"current_range_meters":4000,"station_id":"","pricing_plan_id":"cebpf4jnsgd1na2vs0mg"},{"bike_id":"29aa65e8-3bf3-4414-94f0-6f4ca9609e71","system_id":"levelo_inurba_marseille","lat":43.26209,"lon":5.37443,"is_reserved":false,"is_disabled":false,"rental_uris":{"android":"levelo://app?vid=29aa65e8-3bf3-4414-94f0-6f4ca9609e71","ios":"levelo://app?vid=29aa65e8-3bf3-4414-94f0-6f4ca9609e71"},"vehicle_type_id":"4","last_reported":1741885600,"current_range_meters":4000,"station_id":"ce4bhgp2rcd13ifvqfc0","pricing_plan_id":"cebpf4jnsgd1na2vs0mg"},{"bike_id":"7d1dbd7b-05b4-44d2-9581-d1970cd5cb4d","system_id":"levelo_inurba_marseille","lat":43.28931,"lon":5.38384,"is_reserved":false,"is_disabled":false,"rental_uris":{"android":"levelo://app?vid=7d1dbd7b-05b4-44d2-9581-d1970cd5cb4d","ios":"levelo://app?vid=7d1dbd7b-05b4-44d2-9581-d1970cd5cb4d"},"vehicle_type_id":"4","last_reported":1741885600,"current_range_meters":4000,"station_id":"ce4bh612rcd13ifvqe6g","pricing_plan_id":"cebpf4jnsgd1na2vs0mg"},{"bike_id":"553afbc5-82ea-4e89-85e3-0e4c5d01dcb9","system_id":"levelo_inurba_marseille","lat":43.285728,"lon":5.394987,"is_reserved":false,"is_disabled":false,"rental_uris":{"android":"levelo://app?vid=553afbc5-82ea-4e89-85e3-0e4c5d01dcb9","ios":"levelo://app?vid=553afbc5-82ea-4e89-85e3-0e4c5d01dcb9"},"vehicle_type_id":"4","last_reported":1741885600,"current_range_meters":4400,"station_id":"ce4bh292rcd13ifvqdg0","pricing_plan_id":"cebpf4jnsgd1na2vs0mg"},{"bike_id":"68c7b3a3-e387-4722-b248-d198aadb007c","system_id":"levelo_inurba_marseille","lat":43.28861,"lon":5.39302,"is_reserved":false,"is_disabled":false,"rental_uris":{"android":"levelo://app?vid=68c7b3a3-e387-4722-b248-d198aadb007c","ios":"levelo://app?vid=68c7b3a3-e387-4722-b248-d198aadb007c"},"vehicle_type_id":"4","last_reported":1741885600,"current_range_meters":4000,"station_id":"ce4bh2p2rcd13ifvqdi0","pricing_plan_id":"cebpf4jnsgd1na2vs0mg"},{"bike_id":"c0714613-6698-4407-90c2-e26baa4a0ac9","system_id":"levelo_inurba_marseille","lat":43.26033,"lon":5.3755,"is_reserved":false,"is_disabled":false,"rental_uris":{"android":"levelo://app?vid=c0714613-6698-4407-90c2-e26baa4a0ac9","ios":"levelo://app?vid=c0714613-6698-4407-90c2-e26baa4a0ac9"},"vehicle_type_id":"4","last_reported":1741885600,"current_range_meters":4400,"station_id":"ce4bhgh2rcd13ifvqfa0","pricing_plan_id":"cebpf4jnsgd1na2vs0mg"},{"bike_id":"0cb44c91-64af-4f62-ba96-b7c1ce22cf3e","system_id":"levelo_inurba_marseille","lat":43.27836,"lon":5.39213,"is_reserved":false,"is_disabled":false,"rental_uris":{"android":"levelo://app?vid=0cb44c91-64af-4f62-ba96-b7c1ce22cf3e","ios":"levelo://app?vid=0cb44c91-64af-4f62-ba96-b7c1ce22cf3e"},"vehicle_type_id":"4","last_reported":1741885600,"current_range_meters":4400,"station_id":"ce4bhjp2rcd13ifvqga0","pricing_plan_id":"cebpf4jnsgd1na2vs0mg"},{"bike_id":"c63fa639-6e54-4809-8f98-da7e1777cbb1","system_id":"levelo_inurba_marseille","lat":43.28922,"lon":5.38407,"is_reserved":false,"is_disabled":false,"rental_uris":{"android":"levelo://app?vid=c63fa639-6e54-4809-8f98-da7e1777cbb1","ios":"levelo://app?vid=c63fa639-6e54-4809-8f98-da7e1777cbb1"},"vehicle_type_id":"4","last_reported":1741885600,"current_range_meters":4400,"station_id":"ce4bh612rcd13ifvqe6g","pricing_plan_id":"cebpf4jnsgd1na2vs0mg"},{"bike_id":"387bf3ca-bc69-464a-a0f4-848a8d8f8508","system_id":"levelo_inurba_marseille","lat":43.27946,"lon":5.41038,"is_reserved":false,"is_disabled":false,"rental_uris":{"android":"levelo://app?vid=387bf3ca-bc69-464a-a0f4-848a8d8f8508","ios":"levelo://app?vid=387bf3ca-bc69-464a-a0f4-848a8d8f8508"},"vehicle_type_id":"4","last_reported":1741885600,"current_range_meters":4400,"station_id":"ce4bhnp2rcd13ifvqh0g","pricing_plan_id":"cebpf4jnsgd1na2vs0mg"},{"bike_id":"4034e321-75c3-4e36-810e-001c57f6656e","system_id":"levelo_inurba_marseille","lat":43.30939,"lon":5.40144,"is_reserved":false,"is_disabled":false,"rental_uris":{"android":"levelo://app?vid=4034e321-75c3-4e36-810e-001c57f6656e","ios":"levelo://app?vid=4034e321-75c3-4e36-810e-001c57f6656e"},"vehicle_type_id":"4","last_reported":1741885600,"current_range_meters":4400,"station_id":"ce4bgvp2rcd13ifvqct0","pricing_plan_id":"cebpf4jnsgd1na2vs0mg"},{"bike_id":"ede9cdcd-d1e4-4cc0-90bd-cfb7cc135dc4","system_id":"levelo_inurba_marseille","lat":43.24181,"lon":5.39722,"is_reserved":false,"is_disabled":true,"rental_uris":{"android":"levelo://app?vid=ede9cdcd-d1e4-4cc0-90bd-cfb7cc135dc4","ios":"levelo://app?vid=ede9cdcd-d1e4-4cc0-90bd-cfb7cc135dc4"},"vehicle_type_id":"4","last_reported":1741885600,"current_range_meters":4800,"station_id":"ce4bhn12rcd13ifvqgpg","pricing_plan_id":"cebpf4jnsgd1na2vs0mg"},{"bike_id":"14dd74dd-1c20-44ab-bcba-74fb50ca264a","system_id":"levelo_inurba_marseille","lat":43.270719,"lon":5.422823,"is_reserved":false,"is_disabled":false,"rental_uris":{"android":"levelo://app?vid=14dd74dd-1c20-44ab-bcba-74fb50ca264a","ios":"levelo://app?vid=14dd74dd-1c20-44ab-bcba-74fb50ca264a"},"vehicle_type_id":"4","last_reported":1741885600,"current_range_meters":4800,"station_id":"ce4bhk92rcd13ifvqgb0","pricing_plan_id":"cebpf4jnsgd1na2vs0mg"},{"bike_id":"faedb16e-4ec0-4a76-91ad-32466ad46da7","system_id":"levelo_inurba_marseille","lat":43.3361,"lon":5.41033,"is_reserved":false,"is_disabled":false,"rental_uris":{"android":"levelo://app?vid=faedb16e-4ec0-4a76-91ad-32466ad46da7","ios":"levelo://app?vid=faedb16e-4ec0-4a76-91ad-32466ad46da7"},"vehicle_type_id":"4","last_reported":1741885600,"current_range_meters":4800,"station_id":"ce4bhqh2rcd13ifvqhmg","pricing_plan_id":"cebpf4jnsgd1na2vs0mg"},{"bike_id":"84d3775c-9edb-42bf-967a-ed141b840499","system_id":"levelo_inurba_marseille","lat":43.26061,"lon":5.39395,"is_reserved":false,"is_disabled":false,"rental_uris":{"android":"levelo://app?vid=84d3775c-9edb-42bf-967a-ed141b840499","ios":"levelo://app?vid=84d3775c-9edb-42bf-967a-ed141b840499"},"vehicle_type_id":"4","last_reported":1741885600,"current_range_meters":4800,"station_id":"ce4bhh92rcd13ifvqfj0","pricing_plan_id":"cebpf4jnsgd1na2vs0mg"},{"bike_id":"c8f6bf1d-d7f0-4290-a2d9-7320a69f682f","system_id":"levelo_inurba_marseille","lat":43.24654,"lon":5.38898,"is_reserved":false,"is_disabled":false,"rental_uris":{"android":"levelo://app?vid=c8f6bf1d-d7f0-4290-a2d9-7320a69f682f","ios":"levelo://app?vid=c8f6bf1d-d7f0-4290-a2d9-7320a69f682f"},"vehicle_type_id":"4","last_reported":1741885600,"current_range_meters":4800,"station_id":"ce4bhg12rcd13ifvqf60","pricing_plan_id":"cebpf4jnsgd1na2vs0mg"},{"bike_id":"e65f842e-69b2-436a-a201-83a06add3a55","system_id":"levelo_inurba_marseille","lat":43.24999,"lon":5.38917,"is_reserved":false,"is_disabled":false,"rental_uris":{"android":"levelo://app?vid=e65f842e-69b2-436a-a201-83a06add3a55","ios":"levelo://app?vid=e65f842e-69b2-436a-a201-83a06add3a55"},"vehicle_type_id":"4","last_reported":1741885600,"current_range_meters":4800,"station_id":"ce4bhgp2rcd13ifvqfd0","pricing_plan_id":"cebpf4jnsgd1na2vs0mg"},{"bike_id":"21fef093-a9dd-474c-bd8d-4f81ea646a81","system_id":"levelo_inurba_marseille","lat":43.2648,"lon":5.39561,"is_reserved":false,"is_disabled":false,"rental_uris":{"android":"levelo://app?vid=21fef093-a9dd-474c-bd8d-4f81ea646a81","ios":"levelo://app?vid=21fef093-a9dd-474c-bd8d-4f81ea646a81"},"vehicle_type_id":"4","last_reported":1741885600,"current_range_meters":4800,"station_id":"ce4bhi12rcd13ifvqfq0","pricing_plan_id":"cebpf4jnsgd1na2vs0mg"},{"bike_id":"b80ebd50-b43f-4ec1-a973-49c92397db9e","system_id":"levelo_inurba_marseille","lat":43.29541,"lon":5.3855,"is_reserved":false,"is_disabled":false,"rental_uris":{"android":"levelo://app?vid=b80ebd50-b43f-4ec1-a973-49c92397db9e","ios":"levelo://app?vid=b80ebd50-b43f-4ec1-a973-49c92397db9e"},"vehicle_type_id":"4","last_reported":1741885600,"current_range_meters":5600,"station_id":"ce4bgih2rcd13ifvqba0","pricing_plan_id":"cebpf4jnsgd1na2vs0mg"},{"bike_id":"db15fbfd-f47d-4001-8e32-720d63f11405","system_id":"levelo_inurba_marseille","lat":43.33415,"lon":5.40047,"is_reserved":false,"is_disabled":false,"rental_uris":{"android":"levelo://app?vid=db15fbfd-f47d-4001-8e32-720d63f11405","ios":"levelo://app?vid=db15fbfd-f47d-4001-8e32-720d63f11405"},"vehicle_type_id":"4","last_reported":1741885600,"current_range_meters":5600,"station_id":"","pricing_plan_id":"cebpf4jnsgd1na2vs0mg"},{"bike_id":"61601006-cd22-41a2-8bdc-9f44a94b7bc0","system_id":"levelo_inurba_marseille","lat":43.27903,"lon":5.38332,"is_reserved":false,"is_disabled":false,"rental_uris":{"android":"levelo://app?vid=61601006-cd22-41a2-8bdc-9f44a94b7bc0","ios":"levelo://app?vid=61601006-cd22-41a2-8bdc-9f44a94b7bc0"},"vehicle_type_id":"4","last_reported":1741885600,"current_range_meters":5600,"station_id":"ce4bgjh2rcd13ifvqbf0","pricing_plan_id":"cebpf4jnsgd1na2vs0mg"},{"bike_id":"f1a31cd8-c95e-48bd-af70-71acc088ac1b","system_id":"levelo_inurba_marseille","lat":43.26232,"lon":5.40451,"is_reserved":false,"is_disabled":false,"rental_uris":{"android":"levelo://app?vid=f1a31cd8-c95e-48bd-af70-71acc088ac1b","ios":"levelo://app?vid=f1a31cd8-c95e-48bd-af70-71acc088ac1b"},"vehicle_type_id":"4","last_reported":1741885600,"current_range_meters":5600,"station_id":"ce4bhmh2rcd13ifvqgmg","pricing_plan_id":"cebpf4jnsgd1na2vs0mg"},{"bike_id":"2a69e639-a0be-4da5-b497-a75be2f56c13","system_id":"levelo_inurba_marseille","lat":43.25098,"lon":5.39523,"is_reserved":false,"is_disabled":false,"rental_uris":{"android":"levelo://app?vid=2a69e639-a0be-4da5-b497-a75be2f56c13","ios":"levelo://app?vid=2a69e639-a0be-4da5-b497-a75be2f56c13"},"vehicle_type_id":"4","last_reported":1741885600,"current_range_meters":5600,"station_id":"ce4bhm12rcd13ifvqgkg","pricing_plan_id":"cebpf4jnsgd1na2vs0mg"},{"bike_id":"95501c4c-4edf-4ed3-80ea-313fc59f274b","system_id":"levelo_inurba_marseille","lat":43.29019,"lon":5.38119,"is_reserved":false,"is_disabled":false,"rental_uris":{"android":"levelo://app?vid=95501c4c-4edf-4ed3-80ea-313fc59f274b","ios":"levelo://app?vid=95501c4c-4edf-4ed3-80ea-313fc59f274b"},"vehicle_type_id":"4","last_reported":1741885600,"current_range_meters":5600,"station_id":"ce4bh4p2rcd13ifvqe1g","pricing_plan_id":"cebpf4jnsgd1na2vs0mg"},{"bike_id":"f8cba5f0-b93d-45d4-a3cf-6083598e5114","system_id":"levelo_inurba_marseille","lat":43.31496,"lon":5.37304,"is_reserved":false,"is_disabled":false,"rental_uris":{"android":"levelo://app?vid=f8cba5f0-b93d-45d4-a3cf-6083598e5114","ios":"levelo://app?vid=f8cba5f0-b93d-45d4-a3cf-6083598e5114"},"vehicle_type_id":"4","last_reported":1741885600,"current_range_meters":6000,"station_id":"ce4bgt12rcd13ifvqcd0","pricing_plan_id":"cebpf4jnsgd1na2vs0mg"},{"bike_id":"1783b729-d1a4-418d-b81d-70805b22eb6d","system_id":"levelo_inurba_marseille","lat":43.28923,"lon":5.38407,"is_reserved":false,"is_disabled":false,"rental_uris":{"android":"levelo://app?vid=1783b729-d1a4-418d-b81d-70805b22eb6d","ios":"levelo://app?vid=1783b729-d1a4-418d-b81d-70805b22eb6d"},"vehicle_type_id":"4","last_reported":1741885600,"current_range_meters":6000,"station_id":"ce4bh612rcd13ifvqe6g","pricing_plan_id":"cebpf4jnsgd1na2vs0mg"},{"bike_id":"0e1454f0-c501-449b-b78c-ddfc8f4d9aab","system_id":"levelo_inurba_marseille","lat":43.33768,"lon":5.3749,"is_reserved":false,"is_disabled":false,"rental_uris":{"android":"levelo://app?vid=0e1454f0-c501-449b-b78c-ddfc8f4d9aab","ios":"levelo://app?vid=0e1454f0-c501-449b-b78c-ddfc8f4d9aab"},"vehicle_type_id":"4","last_reported":1741885600,"current_range_meters":6000,"station_id":"","pricing_plan_id":"cebpf4jnsgd1na2vs0mg"},{"bike_id":"63353306-e98e-470f-b463-355c65baf6ff","system_id":"levelo_inurba_marseille","lat":43.23187,"lon":5.39985,"is_reserved":false,"is_disabled":false,"rental_uris":{"android":"levelo://app?vid=63353306-e98e-470f-b463-355c65baf6ff","ios":"levelo://app?vid=63353306-e98e-470f-b463-355c65baf6ff"},"vehicle_type_id":"4","last_reported":1741885600,"current_range_meters":6000,"station_id":"ce4bhn12rcd13ifvqgqg","pricing_plan_id":"cebpf4jnsgd1na2vs0mg"},{"bike_id":"446890f7-2a07-4d45-9046-b6be4ca60810","system_id":"levelo_inurba_marseille","lat":43.27998,"lon":5.4001,"is_reserved":false,"is_disabled":false,"rental_uris":{"android":"levelo://app?vid=446890f7-2a07-4d45-9046-b6be4ca60810","ios":"levelo://app?vid=446890f7-2a07-4d45-9046-b6be4ca60810"},"vehicle_type_id":"4","last_reported":1741885600,"current_range_meters":8000,"station_id":"ce4bho92rcd13ifvqh4g","pricing_plan_id":"cebpf4jnsgd1na2vs0mg"},{"bike_id":"ca735057-8048-4568-898e-8a4f9d5f4eb0","system_id":"levelo_inurba_marseille","lat":43.26559,"lon":5.37284,"is_reserved":false,"is_disabled":false,"rental_uris":{"android":"levelo://app?vid=ca735057-8048-4568-898e-8a4f9d5f4eb0","ios":"levelo://app?vid=ca735057-8048-4568-898e-8a4f9d5f4eb0"},"vehicle_type_id":"4","last_reported":1741885600,"current_range_meters":6000,"station_id":"ce4bhg12rcd13ifvqf70","pricing_plan_id":"cebpf4jnsgd1na2vs0mg"},{"bike_id":"d2c1304d-c6de-4e19-a363-2c0c4bdd9fb1","system_id":"levelo_inurba_marseille","lat":43.24657,"lon":5.38894,"is_reserved":false,"is_disabled":false,"rental_uris":{"android":"levelo://app?vid=d2c1304d-c6de-4e19-a363-2c0c4bdd9fb1","ios":"levelo://app?vid=d2c1304d-c6de-4e19-a363-2c0c4bdd9fb1"},"vehicle_type_id":"4","last_reported":1741885600,"current_range_meters":6000,"station_id":"ce4bhg12rcd13ifvqf60","pricing_plan_id":"cebpf4jnsgd1na2vs0mg"},{"bike_id":"90303946-ee23-4548-a670-2c0474894303","system_id":"levelo_inurba_marseille","lat":43.26943,"lon":5.4025,"is_reserved":false,"is_disabled":false,"rental_uris":{"android":"levelo://app?vid=90303946-ee23-4548-a670-2c0474894303","ios":"levelo://app?vid=90303946-ee23-4548-a670-2c0474894303"},"vehicle_type_id":"4","last_reported":1741885600,"current_range_meters":6400,"station_id":"cjm6bp8fraef2m0cb0m0","pricing_plan_id":"cebpf4jnsgd1na2vs0mg"},{"bike_id":"616a435f-89dc-43cc-870e-cd4d9550de2e","system_id":"levelo_inurba_marseille","lat":43.31415,"lon":5.3763,"is_reserved":false,"is_disabled":false,"rental_uris":{"android":"levelo://app?vid=616a435f-89dc-43cc-870e-cd4d9550de2e","ios":"levelo://app?vid=616a435f-89dc-43cc-870e-cd4d9550de2e"},"vehicle_type_id":"4","last_reported":1741885600,"current_range_meters":6400,"station_id":"","pricing_plan_id":"cebpf4jnsgd1na2vs0mg"},{"bike_id":"23fc2ac3-a623-4f73-9a78-16db7b2989d0","system_id":"levelo_inurba_marseille","lat":43.28673,"lon":5.38666,"is_reserved":false,"is_disabled":false,"rental_uris":{"android":"levelo://app?vid=23fc2ac3-a623-4f73-9a78-16db7b2989d0","ios":"levelo://app?vid=23fc2ac3-a623-4f73-9a78-16db7b2989d0"},"vehicle_type_id":"4","last_reported":1741885600,"current_range_meters":6000,"station_id":"ce4bh492rcd13ifvqdug","pricing_plan_id":"cebpf4jnsgd1na2vs0mg"},{"bike_id":"3a6f4a08-7097-425e-ba9b-503eb294df3b","system_id":"levelo_inurba_marseille","lat":43.27809,"lon":5.4072,"is_reserved":false,"is_disabled":false,"rental_uris":{"android":"levelo://app?vid=3a6f4a08-7097-425e-ba9b-503eb294df3b","ios":"levelo://app?vid=3a6f4a08-7097-425e-ba9b-503eb294df3b"},"vehicle_type_id":"4","last_reported":1741885600,"current_range_meters":6400,"station_id":"ce4bhnh2rcd13ifvqgtg","pricing_plan_id":"cebpf4jnsgd1na2vs0mg"},{"bike_id":"cb567277-cc92-473f-ba27-13f9d7cbb613","system_id":"levelo_inurba_marseille","lat":43.25016,"lon":5.3892,"is_reserved":false,"is_disabled":false,"rental_uris":{"android":"levelo://app?vid=cb567277-cc92-473f-ba27-13f9d7cbb613","ios":"levelo://app?vid=cb567277-cc92-473f-ba27-13f9d7cbb613"},"vehicle_type_id":"4","last_reported":1741885600,"current_range_meters":6400,"station_id":"ce4bhgp2rcd13ifvqfd0","pricing_plan_id":"cebpf4jnsgd1na2vs0mg"},{"bike_id":"7d07957f-27c9-4e8f-a808-d55dd0845db8","system_id":"levelo_inurba_marseille","lat":43.2623,"lon":5.40449,"is_reserved":false,"is_disabled":false,"rental_uris":{"android":"levelo://app?vid=7d07957f-27c9-4e8f-a808-d55dd0845db8","ios":"levelo://app?vid=7d07957f-27c9-4e8f-a808-d55dd0845db8"},"vehicle_type_id":"4","last_reported":1741885600,"current_range_meters":6400,"station_id":"ce4bhmh2rcd13ifvqgmg","pricing_plan_id":"cebpf4jnsgd1na2vs0mg"},{"bike_id":"fd51b370-8f85-43c5-a038-38b8549d2317","system_id":"levelo_inurba_marseille","lat":43.30547,"lon":5.36527,"is_reserved":false,"is_disabled":false,"rental_uris":{"android":"levelo://app?vid=fd51b370-8f85-43c5-a038-38b8549d2317","ios":"levelo://app?vid=fd51b370-8f85-43c5-a038-38b8549d2317"},"vehicle_type_id":"4","last_reported":1741885600,"current_range_meters":6800,"station_id":"ce4bgs12rcd13ifvqcag","pricing_plan_id":"cebpf4jnsgd1na2vs0mg"},{"bike_id":"e872f5ef-8b73-4001-8ad4-057654930544","system_id":"levelo_inurba_marseille","lat":43.302369,"lon":5.400594,"is_reserved":false,"is_disabled":true,"rental_uris":{"android":"levelo://app?vid=e872f5ef-8b73-4001-8ad4-057654930544","ios":"levelo://app?vid=e872f5ef-8b73-4001-8ad4-057654930544"},"vehicle_type_id":"4","last_reported":1741885600,"current_range_meters":6800,"station_id":"ce4bgvh2rcd13ifvqcs0","pricing_plan_id":"cebpf4jnsgd1na2vs0mg"},{"bike_id":"05e8cc25-25f3-46ac-8f5f-38eae408bf93","system_id":"levelo_inurba_marseille","lat":43.31548,"lon":5.39617,"is_reserved":false,"is_disabled":false,"rental_uris":{"android":"levelo://app?vid=05e8cc25-25f3-46ac-8f5f-38eae408bf93","ios":"levelo://app?vid=05e8cc25-25f3-46ac-8f5f-38eae408bf93"},"vehicle_type_id":"4","last_reported":1741885600,"current_range_meters":6800,"station_id":"","pricing_plan_id":"cebpf4jnsgd1na2vs0mg"},{"bike_id":"f0efc869-18d0-46b5-8afc-a898b0476cbd","system_id":"levelo_inurba_marseille","lat":43.29009,"lon":5.35611,"is_reserved":false,"is_disabled":false,"rental_uris":{"android":"levelo://app?vid=f0efc869-18d0-46b5-8afc-a898b0476cbd","ios":"levelo://app?vid=f0efc869-18d0-46b5-8afc-a898b0476cbd"},"vehicle_type_id":"4","last_reported":1741885600,"current_range_meters":6800,"station_id":"ce4bhb92rcd13ifvqen0","pricing_plan_id":"cebpf4jnsgd1na2vs0mg"},{"bike_id":"32aebc3a-14c2-412a-9dd1-139c73270c7f","system_id":"levelo_inurba_marseille","lat":43.24996,"lon":5.38926,"is_reserved":false,"is_disabled":false,"rental_uris":{"android":"levelo://app?vid=32aebc3a-14c2-412a-9dd1-139c73270c7f","ios":"levelo://app?vid=32aebc3a-14c2-412a-9dd1-139c73270c7f"},"vehicle_type_id":"4","last_reported":1741885600,"current_range_meters":6800,"station_id":"ce4bhgp2rcd13ifvqfd0","pricing_plan_id":"cebpf4jnsgd1na2vs0mg"},{"bike_id":"57dd54e3-4a62-4d62-a03b-5320a176e579","system_id":"levelo_inurba_marseille","lat":43.24172,"lon":5.36389,"is_reserved":false,"is_disabled":false,"rental_uris":{"android":"levelo://app?vid=57dd54e3-4a62-4d62-a03b-5320a176e579","ios":"levelo://app?vid=57dd54e3-4a62-4d62-a03b-5320a176e579"},"vehicle_type_id":"4","last_reported":1741885600,"current_range_meters":6800,"station_id":"cpo36qri1sfpv3e86is0","pricing_plan_id":"cebpf4jnsgd1na2vs0mg"},{"bike_id":"2fe54254-5b11-4939-bb74-6fb31c1295ea","system_id":"levelo_inurba_marseille","lat":43.22934,"lon":5.35386,"is_reserved":false,"is_disabled":false,"rental_uris":{"android":"levelo://app?vid=2fe54254-5b11-4939-bb74-6fb31c1295ea","ios":"levelo://app?vid=2fe54254-5b11-4939-bb74-6fb31c1295ea"},"vehicle_type_id":"4","last_reported":1741885600,"current_range_meters":6800,"station_id":"cpo3532slgdg3j2ikp40","pricing_plan_id":"cebpf4jnsgd1na2vs0mg"},{"bike_id":"71d58b7f-1082-44b6-ae36-622f6323d2aa","system_id":"levelo_inurba_marseille","lat":43.25108,"lon":5.40322,"is_reserved":false,"is_disabled":false,"rental_uris":{"android":"levelo://app?vid=71d58b7f-1082-44b6-ae36-622f6323d2aa","ios":"levelo://app?vid=71d58b7f-1082-44b6-ae36-622f6323d2aa"},"vehicle_type_id":"4","last_reported":1741885600,"current_range_meters":6800,"station_id":"ce4bhlh2rcd13ifvqgig","pricing_plan_id":"cebpf4jnsgd1na2vs0mg"},{"bike_id":"8e17715f-c74e-43f6-ada7-f6c63b953dbf","system_id":"levelo_inurba_marseille","lat":43.31051,"lon":5.37533,"is_reserved":false,"is_disabled":false,"rental_uris":{"android":"levelo://app?vid=8e17715f-c74e-43f6-ada7-f6c63b953dbf","ios":"levelo://app?vid=8e17715f-c74e-43f6-ada7-f6c63b953dbf"},"vehicle_type_id":"4","last_reported":1741885600,"current_range_meters":6800,"station_id":"","pricing_plan_id":"cebpf4jnsgd1na2vs0mg"},{"bike_id":"99cd4659-bcc4-4174-a160-083ddf3d852d","system_id":"levelo_inurba_marseille","lat":43.27922,"lon":5.39588,"is_reserved":false,"is_disabled":false,"rental_uris":{"android":"levelo://app?vid=99cd4659-bcc4-4174-a160-083ddf3d852d","ios":"levelo://app?vid=99cd4659-bcc4-4174-a160-083ddf3d852d"},"vehicle_type_id":"4","last_reported":1741885600,"current_range_meters":6800,"station_id":"ce4bhf92rcd13ifvqf40","pricing_plan_id":"cebpf4jnsgd1na2vs0mg"},{"bike_id":"5882b45a-627c-4cac-8d0b-f11b67d713e2","system_id":"levelo_inurba_marseille","lat":43.292281,"lon":5.38375,"is_reserved":false,"is_disabled":false,"rental_uris":{"android":"levelo://app?vid=5882b45a-627c-4cac-8d0b-f11b67d713e2","ios":"levelo://app?vid=5882b45a-627c-4cac-8d0b-f11b67d713e2"},"vehicle_type_id":"4","last_reported":1741885600,"current_range_meters":7200,"station_id":"ce4bhm92rcd13ifvqglg","pricing_plan_id":"cebpf4jnsgd1na2vs0mg"},{"bike_id":"d5ae4600-476e-4c8a-b248-76c73ec9f040","system_id":"levelo_inurba_marseille","lat":43.25015,"lon":5.38915,"is_reserved":false,"is_disabled":false,"rental_uris":{"android":"levelo://app?vid=d5ae4600-476e-4c8a-b248-76c73ec9f040","ios":"levelo://app?vid=d5ae4600-476e-4c8a-b248-76c73ec9f040"},"vehicle_type_id":"4","last_reported":1741885600,"current_range_meters":7200,"station_id":"ce4bhgp2rcd13ifvqfd0","pricing_plan_id":"cebpf4jnsgd1na2vs0mg"},{"bike_id":"546ae917-5f5f-4a42-ab8f-6c80261dd553","system_id":"levelo_inurba_marseille","lat":43.30549,"lon":5.36538,"is_reserved":false,"is_disabled":false,"rental_uris":{"android":"levelo://app?vid=546ae917-5f5f-4a42-ab8f-6c80261dd553","ios":"levelo://app?vid=546ae917-5f5f-4a42-ab8f-6c80261dd553"},"vehicle_type_id":"4","last_reported":1741885600,"current_range_meters":7200,"station_id":"ce4bgs12rcd13ifvqcag","pricing_plan_id":"cebpf4jnsgd1na2vs0mg"},{"bike_id":"7f97dab3-6641-4c6a-9b12-3940cae11793","system_id":"levelo_inurba_marseille","lat":43.24995,"lon":5.38932,"is_reserved":false,"is_disabled":false,"rental_uris":{"android":"levelo://app?vid=7f97dab3-6641-4c6a-9b12-3940cae11793","ios":"levelo://app?vid=7f97dab3-6641-4c6a-9b12-3940cae11793"},"vehicle_type_id":"4","last_reported":1741885600,"current_range_meters":7200,"station_id":"ce4bhgp2rcd13ifvqfd0","pricing_plan_id":"cebpf4jnsgd1na2vs0mg"},{"bike_id":"84e4d6fb-67b7-462e-8674-ef7698ddc83a","system_id":"levelo_inurba_marseille","lat":43.31719,"lon":5.43705,"is_reserved":false,"is_disabled":false,"rental_uris":{"android":"levelo://app?vid=84e4d6fb-67b7-462e-8674-ef7698ddc83a","ios":"levelo://app?vid=84e4d6fb-67b7-462e-8674-ef7698ddc83a"},"vehicle_type_id":"4","last_reported":1741885600,"current_range_meters":7200,"station_id":"ce4bhp92rcd13ifvqhcg","pricing_plan_id":"cebpf4jnsgd1na2vs0mg"},{"bike_id":"30e5705a-18c8-44d7-a768-786355f0613b","system_id":"levelo_inurba_marseille","lat":43.29809,"lon":5.38114,"is_reserved":false,"is_disabled":false,"rental_uris":{"android":"levelo://app?vid=30e5705a-18c8-44d7-a768-786355f0613b","ios":"levelo://app?vid=30e5705a-18c8-44d7-a768-786355f0613b"},"vehicle_type_id":"4","last_reported":1741885600,"current_range_meters":7200,"station_id":"ce4bgip2rcd13ifvqbb0","pricing_plan_id":"cebpf4jnsgd1na2vs0mg"},{"bike_id":"15818832-22a2-4c03-b56c-fcfd42f5fb3f","system_id":"levelo_inurba_marseille","lat":43.25116,"lon":5.40327,"is_reserved":false,"is_disabled":false,"rental_uris":{"android":"levelo://app?vid=15818832-22a2-4c03-b56c-fcfd42f5fb3f","ios":"levelo://app?vid=15818832-22a2-4c03-b56c-fcfd42f5fb3f"},"vehicle_type_id":"4","last_reported":1741885600,"current_range_meters":7200,"station_id":"ce4bhlh2rcd13ifvqgig","pricing_plan_id":"cebpf4jnsgd1na2vs0mg"},{"bike_id":"a58be5fd-06aa-48cc-9bcb-75bee300ba4b","system_id":"levelo_inurba_marseille","lat":43.25088,"lon":5.39525,"is_reserved":false,"is_disabled":false,"rental_uris":{"android":"levelo://app?vid=a58be5fd-06aa-48cc-9bcb-75bee300ba4b","ios":"levelo://app?vid=a58be5fd-06aa-48cc-9bcb-75bee300ba4b"},"vehicle_type_id":"4","last_reported":1741885600,"current_range_meters":7200,"station_id":"","pricing_plan_id":"cebpf4jnsgd1na2vs0mg"},{"bike_id":"8ca720cf-8cc7-4201-a29c-e07b0ffda00a","system_id":"levelo_inurba_marseille","lat":43.23194,"lon":5.39993,"is_reserved":false,"is_disabled":false,"rental_uris":{"android":"levelo://app?vid=8ca720cf-8cc7-4201-a29c-e07b0ffda00a","ios":"levelo://app?vid=8ca720cf-8cc7-4201-a29c-e07b0ffda00a"},"vehicle_type_id":"4","last_reported":1741885600,"current_range_meters":7200,"station_id":"ce4bhn12rcd13ifvqgqg","pricing_plan_id":"cebpf4jnsgd1na2vs0mg"},{"bike_id":"78275fa9-eb24-4960-b5ff-4aa7e072060d","system_id":"levelo_inurba_marseille","lat":43.29076,"lon":5.40153,"is_reserved":false,"is_disabled":false,"rental_uris":{"android":"levelo://app?vid=78275fa9-eb24-4960-b5ff-4aa7e072060d","ios":"levelo://app?vid=78275fa9-eb24-4960-b5ff-4aa7e072060d"},"vehicle_type_id":"4","last_reported":1741885600,"current_range_meters":7200,"station_id":"ce4bh392rcd13ifvqdm0","pricing_plan_id":"cebpf4jnsgd1na2vs0mg"},{"bike_id":"28cd2e82-5ec9-4af4-82a6-0279e5cdf721","system_id":"levelo_inurba_marseille","lat":43.27828,"lon":5.40725,"is_reserved":false,"is_disabled":false,"rental_uris":{"android":"levelo://app?vid=28cd2e82-5ec9-4af4-82a6-0279e5cdf721","ios":"levelo://app?vid=28cd2e82-5ec9-4af4-82a6-0279e5cdf721"},"vehicle_type_id":"4","last_reported":1741885600,"current_range_meters":7200,"station_id":"ce4bhnh2rcd13ifvqgtg","pricing_plan_id":"cebpf4jnsgd1na2vs0mg"},{"bike_id":"81ac0329-83b7-4a31-b8d0-f379d17c3e01","system_id":"levelo_inurba_marseille","lat":43.32336,"lon":5.4062,"is_reserved":false,"is_disabled":false,"rental_uris":{"android":"levelo://app?vid=81ac0329-83b7-4a31-b8d0-f379d17c3e01","ios":"levelo://app?vid=81ac0329-83b7-4a31-b8d0-f379d17c3e01"},"vehicle_type_id":"4","last_reported":1741885600,"current_range_meters":8000,"station_id":"ce4bhq92rcd13ifvqhjg","pricing_plan_id":"cebpf4jnsgd1na2vs0mg"},{"bike_id":"16e8d8d1-cc2b-4839-b736-2d71055e8158","system_id":"levelo_inurba_marseille","lat":43.292867,"lon":5.401313,"is_reserved":false,"is_disabled":false,"rental_uris":{"android":"levelo://app?vid=16e8d8d1-cc2b-4839-b736-2d71055e8158","ios":"levelo://app?vid=16e8d8d1-cc2b-4839-b736-2d71055e8158"},"vehicle_type_id":"4","last_reported":1741885600,"current_range_meters":8000,"station_id":"ce4bh312rcd13ifvqdk0","pricing_plan_id":"cebpf4jnsgd1na2vs0mg"},{"bike_id":"a4acc583-7b24-4665-929d-fada161a91f7","system_id":"levelo_inurba_marseille","lat":43.2949,"lon":5.44433,"is_reserved":false,"is_disabled":false,"rental_uris":{"android":"levelo://app?vid=a4acc583-7b24-4665-929d-fada161a91f7","ios":"levelo://app?vid=a4acc583-7b24-4665-929d-fada161a91f7"},"vehicle_type_id":"4","last_reported":1741885600,"current_range_meters":8000,"station_id":"","pricing_plan_id":"cebpf4jnsgd1na2vs0mg"},{"bike_id":"d7cf3da4-03cf-4eae-b183-47670a6b872f","system_id":"levelo_inurba_marseille","lat":43.2319,"lon":5.35565,"is_reserved":false,"is_disabled":false,"rental_uris":{"android":"levelo://app?vid=d7cf3da4-03cf-4eae-b183-47670a6b872f","ios":"levelo://app?vid=d7cf3da4-03cf-4eae-b183-47670a6b872f"},"vehicle_type_id":"4","last_reported":1741885600,"current_range_meters":8000,"station_id":"ce4bhu92rcd13ifvqi70","pricing_plan_id":"cebpf4jnsgd1na2vs0mg"},{"bike_id":"85dc4942-368a-4a02-982a-065376362e91","system_id":"levelo_inurba_marseille","lat":43.29624,"lon":5.37164,"is_reserved":false,"is_disabled":false,"rental_uris":{"android":"levelo://app?vid=85dc4942-368a-4a02-982a-065376362e91","ios":"levelo://app?vid=85dc4942-368a-4a02-982a-065376362e91"},"vehicle_type_id":"4","last_reported":1741885600,"current_range_meters":8000,"station_id":"ce4bgnh2rcd13ifvqc0g","pricing_plan_id":"cebpf4jnsgd1na2vs0mg"},{"bike_id":"ccde3be1-4144-427e-acc2-fed605e4915f","system_id":"levelo_inurba_marseille","lat":43.28107,"lon":5.39851,"is_reserved":false,"is_disabled":false,"rental_uris":{"android":"levelo://app?vid=ccde3be1-4144-427e-acc2-fed605e4915f","ios":"levelo://app?vid=ccde3be1-4144-427e-acc2-fed605e4915f"},"vehicle_type_id":"4","last_reported":1741885600,"current_range_meters":8000,"station_id":"","pricing_plan_id":"cebpf4jnsgd1na2vs0mg"},{"bike_id":"b945d8d0-7f7e-44e7-a580-44ad2dfbe250","system_id":"levelo_inurba_marseille","lat":43.25953,"lon":5.40856,"is_reserved":false,"is_disabled":false,"rental_uris":{"android":"levelo://app?vid=b945d8d0-7f7e-44e7-a580-44ad2dfbe250","ios":"levelo://app?vid=b945d8d0-7f7e-44e7-a580-44ad2dfbe250"},"vehicle_type_id":"4","last_reported":1741885600,"current_range_meters":8000,"station_id":"ce4bhm92rcd13ifvqglg","pricing_plan_id":"cebpf4jnsgd1na2vs0mg"},{"bike_id":"9fe2764b-c474-4891-8f9d-fb4191b6da6a","system_id":"levelo_inurba_marseille","lat":43.2978,"lon":5.39331,"is_reserved":false,"is_disabled":false,"rental_uris":{"android":"levelo://app?vid=9fe2764b-c474-4891-8f9d-fb4191b6da6a","ios":"levelo://app?vid=9fe2764b-c474-4891-8f9d-fb4191b6da6a"},"vehicle_type_id":"4","last_reported":1741885600,"current_range_meters":8000,"station_id":"chh1huq6cuj3fo74tm60","pricing_plan_id":"cebpf4jnsgd1na2vs0mg"},{"bike_id":"931a65f6-98be-4189-b167-a49aeaf4dc43","system_id":"levelo_inurba_marseille","lat":43.25009,"lon":5.38917,"is_reserved":false,"is_disabled":false,"rental_uris":{"android":"levelo://app?vid=931a65f6-98be-4189-b167-a49aeaf4dc43","ios":"levelo://app?vid=931a65f6-98be-4189-b167-a49aeaf4dc43"},"vehicle_type_id":"4","last_reported":1741885600,"current_range_meters":8000,"station_id":"ce4bhgp2rcd13ifvqfd0","pricing_plan_id":"cebpf4jnsgd1na2vs0mg"},{"bike_id":"ac3a5de3-171d-4078-b19b-9f2b7c4d635e","system_id":"levelo_inurba_marseille","lat":43.29689,"lon":5.37296,"is_reserved":false,"is_disabled":false,"rental_uris":{"android":"levelo://app?vid=ac3a5de3-171d-4078-b19b-9f2b7c4d635e","ios":"levelo://app?vid=ac3a5de3-171d-4078-b19b-9f2b7c4d635e"},"vehicle_type_id":"4","last_reported":1741885600,"current_range_meters":8000,"station_id":"ce4bgk12rcd13ifvqbj0","pricing_plan_id":"cebpf4jnsgd1na2vs0mg"},{"bike_id":"3d03fd54-bed9-41a0-afdd-3d7ecbffb1f9","system_id":"levelo_inurba_marseille","lat":43.278066,"lon":5.390624,"is_reserved":false,"is_disabled":false,"rental_uris":{"android":"levelo://app?vid=3d03fd54-bed9-41a0-afdd-3d7ecbffb1f9","ios":"levelo://app?vid=3d03fd54-bed9-41a0-afdd-3d7ecbffb1f9"},"vehicle_type_id":"4","last_reported":1741885600,"current_range_meters":8400,"station_id":"ce4bhjp2rcd13ifvqga0","pricing_plan_id":"cebpf4jnsgd1na2vs0mg"},{"bike_id":"7be41836-4786-44ec-a1b7-9c1e06d2d8af","system_id":"levelo_inurba_marseille","lat":43.29275,"lon":5.38434,"is_reserved":false,"is_disabled":false,"rental_uris":{"android":"levelo://app?vid=7be41836-4786-44ec-a1b7-9c1e06d2d8af","ios":"levelo://app?vid=7be41836-4786-44ec-a1b7-9c1e06d2d8af"},"vehicle_type_id":"4","last_reported":1741885600,"current_range_meters":8400,"station_id":"ce4bh692rcd13ifvqea0","pricing_plan_id":"cebpf4jnsgd1na2vs0mg"},{"bike_id":"7ec554a8-f8d3-4fae-9406-ec9466cd0fd9","system_id":"levelo_inurba_marseille","lat":43.29277,"lon":5.368462,"is_reserved":false,"is_disabled":false,"rental_uris":{"android":"levelo://app?vid=7ec554a8-f8d3-4fae-9406-ec9466cd0fd9","ios":"levelo://app?vid=7ec554a8-f8d3-4fae-9406-ec9466cd0fd9"},"vehicle_type_id":"4","last_reported":1741885600,"current_range_meters":8400,"station_id":"ce4bgkh2rcd13ifvqbl0","pricing_plan_id":"cebpf4jnsgd1na2vs0mg"},{"bike_id":"8b6ce0eb-5657-47b5-8e19-7713320bb807","system_id":"levelo_inurba_marseille","lat":43.27916,"lon":5.39572,"is_reserved":false,"is_disabled":false,"rental_uris":{"android":"levelo://app?vid=8b6ce0eb-5657-47b5-8e19-7713320bb807","ios":"levelo://app?vid=8b6ce0eb-5657-47b5-8e19-7713320bb807"},"vehicle_type_id":"4","last_reported":1741885600,"current_range_meters":8400,"station_id":"ce4bhf92rcd13ifvqf40","pricing_plan_id":"cebpf4jnsgd1na2vs0mg"},{"bike_id":"677ee02c-9863-4589-be0a-85e1f696fba0","system_id":"levelo_inurba_marseille","lat":43.28855,"lon":5.39313,"is_reserved":false,"is_disabled":false,"rental_uris":{"android":"levelo://app?vid=677ee02c-9863-4589-be0a-85e1f696fba0","ios":"levelo://app?vid=677ee02c-9863-4589-be0a-85e1f696fba0"},"vehicle_type_id":"4","last_reported":1741885600,"current_range_meters":8400,"station_id":"ce4bh2p2rcd13ifvqdi0","pricing_plan_id":"cebpf4jnsgd1na2vs0mg"},{"bike_id":"894186b0-b6c5-4491-a532-5cc8e90e7744","system_id":"levelo_inurba_marseille","lat":43.29464,"lon":5.38661,"is_reserved":false,"is_disabled":false,"rental_uris":{"android":"levelo://app?vid=894186b0-b6c5-4491-a532-5cc8e90e7744","ios":"levelo://app?vid=894186b0-b6c5-4491-a532-5cc8e90e7744"},"vehicle_type_id":"4","last_reported":1741885600,"current_range_meters":8800,"station_id":"","pricing_plan_id":"cebpf4jnsgd1na2vs0mg"},{"bike_id":"f75bd2bd-76f0-4475-8642-8e86fef62842","system_id":"levelo_inurba_marseille","lat":43.29198,"lon":5.35802,"is_reserved":false,"is_disabled":false,"rental_uris":{"android":"levelo://app?vid=f75bd2bd-76f0-4475-8642-8e86fef62842","ios":"levelo://app?vid=f75bd2bd-76f0-4475-8642-8e86fef62842"},"vehicle_type_id":"4","last_reported":1741885600,"current_range_meters":8800,"station_id":"ce4bhb12rcd13ifvqel0","pricing_plan_id":"cebpf4jnsgd1na2vs0mg"},{"bike_id":"7bce46da-d524-436c-be2e-dd9fddaa8dc7","system_id":"levelo_inurba_marseille","lat":43.3029,"lon":5.36875,"is_reserved":false,"is_disabled":false,"rental_uris":{"android":"levelo://app?vid=7bce46da-d524-436c-be2e-dd9fddaa8dc7","ios":"levelo://app?vid=7bce46da-d524-436c-be2e-dd9fddaa8dc7"},"vehicle_type_id":"4","last_reported":1741885600,"current_range_meters":8800,"station_id":"ce4bgqh2rcd13ifvqc5g","pricing_plan_id":"cebpf4jnsgd1na2vs0mg"},{"bike_id":"fe2dbfad-2b3c-45be-b26a-7ab6c0dcbc97","system_id":"levelo_inurba_marseille","lat":43.30154,"lon":5.37685,"is_reserved":false,"is_disabled":false,"rental_uris":{"android":"levelo://app?vid=fe2dbfad-2b3c-45be-b26a-7ab6c0dcbc97","ios":"levelo://app?vid=fe2dbfad-2b3c-45be-b26a-7ab6c0dcbc97"},"vehicle_type_id":"4","last_reported":1741885600,"current_range_meters":8800,"station_id":"","pricing_plan_id":"cebpf4jnsgd1na2vs0mg"},{"bike_id":"b3fead73-4c4c-401e-81a0-a7fad437c748","system_id":"levelo_inurba_marseille","lat":43.250062,"lon":5.389176,"is_reserved":false,"is_disabled":false,"rental_uris":{"android":"levelo://app?vid=b3fead73-4c4c-401e-81a0-a7fad437c748","ios":"levelo://app?vid=b3fead73-4c4c-401e-81a0-a7fad437c748"},"vehicle_type_id":"4","last_reported":1741885600,"current_range_meters":8800,"station_id":"ce4bhgp2rcd13ifvqfd0","pricing_plan_id":"cebpf4jnsgd1na2vs0mg"},{"bike_id":"9da95b0a-b85b-4ed5-be1e-41099f9e7476","system_id":"levelo_inurba_marseille","lat":43.29019,"lon":5.378108,"is_reserved":false,"is_disabled":false,"rental_uris":{"android":"levelo://app?vid=9da95b0a-b85b-4ed5-be1e-41099f9e7476","ios":"levelo://app?vid=9da95b0a-b85b-4ed5-be1e-41099f9e7476"},"vehicle_type_id":"4","last_reported":1741885600,"current_range_meters":8800,"station_id":"ce4bh9p2rcd13ifvqed0","pricing_plan_id":"cebpf4jnsgd1na2vs0mg"},{"bike_id":"78000182-f269-4eb8-bdd7-1383650bd068","system_id":"levelo_inurba_marseille","lat":43.29091,"lon":5.3814,"is_reserved":false,"is_disabled":false,"rental_uris":{"android":"levelo://app?vid=78000182-f269-4eb8-bdd7-1383650bd068","ios":"levelo://app?vid=78000182-f269-4eb8-bdd7-1383650bd068"},"vehicle_type_id":"4","last_reported":1741885600,"current_range_meters":9200,"station_id":"ce4bh512rcd13ifvqe2g","pricing_plan_id":"cebpf4jnsgd1na2vs0mg"},{"bike_id":"d6520c44-f79f-493c-b3e3-4d2752607ebe","system_id":"levelo_inurba_marseille","lat":43.26809,"lon":5.4027,"is_reserved":false,"is_disabled":false,"rental_uris":{"android":"levelo://app?vid=d6520c44-f79f-493c-b3e3-4d2752607ebe","ios":"levelo://app?vid=d6520c44-f79f-493c-b3e3-4d2752607ebe"},"vehicle_type_id":"4","last_reported":1741885600,"current_range_meters":9200,"station_id":"ce501612rcd8frsf0b60","pricing_plan_id":"cebpf4jnsgd1na2vs0mg"},{"bike_id":"b6d8ba2a-aca4-4c1c-a0ae-1b9b91f76e1f","system_id":"levelo_inurba_marseille","lat":43.26591,"lon":5.37297,"is_reserved":false,"is_disabled":false,"rental_uris":{"android":"levelo://app?vid=b6d8ba2a-aca4-4c1c-a0ae-1b9b91f76e1f","ios":"levelo://app?vid=b6d8ba2a-aca4-4c1c-a0ae-1b9b91f76e1f"},"vehicle_type_id":"4","last_reported":1741885600,"current_range_meters":9200,"station_id":"ce4bhg12rcd13ifvqf70","pricing_plan_id":"cebpf4jnsgd1na2vs0mg"},{"bike_id":"aa308cfd-9139-4403-a420-046cc461e3cc","system_id":"levelo_inurba_marseille","lat":43.29917,"lon":5.36523,"is_reserved":false,"is_disabled":false,"rental_uris":{"android":"levelo://app?vid=aa308cfd-9139-4403-a420-046cc461e3cc","ios":"levelo://app?vid=aa308cfd-9139-4403-a420-046cc461e3cc"},"vehicle_type_id":"4","last_reported":1741885600,"current_range_meters":9200,"station_id":"ce4bgm92rcd13ifvqbr0","pricing_plan_id":"cebpf4jnsgd1na2vs0mg"},{"bike_id":"39df283f-35a5-4c44-9f0d-6dd6923a19a4","system_id":"levelo_inurba_marseille","lat":43.3211,"lon":5.36766,"is_reserved":false,"is_disabled":false,"rental_uris":{"android":"levelo://app?vid=39df283f-35a5-4c44-9f0d-6dd6923a19a4","ios":"levelo://app?vid=39df283f-35a5-4c44-9f0d-6dd6923a19a4"},"vehicle_type_id":"4","last_reported":1741885600,"current_range_meters":9200,"station_id":"ce4bhrh2rcd13ifvqhug","pricing_plan_id":"cebpf4jnsgd1na2vs0mg"},{"bike_id":"57cdd79b-641e-4fec-8550-099042d1aa17","system_id":"levelo_inurba_marseille","lat":43.31693,"lon":5.4047,"is_reserved":false,"is_disabled":false,"rental_uris":{"android":"levelo://app?vid=57cdd79b-641e-4fec-8550-099042d1aa17","ios":"levelo://app?vid=57cdd79b-641e-4fec-8550-099042d1aa17"},"vehicle_type_id":"4","last_reported":1741885600,"current_range_meters":9600,"station_id":"ce4bh012rcd13ifvqd00","pricing_plan_id":"cebpf4jnsgd1na2vs0mg"},{"bike_id":"3f4746d1-cff7-415a-83b7-1b028f8c0fb1","system_id":"levelo_inurba_marseille","lat":43.31491,"lon":5.37284,"is_reserved":false,"is_disabled":false,"rental_uris":{"android":"levelo://app?vid=3f4746d1-cff7-415a-83b7-1b028f8c0fb1","ios":"levelo://app?vid=3f4746d1-cff7-415a-83b7-1b028f8c0fb1"},"vehicle_type_id":"4","last_reported":1741885600,"current_range_meters":9600,"station_id":"ce4bgt12rcd13ifvqcd0","pricing_plan_id":"cebpf4jnsgd1na2vs0mg"},{"bike_id":"36ebfc17-b6ab-4767-a5e0-c94c11aba8a2","system_id":"levelo_inurba_marseille","lat":43.32369,"lon":5.38892,"is_reserved":false,"is_disabled":false,"rental_uris":{"android":"levelo://app?vid=36ebfc17-b6ab-4767-a5e0-c94c11aba8a2","ios":"levelo://app?vid=36ebfc17-b6ab-4767-a5e0-c94c11aba8a2"},"vehicle_type_id":"4","last_reported":1741885600,"current_range_meters":9600,"station_id":"ce4bhqp2rcd13ifvqhog","pricing_plan_id":"cebpf4jnsgd1na2vs0mg"},{"bike_id":"1cbeb49c-8d51-46f2-ad03-8af78ea79d9a","system_id":"levelo_inurba_marseille","lat":43.24173,"lon":5.39699,"is_reserved":false,"is_disabled":false,"rental_uris":{"android":"levelo://app?vid=1cbeb49c-8d51-46f2-ad03-8af78ea79d9a","ios":"levelo://app?vid=1cbeb49c-8d51-46f2-ad03-8af78ea79d9a"},"vehicle_type_id":"4","last_reported":1741885600,"current_range_meters":9600,"station_id":"ce4bhn12rcd13ifvqgpg","pricing_plan_id":"cebpf4jnsgd1na2vs0mg"},{"bike_id":"d0be61ee-8c6c-4bf7-99b6-f099a281a656","system_id":"levelo_inurba_marseille","lat":43.25022,"lon":5.38925,"is_reserved":false,"is_disabled":false,"rental_uris":{"android":"levelo://app?vid=d0be61ee-8c6c-4bf7-99b6-f099a281a656","ios":"levelo://app?vid=d0be61ee-8c6c-4bf7-99b6-f099a281a656"},"vehicle_type_id":"4","last_reported":1741885600,"current_range_meters":9600,"station_id":"ce4bhgp2rcd13ifvqfd0","pricing_plan_id":"cebpf4jnsgd1na2vs0mg"},{"bike_id":"ebf3efe3-fd16-4aca-960b-e888b29cb724","system_id":"levelo_inurba_marseille","lat":43.29716,"lon":5.36776,"is_reserved":false,"is_disabled":false,"rental_uris":{"android":"levelo://app?vid=ebf3efe3-fd16-4aca-960b-e888b29cb724","ios":"levelo://app?vid=ebf3efe3-fd16-4aca-960b-e888b29cb724"},"vehicle_type_id":"4","last_reported":1741885600,"current_range_meters":9600,"station_id":"","pricing_plan_id":"cebpf4jnsgd1na2vs0mg"},{"bike_id":"99164205-252c-4988-8c84-f4faff65cafa","system_id":"levelo_inurba_marseille","lat":43.29571,"lon":5.37521,"is_reserved":false,"is_disabled":false,"rental_uris":{"android":"levelo://app?vid=99164205-252c-4988-8c84-f4faff65cafa","ios":"levelo://app?vid=99164205-252c-4988-8c84-f4faff65cafa"},"vehicle_type_id":"4","last_reported":1741885600,"current_range_meters":10000,"station_id":"ce4bgh92rcd13ifvqb50","pricing_plan_id":"cebpf4jnsgd1na2vs0mg"},{"bike_id":"5a0002da-b687-4872-932d-20fcc86b0c9d","system_id":"levelo_inurba_marseille","lat":43.25002,"lon":5.38912,"is_reserved":false,"is_disabled":false,"rental_uris":{"android":"levelo://app?vid=5a0002da-b687-4872-932d-20fcc86b0c9d","ios":"levelo://app?vid=5a0002da-b687-4872-932d-20fcc86b0c9d"},"vehicle_type_id":"4","last_reported":1741885600,"current_range_meters":10000,"station_id":"ce4bhgp2rcd13ifvqfd0","pricing_plan_id":"cebpf4jnsgd1na2vs0mg"},{"bike_id":"aea058ef-3471-489c-aafb-84b73c7364e4","system_id":"levelo_inurba_marseille","lat":43.29042,"lon":5.35922,"is_reserved":false,"is_disabled":false,"rental_uris":{"android":"levelo://app?vid=aea058ef-3471-489c-aafb-84b73c7364e4","ios":"levelo://app?vid=aea058ef-3471-489c-aafb-84b73c7364e4"},"vehicle_type_id":"4","last_reported":1741885600,"current_range_meters":10000,"station_id":"ce4bha92rcd13ifvqeg0","pricing_plan_id":"cebpf4jnsgd1na2vs0mg"},{"bike_id":"d041a7b5-732c-474f-b556-c0142a8f7b8d","system_id":"levelo_inurba_marseille","lat":43.31254,"lon":5.36867,"is_reserved":false,"is_disabled":false,"rental_uris":{"android":"levelo://app?vid=d041a7b5-732c-474f-b556-c0142a8f7b8d","ios":"levelo://app?vid=d041a7b5-732c-474f-b556-c0142a8f7b8d"},"vehicle_type_id":"4","last_reported":1741885600,"current_range_meters":10000,"station_id":"ce4bgl92rcd13ifvqbq0","pricing_plan_id":"cebpf4jnsgd1na2vs0mg"},{"bike_id":"57e316d0-1677-48fa-9fe5-ac07d61dd29a","system_id":"levelo_inurba_marseille","lat":43.30955,"lon":5.3904,"is_reserved":false,"is_disabled":false,"rental_uris":{"android":"levelo://app?vid=57e316d0-1677-48fa-9fe5-ac07d61dd29a","ios":"levelo://app?vid=57e316d0-1677-48fa-9fe5-ac07d61dd29a"},"vehicle_type_id":"4","last_reported":1741885600,"current_range_meters":10000,"station_id":"ce4bgup2rcd13ifvqco0","pricing_plan_id":"cebpf4jnsgd1na2vs0mg"},{"bike_id":"76a1a065-7414-4909-8e1f-d9664a62f90e","system_id":"levelo_inurba_marseille","lat":43.28024,"lon":5.36941,"is_reserved":false,"is_disabled":false,"rental_uris":{"android":"levelo://app?vid=76a1a065-7414-4909-8e1f-d9664a62f90e","ios":"levelo://app?vid=76a1a065-7414-4909-8e1f-d9664a62f90e"},"vehicle_type_id":"4","last_reported":1741885600,"current_range_meters":10000,"station_id":"ce4bha12rcd13ifvqef0","pricing_plan_id":"cebpf4jnsgd1na2vs0mg"},{"bike_id":"1179ea35-4831-4438-984a-d67269a5255b","system_id":"levelo_inurba_marseille","lat":43.23195,"lon":5.3556,"is_reserved":false,"is_disabled":false,"rental_uris":{"android":"levelo://app?vid=1179ea35-4831-4438-984a-d67269a5255b","ios":"levelo://app?vid=1179ea35-4831-4438-984a-d67269a5255b"},"vehicle_type_id":"4","last_reported":1741885600,"current_range_meters":10000,"station_id":"ce4bhu92rcd13ifvqi70","pricing_plan_id":"cebpf4jnsgd1na2vs0mg"},{"bike_id":"154d0f4a-7cf1-4b4a-8919-807104d462e1","system_id":"levelo_inurba_marseille","lat":43.266626,"lon":5.386156,"is_reserved":false,"is_disabled":false,"rental_uris":{"android":"levelo://app?vid=154d0f4a-7cf1-4b4a-8919-807104d462e1","ios":"levelo://app?vid=154d0f4a-7cf1-4b4a-8919-807104d462e1"},"vehicle_type_id":"4","last_reported":1741885600,"current_range_meters":10000,"station_id":"","pricing_plan_id":"cebpf4jnsgd1na2vs0mg"},{"bike_id":"6307ec30-142e-4380-a1b4-79305fa6f44a","system_id":"levelo_inurba_marseille","lat":43.25727,"lon":5.41091,"is_reserved":false,"is_disabled":true,"rental_uris":{"android":"levelo://app?vid=6307ec30-142e-4380-a1b4-79305fa6f44a","ios":"levelo://app?vid=6307ec30-142e-4380-a1b4-79305fa6f44a"},"vehicle_type_id":"4","last_reported":1741885600,"current_range_meters":10000,"station_id":"ce4bhkp2rcd13ifvqgd0","pricing_plan_id":"cebpf4jnsgd1na2vs0mg"},{"bike_id":"9ddf1db6-c2d9-4df0-b2b1-160dc5dee6cb","system_id":"levelo_inurba_marseille","lat":43.31362,"lon":5.38495,"is_reserved":false,"is_disabled":false,"rental_uris":{"android":"levelo://app?vid=9ddf1db6-c2d9-4df0-b2b1-160dc5dee6cb","ios":"levelo://app?vid=9ddf1db6-c2d9-4df0-b2b1-160dc5dee6cb"},"vehicle_type_id":"4","last_reported":1741885600,"current_range_meters":10000,"station_id":"ce4bgt92rcd13ifvqcf0","pricing_plan_id":"cebpf4jnsgd1na2vs0mg"},{"bike_id":"15ebe0a1-96e5-4b67-b30b-098906d8d8eb","system_id":"levelo_inurba_marseille","lat":43.328796,"lon":5.399883,"is_reserved":false,"is_disabled":false,"rental_uris":{"android":"levelo://app?vid=15ebe0a1-96e5-4b67-b30b-098906d8d8eb","ios":"levelo://app?vid=15ebe0a1-96e5-4b67-b30b-098906d8d8eb"},"vehicle_type_id":"4","last_reported":1741885600,"current_range_meters":10000,"station_id":"ce4bhqp2rcd13ifvqhng","pricing_plan_id":"cebpf4jnsgd1na2vs0mg"},{"bike_id":"965125e4-007e-49f4-8e1c-3f859e7a40a1","system_id":"levelo_inurba_marseille","lat":43.31329,"lon":5.39715,"is_reserved":false,"is_disabled":false,"rental_uris":{"android":"levelo://app?vid=965125e4-007e-49f4-8e1c-3f859e7a40a1","ios":"levelo://app?vid=965125e4-007e-49f4-8e1c-3f859e7a40a1"},"vehicle_type_id":"4","last_reported":1741885600,"current_range_meters":10000,"station_id":"ce4bgvp2rcd13ifvqcu0","pricing_plan_id":"cebpf4jnsgd1na2vs0mg"},{"bike_id":"db1d9945-452a-48d1-a218-9d250e8fb884","system_id":"levelo_inurba_marseille","lat":43.31324,"lon":5.39718,"is_reserved":false,"is_disabled":false,"rental_uris":{"android":"levelo://app?vid=db1d9945-452a-48d1-a218-9d250e8fb884","ios":"levelo://app?vid=db1d9945-452a-48d1-a218-9d250e8fb884"},"vehicle_type_id":"4","last_reported":1741885600,"current_range_meters":10000,"station_id":"ce4bgvp2rcd13ifvqcu0","pricing_plan_id":"cebpf4jnsgd1na2vs0mg"},{"bike_id":"d0f37a2d-5920-4a00-ab9e-56f97581bf07","system_id":"levelo_inurba_marseille","lat":43.264854,"lon":5.395398,"is_reserved":false,"is_disabled":false,"rental_uris":{"android":"levelo://app?vid=d0f37a2d-5920-4a00-ab9e-56f97581bf07","ios":"levelo://app?vid=d0f37a2d-5920-4a00-ab9e-56f97581bf07"},"vehicle_type_id":"4","last_reported":1741885600,"current_range_meters":10800,"station_id":"ce4bhnh2rcd13ifvqgtg","pricing_plan_id":"cebpf4jnsgd1na2vs0mg"},{"bike_id":"11f017d6-9c9c-4926-be45-b8a00fad3399","system_id":"levelo_inurba_marseille","lat":43.24655,"lon":5.38895,"is_reserved":false,"is_disabled":false,"rental_uris":{"android":"levelo://app?vid=11f017d6-9c9c-4926-be45-b8a00fad3399","ios":"levelo://app?vid=11f017d6-9c9c-4926-be45-b8a00fad3399"},"vehicle_type_id":"4","last_reported":1741885600,"current_range_meters":10800,"station_id":"ce4bhg12rcd13ifvqf60","pricing_plan_id":"cebpf4jnsgd1na2vs0mg"},{"bike_id":"b353335d-4981-4ab5-aa89-83328d0432c8","system_id":"levelo_inurba_marseille","lat":43.30357,"lon":5.41876,"is_reserved":false,"is_disabled":false,"rental_uris":{"android":"levelo://app?vid=b353335d-4981-4ab5-aa89-83328d0432c8","ios":"levelo://app?vid=b353335d-4981-4ab5-aa89-83328d0432c8"},"vehicle_type_id":"4","last_reported":1741885600,"current_range_meters":10800,"station_id":"ce4bhop2rcd13ifvqh7g","pricing_plan_id":"cebpf4jnsgd1na2vs0mg"},{"bike_id":"eb24c2a2-a62a-48d8-bdde-1c20d94cb744","system_id":"levelo_inurba_marseille","lat":43.30784,"lon":5.37641,"is_reserved":false,"is_disabled":false,"rental_uris":{"android":"levelo://app?vid=eb24c2a2-a62a-48d8-bdde-1c20d94cb744","ios":"levelo://app?vid=eb24c2a2-a62a-48d8-bdde-1c20d94cb744"},"vehicle_type_id":"4","last_reported":1741885600,"current_range_meters":10800,"station_id":"ce4bgv92rcd13ifvqcq0","pricing_plan_id":"cebpf4jnsgd1na2vs0mg"},{"bike_id":"8f486c92-d4f5-42d9-88ad-8ec8658c8e93","system_id":"levelo_inurba_marseille","lat":43.29018,"lon":5.35919,"is_reserved":false,"is_disabled":false,"rental_uris":{"android":"levelo://app?vid=8f486c92-d4f5-42d9-88ad-8ec8658c8e93","ios":"levelo://app?vid=8f486c92-d4f5-42d9-88ad-8ec8658c8e93"},"vehicle_type_id":"4","last_reported":1741885600,"current_range_meters":10800,"station_id":"ce4bha92rcd13ifvqeg0","pricing_plan_id":"cebpf4jnsgd1na2vs0mg"},{"bike_id":"037a63ce-2755-41ed-8312-f3572cf661ac","system_id":"levelo_inurba_marseille","lat":43.33026,"lon":5.3904,"is_reserved":false,"is_disabled":false,"rental_uris":{"android":"levelo://app?vid=037a63ce-2755-41ed-8312-f3572cf661ac","ios":"levelo://app?vid=037a63ce-2755-41ed-8312-f3572cf661ac"},"vehicle_type_id":"4","last_reported":1741885600,"current_range_meters":10800,"station_id":"ce4bhr92rcd13ifvqhrg","pricing_plan_id":"cebpf4jnsgd1na2vs0mg"},{"bike_id":"5233e443-1736-449b-bfef-634509c8ee4b","system_id":"levelo_inurba_marseille","lat":43.29488,"lon":5.386433,"is_reserved":false,"is_disabled":false,"rental_uris":{"android":"levelo://app?vid=5233e443-1736-449b-bfef-634509c8ee4b","ios":"levelo://app?vid=5233e443-1736-449b-bfef-634509c8ee4b"},"vehicle_type_id":"4","last_reported":1741885600,"current_range_meters":10800,"station_id":"","pricing_plan_id":"cebpf4jnsgd1na2vs0mg"},{"bike_id":"c897d20f-2eb0-48cc-a743-482c441362c1","system_id":"levelo_inurba_marseille","lat":43.29793,"lon":5.38096,"is_reserved":false,"is_disabled":false,"rental_uris":{"android":"levelo://app?vid=c897d20f-2eb0-48cc-a743-482c441362c1","ios":"levelo://app?vid=c897d20f-2eb0-48cc-a743-482c441362c1"},"vehicle_type_id":"4","last_reported":1741885600,"current_range_meters":10800,"station_id":"ce4bgip2rcd13ifvqbb0","pricing_plan_id":"cebpf4jnsgd1na2vs0mg"},{"bike_id":"4760c4a3-2ebc-4787-9bfd-517781e41b15","system_id":"levelo_inurba_marseille","lat":43.28607,"lon":5.37065,"is_reserved":false,"is_disabled":false,"rental_uris":{"android":"levelo://app?vid=4760c4a3-2ebc-4787-9bfd-517781e41b15","ios":"levelo://app?vid=4760c4a3-2ebc-4787-9bfd-517781e41b15"},"vehicle_type_id":"4","last_reported":1741885600,"current_range_meters":11200,"station_id":"ce4bht12rcd13ifvqi60","pricing_plan_id":"cebpf4jnsgd1na2vs0mg"},{"bike_id":"da7214c6-c030-41dc-8cd6-b8fb52a9c678","system_id":"levelo_inurba_marseille","lat":43.29303,"lon":5.37169,"is_reserved":false,"is_disabled":false,"rental_uris":{"android":"levelo://app?vid=da7214c6-c030-41dc-8cd6-b8fb52a9c678","ios":"levelo://app?vid=da7214c6-c030-41dc-8cd6-b8fb52a9c678"},"vehicle_type_id":"4","last_reported":1741885600,"current_range_meters":11200,"station_id":"ce4bgh92rcd13ifvqb40","pricing_plan_id":"cebpf4jnsgd1na2vs0mg"},{"bike_id":"4afcf5cf-775d-40eb-b006-b34724951243","system_id":"levelo_inurba_marseille","lat":43.25125,"lon":5.40317,"is_reserved":false,"is_disabled":false,"rental_uris":{"android":"levelo://app?vid=4afcf5cf-775d-40eb-b006-b34724951243","ios":"levelo://app?vid=4afcf5cf-775d-40eb-b006-b34724951243"},"vehicle_type_id":"4","last_reported":1741885600,"current_range_meters":11200,"station_id":"ce4bhlh2rcd13ifvqgig","pricing_plan_id":"cebpf4jnsgd1na2vs0mg"},{"bike_id":"ea930d93-a7af-42ee-9e32-df3cc31d230f","system_id":"levelo_inurba_marseille","lat":43.25119,"lon":5.40344,"is_reserved":false,"is_disabled":false,"rental_uris":{"android":"levelo://app?vid=ea930d93-a7af-42ee-9e32-df3cc31d230f","ios":"levelo://app?vid=ea930d93-a7af-42ee-9e32-df3cc31d230f"},"vehicle_type_id":"4","last_reported":1741885600,"current_range_meters":11600,"station_id":"ce4bhlh2rcd13ifvqgig","pricing_plan_id":"cebpf4jnsgd1na2vs0mg"},{"bike_id":"6cec560f-8635-4801-8462-637e6f2c72c5","system_id":"levelo_inurba_marseille","lat":43.232,"lon":5.35552,"is_reserved":false,"is_disabled":false,"rental_uris":{"android":"levelo://app?vid=6cec560f-8635-4801-8462-637e6f2c72c5","ios":"levelo://app?vid=6cec560f-8635-4801-8462-637e6f2c72c5"},"vehicle_type_id":"4","last_reported":1741885600,"current_range_meters":11600,"station_id":"ce4bhu92rcd13ifvqi70","pricing_plan_id":"cebpf4jnsgd1na2vs0mg"},{"bike_id":"4f2ddad8-944b-4f7f-88fd-24992043188c","system_id":"levelo_inurba_marseille","lat":43.30932,"lon":5.4014,"is_reserved":false,"is_disabled":false,"rental_uris":{"android":"levelo://app?vid=4f2ddad8-944b-4f7f-88fd-24992043188c","ios":"levelo://app?vid=4f2ddad8-944b-4f7f-88fd-24992043188c"},"vehicle_type_id":"4","last_reported":1741885600,"current_range_meters":11600,"station_id":"ce4bgvp2rcd13ifvqct0","pricing_plan_id":"cebpf4jnsgd1na2vs0mg"},{"bike_id":"7683ef2b-d08a-4bb3-a3b5-4c82388f1fb9","system_id":"levelo_inurba_marseille","lat":43.29629,"lon":5.37156,"is_reserved":false,"is_disabled":false,"rental_uris":{"android":"levelo://app?vid=7683ef2b-d08a-4bb3-a3b5-4c82388f1fb9","ios":"levelo://app?vid=7683ef2b-d08a-4bb3-a3b5-4c82388f1fb9"},"vehicle_type_id":"4","last_reported":1741885600,"current_range_meters":11600,"station_id":"ce4bgnh2rcd13ifvqc0g","pricing_plan_id":"cebpf4jnsgd1na2vs0mg"},{"bike_id":"09b6e0d3-6449-4483-9e2f-d1346735cc25","system_id":"levelo_inurba_marseille","lat":43.31086,"lon":5.42429,"is_reserved":false,"is_disabled":false,"rental_uris":{"android":"levelo://app?vid=09b6e0d3-6449-4483-9e2f-d1346735cc25","ios":"levelo://app?vid=09b6e0d3-6449-4483-9e2f-d1346735cc25"},"vehicle_type_id":"4","last_reported":1741885600,"current_range_meters":11600,"station_id":"ce4bhp92rcd13ifvqhag","pricing_plan_id":"cebpf4jnsgd1na2vs0mg"},{"bike_id":"6944bb06-8a8c-4cf4-86a1-ca9561cf4ee4","system_id":"levelo_inurba_marseille","lat":43.23058,"lon":5.355,"is_reserved":false,"is_disabled":false,"rental_uris":{"android":"levelo://app?vid=6944bb06-8a8c-4cf4-86a1-ca9561cf4ee4","ios":"levelo://app?vid=6944bb06-8a8c-4cf4-86a1-ca9561cf4ee4"},"vehicle_type_id":"4","last_reported":1741885600,"current_range_meters":11600,"station_id":"cpo3342slgdg3j2ifvpg","pricing_plan_id":"cebpf4jnsgd1na2vs0mg"},{"bike_id":"2003d619-ebe6-4bd7-b117-599a9f74de5f","system_id":"levelo_inurba_marseille","lat":43.31119,"lon":5.37778,"is_reserved":false,"is_disabled":false,"rental_uris":{"android":"levelo://app?vid=2003d619-ebe6-4bd7-b117-599a9f74de5f","ios":"levelo://app?vid=2003d619-ebe6-4bd7-b117-599a9f74de5f"},"vehicle_type_id":"4","last_reported":1741885600,"current_range_meters":11600,"station_id":"ce4bgt92rcd13ifvqcg0","pricing_plan_id":"cebpf4jnsgd1na2vs0mg"},{"bike_id":"414a87d8-0320-4da5-94cb-1c2e9eb2c2e2","system_id":"levelo_inurba_marseille","lat":43.25815,"lon":5.39422,"is_reserved":false,"is_disabled":false,"rental_uris":{"android":"levelo://app?vid=414a87d8-0320-4da5-94cb-1c2e9eb2c2e2","ios":"levelo://app?vid=414a87d8-0320-4da5-94cb-1c2e9eb2c2e2"},"vehicle_type_id":"4","last_reported":1741885600,"current_range_meters":12000,"station_id":"ce4bhip2rcd13ifvqft0","pricing_plan_id":"cebpf4jnsgd1na2vs0mg"},{"bike_id":"bf7035b0-43dc-4781-beb1-fc31690da7ef","system_id":"levelo_inurba_marseille","lat":43.23969,"lon":5.36624,"is_reserved":false,"is_disabled":false,"rental_uris":{"android":"levelo://app?vid=bf7035b0-43dc-4781-beb1-fc31690da7ef","ios":"levelo://app?vid=bf7035b0-43dc-4781-beb1-fc31690da7ef"},"vehicle_type_id":"4","last_reported":1741885600,"current_range_meters":12000,"station_id":"ce4bhi12rcd13ifvqfp0","pricing_plan_id":"cebpf4jnsgd1na2vs0mg"},{"bike_id":"5da9224e-f92f-4da0-8f13-bff295e814ae","system_id":"levelo_inurba_marseille","lat":43.29424,"lon":5.38628,"is_reserved":false,"is_disabled":false,"rental_uris":{"android":"levelo://app?vid=5da9224e-f92f-4da0-8f13-bff295e814ae","ios":"levelo://app?vid=5da9224e-f92f-4da0-8f13-bff295e814ae"},"vehicle_type_id":"4","last_reported":1741885600,"current_range_meters":11600,"station_id":"ce4bh2h2rcd13ifvqdh0","pricing_plan_id":"cebpf4jnsgd1na2vs0mg"},{"bike_id":"317454e4-dd48-4611-814d-533bcc596415","system_id":"levelo_inurba_marseille","lat":43.29031,"lon":5.37553,"is_reserved":false,"is_disabled":false,"rental_uris":{"android":"levelo://app?vid=317454e4-dd48-4611-814d-533bcc596415","ios":"levelo://app?vid=317454e4-dd48-4611-814d-533bcc596415"},"vehicle_type_id":"4","last_reported":1741885600,"current_range_meters":12000,"station_id":"ce4bh692rcd13ifvqe90","pricing_plan_id":"cebpf4jnsgd1na2vs0mg"},{"bike_id":"673c8e25-b8fc-4e0f-92ad-90b16344a7d3","system_id":"levelo_inurba_marseille","lat":43.29026,"lon":5.38134,"is_reserved":false,"is_disabled":false,"rental_uris":{"android":"levelo://app?vid=673c8e25-b8fc-4e0f-92ad-90b16344a7d3","ios":"levelo://app?vid=673c8e25-b8fc-4e0f-92ad-90b16344a7d3"},"vehicle_type_id":"4","last_reported":1741885600,"current_range_meters":12000,"station_id":"ce4bh4p2rcd13ifvqe1g","pricing_plan_id":"cebpf4jnsgd1na2vs0mg"},{"bike_id":"b594a739-2a2c-4eca-82e7-b79bc272ce41","system_id":"levelo_inurba_marseille","lat":43.297229,"lon":5.377218,"is_reserved":false,"is_disabled":false,"rental_uris":{"android":"levelo://app?vid=b594a739-2a2c-4eca-82e7-b79bc272ce41","ios":"levelo://app?vid=b594a739-2a2c-4eca-82e7-b79bc272ce41"},"vehicle_type_id":"4","last_reported":1741885600,"current_range_meters":12000,"station_id":"ce4bgkh2rcd13ifvqbl0","pricing_plan_id":"cebpf4jnsgd1na2vs0mg"},{"bike_id":"83c8eb77-cca6-400d-b485-9b74db9a6cc8","system_id":"levelo_inurba_marseille","lat":43.29075,"lon":5.37165,"is_reserved":false,"is_disabled":false,"rental_uris":{"android":"levelo://app?vid=83c8eb77-cca6-400d-b485-9b74db9a6cc8","ios":"levelo://app?vid=83c8eb77-cca6-400d-b485-9b74db9a6cc8"},"vehicle_type_id":"4","last_reported":1741885600,"current_range_meters":12000,"station_id":"ce4bh5p2rcd13ifvqe4g","pricing_plan_id":"cebpf4jnsgd1na2vs0mg"},{"bike_id":"3465b879-3c3d-4abd-85f0-b2c7fb487a07","system_id":"levelo_inurba_marseille","lat":43.30549,"lon":5.36546,"is_reserved":false,"is_disabled":false,"rental_uris":{"android":"levelo://app?vid=3465b879-3c3d-4abd-85f0-b2c7fb487a07","ios":"levelo://app?vid=3465b879-3c3d-4abd-85f0-b2c7fb487a07"},"vehicle_type_id":"4","last_reported":1741885600,"current_range_meters":12400,"station_id":"ce4bgs12rcd13ifvqcag","pricing_plan_id":"cebpf4jnsgd1na2vs0mg"},{"bike_id":"7121d818-13e2-43ed-b445-7134fefdd64f","system_id":"levelo_inurba_marseille","lat":43.23199,"lon":5.355491,"is_reserved":false,"is_disabled":false,"rental_uris":{"android":"levelo://app?vid=7121d818-13e2-43ed-b445-7134fefdd64f","ios":"levelo://app?vid=7121d818-13e2-43ed-b445-7134fefdd64f"},"vehicle_type_id":"4","last_reported":1741885600,"current_range_meters":12400,"station_id":"ce4bhu92rcd13ifvqi70","pricing_plan_id":"cebpf4jnsgd1na2vs0mg"},{"bike_id":"9db5f361-402f-483a-bcdc-9e6d2c49648d","system_id":"levelo_inurba_marseille","lat":43.28132,"lon":5.37824,"is_reserved":false,"is_disabled":false,"rental_uris":{"android":"levelo://app?vid=9db5f361-402f-483a-bcdc-9e6d2c49648d","ios":"levelo://app?vid=9db5f361-402f-483a-bcdc-9e6d2c49648d"},"vehicle_type_id":"4","last_reported":1741885600,"current_range_meters":12400,"station_id":"ce4bha12rcd13ifvqee0","pricing_plan_id":"cebpf4jnsgd1na2vs0mg"},{"bike_id":"c33f4376-5763-4228-b145-1173ac9981a4","system_id":"levelo_inurba_marseille","lat":43.29264,"lon":5.38438,"is_reserved":false,"is_disabled":false,"rental_uris":{"android":"levelo://app?vid=c33f4376-5763-4228-b145-1173ac9981a4","ios":"levelo://app?vid=c33f4376-5763-4228-b145-1173ac9981a4"},"vehicle_type_id":"4","last_reported":1741885600,"current_range_meters":12400,"station_id":"ce4bh692rcd13ifvqea0","pricing_plan_id":"cebpf4jnsgd1na2vs0mg"},{"bike_id":"d57d84e0-a8e8-4987-bf4b-e0ba1ed4f874","system_id":"levelo_inurba_marseille","lat":43.26678,"lon":5.38267,"is_reserved":false,"is_disabled":false,"rental_uris":{"android":"levelo://app?vid=d57d84e0-a8e8-4987-bf4b-e0ba1ed4f874","ios":"levelo://app?vid=d57d84e0-a8e8-4987-bf4b-e0ba1ed4f874"},"vehicle_type_id":"4","last_reported":1741885600,"current_range_meters":12400,"station_id":"ce4bhg92rcd13ifvqf90","pricing_plan_id":"cebpf4jnsgd1na2vs0mg"},{"bike_id":"36ec5a15-215b-4367-a3ca-336aadd9a251","system_id":"levelo_inurba_marseille","lat":43.33746,"lon":5.3745,"is_reserved":false,"is_disabled":false,"rental_uris":{"android":"levelo://app?vid=36ec5a15-215b-4367-a3ca-336aadd9a251","ios":"levelo://app?vid=36ec5a15-215b-4367-a3ca-336aadd9a251"},"vehicle_type_id":"4","last_reported":1741885600,"current_range_meters":12400,"station_id":"","pricing_plan_id":"cebpf4jnsgd1na2vs0mg"},{"bike_id":"cf37a594-f498-48f9-8b50-b6dfa14f03a4","system_id":"levelo_inurba_marseille","lat":43.2695,"lon":5.40263,"is_reserved":false,"is_disabled":false,"rental_uris":{"android":"levelo://app?vid=cf37a594-f498-48f9-8b50-b6dfa14f03a4","ios":"levelo://app?vid=cf37a594-f498-48f9-8b50-b6dfa14f03a4"},"vehicle_type_id":"4","last_reported":1741885600,"current_range_meters":12800,"station_id":"cjm6bp8fraef2m0cb0m0","pricing_plan_id":"cebpf4jnsgd1na2vs0mg"},{"bike_id":"1ae01e22-4c4d-4069-8bf6-0be88949011a","system_id":"levelo_inurba_marseille","lat":43.32353,"lon":5.38931,"is_reserved":false,"is_disabled":false,"rental_uris":{"android":"levelo://app?vid=1ae01e22-4c4d-4069-8bf6-0be88949011a","ios":"levelo://app?vid=1ae01e22-4c4d-4069-8bf6-0be88949011a"},"vehicle_type_id":"4","last_reported":1741885600,"current_range_meters":12800,"station_id":"ce4bhqp2rcd13ifvqhog","pricing_plan_id":"cebpf4jnsgd1na2vs0mg"},{"bike_id":"41300c69-dac2-414a-90f5-723515bbe27a","system_id":"levelo_inurba_marseille","lat":43.23197,"lon":5.35539,"is_reserved":false,"is_disabled":false,"rental_uris":{"android":"levelo://app?vid=41300c69-dac2-414a-90f5-723515bbe27a","ios":"levelo://app?vid=41300c69-dac2-414a-90f5-723515bbe27a"},"vehicle_type_id":"4","last_reported":1741885600,"current_range_meters":12800,"station_id":"ce4bhu92rcd13ifvqi70","pricing_plan_id":"cebpf4jnsgd1na2vs0mg"},{"bike_id":"3363e5ed-aafd-4c83-9f97-12270e6ffcf4","system_id":"levelo_inurba_marseille","lat":43.24858,"lon":5.40657,"is_reserved":false,"is_disabled":false,"rental_uris":{"android":"levelo://app?vid=3363e5ed-aafd-4c83-9f97-12270e6ffcf4","ios":"levelo://app?vid=3363e5ed-aafd-4c83-9f97-12270e6ffcf4"},"vehicle_type_id":"4","last_reported":1741885600,"current_range_meters":12800,"station_id":"","pricing_plan_id":"cebpf4jnsgd1na2vs0mg"},{"bike_id":"3f88af1a-8c2a-4742-bc6b-bf606f110521","system_id":"levelo_inurba_marseille","lat":43.32281,"lon":5.38229,"is_reserved":false,"is_disabled":false,"rental_uris":{"android":"levelo://app?vid=3f88af1a-8c2a-4742-bc6b-bf606f110521","ios":"levelo://app?vid=3f88af1a-8c2a-4742-bc6b-bf606f110521"},"vehicle_type_id":"4","last_reported":1741885600,"current_range_meters":12800,"station_id":"ce4bhr12rcd13ifvqhqg","pricing_plan_id":"cebpf4jnsgd1na2vs0mg"},{"bike_id":"436bf6fd-98f0-4c70-968c-7fcac8f398a5","system_id":"levelo_inurba_marseille","lat":43.25114,"lon":5.41071,"is_reserved":false,"is_disabled":false,"rental_uris":{"android":"levelo://app?vid=436bf6fd-98f0-4c70-968c-7fcac8f398a5","ios":"levelo://app?vid=436bf6fd-98f0-4c70-968c-7fcac8f398a5"},"vehicle_type_id":"4","last_reported":1741885600,"current_range_meters":13600,"station_id":"","pricing_plan_id":"cebpf4jnsgd1na2vs0mg"},{"bike_id":"6e8a2850-e825-49fd-a9d4-6aa69a38d1f9","system_id":"levelo_inurba_marseille","lat":43.27673,"lon":5.38887,"is_reserved":false,"is_disabled":false,"rental_uris":{"android":"levelo://app?vid=6e8a2850-e825-49fd-a9d4-6aa69a38d1f9","ios":"levelo://app?vid=6e8a2850-e825-49fd-a9d4-6aa69a38d1f9"},"vehicle_type_id":"4","last_reported":1741885600,"current_range_meters":13600,"station_id":"ce4bhi12rcd13ifvqfo0","pricing_plan_id":"cebpf4jnsgd1na2vs0mg"},{"bike_id":"3f4cecea-72af-4138-a111-a8b527bd52fe","system_id":"levelo_inurba_marseille","lat":43.31737,"lon":5.42398,"is_reserved":false,"is_disabled":false,"rental_uris":{"android":"levelo://app?vid=3f4cecea-72af-4138-a111-a8b527bd52fe","ios":"levelo://app?vid=3f4cecea-72af-4138-a111-a8b527bd52fe"},"vehicle_type_id":"4","last_reported":1741885600,"current_range_meters":13600,"station_id":"ce4bhp92rcd13ifvqhbg","pricing_plan_id":"cebpf4jnsgd1na2vs0mg"},{"bike_id":"4078ae31-3c28-4811-a96d-e5898683501c","system_id":"levelo_inurba_marseille","lat":43.27815,"lon":5.40716,"is_reserved":false,"is_disabled":false,"rental_uris":{"android":"levelo://app?vid=4078ae31-3c28-4811-a96d-e5898683501c","ios":"levelo://app?vid=4078ae31-3c28-4811-a96d-e5898683501c"},"vehicle_type_id":"4","last_reported":1741885600,"current_range_meters":13600,"station_id":"ce4bhnh2rcd13ifvqgtg","pricing_plan_id":"cebpf4jnsgd1na2vs0mg"},{"bike_id":"b634fcd7-4303-4fed-a2f8-fcd04ed2a4dd","system_id":"levelo_inurba_marseille","lat":43.23068,"lon":5.35492,"is_reserved":false,"is_disabled":false,"rental_uris":{"android":"levelo://app?vid=b634fcd7-4303-4fed-a2f8-fcd04ed2a4dd","ios":"levelo://app?vid=b634fcd7-4303-4fed-a2f8-fcd04ed2a4dd"},"vehicle_type_id":"4","last_reported":1741885600,"current_range_meters":13600,"station_id":"cpo3342slgdg3j2ifvpg","pricing_plan_id":"cebpf4jnsgd1na2vs0mg"},{"bike_id":"9a719051-5115-4a08-8e7b-ae42f9cbb7fe","system_id":"levelo_inurba_marseille","lat":43.31132,"lon":5.37786,"is_reserved":false,"is_disabled":false,"rental_uris":{"android":"levelo://app?vid=9a719051-5115-4a08-8e7b-ae42f9cbb7fe","ios":"levelo://app?vid=9a719051-5115-4a08-8e7b-ae42f9cbb7fe"},"vehicle_type_id":"4","last_reported":1741885600,"current_range_meters":13600,"station_id":"ce4bgt92rcd13ifvqcg0","pricing_plan_id":"cebpf4jnsgd1na2vs0mg"},{"bike_id":"c37277b7-dfd5-4290-8fc3-e7e7d99c669d","system_id":"levelo_inurba_marseille","lat":43.30544,"lon":5.3669,"is_reserved":false,"is_disabled":false,"rental_uris":{"android":"levelo://app?vid=c37277b7-dfd5-4290-8fc3-e7e7d99c669d","ios":"levelo://app?vid=c37277b7-dfd5-4290-8fc3-e7e7d99c669d"},"vehicle_type_id":"4","last_reported":1741885600,"current_range_meters":13600,"station_id":"ce4bgrp2rcd13ifvqc9g","pricing_plan_id":"cebpf4jnsgd1na2vs0mg"},{"bike_id":"e99b197a-b334-4bc9-8466-f6ddf5fa6679","system_id":"levelo_inurba_marseille","lat":43.30306,"lon":5.39197,"is_reserved":false,"is_disabled":false,"rental_uris":{"android":"levelo://app?vid=e99b197a-b334-4bc9-8466-f6ddf5fa6679","ios":"levelo://app?vid=e99b197a-b334-4bc9-8466-f6ddf5fa6679"},"vehicle_type_id":"4","last_reported":1741885600,"current_range_meters":13600,"station_id":"ce4bgkh2rcd13ifvqbk0","pricing_plan_id":"cebpf4jnsgd1na2vs0mg"},{"bike_id":"c42e69b2-4c11-404d-9514-65cdd7943e01","system_id":"levelo_inurba_marseille","lat":43.2417,"lon":5.36391,"is_reserved":false,"is_disabled":false,"rental_uris":{"android":"levelo://app?vid=c42e69b2-4c11-404d-9514-65cdd7943e01","ios":"levelo://app?vid=c42e69b2-4c11-404d-9514-65cdd7943e01"},"vehicle_type_id":"4","last_reported":1741885600,"current_range_meters":13600,"station_id":"cpo36qri1sfpv3e86is0","pricing_plan_id":"cebpf4jnsgd1na2vs0mg"},{"bike_id":"8914e763-30dc-43d7-af06-048b7e775d12","system_id":"levelo_inurba_marseille","lat":43.23197,"lon":5.39968,"is_reserved":false,"is_disabled":false,"rental_uris":{"android":"levelo://app?vid=8914e763-30dc-43d7-af06-048b7e775d12","ios":"levelo://app?vid=8914e763-30dc-43d7-af06-048b7e775d12"},"vehicle_type_id":"4","last_reported":1741885600,"current_range_meters":6400,"station_id":"ce4bhn12rcd13ifvqgqg","pricing_plan_id":"cebpf4jnsgd1na2vs0mg"},{"bike_id":"840fe58d-702c-4643-802b-02b7904775ac","system_id":"levelo_inurba_marseille","lat":43.30784,"lon":5.43521,"is_reserved":false,"is_disabled":false,"rental_uris":{"android":"levelo://app?vid=840fe58d-702c-4643-802b-02b7904775ac","ios":"levelo://app?vid=840fe58d-702c-4643-802b-02b7904775ac"},"vehicle_type_id":"4","last_reported":1741885600,"current_range_meters":14000,"station_id":"ce4bhph2rcd13ifvqheg","pricing_plan_id":"cebpf4jnsgd1na2vs0mg"},{"bike_id":"99b36e72-da24-4c65-82a5-6031fff7b14a","system_id":"levelo_inurba_marseille","lat":43.28075,"lon":5.3966,"is_reserved":false,"is_disabled":false,"rental_uris":{"android":"levelo://app?vid=99b36e72-da24-4c65-82a5-6031fff7b14a","ios":"levelo://app?vid=99b36e72-da24-4c65-82a5-6031fff7b14a"},"vehicle_type_id":"4","last_reported":1741885600,"current_range_meters":13600,"station_id":"ce4bho12rcd13ifvqh2g","pricing_plan_id":"cebpf4jnsgd1na2vs0mg"},{"bike_id":"a1865482-901a-461f-bbbf-89cc5aaa4978","system_id":"levelo_inurba_marseille","lat":43.31286,"lon":5.37894,"is_reserved":false,"is_disabled":false,"rental_uris":{"android":"levelo://app?vid=a1865482-901a-461f-bbbf-89cc5aaa4978","ios":"levelo://app?vid=a1865482-901a-461f-bbbf-89cc5aaa4978"},"vehicle_type_id":"4","last_reported":1741885600,"current_range_meters":14400,"station_id":"ce4bgj92rcd13ifvqbd0","pricing_plan_id":"cebpf4jnsgd1na2vs0mg"},{"bike_id":"946ae5f9-3409-4719-97dd-5935581a34bb","system_id":"levelo_inurba_marseille","lat":43.30938,"lon":5.40142,"is_reserved":false,"is_disabled":false,"rental_uris":{"android":"levelo://app?vid=946ae5f9-3409-4719-97dd-5935581a34bb","ios":"levelo://app?vid=946ae5f9-3409-4719-97dd-5935581a34bb"},"vehicle_type_id":"4","last_reported":1741885600,"current_range_meters":14400,"station_id":"ce4bgvp2rcd13ifvqct0","pricing_plan_id":"cebpf4jnsgd1na2vs0mg"},{"bike_id":"988ce9eb-4729-429a-8119-09402cfb124e","system_id":"levelo_inurba_marseille","lat":43.29575,"lon":5.39986,"is_reserved":false,"is_disabled":false,"rental_uris":{"android":"levelo://app?vid=988ce9eb-4729-429a-8119-09402cfb124e","ios":"levelo://app?vid=988ce9eb-4729-429a-8119-09402cfb124e"},"vehicle_type_id":"4","last_reported":1741885600,"current_range_meters":14000,"station_id":"ce4bh312rcd13ifvqdj0","pricing_plan_id":"cebpf4jnsgd1na2vs0mg"},{"bike_id":"a5e71948-735a-4229-b2ca-74d55fc62066","system_id":"levelo_inurba_marseille","lat":43.28055,"lon":5.3696,"is_reserved":false,"is_disabled":false,"rental_uris":{"android":"levelo://app?vid=a5e71948-735a-4229-b2ca-74d55fc62066","ios":"levelo://app?vid=a5e71948-735a-4229-b2ca-74d55fc62066"},"vehicle_type_id":"4","last_reported":1741885600,"current_range_meters":14400,"station_id":"ce4bha12rcd13ifvqef0","pricing_plan_id":"cebpf4jnsgd1na2vs0mg"},{"bike_id":"d71c7109-41aa-4810-80b5-3941266d1101","system_id":"levelo_inurba_marseille","lat":43.26812,"lon":5.40255,"is_reserved":false,"is_disabled":false,"rental_uris":{"android":"levelo://app?vid=d71c7109-41aa-4810-80b5-3941266d1101","ios":"levelo://app?vid=d71c7109-41aa-4810-80b5-3941266d1101"},"vehicle_type_id":"4","last_reported":1741885600,"current_range_meters":14400,"station_id":"ce501612rcd8frsf0b60","pricing_plan_id":"cebpf4jnsgd1na2vs0mg"},{"bike_id":"d7a5e33c-bc6d-479b-9401-5121dfd918cb","system_id":"levelo_inurba_marseille","lat":43.31122,"lon":5.37764,"is_reserved":false,"is_disabled":false,"rental_uris":{"android":"levelo://app?vid=d7a5e33c-bc6d-479b-9401-5121dfd918cb","ios":"levelo://app?vid=d7a5e33c-bc6d-479b-9401-5121dfd918cb"},"vehicle_type_id":"4","last_reported":1741885600,"current_range_meters":14400,"station_id":"ce4bgt92rcd13ifvqcg0","pricing_plan_id":"cebpf4jnsgd1na2vs0mg"},{"bike_id":"e4f8780c-8f27-44f2-96ac-95b8912e90d0","system_id":"levelo_inurba_marseille","lat":43.27205,"lon":5.40964,"is_reserved":false,"is_disabled":false,"rental_uris":{"android":"levelo://app?vid=e4f8780c-8f27-44f2-96ac-95b8912e90d0","ios":"levelo://app?vid=e4f8780c-8f27-44f2-96ac-95b8912e90d0"},"vehicle_type_id":"4","last_reported":1741885600,"current_range_meters":14400,"station_id":"ce4bhl12rcd13ifvqgf0","pricing_plan_id":"cebpf4jnsgd1na2vs0mg"},{"bike_id":"2700b3bb-ab17-4844-a6a3-860d9da3dd88","system_id":"levelo_inurba_marseille","lat":43.30805,"lon":5.38129,"is_reserved":false,"is_disabled":false,"rental_uris":{"android":"levelo://app?vid=2700b3bb-ab17-4844-a6a3-860d9da3dd88","ios":"levelo://app?vid=2700b3bb-ab17-4844-a6a3-860d9da3dd88"},"vehicle_type_id":"4","last_reported":1741885600,"current_range_meters":14800,"station_id":"ce4bgt12rcd13ifvqce0","pricing_plan_id":"cebpf4jnsgd1na2vs0mg"},{"bike_id":"7ab94863-7af5-4c94-bc43-e8d49b4cfb97","system_id":"levelo_inurba_marseille","lat":43.29277,"lon":5.36846,"is_reserved":false,"is_disabled":false,"rental_uris":{"android":"levelo://app?vid=7ab94863-7af5-4c94-bc43-e8d49b4cfb97","ios":"levelo://app?vid=7ab94863-7af5-4c94-bc43-e8d49b4cfb97"},"vehicle_type_id":"4","last_reported":1741885600,"current_range_meters":14800,"station_id":"ce4bhbp2rcd13ifvqesg","pricing_plan_id":"cebpf4jnsgd1na2vs0mg"},{"bike_id":"2fae1fa9-0f92-4c11-bc7a-aead8bdc7102","system_id":"levelo_inurba_marseille","lat":43.26566,"lon":5.39015,"is_reserved":false,"is_disabled":false,"rental_uris":{"android":"levelo://app?vid=2fae1fa9-0f92-4c11-bc7a-aead8bdc7102","ios":"levelo://app?vid=2fae1fa9-0f92-4c11-bc7a-aead8bdc7102"},"vehicle_type_id":"4","last_reported":1741885600,"current_range_meters":14800,"station_id":"ce4bhe12rcd13ifvqf30","pricing_plan_id":"cebpf4jnsgd1na2vs0mg"},{"bike_id":"594a33ea-5c85-49b0-893b-48b1f5e1011a","system_id":"levelo_inurba_marseille","lat":43.309253,"lon":5.401469,"is_reserved":false,"is_disabled":true,"rental_uris":{"android":"levelo://app?vid=594a33ea-5c85-49b0-893b-48b1f5e1011a","ios":"levelo://app?vid=594a33ea-5c85-49b0-893b-48b1f5e1011a"},"vehicle_type_id":"4","last_reported":1741885600,"current_range_meters":14800,"station_id":"ce4bgvp2rcd13ifvqct0","pricing_plan_id":"cebpf4jnsgd1na2vs0mg"},{"bike_id":"491400b7-47b7-4d62-8f28-71e22fe7e092","system_id":"levelo_inurba_marseille","lat":43.31324,"lon":5.39689,"is_reserved":false,"is_disabled":false,"rental_uris":{"android":"levelo://app?vid=491400b7-47b7-4d62-8f28-71e22fe7e092","ios":"levelo://app?vid=491400b7-47b7-4d62-8f28-71e22fe7e092"},"vehicle_type_id":"4","last_reported":1741885600,"current_range_meters":15200,"station_id":"ce4bgvp2rcd13ifvqcu0","pricing_plan_id":"cebpf4jnsgd1na2vs0mg"},{"bike_id":"069c8f5b-8764-4b60-8252-1e58f1bb26d7","system_id":"levelo_inurba_marseille","lat":43.31072,"lon":5.38351,"is_reserved":false,"is_disabled":false,"rental_uris":{"android":"levelo://app?vid=069c8f5b-8764-4b60-8252-1e58f1bb26d7","ios":"levelo://app?vid=069c8f5b-8764-4b60-8252-1e58f1bb26d7"},"vehicle_type_id":"4","last_reported":1741885600,"current_range_meters":15200,"station_id":"ce4bgv92rcd13ifvqcr0","pricing_plan_id":"cebpf4jnsgd1na2vs0mg"},{"bike_id":"c1fb842c-8600-415a-ae8f-7258f02546ef","system_id":"levelo_inurba_marseille","lat":43.30794,"lon":5.37654,"is_reserved":false,"is_disabled":false,"rental_uris":{"android":"levelo://app?vid=c1fb842c-8600-415a-ae8f-7258f02546ef","ios":"levelo://app?vid=c1fb842c-8600-415a-ae8f-7258f02546ef"},"vehicle_type_id":"4","last_reported":1741885600,"current_range_meters":15200,"station_id":"ce4bgv92rcd13ifvqcq0","pricing_plan_id":"cebpf4jnsgd1na2vs0mg"},{"bike_id":"dc2dc920-7061-4611-9ad3-02d4898aaa15","system_id":"levelo_inurba_marseille","lat":43.23189,"lon":5.39979,"is_reserved":false,"is_disabled":false,"rental_uris":{"android":"levelo://app?vid=dc2dc920-7061-4611-9ad3-02d4898aaa15","ios":"levelo://app?vid=dc2dc920-7061-4611-9ad3-02d4898aaa15"},"vehicle_type_id":"4","last_reported":1741885600,"current_range_meters":15200,"station_id":"ce4bhn12rcd13ifvqgqg","pricing_plan_id":"cebpf4jnsgd1na2vs0mg"},{"bike_id":"e514d185-4131-49cd-8a7c-317241865033","system_id":"levelo_inurba_marseille","lat":43.31516,"lon":5.37295,"is_reserved":false,"is_disabled":false,"rental_uris":{"android":"levelo://app?vid=e514d185-4131-49cd-8a7c-317241865033","ios":"levelo://app?vid=e514d185-4131-49cd-8a7c-317241865033"},"vehicle_type_id":"4","last_reported":1741885600,"current_range_meters":15200,"station_id":"ce4bgt12rcd13ifvqcd0","pricing_plan_id":"cebpf4jnsgd1na2vs0mg"},{"bike_id":"d73f709a-23a1-454f-88eb-641a58693cbd","system_id":"levelo_inurba_marseille","lat":43.28646,"lon":5.38577,"is_reserved":false,"is_disabled":false,"rental_uris":{"android":"levelo://app?vid=d73f709a-23a1-454f-88eb-641a58693cbd","ios":"levelo://app?vid=d73f709a-23a1-454f-88eb-641a58693cbd"},"vehicle_type_id":"4","last_reported":1741885600,"current_range_meters":15200,"station_id":"ce4bh492rcd13ifvqdug","pricing_plan_id":"cebpf4jnsgd1na2vs0mg"},{"bike_id":"b10d6d7c-ffc3-42b7-8376-c266cc4e74f1","system_id":"levelo_inurba_marseille","lat":43.30886,"lon":5.39656,"is_reserved":false,"is_disabled":false,"rental_uris":{"android":"levelo://app?vid=b10d6d7c-ffc3-42b7-8376-c266cc4e74f1","ios":"levelo://app?vid=b10d6d7c-ffc3-42b7-8376-c266cc4e74f1"},"vehicle_type_id":"4","last_reported":1741885600,"current_range_meters":15200,"station_id":"ce4bh012rcd13ifvqcv0","pricing_plan_id":"cebpf4jnsgd1na2vs0mg"},{"bike_id":"075a7328-5c33-4d29-810a-ac380fc45d29","system_id":"levelo_inurba_marseille","lat":43.308761,"lon":5.396531,"is_reserved":false,"is_disabled":false,"rental_uris":{"android":"levelo://app?vid=075a7328-5c33-4d29-810a-ac380fc45d29","ios":"levelo://app?vid=075a7328-5c33-4d29-810a-ac380fc45d29"},"vehicle_type_id":"4","last_reported":1741885600,"current_range_meters":15200,"station_id":"ce4bh012rcd13ifvqcv0","pricing_plan_id":"cebpf4jnsgd1na2vs0mg"},{"bike_id":"77cc074f-a4fc-4efc-9943-a45c92a22bc2","system_id":"levelo_inurba_marseille","lat":43.31237,"lon":5.36887,"is_reserved":false,"is_disabled":false,"rental_uris":{"android":"levelo://app?vid=77cc074f-a4fc-4efc-9943-a45c92a22bc2","ios":"levelo://app?vid=77cc074f-a4fc-4efc-9943-a45c92a22bc2"},"vehicle_type_id":"4","last_reported":1741885600,"current_range_meters":15200,"station_id":"ce4bgl92rcd13ifvqbq0","pricing_plan_id":"cebpf4jnsgd1na2vs0mg"},{"bike_id":"25a68369-58e9-48fb-8065-9b9bd102b80d","system_id":"levelo_inurba_marseille","lat":43.29262,"lon":5.37626,"is_reserved":false,"is_disabled":false,"rental_uris":{"android":"levelo://app?vid=25a68369-58e9-48fb-8065-9b9bd102b80d","ios":"levelo://app?vid=25a68369-58e9-48fb-8065-9b9bd102b80d"},"vehicle_type_id":"4","last_reported":1741885600,"current_range_meters":15200,"station_id":"ce4bgi12rcd13ifvqb80","pricing_plan_id":"cebpf4jnsgd1na2vs0mg"},{"bike_id":"3e33256a-d861-45c0-af01-75642132ca20","system_id":"levelo_inurba_marseille","lat":43.33022,"lon":5.39413,"is_reserved":false,"is_disabled":false,"rental_uris":{"android":"levelo://app?vid=3e33256a-d861-45c0-af01-75642132ca20","ios":"levelo://app?vid=3e33256a-d861-45c0-af01-75642132ca20"},"vehicle_type_id":"4","last_reported":1741885600,"current_range_meters":15200,"station_id":"","pricing_plan_id":"cebpf4jnsgd1na2vs0mg"},{"bike_id":"09b596d2-9fb8-4407-91a7-ec4b3d2d3af7","system_id":"levelo_inurba_marseille","lat":43.25585,"lon":5.3826,"is_reserved":false,"is_disabled":false,"rental_uris":{"android":"levelo://app?vid=09b596d2-9fb8-4407-91a7-ec4b3d2d3af7","ios":"levelo://app?vid=09b596d2-9fb8-4407-91a7-ec4b3d2d3af7"},"vehicle_type_id":"4","last_reported":1741885600,"current_range_meters":16000,"station_id":"ce4bhih2rcd13ifvqfs0","pricing_plan_id":"cebpf4jnsgd1na2vs0mg"},{"bike_id":"af3491c1-891e-4a34-bbbb-193011202089","system_id":"levelo_inurba_marseille","lat":43.30538,"lon":5.38425,"is_reserved":false,"is_disabled":false,"rental_uris":{"android":"levelo://app?vid=af3491c1-891e-4a34-bbbb-193011202089","ios":"levelo://app?vid=af3491c1-891e-4a34-bbbb-193011202089"},"vehicle_type_id":"4","last_reported":1741885600,"current_range_meters":16000,"station_id":"ce4bgg92rcd13ifvqb30","pricing_plan_id":"cebpf4jnsgd1na2vs0mg"},{"bike_id":"aeec4843-e0cf-441f-b4d2-907b0f5fbe59","system_id":"levelo_inurba_marseille","lat":43.25824,"lon":5.39424,"is_reserved":false,"is_disabled":false,"rental_uris":{"android":"levelo://app?vid=aeec4843-e0cf-441f-b4d2-907b0f5fbe59","ios":"levelo://app?vid=aeec4843-e0cf-441f-b4d2-907b0f5fbe59"},"vehicle_type_id":"4","last_reported":1741885600,"current_range_meters":16000,"station_id":"ce4bhip2rcd13ifvqft0","pricing_plan_id":"cebpf4jnsgd1na2vs0mg"},{"bike_id":"bb1c55b6-0498-4be2-a253-b28702724154","system_id":"levelo_inurba_marseille","lat":43.29008,"lon":5.35605,"is_reserved":false,"is_disabled":false,"rental_uris":{"android":"levelo://app?vid=bb1c55b6-0498-4be2-a253-b28702724154","ios":"levelo://app?vid=bb1c55b6-0498-4be2-a253-b28702724154"},"vehicle_type_id":"4","last_reported":1741885600,"current_range_meters":16000,"station_id":"ce4bhb92rcd13ifvqen0","pricing_plan_id":"cebpf4jnsgd1na2vs0mg"},{"bike_id":"29832e81-b63f-44c3-a8ae-1ccbc505bd58","system_id":"levelo_inurba_marseille","lat":43.27826,"lon":5.40708,"is_reserved":false,"is_disabled":false,"rental_uris":{"android":"levelo://app?vid=29832e81-b63f-44c3-a8ae-1ccbc505bd58","ios":"levelo://app?vid=29832e81-b63f-44c3-a8ae-1ccbc505bd58"},"vehicle_type_id":"4","last_reported":1741885600,"current_range_meters":16000,"station_id":"ce4bhnh2rcd13ifvqgtg","pricing_plan_id":"cebpf4jnsgd1na2vs0mg"},{"bike_id":"796a9c3c-d006-4f72-92ae-af64cf7e484e","system_id":"levelo_inurba_marseille","lat":43.28621,"lon":5.351,"is_reserved":false,"is_disabled":false,"rental_uris":{"android":"levelo://app?vid=796a9c3c-d006-4f72-92ae-af64cf7e484e","ios":"levelo://app?vid=796a9c3c-d006-4f72-92ae-af64cf7e484e"},"vehicle_type_id":"4","last_reported":1741885600,"current_range_meters":16000,"station_id":"ce4bhch2rcd13ifvqeug","pricing_plan_id":"cebpf4jnsgd1na2vs0mg"},{"bike_id":"7fb02d4c-7604-4c56-9bbd-772ce7f964d0","system_id":"levelo_inurba_marseille","lat":43.26208,"lon":5.37443,"is_reserved":false,"is_disabled":false,"rental_uris":{"android":"levelo://app?vid=7fb02d4c-7604-4c56-9bbd-772ce7f964d0","ios":"levelo://app?vid=7fb02d4c-7604-4c56-9bbd-772ce7f964d0"},"vehicle_type_id":"4","last_reported":1741885600,"current_range_meters":16000,"station_id":"ce4bhgp2rcd13ifvqfc0","pricing_plan_id":"cebpf4jnsgd1na2vs0mg"},{"bike_id":"7e88b6c2-925f-4ed5-9881-a1e5cd09e856","system_id":"levelo_inurba_marseille","lat":43.31327,"lon":5.397,"is_reserved":false,"is_disabled":false,"rental_uris":{"android":"levelo://app?vid=7e88b6c2-925f-4ed5-9881-a1e5cd09e856","ios":"levelo://app?vid=7e88b6c2-925f-4ed5-9881-a1e5cd09e856"},"vehicle_type_id":"4","last_reported":1741885600,"current_range_meters":16000,"station_id":"ce4bgvp2rcd13ifvqcu0","pricing_plan_id":"cebpf4jnsgd1na2vs0mg"},{"bike_id":"f993de59-3a66-428d-90bf-a0166f215dd6","system_id":"levelo_inurba_marseille","lat":43.28948,"lon":5.36386,"is_reserved":false,"is_disabled":false,"rental_uris":{"android":"levelo://app?vid=f993de59-3a66-428d-90bf-a0166f215dd6","ios":"levelo://app?vid=f993de59-3a66-428d-90bf-a0166f215dd6"},"vehicle_type_id":"4","last_reported":1741885600,"current_range_meters":16000,"station_id":"ce4bhc92rcd13ifvqetg","pricing_plan_id":"cebpf4jnsgd1na2vs0mg"},{"bike_id":"01f39557-1a92-43a9-a8b7-be6cecf3ead2","system_id":"levelo_inurba_marseille","lat":43.29041,"lon":5.39967,"is_reserved":false,"is_disabled":false,"rental_uris":{"android":"levelo://app?vid=01f39557-1a92-43a9-a8b7-be6cecf3ead2","ios":"levelo://app?vid=01f39557-1a92-43a9-a8b7-be6cecf3ead2"},"vehicle_type_id":"4","last_reported":1741885600,"current_range_meters":16400,"station_id":"ce4bh392rcd13ifvqdm0","pricing_plan_id":"cebpf4jnsgd1na2vs0mg"},{"bike_id":"3bafd1d7-3646-4020-aeb3-67bf45c8d4c3","system_id":"levelo_inurba_marseille","lat":43.28645,"lon":5.38613,"is_reserved":false,"is_disabled":false,"rental_uris":{"android":"levelo://app?vid=3bafd1d7-3646-4020-aeb3-67bf45c8d4c3","ios":"levelo://app?vid=3bafd1d7-3646-4020-aeb3-67bf45c8d4c3"},"vehicle_type_id":"4","last_reported":1741885600,"current_range_meters":16400,"station_id":"","pricing_plan_id":"cebpf4jnsgd1na2vs0mg"},{"bike_id":"ac8a0769-c424-4dcd-905b-21c5e1aa7ce2","system_id":"levelo_inurba_marseille","lat":43.31323,"lon":5.396928,"is_reserved":false,"is_disabled":false,"rental_uris":{"android":"levelo://app?vid=ac8a0769-c424-4dcd-905b-21c5e1aa7ce2","ios":"levelo://app?vid=ac8a0769-c424-4dcd-905b-21c5e1aa7ce2"},"vehicle_type_id":"4","last_reported":1741885600,"current_range_meters":16400,"station_id":"ce4bgvp2rcd13ifvqcu0","pricing_plan_id":"cebpf4jnsgd1na2vs0mg"},{"bike_id":"357c208f-3106-4228-a20a-04e892f984bc","system_id":"levelo_inurba_marseille","lat":43.32351,"lon":5.3661,"is_reserved":false,"is_disabled":false,"rental_uris":{"android":"levelo://app?vid=357c208f-3106-4228-a20a-04e892f984bc","ios":"levelo://app?vid=357c208f-3106-4228-a20a-04e892f984bc"},"vehicle_type_id":"4","last_reported":1741885600,"current_range_meters":16400,"station_id":"ce4bhsh2rcd13ifvqi2g","pricing_plan_id":"cebpf4jnsgd1na2vs0mg"},{"bike_id":"2fcdbd2d-52b8-4841-9569-2b04b6707abc","system_id":"levelo_inurba_marseille","lat":43.23184,"lon":5.39979,"is_reserved":false,"is_disabled":false,"rental_uris":{"android":"levelo://app?vid=2fcdbd2d-52b8-4841-9569-2b04b6707abc","ios":"levelo://app?vid=2fcdbd2d-52b8-4841-9569-2b04b6707abc"},"vehicle_type_id":"4","last_reported":1741885600,"current_range_meters":16800,"station_id":"ce4bhn12rcd13ifvqgqg","pricing_plan_id":"cebpf4jnsgd1na2vs0mg"},{"bike_id":"ba0ff314-18b8-4ef6-b3f3-756e797defc3","system_id":"levelo_inurba_marseille","lat":43.30782,"lon":5.37653,"is_reserved":false,"is_disabled":false,"rental_uris":{"android":"levelo://app?vid=ba0ff314-18b8-4ef6-b3f3-756e797defc3","ios":"levelo://app?vid=ba0ff314-18b8-4ef6-b3f3-756e797defc3"},"vehicle_type_id":"4","last_reported":1741885600,"current_range_meters":16800,"station_id":"ce4bgv92rcd13ifvqcq0","pricing_plan_id":"cebpf4jnsgd1na2vs0mg"},{"bike_id":"3b5238ed-e6ef-44c4-ac93-f8e070990b1c","system_id":"levelo_inurba_marseille","lat":43.25688,"lon":5.41101,"is_reserved":false,"is_disabled":false,"rental_uris":{"android":"levelo://app?vid=3b5238ed-e6ef-44c4-ac93-f8e070990b1c","ios":"levelo://app?vid=3b5238ed-e6ef-44c4-ac93-f8e070990b1c"},"vehicle_type_id":"4","last_reported":1741885600,"current_range_meters":16800,"station_id":"ce4bhkp2rcd13ifvqgd0","pricing_plan_id":"cebpf4jnsgd1na2vs0mg"},{"bike_id":"31c8862d-1f7d-4f69-a37f-93c25c9ce4d5","system_id":"levelo_inurba_marseille","lat":43.25012,"lon":5.38935,"is_reserved":false,"is_disabled":false,"rental_uris":{"android":"levelo://app?vid=31c8862d-1f7d-4f69-a37f-93c25c9ce4d5","ios":"levelo://app?vid=31c8862d-1f7d-4f69-a37f-93c25c9ce4d5"},"vehicle_type_id":"4","last_reported":1741885600,"current_range_meters":16800,"station_id":"ce4bhgp2rcd13ifvqfd0","pricing_plan_id":"cebpf4jnsgd1na2vs0mg"},{"bike_id":"d98e5f37-4f71-4a36-9b3b-496f87de0d61","system_id":"levelo_inurba_marseille","lat":43.31111,"lon":5.3758,"is_reserved":false,"is_disabled":false,"rental_uris":{"android":"levelo://app?vid=d98e5f37-4f71-4a36-9b3b-496f87de0d61","ios":"levelo://app?vid=d98e5f37-4f71-4a36-9b3b-496f87de0d61"},"vehicle_type_id":"4","last_reported":1741885600,"current_range_meters":16800,"station_id":"","pricing_plan_id":"cebpf4jnsgd1na2vs0mg"},{"bike_id":"d98668c6-4b1e-4720-a80e-1a2176239e6c","system_id":"levelo_inurba_marseille","lat":43.27969,"lon":5.38748,"is_reserved":false,"is_disabled":false,"rental_uris":{"android":"levelo://app?vid=d98668c6-4b1e-4720-a80e-1a2176239e6c","ios":"levelo://app?vid=d98668c6-4b1e-4720-a80e-1a2176239e6c"},"vehicle_type_id":"4","last_reported":1741885600,"current_range_meters":16800,"station_id":"ce4bhg12rcd13ifvqf80","pricing_plan_id":"cebpf4jnsgd1na2vs0mg"},{"bike_id":"bd7fb638-a561-41df-90ca-f32685780427","system_id":"levelo_inurba_marseille","lat":43.22924,"lon":5.35371,"is_reserved":false,"is_disabled":false,"rental_uris":{"android":"levelo://app?vid=bd7fb638-a561-41df-90ca-f32685780427","ios":"levelo://app?vid=bd7fb638-a561-41df-90ca-f32685780427"},"vehicle_type_id":"4","last_reported":1741885600,"current_range_meters":16800,"station_id":"cpo3532slgdg3j2ikp40","pricing_plan_id":"cebpf4jnsgd1na2vs0mg"},{"bike_id":"a095ab76-70b4-4b06-bf63-6dcce3e8cf39","system_id":"levelo_inurba_marseille","lat":43.305461,"lon":5.367041,"is_reserved":false,"is_disabled":false,"rental_uris":{"android":"levelo://app?vid=a095ab76-70b4-4b06-bf63-6dcce3e8cf39","ios":"levelo://app?vid=a095ab76-70b4-4b06-bf63-6dcce3e8cf39"},"vehicle_type_id":"4","last_reported":1741885600,"current_range_meters":16800,"station_id":"ce4bgrp2rcd13ifvqc9g","pricing_plan_id":"cebpf4jnsgd1na2vs0mg"},{"bike_id":"73dcc6a7-b2b1-4401-a27e-7c79a43471a2","system_id":"levelo_inurba_marseille","lat":43.23201,"lon":5.35551,"is_reserved":false,"is_disabled":false,"rental_uris":{"android":"levelo://app?vid=73dcc6a7-b2b1-4401-a27e-7c79a43471a2","ios":"levelo://app?vid=73dcc6a7-b2b1-4401-a27e-7c79a43471a2"},"vehicle_type_id":"4","last_reported":1741885600,"current_range_meters":16800,"station_id":"ce4bhu92rcd13ifvqi70","pricing_plan_id":"cebpf4jnsgd1na2vs0mg"},{"bike_id":"c7270f94-cd37-4cfa-9ef1-d0cdc754a19d","system_id":"levelo_inurba_marseille","lat":43.33012,"lon":5.39058,"is_reserved":false,"is_disabled":false,"rental_uris":{"android":"levelo://app?vid=c7270f94-cd37-4cfa-9ef1-d0cdc754a19d","ios":"levelo://app?vid=c7270f94-cd37-4cfa-9ef1-d0cdc754a19d"},"vehicle_type_id":"4","last_reported":1741885600,"current_range_meters":17200,"station_id":"ce4bhr92rcd13ifvqhrg","pricing_plan_id":"cebpf4jnsgd1na2vs0mg"},{"bike_id":"e01ecfe2-967a-4bf8-a55f-391d6abe8b49","system_id":"levelo_inurba_marseille","lat":43.27676,"lon":5.38896,"is_reserved":false,"is_disabled":false,"rental_uris":{"android":"levelo://app?vid=e01ecfe2-967a-4bf8-a55f-391d6abe8b49","ios":"levelo://app?vid=e01ecfe2-967a-4bf8-a55f-391d6abe8b49"},"vehicle_type_id":"4","last_reported":1741885600,"current_range_meters":16800,"station_id":"ce4bhi12rcd13ifvqfo0","pricing_plan_id":"cebpf4jnsgd1na2vs0mg"},{"bike_id":"59822710-2d10-4517-868b-42cfab329759","system_id":"levelo_inurba_marseille","lat":43.231875,"lon":5.355567,"is_reserved":false,"is_disabled":false,"rental_uris":{"android":"levelo://app?vid=59822710-2d10-4517-868b-42cfab329759","ios":"levelo://app?vid=59822710-2d10-4517-868b-42cfab329759"},"vehicle_type_id":"4","last_reported":1741885600,"current_range_meters":17200,"station_id":"ce4bhu92rcd13ifvqi70","pricing_plan_id":"cebpf4jnsgd1na2vs0mg"},{"bike_id":"44aa5383-3423-407e-929c-420d108f0a77","system_id":"levelo_inurba_marseille","lat":43.28469,"lon":5.35888,"is_reserved":false,"is_disabled":false,"rental_uris":{"android":"levelo://app?vid=44aa5383-3423-407e-929c-420d108f0a77","ios":"levelo://app?vid=44aa5383-3423-407e-929c-420d108f0a77"},"vehicle_type_id":"4","last_reported":1741885600,"current_range_meters":16800,"station_id":"ce4bhah2rcd13ifvqei0","pricing_plan_id":"cebpf4jnsgd1na2vs0mg"},{"bike_id":"ecb9b478-8006-4756-b61d-650f1759b154","system_id":"levelo_inurba_marseille","lat":43.25584,"lon":5.38228,"is_reserved":false,"is_disabled":false,"rental_uris":{"android":"levelo://app?vid=ecb9b478-8006-4756-b61d-650f1759b154","ios":"levelo://app?vid=ecb9b478-8006-4756-b61d-650f1759b154"},"vehicle_type_id":"4","last_reported":1741885600,"current_range_meters":17200,"station_id":"ce4bhih2rcd13ifvqfs0","pricing_plan_id":"cebpf4jnsgd1na2vs0mg"},{"bike_id":"83f26668-6783-42ea-ac69-ba064de8dc92","system_id":"levelo_inurba_marseille","lat":43.30799,"lon":5.43522,"is_reserved":false,"is_disabled":false,"rental_uris":{"android":"levelo://app?vid=83f26668-6783-42ea-ac69-ba064de8dc92","ios":"levelo://app?vid=83f26668-6783-42ea-ac69-ba064de8dc92"},"vehicle_type_id":"4","last_reported":1741885600,"current_range_meters":17600,"station_id":"ce4bhph2rcd13ifvqheg","pricing_plan_id":"cebpf4jnsgd1na2vs0mg"},{"bike_id":"07c72146-04d2-40c0-8674-54cd753f78e1","system_id":"levelo_inurba_marseille","lat":43.25005,"lon":5.38923,"is_reserved":false,"is_disabled":false,"rental_uris":{"android":"levelo://app?vid=07c72146-04d2-40c0-8674-54cd753f78e1","ios":"levelo://app?vid=07c72146-04d2-40c0-8674-54cd753f78e1"},"vehicle_type_id":"4","last_reported":1741885600,"current_range_meters":17600,"station_id":"ce4bhgp2rcd13ifvqfd0","pricing_plan_id":"cebpf4jnsgd1na2vs0mg"},{"bike_id":"336e0223-636e-4fd3-b534-e5d43b99146d","system_id":"levelo_inurba_marseille","lat":43.29538,"lon":5.3854,"is_reserved":false,"is_disabled":false,"rental_uris":{"android":"levelo://app?vid=336e0223-636e-4fd3-b534-e5d43b99146d","ios":"levelo://app?vid=336e0223-636e-4fd3-b534-e5d43b99146d"},"vehicle_type_id":"4","last_reported":1741885600,"current_range_meters":17600,"station_id":"ce4bgih2rcd13ifvqba0","pricing_plan_id":"cebpf4jnsgd1na2vs0mg"},{"bike_id":"d81764b6-52f8-4ad4-9343-2399587fdf44","system_id":"levelo_inurba_marseille","lat":43.27842,"lon":5.392,"is_reserved":false,"is_disabled":false,"rental_uris":{"android":"levelo://app?vid=d81764b6-52f8-4ad4-9343-2399587fdf44","ios":"levelo://app?vid=d81764b6-52f8-4ad4-9343-2399587fdf44"},"vehicle_type_id":"4","last_reported":1741885600,"current_range_meters":17200,"station_id":"ce4bhjp2rcd13ifvqga0","pricing_plan_id":"cebpf4jnsgd1na2vs0mg"},{"bike_id":"04f149c6-a120-4218-b435-a952d9eb67d0","system_id":"levelo_inurba_marseille","lat":43.24865,"lon":5.40637,"is_reserved":false,"is_disabled":false,"rental_uris":{"android":"levelo://app?vid=04f149c6-a120-4218-b435-a952d9eb67d0","ios":"levelo://app?vid=04f149c6-a120-4218-b435-a952d9eb67d0"},"vehicle_type_id":"4","last_reported":1741885600,"current_range_meters":17600,"station_id":"","pricing_plan_id":"cebpf4jnsgd1na2vs0mg"},{"bike_id":"e816af76-4f68-4d64-82c4-8243ac205560","system_id":"levelo_inurba_marseille","lat":43.2846,"lon":5.38534,"is_reserved":false,"is_disabled":false,"rental_uris":{"android":"levelo://app?vid=e816af76-4f68-4d64-82c4-8243ac205560","ios":"levelo://app?vid=e816af76-4f68-4d64-82c4-8243ac205560"},"vehicle_type_id":"4","last_reported":1741885600,"current_range_meters":18000,"station_id":"ce4bh8p2rcd13ifvqeb0","pricing_plan_id":"cebpf4jnsgd1na2vs0mg"},{"bike_id":"2599287c-7b5e-4c90-a291-a0d3303a418b","system_id":"levelo_inurba_marseille","lat":43.3055,"lon":5.36541,"is_reserved":false,"is_disabled":false,"rental_uris":{"android":"levelo://app?vid=2599287c-7b5e-4c90-a291-a0d3303a418b","ios":"levelo://app?vid=2599287c-7b5e-4c90-a291-a0d3303a418b"},