{"last_updated":1700910292,"ttl":30,"version":"2.2","data":{"bikes":[{"bike_id":"d7885354-bdc8-4037-a9e2-c9067ee31e8e","system_id":"levelo_inurba_marseille","lat":43.312239,"lon":5.368562,"is_reserved":false,"is_disabled":false,"rental_uris":{"android":"levelo://app?vid=d7885354-bdc8-4037-a9e2-c9067ee31e8e","ios":"levelo://app?vid=d7885354-bdc8-4037-a9e2-c9067ee31e8e"},"vehicle_type_id":"4","last_reported":1700910292,"current_range_meters":28000,"station_id":"ce4bgl92rcd13ifvqbq0","pricing_plan_id":"free"},{"bike_id":"f2f936aa-0eca-49f2-8439-9fc2cf39df99","system_id":"levelo_inurba_marseille","lat":43.314811,"lon":5.373103,"is_reserved":false,"is_disabled":false,"rental_uris":{"android":"levelo://app?vid=f2f936aa-0eca-49f2-8439-9fc2cf39df99","ios":"levelo://app?vid=f2f936aa-0eca-49f2-8439-9fc2cf39df99"},"vehicle_type_id":"4","last_reported":1700910292,"current_range_meters":27600,"station_id":"ce4bgt12rcd13ifvqcd0","pricing_plan_id":"free"},{"bike_id":"e7f352cb-a592-41d5-a383-6020df60850e","system_id":"levelo_inurba_marseille","lat":43.305368,"lon":5.367343,"is_reserved":false,"is_disabled":false,"rental_uris":{"android":"levelo://app?vid=e7f352cb-a592-41d5-a383-6020df60850e","ios":"levelo://app?vid=e7f352cb-a592-41d5-a383-6020df60850e"},"vehicle_type_id":"4","last_reported":1700910292,"current_range_meters":28000,"station_id":"ce4bgrp2rcd13ifvqc9g","pricing_plan_id":"free"},{"bike_id":"04292301-7fde-4f9a-92f5-9623d9d80b51","system_id":"levelo_inurba_marseille","lat":43.30538,"lon":5.36708,"is_reserved":false,"is_disabled":false,"rental_uris":{"android":"levelo://app?vid=04292301-7fde-4f9a-92f5-9623d9d80b51","ios":"levelo://app?vid=04292301-7fde-4f9a-92f5-9623d9d80b51"},"vehicle_type_id":"4","last_reported":1700910292,"current_range_meters":15600,"station_id":"ce4bgrp2rcd13ifvqc9g","pricing_plan_id":"free"},{"bike_id":"96302e5f-683e-4d40-b8a0-7482af3c2665","system_id":"levelo_inurba_marseille","lat":43.305714,"lon":5.365633,"is_reserved":false,"is_disabled":false,"rental_uris":{"android":"levelo://app?vid=96302e5f-683e-4d40-b8a0-7482af3c2665","ios":"levelo://app?vid=96302e5f-683e-4d40-b8a0-7482af3c2665"},"vehicle_type_id":"4","last_reported":1700910292,"current_range_meters":27200,"station_id":"ce4bgs12rcd13ifvqcag","pricing_plan_id":"free"},{"bike_id":"860e6e17-f684-4f37-813a-92015689ba03","system_id":"levelo_inurba_marseille","lat":43.305714,"lon":5.365633,"is_reserved":false,"is_disabled":false,"rental_uris":{"android":"levelo://app?vid=860e6e17-f684-4f37-813a-92015689ba03","ios":"levelo://app?vid=860e6e17-f684-4f37-813a-92015689ba03"},"vehicle_type_id":"4","last_reported":1700910292,"current_range_meters":800,"station_id":"ce4bgs12rcd13ifvqcag","pricing_plan_id":"free"},{"bike_id":"bcecd54a-f8b9-4f5f-92d9-4e55a142eb88","system_id":"levelo_inurba_marseille","lat":43.305368,"lon":5.367343,"is_reserved":false,"is_disabled":false,"rental_uris":{"android":"levelo://app?vid=bcecd54a-f8b9-4f5f-92d9-4e55a142eb88","ios":"levelo://app?vid=bcecd54a-f8b9-4f5f-92d9-4e55a142eb88"},"vehicle_type_id":"4","last_reported":1700910292,"current_range_meters":16000,"station_id":"ce4bgrp2rcd13ifvqc9g","pricing_plan_id":"free"},{"bike_id":"637f8605-bfc9-40a4-93ec-d77ddb085d37","system_id":"levelo_inurba_marseille","lat":43.30526,"lon":5.36713,"is_reserved":false,"is_disabled":false,"rental_uris":{"android":"levelo://app?vid=637f8605-bfc9-40a4-93ec-d77ddb085d37","ios":"levelo://app?vid=637f8605-bfc9-40a4-93ec-d77ddb085d37"},"vehicle_type_id":"4","last_reported":1700910292,"current_range_meters":22800,"station_id":"ce4bgrp2rcd13ifvqc9g","pricing_plan_id":"free"},{"bike_id":"0e3a20c0-fbe4-4be1-8a70-167c2d1fc9f6","system_id":"levelo_inurba_marseille","lat":43.30518,"lon":5.365651,"is_reserved":false,"is_disabled":false,"rental_uris":{"android":"levelo://app?vid=0e3a20c0-fbe4-4be1-8a70-167c2d1fc9f6","ios":"levelo://app?vid=0e3a20c0-fbe4-4be1-8a70-167c2d1fc9f6"},"vehicle_type_id":"4","last_reported":1700910292,"current_range_meters":0,"station_id":"ce4bgs12rcd13ifvqcag","pricing_plan_id":"free"},{"bike_id":"d3e53f8c-09af-47c3-b8d9-1ff70b3e039c","system_id":"levelo_inurba_marseille","lat":43.305989,"lon":5.37225,"is_reserved":false,"is_disabled":false,"rental_uris":{"android":"levelo://app?vid=d3e53f8c-09af-47c3-b8d9-1ff70b3e039c","ios":"levelo://app?vid=d3e53f8c-09af-47c3-b8d9-1ff70b3e039c"},"vehicle_type_id":"4","last_reported":1700910292,"current_range_meters":18000,"station_id":"ce4bgqh2rcd13ifvqc4g","pricing_plan_id":"free"},{"bike_id":"573a870a-b6c4-429d-8587-8103772b84bc","system_id":"levelo_inurba_marseille","lat":43.308174,"lon":5.37656,"is_reserved":false,"is_disabled":false,"rental_uris":{"android":"levelo://app?vid=573a870a-b6c4-429d-8587-8103772b84bc","ios":"levelo://app?vid=573a870a-b6c4-429d-8587-8103772b84bc"},"vehicle_type_id":"4","last_reported":1700910292,"current_range_meters":5600,"station_id":"ce4bgv92rcd13ifvqcq0","pricing_plan_id":"free"},{"bike_id":"f427a2c3-6e4a-446b-ae2f-9be8aa7f4122","system_id":"levelo_inurba_marseille","lat":43.31719,"lon":5.376813,"is_reserved":false,"is_disabled":false,"rental_uris":{"android":"levelo://app?vid=f427a2c3-6e4a-446b-ae2f-9be8aa7f4122","ios":"levelo://app?vid=f427a2c3-6e4a-446b-ae2f-9be8aa7f4122"},"vehicle_type_id":"4","last_reported":1700910292,"current_range_meters":25200,"station_id":"ce4bgth2rcd13ifvqch0","pricing_plan_id":"free"},{"bike_id":"b898b018-f57d-4901-bab2-fdd15d391de9","system_id":"levelo_inurba_marseille","lat":43.317168,"lon":5.376883,"is_reserved":false,"is_disabled":false,"rental_uris":{"android":"levelo://app?vid=b898b018-f57d-4901-bab2-fdd15d391de9","ios":"levelo://app?vid=b898b018-f57d-4901-bab2-fdd15d391de9"},"vehicle_type_id":"4","last_reported":1700910292,"current_range_meters":27600,"station_id":"ce4bgth2rcd13ifvqch0","pricing_plan_id":"free"},{"bike_id":"a959278e-801d-4b4c-95ff-ccaddcdfd8b0","system_id":"levelo_inurba_marseille","lat":43.307945,"lon":5.376487,"is_reserved":false,"is_disabled":false,"rental_uris":{"android":"levelo://app?vid=a959278e-801d-4b4c-95ff-ccaddcdfd8b0","ios":"levelo://app?vid=a959278e-801d-4b4c-95ff-ccaddcdfd8b0"},"vehicle_type_id":"4","last_reported":1700910292,"current_range_meters":23600,"station_id":"ce4bgv92rcd13ifvqcq0","pricing_plan_id":"free"},{"bike_id":"96d8b17b-2d9c-444e-85da-0ccf1e2c2c88","system_id":"levelo_inurba_marseille","lat":43.303046,"lon":5.368981,"is_reserved":false,"is_disabled":false,"rental_uris":{"android":"levelo://app?vid=96d8b17b-2d9c-444e-85da-0ccf1e2c2c88","ios":"levelo://app?vid=96d8b17b-2d9c-444e-85da-0ccf1e2c2c88"},"vehicle_type_id":"4","last_reported":1700910292,"current_range_meters":30000,"station_id":"ce4bgqh2rcd13ifvqc5g","pricing_plan_id":"free"},{"bike_id":"d69025b0-8b89-4c4d-be9b-24cc15a18fef","system_id":"levelo_inurba_marseille","lat":43.30272,"lon":5.36906,"is_reserved":false,"is_disabled":false,"rental_uris":{"android":"levelo://app?vid=d69025b0-8b89-4c4d-be9b-24cc15a18fef","ios":"levelo://app?vid=d69025b0-8b89-4c4d-be9b-24cc15a18fef"},"vehicle_type_id":"4","last_reported":1700910292,"current_range_meters":17600,"station_id":"","pricing_plan_id":"free"},{"bike_id":"1611dee5-549d-45c3-b156-2cb059e56e36","system_id":"levelo_inurba_marseille","lat":43.301939,"lon":5.366286,"is_reserved":false,"is_disabled":false,"rental_uris":{"android":"levelo://app?vid=1611dee5-549d-45c3-b156-2cb059e56e36","ios":"levelo://app?vid=1611dee5-549d-45c3-b156-2cb059e56e36"},"vehicle_type_id":"4","last_reported":1700910292,"current_range_meters":19600,"station_id":"ce4bgrh2rcd13ifvqc8g","pricing_plan_id":"free"},{"bike_id":"6df8e094-5e0f-4b61-b2d0-005feedb4e3f","system_id":"levelo_inurba_marseille","lat":43.301939,"lon":5.366286,"is_reserved":false,"is_disabled":false,"rental_uris":{"android":"levelo://app?vid=6df8e094-5e0f-4b61-b2d0-005feedb4e3f","ios":"levelo://app?vid=6df8e094-5e0f-4b61-b2d0-005feedb4e3f"},"vehicle_type_id":"4","last_reported":1700910292,"current_range_meters":9600,"station_id":"ce4bgrh2rcd13ifvqc8g","pricing_plan_id":"free"},{"bike_id":"6b4a8029-bffc-4c96-bbad-d0fde5d374a5","system_id":"levelo_inurba_marseille","lat":43.301941,"lon":5.36621,"is_reserved":false,"is_disabled":false,"rental_uris":{"android":"levelo://app?vid=6b4a8029-bffc-4c96-bbad-d0fde5d374a5","ios":"levelo://app?vid=6b4a8029-bffc-4c96-bbad-d0fde5d374a5"},"vehicle_type_id":"4","last_reported":1700910292,"current_range_meters":20000,"station_id":"","pricing_plan_id":"free"},{"bike_id":"71b655f2-25a9-4063-b0f4-00952a85347d","system_id":"levelo_inurba_marseille","lat":43.301939,"lon":5.366286,"is_reserved":false,"is_disabled":false,"rental_uris":{"android":"levelo://app?vid=71b655f2-25a9-4063-b0f4-00952a85347d","ios":"levelo://app?vid=71b655f2-25a9-4063-b0f4-00952a85347d"},"vehicle_type_id":"4","last_reported":1700910292,"current_range_meters":18800,"station_id":"ce4bgrh2rcd13ifvqc8g","pricing_plan_id":"free"},{"bike_id":"ca7137eb-871d-4638-97ab-10a4c77bef2f","system_id":"levelo_inurba_marseille","lat":43.304606,"lon":5.379026,"is_reserved":false,"is_disabled":false,"rental_uris":{"android":"levelo://app?vid=ca7137eb-871d-4638-97ab-10a4c77bef2f","ios":"levelo://app?vid=ca7137eb-871d-4638-97ab-10a4c77bef2f"},"vehicle_type_id":"4","last_reported":1700910292,"current_range_meters":16000,"station_id":"ce4bgup2rcd13ifvqcn0","pricing_plan_id":"free"},{"bike_id":"bf1edac7-01c3-4a8d-87a2-ec482f7fd87f","system_id":"levelo_inurba_marseille","lat":43.302784,"lon":5.377158,"is_reserved":false,"is_disabled":false,"rental_uris":{"android":"levelo://app?vid=bf1edac7-01c3-4a8d-87a2-ec482f7fd87f","ios":"levelo://app?vid=bf1edac7-01c3-4a8d-87a2-ec482f7fd87f"},"vehicle_type_id":"4","last_reported":1700910292,"current_range_meters":23200,"station_id":"ce4bguh2rcd13ifvqcj0","pricing_plan_id":"free"},{"bike_id":"0a19762a-184f-4351-8316-fbb66e1a254b","system_id":"levelo_inurba_marseille","lat":43.301429,"lon":5.37413,"is_reserved":false,"is_disabled":false,"rental_uris":{"android":"levelo://app?vid=0a19762a-184f-4351-8316-fbb66e1a254b","ios":"levelo://app?vid=0a19762a-184f-4351-8316-fbb66e1a254b"},"vehicle_type_id":"4","last_reported":1700910292,"current_range_meters":28000,"station_id":"ce4bgs92rcd13ifvqcc0","pricing_plan_id":"free"},{"bike_id":"458f3f96-f80d-4add-ae69-9860bc8fd2d0","system_id":"levelo_inurba_marseille","lat":43.302784,"lon":5.377158,"is_reserved":false,"is_disabled":false,"rental_uris":{"android":"levelo://app?vid=458f3f96-f80d-4add-ae69-9860bc8fd2d0","ios":"levelo://app?vid=458f3f96-f80d-4add-ae69-9860bc8fd2d0"},"vehicle_type_id":"4","last_reported":1700910292,"current_range_meters":28800,"station_id":"ce4bguh2rcd13ifvqcj0","pricing_plan_id":"free"},{"bike_id":"445dc21f-14be-42db-a519-d18d5f7c1052","system_id":"levelo_inurba_marseille","lat":43.302784,"lon":5.377158,"is_reserved":false,"is_disabled":false,"rental_uris":{"android":"levelo://app?vid=445dc21f-14be-42db-a519-d18d5f7c1052","ios":"levelo://app?vid=445dc21f-14be-42db-a519-d18d5f7c1052"},"vehicle_type_id":"4","last_reported":1700910292,"current_range_meters":400,"station_id":"ce4bguh2rcd13ifvqcj0","pricing_plan_id":"free"},{"bike_id":"297c48cb-ada2-41fa-a9b3-36f330453cd6","system_id":"levelo_inurba_marseille","lat":43.319968,"lon":5.381502,"is_reserved":false,"is_disabled":false,"rental_uris":{"android":"levelo://app?vid=297c48cb-ada2-41fa-a9b3-36f330453cd6","ios":"levelo://app?vid=297c48cb-ada2-41fa-a9b3-36f330453cd6"},"vehicle_type_id":"4","last_reported":1700910292,"current_range_meters":30400,"station_id":"ce4bhr12rcd13ifvqhpg","pricing_plan_id":"free"},{"bike_id":"b26e99ca-4d47-4ed0-b501-a4b987ea012a","system_id":"levelo_inurba_marseille","lat":43.31996,"lon":5.38152,"is_reserved":false,"is_disabled":false,"rental_uris":{"android":"levelo://app?vid=b26e99ca-4d47-4ed0-b501-a4b987ea012a","ios":"levelo://app?vid=b26e99ca-4d47-4ed0-b501-a4b987ea012a"},"vehicle_type_id":"4","last_reported":1700910292,"current_range_meters":25200,"station_id":"ce4bhr12rcd13ifvqhpg","pricing_plan_id":"free"},{"bike_id":"babfdd7e-6cd2-4e72-8866-ac8539f5db7f","system_id":"levelo_inurba_marseille","lat":43.319932,"lon":5.381558,"is_reserved":false,"is_disabled":false,"rental_uris":{"android":"levelo://app?vid=babfdd7e-6cd2-4e72-8866-ac8539f5db7f","ios":"levelo://app?vid=babfdd7e-6cd2-4e72-8866-ac8539f5db7f"},"vehicle_type_id":"4","last_reported":1700910292,"current_range_meters":31200,"station_id":"ce4bhr12rcd13ifvqhpg","pricing_plan_id":"free"},{"bike_id":"80b4b238-9cb7-425f-a795-42b1e665cae2","system_id":"levelo_inurba_marseille","lat":43.298433,"lon":5.362774,"is_reserved":false,"is_disabled":false,"rental_uris":{"android":"levelo://app?vid=80b4b238-9cb7-425f-a795-42b1e665cae2","ios":"levelo://app?vid=80b4b238-9cb7-425f-a795-42b1e665cae2"},"vehicle_type_id":"4","last_reported":1700910292,"current_range_meters":27600,"station_id":"ce4bgpp2rcd13ifvqc3g","pricing_plan_id":"free"},{"bike_id":"69ab7a24-ecbd-4714-be79-752e7f5da948","system_id":"levelo_inurba_marseille","lat":43.305364,"lon":5.384119,"is_reserved":false,"is_disabled":false,"rental_uris":{"android":"levelo://app?vid=69ab7a24-ecbd-4714-be79-752e7f5da948","ios":"levelo://app?vid=69ab7a24-ecbd-4714-be79-752e7f5da948"},"vehicle_type_id":"4","last_reported":1700910292,"current_range_meters":19600,"station_id":"ce4bgg92rcd13ifvqb30","pricing_plan_id":"free"},{"bike_id":"7b5091e8-98b2-42b1-9201-4422c3ef7eda","system_id":"levelo_inurba_marseille","lat":43.299243,"lon":5.37481,"is_reserved":false,"is_disabled":false,"rental_uris":{"android":"levelo://app?vid=7b5091e8-98b2-42b1-9201-4422c3ef7eda","ios":"levelo://app?vid=7b5091e8-98b2-42b1-9201-4422c3ef7eda"},"vehicle_type_id":"4","last_reported":1700910292,"current_range_meters":31600,"station_id":"ce4bgjh2rcd13ifvqbg0","pricing_plan_id":"free"},{"bike_id":"a6ad5fd3-7465-44ef-a0c7-1f3261e74a7c","system_id":"levelo_inurba_marseille","lat":43.298433,"lon":5.362774,"is_reserved":false,"is_disabled":false,"rental_uris":{"android":"levelo://app?vid=a6ad5fd3-7465-44ef-a0c7-1f3261e74a7c","ios":"levelo://app?vid=a6ad5fd3-7465-44ef-a0c7-1f3261e74a7c"},"vehicle_type_id":"4","last_reported":1700910292,"current_range_meters":27200,"station_id":"ce4bgpp2rcd13ifvqc3g","pricing_plan_id":"free"},{"bike_id":"00d1f15b-e104-4bc9-8676-18ac62d133b4","system_id":"levelo_inurba_marseille","lat":43.299243,"lon":5.37481,"is_reserved":false,"is_disabled":false,"rental_uris":{"android":"levelo://app?vid=00d1f15b-e104-4bc9-8676-18ac62d133b4","ios":"levelo://app?vid=00d1f15b-e104-4bc9-8676-18ac62d133b4"},"vehicle_type_id":"4","last_reported":1700910292,"current_range_meters":5600,"station_id":"ce4bgjh2rcd13ifvqbg0","pricing_plan_id":"free"},{"bike_id":"09eebb08-1c76-4705-ad5d-21f288103669","system_id":"levelo_inurba_marseille","lat":43.298433,"lon":5.362774,"is_reserved":false,"is_disabled":false,"rental_uris":{"android":"levelo://app?vid=09eebb08-1c76-4705-ad5d-21f288103669","ios":"levelo://app?vid=09eebb08-1c76-4705-ad5d-21f288103669"},"vehicle_type_id":"4","last_reported":1700910292,"current_range_meters":30400,"station_id":"ce4bgpp2rcd13ifvqc3g","pricing_plan_id":"free"},{"bike_id":"ac33c663-bada-4969-b0dd-5de29c260695","system_id":"levelo_inurba_marseille","lat":43.298433,"lon":5.362774,"is_reserved":false,"is_disabled":false,"rental_uris":{"android":"levelo://app?vid=ac33c663-bada-4969-b0dd-5de29c260695","ios":"levelo://app?vid=ac33c663-bada-4969-b0dd-5de29c260695"},"vehicle_type_id":"4","last_reported":1700910292,"current_range_meters":26400,"station_id":"ce4bgpp2rcd13ifvqc3g","pricing_plan_id":"free"},{"bike_id":"79db08d7-c27f-497f-9bae-099123fafc3e","system_id":"levelo_inurba_marseille","lat":43.298433,"lon":5.362774,"is_reserved":false,"is_disabled":false,"rental_uris":{"android":"levelo://app?vid=79db08d7-c27f-497f-9bae-099123fafc3e","ios":"levelo://app?vid=79db08d7-c27f-497f-9bae-099123fafc3e"},"vehicle_type_id":"4","last_reported":1700910292,"current_range_meters":12000,"station_id":"ce4bgpp2rcd13ifvqc3g","pricing_plan_id":"free"},{"bike_id":"7fcc362e-91b2-4b7b-b041-600e889ab4b7","system_id":"levelo_inurba_marseille","lat":43.297794,"lon":5.370888,"is_reserved":false,"is_disabled":false,"rental_uris":{"android":"levelo://app?vid=7fcc362e-91b2-4b7b-b041-600e889ab4b7","ios":"levelo://app?vid=7fcc362e-91b2-4b7b-b041-600e889ab4b7"},"vehicle_type_id":"4","last_reported":1700910292,"current_range_meters":24400,"station_id":"ce4bgop2rcd13ifvqc1g","pricing_plan_id":"free"},{"bike_id":"352150d9-e36f-4d6d-b7b5-03a791326d3e","system_id":"levelo_inurba_marseille","lat":43.297794,"lon":5.370888,"is_reserved":false,"is_disabled":false,"rental_uris":{"android":"levelo://app?vid=352150d9-e36f-4d6d-b7b5-03a791326d3e","ios":"levelo://app?vid=352150d9-e36f-4d6d-b7b5-03a791326d3e"},"vehicle_type_id":"4","last_reported":1700910292,"current_range_meters":30400,"station_id":"ce4bgop2rcd13ifvqc1g","pricing_plan_id":"free"},{"bike_id":"8791a58e-e3a0-43a8-b083-b15b0d3679b4","system_id":"levelo_inurba_marseille","lat":43.328371,"lon":5.366912,"is_reserved":false,"is_disabled":false,"rental_uris":{"android":"levelo://app?vid=8791a58e-e3a0-43a8-b083-b15b0d3679b4","ios":"levelo://app?vid=8791a58e-e3a0-43a8-b083-b15b0d3679b4"},"vehicle_type_id":"4","last_reported":1700910292,"current_range_meters":3600,"station_id":"ce4bhs92rcd13ifvqi0g","pricing_plan_id":"free"},{"bike_id":"07a03e0e-e12b-474e-a940-8baf07c98432","system_id":"levelo_inurba_marseille","lat":43.32832,"lon":5.36677,"is_reserved":false,"is_disabled":false,"rental_uris":{"android":"levelo://app?vid=07a03e0e-e12b-474e-a940-8baf07c98432","ios":"levelo://app?vid=07a03e0e-e12b-474e-a940-8baf07c98432"},"vehicle_type_id":"4","last_reported":1700910292,"current_range_meters":15600,"station_id":"ce4bhs92rcd13ifvqi0g","pricing_plan_id":"free"},{"bike_id":"6fcbe473-9658-42fa-8758-c7e0be57418f","system_id":"levelo_inurba_marseille","lat":43.32837,"lon":5.3669,"is_reserved":false,"is_disabled":false,"rental_uris":{"android":"levelo://app?vid=6fcbe473-9658-42fa-8758-c7e0be57418f","ios":"levelo://app?vid=6fcbe473-9658-42fa-8758-c7e0be57418f"},"vehicle_type_id":"4","last_reported":1700910292,"current_range_meters":12800,"station_id":"ce4bhs92rcd13ifvqi0g","pricing_plan_id":"free"},{"bike_id":"319846df-048c-433c-beef-c4cf6361e7df","system_id":"levelo_inurba_marseille","lat":43.297163,"lon":5.365866,"is_reserved":false,"is_disabled":false,"rental_uris":{"android":"levelo://app?vid=319846df-048c-433c-beef-c4cf6361e7df","ios":"levelo://app?vid=319846df-048c-433c-beef-c4cf6361e7df"},"vehicle_type_id":"4","last_reported":1700910292,"current_range_meters":30000,"station_id":"ce4bgn12rcd13ifvqbt0","pricing_plan_id":"free"},{"bike_id":"80733c34-8baf-4900-961c-60568fbd60a0","system_id":"levelo_inurba_marseille","lat":43.2968,"lon":5.37291,"is_reserved":false,"is_disabled":false,"rental_uris":{"android":"levelo://app?vid=80733c34-8baf-4900-961c-60568fbd60a0","ios":"levelo://app?vid=80733c34-8baf-4900-961c-60568fbd60a0"},"vehicle_type_id":"4","last_reported":1700910292,"current_range_meters":24800,"station_id":"ce4bgk12rcd13ifvqbj0","pricing_plan_id":"free"},{"bike_id":"3e3a1b53-20a3-4b36-9e94-037d2a213a15","system_id":"levelo_inurba_marseille","lat":43.296129,"lon":5.370777,"is_reserved":false,"is_disabled":false,"rental_uris":{"android":"levelo://app?vid=3e3a1b53-20a3-4b36-9e94-037d2a213a15","ios":"levelo://app?vid=3e3a1b53-20a3-4b36-9e94-037d2a213a15"},"vehicle_type_id":"4","last_reported":1700910292,"current_range_meters":27200,"station_id":"ce4bgnh2rcd13ifvqc0g","pricing_plan_id":"free"},{"bike_id":"11f77723-1b30-4487-8e52-b663c43af7a6","system_id":"levelo_inurba_marseille","lat":43.296131,"lon":5.370791,"is_reserved":false,"is_disabled":false,"rental_uris":{"android":"levelo://app?vid=11f77723-1b30-4487-8e52-b663c43af7a6","ios":"levelo://app?vid=11f77723-1b30-4487-8e52-b663c43af7a6"},"vehicle_type_id":"4","last_reported":1700910292,"current_range_meters":30800,"station_id":"ce4bgnh2rcd13ifvqc0g","pricing_plan_id":"free"},{"bike_id":"cc276fac-45fe-40df-b1a2-c21b627faf8b","system_id":"levelo_inurba_marseille","lat":43.296131,"lon":5.370773,"is_reserved":false,"is_disabled":false,"rental_uris":{"android":"levelo://app?vid=cc276fac-45fe-40df-b1a2-c21b627faf8b","ios":"levelo://app?vid=cc276fac-45fe-40df-b1a2-c21b627faf8b"},"vehicle_type_id":"4","last_reported":1700910292,"current_range_meters":28000,"station_id":"ce4bgnh2rcd13ifvqc0g","pricing_plan_id":"free"},{"bike_id":"e04f319c-cfff-486d-807f-158dca1e20c2","system_id":"levelo_inurba_marseille","lat":43.29573,"lon":5.367355,"is_reserved":false,"is_disabled":false,"rental_uris":{"android":"levelo://app?vid=e04f319c-cfff-486d-807f-158dca1e20c2","ios":"levelo://app?vid=e04f319c-cfff-486d-807f-158dca1e20c2"},"vehicle_type_id":"4","last_reported":1700910292,"current_range_meters":27200,"station_id":"ce4bgph2rcd13ifvqc2g","pricing_plan_id":"free"},{"bike_id":"a2bed3c8-69a4-480e-831f-ab9fc2fa2f17","system_id":"levelo_inurba_marseille","lat":43.29573,"lon":5.367355,"is_reserved":false,"is_disabled":false,"rental_uris":{"android":"levelo://app?vid=a2bed3c8-69a4-480e-831f-ab9fc2fa2f17","ios":"levelo://app?vid=a2bed3c8-69a4-480e-831f-ab9fc2fa2f17"},"vehicle_type_id":"4","last_reported":1700910292,"current_range_meters":25200,"station_id":"ce4bgph2rcd13ifvqc2g","pricing_plan_id":"free"},{"bike_id":"c257969f-624a-4ec3-9ff6-933d5e970979","system_id":"levelo_inurba_marseille","lat":43.29573,"lon":5.367355,"is_reserved":false,"is_disabled":false,"rental_uris":{"android":"levelo://app?vid=c257969f-624a-4ec3-9ff6-933d5e970979","ios":"levelo://app?vid=c257969f-624a-4ec3-9ff6-933d5e970979"},"vehicle_type_id":"4","last_reported":1700910292,"current_range_meters":20400,"station_id":"ce4bgph2rcd13ifvqc2g","pricing_plan_id":"free"},{"bike_id":"83dff446-3758-4c9f-970b-9146b77d8a93","system_id":"levelo_inurba_marseille","lat":43.296921,"lon":5.376579,"is_reserved":false,"is_disabled":false,"rental_uris":{"android":"levelo://app?vid=83dff446-3758-4c9f-970b-9146b77d8a93","ios":"levelo://app?vid=83dff446-3758-4c9f-970b-9146b77d8a93"},"vehicle_type_id":"4","last_reported":1700910292,"current_range_meters":17200,"station_id":"ce4bgkh2rcd13ifvqbl0","pricing_plan_id":"free"},{"bike_id":"c7084696-e20d-4095-ac19-e6f0a4a550a3","system_id":"levelo_inurba_marseille","lat":43.295748,"lon":5.37522,"is_reserved":false,"is_disabled":false,"rental_uris":{"android":"levelo://app?vid=c7084696-e20d-4095-ac19-e6f0a4a550a3","ios":"levelo://app?vid=c7084696-e20d-4095-ac19-e6f0a4a550a3"},"vehicle_type_id":"4","last_reported":1700910292,"current_range_meters":18400,"station_id":"ce4bgh92rcd13ifvqb50","pricing_plan_id":"free"},{"bike_id":"582ade8c-6777-4c4e-ba1d-33ba971c6328","system_id":"levelo_inurba_marseille","lat":43.296263,"lon":5.377094,"is_reserved":false,"is_disabled":false,"rental_uris":{"android":"levelo://app?vid=582ade8c-6777-4c4e-ba1d-33ba971c6328","ios":"levelo://app?vid=582ade8c-6777-4c4e-ba1d-33ba971c6328"},"vehicle_type_id":"4","last_reported":1700910292,"current_range_meters":13600,"station_id":"ce4bgi92rcd13ifvqb90","pricing_plan_id":"free"},{"bike_id":"18474672-1050-4b6d-aa55-af351de31bfe","system_id":"levelo_inurba_marseille","lat":43.295279,"lon":5.375048,"is_reserved":false,"is_disabled":false,"rental_uris":{"android":"levelo://app?vid=18474672-1050-4b6d-aa55-af351de31bfe","ios":"levelo://app?vid=18474672-1050-4b6d-aa55-af351de31bfe"},"vehicle_type_id":"4","last_reported":1700910292,"current_range_meters":9200,"station_id":"ce4bgkp2rcd13ifvqbmg","pricing_plan_id":"free"},{"bike_id":"bb1d07e5-d8fc-4050-a0fc-b4a4c34532a4","system_id":"levelo_inurba_marseille","lat":43.295279,"lon":5.375048,"is_reserved":false,"is_disabled":false,"rental_uris":{"android":"levelo://app?vid=bb1d07e5-d8fc-4050-a0fc-b4a4c34532a4","ios":"levelo://app?vid=bb1d07e5-d8fc-4050-a0fc-b4a4c34532a4"},"vehicle_type_id":"4","last_reported":1700910292,"current_range_meters":30000,"station_id":"ce4bgkp2rcd13ifvqbmg","pricing_plan_id":"free"},{"bike_id":"6b621983-5e9e-42f7-990d-ad5a093820d2","system_id":"levelo_inurba_marseille","lat":43.293801,"lon":5.363066,"is_reserved":false,"is_disabled":false,"rental_uris":{"android":"levelo://app?vid=6b621983-5e9e-42f7-990d-ad5a093820d2","ios":"levelo://app?vid=6b621983-5e9e-42f7-990d-ad5a093820d2"},"vehicle_type_id":"4","last_reported":1700910292,"current_range_meters":1200,"station_id":"","pricing_plan_id":"free"},{"bike_id":"88d484d2-44b0-4968-b82a-e72c0727ccf8","system_id":"levelo_inurba_marseille","lat":43.292749,"lon":5.368398,"is_reserved":false,"is_disabled":false,"rental_uris":{"android":"levelo://app?vid=88d484d2-44b0-4968-b82a-e72c0727ccf8","ios":"levelo://app?vid=88d484d2-44b0-4968-b82a-e72c0727ccf8"},"vehicle_type_id":"4","last_reported":1700910292,"current_range_meters":11600,"station_id":"ce4bhbp2rcd13ifvqesg","pricing_plan_id":"free"},{"bike_id":"e6f2b7dd-8c83-4e60-bcef-344bbe6bfcc2","system_id":"levelo_inurba_marseille","lat":43.292749,"lon":5.368402,"is_reserved":false,"is_disabled":false,"rental_uris":{"android":"levelo://app?vid=e6f2b7dd-8c83-4e60-bcef-344bbe6bfcc2","ios":"levelo://app?vid=e6f2b7dd-8c83-4e60-bcef-344bbe6bfcc2"},"vehicle_type_id":"4","last_reported":1700910292,"current_range_meters":11600,"station_id":"ce4bhbp2rcd13ifvqesg","pricing_plan_id":"free"},{"bike_id":"ee709a5d-739f-44cc-b6c4-3988497677f6","system_id":"levelo_inurba_marseille","lat":43.2936,"lon":5.37835,"is_reserved":false,"is_disabled":false,"rental_uris":{"android":"levelo://app?vid=ee709a5d-739f-44cc-b6c4-3988497677f6","ios":"levelo://app?vid=ee709a5d-739f-44cc-b6c4-3988497677f6"},"vehicle_type_id":"4","last_reported":1700910292,"current_range_meters":22400,"station_id":"ce4bgjh2rcd13ifvqbf0","pricing_plan_id":"free"},{"bike_id":"e6aa94e7-a208-47f4-8337-907ded9274fe","system_id":"levelo_inurba_marseille","lat":43.303002,"lon":5.392142,"is_reserved":false,"is_disabled":false,"rental_uris":{"android":"levelo://app?vid=e6aa94e7-a208-47f4-8337-907ded9274fe","ios":"levelo://app?vid=e6aa94e7-a208-47f4-8337-907ded9274fe"},"vehicle_type_id":"4","last_reported":1700910292,"current_range_meters":30400,"station_id":"ce4bgkh2rcd13ifvqbk0","pricing_plan_id":"free"},{"bike_id":"380f642f-c2dc-411e-b716-29947d920a6c","system_id":"levelo_inurba_marseille","lat":43.2936,"lon":5.37835,"is_reserved":false,"is_disabled":false,"rental_uris":{"android":"levelo://app?vid=380f642f-c2dc-411e-b716-29947d920a6c","ios":"levelo://app?vid=380f642f-c2dc-411e-b716-29947d920a6c"},"vehicle_type_id":"4","last_reported":1700910292,"current_range_meters":25200,"station_id":"ce4bgjh2rcd13ifvqbf0","pricing_plan_id":"free"},{"bike_id":"cc41e4ef-7952-4641-9e97-fb549479d14b","system_id":"levelo_inurba_marseille","lat":43.2936,"lon":5.37835,"is_reserved":false,"is_disabled":false,"rental_uris":{"android":"levelo://app?vid=cc41e4ef-7952-4641-9e97-fb549479d14b","ios":"levelo://app?vid=cc41e4ef-7952-4641-9e97-fb549479d14b"},"vehicle_type_id":"4","last_reported":1700910292,"current_range_meters":16000,"station_id":"ce4bgjh2rcd13ifvqbf0","pricing_plan_id":"free"},{"bike_id":"d43ffefa-97b0-461e-b3b9-63d3b70a5757","system_id":"levelo_inurba_marseille","lat":43.2936,"lon":5.37835,"is_reserved":false,"is_disabled":false,"rental_uris":{"android":"levelo://app?vid=d43ffefa-97b0-461e-b3b9-63d3b70a5757","ios":"levelo://app?vid=d43ffefa-97b0-461e-b3b9-63d3b70a5757"},"vehicle_type_id":"4","last_reported":1700910292,"current_range_meters":28800,"station_id":"ce4bgjh2rcd13ifvqbf0","pricing_plan_id":"free"},{"bike_id":"e18345a6-33f6-484b-8579-b9e48df48fc3","system_id":"levelo_inurba_marseille","lat":43.2936,"lon":5.37835,"is_reserved":false,"is_disabled":false,"rental_uris":{"android":"levelo://app?vid=e18345a6-33f6-484b-8579-b9e48df48fc3","ios":"levelo://app?vid=e18345a6-33f6-484b-8579-b9e48df48fc3"},"vehicle_type_id":"4","last_reported":1700910292,"current_range_meters":19200,"station_id":"ce4bgjh2rcd13ifvqbf0","pricing_plan_id":"free"},{"bike_id":"ce25b047-c701-4930-8509-b1697a902e52","system_id":"levelo_inurba_marseille","lat":43.291994,"lon":5.357886,"is_reserved":false,"is_disabled":false,"rental_uris":{"android":"levelo://app?vid=ce25b047-c701-4930-8509-b1697a902e52","ios":"levelo://app?vid=ce25b047-c701-4930-8509-b1697a902e52"},"vehicle_type_id":"4","last_reported":1700910292,"current_range_meters":400,"station_id":"ce4bhb12rcd13ifvqel0","pricing_plan_id":"free"},{"bike_id":"e4a12467-4f26-4507-8a29-2a25055e84bc","system_id":"levelo_inurba_marseille","lat":43.309047,"lon":5.396551,"is_reserved":false,"is_disabled":false,"rental_uris":{"android":"levelo://app?vid=e4a12467-4f26-4507-8a29-2a25055e84bc","ios":"levelo://app?vid=e4a12467-4f26-4507-8a29-2a25055e84bc"},"vehicle_type_id":"4","last_reported":1700910292,"current_range_meters":28400,"station_id":"ce4bh012rcd13ifvqcv0","pricing_plan_id":"free"},{"bike_id":"3da81a55-cde9-4f6a-906d-45fb8e5164f2","system_id":"levelo_inurba_marseille","lat":43.313245,"lon":5.396908,"is_reserved":false,"is_disabled":false,"rental_uris":{"android":"levelo://app?vid=3da81a55-cde9-4f6a-906d-45fb8e5164f2","ios":"levelo://app?vid=3da81a55-cde9-4f6a-906d-45fb8e5164f2"},"vehicle_type_id":"4","last_reported":1700910292,"current_range_meters":29600,"station_id":"ce4bgvp2rcd13ifvqcu0","pricing_plan_id":"free"},{"bike_id":"08e318de-e6be-4d92-bb43-f34e2aee1130","system_id":"levelo_inurba_marseille","lat":43.313291,"lon":5.396838,"is_reserved":false,"is_disabled":false,"rental_uris":{"android":"levelo://app?vid=08e318de-e6be-4d92-bb43-f34e2aee1130","ios":"levelo://app?vid=08e318de-e6be-4d92-bb43-f34e2aee1130"},"vehicle_type_id":"4","last_reported":1700910292,"current_range_meters":26000,"station_id":"ce4bgvp2rcd13ifvqcu0","pricing_plan_id":"free"},{"bike_id":"bb1bc18d-397f-4e6f-8d1d-4014cb9df530","system_id":"levelo_inurba_marseille","lat":43.313264,"lon":5.396926,"is_reserved":false,"is_disabled":false,"rental_uris":{"android":"levelo://app?vid=bb1bc18d-397f-4e6f-8d1d-4014cb9df530","ios":"levelo://app?vid=bb1bc18d-397f-4e6f-8d1d-4014cb9df530"},"vehicle_type_id":"4","last_reported":1700910292,"current_range_meters":26400,"station_id":"ce4bgvp2rcd13ifvqcu0","pricing_plan_id":"free"},{"bike_id":"ea7f2ee2-94ae-4a13-b769-a123f3be20ac","system_id":"levelo_inurba_marseille","lat":43.313291,"lon":5.396838,"is_reserved":false,"is_disabled":false,"rental_uris":{"android":"levelo://app?vid=ea7f2ee2-94ae-4a13-b769-a123f3be20ac","ios":"levelo://app?vid=ea7f2ee2-94ae-4a13-b769-a123f3be20ac"},"vehicle_type_id":"4","last_reported":1700910292,"current_range_meters":25600,"station_id":"ce4bgvp2rcd13ifvqcu0","pricing_plan_id":"free"},{"bike_id":"6e82d0f5-eb7f-4cea-81d4-b337539bfcee","system_id":"levelo_inurba_marseille","lat":43.313291,"lon":5.396838,"is_reserved":false,"is_disabled":false,"rental_uris":{"android":"levelo://app?vid=6e82d0f5-eb7f-4cea-81d4-b337539bfcee","ios":"levelo://app?vid=6e82d0f5-eb7f-4cea-81d4-b337539bfcee"},"vehicle_type_id":"4","last_reported":1700910292,"current_range_meters":18400,"station_id":"ce4bgvp2rcd13ifvqcu0","pricing_plan_id":"free"},{"bike_id":"72c69236-46c8-4dfa-a72b-5f6198878ee7","system_id":"levelo_inurba_marseille","lat":43.309047,"lon":5.396551,"is_reserved":false,"is_disabled":false,"rental_uris":{"android":"levelo://app?vid=72c69236-46c8-4dfa-a72b-5f6198878ee7","ios":"levelo://app?vid=72c69236-46c8-4dfa-a72b-5f6198878ee7"},"vehicle_type_id":"4","last_reported":1700910292,"current_range_meters":29600,"station_id":"ce4bh012rcd13ifvqcv0","pricing_plan_id":"free"},{"bike_id":"1d10a1b1-d55f-4279-928a-9c6858f32ca9","system_id":"levelo_inurba_marseille","lat":43.33211,"lon":5.38112,"is_reserved":false,"is_disabled":false,"rental_uris":{"android":"levelo://app?vid=1d10a1b1-d55f-4279-928a-9c6858f32ca9","ios":"levelo://app?vid=1d10a1b1-d55f-4279-928a-9c6858f32ca9"},"vehicle_type_id":"4","last_reported":1700910292,"current_range_meters":0,"station_id":"","pricing_plan_id":"free"},{"bike_id":"e808723a-1c56-4f33-8642-2493cf12e43e","system_id":"levelo_inurba_marseille","lat":43.309047,"lon":5.396551,"is_reserved":false,"is_disabled":false,"rental_uris":{"android":"levelo://app?vid=e808723a-1c56-4f33-8642-2493cf12e43e","ios":"levelo://app?vid=e808723a-1c56-4f33-8642-2493cf12e43e"},"vehicle_type_id":"4","last_reported":1700910292,"current_range_meters":28000,"station_id":"ce4bh012rcd13ifvqcv0","pricing_plan_id":"free"},{"bike_id":"0a65a358-b70b-42d7-bbd9-330a62109c95","system_id":"levelo_inurba_marseille","lat":43.29529,"lon":5.385581,"is_reserved":false,"is_disabled":false,"rental_uris":{"android":"levelo://app?vid=0a65a358-b70b-42d7-bbd9-330a62109c95","ios":"levelo://app?vid=0a65a358-b70b-42d7-bbd9-330a62109c95"},"vehicle_type_id":"4","last_reported":1700910292,"current_range_meters":27600,"station_id":"ce4bgih2rcd13ifvqba0","pricing_plan_id":"free"},{"bike_id":"3423be5f-cb65-4133-abc2-83f96bcce45e","system_id":"levelo_inurba_marseille","lat":43.302214,"lon":5.394804,"is_reserved":false,"is_disabled":false,"rental_uris":{"android":"levelo://app?vid=3423be5f-cb65-4133-abc2-83f96bcce45e","ios":"levelo://app?vid=3423be5f-cb65-4133-abc2-83f96bcce45e"},"vehicle_type_id":"4","last_reported":1700910292,"current_range_meters":30000,"station_id":"ce4bh0p2rcd13ifvqd70","pricing_plan_id":"free"},{"bike_id":"8563dcec-bd8d-4061-84a8-965f105ce895","system_id":"levelo_inurba_marseille","lat":43.290327,"lon":5.375711,"is_reserved":false,"is_disabled":false,"rental_uris":{"android":"levelo://app?vid=8563dcec-bd8d-4061-84a8-965f105ce895","ios":"levelo://app?vid=8563dcec-bd8d-4061-84a8-965f105ce895"},"vehicle_type_id":"4","last_reported":1700910292,"current_range_meters":25600,"station_id":"ce4bh692rcd13ifvqe90","pricing_plan_id":"free"},{"bike_id":"554a14c2-80d3-433b-b5a2-6b1a6429d657","system_id":"levelo_inurba_marseille","lat":43.294153,"lon":5.386305,"is_reserved":false,"is_disabled":false,"rental_uris":{"android":"levelo://app?vid=554a14c2-80d3-433b-b5a2-6b1a6429d657","ios":"levelo://app?vid=554a14c2-80d3-433b-b5a2-6b1a6429d657"},"vehicle_type_id":"4","last_reported":1700910292,"current_range_meters":27200,"station_id":"ce4bh2h2rcd13ifvqdh0","pricing_plan_id":"free"},{"bike_id":"ad8296bc-9d9a-464d-8b0d-3b6ccd0b064d","system_id":"levelo_inurba_marseille","lat":43.294153,"lon":5.386305,"is_reserved":false,"is_disabled":false,"rental_uris":{"android":"levelo://app?vid=ad8296bc-9d9a-464d-8b0d-3b6ccd0b064d","ios":"levelo://app?vid=ad8296bc-9d9a-464d-8b0d-3b6ccd0b064d"},"vehicle_type_id":"4","last_reported":1700910292,"current_range_meters":24000,"station_id":"ce4bh2h2rcd13ifvqdh0","pricing_plan_id":"free"},{"bike_id":"f8cf6e82-702e-4e9f-8f95-d984a29f3d3d","system_id":"levelo_inurba_marseille","lat":43.294162,"lon":5.386292,"is_reserved":false,"is_disabled":false,"rental_uris":{"android":"levelo://app?vid=f8cf6e82-702e-4e9f-8f95-d984a29f3d3d","ios":"levelo://app?vid=f8cf6e82-702e-4e9f-8f95-d984a29f3d3d"},"vehicle_type_id":"4","last_reported":1700910292,"current_range_meters":22400,"station_id":"ce4bh2h2rcd13ifvqdh0","pricing_plan_id":"free"},{"bike_id":"331aef77-56d6-4fee-9c17-34458dbe9d2b","system_id":"levelo_inurba_marseille","lat":43.28946,"lon":5.36397,"is_reserved":false,"is_disabled":false,"rental_uris":{"android":"levelo://app?vid=331aef77-56d6-4fee-9c17-34458dbe9d2b","ios":"levelo://app?vid=331aef77-56d6-4fee-9c17-34458dbe9d2b"},"vehicle_type_id":"4","last_reported":1700910292,"current_range_meters":31600,"station_id":"ce4bhc92rcd13ifvqetg","pricing_plan_id":"free"},{"bike_id":"a9bddb84-877c-403f-8fad-166fd17cbab0","system_id":"levelo_inurba_marseille","lat":43.28936,"lon":5.36408,"is_reserved":false,"is_disabled":false,"rental_uris":{"android":"levelo://app?vid=a9bddb84-877c-403f-8fad-166fd17cbab0","ios":"levelo://app?vid=a9bddb84-877c-403f-8fad-166fd17cbab0"},"vehicle_type_id":"4","last_reported":1700910292,"current_range_meters":28400,"station_id":"ce4bhc92rcd13ifvqetg","pricing_plan_id":"free"},{"bike_id":"c7cf0113-9d64-419c-8041-e26798e12f78","system_id":"levelo_inurba_marseille","lat":43.292642,"lon":5.384254,"is_reserved":false,"is_disabled":false,"rental_uris":{"android":"levelo://app?vid=c7cf0113-9d64-419c-8041-e26798e12f78","ios":"levelo://app?vid=c7cf0113-9d64-419c-8041-e26798e12f78"},"vehicle_type_id":"4","last_reported":1700910292,"current_range_meters":28800,"station_id":"ce4bh692rcd13ifvqea0","pricing_plan_id":"free"},{"bike_id":"fb748f61-5917-44d5-b229-7a5efc180d86","system_id":"levelo_inurba_marseille","lat":43.304296,"lon":5.397513,"is_reserved":false,"is_disabled":false,"rental_uris":{"android":"levelo://app?vid=fb748f61-5917-44d5-b229-7a5efc180d86","ios":"levelo://app?vid=fb748f61-5917-44d5-b229-7a5efc180d86"},"vehicle_type_id":"4","last_reported":1700910292,"current_range_meters":25200,"station_id":"ce4bh092rcd13ifvqd20","pricing_plan_id":"free"},{"bike_id":"854ca22a-50ec-4764-b5a7-62729eb30d75","system_id":"levelo_inurba_marseille","lat":43.330388,"lon":5.389182,"is_reserved":false,"is_disabled":false,"rental_uris":{"android":"levelo://app?vid=854ca22a-50ec-4764-b5a7-62729eb30d75","ios":"levelo://app?vid=854ca22a-50ec-4764-b5a7-62729eb30d75"},"vehicle_type_id":"4","last_reported":1700910292,"current_range_meters":7200,"station_id":"ce4bhr92rcd13ifvqhrg","pricing_plan_id":"free"},{"bike_id":"ffa21817-e418-476a-acbc-d98d001d7522","system_id":"levelo_inurba_marseille","lat":43.290104,"lon":5.356111,"is_reserved":false,"is_disabled":false,"rental_uris":{"android":"levelo://app?vid=ffa21817-e418-476a-acbc-d98d001d7522","ios":"levelo://app?vid=ffa21817-e418-476a-acbc-d98d001d7522"},"vehicle_type_id":"4","last_reported":1700910292,"current_range_meters":23600,"station_id":"ce4bhb92rcd13ifvqen0","pricing_plan_id":"free"},{"bike_id":"6d3380cd-34a6-405f-9e14-9dfad01eb06b","system_id":"levelo_inurba_marseille","lat":43.31277,"lon":5.4017,"is_reserved":false,"is_disabled":false,"rental_uris":{"android":"levelo://app?vid=6d3380cd-34a6-405f-9e14-9dfad01eb06b","ios":"levelo://app?vid=6d3380cd-34a6-405f-9e14-9dfad01eb06b"},"vehicle_type_id":"4","last_reported":1700910292,"current_range_meters":26000,"station_id":"ce4bh092rcd13ifvqd30","pricing_plan_id":"free"},{"bike_id":"2b23f38a-1831-49fe-a943-86c9ec15f136","system_id":"levelo_inurba_marseille","lat":43.33752,"lon":5.3745,"is_reserved":false,"is_disabled":false,"rental_uris":{"android":"levelo://app?vid=2b23f38a-1831-49fe-a943-86c9ec15f136","ios":"levelo://app?vid=2b23f38a-1831-49fe-a943-86c9ec15f136"},"vehicle_type_id":"4","last_reported":1700910292,"current_range_meters":3600,"station_id":"","pricing_plan_id":"free"},{"bike_id":"ea24e40c-9978-4549-8c38-c601fad55797","system_id":"levelo_inurba_marseille","lat":43.30642,"lon":5.401031,"is_reserved":false,"is_disabled":false,"rental_uris":{"android":"levelo://app?vid=ea24e40c-9978-4549-8c38-c601fad55797","ios":"levelo://app?vid=ea24e40c-9978-4549-8c38-c601fad55797"},"vehicle_type_id":"4","last_reported":1700910292,"current_range_meters":18400,"station_id":"ce4bh112rcd13ifvqda0","pricing_plan_id":"free"},{"bike_id":"01668cd7-e167-4a34-826b-26fea276741d","system_id":"levelo_inurba_marseille","lat":43.301117,"lon":5.398795,"is_reserved":false,"is_disabled":false,"rental_uris":{"android":"levelo://app?vid=01668cd7-e167-4a34-826b-26fea276741d","ios":"levelo://app?vid=01668cd7-e167-4a34-826b-26fea276741d"},"vehicle_type_id":"4","last_reported":1700910292,"current_range_meters":30400,"station_id":"ce4bh0h2rcd13ifvqd40","pricing_plan_id":"free"},{"bike_id":"cbe4c26f-d1c7-4621-a905-753634f82961","system_id":"levelo_inurba_marseille","lat":43.301117,"lon":5.398795,"is_reserved":false,"is_disabled":false,"rental_uris":{"android":"levelo://app?vid=cbe4c26f-d1c7-4621-a905-753634f82961","ios":"levelo://app?vid=cbe4c26f-d1c7-4621-a905-753634f82961"},"vehicle_type_id":"4","last_reported":1700910292,"current_range_meters":28000,"station_id":"ce4bh0h2rcd13ifvqd40","pricing_plan_id":"free"},{"bike_id":"d1aa99e1-e4d1-406a-b75d-3c5ac8c11f71","system_id":"levelo_inurba_marseille","lat":43.298681,"lon":5.397225,"is_reserved":false,"is_disabled":false,"rental_uris":{"android":"levelo://app?vid=d1aa99e1-e4d1-406a-b75d-3c5ac8c11f71","ios":"levelo://app?vid=d1aa99e1-e4d1-406a-b75d-3c5ac8c11f71"},"vehicle_type_id":"4","last_reported":1700910292,"current_range_meters":28800,"station_id":"ce4bh0h2rcd13ifvqd50","pricing_plan_id":"free"},{"bike_id":"0bdba9d9-d0bb-4fca-8f63-9a9cf684d57c","system_id":"levelo_inurba_marseille","lat":43.286039,"lon":5.370679,"is_reserved":false,"is_disabled":false,"rental_uris":{"android":"levelo://app?vid=0bdba9d9-d0bb-4fca-8f63-9a9cf684d57c","ios":"levelo://app?vid=0bdba9d9-d0bb-4fca-8f63-9a9cf684d57c"},"vehicle_type_id":"4","last_reported":1700910292,"current_range_meters":24400,"station_id":"ce4bht12rcd13ifvqi60","pricing_plan_id":"free"},{"bike_id":"a114aae6-8ceb-4886-b20a-6780de28c969","system_id":"levelo_inurba_marseille","lat":43.286039,"lon":5.370679,"is_reserved":false,"is_disabled":false,"rental_uris":{"android":"levelo://app?vid=a114aae6-8ceb-4886-b20a-6780de28c969","ios":"levelo://app?vid=a114aae6-8ceb-4886-b20a-6780de28c969"},"vehicle_type_id":"4","last_reported":1700910292,"current_range_meters":31200,"station_id":"ce4bht12rcd13ifvqi60","pricing_plan_id":"free"},{"bike_id":"32705a5c-dcde-46aa-a49c-943a49f65a69","system_id":"levelo_inurba_marseille","lat":43.287184,"lon":5.37937,"is_reserved":false,"is_disabled":false,"rental_uris":{"android":"levelo://app?vid=32705a5c-dcde-46aa-a49c-943a49f65a69","ios":"levelo://app?vid=32705a5c-dcde-46aa-a49c-943a49f65a69"},"vehicle_type_id":"4","last_reported":1700910292,"current_range_meters":10400,"station_id":"ce4bh9p2rcd13ifvqec0","pricing_plan_id":"free"},{"bike_id":"29f02d63-abd7-4e3d-955a-ba0367ce5681","system_id":"levelo_inurba_marseille","lat":43.284538,"lon":5.358657,"is_reserved":false,"is_disabled":false,"rental_uris":{"android":"levelo://app?vid=29f02d63-abd7-4e3d-955a-ba0367ce5681","ios":"levelo://app?vid=29f02d63-abd7-4e3d-955a-ba0367ce5681"},"vehicle_type_id":"4","last_reported":1700910292,"current_range_meters":800,"station_id":"ce4bhah2rcd13ifvqei0","pricing_plan_id":"free"},{"bike_id":"3f6574a2-6f47-42bb-bac6-e92151348fe2","system_id":"levelo_inurba_marseille","lat":43.285848,"lon":5.350787,"is_reserved":false,"is_disabled":false,"rental_uris":{"android":"levelo://app?vid=3f6574a2-6f47-42bb-bac6-e92151348fe2","ios":"levelo://app?vid=3f6574a2-6f47-42bb-bac6-e92151348fe2"},"vehicle_type_id":"4","last_reported":1700910292,"current_range_meters":25200,"station_id":"ce4bhch2rcd13ifvqeug","pricing_plan_id":"free"},{"bike_id":"71d2762a-8000-4105-923e-fc1062c96d5e","system_id":"levelo_inurba_marseille","lat":43.285848,"lon":5.350787,"is_reserved":false,"is_disabled":false,"rental_uris":{"android":"levelo://app?vid=71d2762a-8000-4105-923e-fc1062c96d5e","ios":"levelo://app?vid=71d2762a-8000-4105-923e-fc1062c96d5e"},"vehicle_type_id":"4","last_reported":1700910292,"current_range_meters":24000,"station_id":"ce4bhch2rcd13ifvqeug","pricing_plan_id":"free"},{"bike_id":"e01eb6f8-9910-43f6-abce-8a2c7ea922f3","system_id":"levelo_inurba_marseille","lat":43.283998,"lon":5.375062,"is_reserved":false,"is_disabled":false,"rental_uris":{"android":"levelo://app?vid=e01eb6f8-9910-43f6-abce-8a2c7ea922f3","ios":"levelo://app?vid=e01eb6f8-9910-43f6-abce-8a2c7ea922f3"},"vehicle_type_id":"4","last_reported":1700910292,"current_range_meters":18800,"station_id":"ce4bh412rcd13ifvqds0","pricing_plan_id":"free"},{"bike_id":"ecefd9ca-d72f-424b-8d77-bbb87b9ea76d","system_id":"levelo_inurba_marseille","lat":43.28679,"lon":5.3866,"is_reserved":false,"is_disabled":false,"rental_uris":{"android":"levelo://app?vid=ecefd9ca-d72f-424b-8d77-bbb87b9ea76d","ios":"levelo://app?vid=ecefd9ca-d72f-424b-8d77-bbb87b9ea76d"},"vehicle_type_id":"4","last_reported":1700910292,"current_range_meters":0,"station_id":"ce4bh492rcd13ifvqdug","pricing_plan_id":"free"},{"bike_id":"2d5d919e-9a59-4c9b-91fc-dd379be5dbc6","system_id":"levelo_inurba_marseille","lat":43.286595,"lon":5.386795,"is_reserved":false,"is_disabled":false,"rental_uris":{"android":"levelo://app?vid=2d5d919e-9a59-4c9b-91fc-dd379be5dbc6","ios":"levelo://app?vid=2d5d919e-9a59-4c9b-91fc-dd379be5dbc6"},"vehicle_type_id":"4","last_reported":1700910292,"current_range_meters":21200,"station_id":"ce4bh492rcd13ifvqdug","pricing_plan_id":"free"},{"bike_id":"9e6d8354-ce9f-46a6-9d7a-adb1d2126ba5","system_id":"levelo_inurba_marseille","lat":43.286595,"lon":5.386795,"is_reserved":false,"is_disabled":false,"rental_uris":{"android":"levelo://app?vid=9e6d8354-ce9f-46a6-9d7a-adb1d2126ba5","ios":"levelo://app?vid=9e6d8354-ce9f-46a6-9d7a-adb1d2126ba5"},"vehicle_type_id":"4","last_reported":1700910292,"current_range_meters":18000,"station_id":"ce4bh492rcd13ifvqdug","pricing_plan_id":"free"},{"bike_id":"649bdfa8-d22d-4d03-a43e-ad9d38420dd1","system_id":"levelo_inurba_marseille","lat":43.288506,"lon":5.393083,"is_reserved":false,"is_disabled":false,"rental_uris":{"android":"levelo://app?vid=649bdfa8-d22d-4d03-a43e-ad9d38420dd1","ios":"levelo://app?vid=649bdfa8-d22d-4d03-a43e-ad9d38420dd1"},"vehicle_type_id":"4","last_reported":1700910292,"current_range_meters":30800,"station_id":"ce4bh2p2rcd13ifvqdi0","pricing_plan_id":"free"},{"bike_id":"98531026-8519-449e-b1c7-85a58052d278","system_id":"levelo_inurba_marseille","lat":43.28854,"lon":5.39318,"is_reserved":false,"is_disabled":false,"rental_uris":{"android":"levelo://app?vid=98531026-8519-449e-b1c7-85a58052d278","ios":"levelo://app?vid=98531026-8519-449e-b1c7-85a58052d278"},"vehicle_type_id":"4","last_reported":1700910292,"current_range_meters":28800,"station_id":"","pricing_plan_id":"free"},{"bike_id":"8da2f93c-562b-4d5e-9d3d-dd295cfb81ef","system_id":"levelo_inurba_marseille","lat":43.288501,"lon":5.393087,"is_reserved":false,"is_disabled":false,"rental_uris":{"android":"levelo://app?vid=8da2f93c-562b-4d5e-9d3d-dd295cfb81ef","ios":"levelo://app?vid=8da2f93c-562b-4d5e-9d3d-dd295cfb81ef"},"vehicle_type_id":"4","last_reported":1700910292,"current_range_meters":23200,"station_id":"ce4bh2p2rcd13ifvqdi0","pricing_plan_id":"free"},{"bike_id":"6e180e16-37c9-4dff-9781-a5e77dce6f8c","system_id":"levelo_inurba_marseille","lat":43.284217,"lon":5.349697,"is_reserved":false,"is_disabled":false,"rental_uris":{"android":"levelo://app?vid=6e180e16-37c9-4dff-9781-a5e77dce6f8c","ios":"levelo://app?vid=6e180e16-37c9-4dff-9781-a5e77dce6f8c"},"vehicle_type_id":"4","last_reported":1700910292,"current_range_meters":20400,"station_id":"ce4bhbh2rcd13ifvqepg","pricing_plan_id":"free"},{"bike_id":"b19b725b-a75b-4278-87c4-37377fb7bb3f","system_id":"levelo_inurba_marseille","lat":43.28406,"lon":5.34977,"is_reserved":false,"is_disabled":false,"rental_uris":{"android":"levelo://app?vid=b19b725b-a75b-4278-87c4-37377fb7bb3f","ios":"levelo://app?vid=b19b725b-a75b-4278-87c4-37377fb7bb3f"},"vehicle_type_id":"4","last_reported":1700910292,"current_range_meters":29600,"station_id":"ce4bhbh2rcd13ifvqepg","pricing_plan_id":"free"},{"bike_id":"e2284003-4e46-4e0a-93e7-73d05c3666d9","system_id":"levelo_inurba_marseille","lat":43.33508,"lon":5.397755,"is_reserved":false,"is_disabled":false,"rental_uris":{"android":"levelo://app?vid=e2284003-4e46-4e0a-93e7-73d05c3666d9","ios":"levelo://app?vid=e2284003-4e46-4e0a-93e7-73d05c3666d9"},"vehicle_type_id":"4","last_reported":1700910292,"current_range_meters":22800,"station_id":"","pricing_plan_id":"free"},{"bike_id":"d0a15c6d-e4a6-4c3e-b55e-20d14bd1d02e","system_id":"levelo_inurba_marseille","lat":43.282754,"lon":5.350519,"is_reserved":false,"is_disabled":false,"rental_uris":{"android":"levelo://app?vid=d0a15c6d-e4a6-4c3e-b55e-20d14bd1d02e","ios":"levelo://app?vid=d0a15c6d-e4a6-4c3e-b55e-20d14bd1d02e"},"vehicle_type_id":"4","last_reported":1700910292,"current_range_meters":14400,"station_id":"ce4bhbp2rcd13ifvqerg","pricing_plan_id":"free"},{"bike_id":"86cdec0e-ba19-44fd-9324-5066e633922d","system_id":"levelo_inurba_marseille","lat":43.282744,"lon":5.350533,"is_reserved":false,"is_disabled":false,"rental_uris":{"android":"levelo://app?vid=86cdec0e-ba19-44fd-9324-5066e633922d","ios":"levelo://app?vid=86cdec0e-ba19-44fd-9324-5066e633922d"},"vehicle_type_id":"4","last_reported":1700910292,"current_range_meters":27600,"station_id":"ce4bhbp2rcd13ifvqerg","pricing_plan_id":"free"},{"bike_id":"509b8f74-53b7-4776-8f70-b15efa089d8e","system_id":"levelo_inurba_marseille","lat":43.28039,"lon":5.369297,"is_reserved":false,"is_disabled":false,"rental_uris":{"android":"levelo://app?vid=509b8f74-53b7-4776-8f70-b15efa089d8e","ios":"levelo://app?vid=509b8f74-53b7-4776-8f70-b15efa089d8e"},"vehicle_type_id":"4","last_reported":1700910292,"current_range_meters":20000,"station_id":"ce4bha12rcd13ifvqef0","pricing_plan_id":"free"},{"bike_id":"59020ddb-c07e-401c-87e1-32bec7d73b78","system_id":"levelo_inurba_marseille","lat":43.29044,"lon":5.39948,"is_reserved":false,"is_disabled":false,"rental_uris":{"android":"levelo://app?vid=59020ddb-c07e-401c-87e1-32bec7d73b78","ios":"levelo://app?vid=59020ddb-c07e-401c-87e1-32bec7d73b78"},"vehicle_type_id":"4","last_reported":1700910292,"current_range_meters":0,"station_id":"ce4bh392rcd13ifvqdm0","pricing_plan_id":"free"},{"bike_id":"c1304c6c-db86-47d3-b995-824bc8138dd6","system_id":"levelo_inurba_marseille","lat":43.281044,"lon":5.378308,"is_reserved":false,"is_disabled":false,"rental_uris":{"android":"levelo://app?vid=c1304c6c-db86-47d3-b995-824bc8138dd6","ios":"levelo://app?vid=c1304c6c-db86-47d3-b995-824bc8138dd6"},"vehicle_type_id":"4","last_reported":1700910292,"current_range_meters":16800,"station_id":"ce4bha12rcd13ifvqee0","pricing_plan_id":"free"},{"bike_id":"be7f845a-6ebf-4a78-960f-9589ef86a1d4","system_id":"levelo_inurba_marseille","lat":43.28104,"lon":5.37836,"is_reserved":false,"is_disabled":false,"rental_uris":{"android":"levelo://app?vid=be7f845a-6ebf-4a78-960f-9589ef86a1d4","ios":"levelo://app?vid=be7f845a-6ebf-4a78-960f-9589ef86a1d4"},"vehicle_type_id":"4","last_reported":1700910292,"current_range_meters":23200,"station_id":"ce4bha12rcd13ifvqee0","pricing_plan_id":"free"},{"bike_id":"80d23d25-f03e-430c-965c-580b33145f30","system_id":"levelo_inurba_marseille","lat":43.284462,"lon":5.392121,"is_reserved":false,"is_disabled":false,"rental_uris":{"android":"levelo://app?vid=80d23d25-f03e-430c-965c-580b33145f30","ios":"levelo://app?vid=80d23d25-f03e-430c-965c-580b33145f30"},"vehicle_type_id":"4","last_reported":1700910292,"current_range_meters":20000,"station_id":"ce4bhoh2rcd13ifvqh5g","pricing_plan_id":"free"},{"bike_id":"20280146-b5bc-40b6-bea2-92f85bab31b6","system_id":"levelo_inurba_marseille","lat":43.284462,"lon":5.392121,"is_reserved":false,"is_disabled":false,"rental_uris":{"android":"levelo://app?vid=20280146-b5bc-40b6-bea2-92f85bab31b6","ios":"levelo://app?vid=20280146-b5bc-40b6-bea2-92f85bab31b6"},"vehicle_type_id":"4","last_reported":1700910292,"current_range_meters":3600,"station_id":"ce4bhoh2rcd13ifvqh5g","pricing_plan_id":"free"},{"bike_id":"e1d1ef9b-55b8-4cd8-aa2a-cb3e417cd833","system_id":"levelo_inurba_marseille","lat":43.287154,"lon":5.399979,"is_reserved":false,"is_disabled":false,"rental_uris":{"android":"levelo://app?vid=e1d1ef9b-55b8-4cd8-aa2a-cb3e417cd833","ios":"levelo://app?vid=e1d1ef9b-55b8-4cd8-aa2a-cb3e417cd833"},"vehicle_type_id":"4","last_reported":1700910292,"current_range_meters":22800,"station_id":"ce4bho92rcd13ifvqh3g","pricing_plan_id":"free"},{"bike_id":"643cf4c0-7041-4088-8af7-a657f2b8c3d3","system_id":"levelo_inurba_marseille","lat":43.287154,"lon":5.399979,"is_reserved":false,"is_disabled":false,"rental_uris":{"android":"levelo://app?vid=643cf4c0-7041-4088-8af7-a657f2b8c3d3","ios":"levelo://app?vid=643cf4c0-7041-4088-8af7-a657f2b8c3d3"},"vehicle_type_id":"4","last_reported":1700910292,"current_range_meters":20800,"station_id":"ce4bho92rcd13ifvqh3g","pricing_plan_id":"free"},{"bike_id":"292f5000-498a-4448-8744-3fcb32a05042","system_id":"levelo_inurba_marseille","lat":43.292571,"lon":5.409107,"is_reserved":false,"is_disabled":false,"rental_uris":{"android":"levelo://app?vid=292f5000-498a-4448-8744-3fcb32a05042","ios":"levelo://app?vid=292f5000-498a-4448-8744-3fcb32a05042"},"vehicle_type_id":"4","last_reported":1700910292,"current_range_meters":26400,"station_id":"ce4bh192rcd13ifvqdc0","pricing_plan_id":"free"},{"bike_id":"69817891-b4fa-4b57-8bf2-7bde573c3dc7","system_id":"levelo_inurba_marseille","lat":43.292571,"lon":5.409107,"is_reserved":false,"is_disabled":false,"rental_uris":{"android":"levelo://app?vid=69817891-b4fa-4b57-8bf2-7bde573c3dc7","ios":"levelo://app?vid=69817891-b4fa-4b57-8bf2-7bde573c3dc7"},"vehicle_type_id":"4","last_reported":1700910292,"current_range_meters":17600,"station_id":"ce4bh192rcd13ifvqdc0","pricing_plan_id":"free"},{"bike_id":"c25ea147-e804-4786-9d25-91f61a8ed59a","system_id":"levelo_inurba_marseille","lat":43.293651,"lon":5.41268,"is_reserved":false,"is_disabled":false,"rental_uris":{"android":"levelo://app?vid=c25ea147-e804-4786-9d25-91f61a8ed59a","ios":"levelo://app?vid=c25ea147-e804-4786-9d25-91f61a8ed59a"},"vehicle_type_id":"4","last_reported":1700910292,"current_range_meters":0,"station_id":"","pricing_plan_id":"free"},{"bike_id":"848302c1-7e46-4e1a-b20a-fac23f69ef1b","system_id":"levelo_inurba_marseille","lat":43.280784,"lon":5.396622,"is_reserved":false,"is_disabled":false,"rental_uris":{"android":"levelo://app?vid=848302c1-7e46-4e1a-b20a-fac23f69ef1b","ios":"levelo://app?vid=848302c1-7e46-4e1a-b20a-fac23f69ef1b"},"vehicle_type_id":"4","last_reported":1700910292,"current_range_meters":28000,"station_id":"ce4bho12rcd13ifvqh2g","pricing_plan_id":"free"},{"bike_id":"a86ff04e-ea9d-41f6-bd9c-4342e77327e3","system_id":"levelo_inurba_marseille","lat":43.27836,"lon":5.39213,"is_reserved":false,"is_disabled":false,"rental_uris":{"android":"levelo://app?vid=a86ff04e-ea9d-41f6-bd9c-4342e77327e3","ios":"levelo://app?vid=a86ff04e-ea9d-41f6-bd9c-4342e77327e3"},"vehicle_type_id":"4","last_reported":1700910292,"current_range_meters":22000,"station_id":"ce4bhjp2rcd13ifvqga0","pricing_plan_id":"free"},{"bike_id":"0826ab7c-a73f-40ed-b55c-b0d32a900d4a","system_id":"levelo_inurba_marseille","lat":43.279952,"lon":5.400085,"is_reserved":false,"is_disabled":false,"rental_uris":{"android":"levelo://app?vid=0826ab7c-a73f-40ed-b55c-b0d32a900d4a","ios":"levelo://app?vid=0826ab7c-a73f-40ed-b55c-b0d32a900d4a"},"vehicle_type_id":"4","last_reported":1700910292,"current_range_meters":19600,"station_id":"ce4bho92rcd13ifvqh4g","pricing_plan_id":"free"},{"bike_id":"b13ed452-b20e-41ad-9c4a-25ac5c96fef3","system_id":"levelo_inurba_marseille","lat":43.279952,"lon":5.400085,"is_reserved":false,"is_disabled":false,"rental_uris":{"android":"levelo://app?vid=b13ed452-b20e-41ad-9c4a-25ac5c96fef3","ios":"levelo://app?vid=b13ed452-b20e-41ad-9c4a-25ac5c96fef3"},"vehicle_type_id":"4","last_reported":1700910292,"current_range_meters":6800,"station_id":"ce4bho92rcd13ifvqh4g","pricing_plan_id":"free"},{"bike_id":"2aba52bf-9cdb-4dd3-a1ea-4c8b2bed0e7d","system_id":"levelo_inurba_marseille","lat":43.279952,"lon":5.400085,"is_reserved":false,"is_disabled":false,"rental_uris":{"android":"levelo://app?vid=2aba52bf-9cdb-4dd3-a1ea-4c8b2bed0e7d","ios":"levelo://app?vid=2aba52bf-9cdb-4dd3-a1ea-4c8b2bed0e7d"},"vehicle_type_id":"4","last_reported":1700910292,"current_range_meters":7600,"station_id":"ce4bho92rcd13ifvqh4g","pricing_plan_id":"free"},{"bike_id":"561d56c0-616a-4955-bd15-b0e0ddd3d6ba","system_id":"levelo_inurba_marseille","lat":43.279952,"lon":5.400085,"is_reserved":false,"is_disabled":false,"rental_uris":{"android":"levelo://app?vid=561d56c0-616a-4955-bd15-b0e0ddd3d6ba","ios":"levelo://app?vid=561d56c0-616a-4955-bd15-b0e0ddd3d6ba"},"vehicle_type_id":"4","last_reported":1700910292,"current_range_meters":31200,"station_id":"ce4bho92rcd13ifvqh4g","pricing_plan_id":"free"},{"bike_id":"249b954e-668d-41dc-91ac-6fd8484f66fb","system_id":"levelo_inurba_marseille","lat":43.310785,"lon":5.424305,"is_reserved":false,"is_disabled":false,"rental_uris":{"android":"levelo://app?vid=249b954e-668d-41dc-91ac-6fd8484f66fb","ios":"levelo://app?vid=249b954e-668d-41dc-91ac-6fd8484f66fb"},"vehicle_type_id":"4","last_reported":1700910292,"current_range_meters":14800,"station_id":"ce4bhp92rcd13ifvqhag","pricing_plan_id":"free"},{"bike_id":"2fd8b997-65b5-4dbe-b118-c336199210a5","system_id":"levelo_inurba_marseille","lat":43.274103,"lon":5.394016,"is_reserved":false,"is_disabled":false,"rental_uris":{"android":"levelo://app?vid=2fd8b997-65b5-4dbe-b118-c336199210a5","ios":"levelo://app?vid=2fd8b997-65b5-4dbe-b118-c336199210a5"},"vehicle_type_id":"4","last_reported":1700910292,"current_range_meters":24400,"station_id":"ce4bhdp2rcd13ifvqf20","pricing_plan_id":"free"},{"bike_id":"d617807c-32fa-4a81-8852-d232b7257f2e","system_id":"levelo_inurba_marseille","lat":43.304096,"lon":5.425385,"is_reserved":false,"is_disabled":false,"rental_uris":{"android":"levelo://app?vid=d617807c-32fa-4a81-8852-d232b7257f2e","ios":"levelo://app?vid=d617807c-32fa-4a81-8852-d232b7257f2e"},"vehicle_type_id":"4","last_reported":1700910292,"current_range_meters":26000,"station_id":"ce4bhoh2rcd13ifvqh6g","pricing_plan_id":"free"},{"bike_id":"c0e7c921-2f34-4325-9644-1440c95e11ac","system_id":"levelo_inurba_marseille","lat":43.295523,"lon":5.422926,"is_reserved":false,"is_disabled":false,"rental_uris":{"android":"levelo://app?vid=c0e7c921-2f34-4325-9644-1440c95e11ac","ios":"levelo://app?vid=c0e7c921-2f34-4325-9644-1440c95e11ac"},"vehicle_type_id":"4","last_reported":1700910292,"current_range_meters":27600,"station_id":"ce4bhph2rcd13ifvqhdg","pricing_plan_id":"free"},{"bike_id":"39ba2a28-4e45-47ae-b54e-2e865e84aa2a","system_id":"levelo_inurba_marseille","lat":43.295523,"lon":5.422926,"is_reserved":false,"is_disabled":false,"rental_uris":{"android":"levelo://app?vid=39ba2a28-4e45-47ae-b54e-2e865e84aa2a","ios":"levelo://app?vid=39ba2a28-4e45-47ae-b54e-2e865e84aa2a"},"vehicle_type_id":"4","last_reported":1700910292,"current_range_meters":26800,"station_id":"ce4bhph2rcd13ifvqhdg","pricing_plan_id":"free"},{"bike_id":"58636f9d-7758-4e31-a17e-c4e04578fa5d","system_id":"levelo_inurba_marseille","lat":43.295523,"lon":5.422926,"is_reserved":false,"is_disabled":false,"rental_uris":{"android":"levelo://app?vid=58636f9d-7758-4e31-a17e-c4e04578fa5d","ios":"levelo://app?vid=58636f9d-7758-4e31-a17e-c4e04578fa5d"},"vehicle_type_id":"4","last_reported":1700910292,"current_range_meters":18800,"station_id":"ce4bhph2rcd13ifvqhdg","pricing_plan_id":"free"},{"bike_id":"ec3d03da-78c9-4642-80f1-267154a38bb0","system_id":"levelo_inurba_marseille","lat":43.295519,"lon":5.422831,"is_reserved":false,"is_disabled":false,"rental_uris":{"android":"levelo://app?vid=ec3d03da-78c9-4642-80f1-267154a38bb0","ios":"levelo://app?vid=ec3d03da-78c9-4642-80f1-267154a38bb0"},"vehicle_type_id":"4","last_reported":1700910292,"current_range_meters":31200,"station_id":"ce4bhph2rcd13ifvqhdg","pricing_plan_id":"free"},{"bike_id":"9830637b-caf5-476f-85b7-c02033487ff2","system_id":"levelo_inurba_marseille","lat":43.29555,"lon":5.42287,"is_reserved":false,"is_disabled":false,"rental_uris":{"android":"levelo://app?vid=9830637b-caf5-476f-85b7-c02033487ff2","ios":"levelo://app?vid=9830637b-caf5-476f-85b7-c02033487ff2"},"vehicle_type_id":"4","last_reported":1700910292,"current_range_meters":31200,"station_id":"ce4bhph2rcd13ifvqhdg","pricing_plan_id":"free"},{"bike_id":"a49c8683-76af-4394-b463-863c4f5b4c7c","system_id":"levelo_inurba_marseille","lat":43.272124,"lon":5.391768,"is_reserved":false,"is_disabled":false,"rental_uris":{"android":"levelo://app?vid=a49c8683-76af-4394-b463-863c4f5b4c7c","ios":"levelo://app?vid=a49c8683-76af-4394-b463-863c4f5b4c7c"},"vehicle_type_id":"4","last_reported":1700910292,"current_range_meters":8000,"station_id":"ce4bhhp2rcd13ifvqfm0","pricing_plan_id":"free"},{"bike_id":"c06c8439-6acc-4f3e-a46b-7dcf5927ede4","system_id":"levelo_inurba_marseille","lat":43.272116,"lon":5.391747,"is_reserved":false,"is_disabled":false,"rental_uris":{"android":"levelo://app?vid=c06c8439-6acc-4f3e-a46b-7dcf5927ede4","ios":"levelo://app?vid=c06c8439-6acc-4f3e-a46b-7dcf5927ede4"},"vehicle_type_id":"4","last_reported":1700910292,"current_range_meters":23600,"station_id":"ce4bhhp2rcd13ifvqfm0","pricing_plan_id":"free"},{"bike_id":"a18071c5-8d15-40f5-bca5-597b6d20b01e","system_id":"levelo_inurba_marseille","lat":43.278128,"lon":5.407195,"is_reserved":false,"is_disabled":false,"rental_uris":{"android":"levelo://app?vid=a18071c5-8d15-40f5-bca5-597b6d20b01e","ios":"levelo://app?vid=a18071c5-8d15-40f5-bca5-597b6d20b01e"},"vehicle_type_id":"4","last_reported":1700910292,"current_range_meters":16800,"station_id":"ce4bhnh2rcd13ifvqgtg","pricing_plan_id":"free"},{"bike_id":"4b263215-8b7d-422d-8da3-5dcb4feb74d2","system_id":"levelo_inurba_marseille","lat":43.27942,"lon":5.41044,"is_reserved":false,"is_disabled":false,"rental_uris":{"android":"levelo://app?vid=4b263215-8b7d-422d-8da3-5dcb4feb74d2","ios":"levelo://app?vid=4b263215-8b7d-422d-8da3-5dcb4feb74d2"},"vehicle_type_id":"4","last_reported":1700910292,"current_range_meters":0,"station_id":"ce4bhnp2rcd13ifvqh0g","pricing_plan_id":"free"},{"bike_id":"765e706f-68e6-4b58-8a26-eaf2140a98f6","system_id":"levelo_inurba_marseille","lat":43.269319,"lon":5.389397,"is_reserved":false,"is_disabled":false,"rental_uris":{"android":"levelo://app?vid=765e706f-68e6-4b58-8a26-eaf2140a98f6","ios":"levelo://app?vid=765e706f-68e6-4b58-8a26-eaf2140a98f6"},"vehicle_type_id":"4","last_reported":1700910292,"current_range_meters":20000,"station_id":"ce4bhhh2rcd13ifvqfl0","pricing_plan_id":"free"},{"bike_id":"98939664-fb85-4562-934d-01b34390ff65","system_id":"levelo_inurba_marseille","lat":43.26681,"lon":5.382694,"is_reserved":false,"is_disabled":false,"rental_uris":{"android":"levelo://app?vid=98939664-fb85-4562-934d-01b34390ff65","ios":"levelo://app?vid=98939664-fb85-4562-934d-01b34390ff65"},"vehicle_type_id":"4","last_reported":1700910292,"current_range_meters":26400,"station_id":"ce4bhg92rcd13ifvqf90","pricing_plan_id":"free"},{"bike_id":"6a294583-8a22-4f3d-b383-fd77450a83a0","system_id":"levelo_inurba_marseille","lat":43.265714,"lon":5.372891,"is_reserved":false,"is_disabled":false,"rental_uris":{"android":"levelo://app?vid=6a294583-8a22-4f3d-b383-fd77450a83a0","ios":"levelo://app?vid=6a294583-8a22-4f3d-b383-fd77450a83a0"},"vehicle_type_id":"4","last_reported":1700910292,"current_range_meters":16000,"station_id":"ce4bhg12rcd13ifvqf70","pricing_plan_id":"free"},{"bike_id":"5d8dd0a6-d6ce-472c-8605-b1618cbc6442","system_id":"levelo_inurba_marseille","lat":43.265512,"lon":5.372879,"is_reserved":false,"is_disabled":false,"rental_uris":{"android":"levelo://app?vid=5d8dd0a6-d6ce-472c-8605-b1618cbc6442","ios":"levelo://app?vid=5d8dd0a6-d6ce-472c-8605-b1618cbc6442"},"vehicle_type_id":"4","last_reported":1700910292,"current_range_meters":25200,"station_id":"ce4bhg12rcd13ifvqf70","pricing_plan_id":"free"},{"bike_id":"2004c674-313d-4819-82b1-a3af5ef2bb92","system_id":"levelo_inurba_marseille","lat":43.276769,"lon":5.388787,"is_reserved":false,"is_disabled":false,"rental_uris":{"android":"levelo://app?vid=2004c674-313d-4819-82b1-a3af5ef2bb92","ios":"levelo://app?vid=2004c674-313d-4819-82b1-a3af5ef2bb92"},"vehicle_type_id":"4","last_reported":1700910292,"current_range_meters":20000,"station_id":"ce4bhi12rcd13ifvqfo0","pricing_plan_id":"free"},{"bike_id":"f23d8119-b478-4639-98c5-6883279f9f84","system_id":"levelo_inurba_marseille","lat":43.32592,"lon":5.43067,"is_reserved":false,"is_disabled":false,"rental_uris":{"android":"levelo://app?vid=f23d8119-b478-4639-98c5-6883279f9f84","ios":"levelo://app?vid=f23d8119-b478-4639-98c5-6883279f9f84"},"vehicle_type_id":"4","last_reported":1700910292,"current_range_meters":27200,"station_id":"","pricing_plan_id":"free"},{"bike_id":"e7b368e8-9edf-4ac8-acef-7e9558d427aa","system_id":"levelo_inurba_marseille","lat":43.32591,"lon":5.430713,"is_reserved":false,"is_disabled":false,"rental_uris":{"android":"levelo://app?vid=e7b368e8-9edf-4ac8-acef-7e9558d427aa","ios":"levelo://app?vid=e7b368e8-9edf-4ac8-acef-7e9558d427aa"},"vehicle_type_id":"4","last_reported":1700910292,"current_range_meters":0,"station_id":"","pricing_plan_id":"free"},{"bike_id":"ed30d6a1-b23a-49e5-9c83-5546be72a734","system_id":"levelo_inurba_marseille","lat":43.3259,"lon":5.43075,"is_reserved":false,"is_disabled":false,"rental_uris":{"android":"levelo://app?vid=ed30d6a1-b23a-49e5-9c83-5546be72a734","ios":"levelo://app?vid=ed30d6a1-b23a-49e5-9c83-5546be72a734"},"vehicle_type_id":"4","last_reported":1700910292,"current_range_meters":22000,"station_id":"","pricing_plan_id":"free"},{"bike_id":"d67469ee-5362-4610-a163-fe05ae3cf4f7","system_id":"levelo_inurba_marseille","lat":43.32604,"lon":5.430817,"is_reserved":false,"is_disabled":false,"rental_uris":{"android":"levelo://app?vid=d67469ee-5362-4610-a163-fe05ae3cf4f7","ios":"levelo://app?vid=d67469ee-5362-4610-a163-fe05ae3cf4f7"},"vehicle_type_id":"4","last_reported":1700910292,"current_range_meters":10400,"station_id":"","pricing_plan_id":"free"},{"bike_id":"5f40d50c-c2c7-49a8-adcf-b1df5b38345b","system_id":"levelo_inurba_marseille","lat":43.27996,"lon":5.416624,"is_reserved":false,"is_disabled":false,"rental_uris":{"android":"levelo://app?vid=5f40d50c-c2c7-49a8-adcf-b1df5b38345b","ios":"levelo://app?vid=5f40d50c-c2c7-49a8-adcf-b1df5b38345b"},"vehicle_type_id":"4","last_reported":1700910292,"current_range_meters":31200,"station_id":"ce4bho12rcd13ifvqh1g","pricing_plan_id":"free"},{"bike_id":"63af5b2b-0303-4280-91a9-921cae778433","system_id":"levelo_inurba_marseille","lat":43.27996,"lon":5.416624,"is_reserved":false,"is_disabled":false,"rental_uris":{"android":"levelo://app?vid=63af5b2b-0303-4280-91a9-921cae778433","ios":"levelo://app?vid=63af5b2b-0303-4280-91a9-921cae778433"},"vehicle_type_id":"4","last_reported":1700910292,"current_range_meters":15600,"station_id":"ce4bho12rcd13ifvqh1g","pricing_plan_id":"free"},{"bike_id":"3738f45f-0f0f-4195-af48-2b999cb83df1","system_id":"levelo_inurba_marseille","lat":43.27996,"lon":5.416624,"is_reserved":false,"is_disabled":false,"rental_uris":{"android":"levelo://app?vid=3738f45f-0f0f-4195-af48-2b999cb83df1","ios":"levelo://app?vid=3738f45f-0f0f-4195-af48-2b999cb83df1"},"vehicle_type_id":"4","last_reported":1700910292,"current_range_meters":31600,"station_id":"ce4bho12rcd13ifvqh1g","pricing_plan_id":"free"},{"bike_id":"fca1f898-5364-4660-9804-86e14aed3847","system_id":"levelo_inurba_marseille","lat":43.27996,"lon":5.416624,"is_reserved":false,"is_disabled":false,"rental_uris":{"android":"levelo://app?vid=fca1f898-5364-4660-9804-86e14aed3847","ios":"levelo://app?vid=fca1f898-5364-4660-9804-86e14aed3847"},"vehicle_type_id":"4","last_reported":1700910292,"current_range_meters":31600,"station_id":"ce4bho12rcd13ifvqh1g","pricing_plan_id":"free"},{"bike_id":"2b5f0b27-ae58-4e9e-bd76-c585f78e8a73","system_id":"levelo_inurba_marseille","lat":43.26386,"lon":5.37454,"is_reserved":false,"is_disabled":false,"rental_uris":{"android":"levelo://app?vid=2b5f0b27-ae58-4e9e-bd76-c585f78e8a73","ios":"levelo://app?vid=2b5f0b27-ae58-4e9e-bd76-c585f78e8a73"},"vehicle_type_id":"4","last_reported":1700910292,"current_range_meters":11200,"station_id":"","pricing_plan_id":"free"},{"bike_id":"7e069ca0-1860-42fd-a0ca-8e88d4c665ec","system_id":"levelo_inurba_marseille","lat":43.2694,"lon":5.40248,"is_reserved":false,"is_disabled":false,"rental_uris":{"android":"levelo://app?vid=7e069ca0-1860-42fd-a0ca-8e88d4c665ec","ios":"levelo://app?vid=7e069ca0-1860-42fd-a0ca-8e88d4c665ec"},"vehicle_type_id":"4","last_reported":1700910292,"current_range_meters":22000,"station_id":"cjm6bp8fraef2m0cb0m0","pricing_plan_id":"free"},{"bike_id":"f809b2bb-3716-4d7b-8de4-7c32b60e559d","system_id":"levelo_inurba_marseille","lat":43.317104,"lon":5.436818,"is_reserved":false,"is_disabled":false,"rental_uris":{"android":"levelo://app?vid=f809b2bb-3716-4d7b-8de4-7c32b60e559d","ios":"levelo://app?vid=f809b2bb-3716-4d7b-8de4-7c32b60e559d"},"vehicle_type_id":"4","last_reported":1700910292,"current_range_meters":17600,"station_id":"ce4bhp92rcd13ifvqhcg","pricing_plan_id":"free"},{"bike_id":"1b98b7d3-c287-45d9-80ab-ed0171f3329e","system_id":"levelo_inurba_marseille","lat":43.317104,"lon":5.436818,"is_reserved":false,"is_disabled":false,"rental_uris":{"android":"levelo://app?vid=1b98b7d3-c287-45d9-80ab-ed0171f3329e","ios":"levelo://app?vid=1b98b7d3-c287-45d9-80ab-ed0171f3329e"},"vehicle_type_id":"4","last_reported":1700910292,"current_range_meters":31600,"station_id":"ce4bhp92rcd13ifvqhcg","pricing_plan_id":"free"},{"bike_id":"46163101-d36f-4b9d-b2d0-b570d3e9c51c","system_id":"levelo_inurba_marseille","lat":43.317104,"lon":5.436818,"is_reserved":false,"is_disabled":false,"rental_uris":{"android":"levelo://app?vid=46163101-d36f-4b9d-b2d0-b570d3e9c51c","ios":"levelo://app?vid=46163101-d36f-4b9d-b2d0-b570d3e9c51c"},"vehicle_type_id":"4","last_reported":1700910292,"current_range_meters":30400,"station_id":"ce4bhp92rcd13ifvqhcg","pricing_plan_id":"free"},{"bike_id":"a6cf9b04-855d-4dc5-9c72-ce4a8e5bbb9c","system_id":"levelo_inurba_marseille","lat":43.317104,"lon":5.436818,"is_reserved":false,"is_disabled":false,"rental_uris":{"android":"levelo://app?vid=a6cf9b04-855d-4dc5-9c72-ce4a8e5bbb9c","ios":"levelo://app?vid=a6cf9b04-855d-4dc5-9c72-ce4a8e5bbb9c"},"vehicle_type_id":"4","last_reported":1700910292,"current_range_meters":25600,"station_id":"ce4bhp92rcd13ifvqhcg","pricing_plan_id":"free"},{"bike_id":"731477c7-3eda-47fa-a9be-55a54d5ff8fe","system_id":"levelo_inurba_marseille","lat":43.271368,"lon":5.40928,"is_reserved":false,"is_disabled":false,"rental_uris":{"android":"levelo://app?vid=731477c7-3eda-47fa-a9be-55a54d5ff8fe","ios":"levelo://app?vid=731477c7-3eda-47fa-a9be-55a54d5ff8fe"},"vehicle_type_id":"4","last_reported":1700910292,"current_range_meters":28000,"station_id":"ce4bhl12rcd13ifvqgf0","pricing_plan_id":"free"},{"bike_id":"dbf62bfb-d43b-46dc-b301-0e9e00d707fe","system_id":"levelo_inurba_marseille","lat":43.26202,"lon":5.379299,"is_reserved":false,"is_disabled":false,"rental_uris":{"android":"levelo://app?vid=dbf62bfb-d43b-46dc-b301-0e9e00d707fe","ios":"levelo://app?vid=dbf62bfb-d43b-46dc-b301-0e9e00d707fe"},"vehicle_type_id":"4","last_reported":1700910292,"current_range_meters":25600,"station_id":"ce4bhjp2rcd13ifvqg90","pricing_plan_id":"free"},{"bike_id":"4572da7b-b339-4c7f-80aa-57f54e950769","system_id":"levelo_inurba_marseille","lat":43.271388,"lon":5.409269,"is_reserved":false,"is_disabled":false,"rental_uris":{"android":"levelo://app?vid=4572da7b-b339-4c7f-80aa-57f54e950769","ios":"levelo://app?vid=4572da7b-b339-4c7f-80aa-57f54e950769"},"vehicle_type_id":"4","last_reported":1700910292,"current_range_meters":26400,"station_id":"ce4bhl12rcd13ifvqgf0","pricing_plan_id":"free"},{"bike_id":"3feec791-ffcf-49b4-a3ec-8839e018235b","system_id":"levelo_inurba_marseille","lat":43.271388,"lon":5.409269,"is_reserved":false,"is_disabled":false,"rental_uris":{"android":"levelo://app?vid=3feec791-ffcf-49b4-a3ec-8839e018235b","ios":"levelo://app?vid=3feec791-ffcf-49b4-a3ec-8839e018235b"},"vehicle_type_id":"4","last_reported":1700910292,"current_range_meters":30400,"station_id":"ce4bhl12rcd13ifvqgf0","pricing_plan_id":"free"},{"bike_id":"5cb02a10-c500-431a-9c2a-a407bc9b0746","system_id":"levelo_inurba_marseille","lat":43.26194,"lon":5.37934,"is_reserved":false,"is_disabled":false,"rental_uris":{"android":"levelo://app?vid=5cb02a10-c500-431a-9c2a-a407bc9b0746","ios":"levelo://app?vid=5cb02a10-c500-431a-9c2a-a407bc9b0746"},"vehicle_type_id":"4","last_reported":1700910292,"current_range_meters":16000,"station_id":"ce4bhjp2rcd13ifvqg90","pricing_plan_id":"free"},{"bike_id":"7c5a83ac-336c-4b91-a5ea-82b3c6d6127d","system_id":"levelo_inurba_marseille","lat":43.298768,"lon":5.43643,"is_reserved":false,"is_disabled":false,"rental_uris":{"android":"levelo://app?vid=7c5a83ac-336c-4b91-a5ea-82b3c6d6127d","ios":"levelo://app?vid=7c5a83ac-336c-4b91-a5ea-82b3c6d6127d"},"vehicle_type_id":"4","last_reported":1700910292,"current_range_meters":31200,"station_id":"ce4bhpp2rcd13ifvqhfg","pricing_plan_id":"free"},{"bike_id":"8af0d2ed-93d1-485d-9803-40c71e52d0d9","system_id":"levelo_inurba_marseille","lat":43.29903,"lon":5.43671,"is_reserved":false,"is_disabled":false,"rental_uris":{"android":"levelo://app?vid=8af0d2ed-93d1-485d-9803-40c71e52d0d9","ios":"levelo://app?vid=8af0d2ed-93d1-485d-9803-40c71e52d0d9"},"vehicle_type_id":"4","last_reported":1700910292,"current_range_meters":14000,"station_id":"ce4bhpp2rcd13ifvqhfg","pricing_plan_id":"free"},{"bike_id":"91794d0e-e2e6-4dd9-a1b6-ff7501e49342","system_id":"levelo_inurba_marseille","lat":43.29896,"lon":5.43672,"is_reserved":false,"is_disabled":false,"rental_uris":{"android":"levelo://app?vid=91794d0e-e2e6-4dd9-a1b6-ff7501e49342","ios":"levelo://app?vid=91794d0e-e2e6-4dd9-a1b6-ff7501e49342"},"vehicle_type_id":"4","last_reported":1700910292,"current_range_meters":31200,"station_id":"ce4bhpp2rcd13ifvqhfg","pricing_plan_id":"free"},{"bike_id":"5cc76595-4035-4213-b74e-41dabe622aaf","system_id":"levelo_inurba_marseille","lat":43.281521,"lon":5.426368,"is_reserved":false,"is_disabled":false,"rental_uris":{"android":"levelo://app?vid=5cc76595-4035-4213-b74e-41dabe622aaf","ios":"levelo://app?vid=5cc76595-4035-4213-b74e-41dabe622aaf"},"vehicle_type_id":"4","last_reported":1700910292,"current_range_meters":4800,"station_id":"ce4bhnh2rcd13ifvqgug","pricing_plan_id":"free"},{"bike_id":"5ac38179-4d98-4b89-80f2-dc6cd474e479","system_id":"levelo_inurba_marseille","lat":43.28153,"lon":5.42638,"is_reserved":false,"is_disabled":false,"rental_uris":{"android":"levelo://app?vid=5ac38179-4d98-4b89-80f2-dc6cd474e479","ios":"levelo://app?vid=5ac38179-4d98-4b89-80f2-dc6cd474e479"},"vehicle_type_id":"4","last_reported":1700910292,"current_range_meters":17600,"station_id":"ce4bhnh2rcd13ifvqgug","pricing_plan_id":"free"},{"bike_id":"6ed0641b-5e0a-43c2-ba17-f7ad3d70f07b","system_id":"levelo_inurba_marseille","lat":43.281548,"lon":5.42643,"is_reserved":false,"is_disabled":false,"rental_uris":{"android":"levelo://app?vid=6ed0641b-5e0a-43c2-ba17-f7ad3d70f07b","ios":"levelo://app?vid=6ed0641b-5e0a-43c2-ba17-f7ad3d70f07b"},"vehicle_type_id":"4","last_reported":1700910292,"current_range_meters":24000,"station_id":"ce4bhnh2rcd13ifvqgug","pricing_plan_id":"free"},{"bike_id":"6181795c-d57f-4dce-a524-f46690bf06cb","system_id":"levelo_inurba_marseille","lat":43.28151,"lon":5.42649,"is_reserved":false,"is_disabled":false,"rental_uris":{"android":"levelo://app?vid=6181795c-d57f-4dce-a524-f46690bf06cb","ios":"levelo://app?vid=6181795c-d57f-4dce-a524-f46690bf06cb"},"vehicle_type_id":"4","last_reported":1700910292,"current_range_meters":26000,"station_id":"ce4bhnh2rcd13ifvqgug","pricing_plan_id":"free"},{"bike_id":"bd6e48ab-ce55-4065-bec9-10c6beee552a","system_id":"levelo_inurba_marseille","lat":43.2607,"lon":5.393983,"is_reserved":false,"is_disabled":false,"rental_uris":{"android":"levelo://app?vid=bd6e48ab-ce55-4065-bec9-10c6beee552a","ios":"levelo://app?vid=bd6e48ab-ce55-4065-bec9-10c6beee552a"},"vehicle_type_id":"4","last_reported":1700910292,"current_range_meters":21600,"station_id":"ce4bhh92rcd13ifvqfj0","pricing_plan_id":"free"},{"bike_id":"ff385c11-2b7e-45df-b8ce-aac89ab149ad","system_id":"levelo_inurba_marseille","lat":43.275028,"lon":5.424534,"is_reserved":false,"is_disabled":false,"rental_uris":{"android":"levelo://app?vid=ff385c11-2b7e-45df-b8ce-aac89ab149ad","ios":"levelo://app?vid=ff385c11-2b7e-45df-b8ce-aac89ab149ad"},"vehicle_type_id":"4","last_reported":1700910292,"current_range_meters":31600,"station_id":"ce4bhn92rcd13ifvqgrg","pricing_plan_id":"free"},{"bike_id":"225e6c0c-2cee-466d-aaf0-b5f9bf391561","system_id":"levelo_inurba_marseille","lat":43.260916,"lon":5.397627,"is_reserved":false,"is_disabled":false,"rental_uris":{"android":"levelo://app?vid=225e6c0c-2cee-466d-aaf0-b5f9bf391561","ios":"levelo://app?vid=225e6c0c-2cee-466d-aaf0-b5f9bf391561"},"vehicle_type_id":"4","last_reported":1700910292,"current_range_meters":30800,"station_id":"","pricing_plan_id":"free"},{"bike_id":"24f1bf1f-5268-45e6-a816-869a92bcc51d","system_id":"levelo_inurba_marseille","lat":43.275028,"lon":5.424534,"is_reserved":false,"is_disabled":false,"rental_uris":{"android":"levelo://app?vid=24f1bf1f-5268-45e6-a816-869a92bcc51d","ios":"levelo://app?vid=24f1bf1f-5268-45e6-a816-869a92bcc51d"},"vehicle_type_id":"4","last_reported":1700910292,"current_range_meters":32000,"station_id":"ce4bhn92rcd13ifvqgrg","pricing_plan_id":"free"},{"bike_id":"adf3a002-fe09-46e7-bfdf-15e737bcea7e","system_id":"levelo_inurba_marseille","lat":43.275028,"lon":5.424534,"is_reserved":false,"is_disabled":false,"rental_uris":{"android":"levelo://app?vid=adf3a002-fe09-46e7-bfdf-15e737bcea7e","ios":"levelo://app?vid=adf3a002-fe09-46e7-bfdf-15e737bcea7e"},"vehicle_type_id":"4","last_reported":1700910292,"current_range_meters":15600,"station_id":"ce4bhn92rcd13ifvqgrg","pricing_plan_id":"free"},{"bike_id":"adc85c31-6f73-4577-90c9-d7b4e8704a07","system_id":"levelo_inurba_marseille","lat":43.275028,"lon":5.424534,"is_reserved":false,"is_disabled":false,"rental_uris":{"android":"levelo://app?vid=adc85c31-6f73-4577-90c9-d7b4e8704a07","ios":"levelo://app?vid=adc85c31-6f73-4577-90c9-d7b4e8704a07"},"vehicle_type_id":"4","last_reported":1700910292,"current_range_meters":22000,"station_id":"ce4bhn92rcd13ifvqgrg","pricing_plan_id":"free"},{"bike_id":"c85f7616-3a9e-47a4-ae16-28a03e51ab4f","system_id":"levelo_inurba_marseille","lat":43.289218,"lon":5.43867,"is_reserved":false,"is_disabled":false,"rental_uris":{"android":"levelo://app?vid=c85f7616-3a9e-47a4-ae16-28a03e51ab4f","ios":"levelo://app?vid=c85f7616-3a9e-47a4-ae16-28a03e51ab4f"},"vehicle_type_id":"4","last_reported":1700910292,"current_range_meters":8000,"station_id":"","pricing_plan_id":"free"},{"bike_id":"cd60c62d-120f-41c2-8ab0-41ce02b0dd23","system_id":"levelo_inurba_marseille","lat":43.25577,"lon":5.38231,"is_reserved":false,"is_disabled":false,"rental_uris":{"android":"levelo://app?vid=cd60c62d-120f-41c2-8ab0-41ce02b0dd23","ios":"levelo://app?vid=cd60c62d-120f-41c2-8ab0-41ce02b0dd23"},"vehicle_type_id":"4","last_reported":1700910292,"current_range_meters":25200,"station_id":"ce4bhih2rcd13ifvqfs0","pricing_plan_id":"free"},{"bike_id":"3362df01-282c-4809-bf01-482e34f7a2e2","system_id":"levelo_inurba_marseille","lat":43.255744,"lon":5.38236,"is_reserved":false,"is_disabled":false,"rental_uris":{"android":"levelo://app?vid=3362df01-282c-4809-bf01-482e34f7a2e2","ios":"levelo://app?vid=3362df01-282c-4809-bf01-482e34f7a2e2"},"vehicle_type_id":"4","last_reported":1700910292,"current_range_meters":26400,"station_id":"ce4bhih2rcd13ifvqfs0","pricing_plan_id":"free"},{"bike_id":"ad657e31-d5a7-459b-a7ef-89532e280c6c","system_id":"levelo_inurba_marseille","lat":43.270721,"lon":5.422764,"is_reserved":false,"is_disabled":false,"rental_uris":{"android":"levelo://app?vid=ad657e31-d5a7-459b-a7ef-89532e280c6c","ios":"levelo://app?vid=ad657e31-d5a7-459b-a7ef-89532e280c6c"},"vehicle_type_id":"4","last_reported":1700910292,"current_range_meters":26800,"station_id":"ce4bhk92rcd13ifvqgb0","pricing_plan_id":"free"},{"bike_id":"7596707c-49c3-4eae-95e1-008467641ac2","system_id":"levelo_inurba_marseille","lat":43.270721,"lon":5.422764,"is_reserved":false,"is_disabled":false,"rental_uris":{"android":"levelo://app?vid=7596707c-49c3-4eae-95e1-008467641ac2","ios":"levelo://app?vid=7596707c-49c3-4eae-95e1-008467641ac2"},"vehicle_type_id":"4","last_reported":1700910292,"current_range_meters":31600,"station_id":"ce4bhk92rcd13ifvqgb0","pricing_plan_id":"free"},{"bike_id":"4efeab10-fc64-4315-b907-003206a4c0c2","system_id":"levelo_inurba_marseille","lat":43.270721,"lon":5.422764,"is_reserved":false,"is_disabled":false,"rental_uris":{"android":"levelo://app?vid=4efeab10-fc64-4315-b907-003206a4c0c2","ios":"levelo://app?vid=4efeab10-fc64-4315-b907-003206a4c0c2"},"vehicle_type_id":"4","last_reported":1700910292,"current_range_meters":20800,"station_id":"ce4bhk92rcd13ifvqgb0","pricing_plan_id":"free"},{"bike_id":"cfd2dccf-2ef8-4b4a-8469-7caa00dd869f","system_id":"levelo_inurba_marseille","lat":43.270721,"lon":5.422764,"is_reserved":false,"is_disabled":false,"rental_uris":{"android":"levelo://app?vid=cfd2dccf-2ef8-4b4a-8469-7caa00dd869f","ios":"levelo://app?vid=cfd2dccf-2ef8-4b4a-8469-7caa00dd869f"},"vehicle_type_id":"4","last_reported":1700910292,"current_range_meters":26000,"station_id":"ce4bhk92rcd13ifvqgb0","pricing_plan_id":"free"},{"bike_id":"3f44d4de-851f-49f3-804f-50c0b0659c7c","system_id":"levelo_inurba_marseille","lat":43.259013,"lon":5.409301,"is_reserved":false,"is_disabled":false,"rental_uris":{"android":"levelo://app?vid=3f44d4de-851f-49f3-804f-50c0b0659c7c","ios":"levelo://app?vid=3f44d4de-851f-49f3-804f-50c0b0659c7c"},"vehicle_type_id":"4","last_reported":1700910292,"current_range_meters":15600,"station_id":"ce4bhm92rcd13ifvqglg","pricing_plan_id":"free"},{"bike_id":"34b8976c-6036-4b67-9ec8-e013a6ceb002","system_id":"levelo_inurba_marseille","lat":43.25931,"lon":5.40907,"is_reserved":false,"is_disabled":false,"rental_uris":{"android":"levelo://app?vid=34b8976c-6036-4b67-9ec8-e013a6ceb002","ios":"levelo://app?vid=34b8976c-6036-4b67-9ec8-e013a6ceb002"},"vehicle_type_id":"4","last_reported":1700910292,"current_range_meters":29600,"station_id":"ce4bhm92rcd13ifvqglg","pricing_plan_id":"free"},{"bike_id":"48773712-1a80-47ff-ab7b-51cdd2fa4075","system_id":"levelo_inurba_marseille","lat":43.25932,"lon":5.40918,"is_reserved":false,"is_disabled":false,"rental_uris":{"android":"levelo://app?vid=48773712-1a80-47ff-ab7b-51cdd2fa4075","ios":"levelo://app?vid=48773712-1a80-47ff-ab7b-51cdd2fa4075"},"vehicle_type_id":"4","last_reported":1700910292,"current_range_meters":30800,"station_id":"ce4bhm92rcd13ifvqglg","pricing_plan_id":"free"},{"bike_id":"96911349-1297-48e5-a5dd-739da3740c99","system_id":"levelo_inurba_marseille","lat":43.24812,"lon":5.37458,"is_reserved":false,"is_disabled":false,"rental_uris":{"android":"levelo://app?vid=96911349-1297-48e5-a5dd-739da3740c99","ios":"levelo://app?vid=96911349-1297-48e5-a5dd-739da3740c99"},"vehicle_type_id":"4","last_reported":1700910292,"current_range_meters":30400,"station_id":"ce4bhgh2rcd13ifvqfb0","pricing_plan_id":"free"},{"bike_id":"fef5a034-c0ce-4e31-b3b5-69356001ddb8","system_id":"levelo_inurba_marseille","lat":43.2479,"lon":5.374457,"is_reserved":false,"is_disabled":false,"rental_uris":{"android":"levelo://app?vid=fef5a034-c0ce-4e31-b3b5-69356001ddb8","ios":"levelo://app?vid=fef5a034-c0ce-4e31-b3b5-69356001ddb8"},"vehicle_type_id":"4","last_reported":1700910292,"current_range_meters":5600,"station_id":"ce4bhgh2rcd13ifvqfb0","pricing_plan_id":"free"},{"bike_id":"e9cbe09c-a817-41e5-9de7-9d11c7489af0","system_id":"levelo_inurba_marseille","lat":43.2479,"lon":5.374457,"is_reserved":false,"is_disabled":false,"rental_uris":{"android":"levelo://app?vid=e9cbe09c-a817-41e5-9de7-9d11c7489af0","ios":"levelo://app?vid=e9cbe09c-a817-41e5-9de7-9d11c7489af0"},"vehicle_type_id":"4","last_reported":1700910292,"current_range_meters":16800,"station_id":"ce4bhgh2rcd13ifvqfb0","pricing_plan_id":"free"},{"bike_id":"defe33bd-1e12-4d15-a61e-2696e80fcfcf","system_id":"levelo_inurba_marseille","lat":43.2479,"lon":5.374457,"is_reserved":false,"is_disabled":false,"rental_uris":{"android":"levelo://app?vid=defe33bd-1e12-4d15-a61e-2696e80fcfcf","ios":"levelo://app?vid=defe33bd-1e12-4d15-a61e-2696e80fcfcf"},"vehicle_type_id":"4","last_reported":1700910292,"current_range_meters":24800,"station_id":"ce4bhgh2rcd13ifvqfb0","pricing_plan_id":"free"},{"bike_id":"9dd1764f-05de-4839-b10a-1f5e6454740a","system_id":"levelo_inurba_marseille","lat":43.250897,"lon":5.395161,"is_reserved":false,"is_disabled":false,"rental_uris":{"android":"levelo://app?vid=9dd1764f-05de-4839-b10a-1f5e6454740a","ios":"levelo://app?vid=9dd1764f-05de-4839-b10a-1f5e6454740a"},"vehicle_type_id":"4","last_reported":1700910292,"current_range_meters":28400,"station_id":"ce4bhm12rcd13ifvqgkg","pricing_plan_id":"free"},{"bike_id":"4e22f755-9fb8-454a-aed8-0ce31691dc80","system_id":"levelo_inurba_marseille","lat":43.2473,"lon":5.37395,"is_reserved":false,"is_disabled":false,"rental_uris":{"android":"levelo://app?vid=4e22f755-9fb8-454a-aed8-0ce31691dc80","ios":"levelo://app?vid=4e22f755-9fb8-454a-aed8-0ce31691dc80"},"vehicle_type_id":"4","last_reported":1700910292,"current_range_meters":19600,"station_id":"","pricing_plan_id":"free"},{"bike_id":"cb4138b4-f568-4091-9e38-513be7aaef8c","system_id":"levelo_inurba_marseille","lat":43.24693,"lon":5.382096,"is_reserved":false,"is_disabled":false,"rental_uris":{"android":"levelo://app?vid=cb4138b4-f568-4091-9e38-513be7aaef8c","ios":"levelo://app?vid=cb4138b4-f568-4091-9e38-513be7aaef8c"},"vehicle_type_id":"4","last_reported":1700910292,"current_range_meters":16800,"station_id":"ce4bhih2rcd13ifvqfr0","pricing_plan_id":"free"},{"bike_id":"90604205-3676-4845-9812-e9f9728828ed","system_id":"levelo_inurba_marseille","lat":43.243884,"lon":5.370737,"is_reserved":false,"is_disabled":false,"rental_uris":{"android":"levelo://app?vid=90604205-3676-4845-9812-e9f9728828ed","ios":"levelo://app?vid=90604205-3676-4845-9812-e9f9728828ed"},"vehicle_type_id":"4","last_reported":1700910292,"current_range_meters":30000,"station_id":"ce4bhhh2rcd13ifvqfk0","pricing_plan_id":"free"},{"bike_id":"80053b71-21ab-4979-87e3-b440b6bb3a07","system_id":"levelo_inurba_marseille","lat":43.245581,"lon":5.395069,"is_reserved":false,"is_disabled":false,"rental_uris":{"android":"levelo://app?vid=80053b71-21ab-4979-87e3-b440b6bb3a07","ios":"levelo://app?vid=80053b71-21ab-4979-87e3-b440b6bb3a07"},"vehicle_type_id":"4","last_reported":1700910292,"current_range_meters":22000,"station_id":"ce4bhlp2rcd13ifvqgjg","pricing_plan_id":"free"},{"bike_id":"96424d46-9504-4976-b733-408b7f10c853","system_id":"levelo_inurba_marseille","lat":43.245581,"lon":5.395069,"is_reserved":false,"is_disabled":false,"rental_uris":{"android":"levelo://app?vid=96424d46-9504-4976-b733-408b7f10c853","ios":"levelo://app?vid=96424d46-9504-4976-b733-408b7f10c853"},"vehicle_type_id":"4","last_reported":1700910292,"current_range_meters":28800,"station_id":"ce4bhlp2rcd13ifvqgjg","pricing_plan_id":"free"},{"bike_id":"aacee138-95eb-4dc4-8c3b-28f2bee62089","system_id":"levelo_inurba_marseille","lat":43.24074,"lon":5.37758,"is_reserved":false,"is_disabled":false,"rental_uris":{"android":"levelo://app?vid=aacee138-95eb-4dc4-8c3b-28f2bee62089","ios":"levelo://app?vid=aacee138-95eb-4dc4-8c3b-28f2bee62089"},"vehicle_type_id":"4","last_reported":1700910292,"current_range_meters":18000,"station_id":"ce4bhnp2rcd13ifvqgvg","pricing_plan_id":"free"},{"bike_id":"d19c97e6-c0e5-4b36-98ab-7da8c359f686","system_id":"levelo_inurba_marseille","lat":43.24073,"lon":5.37765,"is_reserved":false,"is_disabled":false,"rental_uris":{"android":"levelo://app?vid=d19c97e6-c0e5-4b36-98ab-7da8c359f686","ios":"levelo://app?vid=d19c97e6-c0e5-4b36-98ab-7da8c359f686"},"vehicle_type_id":"4","last_reported":1700910292,"current_range_meters":24000,"station_id":"ce4bhnp2rcd13ifvqgvg","pricing_plan_id":"free"},{"bike_id":"8168875f-e095-41a9-8e34-49820392271c","system_id":"levelo_inurba_marseille","lat":43.24072,"lon":5.37763,"is_reserved":false,"is_disabled":false,"rental_uris":{"android":"levelo://app?vid=8168875f-e095-41a9-8e34-49820392271c","ios":"levelo://app?vid=8168875f-e095-41a9-8e34-49820392271c"},"vehicle_type_id":"4","last_reported":1700910292,"current_range_meters":5600,"station_id":"ce4bhnp2rcd13ifvqgvg","pricing_plan_id":"free"},{"bike_id":"1cb96f04-f422-460b-925f-998463caffcc","system_id":"levelo_inurba_marseille","lat":43.24071,"lon":5.37754,"is_reserved":false,"is_disabled":false,"rental_uris":{"android":"levelo://app?vid=1cb96f04-f422-460b-925f-998463caffcc","ios":"levelo://app?vid=1cb96f04-f422-460b-925f-998463caffcc"},"vehicle_type_id":"4","last_reported":1700910292,"current_range_meters":12000,"station_id":"ce4bhnp2rcd13ifvqgvg","pricing_plan_id":"free"},{"bike_id":"bed15832-4559-4b29-8eb1-6a2b5c17528a","system_id":"levelo_inurba_marseille","lat":43.240712,"lon":5.377573,"is_reserved":false,"is_disabled":false,"rental_uris":{"android":"levelo://app?vid=bed15832-4559-4b29-8eb1-6a2b5c17528a","ios":"levelo://app?vid=bed15832-4559-4b29-8eb1-6a2b5c17528a"},"vehicle_type_id":"4","last_reported":1700910292,"current_range_meters":21200,"station_id":"ce4bhnp2rcd13ifvqgvg","pricing_plan_id":"free"},{"bike_id":"44753933-251e-471e-8435-27aad442d759","system_id":"levelo_inurba_marseille","lat":43.24071,"lon":5.3776,"is_reserved":false,"is_disabled":false,"rental_uris":{"android":"levelo://app?vid=44753933-251e-471e-8435-27aad442d759","ios":"levelo://app?vid=44753933-251e-471e-8435-27aad442d759"},"vehicle_type_id":"4","last_reported":1700910292,"current_range_meters":31600,"station_id":"ce4bhnp2rcd13ifvqgvg","pricing_plan_id":"free"},{"bike_id":"034cdb61-d747-4bb4-87d3-ed49b55b9556","system_id":"levelo_inurba_marseille","lat":43.240623,"lon":5.377642,"is_reserved":false,"is_disabled":false,"rental_uris":{"android":"levelo://app?vid=034cdb61-d747-4bb4-87d3-ed49b55b9556","ios":"levelo://app?vid=034cdb61-d747-4bb4-87d3-ed49b55b9556"},"vehicle_type_id":"4","last_reported":1700910292,"current_range_meters":30000,"station_id":"ce4bhnp2rcd13ifvqgvg","pricing_plan_id":"free"},{"bike_id":"71282c95-18ab-44bd-8129-bf5df6eef9d0","system_id":"levelo_inurba_marseille","lat":43.2407,"lon":5.37764,"is_reserved":false,"is_disabled":false,"rental_uris":{"android":"levelo://app?vid=71282c95-18ab-44bd-8129-bf5df6eef9d0","ios":"levelo://app?vid=71282c95-18ab-44bd-8129-bf5df6eef9d0"},"vehicle_type_id":"4","last_reported":1700910292,"current_range_meters":22400,"station_id":"ce4bhnp2rcd13ifvqgvg","pricing_plan_id":"free"},{"bike_id":"56c7f400-414b-4a88-83d6-f063b9f27bea","system_id":"levelo_inurba_marseille","lat":43.24068,"lon":5.37759,"is_reserved":false,"is_disabled":false,"rental_uris":{"android":"levelo://app?vid=56c7f400-414b-4a88-83d6-f063b9f27bea","ios":"levelo://app?vid=56c7f400-414b-4a88-83d6-f063b9f27bea"},"vehicle_type_id":"4","last_reported":1700910292,"current_range_meters":27600,"station_id":"ce4bhnp2rcd13ifvqgvg","pricing_plan_id":"free"},{"bike_id":"99d4dd88-7ee5-45bd-9c7f-ce77aca5b5a4","system_id":"levelo_inurba_marseille","lat":43.24068,"lon":5.37759,"is_reserved":false,"is_disabled":false,"rental_uris":{"android":"levelo://app?vid=99d4dd88-7ee5-45bd-9c7f-ce77aca5b5a4","ios":"levelo://app?vid=99d4dd88-7ee5-45bd-9c7f-ce77aca5b5a4"},"vehicle_type_id":"4","last_reported":1700910292,"current_range_meters":23200,"station_id":"ce4bhnp2rcd13ifvqgvg","pricing_plan_id":"free"},{"bike_id":"6a80754d-d19c-44e3-b85f-afe20e8d4da1","system_id":"levelo_inurba_marseille","lat":43.23968,"lon":5.3662,"is_reserved":false,"is_disabled":false,"rental_uris":{"android":"levelo://app?vid=6a80754d-d19c-44e3-b85f-afe20e8d4da1","ios":"levelo://app?vid=6a80754d-d19c-44e3-b85f-afe20e8d4da1"},"vehicle_type_id":"4","last_reported":1700910292,"current_range_meters":4400,"station_id":"ce4bhi12rcd13ifvqfp0","pricing_plan_id":"free"},{"bike_id":"ff01dbe1-223f-43a9-b0c6-51a5a8d2ed05","system_id":"levelo_inurba_marseille","lat":43.239588,"lon":5.366238,"is_reserved":false,"is_disabled":false,"rental_uris":{"android":"levelo://app?vid=ff01dbe1-223f-43a9-b0c6-51a5a8d2ed05","ios":"levelo://app?vid=ff01dbe1-223f-43a9-b0c6-51a5a8d2ed05"},"vehicle_type_id":"4","last_reported":1700910292,"current_range_meters":31200,"station_id":"ce4bhi12rcd13ifvqfp0","pricing_plan_id":"free"},{"bike_id":"d23a943a-d1ea-4116-b95c-cdea4725c2a5","system_id":"levelo_inurba_marseille","lat":43.239588,"lon":5.366238,"is_reserved":false,"is_disabled":false,"rental_uris":{"android":"levelo://app?vid=d23a943a-d1ea-4116-b95c-cdea4725c2a5","ios":"levelo://app?vid=d23a943a-d1ea-4116-b95c-cdea4725c2a5"},"vehicle_type_id":"4","last_reported":1700910292,"current_range_meters":23200,"station_id":"ce4bhi12rcd13ifvqfp0","pricing_plan_id":"free"},{"bike_id":"8ddc8e40-82e4-4cc6-90af-c119357648f0","system_id":"levelo_inurba_marseille","lat":43.239588,"lon":5.366238,"is_reserved":false,"is_disabled":false,"rental_uris":{"android":"levelo://app?vid=8ddc8e40-82e4-4cc6-90af-c119357648f0","ios":"levelo://app?vid=8ddc8e40-82e4-4cc6-90af-c119357648f0"},"vehicle_type_id":"4","last_reported":1700910292,"current_range_meters":26400,"station_id":"ce4bhi12rcd13ifvqfp0","pricing_plan_id":"free"},{"bike_id":"340ba89e-beb6-4edd-9f37-a6ad2b2c6a9c","system_id":"levelo_inurba_marseille","lat":43.239588,"lon":5.366238,"is_reserved":false,"is_disabled":false,"rental_uris":{"android":"levelo://app?vid=340ba89e-beb6-4edd-9f37-a6ad2b2c6a9c","ios":"levelo://app?vid=340ba89e-beb6-4edd-9f37-a6ad2b2c6a9c"},"vehicle_type_id":"4","last_reported":1700910292,"current_range_meters":15200,"station_id":"ce4bhi12rcd13ifvqfp0","pricing_plan_id":"free"},{"bike_id":"04b1e34b-274c-423a-97a0-d0bfb7193c11","system_id":"levelo_inurba_marseille","lat":43.23966,"lon":5.36629,"is_reserved":false,"is_disabled":false,"rental_uris":{"android":"levelo://app?vid=04b1e34b-274c-423a-97a0-d0bfb7193c11","ios":"levelo://app?vid=04b1e34b-274c-423a-97a0-d0bfb7193c11"},"vehicle_type_id":"4","last_reported":1700910292,"current_range_meters":24400,"station_id":"ce4bhi12rcd13ifvqfp0","pricing_plan_id":"free"},{"bike_id":"fc6ccc5a-bc4d-4544-a669-27960c9fde66","system_id":"levelo_inurba_marseille","lat":43.239588,"lon":5.366238,"is_reserved":false,"is_disabled":false,"rental_uris":{"android":"levelo://app?vid=fc6ccc5a-bc4d-4544-a669-27960c9fde66","ios":"levelo://app?vid=fc6ccc5a-bc4d-4544-a669-27960c9fde66"},"vehicle_type_id":"4","last_reported":1700910292,"current_range_meters":20000,"station_id":"ce4bhi12rcd13ifvqfp0","pricing_plan_id":"free"},{"bike_id":"74e4d47d-601e-40dd-ae0b-b937bc262eca","system_id":"levelo_inurba_marseille","lat":43.239588,"lon":5.366238,"is_reserved":false,"is_disabled":false,"rental_uris":{"android":"levelo://app?vid=74e4d47d-601e-40dd-ae0b-b937bc262eca","ios":"levelo://app?vid=74e4d47d-601e-40dd-ae0b-b937bc262eca"},"vehicle_type_id":"4","last_reported":1700910292,"current_range_meters":26400,"station_id":"ce4bhi12rcd13ifvqfp0","pricing_plan_id":"free"},{"bike_id":"47e43998-06a7-44f6-a336-05874a757f9d","system_id":"levelo_inurba_marseille","lat":43.239588,"lon":5.366238,"is_reserved":false,"is_disabled":false,"rental_uris":{"android":"levelo://app?vid=47e43998-06a7-44f6-a336-05874a757f9d","ios":"levelo://app?vid=47e43998-06a7-44f6-a336-05874a757f9d"},"vehicle_type_id":"4","last_reported":1700910292,"current_range_meters":16800,"station_id":"ce4bhi12rcd13ifvqfp0","pricing_plan_id":"free"},{"bike_id":"6459acf0-fbd6-46dd-8737-744c34d8fee1","system_id":"levelo_inurba_marseille","lat":43.23877,"lon":5.36524,"is_reserved":false,"is_disabled":false,"rental_uris":{"android":"levelo://app?vid=6459acf0-fbd6-46dd-8737-744c34d8fee1","ios":"levelo://app?vid=6459acf0-fbd6-46dd-8737-744c34d8fee1"},"vehicle_type_id":"4","last_reported":1700910292,"current_range_meters":18400,"station_id":"ce4bhnp2rcd13ifvqgvg","pricing_plan_id":"free"},{"bike_id":"8cc59fbc-5d97-4204-918b-354dfcd1450a","system_id":"levelo_inurba_marseille","lat":43.241782,"lon":5.397261,"is_reserved":false,"is_disabled":false,"rental_uris":{"android":"levelo://app?vid=8cc59fbc-5d97-4204-918b-354dfcd1450a","ios":"levelo://app?vid=8cc59fbc-5d97-4204-918b-354dfcd1450a"},"vehicle_type_id":"4","last_reported":1700910292,"current_range_meters":5600,"station_id":"ce4bhn12rcd13ifvqgpg","pricing_plan_id":"free"},{"bike_id":"46e56332-23d3-428f-9a6a-039ba5524342","system_id":"levelo_inurba_marseille","lat":43.241782,"lon":5.397264,"is_reserved":false,"is_disabled":false,"rental_uris":{"android":"levelo://app?vid=46e56332-23d3-428f-9a6a-039ba5524342","ios":"levelo://app?vid=46e56332-23d3-428f-9a6a-039ba5524342"},"vehicle_type_id":"4","last_reported":1700910292,"current_range_meters":10000,"station_id":"ce4bhn12rcd13ifvqgpg","pricing_plan_id":"free"},{"bike_id":"e977e71c-c019-4c02-8888-33221d1275c5","system_id":"levelo_inurba_marseille","lat":43.241782,"lon":5.397261,"is_reserved":false,"is_disabled":false,"rental_uris":{"android":"levelo://app?vid=e977e71c-c019-4c02-8888-33221d1275c5","ios":"levelo://app?vid=e977e71c-c019-4c02-8888-33221d1275c5"},"vehicle_type_id":"4","last_reported":1700910292,"current_range_meters":26000,"station_id":"ce4bhn12rcd13ifvqgpg","pricing_plan_id":"free"},{"bike_id":"edd2b3c8-67fd-4064-8af7-f698e6d9963c","system_id":"levelo_inurba_marseille","lat":43.231919,"lon":5.355532,"is_reserved":false,"is_disabled":false,"rental_uris":{"android":"levelo://app?vid=edd2b3c8-67fd-4064-8af7-f698e6d9963c","ios":"levelo://app?vid=edd2b3c8-67fd-4064-8af7-f698e6d9963c"},"vehicle_type_id":"4","last_reported":1700910292,"current_range_meters":22400,"station_id":"ce4bhu92rcd13ifvqi70","pricing_plan_id":"free"},{"bike_id":"43681cb1-80b5-4457-bc0d-4145b1f41dfc","system_id":"levelo_inurba_marseille","lat":43.231923,"lon":5.355545,"is_reserved":false,"is_disabled":false,"rental_uris":{"android":"levelo://app?vid=43681cb1-80b5-4457-bc0d-4145b1f41dfc","ios":"levelo://app?vid=43681cb1-80b5-4457-bc0d-4145b1f41dfc"},"vehicle_type_id":"4","last_reported":1700910292,"current_range_meters":29600,"station_id":"ce4bhu92rcd13ifvqi70","pricing_plan_id":"free"},{"bike_id":"76da77ba-a8a2-45d9-bea0-75d9631bba15","system_id":"levelo_inurba_marseille","lat":43.231923,"lon":5.355545,"is_reserved":false,"is_disabled":false,"rental_uris":{"android":"levelo://app?vid=76da77ba-a8a2-45d9-bea0-75d9631bba15","ios":"levelo://app?vid=76da77ba-a8a2-45d9-bea0-75d9631bba15"},"vehicle_type_id":"4","last_reported":1700910292,"current_range_meters":30000,"station_id":"ce4bhu92rcd13ifvqi70","pricing_plan_id":"free"},{"bike_id":"0a349838-8936-442e-8a55-c173dbb54834","system_id":"levelo_inurba_marseille","lat":43.23195,"lon":5.35556,"is_reserved":false,"is_disabled":false,"rental_uris":{"android":"levelo://app?vid=0a349838-8936-442e-8a55-c173dbb54834","ios":"levelo://app?vid=0a349838-8936-442e-8a55-c173dbb54834"},"vehicle_type_id":"4","last_reported":1700910292,"current_range_meters":26000,"station_id":"ce4bhu92rcd13ifvqi70","pricing_plan_id":"free"},{"bike_id":"b6ad3896-d180-4d39-a4d6-8a7be3e8c6bd","system_id":"levelo_inurba_marseille","lat":43.231923,"lon":5.355545,"is_reserved":false,"is_disabled":false,"rental_uris":{"android":"levelo://app?vid=b6ad3896-d180-4d39-a4d6-8a7be3e8c6bd","ios":"levelo://app?vid=b6ad3896-d180-4d39-a4d6-8a7be3e8c6bd"},"vehicle_type_id":"4","last_reported":1700910292,"current_range_meters":30400,"station_id":"ce4bhu92rcd13ifvqi70","pricing_plan_id":"free"},{"bike_id":"aeb874ed-5a67-45f7-94cd-1c1e110219bc","system_id":"levelo_inurba_marseille","lat":43.231919,"lon":5.355532,"is_reserved":false,"is_disabled":false,"rental_uris":{"android":"levelo://app?vid=aeb874ed-5a67-45f7-94cd-1c1e110219bc","ios":"levelo://app?vid=aeb874ed-5a67-45f7-94cd-1c1e110219bc"},"vehicle_type_id":"4","last_reported":1700910292,"current_range_meters":31600,"station_id":"ce4bhu92rcd13ifvqi70","pricing_plan_id":"free"},{"bike_id":"2e445755-799d-4dcc-aee8-5de690fd670a","system_id":"levelo_inurba_marseille","lat":43.231923,"lon":5.355545,"is_reserved":false,"is_disabled":false,"rental_uris":{"android":"levelo://app?vid=2e445755-799d-4dcc-aee8-5de690fd670a","ios":"levelo://app?vid=2e445755-799d-4dcc-aee8-5de690fd670a"},"vehicle_type_id":"4","last_reported":1700910292,"current_range_meters":12000,"station_id":"ce4bhu92rcd13ifvqi70","pricing_plan_id":"free"},{"bike_id":"dcc8f0d2-659c-44cb-9a1d-9d57ae623781","system_id":"levelo_inurba_marseille","lat":43.23193,"lon":5.35554,"is_reserved":false,"is_disabled":false,"rental_uris":{"android":"levelo://app?vid=dcc8f0d2-659c-44cb-9a1d-9d57ae623781","ios":"levelo://app?vid=dcc8f0d2-659c-44cb-9a1d-9d57ae623781"},"vehicle_type_id":"4","last_reported":1700910292,"current_range_meters":21200,"station_id":"ce4bhu92rcd13ifvqi70","pricing_plan_id":"free"},{"bike_id":"4c272d2b-c763-49f1-b5ae-1d2d956a8056","system_id":"levelo_inurba_marseille","lat":43.231923,"lon":5.355545,"is_reserved":false,"is_disabled":false,"rental_uris":{"android":"levelo://app?vid=4c272d2b-c763-49f1-b5ae-1d2d956a8056","ios":"levelo://app?vid=4c272d2b-c763-49f1-b5ae-1d2d956a8056"},