{"last_updated":1725131187,"ttl":30,"version":"2.2","data":{"bikes":[{"bike_id":"6676fe98-ed2d-4223-982c-a696345a2430","system_id":"levelo_inurba_marseille","lat":43.31341,"lon":5.367098,"is_reserved":false,"is_disabled":false,"rental_uris":{"android":"levelo://app?vid=6676fe98-ed2d-4223-982c-a696345a2430","ios":"levelo://app?vid=6676fe98-ed2d-4223-982c-a696345a2430"},"vehicle_type_id":"4","last_reported":1725131188,"current_range_meters":4800,"station_id":"ce4bgr92rcd13ifvqc6g","pricing_plan_id":"cebpf4jnsgd1na2vs0mg"},{"bike_id":"9ec6bb46-7cce-4961-9678-955409be9793","system_id":"levelo_inurba_marseille","lat":43.31341,"lon":5.367098,"is_reserved":false,"is_disabled":false,"rental_uris":{"android":"levelo://app?vid=9ec6bb46-7cce-4961-9678-955409be9793","ios":"levelo://app?vid=9ec6bb46-7cce-4961-9678-955409be9793"},"vehicle_type_id":"4","last_reported":1725131188,"current_range_meters":10000,"station_id":"ce4bgr92rcd13ifvqc6g","pricing_plan_id":"cebpf4jnsgd1na2vs0mg"},{"bike_id":"2a6126a4-a510-4832-9114-53c88dcde97f","system_id":"levelo_inurba_marseille","lat":43.31341,"lon":5.367098,"is_reserved":false,"is_disabled":false,"rental_uris":{"android":"levelo://app?vid=2a6126a4-a510-4832-9114-53c88dcde97f","ios":"levelo://app?vid=2a6126a4-a510-4832-9114-53c88dcde97f"},"vehicle_type_id":"4","last_reported":1725131188,"current_range_meters":24800,"station_id":"ce4bgr92rcd13ifvqc6g","pricing_plan_id":"cebpf4jnsgd1na2vs0mg"},{"bike_id":"accb8fbe-fee6-4500-a9af-b4df83d6dccc","system_id":"levelo_inurba_marseille","lat":43.312239,"lon":5.368562,"is_reserved":false,"is_disabled":false,"rental_uris":{"android":"levelo://app?vid=accb8fbe-fee6-4500-a9af-b4df83d6dccc","ios":"levelo://app?vid=accb8fbe-fee6-4500-a9af-b4df83d6dccc"},"vehicle_type_id":"4","last_reported":1725131188,"current_range_meters":5600,"station_id":"ce4bgl92rcd13ifvqbq0","pricing_plan_id":"cebpf4jnsgd1na2vs0mg"},{"bike_id":"bb38ad78-67e8-4190-af6d-9773dd6c2467","system_id":"levelo_inurba_marseille","lat":43.312239,"lon":5.368562,"is_reserved":false,"is_disabled":false,"rental_uris":{"android":"levelo://app?vid=bb38ad78-67e8-4190-af6d-9773dd6c2467","ios":"levelo://app?vid=bb38ad78-67e8-4190-af6d-9773dd6c2467"},"vehicle_type_id":"4","last_reported":1725131188,"current_range_meters":24400,"station_id":"ce4bgl92rcd13ifvqbq0","pricing_plan_id":"cebpf4jnsgd1na2vs0mg"},{"bike_id":"56ff6aca-33cb-4d9e-96b1-5342d937f325","system_id":"levelo_inurba_marseille","lat":43.309076,"lon":5.368465,"is_reserved":false,"is_disabled":false,"rental_uris":{"android":"levelo://app?vid=56ff6aca-33cb-4d9e-96b1-5342d937f325","ios":"levelo://app?vid=56ff6aca-33cb-4d9e-96b1-5342d937f325"},"vehicle_type_id":"4","last_reported":1725131188,"current_range_meters":6000,"station_id":"ce4bgn92rcd13ifvqbvg","pricing_plan_id":"cebpf4jnsgd1na2vs0mg"},{"bike_id":"f6220eca-613a-4bc8-99f5-cfb3868d35e3","system_id":"levelo_inurba_marseille","lat":43.30537,"lon":5.367345,"is_reserved":false,"is_disabled":false,"rental_uris":{"android":"levelo://app?vid=f6220eca-613a-4bc8-99f5-cfb3868d35e3","ios":"levelo://app?vid=f6220eca-613a-4bc8-99f5-cfb3868d35e3"},"vehicle_type_id":"4","last_reported":1725131188,"current_range_meters":31200,"station_id":"ce4bgrp2rcd13ifvqc9g","pricing_plan_id":"cebpf4jnsgd1na2vs0mg"},{"bike_id":"9e3f7a54-9a9f-4180-85d7-1cdfe6135a40","system_id":"levelo_inurba_marseille","lat":43.305989,"lon":5.37225,"is_reserved":false,"is_disabled":false,"rental_uris":{"android":"levelo://app?vid=9e3f7a54-9a9f-4180-85d7-1cdfe6135a40","ios":"levelo://app?vid=9e3f7a54-9a9f-4180-85d7-1cdfe6135a40"},"vehicle_type_id":"4","last_reported":1725131188,"current_range_meters":20800,"station_id":"ce4bgqh2rcd13ifvqc4g","pricing_plan_id":"cebpf4jnsgd1na2vs0mg"},{"bike_id":"839cad00-c53e-4e65-80d0-e3c9d8a3fbc0","system_id":"levelo_inurba_marseille","lat":43.305714,"lon":5.365633,"is_reserved":false,"is_disabled":false,"rental_uris":{"android":"levelo://app?vid=839cad00-c53e-4e65-80d0-e3c9d8a3fbc0","ios":"levelo://app?vid=839cad00-c53e-4e65-80d0-e3c9d8a3fbc0"},"vehicle_type_id":"4","last_reported":1725131188,"current_range_meters":11600,"station_id":"ce4bgs12rcd13ifvqcag","pricing_plan_id":"cebpf4jnsgd1na2vs0mg"},{"bike_id":"6a6f7724-545b-43ed-af8c-d9c77a7c9e1c","system_id":"levelo_inurba_marseille","lat":43.305706,"lon":5.365654,"is_reserved":false,"is_disabled":false,"rental_uris":{"android":"levelo://app?vid=6a6f7724-545b-43ed-af8c-d9c77a7c9e1c","ios":"levelo://app?vid=6a6f7724-545b-43ed-af8c-d9c77a7c9e1c"},"vehicle_type_id":"4","last_reported":1725131188,"current_range_meters":12400,"station_id":"ce4bgs12rcd13ifvqcag","pricing_plan_id":"cebpf4jnsgd1na2vs0mg"},{"bike_id":"b677eb1d-482a-4c41-bfcf-6f950aeab5cf","system_id":"levelo_inurba_marseille","lat":43.305706,"lon":5.365654,"is_reserved":false,"is_disabled":false,"rental_uris":{"android":"levelo://app?vid=b677eb1d-482a-4c41-bfcf-6f950aeab5cf","ios":"levelo://app?vid=b677eb1d-482a-4c41-bfcf-6f950aeab5cf"},"vehicle_type_id":"4","last_reported":1725131188,"current_range_meters":4800,"station_id":"ce4bgs12rcd13ifvqcag","pricing_plan_id":"cebpf4jnsgd1na2vs0mg"},{"bike_id":"aa038c47-f36e-4e1c-9dcb-cd3e2085bfe1","system_id":"levelo_inurba_marseille","lat":43.311852,"lon":5.377288,"is_reserved":false,"is_disabled":false,"rental_uris":{"android":"levelo://app?vid=aa038c47-f36e-4e1c-9dcb-cd3e2085bfe1","ios":"levelo://app?vid=aa038c47-f36e-4e1c-9dcb-cd3e2085bfe1"},"vehicle_type_id":"4","last_reported":1725131188,"current_range_meters":0,"station_id":"","pricing_plan_id":"cebpf4jnsgd1na2vs0mg"},{"bike_id":"4aa65c22-af92-4309-bc0e-4a8c9d744919","system_id":"levelo_inurba_marseille","lat":43.311125,"lon":5.377624,"is_reserved":false,"is_disabled":false,"rental_uris":{"android":"levelo://app?vid=4aa65c22-af92-4309-bc0e-4a8c9d744919","ios":"levelo://app?vid=4aa65c22-af92-4309-bc0e-4a8c9d744919"},"vehicle_type_id":"4","last_reported":1725131188,"current_range_meters":1600,"station_id":"ce4bgt92rcd13ifvqcg0","pricing_plan_id":"cebpf4jnsgd1na2vs0mg"},{"bike_id":"1939d2cf-d33c-4be7-8f58-1bf14c7800ba","system_id":"levelo_inurba_marseille","lat":43.311125,"lon":5.377624,"is_reserved":false,"is_disabled":false,"rental_uris":{"android":"levelo://app?vid=1939d2cf-d33c-4be7-8f58-1bf14c7800ba","ios":"levelo://app?vid=1939d2cf-d33c-4be7-8f58-1bf14c7800ba"},"vehicle_type_id":"4","last_reported":1725131188,"current_range_meters":18800,"station_id":"ce4bgt92rcd13ifvqcg0","pricing_plan_id":"cebpf4jnsgd1na2vs0mg"},{"bike_id":"edb348d9-f6ef-4588-a3c5-4ab415ff11cc","system_id":"levelo_inurba_marseille","lat":43.311125,"lon":5.377624,"is_reserved":false,"is_disabled":false,"rental_uris":{"android":"levelo://app?vid=edb348d9-f6ef-4588-a3c5-4ab415ff11cc","ios":"levelo://app?vid=edb348d9-f6ef-4588-a3c5-4ab415ff11cc"},"vehicle_type_id":"4","last_reported":1725131188,"current_range_meters":21200,"station_id":"ce4bgt92rcd13ifvqcg0","pricing_plan_id":"cebpf4jnsgd1na2vs0mg"},{"bike_id":"01317441-714f-4e22-a44b-b856ea4e5b50","system_id":"levelo_inurba_marseille","lat":43.311125,"lon":5.377624,"is_reserved":false,"is_disabled":false,"rental_uris":{"android":"levelo://app?vid=01317441-714f-4e22-a44b-b856ea4e5b50","ios":"levelo://app?vid=01317441-714f-4e22-a44b-b856ea4e5b50"},"vehicle_type_id":"4","last_reported":1725131188,"current_range_meters":16800,"station_id":"ce4bgt92rcd13ifvqcg0","pricing_plan_id":"cebpf4jnsgd1na2vs0mg"},{"bike_id":"bde5b7d8-8d19-4fd6-9201-fa8c4d38bae9","system_id":"levelo_inurba_marseille","lat":43.311125,"lon":5.377624,"is_reserved":false,"is_disabled":false,"rental_uris":{"android":"levelo://app?vid=bde5b7d8-8d19-4fd6-9201-fa8c4d38bae9","ios":"levelo://app?vid=bde5b7d8-8d19-4fd6-9201-fa8c4d38bae9"},"vehicle_type_id":"4","last_reported":1725131188,"current_range_meters":22800,"station_id":"ce4bgt92rcd13ifvqcg0","pricing_plan_id":"cebpf4jnsgd1na2vs0mg"},{"bike_id":"d2534043-f7ff-4ae4-a209-6661f243ede9","system_id":"levelo_inurba_marseille","lat":43.307945,"lon":5.376487,"is_reserved":false,"is_disabled":false,"rental_uris":{"android":"levelo://app?vid=d2534043-f7ff-4ae4-a209-6661f243ede9","ios":"levelo://app?vid=d2534043-f7ff-4ae4-a209-6661f243ede9"},"vehicle_type_id":"4","last_reported":1725131188,"current_range_meters":8400,"station_id":"ce4bgv92rcd13ifvqcq0","pricing_plan_id":"cebpf4jnsgd1na2vs0mg"},{"bike_id":"068b1819-afd3-4b77-b178-2b4bc0d25e66","system_id":"levelo_inurba_marseille","lat":43.317075,"lon":5.377367,"is_reserved":false,"is_disabled":false,"rental_uris":{"android":"levelo://app?vid=068b1819-afd3-4b77-b178-2b4bc0d25e66","ios":"levelo://app?vid=068b1819-afd3-4b77-b178-2b4bc0d25e66"},"vehicle_type_id":"4","last_reported":1725131188,"current_range_meters":7200,"station_id":"ce4bgth2rcd13ifvqch0","pricing_plan_id":"cebpf4jnsgd1na2vs0mg"},{"bike_id":"e6bc6bc3-8ebb-43ff-98f3-52750aeed53d","system_id":"levelo_inurba_marseille","lat":43.31711,"lon":5.37739,"is_reserved":false,"is_disabled":false,"rental_uris":{"android":"levelo://app?vid=e6bc6bc3-8ebb-43ff-98f3-52750aeed53d","ios":"levelo://app?vid=e6bc6bc3-8ebb-43ff-98f3-52750aeed53d"},"vehicle_type_id":"4","last_reported":1725131188,"current_range_meters":28800,"station_id":"ce4bgth2rcd13ifvqch0","pricing_plan_id":"cebpf4jnsgd1na2vs0mg"},{"bike_id":"94bb6c32-aa61-4298-94f8-be6a3689aa60","system_id":"levelo_inurba_marseille","lat":43.303046,"lon":5.368981,"is_reserved":false,"is_disabled":false,"rental_uris":{"android":"levelo://app?vid=94bb6c32-aa61-4298-94f8-be6a3689aa60","ios":"levelo://app?vid=94bb6c32-aa61-4298-94f8-be6a3689aa60"},"vehicle_type_id":"4","last_reported":1725131188,"current_range_meters":26000,"station_id":"ce4bgqh2rcd13ifvqc5g","pricing_plan_id":"cebpf4jnsgd1na2vs0mg"},{"bike_id":"2cca31de-7c5d-4964-ad23-2f86823cbc5d","system_id":"levelo_inurba_marseille","lat":43.30304,"lon":5.368987,"is_reserved":false,"is_disabled":false,"rental_uris":{"android":"levelo://app?vid=2cca31de-7c5d-4964-ad23-2f86823cbc5d","ios":"levelo://app?vid=2cca31de-7c5d-4964-ad23-2f86823cbc5d"},"vehicle_type_id":"4","last_reported":1725131188,"current_range_meters":16000,"station_id":"ce4bgqh2rcd13ifvqc5g","pricing_plan_id":"cebpf4jnsgd1na2vs0mg"},{"bike_id":"66498a28-5815-4be0-831b-60b7d7d0bbc9","system_id":"levelo_inurba_marseille","lat":43.3153,"lon":5.38038,"is_reserved":false,"is_disabled":false,"rental_uris":{"android":"levelo://app?vid=66498a28-5815-4be0-831b-60b7d7d0bbc9","ios":"levelo://app?vid=66498a28-5815-4be0-831b-60b7d7d0bbc9"},"vehicle_type_id":"4","last_reported":1725131188,"current_range_meters":7600,"station_id":"ce4bhsp2rcd13ifvqi50","pricing_plan_id":"cebpf4jnsgd1na2vs0mg"},{"bike_id":"f13ceb41-e52e-4b50-9d9b-684eee2984a0","system_id":"levelo_inurba_marseille","lat":43.315289,"lon":5.380349,"is_reserved":false,"is_disabled":false,"rental_uris":{"android":"levelo://app?vid=f13ceb41-e52e-4b50-9d9b-684eee2984a0","ios":"levelo://app?vid=f13ceb41-e52e-4b50-9d9b-684eee2984a0"},"vehicle_type_id":"4","last_reported":1725131188,"current_range_meters":15200,"station_id":"ce4bhsp2rcd13ifvqi50","pricing_plan_id":"cebpf4jnsgd1na2vs0mg"},{"bike_id":"d7067e4c-db75-43a5-a823-b22ae18f0ea8","system_id":"levelo_inurba_marseille","lat":43.31401,"lon":5.38074,"is_reserved":false,"is_disabled":false,"rental_uris":{"android":"levelo://app?vid=d7067e4c-db75-43a5-a823-b22ae18f0ea8","ios":"levelo://app?vid=d7067e4c-db75-43a5-a823-b22ae18f0ea8"},"vehicle_type_id":"4","last_reported":1725131188,"current_range_meters":6800,"station_id":"","pricing_plan_id":"cebpf4jnsgd1na2vs0mg"},{"bike_id":"4e017388-c1eb-4d9c-8503-0e5bd7c846c6","system_id":"levelo_inurba_marseille","lat":43.301939,"lon":5.366286,"is_reserved":false,"is_disabled":false,"rental_uris":{"android":"levelo://app?vid=4e017388-c1eb-4d9c-8503-0e5bd7c846c6","ios":"levelo://app?vid=4e017388-c1eb-4d9c-8503-0e5bd7c846c6"},"vehicle_type_id":"4","last_reported":1725131188,"current_range_meters":0,"station_id":"ce4bgrh2rcd13ifvqc8g","pricing_plan_id":"cebpf4jnsgd1na2vs0mg"},{"bike_id":"611d1d96-83e7-4187-8ecb-423629f1eaed","system_id":"levelo_inurba_marseille","lat":43.301939,"lon":5.366286,"is_reserved":false,"is_disabled":false,"rental_uris":{"android":"levelo://app?vid=611d1d96-83e7-4187-8ecb-423629f1eaed","ios":"levelo://app?vid=611d1d96-83e7-4187-8ecb-423629f1eaed"},"vehicle_type_id":"4","last_reported":1725131188,"current_range_meters":3600,"station_id":"ce4bgrh2rcd13ifvqc8g","pricing_plan_id":"cebpf4jnsgd1na2vs0mg"},{"bike_id":"f23ad220-7d1d-4ac3-9c3f-71be14150853","system_id":"levelo_inurba_marseille","lat":43.301939,"lon":5.366286,"is_reserved":false,"is_disabled":false,"rental_uris":{"android":"levelo://app?vid=f23ad220-7d1d-4ac3-9c3f-71be14150853","ios":"levelo://app?vid=f23ad220-7d1d-4ac3-9c3f-71be14150853"},"vehicle_type_id":"4","last_reported":1725131188,"current_range_meters":25600,"station_id":"ce4bgrh2rcd13ifvqc8g","pricing_plan_id":"cebpf4jnsgd1na2vs0mg"},{"bike_id":"05568ebb-4d8b-4b4b-8698-0c9283120288","system_id":"levelo_inurba_marseille","lat":43.301939,"lon":5.366286,"is_reserved":false,"is_disabled":false,"rental_uris":{"android":"levelo://app?vid=05568ebb-4d8b-4b4b-8698-0c9283120288","ios":"levelo://app?vid=05568ebb-4d8b-4b4b-8698-0c9283120288"},"vehicle_type_id":"4","last_reported":1725131188,"current_range_meters":4000,"station_id":"ce4bgrh2rcd13ifvqc8g","pricing_plan_id":"cebpf4jnsgd1na2vs0mg"},{"bike_id":"eea8ab5c-68e8-45d6-8930-a8e1d5948daa","system_id":"levelo_inurba_marseille","lat":43.301939,"lon":5.366286,"is_reserved":false,"is_disabled":false,"rental_uris":{"android":"levelo://app?vid=eea8ab5c-68e8-45d6-8930-a8e1d5948daa","ios":"levelo://app?vid=eea8ab5c-68e8-45d6-8930-a8e1d5948daa"},"vehicle_type_id":"4","last_reported":1725131188,"current_range_meters":3600,"station_id":"ce4bgrh2rcd13ifvqc8g","pricing_plan_id":"cebpf4jnsgd1na2vs0mg"},{"bike_id":"b0b4b653-f4ad-41a2-b052-13f0c8e2bfbd","system_id":"levelo_inurba_marseille","lat":43.30796,"lon":5.38144,"is_reserved":false,"is_disabled":false,"rental_uris":{"android":"levelo://app?vid=b0b4b653-f4ad-41a2-b052-13f0c8e2bfbd","ios":"levelo://app?vid=b0b4b653-f4ad-41a2-b052-13f0c8e2bfbd"},"vehicle_type_id":"4","last_reported":1725131188,"current_range_meters":0,"station_id":"ce4bgt12rcd13ifvqce0","pricing_plan_id":"cebpf4jnsgd1na2vs0mg"},{"bike_id":"235d5651-6e60-4b84-a226-a128c40bde89","system_id":"levelo_inurba_marseille","lat":43.30798,"lon":5.38153,"is_reserved":false,"is_disabled":false,"rental_uris":{"android":"levelo://app?vid=235d5651-6e60-4b84-a226-a128c40bde89","ios":"levelo://app?vid=235d5651-6e60-4b84-a226-a128c40bde89"},"vehicle_type_id":"4","last_reported":1725131188,"current_range_meters":0,"station_id":"ce4bgt12rcd13ifvqce0","pricing_plan_id":"cebpf4jnsgd1na2vs0mg"},{"bike_id":"d9b4ec82-8ce3-4e43-949a-0007c8bf3f74","system_id":"levelo_inurba_marseille","lat":43.324771,"lon":5.36557,"is_reserved":false,"is_disabled":false,"rental_uris":{"android":"levelo://app?vid=d9b4ec82-8ce3-4e43-949a-0007c8bf3f74","ios":"levelo://app?vid=d9b4ec82-8ce3-4e43-949a-0007c8bf3f74"},"vehicle_type_id":"4","last_reported":1725131188,"current_range_meters":9600,"station_id":"ce4bhs12rcd13ifvqhvg","pricing_plan_id":"cebpf4jnsgd1na2vs0mg"},{"bike_id":"2ce506b9-16e1-4ff2-a3d5-fc0d37304244","system_id":"levelo_inurba_marseille","lat":43.324771,"lon":5.36557,"is_reserved":false,"is_disabled":false,"rental_uris":{"android":"levelo://app?vid=2ce506b9-16e1-4ff2-a3d5-fc0d37304244","ios":"levelo://app?vid=2ce506b9-16e1-4ff2-a3d5-fc0d37304244"},"vehicle_type_id":"4","last_reported":1725131188,"current_range_meters":27600,"station_id":"ce4bhs12rcd13ifvqhvg","pricing_plan_id":"cebpf4jnsgd1na2vs0mg"},{"bike_id":"a2ff065d-55f9-4859-ab84-f5aacd396114","system_id":"levelo_inurba_marseille","lat":43.32476,"lon":5.36575,"is_reserved":false,"is_disabled":false,"rental_uris":{"android":"levelo://app?vid=a2ff065d-55f9-4859-ab84-f5aacd396114","ios":"levelo://app?vid=a2ff065d-55f9-4859-ab84-f5aacd396114"},"vehicle_type_id":"4","last_reported":1725131188,"current_range_meters":4000,"station_id":"ce4bhs12rcd13ifvqhvg","pricing_plan_id":"cebpf4jnsgd1na2vs0mg"},{"bike_id":"57910b69-e270-45c5-93ac-f946ad251310","system_id":"levelo_inurba_marseille","lat":43.32476,"lon":5.36562,"is_reserved":false,"is_disabled":false,"rental_uris":{"android":"levelo://app?vid=57910b69-e270-45c5-93ac-f946ad251310","ios":"levelo://app?vid=57910b69-e270-45c5-93ac-f946ad251310"},"vehicle_type_id":"4","last_reported":1725131188,"current_range_meters":11600,"station_id":"ce4bhs12rcd13ifvqhvg","pricing_plan_id":"cebpf4jnsgd1na2vs0mg"},{"bike_id":"8e06aa78-4e51-494e-a8a6-c6e26bf3b0be","system_id":"levelo_inurba_marseille","lat":43.324771,"lon":5.36557,"is_reserved":false,"is_disabled":false,"rental_uris":{"android":"levelo://app?vid=8e06aa78-4e51-494e-a8a6-c6e26bf3b0be","ios":"levelo://app?vid=8e06aa78-4e51-494e-a8a6-c6e26bf3b0be"},"vehicle_type_id":"4","last_reported":1725131188,"current_range_meters":8800,"station_id":"ce4bhs12rcd13ifvqhvg","pricing_plan_id":"cebpf4jnsgd1na2vs0mg"},{"bike_id":"edb0d25f-8321-4b46-ba21-661366335e62","system_id":"levelo_inurba_marseille","lat":43.32477,"lon":5.36572,"is_reserved":false,"is_disabled":false,"rental_uris":{"android":"levelo://app?vid=edb0d25f-8321-4b46-ba21-661366335e62","ios":"levelo://app?vid=edb0d25f-8321-4b46-ba21-661366335e62"},"vehicle_type_id":"4","last_reported":1725131188,"current_range_meters":28800,"station_id":"ce4bhs12rcd13ifvqhvg","pricing_plan_id":"cebpf4jnsgd1na2vs0mg"},{"bike_id":"f2e40667-379c-4855-920b-610785f15835","system_id":"levelo_inurba_marseille","lat":43.324771,"lon":5.36557,"is_reserved":false,"is_disabled":false,"rental_uris":{"android":"levelo://app?vid=f2e40667-379c-4855-920b-610785f15835","ios":"levelo://app?vid=f2e40667-379c-4855-920b-610785f15835"},"vehicle_type_id":"4","last_reported":1725131188,"current_range_meters":5200,"station_id":"ce4bhs12rcd13ifvqhvg","pricing_plan_id":"cebpf4jnsgd1na2vs0mg"},{"bike_id":"141a7d6d-bac1-4595-a9ff-34652c1cd915","system_id":"levelo_inurba_marseille","lat":43.324771,"lon":5.36557,"is_reserved":false,"is_disabled":false,"rental_uris":{"android":"levelo://app?vid=141a7d6d-bac1-4595-a9ff-34652c1cd915","ios":"levelo://app?vid=141a7d6d-bac1-4595-a9ff-34652c1cd915"},"vehicle_type_id":"4","last_reported":1725131188,"current_range_meters":2400,"station_id":"ce4bhs12rcd13ifvqhvg","pricing_plan_id":"cebpf4jnsgd1na2vs0mg"},{"bike_id":"7999ac86-1e24-45aa-9d87-5ee59d9ae7b2","system_id":"levelo_inurba_marseille","lat":43.324771,"lon":5.36557,"is_reserved":false,"is_disabled":false,"rental_uris":{"android":"levelo://app?vid=7999ac86-1e24-45aa-9d87-5ee59d9ae7b2","ios":"levelo://app?vid=7999ac86-1e24-45aa-9d87-5ee59d9ae7b2"},"vehicle_type_id":"4","last_reported":1725131188,"current_range_meters":21200,"station_id":"ce4bhs12rcd13ifvqhvg","pricing_plan_id":"cebpf4jnsgd1na2vs0mg"},{"bike_id":"d20cdff8-55d0-4d2f-a182-7a6b0000141b","system_id":"levelo_inurba_marseille","lat":43.324771,"lon":5.36557,"is_reserved":false,"is_disabled":false,"rental_uris":{"android":"levelo://app?vid=d20cdff8-55d0-4d2f-a182-7a6b0000141b","ios":"levelo://app?vid=d20cdff8-55d0-4d2f-a182-7a6b0000141b"},"vehicle_type_id":"4","last_reported":1725131188,"current_range_meters":12800,"station_id":"ce4bhs12rcd13ifvqhvg","pricing_plan_id":"cebpf4jnsgd1na2vs0mg"},{"bike_id":"4d684ea6-19f4-4bff-a418-932c1ffddba0","system_id":"levelo_inurba_marseille","lat":43.324771,"lon":5.36557,"is_reserved":false,"is_disabled":false,"rental_uris":{"android":"levelo://app?vid=4d684ea6-19f4-4bff-a418-932c1ffddba0","ios":"levelo://app?vid=4d684ea6-19f4-4bff-a418-932c1ffddba0"},"vehicle_type_id":"4","last_reported":1725131188,"current_range_meters":23600,"station_id":"ce4bhs12rcd13ifvqhvg","pricing_plan_id":"cebpf4jnsgd1na2vs0mg"},{"bike_id":"24c50910-519d-489e-9549-82c141f0bc46","system_id":"levelo_inurba_marseille","lat":43.324771,"lon":5.36557,"is_reserved":false,"is_disabled":false,"rental_uris":{"android":"levelo://app?vid=24c50910-519d-489e-9549-82c141f0bc46","ios":"levelo://app?vid=24c50910-519d-489e-9549-82c141f0bc46"},"vehicle_type_id":"4","last_reported":1725131188,"current_range_meters":1600,"station_id":"ce4bhs12rcd13ifvqhvg","pricing_plan_id":"cebpf4jnsgd1na2vs0mg"},{"bike_id":"d0de59c2-395e-4064-a9eb-ae9d49ff8698","system_id":"levelo_inurba_marseille","lat":43.32479,"lon":5.36565,"is_reserved":false,"is_disabled":false,"rental_uris":{"android":"levelo://app?vid=d0de59c2-395e-4064-a9eb-ae9d49ff8698","ios":"levelo://app?vid=d0de59c2-395e-4064-a9eb-ae9d49ff8698"},"vehicle_type_id":"4","last_reported":1725131188,"current_range_meters":0,"station_id":"ce4bhs12rcd13ifvqhvg","pricing_plan_id":"cebpf4jnsgd1na2vs0mg"},{"bike_id":"62b9804a-9905-4d0e-9b27-b7d48b145d37","system_id":"levelo_inurba_marseille","lat":43.3248,"lon":5.36573,"is_reserved":false,"is_disabled":false,"rental_uris":{"android":"levelo://app?vid=62b9804a-9905-4d0e-9b27-b7d48b145d37","ios":"levelo://app?vid=62b9804a-9905-4d0e-9b27-b7d48b145d37"},"vehicle_type_id":"4","last_reported":1725131188,"current_range_meters":0,"station_id":"ce4bhs12rcd13ifvqhvg","pricing_plan_id":"cebpf4jnsgd1na2vs0mg"},{"bike_id":"8a94f82b-a839-43e1-8cc7-698768b34ca5","system_id":"levelo_inurba_marseille","lat":43.324771,"lon":5.36557,"is_reserved":false,"is_disabled":false,"rental_uris":{"android":"levelo://app?vid=8a94f82b-a839-43e1-8cc7-698768b34ca5","ios":"levelo://app?vid=8a94f82b-a839-43e1-8cc7-698768b34ca5"},"vehicle_type_id":"4","last_reported":1725131188,"current_range_meters":13600,"station_id":"ce4bhs12rcd13ifvqhvg","pricing_plan_id":"cebpf4jnsgd1na2vs0mg"},{"bike_id":"b8150eca-b72d-414c-872c-f631a202c6c6","system_id":"levelo_inurba_marseille","lat":43.324771,"lon":5.36557,"is_reserved":false,"is_disabled":false,"rental_uris":{"android":"levelo://app?vid=b8150eca-b72d-414c-872c-f631a202c6c6","ios":"levelo://app?vid=b8150eca-b72d-414c-872c-f631a202c6c6"},"vehicle_type_id":"4","last_reported":1725131188,"current_range_meters":31200,"station_id":"ce4bhs12rcd13ifvqhvg","pricing_plan_id":"cebpf4jnsgd1na2vs0mg"},{"bike_id":"df44f0b2-1e31-453e-bf52-39e89b1528e2","system_id":"levelo_inurba_marseille","lat":43.324771,"lon":5.36557,"is_reserved":false,"is_disabled":false,"rental_uris":{"android":"levelo://app?vid=df44f0b2-1e31-453e-bf52-39e89b1528e2","ios":"levelo://app?vid=df44f0b2-1e31-453e-bf52-39e89b1528e2"},"vehicle_type_id":"4","last_reported":1725131188,"current_range_meters":24400,"station_id":"ce4bhs12rcd13ifvqhvg","pricing_plan_id":"cebpf4jnsgd1na2vs0mg"},{"bike_id":"78a49b4e-6a90-4719-a2a8-5d7200793c90","system_id":"levelo_inurba_marseille","lat":43.324771,"lon":5.36557,"is_reserved":false,"is_disabled":false,"rental_uris":{"android":"levelo://app?vid=78a49b4e-6a90-4719-a2a8-5d7200793c90","ios":"levelo://app?vid=78a49b4e-6a90-4719-a2a8-5d7200793c90"},"vehicle_type_id":"4","last_reported":1725131188,"current_range_meters":10000,"station_id":"ce4bhs12rcd13ifvqhvg","pricing_plan_id":"cebpf4jnsgd1na2vs0mg"},{"bike_id":"b46cb1c1-2124-4eb0-b5fc-61f447df6f7a","system_id":"levelo_inurba_marseille","lat":43.324771,"lon":5.36557,"is_reserved":false,"is_disabled":false,"rental_uris":{"android":"levelo://app?vid=b46cb1c1-2124-4eb0-b5fc-61f447df6f7a","ios":"levelo://app?vid=b46cb1c1-2124-4eb0-b5fc-61f447df6f7a"},"vehicle_type_id":"4","last_reported":1725131188,"current_range_meters":31200,"station_id":"ce4bhs12rcd13ifvqhvg","pricing_plan_id":"cebpf4jnsgd1na2vs0mg"},{"bike_id":"d472ca40-6b80-4e81-9995-0a9805b292fc","system_id":"levelo_inurba_marseille","lat":43.310804,"lon":5.38359,"is_reserved":false,"is_disabled":false,"rental_uris":{"android":"levelo://app?vid=d472ca40-6b80-4e81-9995-0a9805b292fc","ios":"levelo://app?vid=d472ca40-6b80-4e81-9995-0a9805b292fc"},"vehicle_type_id":"4","last_reported":1725131188,"current_range_meters":21200,"station_id":"ce4bgv92rcd13ifvqcr0","pricing_plan_id":"cebpf4jnsgd1na2vs0mg"},{"bike_id":"5d99768b-075d-4eef-8678-12c755aafc9e","system_id":"levelo_inurba_marseille","lat":43.310804,"lon":5.38359,"is_reserved":false,"is_disabled":false,"rental_uris":{"android":"levelo://app?vid=5d99768b-075d-4eef-8678-12c755aafc9e","ios":"levelo://app?vid=5d99768b-075d-4eef-8678-12c755aafc9e"},"vehicle_type_id":"4","last_reported":1725131188,"current_range_meters":7200,"station_id":"ce4bgv92rcd13ifvqcr0","pricing_plan_id":"cebpf4jnsgd1na2vs0mg"},{"bike_id":"574cb55d-3213-46b3-ac59-584ee1c6d942","system_id":"levelo_inurba_marseille","lat":43.302784,"lon":5.377158,"is_reserved":false,"is_disabled":false,"rental_uris":{"android":"levelo://app?vid=574cb55d-3213-46b3-ac59-584ee1c6d942","ios":"levelo://app?vid=574cb55d-3213-46b3-ac59-584ee1c6d942"},"vehicle_type_id":"4","last_reported":1725131188,"current_range_meters":400,"station_id":"ce4bguh2rcd13ifvqcj0","pricing_plan_id":"cebpf4jnsgd1na2vs0mg"},{"bike_id":"e693dbf6-1458-4e70-904b-f97766b58457","system_id":"levelo_inurba_marseille","lat":43.30138,"lon":5.37418,"is_reserved":false,"is_disabled":false,"rental_uris":{"android":"levelo://app?vid=e693dbf6-1458-4e70-904b-f97766b58457","ios":"levelo://app?vid=e693dbf6-1458-4e70-904b-f97766b58457"},"vehicle_type_id":"4","last_reported":1725131188,"current_range_meters":24400,"station_id":"ce4bgs92rcd13ifvqcc0","pricing_plan_id":"cebpf4jnsgd1na2vs0mg"},{"bike_id":"c2743353-779c-4a62-9e14-4a89465b782a","system_id":"levelo_inurba_marseille","lat":43.302784,"lon":5.377158,"is_reserved":false,"is_disabled":false,"rental_uris":{"android":"levelo://app?vid=c2743353-779c-4a62-9e14-4a89465b782a","ios":"levelo://app?vid=c2743353-779c-4a62-9e14-4a89465b782a"},"vehicle_type_id":"4","last_reported":1725131188,"current_range_meters":23600,"station_id":"ce4bguh2rcd13ifvqcj0","pricing_plan_id":"cebpf4jnsgd1na2vs0mg"},{"bike_id":"b1215516-0de0-47bc-bda3-e7bacbff6736","system_id":"levelo_inurba_marseille","lat":43.320463,"lon":5.380573,"is_reserved":false,"is_disabled":false,"rental_uris":{"android":"levelo://app?vid=b1215516-0de0-47bc-bda3-e7bacbff6736","ios":"levelo://app?vid=b1215516-0de0-47bc-bda3-e7bacbff6736"},"vehicle_type_id":"4","last_reported":1725131188,"current_range_meters":11600,"station_id":"","pricing_plan_id":"cebpf4jnsgd1na2vs0mg"},{"bike_id":"bc34f392-2793-4683-9453-7b730c38ccf1","system_id":"levelo_inurba_marseille","lat":43.301225,"lon":5.37485,"is_reserved":false,"is_disabled":false,"rental_uris":{"android":"levelo://app?vid=bc34f392-2793-4683-9453-7b730c38ccf1","ios":"levelo://app?vid=bc34f392-2793-4683-9453-7b730c38ccf1"},"vehicle_type_id":"4","last_reported":1725131188,"current_range_meters":25200,"station_id":"ce4bgs92rcd13ifvqcc0","pricing_plan_id":"cebpf4jnsgd1na2vs0mg"},{"bike_id":"f1bd3355-613e-492f-bb10-fae54623d372","system_id":"levelo_inurba_marseille","lat":43.31991,"lon":5.38168,"is_reserved":false,"is_disabled":false,"rental_uris":{"android":"levelo://app?vid=f1bd3355-613e-492f-bb10-fae54623d372","ios":"levelo://app?vid=f1bd3355-613e-492f-bb10-fae54623d372"},"vehicle_type_id":"4","last_reported":1725131188,"current_range_meters":21200,"station_id":"ce4bhr12rcd13ifvqhpg","pricing_plan_id":"cebpf4jnsgd1na2vs0mg"},{"bike_id":"e4a56dab-56ee-4e7b-b5bb-95ccc88bf9e3","system_id":"levelo_inurba_marseille","lat":43.31991,"lon":5.3817,"is_reserved":false,"is_disabled":false,"rental_uris":{"android":"levelo://app?vid=e4a56dab-56ee-4e7b-b5bb-95ccc88bf9e3","ios":"levelo://app?vid=e4a56dab-56ee-4e7b-b5bb-95ccc88bf9e3"},"vehicle_type_id":"4","last_reported":1725131188,"current_range_meters":2000,"station_id":"ce4bhr12rcd13ifvqhpg","pricing_plan_id":"cebpf4jnsgd1na2vs0mg"},{"bike_id":"355961ca-3666-45a4-bb12-b47a19bc81b5","system_id":"levelo_inurba_marseille","lat":43.313571,"lon":5.384829,"is_reserved":false,"is_disabled":false,"rental_uris":{"android":"levelo://app?vid=355961ca-3666-45a4-bb12-b47a19bc81b5","ios":"levelo://app?vid=355961ca-3666-45a4-bb12-b47a19bc81b5"},"vehicle_type_id":"4","last_reported":1725131188,"current_range_meters":24800,"station_id":"ce4bgt92rcd13ifvqcf0","pricing_plan_id":"cebpf4jnsgd1na2vs0mg"},{"bike_id":"c657a269-270a-45e0-86e2-5cca234f57a0","system_id":"levelo_inurba_marseille","lat":43.319935,"lon":5.381699,"is_reserved":false,"is_disabled":false,"rental_uris":{"android":"levelo://app?vid=c657a269-270a-45e0-86e2-5cca234f57a0","ios":"levelo://app?vid=c657a269-270a-45e0-86e2-5cca234f57a0"},"vehicle_type_id":"4","last_reported":1725131188,"current_range_meters":0,"station_id":"ce4bhr12rcd13ifvqhpg","pricing_plan_id":"cebpf4jnsgd1na2vs0mg"},{"bike_id":"abe768f7-adc7-47c7-81e9-9bd9a949c7cc","system_id":"levelo_inurba_marseille","lat":43.313571,"lon":5.384829,"is_reserved":false,"is_disabled":false,"rental_uris":{"android":"levelo://app?vid=abe768f7-adc7-47c7-81e9-9bd9a949c7cc","ios":"levelo://app?vid=abe768f7-adc7-47c7-81e9-9bd9a949c7cc"},"vehicle_type_id":"4","last_reported":1725131188,"current_range_meters":11600,"station_id":"ce4bgt92rcd13ifvqcf0","pricing_plan_id":"cebpf4jnsgd1na2vs0mg"},{"bike_id":"cebcf1fe-b6c5-4366-9c7e-a900dbd24cba","system_id":"levelo_inurba_marseille","lat":43.29981,"lon":5.37188,"is_reserved":false,"is_disabled":false,"rental_uris":{"android":"levelo://app?vid=cebcf1fe-b6c5-4366-9c7e-a900dbd24cba","ios":"levelo://app?vid=cebcf1fe-b6c5-4366-9c7e-a900dbd24cba"},"vehicle_type_id":"4","last_reported":1725131188,"current_range_meters":0,"station_id":"ce4bgr92rcd13ifvqc7g","pricing_plan_id":"cebpf4jnsgd1na2vs0mg"},{"bike_id":"a277ff2e-e2dd-49e9-a6a4-c3cd80c320f2","system_id":"levelo_inurba_marseille","lat":43.299222,"lon":5.365554,"is_reserved":false,"is_disabled":false,"rental_uris":{"android":"levelo://app?vid=a277ff2e-e2dd-49e9-a6a4-c3cd80c320f2","ios":"levelo://app?vid=a277ff2e-e2dd-49e9-a6a4-c3cd80c320f2"},"vehicle_type_id":"4","last_reported":1725131188,"current_range_meters":10400,"station_id":"ce4bgm92rcd13ifvqbr0","pricing_plan_id":"cebpf4jnsgd1na2vs0mg"},{"bike_id":"63db2b14-9dae-41c0-8ade-b631c75a39e2","system_id":"levelo_inurba_marseille","lat":43.29973,"lon":5.37183,"is_reserved":false,"is_disabled":false,"rental_uris":{"android":"levelo://app?vid=63db2b14-9dae-41c0-8ade-b631c75a39e2","ios":"levelo://app?vid=63db2b14-9dae-41c0-8ade-b631c75a39e2"},"vehicle_type_id":"4","last_reported":1725131188,"current_range_meters":0,"station_id":"ce4bgr92rcd13ifvqc7g","pricing_plan_id":"cebpf4jnsgd1na2vs0mg"},{"bike_id":"e1d53ccd-797a-473c-aa82-03c667d4cc13","system_id":"levelo_inurba_marseille","lat":43.305364,"lon":5.384119,"is_reserved":false,"is_disabled":false,"rental_uris":{"android":"levelo://app?vid=e1d53ccd-797a-473c-aa82-03c667d4cc13","ios":"levelo://app?vid=e1d53ccd-797a-473c-aa82-03c667d4cc13"},"vehicle_type_id":"4","last_reported":1725131188,"current_range_meters":12400,"station_id":"ce4bgg92rcd13ifvqb30","pricing_plan_id":"cebpf4jnsgd1na2vs0mg"},{"bike_id":"40e644b3-5d39-4175-a168-01a8ab2eaaad","system_id":"levelo_inurba_marseille","lat":43.305364,"lon":5.384119,"is_reserved":false,"is_disabled":false,"rental_uris":{"android":"levelo://app?vid=40e644b3-5d39-4175-a168-01a8ab2eaaad","ios":"levelo://app?vid=40e644b3-5d39-4175-a168-01a8ab2eaaad"},"vehicle_type_id":"4","last_reported":1725131188,"current_range_meters":21600,"station_id":"ce4bgg92rcd13ifvqb30","pricing_plan_id":"cebpf4jnsgd1na2vs0mg"},{"bike_id":"8522b312-65e3-4e8e-9080-ddddab387d18","system_id":"levelo_inurba_marseille","lat":43.305364,"lon":5.384119,"is_reserved":false,"is_disabled":false,"rental_uris":{"android":"levelo://app?vid=8522b312-65e3-4e8e-9080-ddddab387d18","ios":"levelo://app?vid=8522b312-65e3-4e8e-9080-ddddab387d18"},"vehicle_type_id":"4","last_reported":1725131188,"current_range_meters":24400,"station_id":"ce4bgg92rcd13ifvqb30","pricing_plan_id":"cebpf4jnsgd1na2vs0mg"},{"bike_id":"934c1b52-ab84-40fa-9d85-f876c5f063fa","system_id":"levelo_inurba_marseille","lat":43.299243,"lon":5.374807,"is_reserved":false,"is_disabled":false,"rental_uris":{"android":"levelo://app?vid=934c1b52-ab84-40fa-9d85-f876c5f063fa","ios":"levelo://app?vid=934c1b52-ab84-40fa-9d85-f876c5f063fa"},"vehicle_type_id":"4","last_reported":1725131188,"current_range_meters":25600,"station_id":"ce4bgjh2rcd13ifvqbg0","pricing_plan_id":"cebpf4jnsgd1na2vs0mg"},{"bike_id":"0380482e-db43-49a7-b48e-b56f7f1bf531","system_id":"levelo_inurba_marseille","lat":43.311722,"lon":5.387247,"is_reserved":false,"is_disabled":false,"rental_uris":{"android":"levelo://app?vid=0380482e-db43-49a7-b48e-b56f7f1bf531","ios":"levelo://app?vid=0380482e-db43-49a7-b48e-b56f7f1bf531"},"vehicle_type_id":"4","last_reported":1725131188,"current_range_meters":12800,"station_id":"ce4bgv12rcd13ifvqcp0","pricing_plan_id":"cebpf4jnsgd1na2vs0mg"},{"bike_id":"47f1fb7d-f625-4910-b9a1-c3fc75514901","system_id":"levelo_inurba_marseille","lat":43.299243,"lon":5.37481,"is_reserved":false,"is_disabled":false,"rental_uris":{"android":"levelo://app?vid=47f1fb7d-f625-4910-b9a1-c3fc75514901","ios":"levelo://app?vid=47f1fb7d-f625-4910-b9a1-c3fc75514901"},"vehicle_type_id":"4","last_reported":1725131188,"current_range_meters":29600,"station_id":"ce4bgjh2rcd13ifvqbg0","pricing_plan_id":"cebpf4jnsgd1na2vs0mg"},{"bike_id":"7bcefac6-738d-4cb0-8fb4-857d1469fa76","system_id":"levelo_inurba_marseille","lat":43.301417,"lon":5.3809,"is_reserved":false,"is_disabled":false,"rental_uris":{"android":"levelo://app?vid=7bcefac6-738d-4cb0-8fb4-857d1469fa76","ios":"levelo://app?vid=7bcefac6-738d-4cb0-8fb4-857d1469fa76"},"vehicle_type_id":"4","last_reported":1725131188,"current_range_meters":0,"station_id":"ce4bgjp2rcd13ifvqbh0","pricing_plan_id":"cebpf4jnsgd1na2vs0mg"},{"bike_id":"7c24ed0f-b0a2-4789-a2ec-fd4cee41fc26","system_id":"levelo_inurba_marseille","lat":43.301417,"lon":5.3809,"is_reserved":false,"is_disabled":false,"rental_uris":{"android":"levelo://app?vid=7c24ed0f-b0a2-4789-a2ec-fd4cee41fc26","ios":"levelo://app?vid=7c24ed0f-b0a2-4789-a2ec-fd4cee41fc26"},"vehicle_type_id":"4","last_reported":1725131188,"current_range_meters":8400,"station_id":"ce4bgjp2rcd13ifvqbh0","pricing_plan_id":"cebpf4jnsgd1na2vs0mg"},{"bike_id":"14accffa-50d0-4888-8885-fdf580085e0b","system_id":"levelo_inurba_marseille","lat":43.297794,"lon":5.370888,"is_reserved":false,"is_disabled":false,"rental_uris":{"android":"levelo://app?vid=14accffa-50d0-4888-8885-fdf580085e0b","ios":"levelo://app?vid=14accffa-50d0-4888-8885-fdf580085e0b"},"vehicle_type_id":"4","last_reported":1725131188,"current_range_meters":30400,"station_id":"ce4bgop2rcd13ifvqc1g","pricing_plan_id":"cebpf4jnsgd1na2vs0mg"},{"bike_id":"60ff3900-1cd1-4527-ae10-64555afa6b11","system_id":"levelo_inurba_marseille","lat":43.322912,"lon":5.382611,"is_reserved":false,"is_disabled":false,"rental_uris":{"android":"levelo://app?vid=60ff3900-1cd1-4527-ae10-64555afa6b11","ios":"levelo://app?vid=60ff3900-1cd1-4527-ae10-64555afa6b11"},"vehicle_type_id":"4","last_reported":1725131188,"current_range_meters":18800,"station_id":"ce4bhr12rcd13ifvqhqg","pricing_plan_id":"cebpf4jnsgd1na2vs0mg"},{"bike_id":"81ac9954-8c96-47f1-8d39-76fe6fb496b8","system_id":"levelo_inurba_marseille","lat":43.297774,"lon":5.370875,"is_reserved":false,"is_disabled":false,"rental_uris":{"android":"levelo://app?vid=81ac9954-8c96-47f1-8d39-76fe6fb496b8","ios":"levelo://app?vid=81ac9954-8c96-47f1-8d39-76fe6fb496b8"},"vehicle_type_id":"4","last_reported":1725131188,"current_range_meters":2800,"station_id":"ce4bgop2rcd13ifvqc1g","pricing_plan_id":"cebpf4jnsgd1na2vs0mg"},{"bike_id":"be15f62a-45ac-40e9-9cde-d0a0fc2cde53","system_id":"levelo_inurba_marseille","lat":43.32287,"lon":5.38274,"is_reserved":false,"is_disabled":false,"rental_uris":{"android":"levelo://app?vid=be15f62a-45ac-40e9-9cde-d0a0fc2cde53","ios":"levelo://app?vid=be15f62a-45ac-40e9-9cde-d0a0fc2cde53"},"vehicle_type_id":"4","last_reported":1725131188,"current_range_meters":0,"station_id":"ce4bhr12rcd13ifvqhqg","pricing_plan_id":"cebpf4jnsgd1na2vs0mg"},{"bike_id":"978320c9-74e6-4419-8da2-c72f1cc95d4f","system_id":"levelo_inurba_marseille","lat":43.32288,"lon":5.38273,"is_reserved":false,"is_disabled":false,"rental_uris":{"android":"levelo://app?vid=978320c9-74e6-4419-8da2-c72f1cc95d4f","ios":"levelo://app?vid=978320c9-74e6-4419-8da2-c72f1cc95d4f"},"vehicle_type_id":"4","last_reported":1725131188,"current_range_meters":20800,"station_id":"ce4bhr12rcd13ifvqhqg","pricing_plan_id":"cebpf4jnsgd1na2vs0mg"},{"bike_id":"116c1941-80b5-4173-a531-cec1b4491b2a","system_id":"levelo_inurba_marseille","lat":43.322872,"lon":5.382756,"is_reserved":false,"is_disabled":false,"rental_uris":{"android":"levelo://app?vid=116c1941-80b5-4173-a531-cec1b4491b2a","ios":"levelo://app?vid=116c1941-80b5-4173-a531-cec1b4491b2a"},"vehicle_type_id":"4","last_reported":1725131188,"current_range_meters":30400,"station_id":"ce4bhr12rcd13ifvqhqg","pricing_plan_id":"cebpf4jnsgd1na2vs0mg"},{"bike_id":"662857d7-8cea-464c-95e8-4991dacc88dc","system_id":"levelo_inurba_marseille","lat":43.322872,"lon":5.382756,"is_reserved":false,"is_disabled":false,"rental_uris":{"android":"levelo://app?vid=662857d7-8cea-464c-95e8-4991dacc88dc","ios":"levelo://app?vid=662857d7-8cea-464c-95e8-4991dacc88dc"},"vehicle_type_id":"4","last_reported":1725131188,"current_range_meters":16400,"station_id":"ce4bhr12rcd13ifvqhqg","pricing_plan_id":"cebpf4jnsgd1na2vs0mg"},{"bike_id":"f091bcb5-620a-498b-9ee3-7f22712fcfcc","system_id":"levelo_inurba_marseille","lat":43.32291,"lon":5.38281,"is_reserved":false,"is_disabled":false,"rental_uris":{"android":"levelo://app?vid=f091bcb5-620a-498b-9ee3-7f22712fcfcc","ios":"levelo://app?vid=f091bcb5-620a-498b-9ee3-7f22712fcfcc"},"vehicle_type_id":"4","last_reported":1725131188,"current_range_meters":5600,"station_id":"ce4bhr12rcd13ifvqhqg","pricing_plan_id":"cebpf4jnsgd1na2vs0mg"},{"bike_id":"899395d4-cdab-4092-aa9d-dcec60d51f61","system_id":"levelo_inurba_marseille","lat":43.29866,"lon":5.37638,"is_reserved":false,"is_disabled":false,"rental_uris":{"android":"levelo://app?vid=899395d4-cdab-4092-aa9d-dcec60d51f61","ios":"levelo://app?vid=899395d4-cdab-4092-aa9d-dcec60d51f61"},"vehicle_type_id":"4","last_reported":1725131188,"current_range_meters":17200,"station_id":"","pricing_plan_id":"cebpf4jnsgd1na2vs0mg"},{"bike_id":"affe9a07-c79c-4218-a73e-e990c361a62a","system_id":"levelo_inurba_marseille","lat":43.29711,"lon":5.36887,"is_reserved":false,"is_disabled":false,"rental_uris":{"android":"levelo://app?vid=affe9a07-c79c-4218-a73e-e990c361a62a","ios":"levelo://app?vid=affe9a07-c79c-4218-a73e-e990c361a62a"},"vehicle_type_id":"4","last_reported":1725131188,"current_range_meters":7200,"station_id":"","pricing_plan_id":"cebpf4jnsgd1na2vs0mg"},{"bike_id":"126110a9-2540-4cb7-9ca4-8912f6394474","system_id":"levelo_inurba_marseille","lat":43.297163,"lon":5.365866,"is_reserved":false,"is_disabled":false,"rental_uris":{"android":"levelo://app?vid=126110a9-2540-4cb7-9ca4-8912f6394474","ios":"levelo://app?vid=126110a9-2540-4cb7-9ca4-8912f6394474"},"vehicle_type_id":"4","last_reported":1725131188,"current_range_meters":21200,"station_id":"ce4bgn12rcd13ifvqbt0","pricing_plan_id":"cebpf4jnsgd1na2vs0mg"},{"bike_id":"b08112df-73ed-4dd0-a3d4-a0ce574facb8","system_id":"levelo_inurba_marseille","lat":43.297163,"lon":5.365866,"is_reserved":false,"is_disabled":false,"rental_uris":{"android":"levelo://app?vid=b08112df-73ed-4dd0-a3d4-a0ce574facb8","ios":"levelo://app?vid=b08112df-73ed-4dd0-a3d4-a0ce574facb8"},"vehicle_type_id":"4","last_reported":1725131188,"current_range_meters":3200,"station_id":"ce4bgn12rcd13ifvqbt0","pricing_plan_id":"cebpf4jnsgd1na2vs0mg"},{"bike_id":"796b4150-4f85-493a-8e48-36cba07cce59","system_id":"levelo_inurba_marseille","lat":43.29846,"lon":5.37664,"is_reserved":false,"is_disabled":false,"rental_uris":{"android":"levelo://app?vid=796b4150-4f85-493a-8e48-36cba07cce59","ios":"levelo://app?vid=796b4150-4f85-493a-8e48-36cba07cce59"},"vehicle_type_id":"4","last_reported":1725131188,"current_range_meters":23200,"station_id":"","pricing_plan_id":"cebpf4jnsgd1na2vs0mg"},{"bike_id":"f80cfea7-0989-463e-af6c-8edcb451d63a","system_id":"levelo_inurba_marseille","lat":43.296578,"lon":5.368721,"is_reserved":false,"is_disabled":false,"rental_uris":{"android":"levelo://app?vid=f80cfea7-0989-463e-af6c-8edcb451d63a","ios":"levelo://app?vid=f80cfea7-0989-463e-af6c-8edcb451d63a"},"vehicle_type_id":"4","last_reported":1725131188,"current_range_meters":6400,"station_id":"","pricing_plan_id":"cebpf4jnsgd1na2vs0mg"},{"bike_id":"8a8887de-5c7d-4b1c-91b2-78e9c920b48d","system_id":"levelo_inurba_marseille","lat":43.29683,"lon":5.372865,"is_reserved":false,"is_disabled":false,"rental_uris":{"android":"levelo://app?vid=8a8887de-5c7d-4b1c-91b2-78e9c920b48d","ios":"levelo://app?vid=8a8887de-5c7d-4b1c-91b2-78e9c920b48d"},"vehicle_type_id":"4","last_reported":1725131188,"current_range_meters":30800,"station_id":"ce4bgk12rcd13ifvqbj0","pricing_plan_id":"cebpf4jnsgd1na2vs0mg"},{"bike_id":"d64efaa8-74d0-4cdd-815b-47193797b032","system_id":"levelo_inurba_marseille","lat":43.296131,"lon":5.370791,"is_reserved":false,"is_disabled":false,"rental_uris":{"android":"levelo://app?vid=d64efaa8-74d0-4cdd-815b-47193797b032","ios":"levelo://app?vid=d64efaa8-74d0-4cdd-815b-47193797b032"},"vehicle_type_id":"4","last_reported":1725131188,"current_range_meters":24800,"station_id":"ce4bgnh2rcd13ifvqc0g","pricing_plan_id":"cebpf4jnsgd1na2vs0mg"},{"bike_id":"dcb40e11-936c-4262-86f3-f5dc124526b0","system_id":"levelo_inurba_marseille","lat":43.29583,"lon":5.36741,"is_reserved":false,"is_disabled":false,"rental_uris":{"android":"levelo://app?vid=dcb40e11-936c-4262-86f3-f5dc124526b0","ios":"levelo://app?vid=dcb40e11-936c-4262-86f3-f5dc124526b0"},"vehicle_type_id":"4","last_reported":1725131188,"current_range_meters":17200,"station_id":"ce4bgph2rcd13ifvqc2g","pricing_plan_id":"cebpf4jnsgd1na2vs0mg"},{"bike_id":"4377cbba-0189-459e-9aa0-9405b43ef492","system_id":"levelo_inurba_marseille","lat":43.29573,"lon":5.367355,"is_reserved":false,"is_disabled":false,"rental_uris":{"android":"levelo://app?vid=4377cbba-0189-459e-9aa0-9405b43ef492","ios":"levelo://app?vid=4377cbba-0189-459e-9aa0-9405b43ef492"},"vehicle_type_id":"4","last_reported":1725131188,"current_range_meters":10800,"station_id":"ce4bgph2rcd13ifvqc2g","pricing_plan_id":"cebpf4jnsgd1na2vs0mg"},{"bike_id":"d865524b-4395-4c4e-9ab6-fe7171e30ea1","system_id":"levelo_inurba_marseille","lat":43.29573,"lon":5.367355,"is_reserved":false,"is_disabled":false,"rental_uris":{"android":"levelo://app?vid=d865524b-4395-4c4e-9ab6-fe7171e30ea1","ios":"levelo://app?vid=d865524b-4395-4c4e-9ab6-fe7171e30ea1"},"vehicle_type_id":"4","last_reported":1725131188,"current_range_meters":9200,"station_id":"ce4bgph2rcd13ifvqc2g","pricing_plan_id":"cebpf4jnsgd1na2vs0mg"},{"bike_id":"4b6f10de-0d67-4f6d-bc16-9ecade0264b8","system_id":"levelo_inurba_marseille","lat":43.29902,"lon":5.380576,"is_reserved":false,"is_disabled":false,"rental_uris":{"android":"levelo://app?vid=4b6f10de-0d67-4f6d-bc16-9ecade0264b8","ios":"levelo://app?vid=4b6f10de-0d67-4f6d-bc16-9ecade0264b8"},"vehicle_type_id":"4","last_reported":1725131188,"current_range_meters":800,"station_id":"ce4bh412rcd13ifvqdr0","pricing_plan_id":"cebpf4jnsgd1na2vs0mg"},{"bike_id":"f216e9ea-865c-4b1e-9897-5b5da63cb2ce","system_id":"levelo_inurba_marseille","lat":43.29579,"lon":5.36742,"is_reserved":false,"is_disabled":false,"rental_uris":{"android":"levelo://app?vid=f216e9ea-865c-4b1e-9897-5b5da63cb2ce","ios":"levelo://app?vid=f216e9ea-865c-4b1e-9897-5b5da63cb2ce"},"vehicle_type_id":"4","last_reported":1725131188,"current_range_meters":0,"station_id":"ce4bgph2rcd13ifvqc2g","pricing_plan_id":"cebpf4jnsgd1na2vs0mg"},{"bike_id":"046073ca-4ac5-4fac-9a78-e42ae84cfaaf","system_id":"levelo_inurba_marseille","lat":43.29576,"lon":5.36739,"is_reserved":false,"is_disabled":false,"rental_uris":{"android":"levelo://app?vid=046073ca-4ac5-4fac-9a78-e42ae84cfaaf","ios":"levelo://app?vid=046073ca-4ac5-4fac-9a78-e42ae84cfaaf"},"vehicle_type_id":"4","last_reported":1725131188,"current_range_meters":28000,"station_id":"ce4bgph2rcd13ifvqc2g","pricing_plan_id":"cebpf4jnsgd1na2vs0mg"},{"bike_id":"a1efc6bc-da77-4d9b-bdb5-1623aaf9c1b2","system_id":"levelo_inurba_marseille","lat":43.296921,"lon":5.376579,"is_reserved":false,"is_disabled":false,"rental_uris":{"android":"levelo://app?vid=a1efc6bc-da77-4d9b-bdb5-1623aaf9c1b2","ios":"levelo://app?vid=a1efc6bc-da77-4d9b-bdb5-1623aaf9c1b2"},"vehicle_type_id":"4","last_reported":1725131188,"current_range_meters":0,"station_id":"ce4bgkh2rcd13ifvqbl0","pricing_plan_id":"cebpf4jnsgd1na2vs0mg"},{"bike_id":"fb7a1284-907e-4df0-a37e-0f0f7d460b93","system_id":"levelo_inurba_marseille","lat":43.29911,"lon":5.38143,"is_reserved":false,"is_disabled":false,"rental_uris":{"android":"levelo://app?vid=fb7a1284-907e-4df0-a37e-0f0f7d460b93","ios":"levelo://app?vid=fb7a1284-907e-4df0-a37e-0f0f7d460b93"},"vehicle_type_id":"4","last_reported":1725131188,"current_range_meters":17200,"station_id":"ce4bgj12rcd13ifvqbc0","pricing_plan_id":"cebpf4jnsgd1na2vs0mg"},{"bike_id":"ed9965b9-33e5-4a46-a031-9ce45a196481","system_id":"levelo_inurba_marseille","lat":43.309589,"lon":5.390258,"is_reserved":false,"is_disabled":false,"rental_uris":{"android":"levelo://app?vid=ed9965b9-33e5-4a46-a031-9ce45a196481","ios":"levelo://app?vid=ed9965b9-33e5-4a46-a031-9ce45a196481"},"vehicle_type_id":"4","last_reported":1725131188,"current_range_meters":5200,"station_id":"ce4bgup2rcd13ifvqco0","pricing_plan_id":"cebpf4jnsgd1na2vs0mg"},{"bike_id":"7f8ef9d6-5078-4495-9c64-72ad194893ff","system_id":"levelo_inurba_marseille","lat":43.29708,"lon":5.37691,"is_reserved":false,"is_disabled":false,"rental_uris":{"android":"levelo://app?vid=7f8ef9d6-5078-4495-9c64-72ad194893ff","ios":"levelo://app?vid=7f8ef9d6-5078-4495-9c64-72ad194893ff"},"vehicle_type_id":"4","last_reported":1725131188,"current_range_meters":400,"station_id":"ce4bgkh2rcd13ifvqbl0","pricing_plan_id":"cebpf4jnsgd1na2vs0mg"},{"bike_id":"8738432a-bb53-4b82-ac76-c162a4363df7","system_id":"levelo_inurba_marseille","lat":43.30953,"lon":5.39026,"is_reserved":false,"is_disabled":false,"rental_uris":{"android":"levelo://app?vid=8738432a-bb53-4b82-ac76-c162a4363df7","ios":"levelo://app?vid=8738432a-bb53-4b82-ac76-c162a4363df7"},"vehicle_type_id":"4","last_reported":1725131188,"current_range_meters":13200,"station_id":"ce4bgup2rcd13ifvqco0","pricing_plan_id":"cebpf4jnsgd1na2vs0mg"},{"bike_id":"f85a9055-f961-4f57-ba59-8e83336b4a92","system_id":"levelo_inurba_marseille","lat":43.30951,"lon":5.39026,"is_reserved":false,"is_disabled":false,"rental_uris":{"android":"levelo://app?vid=f85a9055-f961-4f57-ba59-8e83336b4a92","ios":"levelo://app?vid=f85a9055-f961-4f57-ba59-8e83336b4a92"},"vehicle_type_id":"4","last_reported":1725131188,"current_range_meters":0,"station_id":"ce4bgup2rcd13ifvqco0","pricing_plan_id":"cebpf4jnsgd1na2vs0mg"},{"bike_id":"3edc6066-f0fc-46a7-a31d-7799882dd067","system_id":"levelo_inurba_marseille","lat":43.30947,"lon":5.39025,"is_reserved":false,"is_disabled":false,"rental_uris":{"android":"levelo://app?vid=3edc6066-f0fc-46a7-a31d-7799882dd067","ios":"levelo://app?vid=3edc6066-f0fc-46a7-a31d-7799882dd067"},"vehicle_type_id":"4","last_reported":1725131188,"current_range_meters":21600,"station_id":"ce4bgup2rcd13ifvqco0","pricing_plan_id":"cebpf4jnsgd1na2vs0mg"},{"bike_id":"8cfe13fb-4f4f-4c0c-a52f-04160df6ffdc","system_id":"levelo_inurba_marseille","lat":43.309589,"lon":5.390258,"is_reserved":false,"is_disabled":false,"rental_uris":{"android":"levelo://app?vid=8cfe13fb-4f4f-4c0c-a52f-04160df6ffdc","ios":"levelo://app?vid=8cfe13fb-4f4f-4c0c-a52f-04160df6ffdc"},"vehicle_type_id":"4","last_reported":1725131188,"current_range_meters":23200,"station_id":"ce4bgup2rcd13ifvqco0","pricing_plan_id":"cebpf4jnsgd1na2vs0mg"},{"bike_id":"bc72b324-3aae-4bb7-9345-d932b1ef1eed","system_id":"levelo_inurba_marseille","lat":43.30947,"lon":5.39028,"is_reserved":false,"is_disabled":false,"rental_uris":{"android":"levelo://app?vid=bc72b324-3aae-4bb7-9345-d932b1ef1eed","ios":"levelo://app?vid=bc72b324-3aae-4bb7-9345-d932b1ef1eed"},"vehicle_type_id":"4","last_reported":1725131188,"current_range_meters":24800,"station_id":"ce4bgup2rcd13ifvqco0","pricing_plan_id":"cebpf4jnsgd1na2vs0mg"},{"bike_id":"5e69d76c-2878-4420-8714-f9028f3e63f1","system_id":"levelo_inurba_marseille","lat":43.309589,"lon":5.390258,"is_reserved":false,"is_disabled":false,"rental_uris":{"android":"levelo://app?vid=5e69d76c-2878-4420-8714-f9028f3e63f1","ios":"levelo://app?vid=5e69d76c-2878-4420-8714-f9028f3e63f1"},"vehicle_type_id":"4","last_reported":1725131188,"current_range_meters":0,"station_id":"ce4bgup2rcd13ifvqco0","pricing_plan_id":"cebpf4jnsgd1na2vs0mg"},{"bike_id":"a09bed8a-dfce-4cfa-9077-3f36e04e3d3f","system_id":"levelo_inurba_marseille","lat":43.309589,"lon":5.390258,"is_reserved":false,"is_disabled":false,"rental_uris":{"android":"levelo://app?vid=a09bed8a-dfce-4cfa-9077-3f36e04e3d3f","ios":"levelo://app?vid=a09bed8a-dfce-4cfa-9077-3f36e04e3d3f"},"vehicle_type_id":"4","last_reported":1725131188,"current_range_meters":25600,"station_id":"ce4bgup2rcd13ifvqco0","pricing_plan_id":"cebpf4jnsgd1na2vs0mg"},{"bike_id":"bd9f0fab-5990-4ce7-abbc-db3c105dde45","system_id":"levelo_inurba_marseille","lat":43.309589,"lon":5.390258,"is_reserved":false,"is_disabled":false,"rental_uris":{"android":"levelo://app?vid=bd9f0fab-5990-4ce7-abbc-db3c105dde45","ios":"levelo://app?vid=bd9f0fab-5990-4ce7-abbc-db3c105dde45"},"vehicle_type_id":"4","last_reported":1725131188,"current_range_meters":11600,"station_id":"ce4bgup2rcd13ifvqco0","pricing_plan_id":"cebpf4jnsgd1na2vs0mg"},{"bike_id":"2ed1f8c9-4caf-4995-9e88-5b503fc9ca2d","system_id":"levelo_inurba_marseille","lat":43.30953,"lon":5.39031,"is_reserved":false,"is_disabled":false,"rental_uris":{"android":"levelo://app?vid=2ed1f8c9-4caf-4995-9e88-5b503fc9ca2d","ios":"levelo://app?vid=2ed1f8c9-4caf-4995-9e88-5b503fc9ca2d"},"vehicle_type_id":"4","last_reported":1725131188,"current_range_meters":16000,"station_id":"ce4bgup2rcd13ifvqco0","pricing_plan_id":"cebpf4jnsgd1na2vs0mg"},{"bike_id":"580c268a-3de3-4029-9823-b4a9acf8f6f1","system_id":"levelo_inurba_marseille","lat":43.309436,"lon":5.390293,"is_reserved":false,"is_disabled":false,"rental_uris":{"android":"levelo://app?vid=580c268a-3de3-4029-9823-b4a9acf8f6f1","ios":"levelo://app?vid=580c268a-3de3-4029-9823-b4a9acf8f6f1"},"vehicle_type_id":"4","last_reported":1725131188,"current_range_meters":0,"station_id":"ce4bgup2rcd13ifvqco0","pricing_plan_id":"cebpf4jnsgd1na2vs0mg"},{"bike_id":"87174c95-2d46-4c46-a874-ef7907988e7c","system_id":"levelo_inurba_marseille","lat":43.30949,"lon":5.39031,"is_reserved":false,"is_disabled":false,"rental_uris":{"android":"levelo://app?vid=87174c95-2d46-4c46-a874-ef7907988e7c","ios":"levelo://app?vid=87174c95-2d46-4c46-a874-ef7907988e7c"},"vehicle_type_id":"4","last_reported":1725131188,"current_range_meters":0,"station_id":"ce4bgup2rcd13ifvqco0","pricing_plan_id":"cebpf4jnsgd1na2vs0mg"},{"bike_id":"fb7bb299-19e5-46c1-9eee-39f8c147df8b","system_id":"levelo_inurba_marseille","lat":43.30952,"lon":5.39032,"is_reserved":false,"is_disabled":false,"rental_uris":{"android":"levelo://app?vid=fb7bb299-19e5-46c1-9eee-39f8c147df8b","ios":"levelo://app?vid=fb7bb299-19e5-46c1-9eee-39f8c147df8b"},"vehicle_type_id":"4","last_reported":1725131188,"current_range_meters":8800,"station_id":"ce4bgup2rcd13ifvqco0","pricing_plan_id":"cebpf4jnsgd1na2vs0mg"},{"bike_id":"a1d326b3-5748-4f9c-9088-59bc4492441d","system_id":"levelo_inurba_marseille","lat":43.30951,"lon":5.39032,"is_reserved":false,"is_disabled":false,"rental_uris":{"android":"levelo://app?vid=a1d326b3-5748-4f9c-9088-59bc4492441d","ios":"levelo://app?vid=a1d326b3-5748-4f9c-9088-59bc4492441d"},"vehicle_type_id":"4","last_reported":1725131188,"current_range_meters":28000,"station_id":"ce4bgup2rcd13ifvqco0","pricing_plan_id":"cebpf4jnsgd1na2vs0mg"},{"bike_id":"494a13cc-61a4-4953-91d0-e77a90253157","system_id":"levelo_inurba_marseille","lat":43.30946,"lon":5.39031,"is_reserved":false,"is_disabled":false,"rental_uris":{"android":"levelo://app?vid=494a13cc-61a4-4953-91d0-e77a90253157","ios":"levelo://app?vid=494a13cc-61a4-4953-91d0-e77a90253157"},"vehicle_type_id":"4","last_reported":1725131188,"current_range_meters":0,"station_id":"ce4bgup2rcd13ifvqco0","pricing_plan_id":"cebpf4jnsgd1na2vs0mg"},{"bike_id":"e5a9e755-cc81-4ef6-8432-634fa9cc13d5","system_id":"levelo_inurba_marseille","lat":43.309589,"lon":5.390258,"is_reserved":false,"is_disabled":false,"rental_uris":{"android":"levelo://app?vid=e5a9e755-cc81-4ef6-8432-634fa9cc13d5","ios":"levelo://app?vid=e5a9e755-cc81-4ef6-8432-634fa9cc13d5"},"vehicle_type_id":"4","last_reported":1725131188,"current_range_meters":12800,"station_id":"ce4bgup2rcd13ifvqco0","pricing_plan_id":"cebpf4jnsgd1na2vs0mg"},{"bike_id":"0e724c0e-9008-49f0-b95e-c07a19ea6e37","system_id":"levelo_inurba_marseille","lat":43.296935,"lon":5.376544,"is_reserved":false,"is_disabled":false,"rental_uris":{"android":"levelo://app?vid=0e724c0e-9008-49f0-b95e-c07a19ea6e37","ios":"levelo://app?vid=0e724c0e-9008-49f0-b95e-c07a19ea6e37"},"vehicle_type_id":"4","last_reported":1725131188,"current_range_meters":400,"station_id":"ce4bgkh2rcd13ifvqbl0","pricing_plan_id":"cebpf4jnsgd1na2vs0mg"},{"bike_id":"626771e2-7916-4db5-bc1e-95c564741596","system_id":"levelo_inurba_marseille","lat":43.309589,"lon":5.390258,"is_reserved":false,"is_disabled":false,"rental_uris":{"android":"levelo://app?vid=626771e2-7916-4db5-bc1e-95c564741596","ios":"levelo://app?vid=626771e2-7916-4db5-bc1e-95c564741596"},"vehicle_type_id":"4","last_reported":1725131188,"current_range_meters":0,"station_id":"ce4bgup2rcd13ifvqco0","pricing_plan_id":"cebpf4jnsgd1na2vs0mg"},{"bike_id":"2cbcf741-818c-4f62-91b8-0facd7305ad1","system_id":"levelo_inurba_marseille","lat":43.30959,"lon":5.39036,"is_reserved":false,"is_disabled":false,"rental_uris":{"android":"levelo://app?vid=2cbcf741-818c-4f62-91b8-0facd7305ad1","ios":"levelo://app?vid=2cbcf741-818c-4f62-91b8-0facd7305ad1"},"vehicle_type_id":"4","last_reported":1725131188,"current_range_meters":25600,"station_id":"ce4bgup2rcd13ifvqco0","pricing_plan_id":"cebpf4jnsgd1na2vs0mg"},{"bike_id":"9d3946f7-8526-4fd3-86b0-221d15084098","system_id":"levelo_inurba_marseille","lat":43.3095,"lon":5.39034,"is_reserved":false,"is_disabled":false,"rental_uris":{"android":"levelo://app?vid=9d3946f7-8526-4fd3-86b0-221d15084098","ios":"levelo://app?vid=9d3946f7-8526-4fd3-86b0-221d15084098"},"vehicle_type_id":"4","last_reported":1725131188,"current_range_meters":26800,"station_id":"ce4bgup2rcd13ifvqco0","pricing_plan_id":"cebpf4jnsgd1na2vs0mg"},{"bike_id":"d3d7f571-4df4-4a4f-945d-ea9775d53173","system_id":"levelo_inurba_marseille","lat":43.309589,"lon":5.390258,"is_reserved":false,"is_disabled":false,"rental_uris":{"android":"levelo://app?vid=d3d7f571-4df4-4a4f-945d-ea9775d53173","ios":"levelo://app?vid=d3d7f571-4df4-4a4f-945d-ea9775d53173"},"vehicle_type_id":"4","last_reported":1725131188,"current_range_meters":4000,"station_id":"ce4bgup2rcd13ifvqco0","pricing_plan_id":"cebpf4jnsgd1na2vs0mg"},{"bike_id":"601ce75c-e9ec-4ec1-9a6d-35665da8756e","system_id":"levelo_inurba_marseille","lat":43.30945,"lon":5.39035,"is_reserved":false,"is_disabled":false,"rental_uris":{"android":"levelo://app?vid=601ce75c-e9ec-4ec1-9a6d-35665da8756e","ios":"levelo://app?vid=601ce75c-e9ec-4ec1-9a6d-35665da8756e"},"vehicle_type_id":"4","last_reported":1725131188,"current_range_meters":12000,"station_id":"ce4bgup2rcd13ifvqco0","pricing_plan_id":"cebpf4jnsgd1na2vs0mg"},{"bike_id":"5ab424c3-f9c4-4a46-9b4a-36752343af65","system_id":"levelo_inurba_marseille","lat":43.30956,"lon":5.39039,"is_reserved":false,"is_disabled":false,"rental_uris":{"android":"levelo://app?vid=5ab424c3-f9c4-4a46-9b4a-36752343af65","ios":"levelo://app?vid=5ab424c3-f9c4-4a46-9b4a-36752343af65"},"vehicle_type_id":"4","last_reported":1725131188,"current_range_meters":0,"station_id":"ce4bgup2rcd13ifvqco0","pricing_plan_id":"cebpf4jnsgd1na2vs0mg"},{"bike_id":"0222c80e-d7d3-47ec-9ca1-d5feab4a5fb4","system_id":"levelo_inurba_marseille","lat":43.309589,"lon":5.390258,"is_reserved":false,"is_disabled":false,"rental_uris":{"android":"levelo://app?vid=0222c80e-d7d3-47ec-9ca1-d5feab4a5fb4","ios":"levelo://app?vid=0222c80e-d7d3-47ec-9ca1-d5feab4a5fb4"},"vehicle_type_id":"4","last_reported":1725131188,"current_range_meters":15200,"station_id":"ce4bgup2rcd13ifvqco0","pricing_plan_id":"cebpf4jnsgd1na2vs0mg"},{"bike_id":"d368b702-32ad-4052-8827-29f0ccf1f802","system_id":"levelo_inurba_marseille","lat":43.30948,"lon":5.3904,"is_reserved":false,"is_disabled":false,"rental_uris":{"android":"levelo://app?vid=d368b702-32ad-4052-8827-29f0ccf1f802","ios":"levelo://app?vid=d368b702-32ad-4052-8827-29f0ccf1f802"},"vehicle_type_id":"4","last_reported":1725131188,"current_range_meters":0,"station_id":"ce4bgup2rcd13ifvqco0","pricing_plan_id":"cebpf4jnsgd1na2vs0mg"},{"bike_id":"b53f632d-e91a-468c-8aff-ae5b3e3a4a18","system_id":"levelo_inurba_marseille","lat":43.309589,"lon":5.390258,"is_reserved":false,"is_disabled":false,"rental_uris":{"android":"levelo://app?vid=b53f632d-e91a-468c-8aff-ae5b3e3a4a18","ios":"levelo://app?vid=b53f632d-e91a-468c-8aff-ae5b3e3a4a18"},"vehicle_type_id":"4","last_reported":1725131188,"current_range_meters":28400,"station_id":"ce4bgup2rcd13ifvqco0","pricing_plan_id":"cebpf4jnsgd1na2vs0mg"},{"bike_id":"5e830d0c-c18f-4d3d-9076-f5cfef658d91","system_id":"levelo_inurba_marseille","lat":43.30949,"lon":5.39041,"is_reserved":false,"is_disabled":false,"rental_uris":{"android":"levelo://app?vid=5e830d0c-c18f-4d3d-9076-f5cfef658d91","ios":"levelo://app?vid=5e830d0c-c18f-4d3d-9076-f5cfef658d91"},"vehicle_type_id":"4","last_reported":1725131188,"current_range_meters":12400,"station_id":"ce4bgup2rcd13ifvqco0","pricing_plan_id":"cebpf4jnsgd1na2vs0mg"},{"bike_id":"339f9f10-bd2b-418c-b4d0-b91d53442ea5","system_id":"levelo_inurba_marseille","lat":43.309589,"lon":5.390258,"is_reserved":false,"is_disabled":false,"rental_uris":{"android":"levelo://app?vid=339f9f10-bd2b-418c-b4d0-b91d53442ea5","ios":"levelo://app?vid=339f9f10-bd2b-418c-b4d0-b91d53442ea5"},"vehicle_type_id":"4","last_reported":1725131188,"current_range_meters":26400,"station_id":"ce4bgup2rcd13ifvqco0","pricing_plan_id":"cebpf4jnsgd1na2vs0mg"},{"bike_id":"2d69da52-ce42-4fe8-8bff-643392f23b2d","system_id":"levelo_inurba_marseille","lat":43.309589,"lon":5.390258,"is_reserved":false,"is_disabled":false,"rental_uris":{"android":"levelo://app?vid=2d69da52-ce42-4fe8-8bff-643392f23b2d","ios":"levelo://app?vid=2d69da52-ce42-4fe8-8bff-643392f23b2d"},"vehicle_type_id":"4","last_reported":1725131188,"current_range_meters":26400,"station_id":"ce4bgup2rcd13ifvqco0","pricing_plan_id":"cebpf4jnsgd1na2vs0mg"},{"bike_id":"e6d8a69c-e87a-4512-b6ff-76c37cacc427","system_id":"levelo_inurba_marseille","lat":43.309589,"lon":5.390258,"is_reserved":false,"is_disabled":false,"rental_uris":{"android":"levelo://app?vid=e6d8a69c-e87a-4512-b6ff-76c37cacc427","ios":"levelo://app?vid=e6d8a69c-e87a-4512-b6ff-76c37cacc427"},"vehicle_type_id":"4","last_reported":1725131188,"current_range_meters":16000,"station_id":"ce4bgup2rcd13ifvqco0","pricing_plan_id":"cebpf4jnsgd1na2vs0mg"},{"bike_id":"61794e8e-c1b1-470c-9b47-d01dfc76c6a1","system_id":"levelo_inurba_marseille","lat":43.30942,"lon":5.390497,"is_reserved":false,"is_disabled":false,"rental_uris":{"android":"levelo://app?vid=61794e8e-c1b1-470c-9b47-d01dfc76c6a1","ios":"levelo://app?vid=61794e8e-c1b1-470c-9b47-d01dfc76c6a1"},"vehicle_type_id":"4","last_reported":1725131188,"current_range_meters":13200,"station_id":"ce4bgup2rcd13ifvqco0","pricing_plan_id":"cebpf4jnsgd1na2vs0mg"},{"bike_id":"606d22c6-bfbe-4701-adc3-970a761185ad","system_id":"levelo_inurba_marseille","lat":43.317557,"lon":5.390173,"is_reserved":false,"is_disabled":false,"rental_uris":{"android":"levelo://app?vid=606d22c6-bfbe-4701-adc3-970a761185ad","ios":"levelo://app?vid=606d22c6-bfbe-4701-adc3-970a761185ad"},"vehicle_type_id":"4","last_reported":1725131188,"current_range_meters":8000,"station_id":"ce4bhqp2rcd13ifvqhng","pricing_plan_id":"cebpf4jnsgd1na2vs0mg"},{"bike_id":"2c793f8c-2e09-4149-a490-9dbdebe121f6","system_id":"levelo_inurba_marseille","lat":43.31757,"lon":5.39017,"is_reserved":false,"is_disabled":false,"rental_uris":{"android":"levelo://app?vid=2c793f8c-2e09-4149-a490-9dbdebe121f6","ios":"levelo://app?vid=2c793f8c-2e09-4149-a490-9dbdebe121f6"},"vehicle_type_id":"4","last_reported":1725131188,"current_range_meters":0,"station_id":"ce4bhqp2rcd13ifvqhng","pricing_plan_id":"cebpf4jnsgd1na2vs0mg"},{"bike_id":"8dc491f5-a996-4cd3-9d4f-2e05b1f7044e","system_id":"levelo_inurba_marseille","lat":43.30932,"lon":5.39065,"is_reserved":false,"is_disabled":false,"rental_uris":{"android":"levelo://app?vid=8dc491f5-a996-4cd3-9d4f-2e05b1f7044e","ios":"levelo://app?vid=8dc491f5-a996-4cd3-9d4f-2e05b1f7044e"},"vehicle_type_id":"4","last_reported":1725131188,"current_range_meters":12800,"station_id":"ce4bgup2rcd13ifvqco0","pricing_plan_id":"cebpf4jnsgd1na2vs0mg"},{"bike_id":"1d1f66c6-f1ed-4778-b358-1f9298cd29a1","system_id":"levelo_inurba_marseille","lat":43.2958,"lon":5.37512,"is_reserved":false,"is_disabled":false,"rental_uris":{"android":"levelo://app?vid=1d1f66c6-f1ed-4778-b358-1f9298cd29a1","ios":"levelo://app?vid=1d1f66c6-f1ed-4778-b358-1f9298cd29a1"},"vehicle_type_id":"4","last_reported":1725131188,"current_range_meters":5200,"station_id":"ce4bgh92rcd13ifvqb50","pricing_plan_id":"cebpf4jnsgd1na2vs0mg"},{"bike_id":"a5186222-9b83-43e7-8dd8-058428977465","system_id":"levelo_inurba_marseille","lat":43.295748,"lon":5.37522,"is_reserved":false,"is_disabled":false,"rental_uris":{"android":"levelo://app?vid=a5186222-9b83-43e7-8dd8-058428977465","ios":"levelo://app?vid=a5186222-9b83-43e7-8dd8-058428977465"},"vehicle_type_id":"4","last_reported":1725131188,"current_range_meters":26400,"station_id":"ce4bgh92rcd13ifvqb50","pricing_plan_id":"cebpf4jnsgd1na2vs0mg"},{"bike_id":"4d0c06a8-d1e9-44ad-9084-4d8d63f53779","system_id":"levelo_inurba_marseille","lat":43.298037,"lon":5.381066,"is_reserved":false,"is_disabled":false,"rental_uris":{"android":"levelo://app?vid=4d0c06a8-d1e9-44ad-9084-4d8d63f53779","ios":"levelo://app?vid=4d0c06a8-d1e9-44ad-9084-4d8d63f53779"},"vehicle_type_id":"4","last_reported":1725131188,"current_range_meters":22400,"station_id":"ce4bgip2rcd13ifvqbb0","pricing_plan_id":"cebpf4jnsgd1na2vs0mg"},{"bike_id":"97442516-616f-4074-9798-9e426376bb3e","system_id":"levelo_inurba_marseille","lat":43.295748,"lon":5.37522,"is_reserved":false,"is_disabled":false,"rental_uris":{"android":"levelo://app?vid=97442516-616f-4074-9798-9e426376bb3e","ios":"levelo://app?vid=97442516-616f-4074-9798-9e426376bb3e"},"vehicle_type_id":"4","last_reported":1725131188,"current_range_meters":14800,"station_id":"ce4bgh92rcd13ifvqb50","pricing_plan_id":"cebpf4jnsgd1na2vs0mg"},{"bike_id":"4ebdc610-b0d3-4989-871f-5b53490ab038","system_id":"levelo_inurba_marseille","lat":43.295748,"lon":5.37522,"is_reserved":false,"is_disabled":false,"rental_uris":{"android":"levelo://app?vid=4ebdc610-b0d3-4989-871f-5b53490ab038","ios":"levelo://app?vid=4ebdc610-b0d3-4989-871f-5b53490ab038"},"vehicle_type_id":"4","last_reported":1725131188,"current_range_meters":1600,"station_id":"ce4bgh92rcd13ifvqb50","pricing_plan_id":"cebpf4jnsgd1na2vs0mg"},{"bike_id":"1af6677e-3b2d-45c0-a8e3-c68c325a981a","system_id":"levelo_inurba_marseille","lat":43.298037,"lon":5.381066,"is_reserved":false,"is_disabled":false,"rental_uris":{"android":"levelo://app?vid=1af6677e-3b2d-45c0-a8e3-c68c325a981a","ios":"levelo://app?vid=1af6677e-3b2d-45c0-a8e3-c68c325a981a"},"vehicle_type_id":"4","last_reported":1725131188,"current_range_meters":20800,"station_id":"ce4bgip2rcd13ifvqbb0","pricing_plan_id":"cebpf4jnsgd1na2vs0mg"},{"bike_id":"f51d2747-6495-474a-944d-7e56c8336d79","system_id":"levelo_inurba_marseille","lat":43.29794,"lon":5.38111,"is_reserved":false,"is_disabled":false,"rental_uris":{"android":"levelo://app?vid=f51d2747-6495-474a-944d-7e56c8336d79","ios":"levelo://app?vid=f51d2747-6495-474a-944d-7e56c8336d79"},"vehicle_type_id":"4","last_reported":1725131188,"current_range_meters":21600,"station_id":"ce4bgip2rcd13ifvqbb0","pricing_plan_id":"cebpf4jnsgd1na2vs0mg"},{"bike_id":"ac9c076e-7ccf-4635-80e0-629901089f09","system_id":"levelo_inurba_marseille","lat":43.295748,"lon":5.37522,"is_reserved":false,"is_disabled":false,"rental_uris":{"android":"levelo://app?vid=ac9c076e-7ccf-4635-80e0-629901089f09","ios":"levelo://app?vid=ac9c076e-7ccf-4635-80e0-629901089f09"},"vehicle_type_id":"4","last_reported":1725131188,"current_range_meters":18400,"station_id":"ce4bgh92rcd13ifvqb50","pricing_plan_id":"cebpf4jnsgd1na2vs0mg"},{"bike_id":"2e2b46a1-1aae-435a-9fc6-d9cb9e0aaa00","system_id":"levelo_inurba_marseille","lat":43.295748,"lon":5.37522,"is_reserved":false,"is_disabled":false,"rental_uris":{"android":"levelo://app?vid=2e2b46a1-1aae-435a-9fc6-d9cb9e0aaa00","ios":"levelo://app?vid=2e2b46a1-1aae-435a-9fc6-d9cb9e0aaa00"},"vehicle_type_id":"4","last_reported":1725131188,"current_range_meters":4000,"station_id":"ce4bgh92rcd13ifvqb50","pricing_plan_id":"cebpf4jnsgd1na2vs0mg"},{"bike_id":"4f119e78-3812-4d5e-84f7-553643dcda00","system_id":"levelo_inurba_marseille","lat":43.295748,"lon":5.37522,"is_reserved":false,"is_disabled":false,"rental_uris":{"android":"levelo://app?vid=4f119e78-3812-4d5e-84f7-553643dcda00","ios":"levelo://app?vid=4f119e78-3812-4d5e-84f7-553643dcda00"},"vehicle_type_id":"4","last_reported":1725131188,"current_range_meters":14000,"station_id":"ce4bgh92rcd13ifvqb50","pricing_plan_id":"cebpf4jnsgd1na2vs0mg"},{"bike_id":"70f93019-3033-429a-9f02-83fd4d084716","system_id":"levelo_inurba_marseille","lat":43.296263,"lon":5.377094,"is_reserved":false,"is_disabled":false,"rental_uris":{"android":"levelo://app?vid=70f93019-3033-429a-9f02-83fd4d084716","ios":"levelo://app?vid=70f93019-3033-429a-9f02-83fd4d084716"},"vehicle_type_id":"4","last_reported":1725131188,"current_range_meters":8000,"station_id":"ce4bgi92rcd13ifvqb90","pricing_plan_id":"cebpf4jnsgd1na2vs0mg"},{"bike_id":"0da05bd9-e921-4c75-ac6a-4bbd72e657da","system_id":"levelo_inurba_marseille","lat":43.296263,"lon":5.377094,"is_reserved":false,"is_disabled":false,"rental_uris":{"android":"levelo://app?vid=0da05bd9-e921-4c75-ac6a-4bbd72e657da","ios":"levelo://app?vid=0da05bd9-e921-4c75-ac6a-4bbd72e657da"},"vehicle_type_id":"4","last_reported":1725131188,"current_range_meters":16000,"station_id":"ce4bgi92rcd13ifvqb90","pricing_plan_id":"cebpf4jnsgd1na2vs0mg"},{"bike_id":"eeb9aa56-cb00-4f7a-8ec5-56ebe215e2a5","system_id":"levelo_inurba_marseille","lat":43.297477,"lon":5.380713,"is_reserved":false,"is_disabled":false,"rental_uris":{"android":"levelo://app?vid=eeb9aa56-cb00-4f7a-8ec5-56ebe215e2a5","ios":"levelo://app?vid=eeb9aa56-cb00-4f7a-8ec5-56ebe215e2a5"},"vehicle_type_id":"4","last_reported":1725131188,"current_range_meters":13600,"station_id":"","pricing_plan_id":"cebpf4jnsgd1na2vs0mg"},{"bike_id":"b773592c-6d9b-4d3e-a929-9c7938ef910f","system_id":"levelo_inurba_marseille","lat":43.296263,"lon":5.377094,"is_reserved":false,"is_disabled":false,"rental_uris":{"android":"levelo://app?vid=b773592c-6d9b-4d3e-a929-9c7938ef910f","ios":"levelo://app?vid=b773592c-6d9b-4d3e-a929-9c7938ef910f"},"vehicle_type_id":"4","last_reported":1725131188,"current_range_meters":29600,"station_id":"ce4bgi92rcd13ifvqb90","pricing_plan_id":"cebpf4jnsgd1na2vs0mg"},{"bike_id":"3f4ab97e-cc1b-4aab-ab1b-e8b2e991aac0","system_id":"levelo_inurba_marseille","lat":43.295279,"lon":5.375048,"is_reserved":false,"is_disabled":false,"rental_uris":{"android":"levelo://app?vid=3f4ab97e-cc1b-4aab-ab1b-e8b2e991aac0","ios":"levelo://app?vid=3f4ab97e-cc1b-4aab-ab1b-e8b2e991aac0"},"vehicle_type_id":"4","last_reported":1725131188,"current_range_meters":18400,"station_id":"ce4bgkp2rcd13ifvqbmg","pricing_plan_id":"cebpf4jnsgd1na2vs0mg"},{"bike_id":"03139526-27b2-425f-a49f-c2f37cec5df9","system_id":"levelo_inurba_marseille","lat":43.29601,"lon":5.381084,"is_reserved":false,"is_disabled":false,"rental_uris":{"android":"levelo://app?vid=03139526-27b2-425f-a49f-c2f37cec5df9","ios":"levelo://app?vid=03139526-27b2-425f-a49f-c2f37cec5df9"},"vehicle_type_id":"4","last_reported":1725131188,"current_range_meters":26400,"station_id":"ce4bgl12rcd13ifvqbo0","pricing_plan_id":"cebpf4jnsgd1na2vs0mg"},{"bike_id":"daf23e5c-d708-4e84-93de-b7fecad348c2","system_id":"levelo_inurba_marseille","lat":43.299717,"lon":5.384845,"is_reserved":false,"is_disabled":false,"rental_uris":{"android":"levelo://app?vid=daf23e5c-d708-4e84-93de-b7fecad348c2","ios":"levelo://app?vid=daf23e5c-d708-4e84-93de-b7fecad348c2"},"vehicle_type_id":"4","last_reported":1725131188,"current_range_meters":12800,"station_id":"ce4bgj92rcd13ifvqbd0","pricing_plan_id":"cebpf4jnsgd1na2vs0mg"},{"bike_id":"f00d9cd4-cb11-487a-b899-a4cd4a0d7929","system_id":"levelo_inurba_marseille","lat":43.29964,"lon":5.38497,"is_reserved":false,"is_disabled":false,"rental_uris":{"android":"levelo://app?vid=f00d9cd4-cb11-487a-b899-a4cd4a0d7929","ios":"levelo://app?vid=f00d9cd4-cb11-487a-b899-a4cd4a0d7929"},"vehicle_type_id":"4","last_reported":1725131188,"current_range_meters":6800,"station_id":"ce4bgj92rcd13ifvqbd0","pricing_plan_id":"cebpf4jnsgd1na2vs0mg"},{"bike_id":"2e63de64-f0af-41df-9ef2-177cce3b7936","system_id":"levelo_inurba_marseille","lat":43.301396,"lon":5.387812,"is_reserved":false,"is_disabled":false,"rental_uris":{"android":"levelo://app?vid=2e63de64-f0af-41df-9ef2-177cce3b7936","ios":"levelo://app?vid=2e63de64-f0af-41df-9ef2-177cce3b7936"},"vehicle_type_id":"4","last_reported":1725131188,"current_range_meters":1600,"station_id":"ce4bghh2rcd13ifvqb60","pricing_plan_id":"cebpf4jnsgd1na2vs0mg"},{"bike_id":"1a5d5b58-9e47-4a8f-885f-e505212f98f0","system_id":"levelo_inurba_marseille","lat":43.298961,"lon":5.384791,"is_reserved":false,"is_disabled":false,"rental_uris":{"android":"levelo://app?vid=1a5d5b58-9e47-4a8f-885f-e505212f98f0","ios":"levelo://app?vid=1a5d5b58-9e47-4a8f-885f-e505212f98f0"},"vehicle_type_id":"4","last_reported":1725131188,"current_range_meters":25200,"station_id":"","pricing_plan_id":"cebpf4jnsgd1na2vs0mg"},{"bike_id":"95a94fed-880c-4fba-91c1-183d50abf55c","system_id":"levelo_inurba_marseille","lat":43.301396,"lon":5.387812,"is_reserved":false,"is_disabled":false,"rental_uris":{"android":"levelo://app?vid=95a94fed-880c-4fba-91c1-183d50abf55c","ios":"levelo://app?vid=95a94fed-880c-4fba-91c1-183d50abf55c"},"vehicle_type_id":"4","last_reported":1725131188,"current_range_meters":2800,"station_id":"ce4bghh2rcd13ifvqb60","pricing_plan_id":"cebpf4jnsgd1na2vs0mg"},{"bike_id":"70e85c12-68c1-466e-8b8d-9e76b397b9b8","system_id":"levelo_inurba_marseille","lat":43.301396,"lon":5.387812,"is_reserved":false,"is_disabled":false,"rental_uris":{"android":"levelo://app?vid=70e85c12-68c1-466e-8b8d-9e76b397b9b8","ios":"levelo://app?vid=70e85c12-68c1-466e-8b8d-9e76b397b9b8"},"vehicle_type_id":"4","last_reported":1725131188,"current_range_meters":0,"station_id":"ce4bghh2rcd13ifvqb60","pricing_plan_id":"cebpf4jnsgd1na2vs0mg"},{"bike_id":"894c7fa0-82f6-494e-92b8-0e23ad88f954","system_id":"levelo_inurba_marseille","lat":43.32367,"lon":5.388836,"is_reserved":false,"is_disabled":false,"rental_uris":{"android":"levelo://app?vid=894c7fa0-82f6-494e-92b8-0e23ad88f954","ios":"levelo://app?vid=894c7fa0-82f6-494e-92b8-0e23ad88f954"},"vehicle_type_id":"4","last_reported":1725131188,"current_range_meters":0,"station_id":"ce4bhqp2rcd13ifvqhog","pricing_plan_id":"cebpf4jnsgd1na2vs0mg"},{"bike_id":"0abe9e4f-1f06-44e2-aa4d-45485da716a4","system_id":"levelo_inurba_marseille","lat":43.311739,"lon":5.393458,"is_reserved":false,"is_disabled":false,"rental_uris":{"android":"levelo://app?vid=0abe9e4f-1f06-44e2-aa4d-45485da716a4","ios":"levelo://app?vid=0abe9e4f-1f06-44e2-aa4d-45485da716a4"},"vehicle_type_id":"4","last_reported":1725131188,"current_range_meters":13200,"station_id":"","pricing_plan_id":"cebpf4jnsgd1na2vs0mg"},{"bike_id":"5789483e-fc49-4515-b89d-a939ffa51990","system_id":"levelo_inurba_marseille","lat":43.29598,"lon":5.38098,"is_reserved":false,"is_disabled":false,"rental_uris":{"android":"levelo://app?vid=5789483e-fc49-4515-b89d-a939ffa51990","ios":"levelo://app?vid=5789483e-fc49-4515-b89d-a939ffa51990"},"vehicle_type_id":"4","last_reported":1725131188,"current_range_meters":4000,"station_id":"ce4bgl12rcd13ifvqbo0","pricing_plan_id":"cebpf4jnsgd1na2vs0mg"},{"bike_id":"56921b35-092d-4ce5-b1b2-884e1a9cbfa4","system_id":"levelo_inurba_marseille","lat":43.295996,"lon":5.381016,"is_reserved":false,"is_disabled":false,"rental_uris":{"android":"levelo://app?vid=56921b35-092d-4ce5-b1b2-884e1a9cbfa4","ios":"levelo://app?vid=56921b35-092d-4ce5-b1b2-884e1a9cbfa4"},"vehicle_type_id":"4","last_reported":1725131188,"current_range_meters":7200,"station_id":"ce4bgl12rcd13ifvqbo0","pricing_plan_id":"cebpf4jnsgd1na2vs0mg"},{"bike_id":"3989dfb6-88e0-453e-8c36-17f53aced81f","system_id":"levelo_inurba_marseille","lat":43.296,"lon":5.38106,"is_reserved":false,"is_disabled":false,"rental_uris":{"android":"levelo://app?vid=3989dfb6-88e0-453e-8c36-17f53aced81f","ios":"levelo://app?vid=3989dfb6-88e0-453e-8c36-17f53aced81f"},"vehicle_type_id":"4","last_reported":1725131188,"current_range_meters":27200,"station_id":"ce4bgl12rcd13ifvqbo0","pricing_plan_id":"cebpf4jnsgd1na2vs0mg"},{"bike_id":"8c0e08c3-d8fc-49e2-b790-8eac508e2777","system_id":"levelo_inurba_marseille","lat":43.29602,"lon":5.381084,"is_reserved":false,"is_disabled":false,"rental_uris":{"android":"levelo://app?vid=8c0e08c3-d8fc-49e2-b790-8eac508e2777","ios":"levelo://app?vid=8c0e08c3-d8fc-49e2-b790-8eac508e2777"},"vehicle_type_id":"4","last_reported":1725131188,"current_range_meters":12000,"station_id":"ce4bgl12rcd13ifvqbo0","pricing_plan_id":"cebpf4jnsgd1na2vs0mg"},{"bike_id":"4eecca3d-ba39-4e75-ac95-b77fef2f95d0","system_id":"levelo_inurba_marseille","lat":43.295955,"lon":5.381125,"is_reserved":false,"is_disabled":false,"rental_uris":{"android":"levelo://app?vid=4eecca3d-ba39-4e75-ac95-b77fef2f95d0","ios":"levelo://app?vid=4eecca3d-ba39-4e75-ac95-b77fef2f95d0"},"vehicle_type_id":"4","last_reported":1725131188,"current_range_meters":30000,"station_id":"ce4bgl12rcd13ifvqbo0","pricing_plan_id":"cebpf4jnsgd1na2vs0mg"},{"bike_id":"77846a02-7a36-4957-b745-8142b6fcbd1c","system_id":"levelo_inurba_marseille","lat":43.29294,"lon":5.36893,"is_reserved":false,"is_disabled":false,"rental_uris":{"android":"levelo://app?vid=77846a02-7a36-4957-b745-8142b6fcbd1c","ios":"levelo://app?vid=77846a02-7a36-4957-b745-8142b6fcbd1c"},"vehicle_type_id":"4","last_reported":1725131188,"current_range_meters":19600,"station_id":"","pricing_plan_id":"cebpf4jnsgd1na2vs0mg"},{"bike_id":"7ef08a77-bb47-4d23-88e6-0fa0a0f83d3a","system_id":"levelo_inurba_marseille","lat":43.293249,"lon":5.371578,"is_reserved":false,"is_disabled":false,"rental_uris":{"android":"levelo://app?vid=7ef08a77-bb47-4d23-88e6-0fa0a0f83d3a","ios":"levelo://app?vid=7ef08a77-bb47-4d23-88e6-0fa0a0f83d3a"},"vehicle_type_id":"4","last_reported":1725131188,"current_range_meters":27600,"station_id":"ce4bgh92rcd13ifvqb40","pricing_plan_id":"cebpf4jnsgd1na2vs0mg"},{"bike_id":"92381c71-9a22-48cd-b05e-3b50796ea331","system_id":"levelo_inurba_marseille","lat":43.29306,"lon":5.37174,"is_reserved":false,"is_disabled":false,"rental_uris":{"android":"levelo://app?vid=92381c71-9a22-48cd-b05e-3b50796ea331","ios":"levelo://app?vid=92381c71-9a22-48cd-b05e-3b50796ea331"},"vehicle_type_id":"4","last_reported":1725131188,"current_range_meters":19200,"station_id":"ce4bgh92rcd13ifvqb40","pricing_plan_id":"cebpf4jnsgd1na2vs0mg"},{"bike_id":"873cd7a8-a799-419d-83e2-cfcfe4da16d7","system_id":"levelo_inurba_marseille","lat":43.30645,"lon":5.39301,"is_reserved":false,"is_disabled":false,"rental_uris":{"android":"levelo://app?vid=873cd7a8-a799-419d-83e2-cfcfe4da16d7","ios":"levelo://app?vid=873cd7a8-a799-419d-83e2-cfcfe4da16d7"},"vehicle_type_id":"4","last_reported":1725131188,"current_range_meters":10400,"station_id":"","pricing_plan_id":"cebpf4jnsgd1na2vs0mg"},{"bike_id":"145aa20d-cf18-4d9c-977e-8d17227614e6","system_id":"levelo_inurba_marseille","lat":43.293249,"lon":5.371578,"is_reserved":false,"is_disabled":false,"rental_uris":{"android":"levelo://app?vid=145aa20d-cf18-4d9c-977e-8d17227614e6","ios":"levelo://app?vid=145aa20d-cf18-4d9c-977e-8d17227614e6"},"vehicle_type_id":"4","last_reported":1725131188,"current_range_meters":4400,"station_id":"ce4bgh92rcd13ifvqb40","pricing_plan_id":"cebpf4jnsgd1na2vs0mg"},{"bike_id":"bc9df590-242e-494e-899a-02349e864904","system_id":"levelo_inurba_marseille","lat":43.293249,"lon":5.371578,"is_reserved":false,"is_disabled":false,"rental_uris":{"android":"levelo://app?vid=bc9df590-242e-494e-899a-02349e864904","ios":"levelo://app?vid=bc9df590-242e-494e-899a-02349e864904"},"vehicle_type_id":"4","last_reported":1725131188,"current_range_meters":15200,"station_id":"ce4bgh92rcd13ifvqb40","pricing_plan_id":"cebpf4jnsgd1na2vs0mg"},{"bike_id":"d57e748c-2169-4aa4-9d78-110b4048e4f2","system_id":"levelo_inurba_marseille","lat":43.29303,"lon":5.371775,"is_reserved":false,"is_disabled":false,"rental_uris":{"android":"levelo://app?vid=d57e748c-2169-4aa4-9d78-110b4048e4f2","ios":"levelo://app?vid=d57e748c-2169-4aa4-9d78-110b4048e4f2"},"vehicle_type_id":"4","last_reported":1725131188,"current_range_meters":11600,"station_id":"ce4bgh92rcd13ifvqb40","pricing_plan_id":"cebpf4jnsgd1na2vs0mg"},{"bike_id":"f12e4742-e804-4c4f-a18f-fc60518b88e1","system_id":"levelo_inurba_marseille","lat":43.293249,"lon":5.371578,"is_reserved":false,"is_disabled":false,"rental_uris":{"android":"levelo://app?vid=f12e4742-e804-4c4f-a18f-fc60518b88e1","ios":"levelo://app?vid=f12e4742-e804-4c4f-a18f-fc60518b88e1"},"vehicle_type_id":"4","last_reported":1725131188,"current_range_meters":21200,"station_id":"ce4bgh92rcd13ifvqb40","pricing_plan_id":"cebpf4jnsgd1na2vs0mg"},{"bike_id":"752bf223-7765-440c-af06-290d58beeddc","system_id":"levelo_inurba_marseille","lat":43.293249,"lon":5.371578,"is_reserved":false,"is_disabled":false,"rental_uris":{"android":"levelo://app?vid=752bf223-7765-440c-af06-290d58beeddc","ios":"levelo://app?vid=752bf223-7765-440c-af06-290d58beeddc"},"vehicle_type_id":"4","last_reported":1725131188,"current_range_meters":11200,"station_id":"ce4bgh92rcd13ifvqb40","pricing_plan_id":"cebpf4jnsgd1na2vs0mg"},{"bike_id":"c21226c1-c157-4745-8bca-a46c61480873","system_id":"levelo_inurba_marseille","lat":43.29298,"lon":5.37172,"is_reserved":false,"is_disabled":false,"rental_uris":{"android":"levelo://app?vid=c21226c1-c157-4745-8bca-a46c61480873","ios":"levelo://app?vid=c21226c1-c157-4745-8bca-a46c61480873"},"vehicle_type_id":"4","last_reported":1725131188,"current_range_meters":11200,"station_id":"ce4bgh92rcd13ifvqb40","pricing_plan_id":"cebpf4jnsgd1na2vs0mg"},{"bike_id":"ea5e10d6-4aa4-4e92-b7b6-fe83e6475ac6","system_id":"levelo_inurba_marseille","lat":43.293249,"lon":5.371578,"is_reserved":false,"is_disabled":false,"rental_uris":{"android":"levelo://app?vid=ea5e10d6-4aa4-4e92-b7b6-fe83e6475ac6","ios":"levelo://app?vid=ea5e10d6-4aa4-4e92-b7b6-fe83e6475ac6"},"vehicle_type_id":"4","last_reported":1725131188,"current_range_meters":26000,"station_id":"ce4bgh92rcd13ifvqb40","pricing_plan_id":"cebpf4jnsgd1na2vs0mg"},{"bike_id":"a57195da-c348-42d1-be5e-42ae0cef1bb3","system_id":"levelo_inurba_marseille","lat":43.293,"lon":5.3746,"is_reserved":false,"is_disabled":false,"rental_uris":{"android":"levelo://app?vid=a57195da-c348-42d1-be5e-42ae0cef1bb3","ios":"levelo://app?vid=a57195da-c348-42d1-be5e-42ae0cef1bb3"},"vehicle_type_id":"4","last_reported":1725131188,"current_range_meters":0,"station_id":"ce4bgi12rcd13ifvqb70","pricing_plan_id":"cebpf4jnsgd1na2vs0mg"},{"bike_id":"a0c4950d-b2ce-4728-99d6-4814646991dc","system_id":"levelo_inurba_marseille","lat":43.29299,"lon":5.37458,"is_reserved":false,"is_disabled":false,"rental_uris":{"android":"levelo://app?vid=a0c4950d-b2ce-4728-99d6-4814646991dc","ios":"levelo://app?vid=a0c4950d-b2ce-4728-99d6-4814646991dc"},"vehicle_type_id":"4","last_reported":1725131188,"current_range_meters":0,"station_id":"ce4bgi12rcd13ifvqb70","pricing_plan_id":"cebpf4jnsgd1na2vs0mg"},{"bike_id":"808df28a-c948-4e7d-88d3-146c3d90b7a6","system_id":"levelo_inurba_marseille","lat":43.293009,"lon":5.374584,"is_reserved":false,"is_disabled":false,"rental_uris":{"android":"levelo://app?vid=808df28a-c948-4e7d-88d3-146c3d90b7a6","ios":"levelo://app?vid=808df28a-c948-4e7d-88d3-146c3d90b7a6"},"vehicle_type_id":"4","last_reported":1725131188,"current_range_meters":1200,"station_id":"ce4bgi12rcd13ifvqb70","pricing_plan_id":"cebpf4jnsgd1na2vs0mg"},{"bike_id":"85f7c84c-df05-4964-b109-43718986a644","system_id":"levelo_inurba_marseille","lat":43.302992,"lon":5.392136,"is_reserved":false,"is_disabled":false,"rental_uris":{"android":"levelo://app?vid=85f7c84c-df05-4964-b109-43718986a644","ios":"levelo://app?vid=85f7c84c-df05-4964-b109-43718986a644"},"vehicle_type_id":"4","last_reported":1725131188,"current_range_meters":0,"station_id":"ce4bgkh2rcd13ifvqbk0","pricing_plan_id":"cebpf4jnsgd1na2vs0mg"},{"bike_id":"61aa363c-0cc6-4885-aebf-23e0b8382667","system_id":"levelo_inurba_marseille","lat":43.30302,"lon":5.3922,"is_reserved":false,"is_disabled":false,"rental_uris":{"android":"levelo://app?vid=61aa363c-0cc6-4885-aebf-23e0b8382667","ios":"levelo://app?vid=61aa363c-0cc6-4885-aebf-23e0b8382667"},"vehicle_type_id":"4","last_reported":1725131188,"current_range_meters":0,"station_id":"ce4bgkh2rcd13ifvqbk0","pricing_plan_id":"cebpf4jnsgd1na2vs0mg"},{"bike_id":"f04aa9c7-b12f-4d4d-b607-d8cea013e97f","system_id":"levelo_inurba_marseille","lat":43.310804,"lon":5.38359,"is_reserved":false,"is_disabled":false,"rental_uris":{"android":"levelo://app?vid=f04aa9c7-b12f-4d4d-b607-d8cea013e97f","ios":"levelo://app?vid=f04aa9c7-b12f-4d4d-b607-d8cea013e97f"},"vehicle_type_id":"4","last_reported":1725131188,"current_range_meters":400,"station_id":"ce4bgv92rcd13ifvqcr0","pricing_plan_id":"cebpf4jnsgd1na2vs0mg"},{"bike_id":"801cc80b-e0ce-4169-9c7a-bda64550e323","system_id":"levelo_inurba_marseille","lat":43.29222,"lon":5.36076,"is_reserved":false,"is_disabled":false,"rental_uris":{"android":"levelo://app?vid=801cc80b-e0ce-4169-9c7a-bda64550e323","ios":"levelo://app?vid=801cc80b-e0ce-4169-9c7a-bda64550e323"},"vehicle_type_id":"4","last_reported":1725131188,"current_range_meters":2800,"station_id":"ce4bhbh2rcd13ifvqeqg","pricing_plan_id":"cebpf4jnsgd1na2vs0mg"},{"bike_id":"e9770de0-00da-48e6-9f33-6a0f49fe8f52","system_id":"levelo_inurba_marseille","lat":43.291671,"lon":5.371575,"is_reserved":false,"is_disabled":false,"rental_uris":{"android":"levelo://app?vid=e9770de0-00da-48e6-9f33-6a0f49fe8f52","ios":"levelo://app?vid=e9770de0-00da-48e6-9f33-6a0f49fe8f52"},"vehicle_type_id":"4","last_reported":1725131188,"current_range_meters":4400,"station_id":"ce4bha92rcd13ifvqeh0","pricing_plan_id":"cebpf4jnsgd1na2vs0mg"},{"bike_id":"83e6646a-be27-4e5a-bb2e-bf31093e0b51","system_id":"levelo_inurba_marseille","lat":43.298764,"lon":5.388973,"is_reserved":false,"is_disabled":false,"rental_uris":{"android":"levelo://app?vid=83e6646a-be27-4e5a-bb2e-bf31093e0b51","ios":"levelo://app?vid=83e6646a-be27-4e5a-bb2e-bf31093e0b51"},"vehicle_type_id":"4","last_reported":1725131188,"current_range_meters":6800,"station_id":"ce4bh392rcd13ifvqdl0","pricing_plan_id":"cebpf4jnsgd1na2vs0mg"},{"bike_id":"06b9535a-5479-465a-9b84-1087daf6cddc","system_id":"levelo_inurba_marseille","lat":43.291671,"lon":5.371575,"is_reserved":false,"is_disabled":false,"rental_uris":{"android":"levelo://app?vid=06b9535a-5479-465a-9b84-1087daf6cddc","ios":"levelo://app?vid=06b9535a-5479-465a-9b84-1087daf6cddc"},"vehicle_type_id":"4","last_reported":1725131188,"current_range_meters":28400,"station_id":"ce4bha92rcd13ifvqeh0","pricing_plan_id":"cebpf4jnsgd1na2vs0mg"},{"bike_id":"64991cd5-965e-4b88-93a5-798ff44c18a6","system_id":"levelo_inurba_marseille","lat":43.291675,"lon":5.371583,"is_reserved":false,"is_disabled":false,"rental_uris":{"android":"levelo://app?vid=64991cd5-965e-4b88-93a5-798ff44c18a6","ios":"levelo://app?vid=64991cd5-965e-4b88-93a5-798ff44c18a6"},"vehicle_type_id":"4","last_reported":1725131188,"current_range_meters":19200,"station_id":"ce4bha92rcd13ifvqeh0","pricing_plan_id":"cebpf4jnsgd1na2vs0mg"},{"bike_id":"d596b2ef-e57e-4230-a857-75143be50889","system_id":"levelo_inurba_marseille","lat":43.291671,"lon":5.371575,"is_reserved":false,"is_disabled":false,"rental_uris":{"android":"levelo://app?vid=d596b2ef-e57e-4230-a857-75143be50889","ios":"levelo://app?vid=d596b2ef-e57e-4230-a857-75143be50889"},"vehicle_type_id":"4","last_reported":1725131188,"current_range_meters":24400,"station_id":"ce4bha92rcd13ifvqeh0","pricing_plan_id":"cebpf4jnsgd1na2vs0mg"},{"bike_id":"aceeed95-6c63-4c0f-83be-49428ffa9557","system_id":"levelo_inurba_marseille","lat":43.291671,"lon":5.371575,"is_reserved":false,"is_disabled":false,"rental_uris":{"android":"levelo://app?vid=aceeed95-6c63-4c0f-83be-49428ffa9557","ios":"levelo://app?vid=aceeed95-6c63-4c0f-83be-49428ffa9557"},"vehicle_type_id":"4","last_reported":1725131188,"current_range_meters":15600,"station_id":"ce4bha92rcd13ifvqeh0","pricing_plan_id":"cebpf4jnsgd1na2vs0mg"},{"bike_id":"4462d7ad-81c4-475d-8b49-4f87631d7c37","system_id":"levelo_inurba_marseille","lat":43.292005,"lon":5.357875,"is_reserved":false,"is_disabled":false,"rental_uris":{"android":"levelo://app?vid=4462d7ad-81c4-475d-8b49-4f87631d7c37","ios":"levelo://app?vid=4462d7ad-81c4-475d-8b49-4f87631d7c37"},"vehicle_type_id":"4","last_reported":1725131188,"current_range_meters":800,"station_id":"ce4bhb12rcd13ifvqel0","pricing_plan_id":"cebpf4jnsgd1na2vs0mg"},{"bike_id":"09964423-eac7-4d1f-822d-d8ed52359495","system_id":"levelo_inurba_marseille","lat":43.309038,"lon":5.396546,"is_reserved":false,"is_disabled":false,"rental_uris":{"android":"levelo://app?vid=09964423-eac7-4d1f-822d-d8ed52359495","ios":"levelo://app?vid=09964423-eac7-4d1f-822d-d8ed52359495"},"vehicle_type_id":"4","last_reported":1725131188,"current_range_meters":0,"station_id":"ce4bh012rcd13ifvqcv0","pricing_plan_id":"cebpf4jnsgd1na2vs0mg"},{"bike_id":"b18892a3-9083-43b3-9a2a-1af170d418c5","system_id":"levelo_inurba_marseille","lat":43.29529,"lon":5.385581,"is_reserved":false,"is_disabled":false,"rental_uris":{"android":"levelo://app?vid=b18892a3-9083-43b3-9a2a-1af170d418c5","ios":"levelo://app?vid=b18892a3-9083-43b3-9a2a-1af170d418c5"},"vehicle_type_id":"4","last_reported":1725131188,"current_range_meters":5200,"station_id":"ce4bgih2rcd13ifvqba0","pricing_plan_id":"cebpf4jnsgd1na2vs0mg"},{"bike_id":"f12e1dac-252f-44da-a6f1-2f65abd08223","system_id":"levelo_inurba_marseille","lat":43.29529,"lon":5.385581,"is_reserved":false,"is_disabled":false,"rental_uris":{"android":"levelo://app?vid=f12e1dac-252f-44da-a6f1-2f65abd08223","ios":"levelo://app?vid=f12e1dac-252f-44da-a6f1-2f65abd08223"},"vehicle_type_id":"4","last_reported":1725131188,"current_range_meters":32000,"station_id":"ce4bgih2rcd13ifvqba0","pricing_plan_id":"cebpf4jnsgd1na2vs0mg"},{"bike_id":"cc40e791-6265-4a57-9d0c-b0973cc9ce92","system_id":"levelo_inurba_marseille","lat":43.29529,"lon":5.385581,"is_reserved":false,"is_disabled":false,"rental_uris":{"android":"levelo://app?vid=cc40e791-6265-4a57-9d0c-b0973cc9ce92","ios":"levelo://app?vid=cc40e791-6265-4a57-9d0c-b0973cc9ce92"},"vehicle_type_id":"4","last_reported":1725131188,"current_range_meters":21600,"station_id":"ce4bgih2rcd13ifvqba0","pricing_plan_id":"cebpf4jnsgd1na2vs0mg"},{"bike_id":"b6cee467-e22d-4957-a2ea-ab598e63b6d4","system_id":"levelo_inurba_marseille","lat":43.29532,"lon":5.38544,"is_reserved":false,"is_disabled":false,"rental_uris":{"android":"levelo://app?vid=b6cee467-e22d-4957-a2ea-ab598e63b6d4","ios":"levelo://app?vid=b6cee467-e22d-4957-a2ea-ab598e63b6d4"},"vehicle_type_id":"4","last_reported":1725131188,"current_range_meters":22800,"station_id":"ce4bgih2rcd13ifvqba0","pricing_plan_id":"cebpf4jnsgd1na2vs0mg"},{"bike_id":"3ad44ef2-efb7-4f51-b88f-761d53f96a32","system_id":"levelo_inurba_marseille","lat":43.29528,"lon":5.38539,"is_reserved":false,"is_disabled":false,"rental_uris":{"android":"levelo://app?vid=3ad44ef2-efb7-4f51-b88f-761d53f96a32","ios":"levelo://app?vid=3ad44ef2-efb7-4f51-b88f-761d53f96a32"},"vehicle_type_id":"4","last_reported":1725131188,"current_range_meters":9200,"station_id":"ce4bgih2rcd13ifvqba0","pricing_plan_id":"cebpf4jnsgd1na2vs0mg"},{"bike_id":"28e493a8-a27a-4d08-8349-7c4de01d6be3","system_id":"levelo_inurba_marseille","lat":43.29526,"lon":5.38537,"is_reserved":false,"is_disabled":false,"rental_uris":{"android":"levelo://app?vid=28e493a8-a27a-4d08-8349-7c4de01d6be3","ios":"levelo://app?vid=28e493a8-a27a-4d08-8349-7c4de01d6be3"},"vehicle_type_id":"4","last_reported":1725131188,"current_range_meters":20000,"station_id":"ce4bgih2rcd13ifvqba0","pricing_plan_id":"cebpf4jnsgd1na2vs0mg"},{"bike_id":"70eac777-c0b7-459c-9e13-4b601e1f38b1","system_id":"levelo_inurba_marseille","lat":43.29529,"lon":5.385581,"is_reserved":false,"is_disabled":false,"rental_uris":{"android":"levelo://app?vid=70eac777-c0b7-459c-9e13-4b601e1f38b1","ios":"levelo://app?vid=70eac777-c0b7-459c-9e13-4b601e1f38b1"},"vehicle_type_id":"4","last_reported":1725131188,"current_range_meters":30400,"station_id":"ce4bgih2rcd13ifvqba0","pricing_plan_id":"cebpf4jnsgd1na2vs0mg"},{"bike_id":"c821ba21-a8c0-452b-bbbd-7805b0827676","system_id":"levelo_inurba_marseille","lat":43.29529,"lon":5.385581,"is_reserved":false,"is_disabled":false,"rental_uris":{"android":"levelo://app?vid=c821ba21-a8c0-452b-bbbd-7805b0827676","ios":"levelo://app?vid=c821ba21-a8c0-452b-bbbd-7805b0827676"},"vehicle_type_id":"4","last_reported":1725131188,"current_range_meters":25600,"station_id":"ce4bgih2rcd13ifvqba0","pricing_plan_id":"cebpf4jnsgd1na2vs0mg"},{"bike_id":"76cf7792-47e6-4c31-8086-f53ea5a7c67f","system_id":"levelo_inurba_marseille","lat":43.29527,"lon":5.38541,"is_reserved":false,"is_disabled":false,"rental_uris":{"android":"levelo://app?vid=76cf7792-47e6-4c31-8086-f53ea5a7c67f","ios":"levelo://app?vid=76cf7792-47e6-4c31-8086-f53ea5a7c67f"},"vehicle_type_id":"4","last_reported":1725131188,"current_range_meters":26800,"station_id":"ce4bgih2rcd13ifvqba0","pricing_plan_id":"cebpf4jnsgd1na2vs0mg"},{"bike_id":"a26f7c81-d921-4597-85e3-eb730a094ba0","system_id":"levelo_inurba_marseille","lat":43.29528,"lon":5.38543,"is_reserved":false,"is_disabled":false,"rental_uris":{"android":"levelo://app?vid=a26f7c81-d921-4597-85e3-eb730a094ba0","ios":"levelo://app?vid=a26f7c81-d921-4597-85e3-eb730a094ba0"},"vehicle_type_id":"4","last_reported":1725131188,"current_range_meters":0,"station_id":"ce4bgih2rcd13ifvqba0","pricing_plan_id":"cebpf4jnsgd1na2vs0mg"},{"bike_id":"f05c0102-e1dd-4b8f-93c8-e7eb2d0a18b5","system_id":"levelo_inurba_marseille","lat":43.29529,"lon":5.385581,"is_reserved":false,"is_disabled":false,"rental_uris":{"android":"levelo://app?vid=f05c0102-e1dd-4b8f-93c8-e7eb2d0a18b5","ios":"levelo://app?vid=f05c0102-e1dd-4b8f-93c8-e7eb2d0a18b5"},"vehicle_type_id":"4","last_reported":1725131188,"current_range_meters":30000,"station_id":"ce4bgih2rcd13ifvqba0","pricing_plan_id":"cebpf4jnsgd1na2vs0mg"},{"bike_id":"429e4e87-2d37-4ef1-a122-c7813edc1c69","system_id":"levelo_inurba_marseille","lat":43.29526,"lon":5.38541,"is_reserved":false,"is_disabled":false,"rental_uris":{"android":"levelo://app?vid=429e4e87-2d37-4ef1-a122-c7813edc1c69","ios":"levelo://app?vid=429e4e87-2d37-4ef1-a122-c7813edc1c69"},"vehicle_type_id":"4","last_reported":1725131188,"current_range_meters":20400,"station_id":"ce4bgih2rcd13ifvqba0","pricing_plan_id":"cebpf4jnsgd1na2vs0mg"},{"bike_id":"7f38dbdd-b239-4ad6-8dd1-b2bd843c5140","system_id":"levelo_inurba_marseille","lat":43.29527,"lon":5.38543,"is_reserved":false,"is_disabled":false,"rental_uris":{"android":"levelo://app?vid=7f38dbdd-b239-4ad6-8dd1-b2bd843c5140","ios":"levelo://app?vid=7f38dbdd-b239-4ad6-8dd1-b2bd843c5140"},"vehicle_type_id":"4","last_reported":1725131188,"current_range_meters":11200,"station_id":"ce4bgih2rcd13ifvqba0","pricing_plan_id":"cebpf4jnsgd1na2vs0mg"},{"bike_id":"42981a40-488b-47a3-a6b1-2ef7b4a8d59c","system_id":"levelo_inurba_marseille","lat":43.29529,"lon":5.385581,"is_reserved":false,"is_disabled":false,"rental_uris":{"android":"levelo://app?vid=42981a40-488b-47a3-a6b1-2ef7b4a8d59c","ios":"levelo://app?vid=42981a40-488b-47a3-a6b1-2ef7b4a8d59c"},"vehicle_type_id":"4","last_reported":1725131188,"current_range_meters":30000,"station_id":"ce4bgih2rcd13ifvqba0","pricing_plan_id":"cebpf4jnsgd1na2vs0mg"},{"bike_id":"b21bfd5e-da27-4199-b88f-689604980d1c","system_id":"levelo_inurba_marseille","lat":43.29529,"lon":5.385581,"is_reserved":false,"is_disabled":false,"rental_uris":{"android":"levelo://app?vid=b21bfd5e-da27-4199-b88f-689604980d1c","ios":"levelo://app?vid=b21bfd5e-da27-4199-b88f-689604980d1c"},"vehicle_type_id":"4","last_reported":1725131188,"current_range_meters":31200,"station_id":"ce4bgih2rcd13ifvqba0","pricing_plan_id":"cebpf4jnsgd1na2vs0mg"},{"bike_id":"184b4376-5368-43e0-8aab-8c74a7ba0112","system_id":"levelo_inurba_marseille","lat":43.29529,"lon":5.385581,"is_reserved":false,"is_disabled":false,"rental_uris":{"android":"levelo://app?vid=184b4376-5368-43e0-8aab-8c74a7ba0112","ios":"levelo://app?vid=184b4376-5368-43e0-8aab-8c74a7ba0112"},"vehicle_type_id":"4","last_reported":1725131188,"current_range_meters":27600,"station_id":"ce4bgih2rcd13ifvqba0","pricing_plan_id":"cebpf4jnsgd1na2vs0mg"},{"bike_id":"f2835ec0-357e-4de5-94a5-b0d78feb88b5","system_id":"levelo_inurba_marseille","lat":43.29529,"lon":5.38549,"is_reserved":false,"is_disabled":false,"rental_uris":{"android":"levelo://app?vid=f2835ec0-357e-4de5-94a5-b0d78feb88b5","ios":"levelo://app?vid=f2835ec0-357e-4de5-94a5-b0d78feb88b5"},"vehicle_type_id":"4","last_reported":1725131188,"current_range_meters":2000,"station_id":"ce4bgih2rcd13ifvqba0","pricing_plan_id":"cebpf4jnsgd1na2vs0mg"},{"bike_id":"31906ed2-b167-4ae5-b477-6adc198d5bdd","system_id":"levelo_inurba_marseille","lat":43.29529,"lon":5.385581,"is_reserved":false,"is_disabled":false,"rental_uris":{"android":"levelo://app?vid=31906ed2-b167-4ae5-b477-6adc198d5bdd","ios":"levelo://app?vid=31906ed2-b167-4ae5-b477-6adc198d5bdd"},"vehicle_type_id":"4","last_reported":1725131188,"current_range_meters":20800,"station_id":"ce4bgih2rcd13ifvqba0","pricing_plan_id":"cebpf4jnsgd1na2vs0mg"},{"bike_id":"a5b0cdab-5de8-4148-9849-9c29c76baf8a","system_id":"levelo_inurba_marseille","lat":43.29529,"lon":5.385581,"is_reserved":false,"is_disabled":false,"rental_uris":{"android":"levelo://app?vid=a5b0cdab-5de8-4148-9849-9c29c76baf8a","ios":"levelo://app?vid=a5b0cdab-5de8-4148-9849-9c29c76baf8a"},"vehicle_type_id":"4","last_reported":1725131188,"current_range_meters":12400,"station_id":"ce4bgih2rcd13ifvqba0","pricing_plan_id":"cebpf4jnsgd1na2vs0mg"},{"bike_id":"7bf49efb-6a94-4785-a7f7-6446e3495218","system_id":"levelo_inurba_marseille","lat":43.29528,"lon":5.38551,"is_reserved":false,"is_disabled":false,"rental_uris":{"android":"levelo://app?vid=7bf49efb-6a94-4785-a7f7-6446e3495218","ios":"levelo://app?vid=7bf49efb-6a94-4785-a7f7-6446e3495218"},"vehicle_type_id":"4","last_reported":1725131188,"current_range_meters":16400,"station_id":"ce4bgih2rcd13ifvqba0","pricing_plan_id":"cebpf4jnsgd1na2vs0mg"},{"bike_id":"e149cab7-fc40-40ae-9a40-99b511b1afa6","system_id":"levelo_inurba_marseille","lat":43.29526,"lon":5.38548,"is_reserved":false,"is_disabled":false,"rental_uris":{"android":"levelo://app?vid=e149cab7-fc40-40ae-9a40-99b511b1afa6","ios":"levelo://app?vid=e149cab7-fc40-40ae-9a40-99b511b1afa6"},"vehicle_type_id":"4","last_reported":1725131188,"current_range_meters":10800,"station_id":"ce4bgih2rcd13ifvqba0","pricing_plan_id":"cebpf4jnsgd1na2vs0mg"},{"bike_id":"c7b6817d-cd01-464d-acc1-c683bd5c0f08","system_id":"levelo_inurba_marseille","lat":43.29526,"lon":5.38548,"is_reserved":false,"is_disabled":false,"rental_uris":{"android":"levelo://app?vid=c7b6817d-cd01-464d-acc1-c683bd5c0f08","ios":"levelo://app?vid=c7b6817d-cd01-464d-acc1-c683bd5c0f08"},"vehicle_type_id":"4","last_reported":1725131188,"current_range_meters":12000,"station_id":"ce4bgih2rcd13ifvqba0","pricing_plan_id":"cebpf4jnsgd1na2vs0mg"},{"bike_id":"9b787fb0-de6b-45e2-beb5-4026ea4e7c32","system_id":"levelo_inurba_marseille","lat":43.29522,"lon":5.38544,"is_reserved":false,"is_disabled":false,"rental_uris":{"android":"levelo://app?vid=9b787fb0-de6b-45e2-beb5-4026ea4e7c32","ios":"levelo://app?vid=9b787fb0-de6b-45e2-beb5-4026ea4e7c32"},"vehicle_type_id":"4","last_reported":1725131188,"current_range_meters":29200,"station_id":"ce4bgih2rcd13ifvqba0","pricing_plan_id":"cebpf4jnsgd1na2vs0mg"},{"bike_id":"04b7e38d-02b5-440a-94ff-4964c1119199","system_id":"levelo_inurba_marseille","lat":43.290779,"lon":5.371482,"is_reserved":false,"is_disabled":false,"rental_uris":{"android":"levelo://app?vid=04b7e38d-02b5-440a-94ff-4964c1119199","ios":"levelo://app?vid=04b7e38d-02b5-440a-94ff-4964c1119199"},"vehicle_type_id":"4","last_reported":1725131188,"current_range_meters":22400,"station_id":"ce4bh5p2rcd13ifvqe4g","pricing_plan_id":"cebpf4jnsgd1na2vs0mg"},{"bike_id":"5f794d6b-77b9-483e-98d1-d64a7e64294c","system_id":"levelo_inurba_marseille","lat":43.290779,"lon":5.371482,"is_reserved":false,"is_disabled":false,"rental_uris":{"android":"levelo://app?vid=5f794d6b-77b9-483e-98d1-d64a7e64294c","ios":"levelo://app?vid=5f794d6b-77b9-483e-98d1-d64a7e64294c"},"vehicle_type_id":"4","last_reported":1725131188,"current_range_meters":16800,"station_id":"ce4bh5p2rcd13ifvqe4g","pricing_plan_id":"cebpf4jnsgd1na2vs0mg"},{"bike_id":"c9a14551-8403-4397-9b00-479c3e20fbc5","system_id":"levelo_inurba_marseille","lat":43.290779,"lon":5.371482,"is_reserved":false,"is_disabled":false,"rental_uris":{"android":"levelo://app?vid=c9a14551-8403-4397-9b00-479c3e20fbc5","ios":"levelo://app?vid=c9a14551-8403-4397-9b00-479c3e20fbc5"},"vehicle_type_id":"4","last_reported":1725131188,"current_range_meters":0,"station_id":"ce4bh5p2rcd13ifvqe4g","pricing_plan_id":"cebpf4jnsgd1na2vs0mg"},{"bike_id":"6e0fa3f0-5afb-4d24-a975-73e92c7ba7d3","system_id":"levelo_inurba_marseille","lat":43.29016,"lon":5.36762,"is_reserved":false,"is_disabled":false,"rental_uris":{"android":"levelo://app?vid=6e0fa3f0-5afb-4d24-a975-73e92c7ba7d3","ios":"levelo://app?vid=6e0fa3f0-5afb-4d24-a975-73e92c7ba7d3"},"vehicle_type_id":"4","last_reported":1725131188,"current_range_meters":0,"station_id":"","pricing_plan_id":"cebpf4jnsgd1na2vs0mg"},{"bike_id":"5df178b1-a353-4b62-9187-6cfa5ff65891","system_id":"levelo_inurba_marseille","lat":43.29422,"lon":5.38625,"is_reserved":false,"is_disabled":false,"rental_uris":{"android":"levelo://app?vid=5df178b1-a353-4b62-9187-6cfa5ff65891","ios":"levelo://app?vid=5df178b1-a353-4b62-9187-6cfa5ff65891"},"vehicle_type_id":"4","last_reported":1725131188,"current_range_meters":13200,"station_id":"ce4bh2h2rcd13ifvqdh0","pricing_plan_id":"cebpf4jnsgd1na2vs0mg"},{"bike_id":"39be3d23-b09f-4aa7-b6f6-109dbc635500","system_id":"levelo_inurba_marseille","lat":43.29419,"lon":5.3862,"is_reserved":false,"is_disabled":false,"rental_uris":{"android":"levelo://app?vid=39be3d23-b09f-4aa7-b6f6-109dbc635500","ios":"levelo://app?vid=39be3d23-b09f-4aa7-b6f6-109dbc635500"},"vehicle_type_id":"4","last_reported":1725131188,"current_range_meters":20000,"station_id":"ce4bh2h2rcd13ifvqdh0","pricing_plan_id":"cebpf4jnsgd1na2vs0mg"},{"bike_id":"5f5112a5-6333-423e-aa25-825ca3ca3b2d","system_id":"levelo_inurba_marseille","lat":43.294153,"lon":5.386305,"is_reserved":false,"is_disabled":false,"rental_uris":{"android":"levelo://app?vid=5f5112a5-6333-423e-aa25-825ca3ca3b2d","ios":"levelo://app?vid=5f5112a5-6333-423e-aa25-825ca3ca3b2d"},"vehicle_type_id":"4","last_reported":1725131188,"current_range_meters":22800,"station_id":"ce4bh2h2rcd13ifvqdh0","pricing_plan_id":"cebpf4jnsgd1na2vs0mg"},{"bike_id":"f3d22efa-c5db-426d-bdc8-e1548171eb6f","system_id":"levelo_inurba_marseille","lat":43.294153,"lon":5.386305,"is_reserved":false,"is_disabled":false,"rental_uris":{"android":"levelo://app?vid=f3d22efa-c5db-426d-bdc8-e1548171eb6f","ios":"levelo://app?vid=f3d22efa-c5db-426d-bdc8-e1548171eb6f"},"vehicle_type_id":"4","last_reported":1725131188,"current_range_meters":7600,"station_id":"ce4bh2h2rcd13ifvqdh0","pricing_plan_id":"cebpf4jnsgd1na2vs0mg"},