{"last_updated":1758287976,"ttl":60,"version":"2.2","data":{"bikes":[{"bike_id":"38306836-7e43-4f39-aaa0-72b8c0ae7d3c","system_id":"levelo_inurba_marseille","lat":43.23187,"lon":5.39982,"is_reserved":false,"is_disabled":false,"rental_uris":{"android":"levelo://app?vid=38306836-7e43-4f39-aaa0-72b8c0ae7d3c","ios":"levelo://app?vid=38306836-7e43-4f39-aaa0-72b8c0ae7d3c"},"vehicle_type_id":"4","last_reported":1758287976,"current_range_meters":2800,"station_id":"ce4bhn12rcd13ifvqgqg","pricing_plan_id":"cebpf4jnsgd1na2vs0mg"},{"bike_id":"fb9e07ae-2739-4e57-a1c1-b180ba42ec69","system_id":"levelo_inurba_marseille","lat":43.29572,"lon":5.39986,"is_reserved":false,"is_disabled":false,"rental_uris":{"android":"levelo://app?vid=fb9e07ae-2739-4e57-a1c1-b180ba42ec69","ios":"levelo://app?vid=fb9e07ae-2739-4e57-a1c1-b180ba42ec69"},"vehicle_type_id":"4","last_reported":1758287976,"current_range_meters":2800,"station_id":"ce4bh312rcd13ifvqdj0","pricing_plan_id":"cebpf4jnsgd1na2vs0mg"},{"bike_id":"bfaa6c54-55f5-4aae-b5c3-a2b7b8dd98fb","system_id":"levelo_inurba_marseille","lat":43.29609,"lon":5.3772,"is_reserved":false,"is_disabled":false,"rental_uris":{"android":"levelo://app?vid=bfaa6c54-55f5-4aae-b5c3-a2b7b8dd98fb","ios":"levelo://app?vid=bfaa6c54-55f5-4aae-b5c3-a2b7b8dd98fb"},"vehicle_type_id":"4","last_reported":1758287976,"current_range_meters":2800,"station_id":"ce4bgi92rcd13ifvqb90","pricing_plan_id":"cebpf4jnsgd1na2vs0mg"},{"bike_id":"010fd887-3471-43a2-ae3e-540b2cc9c262","system_id":"levelo_inurba_marseille","lat":43.31166,"lon":5.38709,"is_reserved":false,"is_disabled":false,"rental_uris":{"android":"levelo://app?vid=010fd887-3471-43a2-ae3e-540b2cc9c262","ios":"levelo://app?vid=010fd887-3471-43a2-ae3e-540b2cc9c262"},"vehicle_type_id":"4","last_reported":1758287976,"current_range_meters":3200,"station_id":"ce4bgv12rcd13ifvqcp0","pricing_plan_id":"cebpf4jnsgd1na2vs0mg"},{"bike_id":"642d4eb0-03cf-4535-a2b1-616aa1341641","system_id":"levelo_inurba_marseille","lat":43.29268,"lon":5.38455,"is_reserved":false,"is_disabled":false,"rental_uris":{"android":"levelo://app?vid=642d4eb0-03cf-4535-a2b1-616aa1341641","ios":"levelo://app?vid=642d4eb0-03cf-4535-a2b1-616aa1341641"},"vehicle_type_id":"4","last_reported":1758287976,"current_range_meters":3200,"station_id":"ce4bh692rcd13ifvqea0","pricing_plan_id":"cebpf4jnsgd1na2vs0mg"},{"bike_id":"6161a34a-6723-4b01-ad19-d21a5ee5c000","system_id":"levelo_inurba_marseille","lat":43.27613,"lon":5.36109,"is_reserved":false,"is_disabled":false,"rental_uris":{"android":"levelo://app?vid=6161a34a-6723-4b01-ad19-d21a5ee5c000","ios":"levelo://app?vid=6161a34a-6723-4b01-ad19-d21a5ee5c000"},"vehicle_type_id":"4","last_reported":1758287976,"current_range_meters":3200,"station_id":"ce4bgj92rcd13ifvqbe0","pricing_plan_id":"cebpf4jnsgd1na2vs0mg"},{"bike_id":"87f2c77b-bfed-4394-be07-487338b8159e","system_id":"levelo_inurba_marseille","lat":43.30932,"lon":5.40142,"is_reserved":false,"is_disabled":false,"rental_uris":{"android":"levelo://app?vid=87f2c77b-bfed-4394-be07-487338b8159e","ios":"levelo://app?vid=87f2c77b-bfed-4394-be07-487338b8159e"},"vehicle_type_id":"4","last_reported":1758287976,"current_range_meters":2800,"station_id":"ce4bgvp2rcd13ifvqct0","pricing_plan_id":"cebpf4jnsgd1na2vs0mg"},{"bike_id":"1b666a54-b636-4ebf-9b6b-96bb957400c1","system_id":"levelo_inurba_marseille","lat":43.28941,"lon":5.36636,"is_reserved":false,"is_disabled":false,"rental_uris":{"android":"levelo://app?vid=1b666a54-b636-4ebf-9b6b-96bb957400c1","ios":"levelo://app?vid=1b666a54-b636-4ebf-9b6b-96bb957400c1"},"vehicle_type_id":"4","last_reported":1758287976,"current_range_meters":1200,"station_id":"ce4bhap2rcd13ifvqek0","pricing_plan_id":"cebpf4jnsgd1na2vs0mg"},{"bike_id":"5a224603-8158-4ff2-9744-9555b70a3e83","system_id":"levelo_inurba_marseille","lat":43.30551,"lon":5.36577,"is_reserved":false,"is_disabled":false,"rental_uris":{"android":"levelo://app?vid=5a224603-8158-4ff2-9744-9555b70a3e83","ios":"levelo://app?vid=5a224603-8158-4ff2-9744-9555b70a3e83"},"vehicle_type_id":"4","last_reported":1758287976,"current_range_meters":3600,"station_id":"ce4bgs12rcd13ifvqcag","pricing_plan_id":"cebpf4jnsgd1na2vs0mg"},{"bike_id":"2c8cde4e-e74d-413e-be0e-b5682cc66e37","system_id":"levelo_inurba_marseille","lat":43.28668,"lon":5.36346,"is_reserved":false,"is_disabled":false,"rental_uris":{"android":"levelo://app?vid=2c8cde4e-e74d-413e-be0e-b5682cc66e37","ios":"levelo://app?vid=2c8cde4e-e74d-413e-be0e-b5682cc66e37"},"vehicle_type_id":"4","last_reported":1758287976,"current_range_meters":3200,"station_id":"ce4bhah2rcd13ifvqej0","pricing_plan_id":"cebpf4jnsgd1na2vs0mg"},{"bike_id":"4f3baffa-b0e2-485a-96e2-0f42403331f4","system_id":"levelo_inurba_marseille","lat":43.2306,"lon":5.35489,"is_reserved":false,"is_disabled":false,"rental_uris":{"android":"levelo://app?vid=4f3baffa-b0e2-485a-96e2-0f42403331f4","ios":"levelo://app?vid=4f3baffa-b0e2-485a-96e2-0f42403331f4"},"vehicle_type_id":"4","last_reported":1758287976,"current_range_meters":4000,"station_id":"cpo3342slgdg3j2ifvpg","pricing_plan_id":"cebpf4jnsgd1na2vs0mg"},{"bike_id":"059c0ba7-1dcb-4f29-8d05-6060640937cc","system_id":"levelo_inurba_marseille","lat":43.31795,"lon":5.36831,"is_reserved":false,"is_disabled":false,"rental_uris":{"android":"levelo://app?vid=059c0ba7-1dcb-4f29-8d05-6060640937cc","ios":"levelo://app?vid=059c0ba7-1dcb-4f29-8d05-6060640937cc"},"vehicle_type_id":"4","last_reported":1758287976,"current_range_meters":4000,"station_id":"","pricing_plan_id":"cebpf4jnsgd1na2vs0mg"},{"bike_id":"b60dbe69-0cff-43be-8a30-38c21a47f108","system_id":"levelo_inurba_marseille","lat":43.23195,"lon":5.35554,"is_reserved":false,"is_disabled":false,"rental_uris":{"android":"levelo://app?vid=b60dbe69-0cff-43be-8a30-38c21a47f108","ios":"levelo://app?vid=b60dbe69-0cff-43be-8a30-38c21a47f108"},"vehicle_type_id":"4","last_reported":1758287976,"current_range_meters":4000,"station_id":"ce4bhu92rcd13ifvqi70","pricing_plan_id":"cebpf4jnsgd1na2vs0mg"},{"bike_id":"1a4179cc-695f-4c50-8416-fd07f6548444","system_id":"levelo_inurba_marseille","lat":43.28081,"lon":5.39661,"is_reserved":false,"is_disabled":false,"rental_uris":{"android":"levelo://app?vid=1a4179cc-695f-4c50-8416-fd07f6548444","ios":"levelo://app?vid=1a4179cc-695f-4c50-8416-fd07f6548444"},"vehicle_type_id":"4","last_reported":1758287976,"current_range_meters":4000,"station_id":"ce4bho12rcd13ifvqh2g","pricing_plan_id":"cebpf4jnsgd1na2vs0mg"},{"bike_id":"05932256-4366-4bd2-8d69-782712747484","system_id":"levelo_inurba_marseille","lat":43.22561,"lon":5.41648,"is_reserved":false,"is_disabled":false,"rental_uris":{"android":"levelo://app?vid=05932256-4366-4bd2-8d69-782712747484","ios":"levelo://app?vid=05932256-4366-4bd2-8d69-782712747484"},"vehicle_type_id":"4","last_reported":1758287976,"current_range_meters":4000,"station_id":"st_d2o4gvlbi1j2169b742g","pricing_plan_id":"cebpf4jnsgd1na2vs0mg"},{"bike_id":"67d70ad3-efca-42cd-b410-89e44cdae1cb","system_id":"levelo_inurba_marseille","lat":43.29932,"lon":5.36506,"is_reserved":false,"is_disabled":false,"rental_uris":{"android":"levelo://app?vid=67d70ad3-efca-42cd-b410-89e44cdae1cb","ios":"levelo://app?vid=67d70ad3-efca-42cd-b410-89e44cdae1cb"},"vehicle_type_id":"4","last_reported":1758287976,"current_range_meters":4400,"station_id":"ce4bgm92rcd13ifvqbr0","pricing_plan_id":"cebpf4jnsgd1na2vs0mg"},{"bike_id":"d9298556-90ff-4ad7-9fa0-effdff9b99a5","system_id":"levelo_inurba_marseille","lat":43.26222,"lon":5.37425,"is_reserved":false,"is_disabled":false,"rental_uris":{"android":"levelo://app?vid=d9298556-90ff-4ad7-9fa0-effdff9b99a5","ios":"levelo://app?vid=d9298556-90ff-4ad7-9fa0-effdff9b99a5"},"vehicle_type_id":"4","last_reported":1758287976,"current_range_meters":4400,"station_id":"ce4bhgp2rcd13ifvqfc0","pricing_plan_id":"cebpf4jnsgd1na2vs0mg"},{"bike_id":"cd54b9a2-3178-4b54-8f83-f91b30b39d02","system_id":"levelo_inurba_marseille","lat":43.29292,"lon":5.40122,"is_reserved":false,"is_disabled":false,"rental_uris":{"android":"levelo://app?vid=cd54b9a2-3178-4b54-8f83-f91b30b39d02","ios":"levelo://app?vid=cd54b9a2-3178-4b54-8f83-f91b30b39d02"},"vehicle_type_id":"4","last_reported":1758287976,"current_range_meters":4400,"station_id":"ce4bh312rcd13ifvqdk0","pricing_plan_id":"cebpf4jnsgd1na2vs0mg"},{"bike_id":"fdd13ad1-62e2-4bbc-ad83-2d32f1c5a50b","system_id":"levelo_inurba_marseille","lat":43.337444,"lon":5.374475,"is_reserved":false,"is_disabled":false,"rental_uris":{"android":"levelo://app?vid=fdd13ad1-62e2-4bbc-ad83-2d32f1c5a50b","ios":"levelo://app?vid=fdd13ad1-62e2-4bbc-ad83-2d32f1c5a50b"},"vehicle_type_id":"4","last_reported":1758287976,"current_range_meters":4400,"station_id":"","pricing_plan_id":"cebpf4jnsgd1na2vs0mg"},{"bike_id":"6d927206-3030-4a60-9097-b3c153b6a12e","system_id":"levelo_inurba_marseille","lat":43.32358,"lon":5.36732,"is_reserved":false,"is_disabled":false,"rental_uris":{"android":"levelo://app?vid=6d927206-3030-4a60-9097-b3c153b6a12e","ios":"levelo://app?vid=6d927206-3030-4a60-9097-b3c153b6a12e"},"vehicle_type_id":"4","last_reported":1758287976,"current_range_meters":4800,"station_id":"ce4bhsh2rcd13ifvqi2g","pricing_plan_id":"cebpf4jnsgd1na2vs0mg"},{"bike_id":"f5a0f147-49c1-4023-ba30-06de29485f30","system_id":"levelo_inurba_marseille","lat":43.30811,"lon":5.38166,"is_reserved":false,"is_disabled":false,"rental_uris":{"android":"levelo://app?vid=f5a0f147-49c1-4023-ba30-06de29485f30","ios":"levelo://app?vid=f5a0f147-49c1-4023-ba30-06de29485f30"},"vehicle_type_id":"4","last_reported":1758287976,"current_range_meters":4800,"station_id":"ce4bgt12rcd13ifvqce0","pricing_plan_id":"cebpf4jnsgd1na2vs0mg"},{"bike_id":"7b51a36e-d3c1-400a-a130-b00f35dc0b10","system_id":"levelo_inurba_marseille","lat":43.225343,"lon":5.348357,"is_reserved":false,"is_disabled":false,"rental_uris":{"android":"levelo://app?vid=7b51a36e-d3c1-400a-a130-b00f35dc0b10","ios":"levelo://app?vid=7b51a36e-d3c1-400a-a130-b00f35dc0b10"},"vehicle_type_id":"4","last_reported":1758287976,"current_range_meters":4800,"station_id":"","pricing_plan_id":"cebpf4jnsgd1na2vs0mg"},{"bike_id":"f768dadc-3d00-4b9b-abea-952ab0439d5c","system_id":"levelo_inurba_marseille","lat":43.27818,"lon":5.40728,"is_reserved":false,"is_disabled":false,"rental_uris":{"android":"levelo://app?vid=f768dadc-3d00-4b9b-abea-952ab0439d5c","ios":"levelo://app?vid=f768dadc-3d00-4b9b-abea-952ab0439d5c"},"vehicle_type_id":"4","last_reported":1758287976,"current_range_meters":4800,"station_id":"ce4bhnh2rcd13ifvqgtg","pricing_plan_id":"cebpf4jnsgd1na2vs0mg"},{"bike_id":"fbf059f2-3dd4-4817-a88a-f75c3bcba19e","system_id":"levelo_inurba_marseille","lat":43.28413,"lon":5.37518,"is_reserved":false,"is_disabled":false,"rental_uris":{"android":"levelo://app?vid=fbf059f2-3dd4-4817-a88a-f75c3bcba19e","ios":"levelo://app?vid=fbf059f2-3dd4-4817-a88a-f75c3bcba19e"},"vehicle_type_id":"4","last_reported":1758287976,"current_range_meters":4800,"station_id":"ce4bh412rcd13ifvqds0","pricing_plan_id":"cebpf4jnsgd1na2vs0mg"},{"bike_id":"022c6b76-39ff-4537-bac1-b1375b7d2098","system_id":"levelo_inurba_marseille","lat":43.24663,"lon":5.3891,"is_reserved":false,"is_disabled":false,"rental_uris":{"android":"levelo://app?vid=022c6b76-39ff-4537-bac1-b1375b7d2098","ios":"levelo://app?vid=022c6b76-39ff-4537-bac1-b1375b7d2098"},"vehicle_type_id":"4","last_reported":1758287976,"current_range_meters":4400,"station_id":"ce4bhg12rcd13ifvqf60","pricing_plan_id":"cebpf4jnsgd1na2vs0mg"},{"bike_id":"4753981a-52b2-4b7d-8c02-9e34c950cc2f","system_id":"levelo_inurba_marseille","lat":43.2256,"lon":5.41633,"is_reserved":false,"is_disabled":false,"rental_uris":{"android":"levelo://app?vid=4753981a-52b2-4b7d-8c02-9e34c950cc2f","ios":"levelo://app?vid=4753981a-52b2-4b7d-8c02-9e34c950cc2f"},"vehicle_type_id":"4","last_reported":1758287976,"current_range_meters":5600,"station_id":"st_d2o4gvlbi1j2169b742g","pricing_plan_id":"cebpf4jnsgd1na2vs0mg"},{"bike_id":"85c5c0dc-1d6f-41e8-a15e-25e9dfb82024","system_id":"levelo_inurba_marseille","lat":43.241771,"lon":5.397719,"is_reserved":false,"is_disabled":false,"rental_uris":{"android":"levelo://app?vid=85c5c0dc-1d6f-41e8-a15e-25e9dfb82024","ios":"levelo://app?vid=85c5c0dc-1d6f-41e8-a15e-25e9dfb82024"},"vehicle_type_id":"4","last_reported":1758287976,"current_range_meters":5600,"station_id":"ce4bhn12rcd13ifvqgpg","pricing_plan_id":"cebpf4jnsgd1na2vs0mg"},{"bike_id":"f9bd94a9-d0d7-4c6b-9cb8-ab1e60715d4d","system_id":"levelo_inurba_marseille","lat":43.30888,"lon":5.39624,"is_reserved":false,"is_disabled":false,"rental_uris":{"android":"levelo://app?vid=f9bd94a9-d0d7-4c6b-9cb8-ab1e60715d4d","ios":"levelo://app?vid=f9bd94a9-d0d7-4c6b-9cb8-ab1e60715d4d"},"vehicle_type_id":"4","last_reported":1758287976,"current_range_meters":5600,"station_id":"ce4bh012rcd13ifvqcv0","pricing_plan_id":"cebpf4jnsgd1na2vs0mg"},{"bike_id":"45afe5f4-5cbe-49c2-a913-33c967100178","system_id":"levelo_inurba_marseille","lat":43.29776,"lon":5.380931,"is_reserved":false,"is_disabled":false,"rental_uris":{"android":"levelo://app?vid=45afe5f4-5cbe-49c2-a913-33c967100178","ios":"levelo://app?vid=45afe5f4-5cbe-49c2-a913-33c967100178"},"vehicle_type_id":"4","last_reported":1758287976,"current_range_meters":5600,"station_id":"","pricing_plan_id":"cebpf4jnsgd1na2vs0mg"},{"bike_id":"7918c8ea-f7f4-4157-b837-0cbefe2a77c9","system_id":"levelo_inurba_marseille","lat":43.27494,"lon":5.42452,"is_reserved":false,"is_disabled":true,"rental_uris":{"android":"levelo://app?vid=7918c8ea-f7f4-4157-b837-0cbefe2a77c9","ios":"levelo://app?vid=7918c8ea-f7f4-4157-b837-0cbefe2a77c9"},"vehicle_type_id":"4","last_reported":1758287976,"current_range_meters":6000,"station_id":"ce4bhn92rcd13ifvqgrg","pricing_plan_id":"cebpf4jnsgd1na2vs0mg"},{"bike_id":"2ae737cd-a941-4b38-a023-adc7adf541ee","system_id":"levelo_inurba_marseille","lat":43.231939,"lon":5.355541,"is_reserved":false,"is_disabled":false,"rental_uris":{"android":"levelo://app?vid=2ae737cd-a941-4b38-a023-adc7adf541ee","ios":"levelo://app?vid=2ae737cd-a941-4b38-a023-adc7adf541ee"},"vehicle_type_id":"4","last_reported":1758287976,"current_range_meters":6000,"station_id":"ce4bhu92rcd13ifvqi70","pricing_plan_id":"cebpf4jnsgd1na2vs0mg"},{"bike_id":"55dabd6d-650f-4485-8c0b-6a5763700e61","system_id":"levelo_inurba_marseille","lat":43.2579,"lon":5.38724,"is_reserved":false,"is_disabled":false,"rental_uris":{"android":"levelo://app?vid=55dabd6d-650f-4485-8c0b-6a5763700e61","ios":"levelo://app?vid=55dabd6d-650f-4485-8c0b-6a5763700e61"},"vehicle_type_id":"4","last_reported":1758287976,"current_range_meters":6000,"station_id":"","pricing_plan_id":"cebpf4jnsgd1na2vs0mg"},{"bike_id":"f8cba178-9c1f-48dc-9b81-77fd395d75b9","system_id":"levelo_inurba_marseille","lat":43.24164,"lon":5.39711,"is_reserved":false,"is_disabled":false,"rental_uris":{"android":"levelo://app?vid=f8cba178-9c1f-48dc-9b81-77fd395d75b9","ios":"levelo://app?vid=f8cba178-9c1f-48dc-9b81-77fd395d75b9"},"vehicle_type_id":"4","last_reported":1758287976,"current_range_meters":0,"station_id":"ce4bhn12rcd13ifvqgpg","pricing_plan_id":"cebpf4jnsgd1na2vs0mg"},{"bike_id":"c7c67d68-35a6-4bf2-bf44-6ba9bb234685","system_id":"levelo_inurba_marseille","lat":43.23059,"lon":5.3549,"is_reserved":false,"is_disabled":false,"rental_uris":{"android":"levelo://app?vid=c7c67d68-35a6-4bf2-bf44-6ba9bb234685","ios":"levelo://app?vid=c7c67d68-35a6-4bf2-bf44-6ba9bb234685"},"vehicle_type_id":"4","last_reported":1758287976,"current_range_meters":6000,"station_id":"cpo3342slgdg3j2ifvpg","pricing_plan_id":"cebpf4jnsgd1na2vs0mg"},{"bike_id":"7be8407c-e2c1-4139-a51c-132653ed839d","system_id":"levelo_inurba_marseille","lat":43.313455,"lon":5.367129,"is_reserved":false,"is_disabled":false,"rental_uris":{"android":"levelo://app?vid=7be8407c-e2c1-4139-a51c-132653ed839d","ios":"levelo://app?vid=7be8407c-e2c1-4139-a51c-132653ed839d"},"vehicle_type_id":"4","last_reported":1758287976,"current_range_meters":6400,"station_id":"ce4bgr92rcd13ifvqc6g","pricing_plan_id":"cebpf4jnsgd1na2vs0mg"},{"bike_id":"30ebbb67-8a97-4e8c-bea2-8ef0ac7b16be","system_id":"levelo_inurba_marseille","lat":43.29893,"lon":5.43666,"is_reserved":false,"is_disabled":false,"rental_uris":{"android":"levelo://app?vid=30ebbb67-8a97-4e8c-bea2-8ef0ac7b16be","ios":"levelo://app?vid=30ebbb67-8a97-4e8c-bea2-8ef0ac7b16be"},"vehicle_type_id":"4","last_reported":1758287976,"current_range_meters":6400,"station_id":"ce4bhpp2rcd13ifvqhfg","pricing_plan_id":"cebpf4jnsgd1na2vs0mg"},{"bike_id":"53a42fa0-203b-4163-8604-9fe1a9923437","system_id":"levelo_inurba_marseille","lat":43.27996,"lon":5.40013,"is_reserved":false,"is_disabled":false,"rental_uris":{"android":"levelo://app?vid=53a42fa0-203b-4163-8604-9fe1a9923437","ios":"levelo://app?vid=53a42fa0-203b-4163-8604-9fe1a9923437"},"vehicle_type_id":"4","last_reported":1758287976,"current_range_meters":6800,"station_id":"ce4bho92rcd13ifvqh4g","pricing_plan_id":"cebpf4jnsgd1na2vs0mg"},{"bike_id":"3b9818e2-8cf0-474a-add0-303ebf5c9f0a","system_id":"levelo_inurba_marseille","lat":43.22567,"lon":5.34807,"is_reserved":false,"is_disabled":false,"rental_uris":{"android":"levelo://app?vid=3b9818e2-8cf0-474a-add0-303ebf5c9f0a","ios":"levelo://app?vid=3b9818e2-8cf0-474a-add0-303ebf5c9f0a"},"vehicle_type_id":"4","last_reported":1758287976,"current_range_meters":6800,"station_id":"","pricing_plan_id":"cebpf4jnsgd1na2vs0mg"},{"bike_id":"16224c12-6825-4413-b21d-77cd795667a5","system_id":"levelo_inurba_marseille","lat":43.29263,"lon":5.38439,"is_reserved":false,"is_disabled":false,"rental_uris":{"android":"levelo://app?vid=16224c12-6825-4413-b21d-77cd795667a5","ios":"levelo://app?vid=16224c12-6825-4413-b21d-77cd795667a5"},"vehicle_type_id":"4","last_reported":1758287976,"current_range_meters":6800,"station_id":"ce4bh692rcd13ifvqea0","pricing_plan_id":"cebpf4jnsgd1na2vs0mg"},{"bike_id":"eabed443-fc92-4fce-a73e-a723dddff8f7","system_id":"levelo_inurba_marseille","lat":43.26495,"lon":5.3955,"is_reserved":false,"is_disabled":false,"rental_uris":{"android":"levelo://app?vid=eabed443-fc92-4fce-a73e-a723dddff8f7","ios":"levelo://app?vid=eabed443-fc92-4fce-a73e-a723dddff8f7"},"vehicle_type_id":"4","last_reported":1758287976,"current_range_meters":6800,"station_id":"ce4bhi12rcd13ifvqfq0","pricing_plan_id":"cebpf4jnsgd1na2vs0mg"},{"bike_id":"9a2cacf9-fc2b-447d-851d-d67d2e7423c6","system_id":"levelo_inurba_marseille","lat":43.2842,"lon":5.37533,"is_reserved":false,"is_disabled":false,"rental_uris":{"android":"levelo://app?vid=9a2cacf9-fc2b-447d-851d-d67d2e7423c6","ios":"levelo://app?vid=9a2cacf9-fc2b-447d-851d-d67d2e7423c6"},"vehicle_type_id":"4","last_reported":1758287976,"current_range_meters":6800,"station_id":"ce4bh412rcd13ifvqds0","pricing_plan_id":"cebpf4jnsgd1na2vs0mg"},{"bike_id":"7745eab8-3d48-4349-b863-861b7cc7cbd1","system_id":"levelo_inurba_marseille","lat":43.290054,"lon":5.381405,"is_reserved":false,"is_disabled":false,"rental_uris":{"android":"levelo://app?vid=7745eab8-3d48-4349-b863-861b7cc7cbd1","ios":"levelo://app?vid=7745eab8-3d48-4349-b863-861b7cc7cbd1"},"vehicle_type_id":"4","last_reported":1758287976,"current_range_meters":6800,"station_id":"","pricing_plan_id":"cebpf4jnsgd1na2vs0mg"},{"bike_id":"29c0a987-c4e3-4b9c-b319-bb7646de5ecc","system_id":"levelo_inurba_marseille","lat":43.299746,"lon":5.371774,"is_reserved":false,"is_disabled":false,"rental_uris":{"android":"levelo://app?vid=29c0a987-c4e3-4b9c-b319-bb7646de5ecc","ios":"levelo://app?vid=29c0a987-c4e3-4b9c-b319-bb7646de5ecc"},"vehicle_type_id":"4","last_reported":1758287976,"current_range_meters":6400,"station_id":"ce4bgr92rcd13ifvqc7g","pricing_plan_id":"cebpf4jnsgd1na2vs0mg"},{"bike_id":"776c418b-624a-41f8-8872-53205f54e56b","system_id":"levelo_inurba_marseille","lat":43.290051,"lon":5.381655,"is_reserved":false,"is_disabled":false,"rental_uris":{"android":"levelo://app?vid=776c418b-624a-41f8-8872-53205f54e56b","ios":"levelo://app?vid=776c418b-624a-41f8-8872-53205f54e56b"},"vehicle_type_id":"4","last_reported":1758287976,"current_range_meters":6800,"station_id":"ce4bgkh2rcd13ifvqbl0","pricing_plan_id":"cebpf4jnsgd1na2vs0mg"},{"bike_id":"1e05b0cc-1923-46a1-8f96-620c0365cca1","system_id":"levelo_inurba_marseille","lat":43.231944,"lon":5.355569,"is_reserved":false,"is_disabled":false,"rental_uris":{"android":"levelo://app?vid=1e05b0cc-1923-46a1-8f96-620c0365cca1","ios":"levelo://app?vid=1e05b0cc-1923-46a1-8f96-620c0365cca1"},"vehicle_type_id":"4","last_reported":1758287976,"current_range_meters":7200,"station_id":"ce4bhu92rcd13ifvqi70","pricing_plan_id":"cebpf4jnsgd1na2vs0mg"},{"bike_id":"8ce3378c-c99e-4dab-a24b-93593b1b2654","system_id":"levelo_inurba_marseille","lat":43.29932,"lon":5.36528,"is_reserved":false,"is_disabled":false,"rental_uris":{"android":"levelo://app?vid=8ce3378c-c99e-4dab-a24b-93593b1b2654","ios":"levelo://app?vid=8ce3378c-c99e-4dab-a24b-93593b1b2654"},"vehicle_type_id":"4","last_reported":1758287976,"current_range_meters":7200,"station_id":"ce4bgm92rcd13ifvqbr0","pricing_plan_id":"cebpf4jnsgd1na2vs0mg"},{"bike_id":"ccd44948-7c00-492e-b618-36105a29ab8f","system_id":"levelo_inurba_marseille","lat":43.32675,"lon":5.41012,"is_reserved":false,"is_disabled":true,"rental_uris":{"android":"levelo://app?vid=ccd44948-7c00-492e-b618-36105a29ab8f","ios":"levelo://app?vid=ccd44948-7c00-492e-b618-36105a29ab8f"},"vehicle_type_id":"4","last_reported":1758287976,"current_range_meters":7200,"station_id":"ce4bhpp2rcd13ifvqhgg","pricing_plan_id":"cebpf4jnsgd1na2vs0mg"},{"bike_id":"f0096600-92aa-4924-bb18-5264d5c849ad","system_id":"levelo_inurba_marseille","lat":43.29252,"lon":5.40908,"is_reserved":false,"is_disabled":false,"rental_uris":{"android":"levelo://app?vid=f0096600-92aa-4924-bb18-5264d5c849ad","ios":"levelo://app?vid=f0096600-92aa-4924-bb18-5264d5c849ad"},"vehicle_type_id":"4","last_reported":1758287976,"current_range_meters":7200,"station_id":"ce4bh192rcd13ifvqdc0","pricing_plan_id":"cebpf4jnsgd1na2vs0mg"},{"bike_id":"187151e2-36ec-4c4b-9c29-bfdbc8aa4fab","system_id":"levelo_inurba_marseille","lat":43.28259,"lon":5.3506,"is_reserved":false,"is_disabled":false,"rental_uris":{"android":"levelo://app?vid=187151e2-36ec-4c4b-9c29-bfdbc8aa4fab","ios":"levelo://app?vid=187151e2-36ec-4c4b-9c29-bfdbc8aa4fab"},"vehicle_type_id":"4","last_reported":1758287976,"current_range_meters":7200,"station_id":"ce4bhbp2rcd13ifvqerg","pricing_plan_id":"cebpf4jnsgd1na2vs0mg"},{"bike_id":"5cea3a83-7b85-414c-9d08-d36384d65c16","system_id":"levelo_inurba_marseille","lat":43.29885,"lon":5.39734,"is_reserved":false,"is_disabled":false,"rental_uris":{"android":"levelo://app?vid=5cea3a83-7b85-414c-9d08-d36384d65c16","ios":"levelo://app?vid=5cea3a83-7b85-414c-9d08-d36384d65c16"},"vehicle_type_id":"4","last_reported":1758287976,"current_range_meters":6800,"station_id":"ce4bh0h2rcd13ifvqd50","pricing_plan_id":"cebpf4jnsgd1na2vs0mg"},{"bike_id":"38fb9147-c746-409e-91e1-f676db4bb350","system_id":"levelo_inurba_marseille","lat":43.211884,"lon":5.350758,"is_reserved":false,"is_disabled":false,"rental_uris":{"android":"levelo://app?vid=38fb9147-c746-409e-91e1-f676db4bb350","ios":"levelo://app?vid=38fb9147-c746-409e-91e1-f676db4bb350"},"vehicle_type_id":"4","last_reported":1758287976,"current_range_meters":7200,"station_id":"","pricing_plan_id":"cebpf4jnsgd1na2vs0mg"},{"bike_id":"7426821b-9a08-422a-b82d-d5ead1b82281","system_id":"levelo_inurba_marseille","lat":43.23154,"lon":5.43713,"is_reserved":false,"is_disabled":false,"rental_uris":{"android":"levelo://app?vid=7426821b-9a08-422a-b82d-d5ead1b82281","ios":"levelo://app?vid=7426821b-9a08-422a-b82d-d5ead1b82281"},"vehicle_type_id":"4","last_reported":1758287976,"current_range_meters":8000,"station_id":"ce4bhmp2rcd13ifvqgog","pricing_plan_id":"cebpf4jnsgd1na2vs0mg"},{"bike_id":"8c3851fe-377d-4d9c-9849-767e77588323","system_id":"levelo_inurba_marseille","lat":43.30236,"lon":5.40063,"is_reserved":false,"is_disabled":false,"rental_uris":{"android":"levelo://app?vid=8c3851fe-377d-4d9c-9849-767e77588323","ios":"levelo://app?vid=8c3851fe-377d-4d9c-9849-767e77588323"},"vehicle_type_id":"4","last_reported":1758287976,"current_range_meters":8000,"station_id":"ce4bgvh2rcd13ifvqcs0","pricing_plan_id":"cebpf4jnsgd1na2vs0mg"},{"bike_id":"51428e52-933e-4637-b90d-db6123d52fef","system_id":"levelo_inurba_marseille","lat":43.29853,"lon":5.36263,"is_reserved":false,"is_disabled":false,"rental_uris":{"android":"levelo://app?vid=51428e52-933e-4637-b90d-db6123d52fef","ios":"levelo://app?vid=51428e52-933e-4637-b90d-db6123d52fef"},"vehicle_type_id":"4","last_reported":1758287976,"current_range_meters":8000,"station_id":"ce4bgpp2rcd13ifvqc3g","pricing_plan_id":"cebpf4jnsgd1na2vs0mg"},{"bike_id":"7ca06b2f-3248-4940-b67e-6fe021eeb0e7","system_id":"levelo_inurba_marseille","lat":43.27072,"lon":5.42277,"is_reserved":false,"is_disabled":false,"rental_uris":{"android":"levelo://app?vid=7ca06b2f-3248-4940-b67e-6fe021eeb0e7","ios":"levelo://app?vid=7ca06b2f-3248-4940-b67e-6fe021eeb0e7"},"vehicle_type_id":"4","last_reported":1758287976,"current_range_meters":8000,"station_id":"ce4bhk92rcd13ifvqgb0","pricing_plan_id":"cebpf4jnsgd1na2vs0mg"},{"bike_id":"d8426a8f-92a8-420c-8ac0-dece21e8dd52","system_id":"levelo_inurba_marseille","lat":43.30532,"lon":5.38427,"is_reserved":false,"is_disabled":false,"rental_uris":{"android":"levelo://app?vid=d8426a8f-92a8-420c-8ac0-dece21e8dd52","ios":"levelo://app?vid=d8426a8f-92a8-420c-8ac0-dece21e8dd52"},"vehicle_type_id":"4","last_reported":1758287976,"current_range_meters":8000,"station_id":"ce4bgg92rcd13ifvqb30","pricing_plan_id":"cebpf4jnsgd1na2vs0mg"},{"bike_id":"ec6bb9dc-ff57-42ab-9c1c-e80d977b562c","system_id":"levelo_inurba_marseille","lat":43.31487,"lon":5.37306,"is_reserved":false,"is_disabled":false,"rental_uris":{"android":"levelo://app?vid=ec6bb9dc-ff57-42ab-9c1c-e80d977b562c","ios":"levelo://app?vid=ec6bb9dc-ff57-42ab-9c1c-e80d977b562c"},"vehicle_type_id":"4","last_reported":1758287976,"current_range_meters":10000,"station_id":"ce4bgt12rcd13ifvqcd0","pricing_plan_id":"cebpf4jnsgd1na2vs0mg"},{"bike_id":"b03963e7-f165-473d-a43d-a68e09ff2d96","system_id":"levelo_inurba_marseille","lat":43.25694,"lon":5.41929,"is_reserved":false,"is_disabled":false,"rental_uris":{"android":"levelo://app?vid=b03963e7-f165-473d-a43d-a68e09ff2d96","ios":"levelo://app?vid=b03963e7-f165-473d-a43d-a68e09ff2d96"},"vehicle_type_id":"4","last_reported":1758287976,"current_range_meters":8000,"station_id":"","pricing_plan_id":"cebpf4jnsgd1na2vs0mg"},{"bike_id":"31f07734-3ab4-4760-9ed2-06549c0e636e","system_id":"levelo_inurba_marseille","lat":43.23995,"lon":5.36596,"is_reserved":false,"is_disabled":true,"rental_uris":{"android":"levelo://app?vid=31f07734-3ab4-4760-9ed2-06549c0e636e","ios":"levelo://app?vid=31f07734-3ab4-4760-9ed2-06549c0e636e"},"vehicle_type_id":"4","last_reported":1758287976,"current_range_meters":7200,"station_id":"ce4bhi12rcd13ifvqfp0","pricing_plan_id":"cebpf4jnsgd1na2vs0mg"},{"bike_id":"6b82f773-01dd-4cac-979b-8024805de148","system_id":"levelo_inurba_marseille","lat":43.28443,"lon":5.39206,"is_reserved":false,"is_disabled":false,"rental_uris":{"android":"levelo://app?vid=6b82f773-01dd-4cac-979b-8024805de148","ios":"levelo://app?vid=6b82f773-01dd-4cac-979b-8024805de148"},"vehicle_type_id":"4","last_reported":1758287976,"current_range_meters":8400,"station_id":"ce4bhoh2rcd13ifvqh5g","pricing_plan_id":"cebpf4jnsgd1na2vs0mg"},{"bike_id":"405f7bc7-f721-4f9d-847e-2b9edb89ec2a","system_id":"levelo_inurba_marseille","lat":43.24624,"lon":5.43126,"is_reserved":false,"is_disabled":false,"rental_uris":{"android":"levelo://app?vid=405f7bc7-f721-4f9d-847e-2b9edb89ec2a","ios":"levelo://app?vid=405f7bc7-f721-4f9d-847e-2b9edb89ec2a"},"vehicle_type_id":"4","last_reported":1758287976,"current_range_meters":8400,"station_id":"st_d2m6c4gdas8pm72e190g","pricing_plan_id":"cebpf4jnsgd1na2vs0mg"},{"bike_id":"cf66592a-d8fa-4c6c-9927-5d7a9fef5026","system_id":"levelo_inurba_marseille","lat":43.26267,"lon":5.39821,"is_reserved":false,"is_disabled":false,"rental_uris":{"android":"levelo://app?vid=cf66592a-d8fa-4c6c-9927-5d7a9fef5026","ios":"levelo://app?vid=cf66592a-d8fa-4c6c-9927-5d7a9fef5026"},"vehicle_type_id":"4","last_reported":1758287976,"current_range_meters":8400,"station_id":"","pricing_plan_id":"cebpf4jnsgd1na2vs0mg"},{"bike_id":"59028b69-047a-4dce-8d71-00f904471d6e","system_id":"levelo_inurba_marseille","lat":43.22937,"lon":5.35369,"is_reserved":false,"is_disabled":false,"rental_uris":{"android":"levelo://app?vid=59028b69-047a-4dce-8d71-00f904471d6e","ios":"levelo://app?vid=59028b69-047a-4dce-8d71-00f904471d6e"},"vehicle_type_id":"4","last_reported":1758287976,"current_range_meters":8400,"station_id":"cpo3532slgdg3j2ikp40","pricing_plan_id":"cebpf4jnsgd1na2vs0mg"},{"bike_id":"a6d78ff3-2878-4337-a587-a423548f72e6","system_id":"levelo_inurba_marseille","lat":43.30145,"lon":5.38092,"is_reserved":false,"is_disabled":false,"rental_uris":{"android":"levelo://app?vid=a6d78ff3-2878-4337-a587-a423548f72e6","ios":"levelo://app?vid=a6d78ff3-2878-4337-a587-a423548f72e6"},"vehicle_type_id":"4","last_reported":1758287976,"current_range_meters":8400,"station_id":"ce4bgjp2rcd13ifvqbh0","pricing_plan_id":"cebpf4jnsgd1na2vs0mg"},{"bike_id":"bf4baf18-1746-4e03-a2d5-4e5129567b09","system_id":"levelo_inurba_marseille","lat":43.29969,"lon":5.38488,"is_reserved":false,"is_disabled":false,"rental_uris":{"android":"levelo://app?vid=bf4baf18-1746-4e03-a2d5-4e5129567b09","ios":"levelo://app?vid=bf4baf18-1746-4e03-a2d5-4e5129567b09"},"vehicle_type_id":"4","last_reported":1758287976,"current_range_meters":8400,"station_id":"ce4bgj92rcd13ifvqbd0","pricing_plan_id":"cebpf4jnsgd1na2vs0mg"},{"bike_id":"88f8ed44-5baa-4eaf-8790-f9a71b9aa160","system_id":"levelo_inurba_marseille","lat":43.301483,"lon":5.387639,"is_reserved":false,"is_disabled":false,"rental_uris":{"android":"levelo://app?vid=88f8ed44-5baa-4eaf-8790-f9a71b9aa160","ios":"levelo://app?vid=88f8ed44-5baa-4eaf-8790-f9a71b9aa160"},"vehicle_type_id":"4","last_reported":1758287976,"current_range_meters":8400,"station_id":"ce4bghh2rcd13ifvqb60","pricing_plan_id":"cebpf4jnsgd1na2vs0mg"},{"bike_id":"5ece23b4-d71a-4940-bcea-173b9d047403","system_id":"levelo_inurba_marseille","lat":43.27366,"lon":5.36261,"is_reserved":false,"is_disabled":false,"rental_uris":{"android":"levelo://app?vid=5ece23b4-d71a-4940-bcea-173b9d047403","ios":"levelo://app?vid=5ece23b4-d71a-4940-bcea-173b9d047403"},"vehicle_type_id":"4","last_reported":1758287976,"current_range_meters":8800,"station_id":"ce4bhbh2rcd13ifvqeo0","pricing_plan_id":"cebpf4jnsgd1na2vs0mg"},{"bike_id":"cc3204da-b8bd-4e7e-8bb8-3a560633fe2a","system_id":"levelo_inurba_marseille","lat":43.301834,"lon":5.398651,"is_reserved":false,"is_disabled":false,"rental_uris":{"android":"levelo://app?vid=cc3204da-b8bd-4e7e-8bb8-3a560633fe2a","ios":"levelo://app?vid=cc3204da-b8bd-4e7e-8bb8-3a560633fe2a"},"vehicle_type_id":"4","last_reported":1758287976,"current_range_meters":8400,"station_id":"ce4bh0h2rcd13ifvqd40","pricing_plan_id":"cebpf4jnsgd1na2vs0mg"},{"bike_id":"0e3efffd-e5cf-43ad-be92-4602e70829fd","system_id":"levelo_inurba_marseille","lat":43.30795,"lon":5.38158,"is_reserved":false,"is_disabled":false,"rental_uris":{"android":"levelo://app?vid=0e3efffd-e5cf-43ad-be92-4602e70829fd","ios":"levelo://app?vid=0e3efffd-e5cf-43ad-be92-4602e70829fd"},"vehicle_type_id":"4","last_reported":1758287976,"current_range_meters":8800,"station_id":"ce4bgt12rcd13ifvqce0","pricing_plan_id":"cebpf4jnsgd1na2vs0mg"},{"bike_id":"6dafa70f-dccc-418f-a0fc-1d8508362979","system_id":"levelo_inurba_marseille","lat":43.30924,"lon":5.36857,"is_reserved":false,"is_disabled":false,"rental_uris":{"android":"levelo://app?vid=6dafa70f-dccc-418f-a0fc-1d8508362979","ios":"levelo://app?vid=6dafa70f-dccc-418f-a0fc-1d8508362979"},"vehicle_type_id":"4","last_reported":1758287976,"current_range_meters":9200,"station_id":"","pricing_plan_id":"cebpf4jnsgd1na2vs0mg"},{"bike_id":"56a4f75d-eaf2-44b4-aa02-4a439b19699b","system_id":"levelo_inurba_marseille","lat":43.33769,"lon":5.37422,"is_reserved":false,"is_disabled":false,"rental_uris":{"android":"levelo://app?vid=56a4f75d-eaf2-44b4-aa02-4a439b19699b","ios":"levelo://app?vid=56a4f75d-eaf2-44b4-aa02-4a439b19699b"},"vehicle_type_id":"4","last_reported":1758287976,"current_range_meters":9200,"station_id":"","pricing_plan_id":"cebpf4jnsgd1na2vs0mg"},{"bike_id":"6eb50b60-2661-4a92-a331-0845274a8e70","system_id":"levelo_inurba_marseille","lat":43.30257,"lon":5.40081,"is_reserved":false,"is_disabled":false,"rental_uris":{"android":"levelo://app?vid=6eb50b60-2661-4a92-a331-0845274a8e70","ios":"levelo://app?vid=6eb50b60-2661-4a92-a331-0845274a8e70"},"vehicle_type_id":"4","last_reported":1758287976,"current_range_meters":9200,"station_id":"ce4bgvh2rcd13ifvqcs0","pricing_plan_id":"cebpf4jnsgd1na2vs0mg"},{"bike_id":"42323a1a-489c-43cb-90ae-c675b27444d5","system_id":"levelo_inurba_marseille","lat":43.21648,"lon":5.34358,"is_reserved":false,"is_disabled":false,"rental_uris":{"android":"levelo://app?vid=42323a1a-489c-43cb-90ae-c675b27444d5","ios":"levelo://app?vid=42323a1a-489c-43cb-90ae-c675b27444d5"},"vehicle_type_id":"4","last_reported":1758287976,"current_range_meters":9200,"station_id":"","pricing_plan_id":"cebpf4jnsgd1na2vs0mg"},{"bike_id":"9fa67bda-1a9c-438e-9a2d-6d533f957ed9","system_id":"levelo_inurba_marseille","lat":43.26682,"lon":5.38264,"is_reserved":false,"is_disabled":false,"rental_uris":{"android":"levelo://app?vid=9fa67bda-1a9c-438e-9a2d-6d533f957ed9","ios":"levelo://app?vid=9fa67bda-1a9c-438e-9a2d-6d533f957ed9"},"vehicle_type_id":"4","last_reported":1758287976,"current_range_meters":9200,"station_id":"ce4bhg92rcd13ifvqf90","pricing_plan_id":"cebpf4jnsgd1na2vs0mg"},{"bike_id":"a6a78a36-8297-4c0f-b20e-de6d6f5a3dd7","system_id":"levelo_inurba_marseille","lat":43.29263,"lon":5.38442,"is_reserved":false,"is_disabled":false,"rental_uris":{"android":"levelo://app?vid=a6a78a36-8297-4c0f-b20e-de6d6f5a3dd7","ios":"levelo://app?vid=a6a78a36-8297-4c0f-b20e-de6d6f5a3dd7"},"vehicle_type_id":"4","last_reported":1758287976,"current_range_meters":9200,"station_id":"ce4bh692rcd13ifvqea0","pricing_plan_id":"cebpf4jnsgd1na2vs0mg"},{"bike_id":"9187b442-3e61-412e-bc50-23bee4e2404e","system_id":"levelo_inurba_marseille","lat":43.30247,"lon":5.40062,"is_reserved":false,"is_disabled":false,"rental_uris":{"android":"levelo://app?vid=9187b442-3e61-412e-bc50-23bee4e2404e","ios":"levelo://app?vid=9187b442-3e61-412e-bc50-23bee4e2404e"},"vehicle_type_id":"4","last_reported":1758287976,"current_range_meters":9200,"station_id":"ce4bgvh2rcd13ifvqcs0","pricing_plan_id":"cebpf4jnsgd1na2vs0mg"},{"bike_id":"4fc5bce6-d53c-48aa-8562-39440afe86d0","system_id":"levelo_inurba_marseille","lat":43.27836,"lon":5.39215,"is_reserved":false,"is_disabled":false,"rental_uris":{"android":"levelo://app?vid=4fc5bce6-d53c-48aa-8562-39440afe86d0","ios":"levelo://app?vid=4fc5bce6-d53c-48aa-8562-39440afe86d0"},"vehicle_type_id":"4","last_reported":1758287976,"current_range_meters":8800,"station_id":"ce4bhjp2rcd13ifvqga0","pricing_plan_id":"cebpf4jnsgd1na2vs0mg"},{"bike_id":"cad97885-b582-49b2-8b83-0a6c3d079fc6","system_id":"levelo_inurba_marseille","lat":43.297018,"lon":5.365873,"is_reserved":false,"is_disabled":false,"rental_uris":{"android":"levelo://app?vid=cad97885-b582-49b2-8b83-0a6c3d079fc6","ios":"levelo://app?vid=cad97885-b582-49b2-8b83-0a6c3d079fc6"},"vehicle_type_id":"4","last_reported":1758287976,"current_range_meters":9600,"station_id":"ce4bgn12rcd13ifvqbt0","pricing_plan_id":"cebpf4jnsgd1na2vs0mg"},{"bike_id":"b4083a1d-dead-4bdf-976f-eaa3a7a9df87","system_id":"levelo_inurba_marseille","lat":43.25335,"lon":5.42146,"is_reserved":false,"is_disabled":false,"rental_uris":{"android":"levelo://app?vid=b4083a1d-dead-4bdf-976f-eaa3a7a9df87","ios":"levelo://app?vid=b4083a1d-dead-4bdf-976f-eaa3a7a9df87"},"vehicle_type_id":"4","last_reported":1758287976,"current_range_meters":9600,"station_id":"st_d2m65c5bi1j21697t3ng","pricing_plan_id":"cebpf4jnsgd1na2vs0mg"},{"bike_id":"cbec6af2-24e2-40ef-a119-13fc78c7e1d9","system_id":"levelo_inurba_marseille","lat":43.29029,"lon":5.38648,"is_reserved":false,"is_disabled":false,"rental_uris":{"android":"levelo://app?vid=cbec6af2-24e2-40ef-a119-13fc78c7e1d9","ios":"levelo://app?vid=cbec6af2-24e2-40ef-a119-13fc78c7e1d9"},"vehicle_type_id":"4","last_reported":1758287976,"current_range_meters":9600,"station_id":"ce4bh4p2rcd13ifvqe0g","pricing_plan_id":"cebpf4jnsgd1na2vs0mg"},{"bike_id":"c03db5d6-931c-41e0-bfa5-6550a106fb99","system_id":"levelo_inurba_marseille","lat":43.23295,"lon":5.3602,"is_reserved":false,"is_disabled":false,"rental_uris":{"android":"levelo://app?vid=c03db5d6-931c-41e0-bfa5-6550a106fb99","ios":"levelo://app?vid=c03db5d6-931c-41e0-bfa5-6550a106fb99"},"vehicle_type_id":"4","last_reported":1758287976,"current_range_meters":9600,"station_id":"","pricing_plan_id":"cebpf4jnsgd1na2vs0mg"},{"bike_id":"8df5778f-e393-4bca-8368-bd7ad1c703e4","system_id":"levelo_inurba_marseille","lat":43.26931,"lon":5.38919,"is_reserved":false,"is_disabled":false,"rental_uris":{"android":"levelo://app?vid=8df5778f-e393-4bca-8368-bd7ad1c703e4","ios":"levelo://app?vid=8df5778f-e393-4bca-8368-bd7ad1c703e4"},"vehicle_type_id":"4","last_reported":1758287976,"current_range_meters":9200,"station_id":"ce4bhhh2rcd13ifvqfl0","pricing_plan_id":"cebpf4jnsgd1na2vs0mg"},{"bike_id":"dc9ca000-93d6-4301-93eb-1a1d63a2b777","system_id":"levelo_inurba_marseille","lat":43.28932,"lon":5.36669,"is_reserved":false,"is_disabled":false,"rental_uris":{"android":"levelo://app?vid=dc9ca000-93d6-4301-93eb-1a1d63a2b777","ios":"levelo://app?vid=dc9ca000-93d6-4301-93eb-1a1d63a2b777"},"vehicle_type_id":"4","last_reported":1758287976,"current_range_meters":9600,"station_id":"ce4bhap2rcd13ifvqek0","pricing_plan_id":"cebpf4jnsgd1na2vs0mg"},{"bike_id":"039ed8e2-ca94-4947-93f7-2f73e7df3d2c","system_id":"levelo_inurba_marseille","lat":43.313286,"lon":5.396892,"is_reserved":false,"is_disabled":false,"rental_uris":{"android":"levelo://app?vid=039ed8e2-ca94-4947-93f7-2f73e7df3d2c","ios":"levelo://app?vid=039ed8e2-ca94-4947-93f7-2f73e7df3d2c"},"vehicle_type_id":"4","last_reported":1758287976,"current_range_meters":9600,"station_id":"ce4bgvp2rcd13ifvqcu0","pricing_plan_id":"cebpf4jnsgd1na2vs0mg"},{"bike_id":"df771fa3-3d59-4808-ba0d-3711955ea01f","system_id":"levelo_inurba_marseille","lat":43.211944,"lon":5.350765,"is_reserved":false,"is_disabled":false,"rental_uris":{"android":"levelo://app?vid=df771fa3-3d59-4808-ba0d-3711955ea01f","ios":"levelo://app?vid=df771fa3-3d59-4808-ba0d-3711955ea01f"},"vehicle_type_id":"4","last_reported":1758287976,"current_range_meters":9600,"station_id":"","pricing_plan_id":"cebpf4jnsgd1na2vs0mg"},{"bike_id":"af78f657-b36e-4a19-a721-d0114ac1f719","system_id":"levelo_inurba_marseille","lat":43.30146,"lon":5.38768,"is_reserved":false,"is_disabled":false,"rental_uris":{"android":"levelo://app?vid=af78f657-b36e-4a19-a721-d0114ac1f719","ios":"levelo://app?vid=af78f657-b36e-4a19-a721-d0114ac1f719"},"vehicle_type_id":"4","last_reported":1758287976,"current_range_meters":9600,"station_id":"ce4bghh2rcd13ifvqb60","pricing_plan_id":"cebpf4jnsgd1na2vs0mg"},{"bike_id":"e6f8489d-fe42-4015-a82c-b604c2c8b33e","system_id":"levelo_inurba_marseille","lat":43.29795,"lon":5.36682,"is_reserved":false,"is_disabled":false,"rental_uris":{"android":"levelo://app?vid=e6f8489d-fe42-4015-a82c-b604c2c8b33e","ios":"levelo://app?vid=e6f8489d-fe42-4015-a82c-b604c2c8b33e"},"vehicle_type_id":"4","last_reported":1758287976,"current_range_meters":9600,"station_id":"","pricing_plan_id":"cebpf4jnsgd1na2vs0mg"},{"bike_id":"336e1e65-5f24-4827-9cd9-7a1d241f21db","system_id":"levelo_inurba_marseille","lat":43.32361,"lon":5.36738,"is_reserved":false,"is_disabled":false,"rental_uris":{"android":"levelo://app?vid=336e1e65-5f24-4827-9cd9-7a1d241f21db","ios":"levelo://app?vid=336e1e65-5f24-4827-9cd9-7a1d241f21db"},"vehicle_type_id":"4","last_reported":1758287976,"current_range_meters":9600,"station_id":"ce4bhsh2rcd13ifvqi2g","pricing_plan_id":"cebpf4jnsgd1na2vs0mg"},{"bike_id":"80a9a218-f77f-42ce-8136-b0dceb9fc366","system_id":"levelo_inurba_marseille","lat":43.267867,"lon":5.394102,"is_reserved":false,"is_disabled":true,"rental_uris":{"android":"levelo://app?vid=80a9a218-f77f-42ce-8136-b0dceb9fc366","ios":"levelo://app?vid=80a9a218-f77f-42ce-8136-b0dceb9fc366"},"vehicle_type_id":"4","last_reported":1758287976,"current_range_meters":10000,"station_id":"ce4bhh12rcd13ifvqfg0","pricing_plan_id":"cebpf4jnsgd1na2vs0mg"},{"bike_id":"a4faa1fd-62ee-404a-aff8-b79ea6b6b5d2","system_id":"levelo_inurba_marseille","lat":43.32986,"lon":5.39245,"is_reserved":false,"is_disabled":false,"rental_uris":{"android":"levelo://app?vid=a4faa1fd-62ee-404a-aff8-b79ea6b6b5d2","ios":"levelo://app?vid=a4faa1fd-62ee-404a-aff8-b79ea6b6b5d2"},"vehicle_type_id":"4","last_reported":1758287976,"current_range_meters":10000,"station_id":"","pricing_plan_id":"cebpf4jnsgd1na2vs0mg"},{"bike_id":"02f38e6c-4246-4037-9ff5-0d912ec54afe","system_id":"levelo_inurba_marseille","lat":43.30194,"lon":5.3741,"is_reserved":false,"is_disabled":false,"rental_uris":{"android":"levelo://app?vid=02f38e6c-4246-4037-9ff5-0d912ec54afe","ios":"levelo://app?vid=02f38e6c-4246-4037-9ff5-0d912ec54afe"},"vehicle_type_id":"4","last_reported":1758287976,"current_range_meters":10000,"station_id":"","pricing_plan_id":"cebpf4jnsgd1na2vs0mg"},{"bike_id":"4b566ab9-49d7-4088-bbb8-a3534d58bb2f","system_id":"levelo_inurba_marseille","lat":43.2979,"lon":5.371,"is_reserved":false,"is_disabled":false,"rental_uris":{"android":"levelo://app?vid=4b566ab9-49d7-4088-bbb8-a3534d58bb2f","ios":"levelo://app?vid=4b566ab9-49d7-4088-bbb8-a3534d58bb2f"},"vehicle_type_id":"4","last_reported":1758287976,"current_range_meters":10000,"station_id":"ce4bgop2rcd13ifvqc1g","pricing_plan_id":"cebpf4jnsgd1na2vs0mg"},{"bike_id":"be9ee84b-9ec1-497c-800c-5907ad1418ae","system_id":"levelo_inurba_marseille","lat":43.22558,"lon":5.41619,"is_reserved":false,"is_disabled":false,"rental_uris":{"android":"levelo://app?vid=be9ee84b-9ec1-497c-800c-5907ad1418ae","ios":"levelo://app?vid=be9ee84b-9ec1-497c-800c-5907ad1418ae"},"vehicle_type_id":"4","last_reported":1758287976,"current_range_meters":10000,"station_id":"st_d2o4gvlbi1j2169b742g","pricing_plan_id":"cebpf4jnsgd1na2vs0mg"},{"bike_id":"9ee55596-6f4b-41db-9fe4-33a9a19beb8b","system_id":"levelo_inurba_marseille","lat":43.23192,"lon":5.35548,"is_reserved":false,"is_disabled":false,"rental_uris":{"android":"levelo://app?vid=9ee55596-6f4b-41db-9fe4-33a9a19beb8b","ios":"levelo://app?vid=9ee55596-6f4b-41db-9fe4-33a9a19beb8b"},"vehicle_type_id":"4","last_reported":1758287976,"current_range_meters":10000,"station_id":"ce4bhu92rcd13ifvqi70","pricing_plan_id":"cebpf4jnsgd1na2vs0mg"},{"bike_id":"5e5d5808-7d5c-41ff-8e87-00e39b6003de","system_id":"levelo_inurba_marseille","lat":43.29005,"lon":5.35612,"is_reserved":false,"is_disabled":false,"rental_uris":{"android":"levelo://app?vid=5e5d5808-7d5c-41ff-8e87-00e39b6003de","ios":"levelo://app?vid=5e5d5808-7d5c-41ff-8e87-00e39b6003de"},"vehicle_type_id":"4","last_reported":1758287976,"current_range_meters":10000,"station_id":"ce4bhb92rcd13ifvqen0","pricing_plan_id":"cebpf4jnsgd1na2vs0mg"},{"bike_id":"06b4ae0c-7140-48f3-a7db-848c3dc74437","system_id":"levelo_inurba_marseille","lat":43.27998,"lon":5.41662,"is_reserved":false,"is_disabled":false,"rental_uris":{"android":"levelo://app?vid=06b4ae0c-7140-48f3-a7db-848c3dc74437","ios":"levelo://app?vid=06b4ae0c-7140-48f3-a7db-848c3dc74437"},"vehicle_type_id":"4","last_reported":1758287976,"current_range_meters":10000,"station_id":"ce4bho12rcd13ifvqh1g","pricing_plan_id":"cebpf4jnsgd1na2vs0mg"},{"bike_id":"0ae2d2cc-805c-47a7-bd7e-28f3ea87c342","system_id":"levelo_inurba_marseille","lat":43.28858,"lon":5.42499,"is_reserved":false,"is_disabled":false,"rental_uris":{"android":"levelo://app?vid=0ae2d2cc-805c-47a7-bd7e-28f3ea87c342","ios":"levelo://app?vid=0ae2d2cc-805c-47a7-bd7e-28f3ea87c342"},"vehicle_type_id":"4","last_reported":1758287976,"current_range_meters":10000,"station_id":"","pricing_plan_id":"cebpf4jnsgd1na2vs0mg"},{"bike_id":"cc48539f-3363-44f7-9041-3eea5291a9db","system_id":"levelo_inurba_marseille","lat":43.21194,"lon":5.35073,"is_reserved":false,"is_disabled":true,"rental_uris":{"android":"levelo://app?vid=cc48539f-3363-44f7-9041-3eea5291a9db","ios":"levelo://app?vid=cc48539f-3363-44f7-9041-3eea5291a9db"},"vehicle_type_id":"4","last_reported":1758287976,"current_range_meters":10000,"station_id":"","pricing_plan_id":"cebpf4jnsgd1na2vs0mg"},{"bike_id":"6fc58142-9ff8-4772-ae80-93e293f91bc8","system_id":"levelo_inurba_marseille","lat":43.298127,"lon":5.417095,"is_reserved":false,"is_disabled":false,"rental_uris":{"android":"levelo://app?vid=6fc58142-9ff8-4772-ae80-93e293f91bc8","ios":"levelo://app?vid=6fc58142-9ff8-4772-ae80-93e293f91bc8"},"vehicle_type_id":"4","last_reported":1758287976,"current_range_meters":10800,"station_id":"","pricing_plan_id":"cebpf4jnsgd1na2vs0mg"},{"bike_id":"ae4b9c34-bb45-4be0-aa0f-922a2e46bb7e","system_id":"levelo_inurba_marseille","lat":43.29834,"lon":5.362659,"is_reserved":false,"is_disabled":false,"rental_uris":{"android":"levelo://app?vid=ae4b9c34-bb45-4be0-aa0f-922a2e46bb7e","ios":"levelo://app?vid=ae4b9c34-bb45-4be0-aa0f-922a2e46bb7e"},"vehicle_type_id":"4","last_reported":1758287976,"current_range_meters":10800,"station_id":"ce4bgpp2rcd13ifvqc3g","pricing_plan_id":"cebpf4jnsgd1na2vs0mg"},{"bike_id":"415d75a0-50dd-4894-91f7-1a414ab43a29","system_id":"levelo_inurba_marseille","lat":43.3088,"lon":5.37182,"is_reserved":false,"is_disabled":false,"rental_uris":{"android":"levelo://app?vid=415d75a0-50dd-4894-91f7-1a414ab43a29","ios":"levelo://app?vid=415d75a0-50dd-4894-91f7-1a414ab43a29"},"vehicle_type_id":"4","last_reported":1758287976,"current_range_meters":10800,"station_id":"ce4bguh2rcd13ifvqckg","pricing_plan_id":"cebpf4jnsgd1na2vs0mg"},{"bike_id":"2a79e52f-734f-4940-875d-dcf2b8b08dcc","system_id":"levelo_inurba_marseille","lat":43.29476,"lon":5.400696,"is_reserved":false,"is_disabled":false,"rental_uris":{"android":"levelo://app?vid=2a79e52f-734f-4940-875d-dcf2b8b08dcc","ios":"levelo://app?vid=2a79e52f-734f-4940-875d-dcf2b8b08dcc"},"vehicle_type_id":"4","last_reported":1758287976,"current_range_meters":10000,"station_id":"ce4bh312rcd13ifvqdj0","pricing_plan_id":"cebpf4jnsgd1na2vs0mg"},{"bike_id":"e942f984-8fe7-48d1-8f04-3806656b9996","system_id":"levelo_inurba_marseille","lat":43.33622,"lon":5.37916,"is_reserved":false,"is_disabled":false,"rental_uris":{"android":"levelo://app?vid=e942f984-8fe7-48d1-8f04-3806656b9996","ios":"levelo://app?vid=e942f984-8fe7-48d1-8f04-3806656b9996"},"vehicle_type_id":"4","last_reported":1758287976,"current_range_meters":10800,"station_id":"","pricing_plan_id":"cebpf4jnsgd1na2vs0mg"},{"bike_id":"1a35b52a-c9df-460c-8016-0ac6499b0c5a","system_id":"levelo_inurba_marseille","lat":43.32495,"lon":5.36583,"is_reserved":false,"is_disabled":false,"rental_uris":{"android":"levelo://app?vid=1a35b52a-c9df-460c-8016-0ac6499b0c5a","ios":"levelo://app?vid=1a35b52a-c9df-460c-8016-0ac6499b0c5a"},"vehicle_type_id":"4","last_reported":1758287976,"current_range_meters":10800,"station_id":"ce4bhs12rcd13ifvqhvg","pricing_plan_id":"cebpf4jnsgd1na2vs0mg"},{"bike_id":"92a18781-d45e-47f5-8e14-c637b11a04ce","system_id":"levelo_inurba_marseille","lat":43.2992,"lon":5.37469,"is_reserved":false,"is_disabled":false,"rental_uris":{"android":"levelo://app?vid=92a18781-d45e-47f5-8e14-c637b11a04ce","ios":"levelo://app?vid=92a18781-d45e-47f5-8e14-c637b11a04ce"},"vehicle_type_id":"4","last_reported":1758287976,"current_range_meters":10800,"station_id":"ce4bgjh2rcd13ifvqbg0","pricing_plan_id":"cebpf4jnsgd1na2vs0mg"},{"bike_id":"22f0687d-25d3-4094-9c4a-293a61e189a6","system_id":"levelo_inurba_marseille","lat":43.2463,"lon":5.39626,"is_reserved":false,"is_disabled":true,"rental_uris":{"android":"levelo://app?vid=22f0687d-25d3-4094-9c4a-293a61e189a6","ios":"levelo://app?vid=22f0687d-25d3-4094-9c4a-293a61e189a6"},"vehicle_type_id":"4","last_reported":1758287976,"current_range_meters":10800,"station_id":"","pricing_plan_id":"cebpf4jnsgd1na2vs0mg"},{"bike_id":"1661e2a2-ffc1-4a36-8a54-2bb66ad98575","system_id":"levelo_inurba_marseille","lat":43.31367,"lon":5.38484,"is_reserved":false,"is_disabled":false,"rental_uris":{"android":"levelo://app?vid=1661e2a2-ffc1-4a36-8a54-2bb66ad98575","ios":"levelo://app?vid=1661e2a2-ffc1-4a36-8a54-2bb66ad98575"},"vehicle_type_id":"4","last_reported":1758287976,"current_range_meters":11200,"station_id":"ce4bgt92rcd13ifvqcf0","pricing_plan_id":"cebpf4jnsgd1na2vs0mg"},{"bike_id":"00f010e1-e008-4345-88dc-116c15f8fe51","system_id":"levelo_inurba_marseille","lat":43.22931,"lon":5.35382,"is_reserved":false,"is_disabled":false,"rental_uris":{"android":"levelo://app?vid=00f010e1-e008-4345-88dc-116c15f8fe51","ios":"levelo://app?vid=00f010e1-e008-4345-88dc-116c15f8fe51"},"vehicle_type_id":"4","last_reported":1758287976,"current_range_meters":11200,"station_id":"cpo3532slgdg3j2ikp40","pricing_plan_id":"cebpf4jnsgd1na2vs0mg"},{"bike_id":"e8dae9a5-2841-49d9-b572-94d735628ab9","system_id":"levelo_inurba_marseille","lat":43.33727,"lon":5.39182,"is_reserved":false,"is_disabled":false,"rental_uris":{"android":"levelo://app?vid=e8dae9a5-2841-49d9-b572-94d735628ab9","ios":"levelo://app?vid=e8dae9a5-2841-49d9-b572-94d735628ab9"},"vehicle_type_id":"4","last_reported":1758287976,"current_range_meters":11200,"station_id":"ce4bhr92rcd13ifvqhsg","pricing_plan_id":"cebpf4jnsgd1na2vs0mg"},{"bike_id":"ed20f1d8-bc72-415d-8a8f-af83da4fa7d9","system_id":"levelo_inurba_marseille","lat":43.33491,"lon":5.36242,"is_reserved":false,"is_disabled":false,"rental_uris":{"android":"levelo://app?vid=ed20f1d8-bc72-415d-8a8f-af83da4fa7d9","ios":"levelo://app?vid=ed20f1d8-bc72-415d-8a8f-af83da4fa7d9"},"vehicle_type_id":"4","last_reported":1758287976,"current_range_meters":11200,"station_id":"","pricing_plan_id":"cebpf4jnsgd1na2vs0mg"},{"bike_id":"5abd5005-6e1a-4e4a-8cf1-5135d482aac9","system_id":"levelo_inurba_marseille","lat":43.33734,"lon":5.39184,"is_reserved":false,"is_disabled":false,"rental_uris":{"android":"levelo://app?vid=5abd5005-6e1a-4e4a-8cf1-5135d482aac9","ios":"levelo://app?vid=5abd5005-6e1a-4e4a-8cf1-5135d482aac9"},"vehicle_type_id":"4","last_reported":1758287976,"current_range_meters":11200,"station_id":"ce4bhr92rcd13ifvqhsg","pricing_plan_id":"cebpf4jnsgd1na2vs0mg"},{"bike_id":"8bb1739e-61f6-4159-a0a2-52ddf7d1eaf7","system_id":"levelo_inurba_marseille","lat":43.32367,"lon":5.38882,"is_reserved":false,"is_disabled":false,"rental_uris":{"android":"levelo://app?vid=8bb1739e-61f6-4159-a0a2-52ddf7d1eaf7","ios":"levelo://app?vid=8bb1739e-61f6-4159-a0a2-52ddf7d1eaf7"},"vehicle_type_id":"4","last_reported":1758287976,"current_range_meters":11200,"station_id":"ce4bhqp2rcd13ifvqhog","pricing_plan_id":"cebpf4jnsgd1na2vs0mg"},{"bike_id":"7fcfd9f4-3775-4827-8a11-28d31d87bda0","system_id":"levelo_inurba_marseille","lat":43.262129,"lon":5.374398,"is_reserved":false,"is_disabled":false,"rental_uris":{"android":"levelo://app?vid=7fcfd9f4-3775-4827-8a11-28d31d87bda0","ios":"levelo://app?vid=7fcfd9f4-3775-4827-8a11-28d31d87bda0"},"vehicle_type_id":"4","last_reported":1758287976,"current_range_meters":11600,"station_id":"ce4bhgp2rcd13ifvqfc0","pricing_plan_id":"cebpf4jnsgd1na2vs0mg"},{"bike_id":"36629e27-d842-430e-b485-b02f6ced571f","system_id":"levelo_inurba_marseille","lat":43.31273,"lon":5.4016,"is_reserved":false,"is_disabled":false,"rental_uris":{"android":"levelo://app?vid=36629e27-d842-430e-b485-b02f6ced571f","ios":"levelo://app?vid=36629e27-d842-430e-b485-b02f6ced571f"},"vehicle_type_id":"4","last_reported":1758287976,"current_range_meters":11600,"station_id":"ce4bh092rcd13ifvqd30","pricing_plan_id":"cebpf4jnsgd1na2vs0mg"},{"bike_id":"973b5eab-4e93-46ac-8510-583a4aeec806","system_id":"levelo_inurba_marseille","lat":43.24385,"lon":5.37055,"is_reserved":false,"is_disabled":false,"rental_uris":{"android":"levelo://app?vid=973b5eab-4e93-46ac-8510-583a4aeec806","ios":"levelo://app?vid=973b5eab-4e93-46ac-8510-583a4aeec806"},"vehicle_type_id":"4","last_reported":1758287976,"current_range_meters":11600,"station_id":"ce4bhhh2rcd13ifvqfk0","pricing_plan_id":"cebpf4jnsgd1na2vs0mg"},{"bike_id":"638db232-0046-4166-a6b8-fd1baba892ec","system_id":"levelo_inurba_marseille","lat":43.27942,"lon":5.41036,"is_reserved":false,"is_disabled":false,"rental_uris":{"android":"levelo://app?vid=638db232-0046-4166-a6b8-fd1baba892ec","ios":"levelo://app?vid=638db232-0046-4166-a6b8-fd1baba892ec"},"vehicle_type_id":"4","last_reported":1758287976,"current_range_meters":11600,"station_id":"ce4bhnp2rcd13ifvqh0g","pricing_plan_id":"cebpf4jnsgd1na2vs0mg"},{"bike_id":"ce1882dc-ebcb-489d-bc1a-98bbca60e700","system_id":"levelo_inurba_marseille","lat":43.22578,"lon":5.41633,"is_reserved":false,"is_disabled":false,"rental_uris":{"android":"levelo://app?vid=ce1882dc-ebcb-489d-bc1a-98bbca60e700","ios":"levelo://app?vid=ce1882dc-ebcb-489d-bc1a-98bbca60e700"},"vehicle_type_id":"4","last_reported":1758287976,"current_range_meters":11600,"station_id":"st_d2o4gvlbi1j2169b742g","pricing_plan_id":"cebpf4jnsgd1na2vs0mg"},{"bike_id":"f9418cc9-c64d-43d9-9060-3aeedd69cdee","system_id":"levelo_inurba_marseille","lat":43.33085,"lon":5.37861,"is_reserved":false,"is_disabled":false,"rental_uris":{"android":"levelo://app?vid=f9418cc9-c64d-43d9-9060-3aeedd69cdee","ios":"levelo://app?vid=f9418cc9-c64d-43d9-9060-3aeedd69cdee"},"vehicle_type_id":"4","last_reported":1758287976,"current_range_meters":11600,"station_id":"","pricing_plan_id":"cebpf4jnsgd1na2vs0mg"},{"bike_id":"76fe6087-e86b-453e-9012-7c39cbe672dc","system_id":"levelo_inurba_marseille","lat":43.29706,"lon":5.36609,"is_reserved":false,"is_disabled":false,"rental_uris":{"android":"levelo://app?vid=76fe6087-e86b-453e-9012-7c39cbe672dc","ios":"levelo://app?vid=76fe6087-e86b-453e-9012-7c39cbe672dc"},"vehicle_type_id":"4","last_reported":1758287976,"current_range_meters":12000,"station_id":"ce4bgn12rcd13ifvqbt0","pricing_plan_id":"cebpf4jnsgd1na2vs0mg"},{"bike_id":"fb78ea42-e26f-45b3-a617-d3474b811b72","system_id":"levelo_inurba_marseille","lat":43.29873,"lon":5.37938,"is_reserved":false,"is_disabled":false,"rental_uris":{"android":"levelo://app?vid=fb78ea42-e26f-45b3-a617-d3474b811b72","ios":"levelo://app?vid=fb78ea42-e26f-45b3-a617-d3474b811b72"},"vehicle_type_id":"4","last_reported":1758287976,"current_range_meters":12000,"station_id":"","pricing_plan_id":"cebpf4jnsgd1na2vs0mg"},{"bike_id":"95a62c10-7ca9-4348-809a-c3089ad076d3","system_id":"levelo_inurba_marseille","lat":43.29878,"lon":5.39742,"is_reserved":false,"is_disabled":true,"rental_uris":{"android":"levelo://app?vid=95a62c10-7ca9-4348-809a-c3089ad076d3","ios":"levelo://app?vid=95a62c10-7ca9-4348-809a-c3089ad076d3"},"vehicle_type_id":"4","last_reported":1758287976,"current_range_meters":12000,"station_id":"ce4bh0h2rcd13ifvqd50","pricing_plan_id":"cebpf4jnsgd1na2vs0mg"},{"bike_id":"129693f1-bec1-405c-a566-241911c46a01","system_id":"levelo_inurba_marseille","lat":43.28036,"lon":5.3651,"is_reserved":false,"is_disabled":false,"rental_uris":{"android":"levelo://app?vid=129693f1-bec1-405c-a566-241911c46a01","ios":"levelo://app?vid=129693f1-bec1-405c-a566-241911c46a01"},"vehicle_type_id":"4","last_reported":1758287976,"current_range_meters":12000,"station_id":"","pricing_plan_id":"cebpf4jnsgd1na2vs0mg"},{"bike_id":"b381943f-958e-47e2-80c0-8a04639d2dcc","system_id":"levelo_inurba_marseille","lat":43.29192,"lon":5.35809,"is_reserved":false,"is_disabled":false,"rental_uris":{"android":"levelo://app?vid=b381943f-958e-47e2-80c0-8a04639d2dcc","ios":"levelo://app?vid=b381943f-958e-47e2-80c0-8a04639d2dcc"},"vehicle_type_id":"4","last_reported":1758287976,"current_range_meters":11600,"station_id":"ce4bhb12rcd13ifvqel0","pricing_plan_id":"cebpf4jnsgd1na2vs0mg"},{"bike_id":"a4f9843f-ea8e-45f8-b814-3b6a01dd959b","system_id":"levelo_inurba_marseille","lat":43.23054,"lon":5.35499,"is_reserved":false,"is_disabled":false,"rental_uris":{"android":"levelo://app?vid=a4f9843f-ea8e-45f8-b814-3b6a01dd959b","ios":"levelo://app?vid=a4f9843f-ea8e-45f8-b814-3b6a01dd959b"},"vehicle_type_id":"4","last_reported":1758287976,"current_range_meters":12400,"station_id":"cpo3342slgdg3j2ifvpg","pricing_plan_id":"cebpf4jnsgd1na2vs0mg"},{"bike_id":"61d282c6-d59e-4f5a-bc69-010755230bf9","system_id":"levelo_inurba_marseille","lat":43.274368,"lon":5.394338,"is_reserved":false,"is_disabled":false,"rental_uris":{"android":"levelo://app?vid=61d282c6-d59e-4f5a-bc69-010755230bf9","ios":"levelo://app?vid=61d282c6-d59e-4f5a-bc69-010755230bf9"},"vehicle_type_id":"4","last_reported":1758287976,"current_range_meters":12400,"station_id":"ce4bhdp2rcd13ifvqf20","pricing_plan_id":"cebpf4jnsgd1na2vs0mg"},{"bike_id":"756d0fc9-6f3d-43ee-b594-a6c3884bef76","system_id":"levelo_inurba_marseille","lat":43.24804,"lon":5.37456,"is_reserved":false,"is_disabled":false,"rental_uris":{"android":"levelo://app?vid=756d0fc9-6f3d-43ee-b594-a6c3884bef76","ios":"levelo://app?vid=756d0fc9-6f3d-43ee-b594-a6c3884bef76"},"vehicle_type_id":"4","last_reported":1758287976,"current_range_meters":12400,"station_id":"ce4bhgh2rcd13ifvqfb0","pricing_plan_id":"cebpf4jnsgd1na2vs0mg"},{"bike_id":"cd5ea3c4-33a7-4755-986b-502c7b2660f7","system_id":"levelo_inurba_marseille","lat":43.308997,"lon":5.396616,"is_reserved":false,"is_disabled":false,"rental_uris":{"android":"levelo://app?vid=cd5ea3c4-33a7-4755-986b-502c7b2660f7","ios":"levelo://app?vid=cd5ea3c4-33a7-4755-986b-502c7b2660f7"},"vehicle_type_id":"4","last_reported":1758287976,"current_range_meters":12000,"station_id":"ce4bh012rcd13ifvqcv0","pricing_plan_id":"cebpf4jnsgd1na2vs0mg"},{"bike_id":"39cd7ceb-5bac-4333-97f9-5b7c0602c245","system_id":"levelo_inurba_marseille","lat":43.28729,"lon":5.37934,"is_reserved":false,"is_disabled":false,"rental_uris":{"android":"levelo://app?vid=39cd7ceb-5bac-4333-97f9-5b7c0602c245","ios":"levelo://app?vid=39cd7ceb-5bac-4333-97f9-5b7c0602c245"},"vehicle_type_id":"4","last_reported":1758287976,"current_range_meters":12400,"station_id":"ce4bh9p2rcd13ifvqec0","pricing_plan_id":"cebpf4jnsgd1na2vs0mg"},{"bike_id":"e68f0ad6-4b17-418a-93a2-9915d5df57d8","system_id":"levelo_inurba_marseille","lat":43.26207,"lon":5.3744,"is_reserved":false,"is_disabled":false,"rental_uris":{"android":"levelo://app?vid=e68f0ad6-4b17-418a-93a2-9915d5df57d8","ios":"levelo://app?vid=e68f0ad6-4b17-418a-93a2-9915d5df57d8"},"vehicle_type_id":"4","last_reported":1758287976,"current_range_meters":12400,"station_id":"ce4bhgp2rcd13ifvqfc0","pricing_plan_id":"cebpf4jnsgd1na2vs0mg"},{"bike_id":"e904b80a-43a5-4a11-8096-d2560c82f273","system_id":"levelo_inurba_marseille","lat":43.29042,"lon":5.35922,"is_reserved":false,"is_disabled":false,"rental_uris":{"android":"levelo://app?vid=e904b80a-43a5-4a11-8096-d2560c82f273","ios":"levelo://app?vid=e904b80a-43a5-4a11-8096-d2560c82f273"},"vehicle_type_id":"4","last_reported":1758287976,"current_range_meters":12400,"station_id":"ce4bha92rcd13ifvqeg0","pricing_plan_id":"cebpf4jnsgd1na2vs0mg"},{"bike_id":"1a7a8087-b6e7-451d-aff9-961d6f49a332","system_id":"levelo_inurba_marseille","lat":43.243883,"lon":5.370706,"is_reserved":false,"is_disabled":false,"rental_uris":{"android":"levelo://app?vid=1a7a8087-b6e7-451d-aff9-961d6f49a332","ios":"levelo://app?vid=1a7a8087-b6e7-451d-aff9-961d6f49a332"},"vehicle_type_id":"4","last_reported":1758287976,"current_range_meters":12400,"station_id":"ce4bhhh2rcd13ifvqfk0","pricing_plan_id":"cebpf4jnsgd1na2vs0mg"},{"bike_id":"309536d1-b9e5-4669-a292-abbead8211d9","system_id":"levelo_inurba_marseille","lat":43.26204,"lon":5.37939,"is_reserved":false,"is_disabled":false,"rental_uris":{"android":"levelo://app?vid=309536d1-b9e5-4669-a292-abbead8211d9","ios":"levelo://app?vid=309536d1-b9e5-4669-a292-abbead8211d9"},"vehicle_type_id":"4","last_reported":1758287976,"current_range_meters":13600,"station_id":"ce4bhjp2rcd13ifvqg90","pricing_plan_id":"cebpf4jnsgd1na2vs0mg"},{"bike_id":"ba51609f-0a6d-4941-aa54-3139c5abba00","system_id":"levelo_inurba_marseille","lat":43.29002,"lon":5.35606,"is_reserved":false,"is_disabled":false,"rental_uris":{"android":"levelo://app?vid=ba51609f-0a6d-4941-aa54-3139c5abba00","ios":"levelo://app?vid=ba51609f-0a6d-4941-aa54-3139c5abba00"},"vehicle_type_id":"4","last_reported":1758287976,"current_range_meters":12400,"station_id":"ce4bhb92rcd13ifvqen0","pricing_plan_id":"cebpf4jnsgd1na2vs0mg"},{"bike_id":"393483e3-7683-4116-a5e4-443a848e57f2","system_id":"levelo_inurba_marseille","lat":43.2737,"lon":5.36255,"is_reserved":false,"is_disabled":false,"rental_uris":{"android":"levelo://app?vid=393483e3-7683-4116-a5e4-443a848e57f2","ios":"levelo://app?vid=393483e3-7683-4116-a5e4-443a848e57f2"},"vehicle_type_id":"4","last_reported":1758287976,"current_range_meters":12800,"station_id":"ce4bhbh2rcd13ifvqeo0","pricing_plan_id":"cebpf4jnsgd1na2vs0mg"},{"bike_id":"85b2f184-eabf-4304-911c-4aaceb0860d6","system_id":"levelo_inurba_marseille","lat":43.32365,"lon":5.36741,"is_reserved":false,"is_disabled":false,"rental_uris":{"android":"levelo://app?vid=85b2f184-eabf-4304-911c-4aaceb0860d6","ios":"levelo://app?vid=85b2f184-eabf-4304-911c-4aaceb0860d6"},"vehicle_type_id":"4","last_reported":1758287976,"current_range_meters":12800,"station_id":"ce4bhsh2rcd13ifvqi2g","pricing_plan_id":"cebpf4jnsgd1na2vs0mg"},{"bike_id":"74af45e8-68ad-402d-9309-9c11252e3c46","system_id":"levelo_inurba_marseille","lat":43.25505,"lon":5.37619,"is_reserved":false,"is_disabled":false,"rental_uris":{"android":"levelo://app?vid=74af45e8-68ad-402d-9309-9c11252e3c46","ios":"levelo://app?vid=74af45e8-68ad-402d-9309-9c11252e3c46"},"vehicle_type_id":"4","last_reported":1758287976,"current_range_meters":12800,"station_id":"ce4bhh12rcd13ifvqff0","pricing_plan_id":"cebpf4jnsgd1na2vs0mg"},{"bike_id":"964ab893-ba77-4002-ad68-774d8a484f51","system_id":"levelo_inurba_marseille","lat":43.31305,"lon":5.3974,"is_reserved":false,"is_disabled":false,"rental_uris":{"android":"levelo://app?vid=964ab893-ba77-4002-ad68-774d8a484f51","ios":"levelo://app?vid=964ab893-ba77-4002-ad68-774d8a484f51"},"vehicle_type_id":"4","last_reported":1758287976,"current_range_meters":12800,"station_id":"","pricing_plan_id":"cebpf4jnsgd1na2vs0mg"},{"bike_id":"af3a9b08-acb0-4398-b9c1-4d14de384455","system_id":"levelo_inurba_marseille","lat":43.24174,"lon":5.36399,"is_reserved":false,"is_disabled":false,"rental_uris":{"android":"levelo://app?vid=af3a9b08-acb0-4398-b9c1-4d14de384455","ios":"levelo://app?vid=af3a9b08-acb0-4398-b9c1-4d14de384455"},"vehicle_type_id":"4","last_reported":1758287976,"current_range_meters":12800,"station_id":"cpo36qri1sfpv3e86is0","pricing_plan_id":"cebpf4jnsgd1na2vs0mg"},{"bike_id":"bf6e6d27-c09e-4725-9fbc-20073fd5a515","system_id":"levelo_inurba_marseille","lat":43.289376,"lon":5.396214,"is_reserved":false,"is_disabled":false,"rental_uris":{"android":"levelo://app?vid=bf6e6d27-c09e-4725-9fbc-20073fd5a515","ios":"levelo://app?vid=bf6e6d27-c09e-4725-9fbc-20073fd5a515"},"vehicle_type_id":"4","last_reported":1758287976,"current_range_meters":12800,"station_id":"","pricing_plan_id":"cebpf4jnsgd1na2vs0mg"},{"bike_id":"0960e3dd-c358-4474-bd10-8223758e1f6b","system_id":"levelo_inurba_marseille","lat":43.296996,"lon":5.376855,"is_reserved":false,"is_disabled":false,"rental_uris":{"android":"levelo://app?vid=0960e3dd-c358-4474-bd10-8223758e1f6b","ios":"levelo://app?vid=0960e3dd-c358-4474-bd10-8223758e1f6b"},"vehicle_type_id":"4","last_reported":1758287976,"current_range_meters":12800,"station_id":"","pricing_plan_id":"cebpf4jnsgd1na2vs0mg"},{"bike_id":"52dd24d5-3db2-4920-86d6-9448832fcd89","system_id":"levelo_inurba_marseille","lat":43.31484,"lon":5.37306,"is_reserved":false,"is_disabled":false,"rental_uris":{"android":"levelo://app?vid=52dd24d5-3db2-4920-86d6-9448832fcd89","ios":"levelo://app?vid=52dd24d5-3db2-4920-86d6-9448832fcd89"},"vehicle_type_id":"4","last_reported":1758287976,"current_range_meters":12800,"station_id":"ce4bgt12rcd13ifvqcd0","pricing_plan_id":"cebpf4jnsgd1na2vs0mg"},{"bike_id":"796d9f95-b687-4fd7-83c1-ee98accdaa95","system_id":"levelo_inurba_marseille","lat":43.28113,"lon":5.3785,"is_reserved":false,"is_disabled":false,"rental_uris":{"android":"levelo://app?vid=796d9f95-b687-4fd7-83c1-ee98accdaa95","ios":"levelo://app?vid=796d9f95-b687-4fd7-83c1-ee98accdaa95"},"vehicle_type_id":"4","last_reported":1758287976,"current_range_meters":12800,"station_id":"ce4bha12rcd13ifvqee0","pricing_plan_id":"cebpf4jnsgd1na2vs0mg"},{"bike_id":"84df2efe-9934-4f68-b190-616f43f8332f","system_id":"levelo_inurba_marseille","lat":43.29035,"lon":5.35905,"is_reserved":false,"is_disabled":false,"rental_uris":{"android":"levelo://app?vid=84df2efe-9934-4f68-b190-616f43f8332f","ios":"levelo://app?vid=84df2efe-9934-4f68-b190-616f43f8332f"},"vehicle_type_id":"4","last_reported":1758287976,"current_range_meters":12400,"station_id":"ce4bha92rcd13ifvqeg0","pricing_plan_id":"cebpf4jnsgd1na2vs0mg"},{"bike_id":"4b7b0817-b26b-4c34-92cd-1080ad1af5dc","system_id":"levelo_inurba_marseille","lat":43.2306,"lon":5.35462,"is_reserved":false,"is_disabled":false,"rental_uris":{"android":"levelo://app?vid=4b7b0817-b26b-4c34-92cd-1080ad1af5dc","ios":"levelo://app?vid=4b7b0817-b26b-4c34-92cd-1080ad1af5dc"},"vehicle_type_id":"4","last_reported":1758287976,"current_range_meters":13600,"station_id":"cpo3342slgdg3j2ifvpg","pricing_plan_id":"cebpf4jnsgd1na2vs0mg"},{"bike_id":"c627b34a-8e81-4438-af3b-4fd0aab1c160","system_id":"levelo_inurba_marseille","lat":43.29601,"lon":5.36044,"is_reserved":false,"is_disabled":false,"rental_uris":{"android":"levelo://app?vid=c627b34a-8e81-4438-af3b-4fd0aab1c160","ios":"levelo://app?vid=c627b34a-8e81-4438-af3b-4fd0aab1c160"},"vehicle_type_id":"4","last_reported":1758287976,"current_range_meters":13600,"station_id":"","pricing_plan_id":"cebpf4jnsgd1na2vs0mg"},{"bike_id":"58cef709-5b53-4c8c-a0f7-93735a4d12b7","system_id":"levelo_inurba_marseille","lat":43.28038,"lon":5.36946,"is_reserved":false,"is_disabled":false,"rental_uris":{"android":"levelo://app?vid=58cef709-5b53-4c8c-a0f7-93735a4d12b7","ios":"levelo://app?vid=58cef709-5b53-4c8c-a0f7-93735a4d12b7"},"vehicle_type_id":"4","last_reported":1758287976,"current_range_meters":12800,"station_id":"ce4bha12rcd13ifvqef0","pricing_plan_id":"cebpf4jnsgd1na2vs0mg"},{"bike_id":"4e5c2e97-6c61-4332-9672-f5a53881b0d1","system_id":"levelo_inurba_marseille","lat":43.28461,"lon":5.35898,"is_reserved":false,"is_disabled":true,"rental_uris":{"android":"levelo://app?vid=4e5c2e97-6c61-4332-9672-f5a53881b0d1","ios":"levelo://app?vid=4e5c2e97-6c61-4332-9672-f5a53881b0d1"},"vehicle_type_id":"4","last_reported":1758287976,"current_range_meters":14000,"station_id":"ce4bhah2rcd13ifvqei0","pricing_plan_id":"cebpf4jnsgd1na2vs0mg"},{"bike_id":"6dc49f8f-31b8-485c-b489-e3fd253e6676","system_id":"levelo_inurba_marseille","lat":43.333009,"lon":5.410255,"is_reserved":false,"is_disabled":true,"rental_uris":{"android":"levelo://app?vid=6dc49f8f-31b8-485c-b489-e3fd253e6676","ios":"levelo://app?vid=6dc49f8f-31b8-485c-b489-e3fd253e6676"},"vehicle_type_id":"4","last_reported":1758287976,"current_range_meters":14000,"station_id":"","pricing_plan_id":"cebpf4jnsgd1na2vs0mg"},{"bike_id":"eea1161b-f356-4c8d-9041-618f541b4af0","system_id":"levelo_inurba_marseille","lat":43.23182,"lon":5.39992,"is_reserved":false,"is_disabled":false,"rental_uris":{"android":"levelo://app?vid=eea1161b-f356-4c8d-9041-618f541b4af0","ios":"levelo://app?vid=eea1161b-f356-4c8d-9041-618f541b4af0"},"vehicle_type_id":"4","last_reported":1758287976,"current_range_meters":14000,"station_id":"ce4bhn12rcd13ifvqgqg","pricing_plan_id":"cebpf4jnsgd1na2vs0mg"},{"bike_id":"397acca5-edd8-4336-b05d-101bcdf5ce91","system_id":"levelo_inurba_marseille","lat":43.29906,"lon":5.37471,"is_reserved":false,"is_disabled":false,"rental_uris":{"android":"levelo://app?vid=397acca5-edd8-4336-b05d-101bcdf5ce91","ios":"levelo://app?vid=397acca5-edd8-4336-b05d-101bcdf5ce91"},"vehicle_type_id":"4","last_reported":1758287976,"current_range_meters":14000,"station_id":"ce4bgjh2rcd13ifvqbg0","pricing_plan_id":"cebpf4jnsgd1na2vs0mg"},{"bike_id":"c09e259c-f503-4824-814b-f4f335740d66","system_id":"levelo_inurba_marseille","lat":43.27678,"lon":5.38918,"is_reserved":false,"is_disabled":true,"rental_uris":{"android":"levelo://app?vid=c09e259c-f503-4824-814b-f4f335740d66","ios":"levelo://app?vid=c09e259c-f503-4824-814b-f4f335740d66"},"vehicle_type_id":"4","last_reported":1758287976,"current_range_meters":14400,"station_id":"ce4bhi12rcd13ifvqfo0","pricing_plan_id":"cebpf4jnsgd1na2vs0mg"},{"bike_id":"26b43886-fa77-4bdc-88cd-18b348cfd5a1","system_id":"levelo_inurba_marseille","lat":43.241982,"lon":5.397168,"is_reserved":false,"is_disabled":false,"rental_uris":{"android":"levelo://app?vid=26b43886-fa77-4bdc-88cd-18b348cfd5a1","ios":"levelo://app?vid=26b43886-fa77-4bdc-88cd-18b348cfd5a1"},"vehicle_type_id":"4","last_reported":1758287976,"current_range_meters":14400,"station_id":"ce4bhn12rcd13ifvqgpg","pricing_plan_id":"cebpf4jnsgd1na2vs0mg"},{"bike_id":"2d451c7b-cc83-474c-b2f4-9e5abfc44532","system_id":"levelo_inurba_marseille","lat":43.28274,"lon":5.35048,"is_reserved":false,"is_disabled":false,"rental_uris":{"android":"levelo://app?vid=2d451c7b-cc83-474c-b2f4-9e5abfc44532","ios":"levelo://app?vid=2d451c7b-cc83-474c-b2f4-9e5abfc44532"},"vehicle_type_id":"4","last_reported":1758287976,"current_range_meters":14400,"station_id":"ce4bhbp2rcd13ifvqerg","pricing_plan_id":"cebpf4jnsgd1na2vs0mg"},{"bike_id":"9c0693b2-33f4-40d9-85fa-754a770a9d54","system_id":"levelo_inurba_marseille","lat":43.295188,"lon":5.390328,"is_reserved":false,"is_disabled":false,"rental_uris":{"android":"levelo://app?vid=9c0693b2-33f4-40d9-85fa-754a770a9d54","ios":"levelo://app?vid=9c0693b2-33f4-40d9-85fa-754a770a9d54"},"vehicle_type_id":"4","last_reported":1758287976,"current_range_meters":14400,"station_id":"ce4bh312rcd13ifvqdj0","pricing_plan_id":"cebpf4jnsgd1na2vs0mg"},{"bike_id":"f611ceb2-f2aa-4750-8377-dd3887a37f8d","system_id":"levelo_inurba_marseille","lat":43.24174,"lon":5.36406,"is_reserved":false,"is_disabled":false,"rental_uris":{"android":"levelo://app?vid=f611ceb2-f2aa-4750-8377-dd3887a37f8d","ios":"levelo://app?vid=f611ceb2-f2aa-4750-8377-dd3887a37f8d"},"vehicle_type_id":"4","last_reported":1758287976,"current_range_meters":14400,"station_id":"cpo36qri1sfpv3e86is0","pricing_plan_id":"cebpf4jnsgd1na2vs0mg"},{"bike_id":"67eb8721-b3b8-4086-9ffc-60ca7e1b0555","system_id":"levelo_inurba_marseille","lat":43.28407,"lon":5.34984,"is_reserved":false,"is_disabled":false,"rental_uris":{"android":"levelo://app?vid=67eb8721-b3b8-4086-9ffc-60ca7e1b0555","ios":"levelo://app?vid=67eb8721-b3b8-4086-9ffc-60ca7e1b0555"},"vehicle_type_id":"4","last_reported":1758287976,"current_range_meters":14400,"station_id":"ce4bhbh2rcd13ifvqepg","pricing_plan_id":"cebpf4jnsgd1na2vs0mg"},{"bike_id":"931664d9-a1f9-4b23-9426-5b3082bf7d09","system_id":"levelo_inurba_marseille","lat":43.30933,"lon":5.40141,"is_reserved":false,"is_disabled":true,"rental_uris":{"android":"levelo://app?vid=931664d9-a1f9-4b23-9426-5b3082bf7d09","ios":"levelo://app?vid=931664d9-a1f9-4b23-9426-5b3082bf7d09"},"vehicle_type_id":"4","last_reported":1758287976,"current_range_meters":14800,"station_id":"ce4bgvp2rcd13ifvqct0","pricing_plan_id":"cebpf4jnsgd1na2vs0mg"},{"bike_id":"82ff2aa5-7947-4d6a-b628-a72140befcb9","system_id":"levelo_inurba_marseille","lat":43.23169,"lon":5.437,"is_reserved":false,"is_disabled":false,"rental_uris":{"android":"levelo://app?vid=82ff2aa5-7947-4d6a-b628-a72140befcb9","ios":"levelo://app?vid=82ff2aa5-7947-4d6a-b628-a72140befcb9"},"vehicle_type_id":"4","last_reported":1758287976,"current_range_meters":14800,"station_id":"ce4bhmp2rcd13ifvqgog","pricing_plan_id":"cebpf4jnsgd1na2vs0mg"},{"bike_id":"7df5983d-afc7-4c15-a3e6-ba7d41a736f9","system_id":"levelo_inurba_marseille","lat":43.24547,"lon":5.3729,"is_reserved":false,"is_disabled":false,"rental_uris":{"android":"levelo://app?vid=7df5983d-afc7-4c15-a3e6-ba7d41a736f9","ios":"levelo://app?vid=7df5983d-afc7-4c15-a3e6-ba7d41a736f9"},"vehicle_type_id":"4","last_reported":1758287976,"current_range_meters":14800,"station_id":"","pricing_plan_id":"cebpf4jnsgd1na2vs0mg"},{"bike_id":"518eef5b-9e3c-4b06-94a9-56e70af9d262","system_id":"levelo_inurba_marseille","lat":43.30825,"lon":5.38141,"is_reserved":false,"is_disabled":true,"rental_uris":{"android":"levelo://app?vid=518eef5b-9e3c-4b06-94a9-56e70af9d262","ios":"levelo://app?vid=518eef5b-9e3c-4b06-94a9-56e70af9d262"},"vehicle_type_id":"4","last_reported":1758287976,"current_range_meters":14800,"station_id":"ce4bgt12rcd13ifvqce0","pricing_plan_id":"cebpf4jnsgd1na2vs0mg"},{"bike_id":"dd3c5c73-aee3-4ad3-9d25-85acb823d9bd","system_id":"levelo_inurba_marseille","lat":43.29518,"lon":5.39028,"is_reserved":false,"is_disabled":false,"rental_uris":{"android":"levelo://app?vid=dd3c5c73-aee3-4ad3-9d25-85acb823d9bd","ios":"levelo://app?vid=dd3c5c73-aee3-4ad3-9d25-85acb823d9bd"},"vehicle_type_id":"4","last_reported":1758287976,"current_range_meters":14800,"station_id":"ce4bh3p2rcd13ifvqdp0","pricing_plan_id":"cebpf4jnsgd1na2vs0mg"},{"bike_id":"438ead59-de14-4fa0-a61d-03a70a4122ae","system_id":"levelo_inurba_marseille","lat":43.97279,"lon":4.89098,"is_reserved":false,"is_disabled":true,"rental_uris":{"android":"levelo://app?vid=438ead59-de14-4fa0-a61d-03a70a4122ae","ios":"levelo://app?vid=438ead59-de14-4fa0-a61d-03a70a4122ae"},"vehicle_type_id":"4","last_reported":1758287976,"current_range_meters":15200,"station_id":"","pricing_plan_id":"cebpf4jnsgd1na2vs0mg"},{"bike_id":"afdc1e14-0e87-4dc9-b56a-2d5f1c0cf228","system_id":"levelo_inurba_marseille","lat":43.27371,"lon":5.36254,"is_reserved":false,"is_disabled":false,"rental_uris":{"android":"levelo://app?vid=afdc1e14-0e87-4dc9-b56a-2d5f1c0cf228","ios":"levelo://app?vid=afdc1e14-0e87-4dc9-b56a-2d5f1c0cf228"},"vehicle_type_id":"4","last_reported":1758287976,"current_range_meters":16000,"station_id":"ce4bhbh2rcd13ifvqeo0","pricing_plan_id":"cebpf4jnsgd1na2vs0mg"},{"bike_id":"e4e83c66-16cc-48c7-b54c-43f49776a830","system_id":"levelo_inurba_marseille","lat":43.23063,"lon":5.35499,"is_reserved":false,"is_disabled":false,"rental_uris":{"android":"levelo://app?vid=e4e83c66-16cc-48c7-b54c-43f49776a830","ios":"levelo://app?vid=e4e83c66-16cc-48c7-b54c-43f49776a830"},"vehicle_type_id":"4","last_reported":1758287976,"current_range_meters":16000,"station_id":"cpo3342slgdg3j2ifvpg","pricing_plan_id":"cebpf4jnsgd1na2vs0mg"},{"bike_id":"f85a8c4d-f9d0-4136-9b57-8bfb28db950c","system_id":"levelo_inurba_marseille","lat":43.31897,"lon":5.37448,"is_reserved":false,"is_disabled":false,"rental_uris":{"android":"levelo://app?vid=f85a8c4d-f9d0-4136-9b57-8bfb28db950c","ios":"levelo://app?vid=f85a8c4d-f9d0-4136-9b57-8bfb28db950c"},"vehicle_type_id":"4","last_reported":1758287976,"current_range_meters":16000,"station_id":"","pricing_plan_id":"cebpf4jnsgd1na2vs0mg"},{"bike_id":"b1aea033-d9a7-44a7-8a23-2e263bbc1dee","system_id":"levelo_inurba_marseille","lat":43.30517,"lon":5.36673,"is_reserved":false,"is_disabled":false,"rental_uris":{"android":"levelo://app?vid=b1aea033-d9a7-44a7-8a23-2e263bbc1dee","ios":"levelo://app?vid=b1aea033-d9a7-44a7-8a23-2e263bbc1dee"},"vehicle_type_id":"4","last_reported":1758287976,"current_range_meters":16000,"station_id":"","pricing_plan_id":"cebpf4jnsgd1na2vs0mg"},{"bike_id":"4258be07-a767-4872-abfe-62321d2071c0","system_id":"levelo_inurba_marseille","lat":43.26227,"lon":5.40446,"is_reserved":false,"is_disabled":false,"rental_uris":{"android":"levelo://app?vid=4258be07-a767-4872-abfe-62321d2071c0","ios":"levelo://app?vid=4258be07-a767-4872-abfe-62321d2071c0"},"vehicle_type_id":"4","last_reported":1758287976,"current_range_meters":16000,"station_id":"ce4bhmh2rcd13ifvqgmg","pricing_plan_id":"cebpf4jnsgd1na2vs0mg"},{"bike_id":"4d1c4d81-96de-49dc-b302-f70a7766d22a","system_id":"levelo_inurba_marseille","lat":43.254883,"lon":5.376457,"is_reserved":false,"is_disabled":false,"rental_uris":{"android":"levelo://app?vid=4d1c4d81-96de-49dc-b302-f70a7766d22a","ios":"levelo://app?vid=4d1c4d81-96de-49dc-b302-f70a7766d22a"},"vehicle_type_id":"4","last_reported":1758287976,"current_range_meters":16000,"station_id":"ce4bhh12rcd13ifvqff0","pricing_plan_id":"cebpf4jnsgd1na2vs0mg"},{"bike_id":"291b4e3e-56d6-44b9-8d7c-6ba733401415","system_id":"levelo_inurba_marseille","lat":43.24158,"lon":5.3639,"is_reserved":false,"is_disabled":false,"rental_uris":{"android":"levelo://app?vid=291b4e3e-56d6-44b9-8d7c-6ba733401415","ios":"levelo://app?vid=291b4e3e-56d6-44b9-8d7c-6ba733401415"},"vehicle_type_id":"4","last_reported":1758287976,"current_range_meters":16000,"station_id":"cpo36qri1sfpv3e86is0","pricing_plan_id":"cebpf4jnsgd1na2vs0mg"},{"bike_id":"fbfb026b-e17d-43b3-b78b-2da9ce3e8e4a","system_id":"levelo_inurba_marseille","lat":43.29895,"lon":5.43668,"is_reserved":false,"is_disabled":false,"rental_uris":{"android":"levelo://app?vid=fbfb026b-e17d-43b3-b78b-2da9ce3e8e4a","ios":"levelo://app?vid=fbfb026b-e17d-43b3-b78b-2da9ce3e8e4a"},"vehicle_type_id":"4","last_reported":1758287976,"current_range_meters":16000,"station_id":"ce4bhpp2rcd13ifvqhfg","pricing_plan_id":"cebpf4jnsgd1na2vs0mg"},{"bike_id":"c91d15d2-d799-4f98-9dc4-138963fb675c","system_id":"levelo_inurba_marseille","lat":43.29002,"lon":5.35609,"is_reserved":false,"is_disabled":false,"rental_uris":{"android":"levelo://app?vid=c91d15d2-d799-4f98-9dc4-138963fb675c","ios":"levelo://app?vid=c91d15d2-d799-4f98-9dc4-138963fb675c"},"vehicle_type_id":"4","last_reported":1758287976,"current_range_meters":16400,"station_id":"ce4bhb92rcd13ifvqen0","pricing_plan_id":"cebpf4jnsgd1na2vs0mg"},{"bike_id":"8f9b5626-1c93-4a80-89e1-4561b004813b","system_id":"levelo_inurba_marseille","lat":43.279053,"lon":5.379973,"is_reserved":false,"is_disabled":false,"rental_uris":{"android":"levelo://app?vid=8f9b5626-1c93-4a80-89e1-4561b004813b","ios":"levelo://app?vid=8f9b5626-1c93-4a80-89e1-4561b004813b"},"vehicle_type_id":"4","last_reported":1758287976,"current_range_meters":16400,"station_id":"ce4bhf92rcd13ifvqf50","pricing_plan_id":"cebpf4jnsgd1na2vs0mg"},{"bike_id":"f9b9926c-98aa-4575-b670-97f7d876a411","system_id":"levelo_inurba_marseille","lat":43.23964,"lon":5.36625,"is_reserved":false,"is_disabled":false,"rental_uris":{"android":"levelo://app?vid=f9b9926c-98aa-4575-b670-97f7d876a411","ios":"levelo://app?vid=f9b9926c-98aa-4575-b670-97f7d876a411"},"vehicle_type_id":"4","last_reported":1758287976,"current_range_meters":16000,"station_id":"ce4bhi12rcd13ifvqfp0","pricing_plan_id":"cebpf4jnsgd1na2vs0mg"},{"bike_id":"f2cf37b2-41c3-443a-bb11-ac091fc37857","system_id":"levelo_inurba_marseille","lat":43.24945,"lon":5.40497,"is_reserved":false,"is_disabled":false,"rental_uris":{"android":"levelo://app?vid=f2cf37b2-41c3-443a-bb11-ac091fc37857","ios":"levelo://app?vid=f2cf37b2-41c3-443a-bb11-ac091fc37857"},"vehicle_type_id":"4","last_reported":1758287976,"current_range_meters":16400,"station_id":"st_d2ngiaodas8pm72gd1h0","pricing_plan_id":"cebpf4jnsgd1na2vs0mg"},{"bike_id":"9419ed86-7e04-49ed-9879-7b0739ad0b2d","system_id":"levelo_inurba_marseille","lat":43.28268,"lon":5.35059,"is_reserved":false,"is_disabled":false,"rental_uris":{"android":"levelo://app?vid=9419ed86-7e04-49ed-9879-7b0739ad0b2d","ios":"levelo://app?vid=9419ed86-7e04-49ed-9879-7b0739ad0b2d"},"vehicle_type_id":"4","last_reported":1758287976,"current_range_meters":16400,"station_id":"ce4bhbp2rcd13ifvqerg","pricing_plan_id":"cebpf4jnsgd1na2vs0mg"},{"bike_id":"bf31957d-71b2-4cad-b061-fdbaaa32e6f9","system_id":"levelo_inurba_marseille","lat":43.29282,"lon":5.37622,"is_reserved":false,"is_disabled":true,"rental_uris":{"android":"levelo://app?vid=bf31957d-71b2-4cad-b061-fdbaaa32e6f9","ios":"levelo://app?vid=bf31957d-71b2-4cad-b061-fdbaaa32e6f9"},"vehicle_type_id":"4","last_reported":1758287976,"current_range_meters":16400,"station_id":"ce4bgi12rcd13ifvqb80","pricing_plan_id":"cebpf4jnsgd1na2vs0mg"},{"bike_id":"3a65bd62-441d-4cca-9f9e-d1d5c3ae0659","system_id":"levelo_inurba_marseille","lat":43.26777,"lon":5.39424,"is_reserved":false,"is_disabled":false,"rental_uris":{"android":"levelo://app?vid=3a65bd62-441d-4cca-9f9e-d1d5c3ae0659","ios":"levelo://app?vid=3a65bd62-441d-4cca-9f9e-d1d5c3ae0659"},"vehicle_type_id":"4","last_reported":1758287976,"current_range_meters":16400,"station_id":"ce4bhh12rcd13ifvqfg0","pricing_plan_id":"cebpf4jnsgd1na2vs0mg"},{"bike_id":"db41234b-a075-4d8c-9ba3-129754b98a49","system_id":"levelo_inurba_marseille","lat":43.29985,"lon":5.37154,"is_reserved":false,"is_disabled":false,"rental_uris":{"android":"levelo://app?vid=db41234b-a075-4d8c-9ba3-129754b98a49","ios":"levelo://app?vid=db41234b-a075-4d8c-9ba3-129754b98a49"},"vehicle_type_id":"4","last_reported":1758287976,"current_range_meters":16800,"station_id":"ce4bgr92rcd13ifvqc7g","pricing_plan_id":"cebpf4jnsgd1na2vs0mg"},{"bike_id":"3ccb8162-e35c-4221-b217-26aacf4269d7","system_id":"levelo_inurba_marseille","lat":43.31999,"lon":5.38162,"is_reserved":false,"is_disabled":false,"rental_uris":{"android":"levelo://app?vid=3ccb8162-e35c-4221-b217-26aacf4269d7","ios":"levelo://app?vid=3ccb8162-e35c-4221-b217-26aacf4269d7"},"vehicle_type_id":"4","last_reported":1758287976,"current_range_meters":16800,"station_id":"ce4bhr12rcd13ifvqhpg","pricing_plan_id":"cebpf4jnsgd1na2vs0mg"},{"bike_id":"2816d165-7e75-4beb-8175-d4a407b6dbb3","system_id":"levelo_inurba_marseille","lat":43.29041,"lon":5.39963,"is_reserved":false,"is_disabled":true,"rental_uris":{"android":"levelo://app?vid=2816d165-7e75-4beb-8175-d4a407b6dbb3","ios":"levelo://app?vid=2816d165-7e75-4beb-8175-d4a407b6dbb3"},"vehicle_type_id":"4","last_reported":1758287976,"current_range_meters":16800,"station_id":"ce4bh392rcd13ifvqdm0","pricing_plan_id":"cebpf4jnsgd1na2vs0mg"},{"bike_id":"95b43e4c-e9a8-44e8-ba0a-4478acd8f4f5","system_id":"levelo_inurba_marseille","lat":43.2816,"lon":5.42648,"is_reserved":false,"is_disabled":false,"rental_uris":{"android":"levelo://app?vid=95b43e4c-e9a8-44e8-ba0a-4478acd8f4f5","ios":"levelo://app?vid=95b43e4c-e9a8-44e8-ba0a-4478acd8f4f5"},"vehicle_type_id":"4","last_reported":1758287976,"current_range_meters":16800,"station_id":"ce4bhnh2rcd13ifvqgug","pricing_plan_id":"cebpf4jnsgd1na2vs0mg"},{"bike_id":"4199a78e-e024-4aa0-add5-bfe6d6531bc4","system_id":"levelo_inurba_marseille","lat":43.24161,"lon":5.36395,"is_reserved":false,"is_disabled":false,"rental_uris":{"android":"levelo://app?vid=4199a78e-e024-4aa0-add5-bfe6d6531bc4","ios":"levelo://app?vid=4199a78e-e024-4aa0-add5-bfe6d6531bc4"},"vehicle_type_id":"4","last_reported":1758287976,"current_range_meters":16800,"station_id":"cpo36qri1sfpv3e86is0","pricing_plan_id":"cebpf4jnsgd1na2vs0mg"},{"bike_id":"c4706891-6ce1-4440-91ff-a3ecf2ff007e","system_id":"levelo_inurba_marseille","lat":43.26374,"lon":5.40075,"is_reserved":false,"is_disabled":false,"rental_uris":{"android":"levelo://app?vid=c4706891-6ce1-4440-91ff-a3ecf2ff007e","ios":"levelo://app?vid=c4706891-6ce1-4440-91ff-a3ecf2ff007e"},"vehicle_type_id":"4","last_reported":1758287976,"current_range_meters":16800,"station_id":"","pricing_plan_id":"cebpf4jnsgd1na2vs0mg"},{"bike_id":"df0199ee-ab4f-48ab-bbe9-404b970e49dc","system_id":"levelo_inurba_marseille","lat":43.290731,"lon":5.371563,"is_reserved":false,"is_disabled":true,"rental_uris":{"android":"levelo://app?vid=df0199ee-ab4f-48ab-bbe9-404b970e49dc","ios":"levelo://app?vid=df0199ee-ab4f-48ab-bbe9-404b970e49dc"},"vehicle_type_id":"4","last_reported":1758287976,"current_range_meters":16800,"station_id":"ce4bh5p2rcd13ifvqe4g","pricing_plan_id":"cebpf4jnsgd1na2vs0mg"},{"bike_id":"8b3c1bb1-e3a1-43a9-8904-bfd6e05d3085","system_id":"levelo_inurba_marseille","lat":43.28269,"lon":5.3507,"is_reserved":false,"is_disabled":false,"rental_uris":{"android":"levelo://app?vid=8b3c1bb1-e3a1-43a9-8904-bfd6e05d3085","ios":"levelo://app?vid=8b3c1bb1-e3a1-43a9-8904-bfd6e05d3085"},"vehicle_type_id":"4","last_reported":1758287976,"current_range_meters":16800,"station_id":"ce4bhbp2rcd13ifvqerg","pricing_plan_id":"cebpf4jnsgd1na2vs0mg"},{"bike_id":"835975a0-27c7-47e7-bc1c-b8ba0b505127","system_id":"levelo_inurba_marseille","lat":43.32593,"lon":5.37841,"is_reserved":false,"is_disabled":false,"rental_uris":{"android":"levelo://app?vid=835975a0-27c7-47e7-bc1c-b8ba0b505127","ios":"levelo://app?vid=835975a0-27c7-47e7-bc1c-b8ba0b505127"},"vehicle_type_id":"4","last_reported":1758287976,"current_range_meters":16800,"station_id":"","pricing_plan_id":"cebpf4jnsgd1na2vs0mg"},{"bike_id":"96507329-2880-46a8-8381-94c43398d8e1","system_id":"levelo_inurba_marseille","lat":43.32104,"lon":5.36769,"is_reserved":false,"is_disabled":false,"rental_uris":{"android":"levelo://app?vid=96507329-2880-46a8-8381-94c43398d8e1","ios":"levelo://app?vid=96507329-2880-46a8-8381-94c43398d8e1"},"vehicle_type_id":"4","last_reported":1758287976,"current_range_meters":17200,"station_id":"ce4bhrh2rcd13ifvqhug","pricing_plan_id":"cebpf4jnsgd1na2vs0mg"},{"bike_id":"1b48f202-57c3-4c4a-94b0-1d75f45240d7","system_id":"levelo_inurba_marseille","lat":43.29268,"lon":5.40904,"is_reserved":false,"is_disabled":false,"rental_uris":{"android":"levelo://app?vid=1b48f202-57c3-4c4a-94b0-1d75f45240d7","ios":"levelo://app?vid=1b48f202-57c3-4c4a-94b0-1d75f45240d7"},"vehicle_type_id":"4","last_reported":1758287976,"current_range_meters":17200,"station_id":"ce4bh192rcd13ifvqdc0","pricing_plan_id":"cebpf4jnsgd1na2vs0mg"},{"bike_id":"9793c943-3072-4085-9126-cce0446bf3a8","system_id":"levelo_inurba_marseille","lat":43.25362,"lon":5.4214,"is_reserved":false,"is_disabled":false,"rental_uris":{"android":"levelo://app?vid=9793c943-3072-4085-9126-cce0446bf3a8","ios":"levelo://app?vid=9793c943-3072-4085-9126-cce0446bf3a8"},"vehicle_type_id":"4","last_reported":1758287976,"current_range_meters":17600,"station_id":"st_d2m65c5bi1j21697t3ng","pricing_plan_id":"cebpf4jnsgd1na2vs0mg"},{"bike_id":"40847c7b-6921-4437-9239-af2638162524","system_id":"levelo_inurba_marseille","lat":43.24165,"lon":5.36394,"is_reserved":false,"is_disabled":false,"rental_uris":{"android":"levelo://app?vid=40847c7b-6921-4437-9239-af2638162524","ios":"levelo://app?vid=40847c7b-6921-4437-9239-af2638162524"},"vehicle_type_id":"4","last_reported":1758287976,"current_range_meters":17200,"station_id":"cpo36qri1sfpv3e86is0","pricing_plan_id":"cebpf4jnsgd1na2vs0mg"},{"bike_id":"0968db8c-bbcc-4d16-9b2e-300c7140beae","system_id":"levelo_inurba_marseille","lat":43.29629,"lon":5.40611,"is_reserved":false,"is_disabled":false,"rental_uris":{"android":"levelo://app?vid=0968db8c-bbcc-4d16-9b2e-300c7140beae","ios":"levelo://app?vid=0968db8c-bbcc-4d16-9b2e-300c7140beae"},"vehicle_type_id":"4","last_reported":1758287976,"current_range_meters":17200,"station_id":"ce4bh0h2rcd13ifvqd60","pricing_plan_id":"cebpf4jnsgd1na2vs0mg"},{"bike_id":"19be7a14-0333-49fe-8335-d57f7ac286b8","system_id":"levelo_inurba_marseille","lat":43.25721,"lon":5.4112,"is_reserved":false,"is_disabled":false,"rental_uris":{"android":"levelo://app?vid=19be7a14-0333-49fe-8335-d57f7ac286b8","ios":"levelo://app?vid=19be7a14-0333-49fe-8335-d57f7ac286b8"},"vehicle_type_id":"4","last_reported":1758287976,"current_range_meters":17200,"station_id":"ce4bhkp2rcd13ifvqgd0","pricing_plan_id":"cebpf4jnsgd1na2vs0mg"},{"bike_id":"709e8c80-ceff-4ac1-bba1-505f2beac068","system_id":"levelo_inurba_marseille","lat":43.27902,"lon":5.38005,"is_reserved":false,"is_disabled":false,"rental_uris":{"android":"levelo://app?vid=709e8c80-ceff-4ac1-bba1-505f2beac068","ios":"levelo://app?vid=709e8c80-ceff-4ac1-bba1-505f2beac068"},"vehicle_type_id":"4","last_reported":1758287976,"current_range_meters":16800,"station_id":"ce4bhf92rcd13ifvqf50","pricing_plan_id":"cebpf4jnsgd1na2vs0mg"},{"bike_id":"3a52b1c1-b6d1-44a4-92dd-86846d563ddb","system_id":"levelo_inurba_marseille","lat":43.29946,"lon":5.36539,"is_reserved":false,"is_disabled":false,"rental_uris":{"android":"levelo://app?vid=3a52b1c1-b6d1-44a4-92dd-86846d563ddb","ios":"levelo://app?vid=3a52b1c1-b6d1-44a4-92dd-86846d563ddb"},"vehicle_type_id":"4","last_reported":1758287976,"current_range_meters":17200,"station_id":"ce4bgm92rcd13ifvqbr0","pricing_plan_id":"cebpf4jnsgd1na2vs0mg"},{"bike_id":"43d57fd4-047e-4ac8-97e5-ec9b96239472","system_id":"levelo_inurba_marseille","lat":43.32952,"lon":5.39116,"is_reserved":false,"is_disabled":false,"rental_uris":{"android":"levelo://app?vid=43d57fd4-047e-4ac8-97e5-ec9b96239472","ios":"levelo://app?vid=43d57fd4-047e-4ac8-97e5-ec9b96239472"},"vehicle_type_id":"4","last_reported":1758287976,"current_range_meters":17200,"station_id":"","pricing_plan_id":"cebpf4jnsgd1na2vs0mg"},{"bike_id":"7f1be994-af2d-4c9a-807a-220e9a43367d","system_id":"levelo_inurba_marseille","lat":43.2293,"lon":5.35379,"is_reserved":false,"is_disabled":false,"rental_uris":{"android":"levelo://app?vid=7f1be994-af2d-4c9a-807a-220e9a43367d","ios":"levelo://app?vid=7f1be994-af2d-4c9a-807a-220e9a43367d"},"vehicle_type_id":"4","last_reported":1758287976,"current_range_meters":17600,"station_id":"cpo3532slgdg3j2ikp40","pricing_plan_id":"cebpf4jnsgd1na2vs0mg"},{"bike_id":"d9cc3272-5c94-44da-a320-628237c788e6","system_id":"levelo_inurba_marseille","lat":43.30822,"lon":5.38143,"is_reserved":false,"is_disabled":false,"rental_uris":{"android":"levelo://app?vid=d9cc3272-5c94-44da-a320-628237c788e6","ios":"levelo://app?vid=d9cc3272-5c94-44da-a320-628237c788e6"},"vehicle_type_id":"4","last_reported":1758287976,"current_range_meters":17600,"station_id":"ce4bgt12rcd13ifvqce0","pricing_plan_id":"cebpf4jnsgd1na2vs0mg"},{"bike_id":"46bb0d16-d452-4e67-8ebb-7c6f5e89c56e","system_id":"levelo_inurba_marseille","lat":43.28276,"lon":5.35068,"is_reserved":false,"is_disabled":false,"rental_uris":{"android":"levelo://app?vid=46bb0d16-d452-4e67-8ebb-7c6f5e89c56e","ios":"levelo://app?vid=46bb0d16-d452-4e67-8ebb-7c6f5e89c56e"},"vehicle_type_id":"4","last_reported":1758287976,"current_range_meters":17600,"station_id":"ce4bhbp2rcd13ifvqerg","pricing_plan_id":"cebpf4jnsgd1na2vs0mg"},{"bike_id":"af0490b6-c1c9-4895-8a15-568d23e0a730","system_id":"levelo_inurba_marseille","lat":43.2807,"lon":5.40781,"is_reserved":false,"is_disabled":false,"rental_uris":{"android":"levelo://app?vid=af0490b6-c1c9-4895-8a15-568d23e0a730","ios":"levelo://app?vid=af0490b6-c1c9-4895-8a15-568d23e0a730"},"vehicle_type_id":"4","last_reported":1758287976,"current_range_meters":17600,"station_id":"","pricing_plan_id":"cebpf4jnsgd1na2vs0mg"},{"bike_id":"11f5b791-38b6-4186-ab5f-78582d4b3460","system_id":"levelo_inurba_marseille","lat":43.23056,"lon":5.35491,"is_reserved":false,"is_disabled":false,"rental_uris":{"android":"levelo://app?vid=11f5b791-38b6-4186-ab5f-78582d4b3460","ios":"levelo://app?vid=11f5b791-38b6-4186-ab5f-78582d4b3460"},"vehicle_type_id":"4","last_reported":1758287976,"current_range_meters":17600,"station_id":"cpo3342slgdg3j2ifvpg","pricing_plan_id":"cebpf4jnsgd1na2vs0mg"},{"bike_id":"3bca0a44-a17c-433d-83f8-9473d91e4947","system_id":"levelo_inurba_marseille","lat":43.28078,"lon":5.3966,"is_reserved":false,"is_disabled":false,"rental_uris":{"android":"levelo://app?vid=3bca0a44-a17c-433d-83f8-9473d91e4947","ios":"levelo://app?vid=3bca0a44-a17c-433d-83f8-9473d91e4947"},"vehicle_type_id":"4","last_reported":1758287976,"current_range_meters":17600,"station_id":"ce4bho12rcd13ifvqh2g","pricing_plan_id":"cebpf4jnsgd1na2vs0mg"},{"bike_id":"d582ba82-de0a-401e-8bd3-378f0cec80f7","system_id":"levelo_inurba_marseille","lat":43.25935,"lon":5.40846,"is_reserved":false,"is_disabled":false,"rental_uris":{"android":"levelo://app?vid=d582ba82-de0a-401e-8bd3-378f0cec80f7","ios":"levelo://app?vid=d582ba82-de0a-401e-8bd3-378f0cec80f7"},"vehicle_type_id":"4","last_reported":1758287976,"current_range_meters":17600,"station_id":"ce4bhm92rcd13ifvqglg","pricing_plan_id":"cebpf4jnsgd1na2vs0mg"},{"bike_id":"1d6512d2-0abe-496f-b56b-70823fb272b1","system_id":"levelo_inurba_marseille","lat":43.30196,"lon":5.36589,"is_reserved":false,"is_disabled":false,"rental_uris":{"android":"levelo://app?vid=1d6512d2-0abe-496f-b56b-70823fb272b1","ios":"levelo://app?vid=1d6512d2-0abe-496f-b56b-70823fb272b1"},"vehicle_type_id":"4","last_reported":1758287976,"current_range_meters":17600,"station_id":"ce4bgrh2rcd13ifvqc8g","pricing_plan_id":"cebpf4jnsgd1na2vs0mg"},{"bike_id":"30279a9d-e63a-446d-b6bf-61f4c5913911","system_id":"levelo_inurba_marseille","lat":43.28417,"lon":5.34992,"is_reserved":false,"is_disabled":false,"rental_uris":{"android":"levelo://app?vid=30279a9d-e63a-446d-b6bf-61f4c5913911","ios":"levelo://app?vid=30279a9d-e63a-446d-b6bf-61f4c5913911"},"vehicle_type_id":"4","last_reported":1758287976,"current_range_meters":17600,"station_id":"ce4bhbh2rcd13ifvqepg","pricing_plan_id":"cebpf4jnsgd1na2vs0mg"},{"bike_id":"59c90e29-f03e-406c-839b-4b4daadaaf71","system_id":"levelo_inurba_marseille","lat":43.3089,"lon":5.39658,"is_reserved":false,"is_disabled":false,"rental_uris":{"android":"levelo://app?vid=59c90e29-f03e-406c-839b-4b4daadaaf71","ios":"levelo://app?vid=59c90e29-f03e-406c-839b-4b4daadaaf71"},"vehicle_type_id":"4","last_reported":1758287976,"current_range_meters":17600,"station_id":"ce4bh012rcd13ifvqcv0","pricing_plan_id":"cebpf4jnsgd1na2vs0mg"},{"bike_id":"c8e37da5-98d6-4477-93e1-e8dae67bd429","system_id":"levelo_inurba_marseille","lat":43.32287,"lon":5.38265,"is_reserved":false,"is_disabled":false,"rental_uris":{"android":"levelo://app?vid=c8e37da5-98d6-4477-93e1-e8dae67bd429","ios":"levelo://app?vid=c8e37da5-98d6-4477-93e1-e8dae67bd429"},"vehicle_type_id":"4","last_reported":1758287976,"current_range_meters":17200,"station_id":"ce4bhr12rcd13ifvqhqg","pricing_plan_id":"cebpf4jnsgd1na2vs0mg"},{"bike_id":"b810ec46-97ab-4356-95f9-0c9d02506d5a","system_id":"levelo_inurba_marseille","lat":43.24458,"lon":5.39039,"is_reserved":false,"is_disabled":false,"rental_uris":{"android":"levelo://app?vid=b810ec46-97ab-4356-95f9-0c9d02506d5a","ios":"levelo://app?vid=b810ec46-97ab-4356-95f9-0c9d02506d5a"},"vehicle_type_id":"4","last_reported":1758287976,"current_range_meters":18000,"station_id":"","pricing_plan_id":"cebpf4jnsgd1na2vs0mg"},{"bike_id":"18ee6c0b-455c-4048-9730-ff21dfdf35df","system_id":"levelo_inurba_marseille","lat":43.22553,"lon":5.41651,"is_reserved":false,"is_disabled":false,"rental_uris":{"android":"levelo://app?vid=18ee6c0b-455c-4048-9730-ff21dfdf35df","ios":"levelo://app?vid=18ee6c0b-455c-4048-9730-ff21dfdf35df"},"vehicle_type_id":"4","last_reported":1758287976,"current_range_meters":18000,"station_id":"st_d2o4gvlbi1j2169b742g","pricing_plan_id":"cebpf4jnsgd1na2vs0mg"},{"bike_id":"c196d4f3-a311-49eb-9052-49fb214d77ef","system_id":"levelo_inurba_marseille","lat":43.2841,"lon":5.34976,"is_reserved":false,"is_disabled":false,"rental_uris":{"android":"levelo://app?vid=c196d4f3-a311-49eb-9052-49fb214d77ef","ios":"levelo://app?vid=c196d4f3-a311-49eb-9052-49fb214d77ef"},"vehicle_type_id":"4","last_reported":1758287976,"current_range_meters":18000,"station_id":"ce4bhbh2rcd13ifvqepg","pricing_plan_id":"cebpf4jnsgd1na2vs0mg"},{"bike_id":"a9743bb2-1568-4e16-927e-acd26159a665","system_id":"levelo_inurba_marseille","lat":43.28268,"lon":5.3506,"is_reserved":false,"is_disabled":false,"rental_uris":{"android":"levelo://app?vid=a9743bb2-1568-4e16-927e-acd26159a665","ios":"levelo://app?vid=a9743bb2-1568-4e16-927e-acd26159a665"},"vehicle_type_id":"4","last_reported":1758287976,"current_range_meters":18000,"station_id":"ce4bhbp2rcd13ifvqerg","pricing_plan_id":"cebpf4jnsgd1na2vs0mg"},{"bike_id":"05ca0aa0-5596-4971-a0c3-94e65df6bd50","system_id":"levelo_inurba_marseille","lat":43.2257,"lon":5.41627,"is_reserved":false,"is_disabled":false,"rental_uris":{"android":"levelo://app?vid=05ca0aa0-5596-4971-a0c3-94e65df6bd50","ios":"levelo://app?vid=05ca0aa0-5596-4971-a0c3-94e65df6bd50"},"vehicle_type_id":"4","last_reported":1758287976,"current_range_meters":18000,"station_id":"st_d2o4gvlbi1j2169b742g","pricing_plan_id":"cebpf4jnsgd1na2vs0mg"},{"bike_id":"55d1bc08-fd54-4a82-afc7-2adcaa7b1c4e","system_id":"levelo_inurba_marseille","lat":43.30044,"lon":5.37697,"is_reserved":false,"is_disabled":false,"rental_uris":{"android":"levelo://app?vid=55d1bc08-fd54-4a82-afc7-2adcaa7b1c4e","ios":"levelo://app?vid=55d1bc08-fd54-4a82-afc7-2adcaa7b1c4e"},"vehicle_type_id":"4","last_reported":1758287976,"current_range_meters":18000,"station_id":"","pricing_plan_id":"cebpf4jnsgd1na2vs0mg"},{"bike_id":"b963bad2-1ddc-43b1-96a9-2362e94e94cf","system_id":"levelo_inurba_marseille","lat":43.30554,"lon":5.36695,"is_reserved":false,"is_disabled":false,"rental_uris":{"android":"levelo://app?vid=b963bad2-1ddc-43b1-96a9-2362e94e94cf","ios":"levelo://app?vid=b963bad2-1ddc-43b1-96a9-2362e94e94cf"},"vehicle_type_id":"4","last_reported":1758287976,"current_range_meters":18000,"station_id":"ce4bgrp2rcd13ifvqc9g","pricing_plan_id":"cebpf4jnsgd1na2vs0mg"},{"bike_id":"0f7caa9f-1d1a-40d7-9b4a-2f8720e63681","system_id":"levelo_inurba_marseille","lat":43.30841,"lon":5.37478,"is_reserved":false,"is_disabled":false,"rental_uris":{"android":"levelo://app?vid=0f7caa9f-1d1a-40d7-9b4a-2f8720e63681","ios":"levelo://app?vid=0f7caa9f-1d1a-40d7-9b4a-2f8720e63681"},"vehicle_type_id":"4","last_reported":1758287976,"current_range_meters":18800,"station_id":"","pricing_plan_id":"cebpf4jnsgd1na2vs0mg"},{"bike_id":"13eb3edd-9f60-4741-ac45-2e7c3cc7d73c","system_id":"levelo_inurba_marseille","lat":43.28415,"lon":5.34986,"is_reserved":false,"is_disabled":false,"rental_uris":{"android":"levelo://app?vid=13eb3edd-9f60-4741-ac45-2e7c3cc7d73c","ios":"levelo://app?vid=13eb3edd-9f60-4741-ac45-2e7c3cc7d73c"},"vehicle_type_id":"4","last_reported":1758287976,"current_range_meters":18800,"station_id":"ce4bhbh2rcd13ifvqepg","pricing_plan_id":"cebpf4jnsgd1na2vs0mg"},{"bike_id":"0a59279b-bc4f-4e7a-b076-f9da0002b378","system_id":"levelo_inurba_marseille","lat":43.29256,"lon":5.40911,"is_reserved":false,"is_disabled":false,"rental_uris":{"android":"levelo://app?vid=0a59279b-bc4f-4e7a-b076-f9da0002b378","ios":"levelo://app?vid=0a59279b-bc4f-4e7a-b076-f9da0002b378"},"vehicle_type_id":"4","last_reported":1758287976,"current_range_meters":18000,"station_id":"ce4bh192rcd13ifvqdc0","pricing_plan_id":"cebpf4jnsgd1na2vs0mg"},{"bike_id":"2a00cb84-e9e6-4781-804d-0494d7480777","system_id":"levelo_inurba_marseille","lat":43.22555,"lon":5.41625,"is_reserved":false,"is_disabled":false,"rental_uris":{"android":"levelo://app?vid=2a00cb84-e9e6-4781-804d-0494d7480777","ios":"levelo://app?vid=2a00cb84-e9e6-4781-804d-0494d7480777"},"vehicle_type_id":"4","last_reported":1758287976,"current_range_meters":19200,"station_id":"st_d2o4gvlbi1j2169b742g","pricing_plan_id":"cebpf4jnsgd1na2vs0mg"},{"bike_id":"52ca4bd1-8070-4df7-becb-054a424131e9","system_id":"levelo_inurba_marseille","lat":43.28629,"lon":5.35071,"is_reserved":false,"is_disabled":false,"rental_uris":{"android":"levelo://app?vid=52ca4bd1-8070-4df7-becb-054a424131e9","ios":"levelo://app?vid=52ca4bd1-8070-4df7-becb-054a424131e9"},"vehicle_type_id":"4","last_reported":1758287976,"current_range_meters":19200,"station_id":"ce4bhch2rcd13ifvqeug","pricing_plan_id":"cebpf4jnsgd1na2vs0mg"},{"bike_id":"451e260a-978f-4683-ac26-c96e1f4f6c21","system_id":"levelo_inurba_marseille","lat":43.27067,"lon":5.42286,"is_reserved":false,"is_disabled":false,"rental_uris":{"android":"levelo://app?vid=451e260a-978f-4683-ac26-c96e1f4f6c21","ios":"levelo://app?vid=451e260a-978f-4683-ac26-c96e1f4f6c21"},"vehicle_type_id":"4","last_reported":1758287976,"current_range_meters":19200,"station_id":"ce4bhk92rcd13ifvqgb0","pricing_plan_id":"cebpf4jnsgd1na2vs0mg"},{"bike_id":"2c734c36-442f-468e-ab47-e34ad5183e32","system_id":"levelo_inurba_marseille","lat":43.25772,"lon":5.41047,"is_reserved":false,"is_disabled":false,"rental_uris":{"android":"levelo://app?vid=2c734c36-442f-468e-ab47-e34ad5183e32","ios":"levelo://app?vid=2c734c36-442f-468e-ab47-e34ad5183e32"},"vehicle_type_id":"4","last_reported":1758287976,"current_range_meters":19200,"station_id":"","pricing_plan_id":"cebpf4jnsgd1na2vs0mg"},{"bike_id":"69255e40-2c7e-4515-acf9-da6320c5cb06","system_id":"levelo_inurba_marseille","lat":43.26227,"lon":5.40434,"is_reserved":false,"is_disabled":false,"rental_uris":{"android":"levelo://app?vid=69255e40-2c7e-4515-acf9-da6320c5cb06","ios":"levelo://app?vid=69255e40-2c7e-4515-acf9-da6320c5cb06"},