{"last_updated":1725819099,"ttl":30,"version":"2.2","data":{"bikes":[{"bike_id":"3d16af6f-591a-4741-bc8b-6517b3b63034","system_id":"levelo_inurba_marseille","lat":43.31341,"lon":5.367098,"is_reserved":false,"is_disabled":false,"rental_uris":{"android":"levelo://app?vid=3d16af6f-591a-4741-bc8b-6517b3b63034","ios":"levelo://app?vid=3d16af6f-591a-4741-bc8b-6517b3b63034"},"vehicle_type_id":"4","last_reported":1725819099,"current_range_meters":27600,"station_id":"ce4bgr92rcd13ifvqc6g","pricing_plan_id":"cebpf4jnsgd1na2vs0mg"},{"bike_id":"25921d91-7a4b-4523-9532-cab33c8c3f1d","system_id":"levelo_inurba_marseille","lat":43.31215,"lon":5.36853,"is_reserved":false,"is_disabled":false,"rental_uris":{"android":"levelo://app?vid=25921d91-7a4b-4523-9532-cab33c8c3f1d","ios":"levelo://app?vid=25921d91-7a4b-4523-9532-cab33c8c3f1d"},"vehicle_type_id":"4","last_reported":1725819099,"current_range_meters":6800,"station_id":"ce4bgl92rcd13ifvqbq0","pricing_plan_id":"cebpf4jnsgd1na2vs0mg"},{"bike_id":"37551945-13e7-449b-9fc6-604a5e5ff08d","system_id":"levelo_inurba_marseille","lat":43.312239,"lon":5.368562,"is_reserved":false,"is_disabled":false,"rental_uris":{"android":"levelo://app?vid=37551945-13e7-449b-9fc6-604a5e5ff08d","ios":"levelo://app?vid=37551945-13e7-449b-9fc6-604a5e5ff08d"},"vehicle_type_id":"4","last_reported":1725819099,"current_range_meters":16000,"station_id":"ce4bgl92rcd13ifvqbq0","pricing_plan_id":"cebpf4jnsgd1na2vs0mg"},{"bike_id":"84b6c2d8-b63a-4f15-86b7-7f6f9c73f401","system_id":"levelo_inurba_marseille","lat":43.309076,"lon":5.368465,"is_reserved":false,"is_disabled":false,"rental_uris":{"android":"levelo://app?vid=84b6c2d8-b63a-4f15-86b7-7f6f9c73f401","ios":"levelo://app?vid=84b6c2d8-b63a-4f15-86b7-7f6f9c73f401"},"vehicle_type_id":"4","last_reported":1725819099,"current_range_meters":6800,"station_id":"ce4bgn92rcd13ifvqbvg","pricing_plan_id":"cebpf4jnsgd1na2vs0mg"},{"bike_id":"8e7ad878-8a2d-4096-b97e-521881bc4cb0","system_id":"levelo_inurba_marseille","lat":43.309076,"lon":5.368465,"is_reserved":false,"is_disabled":false,"rental_uris":{"android":"levelo://app?vid=8e7ad878-8a2d-4096-b97e-521881bc4cb0","ios":"levelo://app?vid=8e7ad878-8a2d-4096-b97e-521881bc4cb0"},"vehicle_type_id":"4","last_reported":1725819099,"current_range_meters":31600,"station_id":"ce4bgn92rcd13ifvqbvg","pricing_plan_id":"cebpf4jnsgd1na2vs0mg"},{"bike_id":"a531417a-10c7-4dde-b387-eeedff58a630","system_id":"levelo_inurba_marseille","lat":43.314811,"lon":5.373103,"is_reserved":false,"is_disabled":false,"rental_uris":{"android":"levelo://app?vid=a531417a-10c7-4dde-b387-eeedff58a630","ios":"levelo://app?vid=a531417a-10c7-4dde-b387-eeedff58a630"},"vehicle_type_id":"4","last_reported":1725819099,"current_range_meters":20400,"station_id":"ce4bgt12rcd13ifvqcd0","pricing_plan_id":"cebpf4jnsgd1na2vs0mg"},{"bike_id":"0f397238-2bf1-41aa-8036-d25b2ce9d829","system_id":"levelo_inurba_marseille","lat":43.314811,"lon":5.373103,"is_reserved":false,"is_disabled":false,"rental_uris":{"android":"levelo://app?vid=0f397238-2bf1-41aa-8036-d25b2ce9d829","ios":"levelo://app?vid=0f397238-2bf1-41aa-8036-d25b2ce9d829"},"vehicle_type_id":"4","last_reported":1725819099,"current_range_meters":14000,"station_id":"ce4bgt12rcd13ifvqcd0","pricing_plan_id":"cebpf4jnsgd1na2vs0mg"},{"bike_id":"361b2b77-bfe8-4aca-92bf-301ba56ba160","system_id":"levelo_inurba_marseille","lat":43.314811,"lon":5.373103,"is_reserved":false,"is_disabled":false,"rental_uris":{"android":"levelo://app?vid=361b2b77-bfe8-4aca-92bf-301ba56ba160","ios":"levelo://app?vid=361b2b77-bfe8-4aca-92bf-301ba56ba160"},"vehicle_type_id":"4","last_reported":1725819099,"current_range_meters":20400,"station_id":"ce4bgt12rcd13ifvqcd0","pricing_plan_id":"cebpf4jnsgd1na2vs0mg"},{"bike_id":"715f92e9-8821-438c-9333-ef6b29c8a390","system_id":"levelo_inurba_marseille","lat":43.314811,"lon":5.373103,"is_reserved":false,"is_disabled":false,"rental_uris":{"android":"levelo://app?vid=715f92e9-8821-438c-9333-ef6b29c8a390","ios":"levelo://app?vid=715f92e9-8821-438c-9333-ef6b29c8a390"},"vehicle_type_id":"4","last_reported":1725819099,"current_range_meters":16400,"station_id":"ce4bgt12rcd13ifvqcd0","pricing_plan_id":"cebpf4jnsgd1na2vs0mg"},{"bike_id":"d6262629-a7e2-4dd3-9954-d60700e15b60","system_id":"levelo_inurba_marseille","lat":43.314811,"lon":5.373104,"is_reserved":false,"is_disabled":false,"rental_uris":{"android":"levelo://app?vid=d6262629-a7e2-4dd3-9954-d60700e15b60","ios":"levelo://app?vid=d6262629-a7e2-4dd3-9954-d60700e15b60"},"vehicle_type_id":"4","last_reported":1725819099,"current_range_meters":22800,"station_id":"ce4bgt12rcd13ifvqcd0","pricing_plan_id":"cebpf4jnsgd1na2vs0mg"},{"bike_id":"56b2c01c-e7ce-4a5b-bf09-468b60932b4c","system_id":"levelo_inurba_marseille","lat":43.309039,"lon":5.371797,"is_reserved":false,"is_disabled":false,"rental_uris":{"android":"levelo://app?vid=56b2c01c-e7ce-4a5b-bf09-468b60932b4c","ios":"levelo://app?vid=56b2c01c-e7ce-4a5b-bf09-468b60932b4c"},"vehicle_type_id":"4","last_reported":1725819099,"current_range_meters":18800,"station_id":"ce4bguh2rcd13ifvqckg","pricing_plan_id":"cebpf4jnsgd1na2vs0mg"},{"bike_id":"23e03aeb-b84f-4e22-9124-e939c1598be3","system_id":"levelo_inurba_marseille","lat":43.30879,"lon":5.37187,"is_reserved":false,"is_disabled":false,"rental_uris":{"android":"levelo://app?vid=23e03aeb-b84f-4e22-9124-e939c1598be3","ios":"levelo://app?vid=23e03aeb-b84f-4e22-9124-e939c1598be3"},"vehicle_type_id":"4","last_reported":1725819099,"current_range_meters":14800,"station_id":"ce4bguh2rcd13ifvqckg","pricing_plan_id":"cebpf4jnsgd1na2vs0mg"},{"bike_id":"d4b148ac-889c-41c3-be96-97f7674dc89f","system_id":"levelo_inurba_marseille","lat":43.31773,"lon":5.3723,"is_reserved":false,"is_disabled":false,"rental_uris":{"android":"levelo://app?vid=d4b148ac-889c-41c3-be96-97f7674dc89f","ios":"levelo://app?vid=d4b148ac-889c-41c3-be96-97f7674dc89f"},"vehicle_type_id":"4","last_reported":1725819099,"current_range_meters":19600,"station_id":"","pricing_plan_id":"cebpf4jnsgd1na2vs0mg"},{"bike_id":"c5aaa7d9-f829-4b48-a0eb-16f710ecc38e","system_id":"levelo_inurba_marseille","lat":43.30537,"lon":5.367345,"is_reserved":false,"is_disabled":false,"rental_uris":{"android":"levelo://app?vid=c5aaa7d9-f829-4b48-a0eb-16f710ecc38e","ios":"levelo://app?vid=c5aaa7d9-f829-4b48-a0eb-16f710ecc38e"},"vehicle_type_id":"4","last_reported":1725819099,"current_range_meters":27600,"station_id":"ce4bgrp2rcd13ifvqc9g","pricing_plan_id":"cebpf4jnsgd1na2vs0mg"},{"bike_id":"abfa8884-3d1c-48eb-8283-9f4ccef59c84","system_id":"levelo_inurba_marseille","lat":43.305714,"lon":5.365633,"is_reserved":false,"is_disabled":false,"rental_uris":{"android":"levelo://app?vid=abfa8884-3d1c-48eb-8283-9f4ccef59c84","ios":"levelo://app?vid=abfa8884-3d1c-48eb-8283-9f4ccef59c84"},"vehicle_type_id":"4","last_reported":1725819099,"current_range_meters":0,"station_id":"ce4bgs12rcd13ifvqcag","pricing_plan_id":"cebpf4jnsgd1na2vs0mg"},{"bike_id":"b2271a95-235b-4292-a747-ff96c2ad1624","system_id":"levelo_inurba_marseille","lat":43.305989,"lon":5.37225,"is_reserved":false,"is_disabled":false,"rental_uris":{"android":"levelo://app?vid=b2271a95-235b-4292-a747-ff96c2ad1624","ios":"levelo://app?vid=b2271a95-235b-4292-a747-ff96c2ad1624"},"vehicle_type_id":"4","last_reported":1725819099,"current_range_meters":0,"station_id":"ce4bgqh2rcd13ifvqc4g","pricing_plan_id":"cebpf4jnsgd1na2vs0mg"},{"bike_id":"e967f640-d2f7-4aeb-a7c8-27033612fb9f","system_id":"levelo_inurba_marseille","lat":43.305989,"lon":5.37225,"is_reserved":false,"is_disabled":false,"rental_uris":{"android":"levelo://app?vid=e967f640-d2f7-4aeb-a7c8-27033612fb9f","ios":"levelo://app?vid=e967f640-d2f7-4aeb-a7c8-27033612fb9f"},"vehicle_type_id":"4","last_reported":1725819099,"current_range_meters":0,"station_id":"ce4bgqh2rcd13ifvqc4g","pricing_plan_id":"cebpf4jnsgd1na2vs0mg"},{"bike_id":"349b427b-5e1b-498b-995b-2a4956df6fb4","system_id":"levelo_inurba_marseille","lat":43.311125,"lon":5.377624,"is_reserved":false,"is_disabled":false,"rental_uris":{"android":"levelo://app?vid=349b427b-5e1b-498b-995b-2a4956df6fb4","ios":"levelo://app?vid=349b427b-5e1b-498b-995b-2a4956df6fb4"},"vehicle_type_id":"4","last_reported":1725819099,"current_range_meters":2800,"station_id":"ce4bgt92rcd13ifvqcg0","pricing_plan_id":"cebpf4jnsgd1na2vs0mg"},{"bike_id":"83fdf8c7-4c9d-4d88-a57a-d464709cc4d3","system_id":"levelo_inurba_marseille","lat":43.307945,"lon":5.376487,"is_reserved":false,"is_disabled":false,"rental_uris":{"android":"levelo://app?vid=83fdf8c7-4c9d-4d88-a57a-d464709cc4d3","ios":"levelo://app?vid=83fdf8c7-4c9d-4d88-a57a-d464709cc4d3"},"vehicle_type_id":"4","last_reported":1725819099,"current_range_meters":10800,"station_id":"ce4bgv92rcd13ifvqcq0","pricing_plan_id":"cebpf4jnsgd1na2vs0mg"},{"bike_id":"cbf5d4fc-e830-4ad5-bd89-6579ad655426","system_id":"levelo_inurba_marseille","lat":43.307945,"lon":5.376487,"is_reserved":false,"is_disabled":false,"rental_uris":{"android":"levelo://app?vid=cbf5d4fc-e830-4ad5-bd89-6579ad655426","ios":"levelo://app?vid=cbf5d4fc-e830-4ad5-bd89-6579ad655426"},"vehicle_type_id":"4","last_reported":1725819099,"current_range_meters":27200,"station_id":"ce4bgv92rcd13ifvqcq0","pricing_plan_id":"cebpf4jnsgd1na2vs0mg"},{"bike_id":"e6240958-5766-4e43-be3c-5414d3e93fa9","system_id":"levelo_inurba_marseille","lat":43.31354,"lon":5.37918,"is_reserved":false,"is_disabled":false,"rental_uris":{"android":"levelo://app?vid=e6240958-5766-4e43-be3c-5414d3e93fa9","ios":"levelo://app?vid=e6240958-5766-4e43-be3c-5414d3e93fa9"},"vehicle_type_id":"4","last_reported":1725819099,"current_range_meters":18400,"station_id":"","pricing_plan_id":"cebpf4jnsgd1na2vs0mg"},{"bike_id":"9b7cecf6-f14c-4888-85b5-db8e628e3791","system_id":"levelo_inurba_marseille","lat":43.301939,"lon":5.366286,"is_reserved":false,"is_disabled":false,"rental_uris":{"android":"levelo://app?vid=9b7cecf6-f14c-4888-85b5-db8e628e3791","ios":"levelo://app?vid=9b7cecf6-f14c-4888-85b5-db8e628e3791"},"vehicle_type_id":"4","last_reported":1725819099,"current_range_meters":12000,"station_id":"ce4bgrh2rcd13ifvqc8g","pricing_plan_id":"cebpf4jnsgd1na2vs0mg"},{"bike_id":"0feae7ca-a0f4-4463-ada9-8a46d17e921b","system_id":"levelo_inurba_marseille","lat":43.30802,"lon":5.38156,"is_reserved":false,"is_disabled":false,"rental_uris":{"android":"levelo://app?vid=0feae7ca-a0f4-4463-ada9-8a46d17e921b","ios":"levelo://app?vid=0feae7ca-a0f4-4463-ada9-8a46d17e921b"},"vehicle_type_id":"4","last_reported":1725819099,"current_range_meters":0,"station_id":"ce4bgt12rcd13ifvqce0","pricing_plan_id":"cebpf4jnsgd1na2vs0mg"},{"bike_id":"a968153f-608d-4cbb-b65c-23ac15baef4c","system_id":"levelo_inurba_marseille","lat":43.308012,"lon":5.381511,"is_reserved":false,"is_disabled":false,"rental_uris":{"android":"levelo://app?vid=a968153f-608d-4cbb-b65c-23ac15baef4c","ios":"levelo://app?vid=a968153f-608d-4cbb-b65c-23ac15baef4c"},"vehicle_type_id":"4","last_reported":1725819099,"current_range_meters":1200,"station_id":"ce4bgt12rcd13ifvqce0","pricing_plan_id":"cebpf4jnsgd1na2vs0mg"},{"bike_id":"f4cf2b14-0787-453d-b183-96238c9a5283","system_id":"levelo_inurba_marseille","lat":43.324771,"lon":5.36557,"is_reserved":false,"is_disabled":false,"rental_uris":{"android":"levelo://app?vid=f4cf2b14-0787-453d-b183-96238c9a5283","ios":"levelo://app?vid=f4cf2b14-0787-453d-b183-96238c9a5283"},"vehicle_type_id":"4","last_reported":1725819099,"current_range_meters":31200,"station_id":"ce4bhs12rcd13ifvqhvg","pricing_plan_id":"cebpf4jnsgd1na2vs0mg"},{"bike_id":"f9eecc81-027c-4800-9479-73277ca72039","system_id":"levelo_inurba_marseille","lat":43.304606,"lon":5.379026,"is_reserved":false,"is_disabled":false,"rental_uris":{"android":"levelo://app?vid=f9eecc81-027c-4800-9479-73277ca72039","ios":"levelo://app?vid=f9eecc81-027c-4800-9479-73277ca72039"},"vehicle_type_id":"4","last_reported":1725819099,"current_range_meters":800,"station_id":"ce4bgup2rcd13ifvqcn0","pricing_plan_id":"cebpf4jnsgd1na2vs0mg"},{"bike_id":"7d5dc096-e09c-4f65-af17-7527aaf046f2","system_id":"levelo_inurba_marseille","lat":43.324771,"lon":5.36557,"is_reserved":false,"is_disabled":false,"rental_uris":{"android":"levelo://app?vid=7d5dc096-e09c-4f65-af17-7527aaf046f2","ios":"levelo://app?vid=7d5dc096-e09c-4f65-af17-7527aaf046f2"},"vehicle_type_id":"4","last_reported":1725819099,"current_range_meters":32000,"station_id":"ce4bhs12rcd13ifvqhvg","pricing_plan_id":"cebpf4jnsgd1na2vs0mg"},{"bike_id":"093f25fe-12b5-482d-a31b-6360a5b77582","system_id":"levelo_inurba_marseille","lat":43.324771,"lon":5.36557,"is_reserved":false,"is_disabled":false,"rental_uris":{"android":"levelo://app?vid=093f25fe-12b5-482d-a31b-6360a5b77582","ios":"levelo://app?vid=093f25fe-12b5-482d-a31b-6360a5b77582"},"vehicle_type_id":"4","last_reported":1725819099,"current_range_meters":1200,"station_id":"ce4bhs12rcd13ifvqhvg","pricing_plan_id":"cebpf4jnsgd1na2vs0mg"},{"bike_id":"517c6418-f24b-410c-936b-da4943fd859c","system_id":"levelo_inurba_marseille","lat":43.324771,"lon":5.36557,"is_reserved":false,"is_disabled":false,"rental_uris":{"android":"levelo://app?vid=517c6418-f24b-410c-936b-da4943fd859c","ios":"levelo://app?vid=517c6418-f24b-410c-936b-da4943fd859c"},"vehicle_type_id":"4","last_reported":1725819099,"current_range_meters":24000,"station_id":"ce4bhs12rcd13ifvqhvg","pricing_plan_id":"cebpf4jnsgd1na2vs0mg"},{"bike_id":"a8095eba-0e77-4079-a940-8f7fe92fc0fa","system_id":"levelo_inurba_marseille","lat":43.324771,"lon":5.36557,"is_reserved":false,"is_disabled":false,"rental_uris":{"android":"levelo://app?vid=a8095eba-0e77-4079-a940-8f7fe92fc0fa","ios":"levelo://app?vid=a8095eba-0e77-4079-a940-8f7fe92fc0fa"},"vehicle_type_id":"4","last_reported":1725819099,"current_range_meters":24400,"station_id":"ce4bhs12rcd13ifvqhvg","pricing_plan_id":"cebpf4jnsgd1na2vs0mg"},{"bike_id":"15366ac0-6c82-4df6-bf9c-aefdeeffe81e","system_id":"levelo_inurba_marseille","lat":43.324771,"lon":5.36557,"is_reserved":false,"is_disabled":false,"rental_uris":{"android":"levelo://app?vid=15366ac0-6c82-4df6-bf9c-aefdeeffe81e","ios":"levelo://app?vid=15366ac0-6c82-4df6-bf9c-aefdeeffe81e"},"vehicle_type_id":"4","last_reported":1725819099,"current_range_meters":14800,"station_id":"ce4bhs12rcd13ifvqhvg","pricing_plan_id":"cebpf4jnsgd1na2vs0mg"},{"bike_id":"8111d373-d8ce-46c3-8612-d016e1f13fb5","system_id":"levelo_inurba_marseille","lat":43.324771,"lon":5.36557,"is_reserved":false,"is_disabled":false,"rental_uris":{"android":"levelo://app?vid=8111d373-d8ce-46c3-8612-d016e1f13fb5","ios":"levelo://app?vid=8111d373-d8ce-46c3-8612-d016e1f13fb5"},"vehicle_type_id":"4","last_reported":1725819099,"current_range_meters":29600,"station_id":"ce4bhs12rcd13ifvqhvg","pricing_plan_id":"cebpf4jnsgd1na2vs0mg"},{"bike_id":"45aa0bd6-6719-4d4c-8686-0782d022856f","system_id":"levelo_inurba_marseille","lat":43.310804,"lon":5.38359,"is_reserved":false,"is_disabled":false,"rental_uris":{"android":"levelo://app?vid=45aa0bd6-6719-4d4c-8686-0782d022856f","ios":"levelo://app?vid=45aa0bd6-6719-4d4c-8686-0782d022856f"},"vehicle_type_id":"4","last_reported":1725819099,"current_range_meters":12400,"station_id":"ce4bgv92rcd13ifvqcr0","pricing_plan_id":"cebpf4jnsgd1na2vs0mg"},{"bike_id":"5ee4d5d0-8daa-4a55-9bce-9f03383dc458","system_id":"levelo_inurba_marseille","lat":43.302784,"lon":5.377158,"is_reserved":false,"is_disabled":false,"rental_uris":{"android":"levelo://app?vid=5ee4d5d0-8daa-4a55-9bce-9f03383dc458","ios":"levelo://app?vid=5ee4d5d0-8daa-4a55-9bce-9f03383dc458"},"vehicle_type_id":"4","last_reported":1725819099,"current_range_meters":0,"station_id":"ce4bguh2rcd13ifvqcj0","pricing_plan_id":"cebpf4jnsgd1na2vs0mg"},{"bike_id":"a5b1d469-2eef-4843-89fc-ded6490a8f1a","system_id":"levelo_inurba_marseille","lat":43.301429,"lon":5.37413,"is_reserved":false,"is_disabled":false,"rental_uris":{"android":"levelo://app?vid=a5b1d469-2eef-4843-89fc-ded6490a8f1a","ios":"levelo://app?vid=a5b1d469-2eef-4843-89fc-ded6490a8f1a"},"vehicle_type_id":"4","last_reported":1725819099,"current_range_meters":4000,"station_id":"ce4bgs92rcd13ifvqcc0","pricing_plan_id":"cebpf4jnsgd1na2vs0mg"},{"bike_id":"1e8e559e-d166-4b6f-918a-a553666ede07","system_id":"levelo_inurba_marseille","lat":43.301429,"lon":5.37413,"is_reserved":false,"is_disabled":false,"rental_uris":{"android":"levelo://app?vid=1e8e559e-d166-4b6f-918a-a553666ede07","ios":"levelo://app?vid=1e8e559e-d166-4b6f-918a-a553666ede07"},"vehicle_type_id":"4","last_reported":1725819099,"current_range_meters":13600,"station_id":"ce4bgs92rcd13ifvqcc0","pricing_plan_id":"cebpf4jnsgd1na2vs0mg"},{"bike_id":"67d4d8cb-6d39-4214-8161-d25f595a39a0","system_id":"levelo_inurba_marseille","lat":43.31997,"lon":5.38148,"is_reserved":false,"is_disabled":false,"rental_uris":{"android":"levelo://app?vid=67d4d8cb-6d39-4214-8161-d25f595a39a0","ios":"levelo://app?vid=67d4d8cb-6d39-4214-8161-d25f595a39a0"},"vehicle_type_id":"4","last_reported":1725819099,"current_range_meters":3200,"station_id":"ce4bhr12rcd13ifvqhpg","pricing_plan_id":"cebpf4jnsgd1na2vs0mg"},{"bike_id":"46639478-df40-4cc3-88ba-ba5c6ad87ceb","system_id":"levelo_inurba_marseille","lat":43.319935,"lon":5.381699,"is_reserved":false,"is_disabled":false,"rental_uris":{"android":"levelo://app?vid=46639478-df40-4cc3-88ba-ba5c6ad87ceb","ios":"levelo://app?vid=46639478-df40-4cc3-88ba-ba5c6ad87ceb"},"vehicle_type_id":"4","last_reported":1725819099,"current_range_meters":19200,"station_id":"ce4bhr12rcd13ifvqhpg","pricing_plan_id":"cebpf4jnsgd1na2vs0mg"},{"bike_id":"d60cdb4d-c076-41d1-8789-e2bc8f17ed68","system_id":"levelo_inurba_marseille","lat":43.319935,"lon":5.381699,"is_reserved":false,"is_disabled":false,"rental_uris":{"android":"levelo://app?vid=d60cdb4d-c076-41d1-8789-e2bc8f17ed68","ios":"levelo://app?vid=d60cdb4d-c076-41d1-8789-e2bc8f17ed68"},"vehicle_type_id":"4","last_reported":1725819099,"current_range_meters":23600,"station_id":"ce4bhr12rcd13ifvqhpg","pricing_plan_id":"cebpf4jnsgd1na2vs0mg"},{"bike_id":"52d890f4-b096-4ffd-b107-6bfbca00875b","system_id":"levelo_inurba_marseille","lat":43.319935,"lon":5.381699,"is_reserved":false,"is_disabled":false,"rental_uris":{"android":"levelo://app?vid=52d890f4-b096-4ffd-b107-6bfbca00875b","ios":"levelo://app?vid=52d890f4-b096-4ffd-b107-6bfbca00875b"},"vehicle_type_id":"4","last_reported":1725819099,"current_range_meters":15200,"station_id":"ce4bhr12rcd13ifvqhpg","pricing_plan_id":"cebpf4jnsgd1na2vs0mg"},{"bike_id":"3f1bbebc-8430-4966-af98-f90014826e19","system_id":"levelo_inurba_marseille","lat":43.319935,"lon":5.381699,"is_reserved":false,"is_disabled":false,"rental_uris":{"android":"levelo://app?vid=3f1bbebc-8430-4966-af98-f90014826e19","ios":"levelo://app?vid=3f1bbebc-8430-4966-af98-f90014826e19"},"vehicle_type_id":"4","last_reported":1725819099,"current_range_meters":20400,"station_id":"ce4bhr12rcd13ifvqhpg","pricing_plan_id":"cebpf4jnsgd1na2vs0mg"},{"bike_id":"01a9b8e2-6a4c-4c48-b027-338541b2f87e","system_id":"levelo_inurba_marseille","lat":43.319935,"lon":5.381699,"is_reserved":false,"is_disabled":false,"rental_uris":{"android":"levelo://app?vid=01a9b8e2-6a4c-4c48-b027-338541b2f87e","ios":"levelo://app?vid=01a9b8e2-6a4c-4c48-b027-338541b2f87e"},"vehicle_type_id":"4","last_reported":1725819099,"current_range_meters":6000,"station_id":"ce4bhr12rcd13ifvqhpg","pricing_plan_id":"cebpf4jnsgd1na2vs0mg"},{"bike_id":"2e20a388-f2f0-4908-a386-c9374a91ca89","system_id":"levelo_inurba_marseille","lat":43.299846,"lon":5.371733,"is_reserved":false,"is_disabled":false,"rental_uris":{"android":"levelo://app?vid=2e20a388-f2f0-4908-a386-c9374a91ca89","ios":"levelo://app?vid=2e20a388-f2f0-4908-a386-c9374a91ca89"},"vehicle_type_id":"4","last_reported":1725819099,"current_range_meters":27600,"station_id":"ce4bgr92rcd13ifvqc7g","pricing_plan_id":"cebpf4jnsgd1na2vs0mg"},{"bike_id":"23c4f09e-ec68-47df-8493-fa8a73a0572e","system_id":"levelo_inurba_marseille","lat":43.299222,"lon":5.365554,"is_reserved":false,"is_disabled":false,"rental_uris":{"android":"levelo://app?vid=23c4f09e-ec68-47df-8493-fa8a73a0572e","ios":"levelo://app?vid=23c4f09e-ec68-47df-8493-fa8a73a0572e"},"vehicle_type_id":"4","last_reported":1725819099,"current_range_meters":4400,"station_id":"ce4bgm92rcd13ifvqbr0","pricing_plan_id":"cebpf4jnsgd1na2vs0mg"},{"bike_id":"55e269c0-0dd3-406f-aebc-04f1d17bc33a","system_id":"levelo_inurba_marseille","lat":43.304606,"lon":5.379026,"is_reserved":false,"is_disabled":false,"rental_uris":{"android":"levelo://app?vid=55e269c0-0dd3-406f-aebc-04f1d17bc33a","ios":"levelo://app?vid=55e269c0-0dd3-406f-aebc-04f1d17bc33a"},"vehicle_type_id":"4","last_reported":1725819099,"current_range_meters":18000,"station_id":"ce4bgup2rcd13ifvqcn0","pricing_plan_id":"cebpf4jnsgd1na2vs0mg"},{"bike_id":"3e874d43-0e1d-41a3-8922-0fa130905707","system_id":"levelo_inurba_marseille","lat":43.299222,"lon":5.365554,"is_reserved":false,"is_disabled":false,"rental_uris":{"android":"levelo://app?vid=3e874d43-0e1d-41a3-8922-0fa130905707","ios":"levelo://app?vid=3e874d43-0e1d-41a3-8922-0fa130905707"},"vehicle_type_id":"4","last_reported":1725819099,"current_range_meters":13600,"station_id":"ce4bgm92rcd13ifvqbr0","pricing_plan_id":"cebpf4jnsgd1na2vs0mg"},{"bike_id":"0d50cdad-ad71-4c20-8771-1b0e21f74de3","system_id":"levelo_inurba_marseille","lat":43.299222,"lon":5.365554,"is_reserved":false,"is_disabled":false,"rental_uris":{"android":"levelo://app?vid=0d50cdad-ad71-4c20-8771-1b0e21f74de3","ios":"levelo://app?vid=0d50cdad-ad71-4c20-8771-1b0e21f74de3"},"vehicle_type_id":"4","last_reported":1725819099,"current_range_meters":9600,"station_id":"ce4bgm92rcd13ifvqbr0","pricing_plan_id":"cebpf4jnsgd1na2vs0mg"},{"bike_id":"6b52b2fd-1549-4aef-82f7-6b8b9c2a9ebb","system_id":"levelo_inurba_marseille","lat":43.30573,"lon":5.38365,"is_reserved":false,"is_disabled":false,"rental_uris":{"android":"levelo://app?vid=6b52b2fd-1549-4aef-82f7-6b8b9c2a9ebb","ios":"levelo://app?vid=6b52b2fd-1549-4aef-82f7-6b8b9c2a9ebb"},"vehicle_type_id":"4","last_reported":1725819099,"current_range_meters":0,"station_id":"","pricing_plan_id":"cebpf4jnsgd1na2vs0mg"},{"bike_id":"9caca9c2-5860-47e5-9c81-f99cc7e7ceb7","system_id":"levelo_inurba_marseille","lat":43.298433,"lon":5.362774,"is_reserved":false,"is_disabled":false,"rental_uris":{"android":"levelo://app?vid=9caca9c2-5860-47e5-9c81-f99cc7e7ceb7","ios":"levelo://app?vid=9caca9c2-5860-47e5-9c81-f99cc7e7ceb7"},"vehicle_type_id":"4","last_reported":1725819099,"current_range_meters":15200,"station_id":"ce4bgpp2rcd13ifvqc3g","pricing_plan_id":"cebpf4jnsgd1na2vs0mg"},{"bike_id":"584b055c-6821-478c-b589-f3d9c1878653","system_id":"levelo_inurba_marseille","lat":43.299243,"lon":5.37481,"is_reserved":false,"is_disabled":false,"rental_uris":{"android":"levelo://app?vid=584b055c-6821-478c-b589-f3d9c1878653","ios":"levelo://app?vid=584b055c-6821-478c-b589-f3d9c1878653"},"vehicle_type_id":"4","last_reported":1725819099,"current_range_meters":21200,"station_id":"ce4bgjh2rcd13ifvqbg0","pricing_plan_id":"cebpf4jnsgd1na2vs0mg"},{"bike_id":"62953769-bad5-49c0-81ed-44b4d9f5698f","system_id":"levelo_inurba_marseille","lat":43.297836,"lon":5.371116,"is_reserved":false,"is_disabled":false,"rental_uris":{"android":"levelo://app?vid=62953769-bad5-49c0-81ed-44b4d9f5698f","ios":"levelo://app?vid=62953769-bad5-49c0-81ed-44b4d9f5698f"},"vehicle_type_id":"4","last_reported":1725819099,"current_range_meters":24800,"station_id":"ce4bgop2rcd13ifvqc1g","pricing_plan_id":"cebpf4jnsgd1na2vs0mg"},{"bike_id":"c44588a4-f0c3-4e47-9551-12f24c76e247","system_id":"levelo_inurba_marseille","lat":43.32292,"lon":5.38267,"is_reserved":false,"is_disabled":false,"rental_uris":{"android":"levelo://app?vid=c44588a4-f0c3-4e47-9551-12f24c76e247","ios":"levelo://app?vid=c44588a4-f0c3-4e47-9551-12f24c76e247"},"vehicle_type_id":"4","last_reported":1725819099,"current_range_meters":29200,"station_id":"ce4bhr12rcd13ifvqhqg","pricing_plan_id":"cebpf4jnsgd1na2vs0mg"},{"bike_id":"61946a75-1e7c-4265-a3b6-5f15351838fb","system_id":"levelo_inurba_marseille","lat":43.322872,"lon":5.382756,"is_reserved":false,"is_disabled":false,"rental_uris":{"android":"levelo://app?vid=61946a75-1e7c-4265-a3b6-5f15351838fb","ios":"levelo://app?vid=61946a75-1e7c-4265-a3b6-5f15351838fb"},"vehicle_type_id":"4","last_reported":1725819099,"current_range_meters":12400,"station_id":"ce4bhr12rcd13ifvqhqg","pricing_plan_id":"cebpf4jnsgd1na2vs0mg"},{"bike_id":"e58de14d-48fa-49ff-9e42-30fa2b11e8dc","system_id":"levelo_inurba_marseille","lat":43.322872,"lon":5.382756,"is_reserved":false,"is_disabled":false,"rental_uris":{"android":"levelo://app?vid=e58de14d-48fa-49ff-9e42-30fa2b11e8dc","ios":"levelo://app?vid=e58de14d-48fa-49ff-9e42-30fa2b11e8dc"},"vehicle_type_id":"4","last_reported":1725819099,"current_range_meters":9200,"station_id":"ce4bhr12rcd13ifvqhqg","pricing_plan_id":"cebpf4jnsgd1na2vs0mg"},{"bike_id":"16892cc4-6726-47c2-91b2-329b3e1ee993","system_id":"levelo_inurba_marseille","lat":43.297794,"lon":5.370888,"is_reserved":false,"is_disabled":false,"rental_uris":{"android":"levelo://app?vid=16892cc4-6726-47c2-91b2-329b3e1ee993","ios":"levelo://app?vid=16892cc4-6726-47c2-91b2-329b3e1ee993"},"vehicle_type_id":"4","last_reported":1725819099,"current_range_meters":18000,"station_id":"ce4bgop2rcd13ifvqc1g","pricing_plan_id":"cebpf4jnsgd1na2vs0mg"},{"bike_id":"9d4d4ad3-9fa4-4394-8995-8a5887e80cc8","system_id":"levelo_inurba_marseille","lat":43.32291,"lon":5.38271,"is_reserved":false,"is_disabled":false,"rental_uris":{"android":"levelo://app?vid=9d4d4ad3-9fa4-4394-8995-8a5887e80cc8","ios":"levelo://app?vid=9d4d4ad3-9fa4-4394-8995-8a5887e80cc8"},"vehicle_type_id":"4","last_reported":1725819099,"current_range_meters":5600,"station_id":"ce4bhr12rcd13ifvqhqg","pricing_plan_id":"cebpf4jnsgd1na2vs0mg"},{"bike_id":"2e865a37-4525-4154-bfa5-2e253b800524","system_id":"levelo_inurba_marseille","lat":43.322872,"lon":5.382756,"is_reserved":false,"is_disabled":false,"rental_uris":{"android":"levelo://app?vid=2e865a37-4525-4154-bfa5-2e253b800524","ios":"levelo://app?vid=2e865a37-4525-4154-bfa5-2e253b800524"},"vehicle_type_id":"4","last_reported":1725819099,"current_range_meters":30000,"station_id":"ce4bhr12rcd13ifvqhqg","pricing_plan_id":"cebpf4jnsgd1na2vs0mg"},{"bike_id":"1a5f8300-291b-493d-ad5b-ec07f0eaf598","system_id":"levelo_inurba_marseille","lat":43.322872,"lon":5.382756,"is_reserved":false,"is_disabled":false,"rental_uris":{"android":"levelo://app?vid=1a5f8300-291b-493d-ad5b-ec07f0eaf598","ios":"levelo://app?vid=1a5f8300-291b-493d-ad5b-ec07f0eaf598"},"vehicle_type_id":"4","last_reported":1725819099,"current_range_meters":28400,"station_id":"ce4bhr12rcd13ifvqhqg","pricing_plan_id":"cebpf4jnsgd1na2vs0mg"},{"bike_id":"5024b2ee-d049-4b99-952d-af84f6400c3c","system_id":"levelo_inurba_marseille","lat":43.293009,"lon":5.374584,"is_reserved":false,"is_disabled":false,"rental_uris":{"android":"levelo://app?vid=5024b2ee-d049-4b99-952d-af84f6400c3c","ios":"levelo://app?vid=5024b2ee-d049-4b99-952d-af84f6400c3c"},"vehicle_type_id":"4","last_reported":1725819099,"current_range_meters":17600,"station_id":"ce4bgi12rcd13ifvqb70","pricing_plan_id":"cebpf4jnsgd1na2vs0mg"},{"bike_id":"105bc4e8-c71e-4b5d-b34c-269838fe1e0e","system_id":"levelo_inurba_marseille","lat":43.31586,"lon":5.3887,"is_reserved":false,"is_disabled":false,"rental_uris":{"android":"levelo://app?vid=105bc4e8-c71e-4b5d-b34c-269838fe1e0e","ios":"levelo://app?vid=105bc4e8-c71e-4b5d-b34c-269838fe1e0e"},"vehicle_type_id":"4","last_reported":1725819099,"current_range_meters":9600,"station_id":"","pricing_plan_id":"cebpf4jnsgd1na2vs0mg"},{"bike_id":"8a8887de-5c7d-4b1c-91b2-78e9c920b48d","system_id":"levelo_inurba_marseille","lat":43.2968,"lon":5.37291,"is_reserved":false,"is_disabled":false,"rental_uris":{"android":"levelo://app?vid=8a8887de-5c7d-4b1c-91b2-78e9c920b48d","ios":"levelo://app?vid=8a8887de-5c7d-4b1c-91b2-78e9c920b48d"},"vehicle_type_id":"4","last_reported":1725819099,"current_range_meters":30000,"station_id":"ce4bgk12rcd13ifvqbj0","pricing_plan_id":"cebpf4jnsgd1na2vs0mg"},{"bike_id":"1af40115-97a4-4ef3-9520-052ed3a09308","system_id":"levelo_inurba_marseille","lat":43.29573,"lon":5.367355,"is_reserved":false,"is_disabled":false,"rental_uris":{"android":"levelo://app?vid=1af40115-97a4-4ef3-9520-052ed3a09308","ios":"levelo://app?vid=1af40115-97a4-4ef3-9520-052ed3a09308"},"vehicle_type_id":"4","last_reported":1725819099,"current_range_meters":28400,"station_id":"ce4bgph2rcd13ifvqc2g","pricing_plan_id":"cebpf4jnsgd1na2vs0mg"},{"bike_id":"10ea86f1-7d9f-4881-a643-ef062d02996d","system_id":"levelo_inurba_marseille","lat":43.29727,"lon":5.37686,"is_reserved":false,"is_disabled":false,"rental_uris":{"android":"levelo://app?vid=10ea86f1-7d9f-4881-a643-ef062d02996d","ios":"levelo://app?vid=10ea86f1-7d9f-4881-a643-ef062d02996d"},"vehicle_type_id":"4","last_reported":1725819099,"current_range_meters":14800,"station_id":"ce4bgkh2rcd13ifvqbl0","pricing_plan_id":"cebpf4jnsgd1na2vs0mg"},{"bike_id":"47b3cea2-505f-4524-9e64-5df5d8fb8ae6","system_id":"levelo_inurba_marseille","lat":43.299028,"lon":5.381509,"is_reserved":false,"is_disabled":false,"rental_uris":{"android":"levelo://app?vid=47b3cea2-505f-4524-9e64-5df5d8fb8ae6","ios":"levelo://app?vid=47b3cea2-505f-4524-9e64-5df5d8fb8ae6"},"vehicle_type_id":"4","last_reported":1725819099,"current_range_meters":5200,"station_id":"ce4bgj12rcd13ifvqbc0","pricing_plan_id":"cebpf4jnsgd1na2vs0mg"},{"bike_id":"a4d6e40b-7469-4b51-afd6-3214f743e0c2","system_id":"levelo_inurba_marseille","lat":43.299028,"lon":5.381509,"is_reserved":false,"is_disabled":false,"rental_uris":{"android":"levelo://app?vid=a4d6e40b-7469-4b51-afd6-3214f743e0c2","ios":"levelo://app?vid=a4d6e40b-7469-4b51-afd6-3214f743e0c2"},"vehicle_type_id":"4","last_reported":1725819099,"current_range_meters":8000,"station_id":"ce4bgj12rcd13ifvqbc0","pricing_plan_id":"cebpf4jnsgd1na2vs0mg"},{"bike_id":"ce951157-5d0f-4bf9-a5f6-30a2b320049f","system_id":"levelo_inurba_marseille","lat":43.299028,"lon":5.381509,"is_reserved":false,"is_disabled":false,"rental_uris":{"android":"levelo://app?vid=ce951157-5d0f-4bf9-a5f6-30a2b320049f","ios":"levelo://app?vid=ce951157-5d0f-4bf9-a5f6-30a2b320049f"},"vehicle_type_id":"4","last_reported":1725819099,"current_range_meters":15200,"station_id":"ce4bgj12rcd13ifvqbc0","pricing_plan_id":"cebpf4jnsgd1na2vs0mg"},{"bike_id":"ad5bbb93-9a48-4a45-8438-75451fc8163d","system_id":"levelo_inurba_marseille","lat":43.299028,"lon":5.381509,"is_reserved":false,"is_disabled":false,"rental_uris":{"android":"levelo://app?vid=ad5bbb93-9a48-4a45-8438-75451fc8163d","ios":"levelo://app?vid=ad5bbb93-9a48-4a45-8438-75451fc8163d"},"vehicle_type_id":"4","last_reported":1725819099,"current_range_meters":800,"station_id":"ce4bgj12rcd13ifvqbc0","pricing_plan_id":"cebpf4jnsgd1na2vs0mg"},{"bike_id":"96cff5fe-0d3d-4d01-9534-5197d2cb69e4","system_id":"levelo_inurba_marseille","lat":43.29908,"lon":5.38139,"is_reserved":false,"is_disabled":false,"rental_uris":{"android":"levelo://app?vid=96cff5fe-0d3d-4d01-9534-5197d2cb69e4","ios":"levelo://app?vid=96cff5fe-0d3d-4d01-9534-5197d2cb69e4"},"vehicle_type_id":"4","last_reported":1725819099,"current_range_meters":1600,"station_id":"ce4bgj12rcd13ifvqbc0","pricing_plan_id":"cebpf4jnsgd1na2vs0mg"},{"bike_id":"55bd3d99-14bd-4b7d-b56d-d0896e53f7cc","system_id":"levelo_inurba_marseille","lat":43.299028,"lon":5.381509,"is_reserved":false,"is_disabled":false,"rental_uris":{"android":"levelo://app?vid=55bd3d99-14bd-4b7d-b56d-d0896e53f7cc","ios":"levelo://app?vid=55bd3d99-14bd-4b7d-b56d-d0896e53f7cc"},"vehicle_type_id":"4","last_reported":1725819099,"current_range_meters":6400,"station_id":"ce4bgj12rcd13ifvqbc0","pricing_plan_id":"cebpf4jnsgd1na2vs0mg"},{"bike_id":"f1f1a536-d646-4add-b4b5-d5b2b4abd5f4","system_id":"levelo_inurba_marseille","lat":43.299028,"lon":5.381509,"is_reserved":false,"is_disabled":false,"rental_uris":{"android":"levelo://app?vid=f1f1a536-d646-4add-b4b5-d5b2b4abd5f4","ios":"levelo://app?vid=f1f1a536-d646-4add-b4b5-d5b2b4abd5f4"},"vehicle_type_id":"4","last_reported":1725819099,"current_range_meters":18800,"station_id":"ce4bgj12rcd13ifvqbc0","pricing_plan_id":"cebpf4jnsgd1na2vs0mg"},{"bike_id":"9e56ee99-3c14-4d19-8c65-cecf8b78a86f","system_id":"levelo_inurba_marseille","lat":43.309589,"lon":5.390258,"is_reserved":false,"is_disabled":false,"rental_uris":{"android":"levelo://app?vid=9e56ee99-3c14-4d19-8c65-cecf8b78a86f","ios":"levelo://app?vid=9e56ee99-3c14-4d19-8c65-cecf8b78a86f"},"vehicle_type_id":"4","last_reported":1725819099,"current_range_meters":22800,"station_id":"ce4bgup2rcd13ifvqco0","pricing_plan_id":"cebpf4jnsgd1na2vs0mg"},{"bike_id":"575cffd8-6def-4beb-b4af-c4c8eebc466a","system_id":"levelo_inurba_marseille","lat":43.317557,"lon":5.390173,"is_reserved":false,"is_disabled":false,"rental_uris":{"android":"levelo://app?vid=575cffd8-6def-4beb-b4af-c4c8eebc466a","ios":"levelo://app?vid=575cffd8-6def-4beb-b4af-c4c8eebc466a"},"vehicle_type_id":"4","last_reported":1725819099,"current_range_meters":12800,"station_id":"ce4bhqp2rcd13ifvqhng","pricing_plan_id":"cebpf4jnsgd1na2vs0mg"},{"bike_id":"edc32bf9-0ffe-40d7-bd37-3db43c2ae4ae","system_id":"levelo_inurba_marseille","lat":43.317557,"lon":5.390173,"is_reserved":false,"is_disabled":false,"rental_uris":{"android":"levelo://app?vid=edc32bf9-0ffe-40d7-bd37-3db43c2ae4ae","ios":"levelo://app?vid=edc32bf9-0ffe-40d7-bd37-3db43c2ae4ae"},"vehicle_type_id":"4","last_reported":1725819099,"current_range_meters":11200,"station_id":"ce4bhqp2rcd13ifvqhng","pricing_plan_id":"cebpf4jnsgd1na2vs0mg"},{"bike_id":"10f69fe8-7773-460f-8cbc-84d5043d302b","system_id":"levelo_inurba_marseille","lat":43.32253,"lon":5.387034,"is_reserved":false,"is_disabled":false,"rental_uris":{"android":"levelo://app?vid=10f69fe8-7773-460f-8cbc-84d5043d302b","ios":"levelo://app?vid=10f69fe8-7773-460f-8cbc-84d5043d302b"},"vehicle_type_id":"4","last_reported":1725819099,"current_range_meters":18400,"station_id":"","pricing_plan_id":"cebpf4jnsgd1na2vs0mg"},{"bike_id":"53e1d79c-619d-4f0a-9d1d-e473bfaece90","system_id":"levelo_inurba_marseille","lat":43.295803,"lon":5.37508,"is_reserved":false,"is_disabled":false,"rental_uris":{"android":"levelo://app?vid=53e1d79c-619d-4f0a-9d1d-e473bfaece90","ios":"levelo://app?vid=53e1d79c-619d-4f0a-9d1d-e473bfaece90"},"vehicle_type_id":"4","last_reported":1725819099,"current_range_meters":0,"station_id":"ce4bgh92rcd13ifvqb50","pricing_plan_id":"cebpf4jnsgd1na2vs0mg"},{"bike_id":"5938cbdf-ab16-4bad-83ee-8d8358dfbf9e","system_id":"levelo_inurba_marseille","lat":43.29578,"lon":5.37513,"is_reserved":false,"is_disabled":false,"rental_uris":{"android":"levelo://app?vid=5938cbdf-ab16-4bad-83ee-8d8358dfbf9e","ios":"levelo://app?vid=5938cbdf-ab16-4bad-83ee-8d8358dfbf9e"},"vehicle_type_id":"4","last_reported":1725819099,"current_range_meters":27200,"station_id":"ce4bgh92rcd13ifvqb50","pricing_plan_id":"cebpf4jnsgd1na2vs0mg"},{"bike_id":"7d76aece-afe3-4351-8df3-79b575e5c0c0","system_id":"levelo_inurba_marseille","lat":43.298037,"lon":5.381066,"is_reserved":false,"is_disabled":false,"rental_uris":{"android":"levelo://app?vid=7d76aece-afe3-4351-8df3-79b575e5c0c0","ios":"levelo://app?vid=7d76aece-afe3-4351-8df3-79b575e5c0c0"},"vehicle_type_id":"4","last_reported":1725819099,"current_range_meters":24000,"station_id":"ce4bgip2rcd13ifvqbb0","pricing_plan_id":"cebpf4jnsgd1na2vs0mg"},{"bike_id":"4f7a6330-86b5-47f2-8884-67f123276216","system_id":"levelo_inurba_marseille","lat":43.295748,"lon":5.37522,"is_reserved":false,"is_disabled":false,"rental_uris":{"android":"levelo://app?vid=4f7a6330-86b5-47f2-8884-67f123276216","ios":"levelo://app?vid=4f7a6330-86b5-47f2-8884-67f123276216"},"vehicle_type_id":"4","last_reported":1725819099,"current_range_meters":13600,"station_id":"ce4bgh92rcd13ifvqb50","pricing_plan_id":"cebpf4jnsgd1na2vs0mg"},{"bike_id":"2770d943-3f7c-486b-b284-41c3c40b09f6","system_id":"levelo_inurba_marseille","lat":43.298037,"lon":5.381066,"is_reserved":false,"is_disabled":false,"rental_uris":{"android":"levelo://app?vid=2770d943-3f7c-486b-b284-41c3c40b09f6","ios":"levelo://app?vid=2770d943-3f7c-486b-b284-41c3c40b09f6"},"vehicle_type_id":"4","last_reported":1725819099,"current_range_meters":0,"station_id":"ce4bgip2rcd13ifvqbb0","pricing_plan_id":"cebpf4jnsgd1na2vs0mg"},{"bike_id":"59bd55e6-da32-4df6-b846-185635e97ce9","system_id":"levelo_inurba_marseille","lat":43.29571,"lon":5.37527,"is_reserved":false,"is_disabled":false,"rental_uris":{"android":"levelo://app?vid=59bd55e6-da32-4df6-b846-185635e97ce9","ios":"levelo://app?vid=59bd55e6-da32-4df6-b846-185635e97ce9"},"vehicle_type_id":"4","last_reported":1725819099,"current_range_meters":8400,"station_id":"ce4bgh92rcd13ifvqb50","pricing_plan_id":"cebpf4jnsgd1na2vs0mg"},{"bike_id":"56d537a6-69ae-4bc6-a11c-40930b7e7668","system_id":"levelo_inurba_marseille","lat":43.298037,"lon":5.381066,"is_reserved":false,"is_disabled":false,"rental_uris":{"android":"levelo://app?vid=56d537a6-69ae-4bc6-a11c-40930b7e7668","ios":"levelo://app?vid=56d537a6-69ae-4bc6-a11c-40930b7e7668"},"vehicle_type_id":"4","last_reported":1725819099,"current_range_meters":8000,"station_id":"ce4bgip2rcd13ifvqbb0","pricing_plan_id":"cebpf4jnsgd1na2vs0mg"},{"bike_id":"b9de400e-3777-4b34-846b-5fffffdcf2b2","system_id":"levelo_inurba_marseille","lat":43.298037,"lon":5.381066,"is_reserved":false,"is_disabled":false,"rental_uris":{"android":"levelo://app?vid=b9de400e-3777-4b34-846b-5fffffdcf2b2","ios":"levelo://app?vid=b9de400e-3777-4b34-846b-5fffffdcf2b2"},"vehicle_type_id":"4","last_reported":1725819099,"current_range_meters":11200,"station_id":"ce4bgip2rcd13ifvqbb0","pricing_plan_id":"cebpf4jnsgd1na2vs0mg"},{"bike_id":"e2faefe5-f814-4f0c-97fc-c637f8f8a336","system_id":"levelo_inurba_marseille","lat":43.295748,"lon":5.37522,"is_reserved":false,"is_disabled":false,"rental_uris":{"android":"levelo://app?vid=e2faefe5-f814-4f0c-97fc-c637f8f8a336","ios":"levelo://app?vid=e2faefe5-f814-4f0c-97fc-c637f8f8a336"},"vehicle_type_id":"4","last_reported":1725819099,"current_range_meters":0,"station_id":"ce4bgh92rcd13ifvqb50","pricing_plan_id":"cebpf4jnsgd1na2vs0mg"},{"bike_id":"64032bbf-aaee-4dcf-b5b8-05675eb92566","system_id":"levelo_inurba_marseille","lat":43.298037,"lon":5.381066,"is_reserved":false,"is_disabled":false,"rental_uris":{"android":"levelo://app?vid=64032bbf-aaee-4dcf-b5b8-05675eb92566","ios":"levelo://app?vid=64032bbf-aaee-4dcf-b5b8-05675eb92566"},"vehicle_type_id":"4","last_reported":1725819099,"current_range_meters":13200,"station_id":"ce4bgip2rcd13ifvqbb0","pricing_plan_id":"cebpf4jnsgd1na2vs0mg"},{"bike_id":"916434d9-8ca2-4907-9ea4-a87455d24829","system_id":"levelo_inurba_marseille","lat":43.296277,"lon":5.377108,"is_reserved":false,"is_disabled":false,"rental_uris":{"android":"levelo://app?vid=916434d9-8ca2-4907-9ea4-a87455d24829","ios":"levelo://app?vid=916434d9-8ca2-4907-9ea4-a87455d24829"},"vehicle_type_id":"4","last_reported":1725819099,"current_range_meters":2800,"station_id":"ce4bgi92rcd13ifvqb90","pricing_plan_id":"cebpf4jnsgd1na2vs0mg"},{"bike_id":"d0c16384-dc11-4173-b600-e5da07b0c45c","system_id":"levelo_inurba_marseille","lat":43.30423,"lon":5.38895,"is_reserved":false,"is_disabled":false,"rental_uris":{"android":"levelo://app?vid=d0c16384-dc11-4173-b600-e5da07b0c45c","ios":"levelo://app?vid=d0c16384-dc11-4173-b600-e5da07b0c45c"},"vehicle_type_id":"4","last_reported":1725819099,"current_range_meters":0,"station_id":"ce4bgk12rcd13ifvqbi0","pricing_plan_id":"cebpf4jnsgd1na2vs0mg"},{"bike_id":"d897d66a-3cf4-49d7-a8f1-ffa75d4e8a9a","system_id":"levelo_inurba_marseille","lat":43.304278,"lon":5.388868,"is_reserved":false,"is_disabled":false,"rental_uris":{"android":"levelo://app?vid=d897d66a-3cf4-49d7-a8f1-ffa75d4e8a9a","ios":"levelo://app?vid=d897d66a-3cf4-49d7-a8f1-ffa75d4e8a9a"},"vehicle_type_id":"4","last_reported":1725819099,"current_range_meters":0,"station_id":"ce4bgk12rcd13ifvqbi0","pricing_plan_id":"cebpf4jnsgd1na2vs0mg"},{"bike_id":"c0c679c8-3f6e-4b60-b158-44f4a9e89814","system_id":"levelo_inurba_marseille","lat":43.29972,"lon":5.38485,"is_reserved":false,"is_disabled":false,"rental_uris":{"android":"levelo://app?vid=c0c679c8-3f6e-4b60-b158-44f4a9e89814","ios":"levelo://app?vid=c0c679c8-3f6e-4b60-b158-44f4a9e89814"},"vehicle_type_id":"4","last_reported":1725819099,"current_range_meters":0,"station_id":"ce4bgj92rcd13ifvqbd0","pricing_plan_id":"cebpf4jnsgd1na2vs0mg"},{"bike_id":"60fea9cb-e161-45d2-8e3d-dbdcc05006f8","system_id":"levelo_inurba_marseille","lat":43.29966,"lon":5.38497,"is_reserved":false,"is_disabled":false,"rental_uris":{"android":"levelo://app?vid=60fea9cb-e161-45d2-8e3d-dbdcc05006f8","ios":"levelo://app?vid=60fea9cb-e161-45d2-8e3d-dbdcc05006f8"},"vehicle_type_id":"4","last_reported":1725819099,"current_range_meters":0,"station_id":"ce4bgj92rcd13ifvqbd0","pricing_plan_id":"cebpf4jnsgd1na2vs0mg"},{"bike_id":"4a6b2f71-b39e-4233-977d-da5ed126cd2f","system_id":"levelo_inurba_marseille","lat":43.29963,"lon":5.38496,"is_reserved":false,"is_disabled":false,"rental_uris":{"android":"levelo://app?vid=4a6b2f71-b39e-4233-977d-da5ed126cd2f","ios":"levelo://app?vid=4a6b2f71-b39e-4233-977d-da5ed126cd2f"},"vehicle_type_id":"4","last_reported":1725819099,"current_range_meters":0,"station_id":"ce4bgj92rcd13ifvqbd0","pricing_plan_id":"cebpf4jnsgd1na2vs0mg"},{"bike_id":"3ff37f95-2968-4593-adc3-ef70f3bc0055","system_id":"levelo_inurba_marseille","lat":43.32367,"lon":5.388836,"is_reserved":false,"is_disabled":false,"rental_uris":{"android":"levelo://app?vid=3ff37f95-2968-4593-adc3-ef70f3bc0055","ios":"levelo://app?vid=3ff37f95-2968-4593-adc3-ef70f3bc0055"},"vehicle_type_id":"4","last_reported":1725819099,"current_range_meters":18800,"station_id":"ce4bhqp2rcd13ifvqhog","pricing_plan_id":"cebpf4jnsgd1na2vs0mg"},{"bike_id":"363461c4-4456-4d16-a293-c8c026a6529b","system_id":"levelo_inurba_marseille","lat":43.29602,"lon":5.381084,"is_reserved":false,"is_disabled":false,"rental_uris":{"android":"levelo://app?vid=363461c4-4456-4d16-a293-c8c026a6529b","ios":"levelo://app?vid=363461c4-4456-4d16-a293-c8c026a6529b"},"vehicle_type_id":"4","last_reported":1725819099,"current_range_meters":8400,"station_id":"ce4bgl12rcd13ifvqbo0","pricing_plan_id":"cebpf4jnsgd1na2vs0mg"},{"bike_id":"f7a05193-2849-48d9-bef3-9f7408eafb02","system_id":"levelo_inurba_marseille","lat":43.29415,"lon":5.37494,"is_reserved":false,"is_disabled":false,"rental_uris":{"android":"levelo://app?vid=f7a05193-2849-48d9-bef3-9f7408eafb02","ios":"levelo://app?vid=f7a05193-2849-48d9-bef3-9f7408eafb02"},"vehicle_type_id":"4","last_reported":1725819099,"current_range_meters":0,"station_id":"","pricing_plan_id":"cebpf4jnsgd1na2vs0mg"},{"bike_id":"1389f4a0-fe8c-45a8-89e1-761602337135","system_id":"levelo_inurba_marseille","lat":43.32367,"lon":5.38925,"is_reserved":false,"is_disabled":false,"rental_uris":{"android":"levelo://app?vid=1389f4a0-fe8c-45a8-89e1-761602337135","ios":"levelo://app?vid=1389f4a0-fe8c-45a8-89e1-761602337135"},"vehicle_type_id":"4","last_reported":1725819099,"current_range_meters":15600,"station_id":"ce4bhqp2rcd13ifvqhog","pricing_plan_id":"cebpf4jnsgd1na2vs0mg"},{"bike_id":"74c59e3d-56c9-4373-9efe-a345696f9a5c","system_id":"levelo_inurba_marseille","lat":43.3237,"lon":5.38926,"is_reserved":false,"is_disabled":false,"rental_uris":{"android":"levelo://app?vid=74c59e3d-56c9-4373-9efe-a345696f9a5c","ios":"levelo://app?vid=74c59e3d-56c9-4373-9efe-a345696f9a5c"},"vehicle_type_id":"4","last_reported":1725819099,"current_range_meters":20800,"station_id":"","pricing_plan_id":"cebpf4jnsgd1na2vs0mg"},{"bike_id":"41704600-e9e6-4869-aefd-a4a12996605b","system_id":"levelo_inurba_marseille","lat":43.3237,"lon":5.38926,"is_reserved":false,"is_disabled":false,"rental_uris":{"android":"levelo://app?vid=41704600-e9e6-4869-aefd-a4a12996605b","ios":"levelo://app?vid=41704600-e9e6-4869-aefd-a4a12996605b"},"vehicle_type_id":"4","last_reported":1725819099,"current_range_meters":8400,"station_id":"ce4bhqp2rcd13ifvqhog","pricing_plan_id":"cebpf4jnsgd1na2vs0mg"},{"bike_id":"0742844b-f50a-426b-8a22-8012baa0a9e4","system_id":"levelo_inurba_marseille","lat":43.29602,"lon":5.381084,"is_reserved":false,"is_disabled":false,"rental_uris":{"android":"levelo://app?vid=0742844b-f50a-426b-8a22-8012baa0a9e4","ios":"levelo://app?vid=0742844b-f50a-426b-8a22-8012baa0a9e4"},"vehicle_type_id":"4","last_reported":1725819099,"current_range_meters":27600,"station_id":"ce4bgl12rcd13ifvqbo0","pricing_plan_id":"cebpf4jnsgd1na2vs0mg"},{"bike_id":"c0ac401a-fdbe-4de3-9839-baf3ce33b5ed","system_id":"levelo_inurba_marseille","lat":43.29602,"lon":5.381084,"is_reserved":false,"is_disabled":false,"rental_uris":{"android":"levelo://app?vid=c0ac401a-fdbe-4de3-9839-baf3ce33b5ed","ios":"levelo://app?vid=c0ac401a-fdbe-4de3-9839-baf3ce33b5ed"},"vehicle_type_id":"4","last_reported":1725819099,"current_range_meters":24800,"station_id":"ce4bgl12rcd13ifvqbo0","pricing_plan_id":"cebpf4jnsgd1na2vs0mg"},{"bike_id":"6f37c59d-cd45-4a97-aadb-ecec4a0a2f6a","system_id":"levelo_inurba_marseille","lat":43.29327,"lon":5.37076,"is_reserved":false,"is_disabled":false,"rental_uris":{"android":"levelo://app?vid=6f37c59d-cd45-4a97-aadb-ecec4a0a2f6a","ios":"levelo://app?vid=6f37c59d-cd45-4a97-aadb-ecec4a0a2f6a"},"vehicle_type_id":"4","last_reported":1725819099,"current_range_meters":23200,"station_id":"","pricing_plan_id":"cebpf4jnsgd1na2vs0mg"},{"bike_id":"6cc32629-641a-41c7-b983-8dea0ba98128","system_id":"levelo_inurba_marseille","lat":43.29602,"lon":5.381084,"is_reserved":false,"is_disabled":false,"rental_uris":{"android":"levelo://app?vid=6cc32629-641a-41c7-b983-8dea0ba98128","ios":"levelo://app?vid=6cc32629-641a-41c7-b983-8dea0ba98128"},"vehicle_type_id":"4","last_reported":1725819099,"current_range_meters":20400,"station_id":"ce4bgl12rcd13ifvqbo0","pricing_plan_id":"cebpf4jnsgd1na2vs0mg"},{"bike_id":"8d068184-247e-4138-ae4c-3b747b6d40c7","system_id":"levelo_inurba_marseille","lat":43.29602,"lon":5.381084,"is_reserved":false,"is_disabled":false,"rental_uris":{"android":"levelo://app?vid=8d068184-247e-4138-ae4c-3b747b6d40c7","ios":"levelo://app?vid=8d068184-247e-4138-ae4c-3b747b6d40c7"},"vehicle_type_id":"4","last_reported":1725819099,"current_range_meters":10800,"station_id":"ce4bgl12rcd13ifvqbo0","pricing_plan_id":"cebpf4jnsgd1na2vs0mg"},{"bike_id":"3a386cdf-5df1-481f-b0c1-1e1b1303a00f","system_id":"levelo_inurba_marseille","lat":43.29602,"lon":5.381084,"is_reserved":false,"is_disabled":false,"rental_uris":{"android":"levelo://app?vid=3a386cdf-5df1-481f-b0c1-1e1b1303a00f","ios":"levelo://app?vid=3a386cdf-5df1-481f-b0c1-1e1b1303a00f"},"vehicle_type_id":"4","last_reported":1725819099,"current_range_meters":4800,"station_id":"ce4bgl12rcd13ifvqbo0","pricing_plan_id":"cebpf4jnsgd1na2vs0mg"},{"bike_id":"534055d0-449f-4610-9fc3-f7f7080e54d1","system_id":"levelo_inurba_marseille","lat":43.29346,"lon":5.37379,"is_reserved":false,"is_disabled":false,"rental_uris":{"android":"levelo://app?vid=534055d0-449f-4610-9fc3-f7f7080e54d1","ios":"levelo://app?vid=534055d0-449f-4610-9fc3-f7f7080e54d1"},"vehicle_type_id":"4","last_reported":1725819099,"current_range_meters":20800,"station_id":"","pricing_plan_id":"cebpf4jnsgd1na2vs0mg"},{"bike_id":"03a757bc-d616-43a6-b82a-c86fd8a5cd50","system_id":"levelo_inurba_marseille","lat":43.29284,"lon":5.36856,"is_reserved":false,"is_disabled":false,"rental_uris":{"android":"levelo://app?vid=03a757bc-d616-43a6-b82a-c86fd8a5cd50","ios":"levelo://app?vid=03a757bc-d616-43a6-b82a-c86fd8a5cd50"},"vehicle_type_id":"4","last_reported":1725819099,"current_range_meters":18400,"station_id":"ce4bhbp2rcd13ifvqesg","pricing_plan_id":"cebpf4jnsgd1na2vs0mg"},{"bike_id":"706b6b6e-1cb0-4781-be00-b6be89134ef3","system_id":"levelo_inurba_marseille","lat":43.292749,"lon":5.368402,"is_reserved":false,"is_disabled":false,"rental_uris":{"android":"levelo://app?vid=706b6b6e-1cb0-4781-be00-b6be89134ef3","ios":"levelo://app?vid=706b6b6e-1cb0-4781-be00-b6be89134ef3"},"vehicle_type_id":"4","last_reported":1725819099,"current_range_meters":15600,"station_id":"ce4bhbp2rcd13ifvqesg","pricing_plan_id":"cebpf4jnsgd1na2vs0mg"},{"bike_id":"33a18126-65e8-4928-ae76-7111d2c451bd","system_id":"levelo_inurba_marseille","lat":43.29279,"lon":5.36842,"is_reserved":false,"is_disabled":false,"rental_uris":{"android":"levelo://app?vid=33a18126-65e8-4928-ae76-7111d2c451bd","ios":"levelo://app?vid=33a18126-65e8-4928-ae76-7111d2c451bd"},"vehicle_type_id":"4","last_reported":1725819099,"current_range_meters":0,"station_id":"ce4bhbp2rcd13ifvqesg","pricing_plan_id":"cebpf4jnsgd1na2vs0mg"},{"bike_id":"b2dfc725-396c-4925-8348-a5bef7d49b1b","system_id":"levelo_inurba_marseille","lat":43.293259,"lon":5.371586,"is_reserved":false,"is_disabled":false,"rental_uris":{"android":"levelo://app?vid=b2dfc725-396c-4925-8348-a5bef7d49b1b","ios":"levelo://app?vid=b2dfc725-396c-4925-8348-a5bef7d49b1b"},"vehicle_type_id":"4","last_reported":1725819099,"current_range_meters":18000,"station_id":"ce4bgh92rcd13ifvqb40","pricing_plan_id":"cebpf4jnsgd1na2vs0mg"},{"bike_id":"2fc1e6e5-3bb6-46f2-95ff-7c000198166c","system_id":"levelo_inurba_marseille","lat":43.29335,"lon":5.3737,"is_reserved":false,"is_disabled":false,"rental_uris":{"android":"levelo://app?vid=2fc1e6e5-3bb6-46f2-95ff-7c000198166c","ios":"levelo://app?vid=2fc1e6e5-3bb6-46f2-95ff-7c000198166c"},"vehicle_type_id":"4","last_reported":1725819099,"current_range_meters":5200,"station_id":"","pricing_plan_id":"cebpf4jnsgd1na2vs0mg"},{"bike_id":"b6d8d35d-02a6-4325-9e1b-e226c9c1a42a","system_id":"levelo_inurba_marseille","lat":43.29303,"lon":5.37179,"is_reserved":false,"is_disabled":false,"rental_uris":{"android":"levelo://app?vid=b6d8d35d-02a6-4325-9e1b-e226c9c1a42a","ios":"levelo://app?vid=b6d8d35d-02a6-4325-9e1b-e226c9c1a42a"},"vehicle_type_id":"4","last_reported":1725819099,"current_range_meters":31200,"station_id":"ce4bgh92rcd13ifvqb40","pricing_plan_id":"cebpf4jnsgd1na2vs0mg"},{"bike_id":"497ee81f-8e88-4da1-aaa8-f8b20cfd6935","system_id":"levelo_inurba_marseille","lat":43.293259,"lon":5.371586,"is_reserved":false,"is_disabled":false,"rental_uris":{"android":"levelo://app?vid=497ee81f-8e88-4da1-aaa8-f8b20cfd6935","ios":"levelo://app?vid=497ee81f-8e88-4da1-aaa8-f8b20cfd6935"},"vehicle_type_id":"4","last_reported":1725819099,"current_range_meters":12000,"station_id":"ce4bgh92rcd13ifvqb40","pricing_plan_id":"cebpf4jnsgd1na2vs0mg"},{"bike_id":"3163eb09-3a0f-47bf-aa41-bba77f6e6a26","system_id":"levelo_inurba_marseille","lat":43.29273,"lon":5.368395,"is_reserved":false,"is_disabled":false,"rental_uris":{"android":"levelo://app?vid=3163eb09-3a0f-47bf-aa41-bba77f6e6a26","ios":"levelo://app?vid=3163eb09-3a0f-47bf-aa41-bba77f6e6a26"},"vehicle_type_id":"4","last_reported":1725819099,"current_range_meters":0,"station_id":"ce4bhbp2rcd13ifvqesg","pricing_plan_id":"cebpf4jnsgd1na2vs0mg"},{"bike_id":"edc6595a-936a-40fd-a40b-9cf2dbf09851","system_id":"levelo_inurba_marseille","lat":43.293053,"lon":5.37452,"is_reserved":false,"is_disabled":false,"rental_uris":{"android":"levelo://app?vid=edc6595a-936a-40fd-a40b-9cf2dbf09851","ios":"levelo://app?vid=edc6595a-936a-40fd-a40b-9cf2dbf09851"},"vehicle_type_id":"4","last_reported":1725819099,"current_range_meters":31200,"station_id":"ce4bgi12rcd13ifvqb70","pricing_plan_id":"cebpf4jnsgd1na2vs0mg"},{"bike_id":"51203cd5-3ee5-4f1f-9d49-7c02f1900be3","system_id":"levelo_inurba_marseille","lat":43.293009,"lon":5.374584,"is_reserved":false,"is_disabled":false,"rental_uris":{"android":"levelo://app?vid=51203cd5-3ee5-4f1f-9d49-7c02f1900be3","ios":"levelo://app?vid=51203cd5-3ee5-4f1f-9d49-7c02f1900be3"},"vehicle_type_id":"4","last_reported":1725819099,"current_range_meters":9600,"station_id":"ce4bgi12rcd13ifvqb70","pricing_plan_id":"cebpf4jnsgd1na2vs0mg"},{"bike_id":"dc5df3fb-a82b-4443-9cba-a4eef6c0dad9","system_id":"levelo_inurba_marseille","lat":43.293009,"lon":5.374584,"is_reserved":false,"is_disabled":false,"rental_uris":{"android":"levelo://app?vid=dc5df3fb-a82b-4443-9cba-a4eef6c0dad9","ios":"levelo://app?vid=dc5df3fb-a82b-4443-9cba-a4eef6c0dad9"},"vehicle_type_id":"4","last_reported":1725819099,"current_range_meters":10000,"station_id":"ce4bgi12rcd13ifvqb70","pricing_plan_id":"cebpf4jnsgd1na2vs0mg"},{"bike_id":"6859ef6b-3bcc-4e79-bba8-eb43a943ed2a","system_id":"levelo_inurba_marseille","lat":43.293009,"lon":5.374584,"is_reserved":false,"is_disabled":false,"rental_uris":{"android":"levelo://app?vid=6859ef6b-3bcc-4e79-bba8-eb43a943ed2a","ios":"levelo://app?vid=6859ef6b-3bcc-4e79-bba8-eb43a943ed2a"},"vehicle_type_id":"4","last_reported":1725819099,"current_range_meters":8800,"station_id":"ce4bgi12rcd13ifvqb70","pricing_plan_id":"cebpf4jnsgd1na2vs0mg"},{"bike_id":"d320ae65-d6ec-47a7-b522-aa737565e7b9","system_id":"levelo_inurba_marseille","lat":43.303002,"lon":5.392142,"is_reserved":false,"is_disabled":false,"rental_uris":{"android":"levelo://app?vid=d320ae65-d6ec-47a7-b522-aa737565e7b9","ios":"levelo://app?vid=d320ae65-d6ec-47a7-b522-aa737565e7b9"},"vehicle_type_id":"4","last_reported":1725819099,"current_range_meters":7200,"station_id":"ce4bgkh2rcd13ifvqbk0","pricing_plan_id":"cebpf4jnsgd1na2vs0mg"},{"bike_id":"ff0bfdba-dc8d-4d4b-a753-0f68699ec5d4","system_id":"levelo_inurba_marseille","lat":43.2936,"lon":5.37835,"is_reserved":false,"is_disabled":false,"rental_uris":{"android":"levelo://app?vid=ff0bfdba-dc8d-4d4b-a753-0f68699ec5d4","ios":"levelo://app?vid=ff0bfdba-dc8d-4d4b-a753-0f68699ec5d4"},"vehicle_type_id":"4","last_reported":1725819099,"current_range_meters":28000,"station_id":"ce4bgjh2rcd13ifvqbf0","pricing_plan_id":"cebpf4jnsgd1na2vs0mg"},{"bike_id":"6a98bc6c-d901-4887-8239-eb7ea0bf3ee5","system_id":"levelo_inurba_marseille","lat":43.29224,"lon":5.36059,"is_reserved":false,"is_disabled":false,"rental_uris":{"android":"levelo://app?vid=6a98bc6c-d901-4887-8239-eb7ea0bf3ee5","ios":"levelo://app?vid=6a98bc6c-d901-4887-8239-eb7ea0bf3ee5"},"vehicle_type_id":"4","last_reported":1725819099,"current_range_meters":0,"station_id":"ce4bhbh2rcd13ifvqeqg","pricing_plan_id":"cebpf4jnsgd1na2vs0mg"},{"bike_id":"32334e89-85e3-4035-bf9f-2b6dfee28aed","system_id":"levelo_inurba_marseille","lat":43.29221,"lon":5.36047,"is_reserved":false,"is_disabled":false,"rental_uris":{"android":"levelo://app?vid=32334e89-85e3-4035-bf9f-2b6dfee28aed","ios":"levelo://app?vid=32334e89-85e3-4035-bf9f-2b6dfee28aed"},"vehicle_type_id":"4","last_reported":1725819099,"current_range_meters":0,"station_id":"ce4bhbh2rcd13ifvqeqg","pricing_plan_id":"cebpf4jnsgd1na2vs0mg"},{"bike_id":"5bb823be-e0b5-4512-815e-a426fa409ce0","system_id":"levelo_inurba_marseille","lat":43.298764,"lon":5.388973,"is_reserved":false,"is_disabled":false,"rental_uris":{"android":"levelo://app?vid=5bb823be-e0b5-4512-815e-a426fa409ce0","ios":"levelo://app?vid=5bb823be-e0b5-4512-815e-a426fa409ce0"},"vehicle_type_id":"4","last_reported":1725819099,"current_range_meters":18800,"station_id":"ce4bh392rcd13ifvqdl0","pricing_plan_id":"cebpf4jnsgd1na2vs0mg"},{"bike_id":"8892eb87-1e6d-42d0-82a3-906876b31f4b","system_id":"levelo_inurba_marseille","lat":43.298764,"lon":5.388973,"is_reserved":false,"is_disabled":false,"rental_uris":{"android":"levelo://app?vid=8892eb87-1e6d-42d0-82a3-906876b31f4b","ios":"levelo://app?vid=8892eb87-1e6d-42d0-82a3-906876b31f4b"},"vehicle_type_id":"4","last_reported":1725819099,"current_range_meters":23200,"station_id":"ce4bh392rcd13ifvqdl0","pricing_plan_id":"cebpf4jnsgd1na2vs0mg"},{"bike_id":"298b90ea-5c8b-4968-9528-41846e34f574","system_id":"levelo_inurba_marseille","lat":43.298764,"lon":5.388973,"is_reserved":false,"is_disabled":false,"rental_uris":{"android":"levelo://app?vid=298b90ea-5c8b-4968-9528-41846e34f574","ios":"levelo://app?vid=298b90ea-5c8b-4968-9528-41846e34f574"},"vehicle_type_id":"4","last_reported":1725819099,"current_range_meters":0,"station_id":"ce4bh392rcd13ifvqdl0","pricing_plan_id":"cebpf4jnsgd1na2vs0mg"},{"bike_id":"45e1877c-3534-42ab-9b05-eb34e073f340","system_id":"levelo_inurba_marseille","lat":43.3088,"lon":5.39643,"is_reserved":false,"is_disabled":false,"rental_uris":{"android":"levelo://app?vid=45e1877c-3534-42ab-9b05-eb34e073f340","ios":"levelo://app?vid=45e1877c-3534-42ab-9b05-eb34e073f340"},"vehicle_type_id":"4","last_reported":1725819099,"current_range_meters":26800,"station_id":"ce4bh012rcd13ifvqcv0","pricing_plan_id":"cebpf4jnsgd1na2vs0mg"},{"bike_id":"4c5424db-5c80-4aa0-b38e-8573347bb977","system_id":"levelo_inurba_marseille","lat":43.313291,"lon":5.396838,"is_reserved":false,"is_disabled":false,"rental_uris":{"android":"levelo://app?vid=4c5424db-5c80-4aa0-b38e-8573347bb977","ios":"levelo://app?vid=4c5424db-5c80-4aa0-b38e-8573347bb977"},"vehicle_type_id":"4","last_reported":1725819099,"current_range_meters":3600,"station_id":"ce4bgvp2rcd13ifvqcu0","pricing_plan_id":"cebpf4jnsgd1na2vs0mg"},{"bike_id":"07dbddea-ddf8-4165-960e-11b08c71d3ce","system_id":"levelo_inurba_marseille","lat":43.31323,"lon":5.39695,"is_reserved":false,"is_disabled":false,"rental_uris":{"android":"levelo://app?vid=07dbddea-ddf8-4165-960e-11b08c71d3ce","ios":"levelo://app?vid=07dbddea-ddf8-4165-960e-11b08c71d3ce"},"vehicle_type_id":"4","last_reported":1725819099,"current_range_meters":17600,"station_id":"ce4bgvp2rcd13ifvqcu0","pricing_plan_id":"cebpf4jnsgd1na2vs0mg"},{"bike_id":"c6632ab8-20f9-4ab8-b4b3-f1c336088595","system_id":"levelo_inurba_marseille","lat":43.2954,"lon":5.38544,"is_reserved":false,"is_disabled":false,"rental_uris":{"android":"levelo://app?vid=c6632ab8-20f9-4ab8-b4b3-f1c336088595","ios":"levelo://app?vid=c6632ab8-20f9-4ab8-b4b3-f1c336088595"},"vehicle_type_id":"4","last_reported":1725819099,"current_range_meters":0,"station_id":"ce4bgih2rcd13ifvqba0","pricing_plan_id":"cebpf4jnsgd1na2vs0mg"},{"bike_id":"2fc7b7ab-ec8a-439b-8e39-ea219e44c413","system_id":"levelo_inurba_marseille","lat":43.29529,"lon":5.385581,"is_reserved":false,"is_disabled":false,"rental_uris":{"android":"levelo://app?vid=2fc7b7ab-ec8a-439b-8e39-ea219e44c413","ios":"levelo://app?vid=2fc7b7ab-ec8a-439b-8e39-ea219e44c413"},"vehicle_type_id":"4","last_reported":1725819099,"current_range_meters":26000,"station_id":"ce4bgih2rcd13ifvqba0","pricing_plan_id":"cebpf4jnsgd1na2vs0mg"},{"bike_id":"6eeb6a1e-3ecf-42ee-a4ee-239db525aa47","system_id":"levelo_inurba_marseille","lat":43.29529,"lon":5.385581,"is_reserved":false,"is_disabled":false,"rental_uris":{"android":"levelo://app?vid=6eeb6a1e-3ecf-42ee-a4ee-239db525aa47","ios":"levelo://app?vid=6eeb6a1e-3ecf-42ee-a4ee-239db525aa47"},"vehicle_type_id":"4","last_reported":1725819099,"current_range_meters":24800,"station_id":"ce4bgih2rcd13ifvqba0","pricing_plan_id":"cebpf4jnsgd1na2vs0mg"},{"bike_id":"656fac5d-603e-4a8c-b6dd-84ca8ddc98e3","system_id":"levelo_inurba_marseille","lat":43.29529,"lon":5.385581,"is_reserved":false,"is_disabled":false,"rental_uris":{"android":"levelo://app?vid=656fac5d-603e-4a8c-b6dd-84ca8ddc98e3","ios":"levelo://app?vid=656fac5d-603e-4a8c-b6dd-84ca8ddc98e3"},"vehicle_type_id":"4","last_reported":1725819099,"current_range_meters":2400,"station_id":"ce4bgih2rcd13ifvqba0","pricing_plan_id":"cebpf4jnsgd1na2vs0mg"},{"bike_id":"30b290c2-f5f7-48ed-abbd-350107f69002","system_id":"levelo_inurba_marseille","lat":43.29529,"lon":5.385581,"is_reserved":false,"is_disabled":false,"rental_uris":{"android":"levelo://app?vid=30b290c2-f5f7-48ed-abbd-350107f69002","ios":"levelo://app?vid=30b290c2-f5f7-48ed-abbd-350107f69002"},"vehicle_type_id":"4","last_reported":1725819099,"current_range_meters":20800,"station_id":"ce4bgih2rcd13ifvqba0","pricing_plan_id":"cebpf4jnsgd1na2vs0mg"},{"bike_id":"83878f38-7031-4a1a-a601-bc0ae9d02d79","system_id":"levelo_inurba_marseille","lat":43.2953,"lon":5.38543,"is_reserved":false,"is_disabled":false,"rental_uris":{"android":"levelo://app?vid=83878f38-7031-4a1a-a601-bc0ae9d02d79","ios":"levelo://app?vid=83878f38-7031-4a1a-a601-bc0ae9d02d79"},"vehicle_type_id":"4","last_reported":1725819099,"current_range_meters":0,"station_id":"ce4bgih2rcd13ifvqba0","pricing_plan_id":"cebpf4jnsgd1na2vs0mg"},{"bike_id":"26401215-3330-4890-bb45-5d6eea829b7f","system_id":"levelo_inurba_marseille","lat":43.29529,"lon":5.385581,"is_reserved":false,"is_disabled":false,"rental_uris":{"android":"levelo://app?vid=26401215-3330-4890-bb45-5d6eea829b7f","ios":"levelo://app?vid=26401215-3330-4890-bb45-5d6eea829b7f"},"vehicle_type_id":"4","last_reported":1725819099,"current_range_meters":1200,"station_id":"ce4bgih2rcd13ifvqba0","pricing_plan_id":"cebpf4jnsgd1na2vs0mg"},{"bike_id":"e9cd36b4-66b2-4646-8057-53d76a1287d2","system_id":"levelo_inurba_marseille","lat":43.29529,"lon":5.385581,"is_reserved":false,"is_disabled":false,"rental_uris":{"android":"levelo://app?vid=e9cd36b4-66b2-4646-8057-53d76a1287d2","ios":"levelo://app?vid=e9cd36b4-66b2-4646-8057-53d76a1287d2"},"vehicle_type_id":"4","last_reported":1725819099,"current_range_meters":6800,"station_id":"ce4bgih2rcd13ifvqba0","pricing_plan_id":"cebpf4jnsgd1na2vs0mg"},{"bike_id":"9d03b031-0105-49c8-995d-6805879f2158","system_id":"levelo_inurba_marseille","lat":43.29529,"lon":5.385581,"is_reserved":false,"is_disabled":false,"rental_uris":{"android":"levelo://app?vid=9d03b031-0105-49c8-995d-6805879f2158","ios":"levelo://app?vid=9d03b031-0105-49c8-995d-6805879f2158"},"vehicle_type_id":"4","last_reported":1725819099,"current_range_meters":21600,"station_id":"ce4bgih2rcd13ifvqba0","pricing_plan_id":"cebpf4jnsgd1na2vs0mg"},{"bike_id":"177943bf-7e73-47fd-8728-97897b5ba685","system_id":"levelo_inurba_marseille","lat":43.29529,"lon":5.385581,"is_reserved":false,"is_disabled":false,"rental_uris":{"android":"levelo://app?vid=177943bf-7e73-47fd-8728-97897b5ba685","ios":"levelo://app?vid=177943bf-7e73-47fd-8728-97897b5ba685"},"vehicle_type_id":"4","last_reported":1725819099,"current_range_meters":7600,"station_id":"ce4bgih2rcd13ifvqba0","pricing_plan_id":"cebpf4jnsgd1na2vs0mg"},{"bike_id":"930b2d86-0dba-4fe7-846e-2c8ea32e38b3","system_id":"levelo_inurba_marseille","lat":43.29529,"lon":5.385581,"is_reserved":false,"is_disabled":false,"rental_uris":{"android":"levelo://app?vid=930b2d86-0dba-4fe7-846e-2c8ea32e38b3","ios":"levelo://app?vid=930b2d86-0dba-4fe7-846e-2c8ea32e38b3"},"vehicle_type_id":"4","last_reported":1725819099,"current_range_meters":16000,"station_id":"ce4bgih2rcd13ifvqba0","pricing_plan_id":"cebpf4jnsgd1na2vs0mg"},{"bike_id":"58fdf36c-6366-4273-8921-2dde3412749d","system_id":"levelo_inurba_marseille","lat":43.29529,"lon":5.385581,"is_reserved":false,"is_disabled":false,"rental_uris":{"android":"levelo://app?vid=58fdf36c-6366-4273-8921-2dde3412749d","ios":"levelo://app?vid=58fdf36c-6366-4273-8921-2dde3412749d"},"vehicle_type_id":"4","last_reported":1725819099,"current_range_meters":4000,"station_id":"ce4bgih2rcd13ifvqba0","pricing_plan_id":"cebpf4jnsgd1na2vs0mg"},{"bike_id":"badc5e93-0fd6-4cfd-8776-6f0382d46c48","system_id":"levelo_inurba_marseille","lat":43.290779,"lon":5.371482,"is_reserved":false,"is_disabled":false,"rental_uris":{"android":"levelo://app?vid=badc5e93-0fd6-4cfd-8776-6f0382d46c48","ios":"levelo://app?vid=badc5e93-0fd6-4cfd-8776-6f0382d46c48"},"vehicle_type_id":"4","last_reported":1725819099,"current_range_meters":31200,"station_id":"ce4bh5p2rcd13ifvqe4g","pricing_plan_id":"cebpf4jnsgd1na2vs0mg"},{"bike_id":"05362836-3059-4dcc-beed-20b1d4da5b39","system_id":"levelo_inurba_marseille","lat":43.290779,"lon":5.371482,"is_reserved":false,"is_disabled":false,"rental_uris":{"android":"levelo://app?vid=05362836-3059-4dcc-beed-20b1d4da5b39","ios":"levelo://app?vid=05362836-3059-4dcc-beed-20b1d4da5b39"},"vehicle_type_id":"4","last_reported":1725819099,"current_range_meters":9600,"station_id":"ce4bh5p2rcd13ifvqe4g","pricing_plan_id":"cebpf4jnsgd1na2vs0mg"},{"bike_id":"186dc71b-b82b-4ab6-af3a-8a23cdd62170","system_id":"levelo_inurba_marseille","lat":43.290779,"lon":5.371482,"is_reserved":false,"is_disabled":false,"rental_uris":{"android":"levelo://app?vid=186dc71b-b82b-4ab6-af3a-8a23cdd62170","ios":"levelo://app?vid=186dc71b-b82b-4ab6-af3a-8a23cdd62170"},"vehicle_type_id":"4","last_reported":1725819099,"current_range_meters":12400,"station_id":"ce4bh5p2rcd13ifvqe4g","pricing_plan_id":"cebpf4jnsgd1na2vs0mg"},{"bike_id":"8cc0830d-d067-4ec0-a6db-655195d7e3bb","system_id":"levelo_inurba_marseille","lat":43.290779,"lon":5.371482,"is_reserved":false,"is_disabled":false,"rental_uris":{"android":"levelo://app?vid=8cc0830d-d067-4ec0-a6db-655195d7e3bb","ios":"levelo://app?vid=8cc0830d-d067-4ec0-a6db-655195d7e3bb"},"vehicle_type_id":"4","last_reported":1725819099,"current_range_meters":15200,"station_id":"ce4bh5p2rcd13ifvqe4g","pricing_plan_id":"cebpf4jnsgd1na2vs0mg"},{"bike_id":"061cc26f-0193-48c5-bd2d-aa76a149db34","system_id":"levelo_inurba_marseille","lat":43.302008,"lon":5.394694,"is_reserved":false,"is_disabled":false,"rental_uris":{"android":"levelo://app?vid=061cc26f-0193-48c5-bd2d-aa76a149db34","ios":"levelo://app?vid=061cc26f-0193-48c5-bd2d-aa76a149db34"},"vehicle_type_id":"4","last_reported":1725819099,"current_range_meters":24800,"station_id":"ce4bh0p2rcd13ifvqd70","pricing_plan_id":"cebpf4jnsgd1na2vs0mg"},{"bike_id":"e5f638f4-1421-4030-b933-fe6188744029","system_id":"levelo_inurba_marseille","lat":43.302008,"lon":5.394694,"is_reserved":false,"is_disabled":false,"rental_uris":{"android":"levelo://app?vid=e5f638f4-1421-4030-b933-fe6188744029","ios":"levelo://app?vid=e5f638f4-1421-4030-b933-fe6188744029"},"vehicle_type_id":"4","last_reported":1725819099,"current_range_meters":15600,"station_id":"ce4bh0p2rcd13ifvqd70","pricing_plan_id":"cebpf4jnsgd1na2vs0mg"},{"bike_id":"a3e633f0-c3eb-48e0-b9b5-a62f141e538b","system_id":"levelo_inurba_marseille","lat":43.302008,"lon":5.394694,"is_reserved":false,"is_disabled":false,"rental_uris":{"android":"levelo://app?vid=a3e633f0-c3eb-48e0-b9b5-a62f141e538b","ios":"levelo://app?vid=a3e633f0-c3eb-48e0-b9b5-a62f141e538b"},"vehicle_type_id":"4","last_reported":1725819099,"current_range_meters":22400,"station_id":"ce4bh0p2rcd13ifvqd70","pricing_plan_id":"cebpf4jnsgd1na2vs0mg"},{"bike_id":"63ec5d65-7346-41db-bed1-c5baedc791ff","system_id":"levelo_inurba_marseille","lat":43.302008,"lon":5.394694,"is_reserved":false,"is_disabled":false,"rental_uris":{"android":"levelo://app?vid=63ec5d65-7346-41db-bed1-c5baedc791ff","ios":"levelo://app?vid=63ec5d65-7346-41db-bed1-c5baedc791ff"},"vehicle_type_id":"4","last_reported":1725819099,"current_range_meters":18800,"station_id":"ce4bh0p2rcd13ifvqd70","pricing_plan_id":"cebpf4jnsgd1na2vs0mg"},{"bike_id":"10a43f03-0db9-4b57-a21b-9593464f8822","system_id":"levelo_inurba_marseille","lat":43.29008,"lon":5.37257,"is_reserved":false,"is_disabled":false,"rental_uris":{"android":"levelo://app?vid=10a43f03-0db9-4b57-a21b-9593464f8822","ios":"levelo://app?vid=10a43f03-0db9-4b57-a21b-9593464f8822"},"vehicle_type_id":"4","last_reported":1725819099,"current_range_meters":0,"station_id":"","pricing_plan_id":"cebpf4jnsgd1na2vs0mg"},{"bike_id":"7f84366b-28d3-4d92-827c-cc5e13c80d74","system_id":"levelo_inurba_marseille","lat":43.290319,"lon":5.375732,"is_reserved":false,"is_disabled":false,"rental_uris":{"android":"levelo://app?vid=7f84366b-28d3-4d92-827c-cc5e13c80d74","ios":"levelo://app?vid=7f84366b-28d3-4d92-827c-cc5e13c80d74"},"vehicle_type_id":"4","last_reported":1725819099,"current_range_meters":15600,"station_id":"ce4bh692rcd13ifvqe90","pricing_plan_id":"cebpf4jnsgd1na2vs0mg"},{"bike_id":"9f0c0db5-cfb4-43f3-b679-e9f2a25f3482","system_id":"levelo_inurba_marseille","lat":43.294153,"lon":5.386305,"is_reserved":false,"is_disabled":false,"rental_uris":{"android":"levelo://app?vid=9f0c0db5-cfb4-43f3-b679-e9f2a25f3482","ios":"levelo://app?vid=9f0c0db5-cfb4-43f3-b679-e9f2a25f3482"},"vehicle_type_id":"4","last_reported":1725819099,"current_range_meters":15200,"station_id":"ce4bh2h2rcd13ifvqdh0","pricing_plan_id":"cebpf4jnsgd1na2vs0mg"},{"bike_id":"8f6941b7-670e-4d17-ba86-68870780fe0e","system_id":"levelo_inurba_marseille","lat":43.294153,"lon":5.386305,"is_reserved":false,"is_disabled":false,"rental_uris":{"android":"levelo://app?vid=8f6941b7-670e-4d17-ba86-68870780fe0e","ios":"levelo://app?vid=8f6941b7-670e-4d17-ba86-68870780fe0e"},"vehicle_type_id":"4","last_reported":1725819099,"current_range_meters":25600,"station_id":"ce4bh2h2rcd13ifvqdh0","pricing_plan_id":"cebpf4jnsgd1na2vs0mg"},{"bike_id":"edc30e88-6319-4b53-891a-f86121a081f0","system_id":"levelo_inurba_marseille","lat":43.294153,"lon":5.386305,"is_reserved":false,"is_disabled":false,"rental_uris":{"android":"levelo://app?vid=edc30e88-6319-4b53-891a-f86121a081f0","ios":"levelo://app?vid=edc30e88-6319-4b53-891a-f86121a081f0"},"vehicle_type_id":"4","last_reported":1725819099,"current_range_meters":15600,"station_id":"ce4bh2h2rcd13ifvqdh0","pricing_plan_id":"cebpf4jnsgd1na2vs0mg"},{"bike_id":"b2069f90-d1a9-4486-8d59-baeb7cb76397","system_id":"levelo_inurba_marseille","lat":43.2942,"lon":5.38631,"is_reserved":false,"is_disabled":false,"rental_uris":{"android":"levelo://app?vid=b2069f90-d1a9-4486-8d59-baeb7cb76397","ios":"levelo://app?vid=b2069f90-d1a9-4486-8d59-baeb7cb76397"},"vehicle_type_id":"4","last_reported":1725819099,"current_range_meters":0,"station_id":"ce4bh2h2rcd13ifvqdh0","pricing_plan_id":"cebpf4jnsgd1na2vs0mg"},{"bike_id":"270d3477-1f2b-4b36-a903-8f146f85b87e","system_id":"levelo_inurba_marseille","lat":43.29415,"lon":5.38622,"is_reserved":false,"is_disabled":false,"rental_uris":{"android":"levelo://app?vid=270d3477-1f2b-4b36-a903-8f146f85b87e","ios":"levelo://app?vid=270d3477-1f2b-4b36-a903-8f146f85b87e"},"vehicle_type_id":"4","last_reported":1725819099,"current_range_meters":10000,"station_id":"ce4bh2h2rcd13ifvqdh0","pricing_plan_id":"cebpf4jnsgd1na2vs0mg"},{"bike_id":"cf99af8d-2f9e-43ef-a53e-56972dcbd8e7","system_id":"levelo_inurba_marseille","lat":43.294162,"lon":5.386292,"is_reserved":false,"is_disabled":false,"rental_uris":{"android":"levelo://app?vid=cf99af8d-2f9e-43ef-a53e-56972dcbd8e7","ios":"levelo://app?vid=cf99af8d-2f9e-43ef-a53e-56972dcbd8e7"},"vehicle_type_id":"4","last_reported":1725819099,"current_range_meters":1200,"station_id":"ce4bh2h2rcd13ifvqdh0","pricing_plan_id":"cebpf4jnsgd1na2vs0mg"},{"bike_id":"f13ffc76-71f2-4ffc-a3d0-6339cd5d4475","system_id":"levelo_inurba_marseille","lat":43.289184,"lon":5.366408,"is_reserved":false,"is_disabled":false,"rental_uris":{"android":"levelo://app?vid=f13ffc76-71f2-4ffc-a3d0-6339cd5d4475","ios":"levelo://app?vid=f13ffc76-71f2-4ffc-a3d0-6339cd5d4475"},"vehicle_type_id":"4","last_reported":1725819099,"current_range_meters":14800,"station_id":"ce4bhap2rcd13ifvqek0","pricing_plan_id":"cebpf4jnsgd1na2vs0mg"},{"bike_id":"4720f7e4-2376-4bef-8c2e-f2ae4e650a6f","system_id":"levelo_inurba_marseille","lat":43.294153,"lon":5.386305,"is_reserved":false,"is_disabled":false,"rental_uris":{"android":"levelo://app?vid=4720f7e4-2376-4bef-8c2e-f2ae4e650a6f","ios":"levelo://app?vid=4720f7e4-2376-4bef-8c2e-f2ae4e650a6f"},"vehicle_type_id":"4","last_reported":1725819099,"current_range_meters":0,"station_id":"ce4bh2h2rcd13ifvqdh0","pricing_plan_id":"cebpf4jnsgd1na2vs0mg"},{"bike_id":"d3da4eeb-37e3-40f9-8ee7-b4de66fa0422","system_id":"levelo_inurba_marseille","lat":43.289184,"lon":5.366408,"is_reserved":false,"is_disabled":false,"rental_uris":{"android":"levelo://app?vid=d3da4eeb-37e3-40f9-8ee7-b4de66fa0422","ios":"levelo://app?vid=d3da4eeb-37e3-40f9-8ee7-b4de66fa0422"},"vehicle_type_id":"4","last_reported":1725819099,"current_range_meters":12000,"station_id":"ce4bhap2rcd13ifvqek0","pricing_plan_id":"cebpf4jnsgd1na2vs0mg"},{"bike_id":"aa8f5cd6-b354-4450-8b2f-94ef70854838","system_id":"levelo_inurba_marseille","lat":43.289184,"lon":5.366408,"is_reserved":false,"is_disabled":false,"rental_uris":{"android":"levelo://app?vid=aa8f5cd6-b354-4450-8b2f-94ef70854838","ios":"levelo://app?vid=aa8f5cd6-b354-4450-8b2f-94ef70854838"},"vehicle_type_id":"4","last_reported":1725819099,"current_range_meters":30000,"station_id":"ce4bhap2rcd13ifvqek0","pricing_plan_id":"cebpf4jnsgd1na2vs0mg"},{"bike_id":"518138ad-69b7-4374-a247-c6bd5cefa220","system_id":"levelo_inurba_marseille","lat":43.289184,"lon":5.366408,"is_reserved":false,"is_disabled":false,"rental_uris":{"android":"levelo://app?vid=518138ad-69b7-4374-a247-c6bd5cefa220","ios":"levelo://app?vid=518138ad-69b7-4374-a247-c6bd5cefa220"},"vehicle_type_id":"4","last_reported":1725819099,"current_range_meters":22400,"station_id":"ce4bhap2rcd13ifvqek0","pricing_plan_id":"cebpf4jnsgd1na2vs0mg"},{"bike_id":"18b132d1-b697-4d9c-82db-fdbd3b7f9dc2","system_id":"levelo_inurba_marseille","lat":43.289184,"lon":5.366408,"is_reserved":false,"is_disabled":false,"rental_uris":{"android":"levelo://app?vid=18b132d1-b697-4d9c-82db-fdbd3b7f9dc2","ios":"levelo://app?vid=18b132d1-b697-4d9c-82db-fdbd3b7f9dc2"},"vehicle_type_id":"4","last_reported":1725819099,"current_range_meters":0,"station_id":"ce4bhap2rcd13ifvqek0","pricing_plan_id":"cebpf4jnsgd1na2vs0mg"},{"bike_id":"4688d032-db0d-4cd8-8264-6f50f890868f","system_id":"levelo_inurba_marseille","lat":43.289468,"lon":5.363719,"is_reserved":false,"is_disabled":false,"rental_uris":{"android":"levelo://app?vid=4688d032-db0d-4cd8-8264-6f50f890868f","ios":"levelo://app?vid=4688d032-db0d-4cd8-8264-6f50f890868f"},"vehicle_type_id":"4","last_reported":1725819099,"current_range_meters":10400,"station_id":"ce4bhc92rcd13ifvqetg","pricing_plan_id":"cebpf4jnsgd1na2vs0mg"},{"bike_id":"d0afd2be-2476-45e8-9c4d-b2cc528fe59d","system_id":"levelo_inurba_marseille","lat":43.28938,"lon":5.364093,"is_reserved":false,"is_disabled":false,"rental_uris":{"android":"levelo://app?vid=d0afd2be-2476-45e8-9c4d-b2cc528fe59d","ios":"levelo://app?vid=d0afd2be-2476-45e8-9c4d-b2cc528fe59d"},"vehicle_type_id":"4","last_reported":1725819099,"current_range_meters":20400,"station_id":"ce4bhc92rcd13ifvqetg","pricing_plan_id":"cebpf4jnsgd1na2vs0mg"},{"bike_id":"02f629d4-ff88-4fd3-8634-90f0b11451cf","system_id":"levelo_inurba_marseille","lat":43.29272,"lon":5.3844,"is_reserved":false,"is_disabled":false,"rental_uris":{"android":"levelo://app?vid=02f629d4-ff88-4fd3-8634-90f0b11451cf","ios":"levelo://app?vid=02f629d4-ff88-4fd3-8634-90f0b11451cf"},"vehicle_type_id":"4","last_reported":1725819099,"current_range_meters":9200,"station_id":"ce4bh692rcd13ifvqea0","pricing_plan_id":"cebpf4jnsgd1na2vs0mg"},{"bike_id":"7f698075-5357-4124-b08b-6f292a05c826","system_id":"levelo_inurba_marseille","lat":43.304274,"lon":5.397513,"is_reserved":false,"is_disabled":false,"rental_uris":{"android":"levelo://app?vid=7f698075-5357-4124-b08b-6f292a05c826","ios":"levelo://app?vid=7f698075-5357-4124-b08b-6f292a05c826"},"vehicle_type_id":"4","last_reported":1725819099,"current_range_meters":27600,"station_id":"ce4bh092rcd13ifvqd20","pricing_plan_id":"cebpf4jnsgd1na2vs0mg"},{"bike_id":"6b1555f6-4c20-4fcf-839f-5542a18d1f7d","system_id":"levelo_inurba_marseille","lat":43.304296,"lon":5.397513,"is_reserved":false,"is_disabled":false,"rental_uris":{"android":"levelo://app?vid=6b1555f6-4c20-4fcf-839f-5542a18d1f7d","ios":"levelo://app?vid=6b1555f6-4c20-4fcf-839f-5542a18d1f7d"},"vehicle_type_id":"4","last_reported":1725819099,"current_range_meters":22000,"station_id":"ce4bh092rcd13ifvqd20","pricing_plan_id":"cebpf4jnsgd1na2vs0mg"},{"bike_id":"a9187a89-e99a-4392-96df-f81a1840e6f9","system_id":"levelo_inurba_marseille","lat":43.29264,"lon":5.38433,"is_reserved":false,"is_disabled":false,"rental_uris":{"android":"levelo://app?vid=a9187a89-e99a-4392-96df-f81a1840e6f9","ios":"levelo://app?vid=a9187a89-e99a-4392-96df-f81a1840e6f9"},"vehicle_type_id":"4","last_reported":1725819099,"current_range_meters":17200,"station_id":"ce4bh692rcd13ifvqea0","pricing_plan_id":"cebpf4jnsgd1na2vs0mg"},{"bike_id":"7f0d6859-f720-4463-a782-85de67f94d2d","system_id":"levelo_inurba_marseille","lat":43.292644,"lon":5.384257,"is_reserved":false,"is_disabled":false,"rental_uris":{"android":"levelo://app?vid=7f0d6859-f720-4463-a782-85de67f94d2d","ios":"levelo://app?vid=7f0d6859-f720-4463-a782-85de67f94d2d"},"vehicle_type_id":"4","last_reported":1725819099,"current_range_meters":0,"station_id":"ce4bh692rcd13ifvqea0","pricing_plan_id":"cebpf4jnsgd1na2vs0mg"},{"bike_id":"dd08dc0d-7995-4567-94bc-120314dde8e7","system_id":"levelo_inurba_marseille","lat":43.304296,"lon":5.397513,"is_reserved":false,"is_disabled":false,"rental_uris":{"android":"levelo://app?vid=dd08dc0d-7995-4567-94bc-120314dde8e7","ios":"levelo://app?vid=dd08dc0d-7995-4567-94bc-120314dde8e7"},"vehicle_type_id":"4","last_reported":1725819099,"current_range_meters":0,"station_id":"ce4bh092rcd13ifvqd20","pricing_plan_id":"cebpf4jnsgd1na2vs0mg"},{"bike_id":"355c5b59-2bba-479a-876e-303c54bf7734","system_id":"levelo_inurba_marseille","lat":43.304274,"lon":5.397513,"is_reserved":false,"is_disabled":false,"rental_uris":{"android":"levelo://app?vid=355c5b59-2bba-479a-876e-303c54bf7734","ios":"levelo://app?vid=355c5b59-2bba-479a-876e-303c54bf7734"},"vehicle_type_id":"4","last_reported":1725819099,"current_range_meters":9200,"station_id":"ce4bh092rcd13ifvqd20","pricing_plan_id":"cebpf4jnsgd1na2vs0mg"},{"bike_id":"fa67ee9c-1289-4f5f-a32f-5c88dc087558","system_id":"levelo_inurba_marseille","lat":43.304274,"lon":5.397513,"is_reserved":false,"is_disabled":false,"rental_uris":{"android":"levelo://app?vid=fa67ee9c-1289-4f5f-a32f-5c88dc087558","ios":"levelo://app?vid=fa67ee9c-1289-4f5f-a32f-5c88dc087558"},"vehicle_type_id":"4","last_reported":1725819099,"current_range_meters":0,"station_id":"ce4bh092rcd13ifvqd20","pricing_plan_id":"cebpf4jnsgd1na2vs0mg"},{"bike_id":"402f7a76-cf80-49a5-bea4-9e15c0b61d09","system_id":"levelo_inurba_marseille","lat":43.304274,"lon":5.397513,"is_reserved":false,"is_disabled":false,"rental_uris":{"android":"levelo://app?vid=402f7a76-cf80-49a5-bea4-9e15c0b61d09","ios":"levelo://app?vid=402f7a76-cf80-49a5-bea4-9e15c0b61d09"},"vehicle_type_id":"4","last_reported":1725819099,"current_range_meters":14800,"station_id":"ce4bh092rcd13ifvqd20","pricing_plan_id":"cebpf4jnsgd1na2vs0mg"},{"bike_id":"5fa61732-3788-4d46-ae2b-7f4a782a1891","system_id":"levelo_inurba_marseille","lat":43.292644,"lon":5.384257,"is_reserved":false,"is_disabled":false,"rental_uris":{"android":"levelo://app?vid=5fa61732-3788-4d46-ae2b-7f4a782a1891","ios":"levelo://app?vid=5fa61732-3788-4d46-ae2b-7f4a782a1891"},"vehicle_type_id":"4","last_reported":1725819099,"current_range_meters":10800,"station_id":"ce4bh692rcd13ifvqea0","pricing_plan_id":"cebpf4jnsgd1na2vs0mg"},{"bike_id":"b6ef3de0-ba9e-442c-acd9-f29aa0330d35","system_id":"levelo_inurba_marseille","lat":43.290104,"lon":5.356111,"is_reserved":false,"is_disabled":false,"rental_uris":{"android":"levelo://app?vid=b6ef3de0-ba9e-442c-acd9-f29aa0330d35","ios":"levelo://app?vid=b6ef3de0-ba9e-442c-acd9-f29aa0330d35"},"vehicle_type_id":"4","last_reported":1725819099,"current_range_meters":0,"station_id":"ce4bhb92rcd13ifvqen0","pricing_plan_id":"cebpf4jnsgd1na2vs0mg"},{"bike_id":"842bc473-5ba8-47dd-9c5d-58cb5ed5ea3a","system_id":"levelo_inurba_marseille","lat":43.304296,"lon":5.397513,"is_reserved":false,"is_disabled":false,"rental_uris":{"android":"levelo://app?vid=842bc473-5ba8-47dd-9c5d-58cb5ed5ea3a","ios":"levelo://app?vid=842bc473-5ba8-47dd-9c5d-58cb5ed5ea3a"},"vehicle_type_id":"4","last_reported":1725819099,"current_range_meters":26000,"station_id":"ce4bh092rcd13ifvqd20","pricing_plan_id":"cebpf4jnsgd1na2vs0mg"},{"bike_id":"dc71bc83-119a-4bcc-a5c6-0cb99367f45e","system_id":"levelo_inurba_marseille","lat":43.290104,"lon":5.356111,"is_reserved":false,"is_disabled":false,"rental_uris":{"android":"levelo://app?vid=dc71bc83-119a-4bcc-a5c6-0cb99367f45e","ios":"levelo://app?vid=dc71bc83-119a-4bcc-a5c6-0cb99367f45e"},"vehicle_type_id":"4","last_reported":1725819099,"current_range_meters":0,"station_id":"ce4bhb92rcd13ifvqen0","pricing_plan_id":"cebpf4jnsgd1na2vs0mg"},{"bike_id":"c4cda5be-80c0-48ce-8cd6-0239e9ffe478","system_id":"levelo_inurba_marseille","lat":43.290104,"lon":5.356111,"is_reserved":false,"is_disabled":false,"rental_uris":{"android":"levelo://app?vid=c4cda5be-80c0-48ce-8cd6-0239e9ffe478","ios":"levelo://app?vid=c4cda5be-80c0-48ce-8cd6-0239e9ffe478"},"vehicle_type_id":"4","last_reported":1725819099,"current_range_meters":2000,"station_id":"ce4bhb92rcd13ifvqen0","pricing_plan_id":"cebpf4jnsgd1na2vs0mg"},{"bike_id":"e7b1e283-11ee-4b69-9813-4404078d8b43","system_id":"levelo_inurba_marseille","lat":43.290899,"lon":5.381365,"is_reserved":false,"is_disabled":false,"rental_uris":{"android":"levelo://app?vid=e7b1e283-11ee-4b69-9813-4404078d8b43","ios":"levelo://app?vid=e7b1e283-11ee-4b69-9813-4404078d8b43"},"vehicle_type_id":"4","last_reported":1725819099,"current_range_meters":16800,"station_id":"","pricing_plan_id":"cebpf4jnsgd1na2vs0mg"},{"bike_id":"888d4ed8-7b1f-4b34-80ff-1d0258e362bb","system_id":"levelo_inurba_marseille","lat":43.290995,"lon":5.381361,"is_reserved":false,"is_disabled":false,"rental_uris":{"android":"levelo://app?vid=888d4ed8-7b1f-4b34-80ff-1d0258e362bb","ios":"levelo://app?vid=888d4ed8-7b1f-4b34-80ff-1d0258e362bb"},"vehicle_type_id":"4","last_reported":1725819099,"current_range_meters":28000,"station_id":"ce4bh512rcd13ifvqe2g","pricing_plan_id":"cebpf4jnsgd1na2vs0mg"},{"bike_id":"99071d52-80dc-4386-b6fe-dfd5743e6491","system_id":"levelo_inurba_marseille","lat":43.297815,"lon":5.393548,"is_reserved":false,"is_disabled":false,"rental_uris":{"android":"levelo://app?vid=99071d52-80dc-4386-b6fe-dfd5743e6491","ios":"levelo://app?vid=99071d52-80dc-4386-b6fe-dfd5743e6491"},"vehicle_type_id":"4","last_reported":1725819099,"current_range_meters":18400,"station_id":"chh1huq6cuj3fo74tm60","pricing_plan_id":"cebpf4jnsgd1na2vs0mg"},{"bike_id":"5e265840-fc21-4e32-a313-f75d9ca40ac5","system_id":"levelo_inurba_marseille","lat":43.33022,"lon":5.39038,"is_reserved":false,"is_disabled":false,"rental_uris":{"android":"levelo://app?vid=5e265840-fc21-4e32-a313-f75d9ca40ac5","ios":"levelo://app?vid=5e265840-fc21-4e32-a313-f75d9ca40ac5"},"vehicle_type_id":"4","last_reported":1725819099,"current_range_meters":9600,"station_id":"ce4bhr92rcd13ifvqhrg","pricing_plan_id":"cebpf4jnsgd1na2vs0mg"},{"bike_id":"796c518e-a25c-409d-9c1b-08c9e0185ef2","system_id":"levelo_inurba_marseille","lat":43.330442,"lon":5.389148,"is_reserved":false,"is_disabled":false,"rental_uris":{"android":"levelo://app?vid=796c518e-a25c-409d-9c1b-08c9e0185ef2","ios":"levelo://app?vid=796c518e-a25c-409d-9c1b-08c9e0185ef2"},"vehicle_type_id":"4","last_reported":1725819099,"current_range_meters":31600,"station_id":"ce4bhr92rcd13ifvqhrg","pricing_plan_id":"cebpf4jnsgd1na2vs0mg"},{"bike_id":"d696e2df-cae8-42f7-801a-90d7771f6694","system_id":"levelo_inurba_marseille","lat":43.33024,"lon":5.39036,"is_reserved":false,"is_disabled":false,"rental_uris":{"android":"levelo://app?vid=d696e2df-cae8-42f7-801a-90d7771f6694","ios":"levelo://app?vid=d696e2df-cae8-42f7-801a-90d7771f6694"},"vehicle_type_id":"4","last_reported":1725819099,"current_range_meters":30400,"station_id":"ce4bhr92rcd13ifvqhrg","pricing_plan_id":"cebpf4jnsgd1na2vs0mg"},{"bike_id":"dd77611c-3df8-46b4-b1e9-5b73f8baba8a","system_id":"levelo_inurba_marseille","lat":43.33025,"lon":5.39035,"is_reserved":false,"is_disabled":false,"rental_uris":{"android":"levelo://app?vid=dd77611c-3df8-46b4-b1e9-5b73f8baba8a","ios":"levelo://app?vid=dd77611c-3df8-46b4-b1e9-5b73f8baba8a"},"vehicle_type_id":"4","last_reported":1725819099,"current_range_meters":31200,"station_id":"ce4bhr92rcd13ifvqhrg","pricing_plan_id":"cebpf4jnsgd1na2vs0mg"},{"bike_id":"a096d293-dc5e-493c-a6ce-e2d3b6e86a8f","system_id":"levelo_inurba_marseille","lat":43.33025,"lon":5.3904,"is_reserved":false,"is_disabled":false,"rental_uris":{"android":"levelo://app?vid=a096d293-dc5e-493c-a6ce-e2d3b6e86a8f","ios":"levelo://app?vid=a096d293-dc5e-493c-a6ce-e2d3b6e86a8f"},"vehicle_type_id":"4","last_reported":1725819099,"current_range_meters":24000,"station_id":"ce4bhr92rcd13ifvqhrg","pricing_plan_id":"cebpf4jnsgd1na2vs0mg"},{"bike_id":"93b047bd-488c-452d-8e23-6ef41cac66e9","system_id":"levelo_inurba_marseille","lat":43.29521,"lon":5.39037,"is_reserved":false,"is_disabled":false,"rental_uris":{"android":"levelo://app?vid=93b047bd-488c-452d-8e23-6ef41cac66e9","ios":"levelo://app?vid=93b047bd-488c-452d-8e23-6ef41cac66e9"},"vehicle_type_id":"4","last_reported":1725819099,"current_range_meters":400,"station_id":"ce4bh3p2rcd13ifvqdp0","pricing_plan_id":"cebpf4jnsgd1na2vs0mg"},{"bike_id":"c6883866-4e07-46d8-9a35-3333b0c9e16a","system_id":"levelo_inurba_marseille","lat":43.330442,"lon":5.389148,"is_reserved":false,"is_disabled":false,"rental_uris":{"android":"levelo://app?vid=c6883866-4e07-46d8-9a35-3333b0c9e16a","ios":"levelo://app?vid=c6883866-4e07-46d8-9a35-3333b0c9e16a"},"vehicle_type_id":"4","last_reported":1725819099,"current_range_meters":24400,"station_id":"ce4bhr92rcd13ifvqhrg","pricing_plan_id":"cebpf4jnsgd1na2vs0mg"},{"bike_id":"b5679bef-3f92-449d-876f-76820b24a6d9","system_id":"levelo_inurba_marseille","lat":43.330442,"lon":5.389148,"is_reserved":false,"is_disabled":false,"rental_uris":{"android":"levelo://app?vid=b5679bef-3f92-449d-876f-76820b24a6d9","ios":"levelo://app?vid=b5679bef-3f92-449d-876f-76820b24a6d9"},"vehicle_type_id":"4","last_reported":1725819099,"current_range_meters":31200,"station_id":"ce4bhr92rcd13ifvqhrg","pricing_plan_id":"cebpf4jnsgd1na2vs0mg"},{"bike_id":"fcf79bb7-34ef-414d-b452-aafb06ab37a5","system_id":"levelo_inurba_marseille","lat":43.29523,"lon":5.39045,"is_reserved":false,"is_disabled":false,"rental_uris":{"android":"levelo://app?vid=fcf79bb7-34ef-414d-b452-aafb06ab37a5","ios":"levelo://app?vid=fcf79bb7-34ef-414d-b452-aafb06ab37a5"},"vehicle_type_id":"4","last_reported":1725819099,"current_range_meters":0,"station_id":"ce4bh3p2rcd13ifvqdp0","pricing_plan_id":"cebpf4jnsgd1na2vs0mg"},{"bike_id":"31938fe7-8dc6-49f0-971e-20e52cc41dac","system_id":"levelo_inurba_marseille","lat":43.330442,"lon":5.389148,"is_reserved":false,"is_disabled":false,"rental_uris":{"android":"levelo://app?vid=31938fe7-8dc6-49f0-971e-20e52cc41dac","ios":"levelo://app?vid=31938fe7-8dc6-49f0-971e-20e52cc41dac"},"vehicle_type_id":"4","last_reported":1725819099,"current_range_meters":28800,"station_id":"ce4bhr92rcd13ifvqhrg","pricing_plan_id":"cebpf4jnsgd1na2vs0mg"},{"bike_id":"440ec097-028c-4ed3-8967-30a2592d1b88","system_id":"levelo_inurba_marseille","lat":43.295169,"lon":5.390426,"is_reserved":false,"is_disabled":false,"rental_uris":{"android":"levelo://app?vid=440ec097-028c-4ed3-8967-30a2592d1b88","ios":"levelo://app?vid=440ec097-028c-4ed3-8967-30a2592d1b88"},"vehicle_type_id":"4","last_reported":1725819099,"current_range_meters":4000,"station_id":"ce4bh3p2rcd13ifvqdp0","pricing_plan_id":"cebpf4jnsgd1na2vs0mg"},{"bike_id":"55cb0dbf-1229-4d47-b7db-ee448ce23597","system_id":"levelo_inurba_marseille","lat":43.330442,"lon":5.389148,"is_reserved":false,"is_disabled":false,"rental_uris":{"android":"levelo://app?vid=55cb0dbf-1229-4d47-b7db-ee448ce23597","ios":"levelo://app?vid=55cb0dbf-1229-4d47-b7db-ee448ce23597"},"vehicle_type_id":"4","last_reported":1725819099,"current_range_meters":17600,"station_id":"ce4bhr92rcd13ifvqhrg","pricing_plan_id":"cebpf4jnsgd1na2vs0mg"},{"bike_id":"996a3484-fba2-4ac3-92e4-c5972e000e92","system_id":"levelo_inurba_marseille","lat":43.30688,"lon":5.3997,"is_reserved":false,"is_disabled":false,"rental_uris":{"android":"levelo://app?vid=996a3484-fba2-4ac3-92e4-c5972e000e92","ios":"levelo://app?vid=996a3484-fba2-4ac3-92e4-c5972e000e92"},"vehicle_type_id":"4","last_reported":1725819099,"current_range_meters":5200,"station_id":"","pricing_plan_id":"cebpf4jnsgd1na2vs0mg"},{"bike_id":"33f13769-52e5-4dc9-9902-03a7cb68979a","system_id":"levelo_inurba_marseille","lat":43.2897,"lon":5.37964,"is_reserved":false,"is_disabled":false,"rental_uris":{"android":"levelo://app?vid=33f13769-52e5-4dc9-9902-03a7cb68979a","ios":"levelo://app?vid=33f13769-52e5-4dc9-9902-03a7cb68979a"},"vehicle_type_id":"4","last_reported":1725819099,"current_range_meters":26800,"station_id":"","pricing_plan_id":"cebpf4jnsgd1na2vs0mg"},{"bike_id":"ba8a5af0-4917-4028-b9d1-cfff66941176","system_id":"levelo_inurba_marseille","lat":43.290094,"lon":5.381264,"is_reserved":false,"is_disabled":false,"rental_uris":{"android":"levelo://app?vid=ba8a5af0-4917-4028-b9d1-cfff66941176","ios":"levelo://app?vid=ba8a5af0-4917-4028-b9d1-cfff66941176"},"vehicle_type_id":"4","last_reported":1725819099,"current_range_meters":3600,"station_id":"ce4bh4p2rcd13ifvqe1g","pricing_plan_id":"cebpf4jnsgd1na2vs0mg"},{"bike_id":"f2427762-1119-4a92-9733-5559bddb44e9","system_id":"levelo_inurba_marseille","lat":43.28856,"lon":5.358371,"is_reserved":false,"is_disabled":false,"rental_uris":{"android":"levelo://app?vid=f2427762-1119-4a92-9733-5559bddb44e9","ios":"levelo://app?vid=f2427762-1119-4a92-9733-5559bddb44e9"},"vehicle_type_id":"4","last_reported":1725819099,"current_range_meters":14800,"station_id":"ce4bhb12rcd13ifvqem0","pricing_plan_id":"cebpf4jnsgd1na2vs0mg"},{"bike_id":"5e11b779-a856-4b48-a799-d1ddf8d18e81","system_id":"levelo_inurba_marseille","lat":43.28856,"lon":5.358371,"is_reserved":false,"is_disabled":false,"rental_uris":{"android":"levelo://app?vid=5e11b779-a856-4b48-a799-d1ddf8d18e81","ios":"levelo://app?vid=5e11b779-a856-4b48-a799-d1ddf8d18e81"},"vehicle_type_id":"4","last_reported":1725819099,"current_range_meters":6400,"station_id":"ce4bhb12rcd13ifvqem0","pricing_plan_id":"cebpf4jnsgd1na2vs0mg"},{"bike_id":"f93efed2-9dc1-46c7-afe4-63f885c1fa1e","system_id":"levelo_inurba_marseille","lat":43.28856,"lon":5.358371,"is_reserved":false,"is_disabled":false,"rental_uris":{"android":"levelo://app?vid=f93efed2-9dc1-46c7-afe4-63f885c1fa1e","ios":"levelo://app?vid=f93efed2-9dc1-46c7-afe4-63f885c1fa1e"},"vehicle_type_id":"4","last_reported":1725819099,"current_range_meters":3200,"station_id":"ce4bhb12rcd13ifvqem0","pricing_plan_id":"cebpf4jnsgd1na2vs0mg"},{"bike_id":"b11d40c4-1663-4798-84d3-35510d46961c","system_id":"levelo_inurba_marseille","lat":43.2901,"lon":5.381269,"is_reserved":false,"is_disabled":false,"rental_uris":{"android":"levelo://app?vid=b11d40c4-1663-4798-84d3-35510d46961c","ios":"levelo://app?vid=b11d40c4-1663-4798-84d3-35510d46961c"},"vehicle_type_id":"4","last_reported":1725819099,"current_range_meters":13200,"station_id":"ce4bh4p2rcd13ifvqe1g","pricing_plan_id":"cebpf4jnsgd1na2vs0mg"},{"bike_id":"40565d8c-4159-4883-b3f0-28e961f6be9e","system_id":"levelo_inurba_marseille","lat":43.337073,"lon":5.357773,"is_reserved":false,"is_disabled":false,"rental_uris":{"android":"levelo://app?vid=40565d8c-4159-4883-b3f0-28e961f6be9e","ios":"levelo://app?vid=40565d8c-4159-4883-b3f0-28e961f6be9e"},"vehicle_type_id":"4","last_reported":1725819099,"current_range_meters":10800,"station_id":"","pricing_plan_id":"cebpf4jnsgd1na2vs0mg"},{"bike_id":"028fb309-825d-43a6-8fdc-a6c3130aae94","system_id":"levelo_inurba_marseille","lat":43.312609,"lon":5.401662,"is_reserved":false,"is_disabled":false,"rental_uris":{"android":"levelo://app?vid=028fb309-825d-43a6-8fdc-a6c3130aae94","ios":"levelo://app?vid=028fb309-825d-43a6-8fdc-a6c3130aae94"},"vehicle_type_id":"4","last_reported":1725819099,"current_range_meters":17200,"station_id":"ce4bh092rcd13ifvqd30","pricing_plan_id":"cebpf4jnsgd1na2vs0mg"},{"bike_id":"cf7e7489-e1ac-4207-91e0-7076ae7b72fe","system_id":"levelo_inurba_marseille","lat":43.309371,"lon":5.401449,"is_reserved":false,"is_disabled":false,"rental_uris":{"android":"levelo://app?vid=cf7e7489-e1ac-4207-91e0-7076ae7b72fe","ios":"levelo://app?vid=cf7e7489-e1ac-4207-91e0-7076ae7b72fe"},"vehicle_type_id":"4","last_reported":1725819099,"current_range_meters":11600,"station_id":"ce4bgvp2rcd13ifvqct0","pricing_plan_id":"cebpf4jnsgd1na2vs0mg"},{"bike_id":"a9fbb9b6-d6a0-47e6-b870-62e6ba0f4742","system_id":"levelo_inurba_marseille","lat":43.312609,"lon":5.401662,"is_reserved":false,"is_disabled":false,"rental_uris":{"android":"levelo://app?vid=a9fbb9b6-d6a0-47e6-b870-62e6ba0f4742","ios":"levelo://app?vid=a9fbb9b6-d6a0-47e6-b870-62e6ba0f4742"},"vehicle_type_id":"4","last_reported":1725819099,"current_range_meters":25600,"station_id":"ce4bh092rcd13ifvqd30","pricing_plan_id":"cebpf4jnsgd1na2vs0mg"},{"bike_id":"3f3244df-bee4-4437-b2a1-ab9135c8e39a","system_id":"levelo_inurba_marseille","lat":43.33755,"lon":5.37455,"is_reserved":false,"is_disabled":false,"rental_uris":{"android":"levelo://app?vid=3f3244df-bee4-4437-b2a1-ab9135c8e39a","ios":"levelo://app?vid=3f3244df-bee4-4437-b2a1-ab9135c8e39a"},"vehicle_type_id":"4","last_reported":1725819099,"current_range_meters":15200,"station_id":"","pricing_plan_id":"cebpf4jnsgd1na2vs0mg"},{"bike_id":"45985ff5-fc75-4626-9a62-c7067a0f7ca9","system_id":"levelo_inurba_marseille","lat":43.337559,"lon":5.374528,"is_reserved":false,"is_disabled":false,"rental_uris":{"android":"levelo://app?vid=45985ff5-fc75-4626-9a62-c7067a0f7ca9","ios":"levelo://app?vid=45985ff5-fc75-4626-9a62-c7067a0f7ca9"},"vehicle_type_id":"4","last_reported":1725819099,"current_range_meters":28800,"station_id":"","pricing_plan_id":"cebpf4jnsgd1na2vs0mg"},{"bike_id":"39f5af82-2d9d-49b5-9de0-0477144a0224","system_id":"levelo_inurba_marseille","lat":43.33756,"lon":5.37457,"is_reserved":false,"is_disabled":false,"rental_uris":{"android":"levelo://app?vid=39f5af82-2d9d-49b5-9de0-0477144a0224","ios":"levelo://app?vid=39f5af82-2d9d-49b5-9de0-0477144a0224"},"vehicle_type_id":"4","last_reported":1725819099,"current_range_meters":18400,"station_id":"","pricing_plan_id":"cebpf4jnsgd1na2vs0mg"},{"bike_id":"fe6eab0b-521c-43c2-ac6f-9f8075476e27","system_id":"levelo_inurba_marseille","lat":43.309371,"lon":5.401449,"is_reserved":false,"is_disabled":false,"rental_uris":{"android":"levelo://app?vid=fe6eab0b-521c-43c2-ac6f-9f8075476e27","ios":"levelo://app?vid=fe6eab0b-521c-43c2-ac6f-9f8075476e27"},"vehicle_type_id":"4","last_reported":1725819099,"current_range_meters":19600,"station_id":"ce4bgvp2rcd13ifvqct0","pricing_plan_id":"cebpf4jnsgd1na2vs0mg"},{"bike_id":"52af19a2-6f07-45c3-9130-f5353323144e","system_id":"levelo_inurba_marseille","lat":43.30634,"lon":5.40096,"is_reserved":false,"is_disabled":false,"rental_uris":{"android":"levelo://app?vid=52af19a2-6f07-45c3-9130-f5353323144e","ios":"levelo://app?vid=52af19a2-6f07-45c3-9130-f5353323144e"},"vehicle_type_id":"4","last_reported":1725819099,"current_range_meters":18400,"station_id":"ce4bh112rcd13ifvqda0","pricing_plan_id":"cebpf4jnsgd1na2vs0mg"},{"bike_id":"d1dca370-4f63-4d9d-b58b-47ab49257cee","system_id":"levelo_inurba_marseille","lat":43.301117,"lon":5.398795,"is_reserved":false,"is_disabled":false,"rental_uris":{"android":"levelo://app?vid=d1dca370-4f63-4d9d-b58b-47ab49257cee","ios":"levelo://app?vid=d1dca370-4f63-4d9d-b58b-47ab49257cee"},"vehicle_type_id":"4","last_reported":1725819099,"current_range_meters":28800,"station_id":"ce4bh0h2rcd13ifvqd40","pricing_plan_id":"cebpf4jnsgd1na2vs0mg"},{"bike_id":"8041c972-8dea-4243-8fdd-7bb34a5eb18f","system_id":"levelo_inurba_marseille","lat":43.301117,"lon":5.398795,"is_reserved":false,"is_disabled":false,"rental_uris":{"android":"levelo://app?vid=8041c972-8dea-4243-8fdd-7bb34a5eb18f","ios":"levelo://app?vid=8041c972-8dea-4243-8fdd-7bb34a5eb18f"},"vehicle_type_id":"4","last_reported":1725819099,"current_range_meters":30800,"station_id":"ce4bh0h2rcd13ifvqd40","pricing_plan_id":"cebpf4jnsgd1na2vs0mg"},{"bike_id":"c0a5e885-b9d5-4210-8369-3d5be9793a0f","system_id":"levelo_inurba_marseille","lat":43.28727,"lon":5.36078,"is_reserved":false,"is_disabled":false,"rental_uris":{"android":"levelo://app?vid=c0a5e885-b9d5-4210-8369-3d5be9793a0f","ios":"levelo://app?vid=c0a5e885-b9d5-4210-8369-3d5be9793a0f"},"vehicle_type_id":"4","last_reported":1725819099,"current_range_meters":12400,"station_id":"cki0cbj6b192h4jlfktg","pricing_plan_id":"cebpf4jnsgd1na2vs0mg"},{"bike_id":"13b2060d-f8de-497e-a066-0fa882e2eefb","system_id":"levelo_inurba_marseille","lat":43.301117,"lon":5.398795,"is_reserved":false,"is_disabled":false,"rental_uris":{"android":"levelo://app?vid=13b2060d-f8de-497e-a066-0fa882e2eefb","ios":"levelo://app?vid=13b2060d-f8de-497e-a066-0fa882e2eefb"},"vehicle_type_id":"4","last_reported":1725819099,"current_range_meters":22000,"station_id":"ce4bh0h2rcd13ifvqd40","pricing_plan_id":"cebpf4jnsgd1na2vs0mg"},{"bike_id":"5b8ffb3b-ad7f-4b93-ac48-8ff81e678da7","system_id":"levelo_inurba_marseille","lat":43.286591,"lon":5.363346,"is_reserved":false,"is_disabled":false,"rental_uris":{"android":"levelo://app?vid=5b8ffb3b-ad7f-4b93-ac48-8ff81e678da7","ios":"levelo://app?vid=5b8ffb3b-ad7f-4b93-ac48-8ff81e678da7"},"vehicle_type_id":"4","last_reported":1725819099,"current_range_meters":14400,"station_id":"ce4bhah2rcd13ifvqej0","pricing_plan_id":"cebpf4jnsgd1na2vs0mg"},{"bike_id":"aeb44cf5-2164-4471-825c-b06a9a3e537c","system_id":"levelo_inurba_marseille","lat":43.286591,"lon":5.363346,"is_reserved":false,"is_disabled":false,"rental_uris":{"android":"levelo://app?vid=aeb44cf5-2164-4471-825c-b06a9a3e537c","ios":"levelo://app?vid=aeb44cf5-2164-4471-825c-b06a9a3e537c"},"vehicle_type_id":"4","last_reported":1725819099,"current_range_meters":21200,"station_id":"ce4bhah2rcd13ifvqej0","pricing_plan_id":"cebpf4jnsgd1na2vs0mg"},{"bike_id":"2ec75579-66fc-453a-bd6f-dac4ee9d651f","system_id":"levelo_inurba_marseille","lat":43.286593,"lon":5.363346,"is_reserved":false,"is_disabled":false,"rental_uris":{"android":"levelo://app?vid=2ec75579-66fc-453a-bd6f-dac4ee9d651f","ios":"levelo://app?vid=2ec75579-66fc-453a-bd6f-dac4ee9d651f"},"vehicle_type_id":"4","last_reported":1725819099,"current_range_meters":22400,"station_id":"ce4bhah2rcd13ifvqej0","pricing_plan_id":"cebpf4jnsgd1na2vs0mg"},{"bike_id":"eebe1182-07ae-4a90-86b1-9bc8ce5f1a1f","system_id":"levelo_inurba_marseille","lat":43.286961,"lon":5.373785,"is_reserved":false,"is_disabled":false,"rental_uris":{"android":"levelo://app?vid=eebe1182-07ae-4a90-86b1-9bc8ce5f1a1f","ios":"levelo://app?vid=eebe1182-07ae-4a90-86b1-9bc8ce5f1a1f"},"vehicle_type_id":"4","last_reported":1725819099,"current_range_meters":29200,"station_id":"ce4bh3p2rcd13ifvqdq0","pricing_plan_id":"cebpf4jnsgd1na2vs0mg"},{"bike_id":"49dcafb9-fe0c-48aa-b711-b59fa35ac089","system_id":"levelo_inurba_marseille","lat":43.286593,"lon":5.363346,"is_reserved":false,"is_disabled":false,"rental_uris":{"android":"levelo://app?vid=49dcafb9-fe0c-48aa-b711-b59fa35ac089","ios":"levelo://app?vid=49dcafb9-fe0c-48aa-b711-b59fa35ac089"},"vehicle_type_id":"4","last_reported":1725819099,"current_range_meters":19600,"station_id":"ce4bhah2rcd13ifvqej0","pricing_plan_id":"cebpf4jnsgd1na2vs0mg"},{"bike_id":"beb465cd-1d8e-429f-882a-4f09137007b4","system_id":"levelo_inurba_marseille","lat":43.286591,"lon":5.363346,"is_reserved":false,"is_disabled":false,"rental_uris":{"android":"levelo://app?vid=beb465cd-1d8e-429f-882a-4f09137007b4","ios":"levelo://app?vid=beb465cd-1d8e-429f-882a-4f09137007b4"},"vehicle_type_id":"4","last_reported":1725819099,"current_range_meters":5200,"station_id":"ce4bhah2rcd13ifvqej0","pricing_plan_id":"cebpf4jnsgd1na2vs0mg"},{"bike_id":"c7faf070-fafa-4fe3-a3af-b7c807dd7d2a","system_id":"levelo_inurba_marseille","lat":43.298681,"lon":5.397225,"is_reserved":false,"is_disabled":false,"rental_uris":{"android":"levelo://app?vid=c7faf070-fafa-4fe3-a3af-b7c807dd7d2a","ios":"levelo://app?vid=c7faf070-fafa-4fe3-a3af-b7c807dd7d2a"},"vehicle_type_id":"4","last_reported":1725819099,"current_range_meters":22800,"station_id":"ce4bh0h2rcd13ifvqd50","pricing_plan_id":"cebpf4jnsgd1na2vs0mg"},{"bike_id":"60c500b1-67f9-49e0-9214-60cc8245d1be","system_id":"levelo_inurba_marseille","lat":43.298681,"lon":5.397225,"is_reserved":false,"is_disabled":false,"rental_uris":{"android":"levelo://app?vid=60c500b1-67f9-49e0-9214-60cc8245d1be","ios":"levelo://app?vid=60c500b1-67f9-49e0-9214-60cc8245d1be"},"vehicle_type_id":"4","last_reported":1725819099,"current_range_meters":2000,"station_id":"ce4bh0h2rcd13ifvqd50","pricing_plan_id":"cebpf4jnsgd1na2vs0mg"},{"bike_id":"661e16f4-c8b4-426f-bf47-f8ee0775fd61","system_id":"levelo_inurba_marseille","lat":43.28699,"lon":5.37395,"is_reserved":false,"is_disabled":false,"rental_uris":{"android":"levelo://app?vid=661e16f4-c8b4-426f-bf47-f8ee0775fd61","ios":"levelo://app?vid=661e16f4-c8b4-426f-bf47-f8ee0775fd61"},"vehicle_type_id":"4","last_reported":1725819099,"current_range_meters":18800,"station_id":"ce4bh3p2rcd13ifvqdq0","pricing_plan_id":"cebpf4jnsgd1na2vs0mg"},