{"last_updated":1718298430,"ttl":30,"version":"2.2","data":{"bikes":[{"bike_id":"054aaeb1-5aa5-476d-a92d-d31b6af42060","system_id":"levelo_inurba_marseille","lat":43.312239,"lon":5.368562,"is_reserved":false,"is_disabled":false,"rental_uris":{"android":"levelo://app?vid=054aaeb1-5aa5-476d-a92d-d31b6af42060","ios":"levelo://app?vid=054aaeb1-5aa5-476d-a92d-d31b6af42060"},"vehicle_type_id":"4","last_reported":1718298430,"current_range_meters":5600,"station_id":"ce4bgl92rcd13ifvqbq0","pricing_plan_id":"cebpf4jnsgd1na2vs0mg"},{"bike_id":"f2618b72-f0c9-4911-b59f-1e9e5cc788ea","system_id":"levelo_inurba_marseille","lat":43.312239,"lon":5.368562,"is_reserved":false,"is_disabled":false,"rental_uris":{"android":"levelo://app?vid=f2618b72-f0c9-4911-b59f-1e9e5cc788ea","ios":"levelo://app?vid=f2618b72-f0c9-4911-b59f-1e9e5cc788ea"},"vehicle_type_id":"4","last_reported":1718298430,"current_range_meters":0,"station_id":"ce4bgl92rcd13ifvqbq0","pricing_plan_id":"cebpf4jnsgd1na2vs0mg"},{"bike_id":"3edbeda6-c41a-4cbd-9cd3-07421d42c765","system_id":"levelo_inurba_marseille","lat":43.312239,"lon":5.368562,"is_reserved":false,"is_disabled":false,"rental_uris":{"android":"levelo://app?vid=3edbeda6-c41a-4cbd-9cd3-07421d42c765","ios":"levelo://app?vid=3edbeda6-c41a-4cbd-9cd3-07421d42c765"},"vehicle_type_id":"4","last_reported":1718298430,"current_range_meters":400,"station_id":"ce4bgl92rcd13ifvqbq0","pricing_plan_id":"cebpf4jnsgd1na2vs0mg"},{"bike_id":"48133539-2fc0-453a-b5b5-2d590db772d3","system_id":"levelo_inurba_marseille","lat":43.312239,"lon":5.368562,"is_reserved":false,"is_disabled":false,"rental_uris":{"android":"levelo://app?vid=48133539-2fc0-453a-b5b5-2d590db772d3","ios":"levelo://app?vid=48133539-2fc0-453a-b5b5-2d590db772d3"},"vehicle_type_id":"4","last_reported":1718298430,"current_range_meters":3200,"station_id":"ce4bgl92rcd13ifvqbq0","pricing_plan_id":"cebpf4jnsgd1na2vs0mg"},{"bike_id":"f0bd4066-4c62-4fb8-a949-8a07a9197145","system_id":"levelo_inurba_marseille","lat":43.31498,"lon":5.37288,"is_reserved":false,"is_disabled":false,"rental_uris":{"android":"levelo://app?vid=f0bd4066-4c62-4fb8-a949-8a07a9197145","ios":"levelo://app?vid=f0bd4066-4c62-4fb8-a949-8a07a9197145"},"vehicle_type_id":"4","last_reported":1718298430,"current_range_meters":27200,"station_id":"ce4bgt12rcd13ifvqcd0","pricing_plan_id":"cebpf4jnsgd1na2vs0mg"},{"bike_id":"9fff2846-e087-4d04-a497-e18710ea2ce7","system_id":"levelo_inurba_marseille","lat":43.31491,"lon":5.373,"is_reserved":false,"is_disabled":false,"rental_uris":{"android":"levelo://app?vid=9fff2846-e087-4d04-a497-e18710ea2ce7","ios":"levelo://app?vid=9fff2846-e087-4d04-a497-e18710ea2ce7"},"vehicle_type_id":"4","last_reported":1718298430,"current_range_meters":0,"station_id":"ce4bgt12rcd13ifvqcd0","pricing_plan_id":"cebpf4jnsgd1na2vs0mg"},{"bike_id":"54bb31d0-8bee-4ead-a8bd-37edca7df7d4","system_id":"levelo_inurba_marseille","lat":43.31494,"lon":5.37306,"is_reserved":false,"is_disabled":false,"rental_uris":{"android":"levelo://app?vid=54bb31d0-8bee-4ead-a8bd-37edca7df7d4","ios":"levelo://app?vid=54bb31d0-8bee-4ead-a8bd-37edca7df7d4"},"vehicle_type_id":"4","last_reported":1718298430,"current_range_meters":0,"station_id":"ce4bgt12rcd13ifvqcd0","pricing_plan_id":"cebpf4jnsgd1na2vs0mg"},{"bike_id":"48a55049-db43-4c5a-8a3e-285af166fc4c","system_id":"levelo_inurba_marseille","lat":43.309034,"lon":5.371783,"is_reserved":false,"is_disabled":false,"rental_uris":{"android":"levelo://app?vid=48a55049-db43-4c5a-8a3e-285af166fc4c","ios":"levelo://app?vid=48a55049-db43-4c5a-8a3e-285af166fc4c"},"vehicle_type_id":"4","last_reported":1718298430,"current_range_meters":10800,"station_id":"ce4bguh2rcd13ifvqckg","pricing_plan_id":"cebpf4jnsgd1na2vs0mg"},{"bike_id":"6f41681e-4e57-4e3f-893d-6676640bce5a","system_id":"levelo_inurba_marseille","lat":43.305714,"lon":5.365633,"is_reserved":false,"is_disabled":false,"rental_uris":{"android":"levelo://app?vid=6f41681e-4e57-4e3f-893d-6676640bce5a","ios":"levelo://app?vid=6f41681e-4e57-4e3f-893d-6676640bce5a"},"vehicle_type_id":"4","last_reported":1718298430,"current_range_meters":22000,"station_id":"ce4bgs12rcd13ifvqcag","pricing_plan_id":"cebpf4jnsgd1na2vs0mg"},{"bike_id":"ee3944f2-07c0-4f00-a72b-19599a8b02a3","system_id":"levelo_inurba_marseille","lat":43.305706,"lon":5.365654,"is_reserved":false,"is_disabled":false,"rental_uris":{"android":"levelo://app?vid=ee3944f2-07c0-4f00-a72b-19599a8b02a3","ios":"levelo://app?vid=ee3944f2-07c0-4f00-a72b-19599a8b02a3"},"vehicle_type_id":"4","last_reported":1718298430,"current_range_meters":29200,"station_id":"ce4bgs12rcd13ifvqcag","pricing_plan_id":"cebpf4jnsgd1na2vs0mg"},{"bike_id":"22782bf1-859a-4bbc-bd56-549742805720","system_id":"levelo_inurba_marseille","lat":43.305989,"lon":5.37225,"is_reserved":false,"is_disabled":false,"rental_uris":{"android":"levelo://app?vid=22782bf1-859a-4bbc-bd56-549742805720","ios":"levelo://app?vid=22782bf1-859a-4bbc-bd56-549742805720"},"vehicle_type_id":"4","last_reported":1718298430,"current_range_meters":12800,"station_id":"ce4bgqh2rcd13ifvqc4g","pricing_plan_id":"cebpf4jnsgd1na2vs0mg"},{"bike_id":"bfe09466-d57d-4f49-95ea-0329dae20592","system_id":"levelo_inurba_marseille","lat":43.31126,"lon":5.37763,"is_reserved":false,"is_disabled":false,"rental_uris":{"android":"levelo://app?vid=bfe09466-d57d-4f49-95ea-0329dae20592","ios":"levelo://app?vid=bfe09466-d57d-4f49-95ea-0329dae20592"},"vehicle_type_id":"4","last_reported":1718298430,"current_range_meters":4800,"station_id":"ce4bgt92rcd13ifvqcg0","pricing_plan_id":"cebpf4jnsgd1na2vs0mg"},{"bike_id":"cb2cf732-0c5c-45d5-9177-d189c8530010","system_id":"levelo_inurba_marseille","lat":43.311125,"lon":5.377624,"is_reserved":false,"is_disabled":false,"rental_uris":{"android":"levelo://app?vid=cb2cf732-0c5c-45d5-9177-d189c8530010","ios":"levelo://app?vid=cb2cf732-0c5c-45d5-9177-d189c8530010"},"vehicle_type_id":"4","last_reported":1718298430,"current_range_meters":20000,"station_id":"ce4bgt92rcd13ifvqcg0","pricing_plan_id":"cebpf4jnsgd1na2vs0mg"},{"bike_id":"e20418dd-fdeb-4457-ac0e-470e7a9b4106","system_id":"levelo_inurba_marseille","lat":43.305989,"lon":5.37225,"is_reserved":false,"is_disabled":false,"rental_uris":{"android":"levelo://app?vid=e20418dd-fdeb-4457-ac0e-470e7a9b4106","ios":"levelo://app?vid=e20418dd-fdeb-4457-ac0e-470e7a9b4106"},"vehicle_type_id":"4","last_reported":1718298430,"current_range_meters":0,"station_id":"ce4bgqh2rcd13ifvqc4g","pricing_plan_id":"cebpf4jnsgd1na2vs0mg"},{"bike_id":"a39556ba-3c22-4e5d-84b9-51ac6ddc9ce5","system_id":"levelo_inurba_marseille","lat":43.31105,"lon":5.37769,"is_reserved":false,"is_disabled":false,"rental_uris":{"android":"levelo://app?vid=a39556ba-3c22-4e5d-84b9-51ac6ddc9ce5","ios":"levelo://app?vid=a39556ba-3c22-4e5d-84b9-51ac6ddc9ce5"},"vehicle_type_id":"4","last_reported":1718298430,"current_range_meters":0,"station_id":"ce4bgt92rcd13ifvqcg0","pricing_plan_id":"cebpf4jnsgd1na2vs0mg"},{"bike_id":"ea069927-c651-4412-823e-4d72b11da9a7","system_id":"levelo_inurba_marseille","lat":43.307945,"lon":5.376487,"is_reserved":false,"is_disabled":false,"rental_uris":{"android":"levelo://app?vid=ea069927-c651-4412-823e-4d72b11da9a7","ios":"levelo://app?vid=ea069927-c651-4412-823e-4d72b11da9a7"},"vehicle_type_id":"4","last_reported":1718298430,"current_range_meters":5200,"station_id":"ce4bgv92rcd13ifvqcq0","pricing_plan_id":"cebpf4jnsgd1na2vs0mg"},{"bike_id":"2becae45-e7cf-445a-a476-6c20464fbd10","system_id":"levelo_inurba_marseille","lat":43.317075,"lon":5.377367,"is_reserved":false,"is_disabled":false,"rental_uris":{"android":"levelo://app?vid=2becae45-e7cf-445a-a476-6c20464fbd10","ios":"levelo://app?vid=2becae45-e7cf-445a-a476-6c20464fbd10"},"vehicle_type_id":"4","last_reported":1718298430,"current_range_meters":2800,"station_id":"ce4bgth2rcd13ifvqch0","pricing_plan_id":"cebpf4jnsgd1na2vs0mg"},{"bike_id":"abd3f0ce-c6ea-488c-9dab-5e84a5d28020","system_id":"levelo_inurba_marseille","lat":43.315333,"lon":5.380307,"is_reserved":false,"is_disabled":false,"rental_uris":{"android":"levelo://app?vid=abd3f0ce-c6ea-488c-9dab-5e84a5d28020","ios":"levelo://app?vid=abd3f0ce-c6ea-488c-9dab-5e84a5d28020"},"vehicle_type_id":"4","last_reported":1718298430,"current_range_meters":17600,"station_id":"ce4bhsp2rcd13ifvqi50","pricing_plan_id":"cebpf4jnsgd1na2vs0mg"},{"bike_id":"1fd89d27-531f-4853-910c-d22016301f31","system_id":"levelo_inurba_marseille","lat":43.31531,"lon":5.38032,"is_reserved":false,"is_disabled":false,"rental_uris":{"android":"levelo://app?vid=1fd89d27-531f-4853-910c-d22016301f31","ios":"levelo://app?vid=1fd89d27-531f-4853-910c-d22016301f31"},"vehicle_type_id":"4","last_reported":1718298430,"current_range_meters":11600,"station_id":"ce4bhsp2rcd13ifvqi50","pricing_plan_id":"cebpf4jnsgd1na2vs0mg"},{"bike_id":"9d73d719-811f-462e-8209-71298a7d1deb","system_id":"levelo_inurba_marseille","lat":43.31527,"lon":5.38034,"is_reserved":false,"is_disabled":false,"rental_uris":{"android":"levelo://app?vid=9d73d719-811f-462e-8209-71298a7d1deb","ios":"levelo://app?vid=9d73d719-811f-462e-8209-71298a7d1deb"},"vehicle_type_id":"4","last_reported":1718298430,"current_range_meters":14400,"station_id":"ce4bhsp2rcd13ifvqi50","pricing_plan_id":"cebpf4jnsgd1na2vs0mg"},{"bike_id":"1f067e65-d96a-4bf7-b927-8071b57519ea","system_id":"levelo_inurba_marseille","lat":43.31536,"lon":5.38032,"is_reserved":false,"is_disabled":false,"rental_uris":{"android":"levelo://app?vid=1f067e65-d96a-4bf7-b927-8071b57519ea","ios":"levelo://app?vid=1f067e65-d96a-4bf7-b927-8071b57519ea"},"vehicle_type_id":"4","last_reported":1718298430,"current_range_meters":8800,"station_id":"ce4bhsp2rcd13ifvqi50","pricing_plan_id":"cebpf4jnsgd1na2vs0mg"},{"bike_id":"8087cd6e-197d-4205-b76c-55461884944f","system_id":"levelo_inurba_marseille","lat":43.308012,"lon":5.381511,"is_reserved":false,"is_disabled":false,"rental_uris":{"android":"levelo://app?vid=8087cd6e-197d-4205-b76c-55461884944f","ios":"levelo://app?vid=8087cd6e-197d-4205-b76c-55461884944f"},"vehicle_type_id":"4","last_reported":1718298430,"current_range_meters":8400,"station_id":"ce4bgt12rcd13ifvqce0","pricing_plan_id":"cebpf4jnsgd1na2vs0mg"},{"bike_id":"89c4131e-373e-4a53-9fac-73d213c0c046","system_id":"levelo_inurba_marseille","lat":43.324771,"lon":5.36557,"is_reserved":false,"is_disabled":false,"rental_uris":{"android":"levelo://app?vid=89c4131e-373e-4a53-9fac-73d213c0c046","ios":"levelo://app?vid=89c4131e-373e-4a53-9fac-73d213c0c046"},"vehicle_type_id":"4","last_reported":1718298430,"current_range_meters":14000,"station_id":"ce4bhs12rcd13ifvqhvg","pricing_plan_id":"cebpf4jnsgd1na2vs0mg"},{"bike_id":"511c518a-f6d2-4ffa-b235-90b75af5e615","system_id":"levelo_inurba_marseille","lat":43.324771,"lon":5.36557,"is_reserved":false,"is_disabled":false,"rental_uris":{"android":"levelo://app?vid=511c518a-f6d2-4ffa-b235-90b75af5e615","ios":"levelo://app?vid=511c518a-f6d2-4ffa-b235-90b75af5e615"},"vehicle_type_id":"4","last_reported":1718298430,"current_range_meters":14800,"station_id":"ce4bhs12rcd13ifvqhvg","pricing_plan_id":"cebpf4jnsgd1na2vs0mg"},{"bike_id":"58419a0f-118d-4f45-9ac7-aae8039e1893","system_id":"levelo_inurba_marseille","lat":43.324771,"lon":5.36557,"is_reserved":false,"is_disabled":false,"rental_uris":{"android":"levelo://app?vid=58419a0f-118d-4f45-9ac7-aae8039e1893","ios":"levelo://app?vid=58419a0f-118d-4f45-9ac7-aae8039e1893"},"vehicle_type_id":"4","last_reported":1718298430,"current_range_meters":24000,"station_id":"ce4bhs12rcd13ifvqhvg","pricing_plan_id":"cebpf4jnsgd1na2vs0mg"},{"bike_id":"55f18821-3924-464d-9e7f-ffb838150c38","system_id":"levelo_inurba_marseille","lat":43.324771,"lon":5.36557,"is_reserved":false,"is_disabled":false,"rental_uris":{"android":"levelo://app?vid=55f18821-3924-464d-9e7f-ffb838150c38","ios":"levelo://app?vid=55f18821-3924-464d-9e7f-ffb838150c38"},"vehicle_type_id":"4","last_reported":1718298430,"current_range_meters":0,"station_id":"ce4bhs12rcd13ifvqhvg","pricing_plan_id":"cebpf4jnsgd1na2vs0mg"},{"bike_id":"6d4fbdf9-b77e-40d4-b711-147d26ec3d92","system_id":"levelo_inurba_marseille","lat":43.324771,"lon":5.36557,"is_reserved":false,"is_disabled":false,"rental_uris":{"android":"levelo://app?vid=6d4fbdf9-b77e-40d4-b711-147d26ec3d92","ios":"levelo://app?vid=6d4fbdf9-b77e-40d4-b711-147d26ec3d92"},"vehicle_type_id":"4","last_reported":1718298430,"current_range_meters":6400,"station_id":"ce4bhs12rcd13ifvqhvg","pricing_plan_id":"cebpf4jnsgd1na2vs0mg"},{"bike_id":"5be4b990-c8c4-4614-b242-e15f3664177a","system_id":"levelo_inurba_marseille","lat":43.324771,"lon":5.36557,"is_reserved":false,"is_disabled":false,"rental_uris":{"android":"levelo://app?vid=5be4b990-c8c4-4614-b242-e15f3664177a","ios":"levelo://app?vid=5be4b990-c8c4-4614-b242-e15f3664177a"},"vehicle_type_id":"4","last_reported":1718298430,"current_range_meters":13200,"station_id":"ce4bhs12rcd13ifvqhvg","pricing_plan_id":"cebpf4jnsgd1na2vs0mg"},{"bike_id":"3273d515-b01d-4214-b20a-10459751b171","system_id":"levelo_inurba_marseille","lat":43.324771,"lon":5.36557,"is_reserved":false,"is_disabled":false,"rental_uris":{"android":"levelo://app?vid=3273d515-b01d-4214-b20a-10459751b171","ios":"levelo://app?vid=3273d515-b01d-4214-b20a-10459751b171"},"vehicle_type_id":"4","last_reported":1718298430,"current_range_meters":9600,"station_id":"ce4bhs12rcd13ifvqhvg","pricing_plan_id":"cebpf4jnsgd1na2vs0mg"},{"bike_id":"9d8d6f44-38de-44be-8639-c02166f293b3","system_id":"levelo_inurba_marseille","lat":43.324771,"lon":5.36557,"is_reserved":false,"is_disabled":false,"rental_uris":{"android":"levelo://app?vid=9d8d6f44-38de-44be-8639-c02166f293b3","ios":"levelo://app?vid=9d8d6f44-38de-44be-8639-c02166f293b3"},"vehicle_type_id":"4","last_reported":1718298430,"current_range_meters":10000,"station_id":"ce4bhs12rcd13ifvqhvg","pricing_plan_id":"cebpf4jnsgd1na2vs0mg"},{"bike_id":"feeac2dc-693e-4ae6-8cdb-6f0dcc701dc6","system_id":"levelo_inurba_marseille","lat":43.324771,"lon":5.36557,"is_reserved":false,"is_disabled":false,"rental_uris":{"android":"levelo://app?vid=feeac2dc-693e-4ae6-8cdb-6f0dcc701dc6","ios":"levelo://app?vid=feeac2dc-693e-4ae6-8cdb-6f0dcc701dc6"},"vehicle_type_id":"4","last_reported":1718298430,"current_range_meters":28400,"station_id":"ce4bhs12rcd13ifvqhvg","pricing_plan_id":"cebpf4jnsgd1na2vs0mg"},{"bike_id":"a45fd7fa-7df7-4239-9644-57aec530988d","system_id":"levelo_inurba_marseille","lat":43.324771,"lon":5.36557,"is_reserved":false,"is_disabled":false,"rental_uris":{"android":"levelo://app?vid=a45fd7fa-7df7-4239-9644-57aec530988d","ios":"levelo://app?vid=a45fd7fa-7df7-4239-9644-57aec530988d"},"vehicle_type_id":"4","last_reported":1718298430,"current_range_meters":20800,"station_id":"ce4bhs12rcd13ifvqhvg","pricing_plan_id":"cebpf4jnsgd1na2vs0mg"},{"bike_id":"02f7ce58-e8a0-4068-85c7-b7685229a92f","system_id":"levelo_inurba_marseille","lat":43.324771,"lon":5.36557,"is_reserved":false,"is_disabled":false,"rental_uris":{"android":"levelo://app?vid=02f7ce58-e8a0-4068-85c7-b7685229a92f","ios":"levelo://app?vid=02f7ce58-e8a0-4068-85c7-b7685229a92f"},"vehicle_type_id":"4","last_reported":1718298430,"current_range_meters":11600,"station_id":"ce4bhs12rcd13ifvqhvg","pricing_plan_id":"cebpf4jnsgd1na2vs0mg"},{"bike_id":"24f9cf89-512b-4c13-a8a0-385806c102f7","system_id":"levelo_inurba_marseille","lat":43.310804,"lon":5.38359,"is_reserved":false,"is_disabled":false,"rental_uris":{"android":"levelo://app?vid=24f9cf89-512b-4c13-a8a0-385806c102f7","ios":"levelo://app?vid=24f9cf89-512b-4c13-a8a0-385806c102f7"},"vehicle_type_id":"4","last_reported":1718298430,"current_range_meters":28000,"station_id":"ce4bgv92rcd13ifvqcr0","pricing_plan_id":"cebpf4jnsgd1na2vs0mg"},{"bike_id":"76cb65a1-5dd1-4554-9256-579da5c71db9","system_id":"levelo_inurba_marseille","lat":43.31074,"lon":5.38353,"is_reserved":false,"is_disabled":false,"rental_uris":{"android":"levelo://app?vid=76cb65a1-5dd1-4554-9256-579da5c71db9","ios":"levelo://app?vid=76cb65a1-5dd1-4554-9256-579da5c71db9"},"vehicle_type_id":"4","last_reported":1718298430,"current_range_meters":0,"station_id":"ce4bgv92rcd13ifvqcr0","pricing_plan_id":"cebpf4jnsgd1na2vs0mg"},{"bike_id":"ba9f6577-0a20-4b64-8089-c8c4a0557d0d","system_id":"levelo_inurba_marseille","lat":43.310804,"lon":5.38359,"is_reserved":false,"is_disabled":false,"rental_uris":{"android":"levelo://app?vid=ba9f6577-0a20-4b64-8089-c8c4a0557d0d","ios":"levelo://app?vid=ba9f6577-0a20-4b64-8089-c8c4a0557d0d"},"vehicle_type_id":"4","last_reported":1718298430,"current_range_meters":2000,"station_id":"ce4bgv92rcd13ifvqcr0","pricing_plan_id":"cebpf4jnsgd1na2vs0mg"},{"bike_id":"2449442d-5fe5-4660-a678-6f43a0aced67","system_id":"levelo_inurba_marseille","lat":43.310804,"lon":5.38359,"is_reserved":false,"is_disabled":false,"rental_uris":{"android":"levelo://app?vid=2449442d-5fe5-4660-a678-6f43a0aced67","ios":"levelo://app?vid=2449442d-5fe5-4660-a678-6f43a0aced67"},"vehicle_type_id":"4","last_reported":1718298430,"current_range_meters":8400,"station_id":"ce4bgv92rcd13ifvqcr0","pricing_plan_id":"cebpf4jnsgd1na2vs0mg"},{"bike_id":"55f23c06-c211-4ac1-b584-924ae0ddba59","system_id":"levelo_inurba_marseille","lat":43.301429,"lon":5.37413,"is_reserved":false,"is_disabled":false,"rental_uris":{"android":"levelo://app?vid=55f23c06-c211-4ac1-b584-924ae0ddba59","ios":"levelo://app?vid=55f23c06-c211-4ac1-b584-924ae0ddba59"},"vehicle_type_id":"4","last_reported":1718298430,"current_range_meters":17200,"station_id":"ce4bgs92rcd13ifvqcc0","pricing_plan_id":"cebpf4jnsgd1na2vs0mg"},{"bike_id":"15dd2bc0-dab1-4fde-8c2f-a3b4ab432e8f","system_id":"levelo_inurba_marseille","lat":43.301429,"lon":5.37413,"is_reserved":false,"is_disabled":false,"rental_uris":{"android":"levelo://app?vid=15dd2bc0-dab1-4fde-8c2f-a3b4ab432e8f","ios":"levelo://app?vid=15dd2bc0-dab1-4fde-8c2f-a3b4ab432e8f"},"vehicle_type_id":"4","last_reported":1718298430,"current_range_meters":4000,"station_id":"ce4bgs92rcd13ifvqcc0","pricing_plan_id":"cebpf4jnsgd1na2vs0mg"},{"bike_id":"d8c97815-b53e-449e-a237-c8c6d0bd7ea2","system_id":"levelo_inurba_marseille","lat":43.302784,"lon":5.377158,"is_reserved":false,"is_disabled":false,"rental_uris":{"android":"levelo://app?vid=d8c97815-b53e-449e-a237-c8c6d0bd7ea2","ios":"levelo://app?vid=d8c97815-b53e-449e-a237-c8c6d0bd7ea2"},"vehicle_type_id":"4","last_reported":1718298430,"current_range_meters":15200,"station_id":"ce4bguh2rcd13ifvqcj0","pricing_plan_id":"cebpf4jnsgd1na2vs0mg"},{"bike_id":"c14e2cca-9f82-4dac-8058-a130e9a1a887","system_id":"levelo_inurba_marseille","lat":43.319935,"lon":5.381699,"is_reserved":false,"is_disabled":false,"rental_uris":{"android":"levelo://app?vid=c14e2cca-9f82-4dac-8058-a130e9a1a887","ios":"levelo://app?vid=c14e2cca-9f82-4dac-8058-a130e9a1a887"},"vehicle_type_id":"4","last_reported":1718298430,"current_range_meters":0,"station_id":"ce4bhr12rcd13ifvqhpg","pricing_plan_id":"cebpf4jnsgd1na2vs0mg"},{"bike_id":"ed735c95-77cd-4540-90a1-509382bb81e3","system_id":"levelo_inurba_marseille","lat":43.319935,"lon":5.381699,"is_reserved":false,"is_disabled":false,"rental_uris":{"android":"levelo://app?vid=ed735c95-77cd-4540-90a1-509382bb81e3","ios":"levelo://app?vid=ed735c95-77cd-4540-90a1-509382bb81e3"},"vehicle_type_id":"4","last_reported":1718298430,"current_range_meters":0,"station_id":"ce4bhr12rcd13ifvqhpg","pricing_plan_id":"cebpf4jnsgd1na2vs0mg"},{"bike_id":"97afbfa9-cc3e-47a1-8c81-d1478d93365f","system_id":"levelo_inurba_marseille","lat":43.319935,"lon":5.381699,"is_reserved":false,"is_disabled":false,"rental_uris":{"android":"levelo://app?vid=97afbfa9-cc3e-47a1-8c81-d1478d93365f","ios":"levelo://app?vid=97afbfa9-cc3e-47a1-8c81-d1478d93365f"},"vehicle_type_id":"4","last_reported":1718298430,"current_range_meters":0,"station_id":"ce4bhr12rcd13ifvqhpg","pricing_plan_id":"cebpf4jnsgd1na2vs0mg"},{"bike_id":"3f8071b3-f65f-4650-a616-4306efb7cf74","system_id":"levelo_inurba_marseille","lat":43.313571,"lon":5.384829,"is_reserved":false,"is_disabled":false,"rental_uris":{"android":"levelo://app?vid=3f8071b3-f65f-4650-a616-4306efb7cf74","ios":"levelo://app?vid=3f8071b3-f65f-4650-a616-4306efb7cf74"},"vehicle_type_id":"4","last_reported":1718298430,"current_range_meters":6000,"station_id":"ce4bgt92rcd13ifvqcf0","pricing_plan_id":"cebpf4jnsgd1na2vs0mg"},{"bike_id":"d03f1422-26bb-4bbc-8f04-f64da48c720d","system_id":"levelo_inurba_marseille","lat":43.313571,"lon":5.384829,"is_reserved":false,"is_disabled":false,"rental_uris":{"android":"levelo://app?vid=d03f1422-26bb-4bbc-8f04-f64da48c720d","ios":"levelo://app?vid=d03f1422-26bb-4bbc-8f04-f64da48c720d"},"vehicle_type_id":"4","last_reported":1718298430,"current_range_meters":2000,"station_id":"ce4bgt92rcd13ifvqcf0","pricing_plan_id":"cebpf4jnsgd1na2vs0mg"},{"bike_id":"08a1712c-3db5-4920-9313-48de28b65470","system_id":"levelo_inurba_marseille","lat":43.299222,"lon":5.365554,"is_reserved":false,"is_disabled":false,"rental_uris":{"android":"levelo://app?vid=08a1712c-3db5-4920-9313-48de28b65470","ios":"levelo://app?vid=08a1712c-3db5-4920-9313-48de28b65470"},"vehicle_type_id":"4","last_reported":1718298430,"current_range_meters":6400,"station_id":"ce4bgm92rcd13ifvqbr0","pricing_plan_id":"cebpf4jnsgd1na2vs0mg"},{"bike_id":"0fd673a0-b112-4bab-bc3a-f65063169a12","system_id":"levelo_inurba_marseille","lat":43.299222,"lon":5.365554,"is_reserved":false,"is_disabled":false,"rental_uris":{"android":"levelo://app?vid=0fd673a0-b112-4bab-bc3a-f65063169a12","ios":"levelo://app?vid=0fd673a0-b112-4bab-bc3a-f65063169a12"},"vehicle_type_id":"4","last_reported":1718298430,"current_range_meters":4000,"station_id":"ce4bgm92rcd13ifvqbr0","pricing_plan_id":"cebpf4jnsgd1na2vs0mg"},{"bike_id":"75f36de3-929b-44fa-9ae3-256c898fe9c0","system_id":"levelo_inurba_marseille","lat":43.299222,"lon":5.365554,"is_reserved":false,"is_disabled":false,"rental_uris":{"android":"levelo://app?vid=75f36de3-929b-44fa-9ae3-256c898fe9c0","ios":"levelo://app?vid=75f36de3-929b-44fa-9ae3-256c898fe9c0"},"vehicle_type_id":"4","last_reported":1718298430,"current_range_meters":6800,"station_id":"ce4bgm92rcd13ifvqbr0","pricing_plan_id":"cebpf4jnsgd1na2vs0mg"},{"bike_id":"28cafa9d-843b-4c86-bc05-d38edbc54fb1","system_id":"levelo_inurba_marseille","lat":43.298906,"lon":5.365361,"is_reserved":false,"is_disabled":false,"rental_uris":{"android":"levelo://app?vid=28cafa9d-843b-4c86-bc05-d38edbc54fb1","ios":"levelo://app?vid=28cafa9d-843b-4c86-bc05-d38edbc54fb1"},"vehicle_type_id":"4","last_reported":1718298430,"current_range_meters":3600,"station_id":"","pricing_plan_id":"cebpf4jnsgd1na2vs0mg"},{"bike_id":"ac88d9f4-66b2-4fc0-b66d-b66d89413566","system_id":"levelo_inurba_marseille","lat":43.305389,"lon":5.383693,"is_reserved":false,"is_disabled":false,"rental_uris":{"android":"levelo://app?vid=ac88d9f4-66b2-4fc0-b66d-b66d89413566","ios":"levelo://app?vid=ac88d9f4-66b2-4fc0-b66d-b66d89413566"},"vehicle_type_id":"4","last_reported":1718298430,"current_range_meters":5600,"station_id":"ce4bgg92rcd13ifvqb30","pricing_plan_id":"cebpf4jnsgd1na2vs0mg"},{"bike_id":"ffbfb003-63bb-4e35-8243-a5025714bcea","system_id":"levelo_inurba_marseille","lat":43.31071,"lon":5.38683,"is_reserved":false,"is_disabled":false,"rental_uris":{"android":"levelo://app?vid=ffbfb003-63bb-4e35-8243-a5025714bcea","ios":"levelo://app?vid=ffbfb003-63bb-4e35-8243-a5025714bcea"},"vehicle_type_id":"4","last_reported":1718298430,"current_range_meters":10000,"station_id":"","pricing_plan_id":"cebpf4jnsgd1na2vs0mg"},{"bike_id":"b96f55bf-387a-4f47-8abe-4db89c72ae6f","system_id":"levelo_inurba_marseille","lat":43.299243,"lon":5.374807,"is_reserved":false,"is_disabled":false,"rental_uris":{"android":"levelo://app?vid=b96f55bf-387a-4f47-8abe-4db89c72ae6f","ios":"levelo://app?vid=b96f55bf-387a-4f47-8abe-4db89c72ae6f"},"vehicle_type_id":"4","last_reported":1718298430,"current_range_meters":15200,"station_id":"ce4bgjh2rcd13ifvqbg0","pricing_plan_id":"cebpf4jnsgd1na2vs0mg"},{"bike_id":"0b6fc339-ffb7-4a0d-b167-3d1744f6912b","system_id":"levelo_inurba_marseille","lat":43.297794,"lon":5.370888,"is_reserved":false,"is_disabled":false,"rental_uris":{"android":"levelo://app?vid=0b6fc339-ffb7-4a0d-b167-3d1744f6912b","ios":"levelo://app?vid=0b6fc339-ffb7-4a0d-b167-3d1744f6912b"},"vehicle_type_id":"4","last_reported":1718298430,"current_range_meters":31600,"station_id":"ce4bgop2rcd13ifvqc1g","pricing_plan_id":"cebpf4jnsgd1na2vs0mg"},{"bike_id":"dfa7b674-af0b-4e85-bdc6-59a388429636","system_id":"levelo_inurba_marseille","lat":43.297603,"lon":5.3699,"is_reserved":false,"is_disabled":false,"rental_uris":{"android":"levelo://app?vid=dfa7b674-af0b-4e85-bdc6-59a388429636","ios":"levelo://app?vid=dfa7b674-af0b-4e85-bdc6-59a388429636"},"vehicle_type_id":"4","last_reported":1718298430,"current_range_meters":8800,"station_id":"","pricing_plan_id":"cebpf4jnsgd1na2vs0mg"},{"bike_id":"d460f91c-a8b5-4b7a-8a9f-cb05a28a5386","system_id":"levelo_inurba_marseille","lat":43.322872,"lon":5.382756,"is_reserved":false,"is_disabled":false,"rental_uris":{"android":"levelo://app?vid=d460f91c-a8b5-4b7a-8a9f-cb05a28a5386","ios":"levelo://app?vid=d460f91c-a8b5-4b7a-8a9f-cb05a28a5386"},"vehicle_type_id":"4","last_reported":1718298430,"current_range_meters":18800,"station_id":"ce4bhr12rcd13ifvqhqg","pricing_plan_id":"cebpf4jnsgd1na2vs0mg"},{"bike_id":"4b475360-1664-422f-bb6b-8d52e94464e5","system_id":"levelo_inurba_marseille","lat":43.322872,"lon":5.382756,"is_reserved":false,"is_disabled":false,"rental_uris":{"android":"levelo://app?vid=4b475360-1664-422f-bb6b-8d52e94464e5","ios":"levelo://app?vid=4b475360-1664-422f-bb6b-8d52e94464e5"},"vehicle_type_id":"4","last_reported":1718298430,"current_range_meters":8400,"station_id":"ce4bhr12rcd13ifvqhqg","pricing_plan_id":"cebpf4jnsgd1na2vs0mg"},{"bike_id":"55c7ce89-3c79-4cd5-9c5b-80244f47ba3d","system_id":"levelo_inurba_marseille","lat":43.32289,"lon":5.38277,"is_reserved":false,"is_disabled":false,"rental_uris":{"android":"levelo://app?vid=55c7ce89-3c79-4cd5-9c5b-80244f47ba3d","ios":"levelo://app?vid=55c7ce89-3c79-4cd5-9c5b-80244f47ba3d"},"vehicle_type_id":"4","last_reported":1718298430,"current_range_meters":15600,"station_id":"ce4bhr12rcd13ifvqhqg","pricing_plan_id":"cebpf4jnsgd1na2vs0mg"},{"bike_id":"9a8bcfde-9ba0-4ca3-a9cd-b55ab07f382e","system_id":"levelo_inurba_marseille","lat":43.322872,"lon":5.382756,"is_reserved":false,"is_disabled":false,"rental_uris":{"android":"levelo://app?vid=9a8bcfde-9ba0-4ca3-a9cd-b55ab07f382e","ios":"levelo://app?vid=9a8bcfde-9ba0-4ca3-a9cd-b55ab07f382e"},"vehicle_type_id":"4","last_reported":1718298430,"current_range_meters":31200,"station_id":"ce4bhr12rcd13ifvqhqg","pricing_plan_id":"cebpf4jnsgd1na2vs0mg"},{"bike_id":"a2086568-2a85-430d-bbca-499a886b91cf","system_id":"levelo_inurba_marseille","lat":43.29762,"lon":5.37108,"is_reserved":false,"is_disabled":false,"rental_uris":{"android":"levelo://app?vid=a2086568-2a85-430d-bbca-499a886b91cf","ios":"levelo://app?vid=a2086568-2a85-430d-bbca-499a886b91cf"},"vehicle_type_id":"4","last_reported":1718298430,"current_range_meters":7600,"station_id":"ce4bgop2rcd13ifvqc1g","pricing_plan_id":"cebpf4jnsgd1na2vs0mg"},{"bike_id":"006ed2f9-9978-42e7-9e38-99475b69b5d7","system_id":"levelo_inurba_marseille","lat":43.297163,"lon":5.365866,"is_reserved":false,"is_disabled":false,"rental_uris":{"android":"levelo://app?vid=006ed2f9-9978-42e7-9e38-99475b69b5d7","ios":"levelo://app?vid=006ed2f9-9978-42e7-9e38-99475b69b5d7"},"vehicle_type_id":"4","last_reported":1718298430,"current_range_meters":27600,"station_id":"ce4bgn12rcd13ifvqbt0","pricing_plan_id":"cebpf4jnsgd1na2vs0mg"},{"bike_id":"60941c77-ffbd-4caa-a965-a458fda04f65","system_id":"levelo_inurba_marseille","lat":43.297163,"lon":5.365866,"is_reserved":false,"is_disabled":false,"rental_uris":{"android":"levelo://app?vid=60941c77-ffbd-4caa-a965-a458fda04f65","ios":"levelo://app?vid=60941c77-ffbd-4caa-a965-a458fda04f65"},"vehicle_type_id":"4","last_reported":1718298430,"current_range_meters":26400,"station_id":"ce4bgn12rcd13ifvqbt0","pricing_plan_id":"cebpf4jnsgd1na2vs0mg"},{"bike_id":"c0fbac64-8324-4f6c-89e3-5d799d7ce614","system_id":"levelo_inurba_marseille","lat":43.297163,"lon":5.365866,"is_reserved":false,"is_disabled":false,"rental_uris":{"android":"levelo://app?vid=c0fbac64-8324-4f6c-89e3-5d799d7ce614","ios":"levelo://app?vid=c0fbac64-8324-4f6c-89e3-5d799d7ce614"},"vehicle_type_id":"4","last_reported":1718298430,"current_range_meters":31600,"station_id":"ce4bgn12rcd13ifvqbt0","pricing_plan_id":"cebpf4jnsgd1na2vs0mg"},{"bike_id":"492e7643-6d00-4f2e-bef0-9752d9971db0","system_id":"levelo_inurba_marseille","lat":43.296184,"lon":5.371499,"is_reserved":false,"is_disabled":false,"rental_uris":{"android":"levelo://app?vid=492e7643-6d00-4f2e-bef0-9752d9971db0","ios":"levelo://app?vid=492e7643-6d00-4f2e-bef0-9752d9971db0"},"vehicle_type_id":"4","last_reported":1718298430,"current_range_meters":6000,"station_id":"","pricing_plan_id":"cebpf4jnsgd1na2vs0mg"},{"bike_id":"de9fed1d-bb25-4877-9e10-7297bdd07f36","system_id":"levelo_inurba_marseille","lat":43.296131,"lon":5.370773,"is_reserved":false,"is_disabled":false,"rental_uris":{"android":"levelo://app?vid=de9fed1d-bb25-4877-9e10-7297bdd07f36","ios":"levelo://app?vid=de9fed1d-bb25-4877-9e10-7297bdd07f36"},"vehicle_type_id":"4","last_reported":1718298430,"current_range_meters":30400,"station_id":"ce4bgnh2rcd13ifvqc0g","pricing_plan_id":"cebpf4jnsgd1na2vs0mg"},{"bike_id":"32202fa4-1228-4a33-80b4-9c4f071fbca2","system_id":"levelo_inurba_marseille","lat":43.29774,"lon":5.3782,"is_reserved":false,"is_disabled":false,"rental_uris":{"android":"levelo://app?vid=32202fa4-1228-4a33-80b4-9c4f071fbca2","ios":"levelo://app?vid=32202fa4-1228-4a33-80b4-9c4f071fbca2"},"vehicle_type_id":"4","last_reported":1718298430,"current_range_meters":0,"station_id":"","pricing_plan_id":"cebpf4jnsgd1na2vs0mg"},{"bike_id":"2cdd9087-dd42-4598-9150-14d985a77eeb","system_id":"levelo_inurba_marseille","lat":43.296921,"lon":5.376579,"is_reserved":false,"is_disabled":false,"rental_uris":{"android":"levelo://app?vid=2cdd9087-dd42-4598-9150-14d985a77eeb","ios":"levelo://app?vid=2cdd9087-dd42-4598-9150-14d985a77eeb"},"vehicle_type_id":"4","last_reported":1718298430,"current_range_meters":0,"station_id":"ce4bgkh2rcd13ifvqbl0","pricing_plan_id":"cebpf4jnsgd1na2vs0mg"},{"bike_id":"2f574ea8-cc58-4fb5-8633-95d8ab8a39fd","system_id":"levelo_inurba_marseille","lat":43.309589,"lon":5.390258,"is_reserved":false,"is_disabled":false,"rental_uris":{"android":"levelo://app?vid=2f574ea8-cc58-4fb5-8633-95d8ab8a39fd","ios":"levelo://app?vid=2f574ea8-cc58-4fb5-8633-95d8ab8a39fd"},"vehicle_type_id":"4","last_reported":1718298430,"current_range_meters":1200,"station_id":"ce4bgup2rcd13ifvqco0","pricing_plan_id":"cebpf4jnsgd1na2vs0mg"},{"bike_id":"852b23e8-e01f-43bf-8600-244f1ecd7312","system_id":"levelo_inurba_marseille","lat":43.309589,"lon":5.390258,"is_reserved":false,"is_disabled":false,"rental_uris":{"android":"levelo://app?vid=852b23e8-e01f-43bf-8600-244f1ecd7312","ios":"levelo://app?vid=852b23e8-e01f-43bf-8600-244f1ecd7312"},"vehicle_type_id":"4","last_reported":1718298430,"current_range_meters":0,"station_id":"ce4bgup2rcd13ifvqco0","pricing_plan_id":"cebpf4jnsgd1na2vs0mg"},{"bike_id":"f97c4373-4b40-45f6-99e8-abcf5f06c2b5","system_id":"levelo_inurba_marseille","lat":43.317557,"lon":5.390173,"is_reserved":false,"is_disabled":false,"rental_uris":{"android":"levelo://app?vid=f97c4373-4b40-45f6-99e8-abcf5f06c2b5","ios":"levelo://app?vid=f97c4373-4b40-45f6-99e8-abcf5f06c2b5"},"vehicle_type_id":"4","last_reported":1718298430,"current_range_meters":6400,"station_id":"ce4bhqp2rcd13ifvqhng","pricing_plan_id":"cebpf4jnsgd1na2vs0mg"},{"bike_id":"d7bde7be-a024-405f-9e64-579a17f1c5d7","system_id":"levelo_inurba_marseille","lat":43.298037,"lon":5.381066,"is_reserved":false,"is_disabled":false,"rental_uris":{"android":"levelo://app?vid=d7bde7be-a024-405f-9e64-579a17f1c5d7","ios":"levelo://app?vid=d7bde7be-a024-405f-9e64-579a17f1c5d7"},"vehicle_type_id":"4","last_reported":1718298430,"current_range_meters":1200,"station_id":"ce4bgip2rcd13ifvqbb0","pricing_plan_id":"cebpf4jnsgd1na2vs0mg"},{"bike_id":"f202dbba-00d9-4468-a583-aa88f8444f1b","system_id":"levelo_inurba_marseille","lat":43.298037,"lon":5.381066,"is_reserved":false,"is_disabled":false,"rental_uris":{"android":"levelo://app?vid=f202dbba-00d9-4468-a583-aa88f8444f1b","ios":"levelo://app?vid=f202dbba-00d9-4468-a583-aa88f8444f1b"},"vehicle_type_id":"4","last_reported":1718298430,"current_range_meters":17200,"station_id":"ce4bgip2rcd13ifvqbb0","pricing_plan_id":"cebpf4jnsgd1na2vs0mg"},{"bike_id":"19f40296-2966-43ad-ac45-3a1c7ae08a30","system_id":"levelo_inurba_marseille","lat":43.304274,"lon":5.388873,"is_reserved":false,"is_disabled":false,"rental_uris":{"android":"levelo://app?vid=19f40296-2966-43ad-ac45-3a1c7ae08a30","ios":"levelo://app?vid=19f40296-2966-43ad-ac45-3a1c7ae08a30"},"vehicle_type_id":"4","last_reported":1718298430,"current_range_meters":5600,"station_id":"ce4bgk12rcd13ifvqbi0","pricing_plan_id":"cebpf4jnsgd1na2vs0mg"},{"bike_id":"d51789ea-eb04-4e0b-b0d1-a567aa1af80c","system_id":"levelo_inurba_marseille","lat":43.304606,"lon":5.379026,"is_reserved":false,"is_disabled":false,"rental_uris":{"android":"levelo://app?vid=d51789ea-eb04-4e0b-b0d1-a567aa1af80c","ios":"levelo://app?vid=d51789ea-eb04-4e0b-b0d1-a567aa1af80c"},"vehicle_type_id":"4","last_reported":1718298430,"current_range_meters":5600,"station_id":"ce4bgup2rcd13ifvqcn0","pricing_plan_id":"cebpf4jnsgd1na2vs0mg"},{"bike_id":"a1f84e8c-ac28-422e-8387-b96339767043","system_id":"levelo_inurba_marseille","lat":43.304274,"lon":5.388873,"is_reserved":false,"is_disabled":false,"rental_uris":{"android":"levelo://app?vid=a1f84e8c-ac28-422e-8387-b96339767043","ios":"levelo://app?vid=a1f84e8c-ac28-422e-8387-b96339767043"},"vehicle_type_id":"4","last_reported":1718298430,"current_range_meters":29600,"station_id":"ce4bgk12rcd13ifvqbi0","pricing_plan_id":"cebpf4jnsgd1na2vs0mg"},{"bike_id":"8ef0fb5a-7b3f-4ee7-aa62-94adca2596e0","system_id":"levelo_inurba_marseille","lat":43.295748,"lon":5.37522,"is_reserved":false,"is_disabled":false,"rental_uris":{"android":"levelo://app?vid=8ef0fb5a-7b3f-4ee7-aa62-94adca2596e0","ios":"levelo://app?vid=8ef0fb5a-7b3f-4ee7-aa62-94adca2596e0"},"vehicle_type_id":"4","last_reported":1718298430,"current_range_meters":27200,"station_id":"ce4bgh92rcd13ifvqb50","pricing_plan_id":"cebpf4jnsgd1na2vs0mg"},{"bike_id":"ade5244b-f053-4976-bcd4-72aa1b224052","system_id":"levelo_inurba_marseille","lat":43.304274,"lon":5.388873,"is_reserved":false,"is_disabled":false,"rental_uris":{"android":"levelo://app?vid=ade5244b-f053-4976-bcd4-72aa1b224052","ios":"levelo://app?vid=ade5244b-f053-4976-bcd4-72aa1b224052"},"vehicle_type_id":"4","last_reported":1718298430,"current_range_meters":17600,"station_id":"ce4bgk12rcd13ifvqbi0","pricing_plan_id":"cebpf4jnsgd1na2vs0mg"},{"bike_id":"4474e6df-7f5b-44fe-813d-cf3a42ffc001","system_id":"levelo_inurba_marseille","lat":43.304274,"lon":5.388873,"is_reserved":false,"is_disabled":false,"rental_uris":{"android":"levelo://app?vid=4474e6df-7f5b-44fe-813d-cf3a42ffc001","ios":"levelo://app?vid=4474e6df-7f5b-44fe-813d-cf3a42ffc001"},"vehicle_type_id":"4","last_reported":1718298430,"current_range_meters":1200,"station_id":"ce4bgk12rcd13ifvqbi0","pricing_plan_id":"cebpf4jnsgd1na2vs0mg"},{"bike_id":"b284dbdf-3414-431c-8447-c59920fa49f9","system_id":"levelo_inurba_marseille","lat":43.295279,"lon":5.375048,"is_reserved":false,"is_disabled":false,"rental_uris":{"android":"levelo://app?vid=b284dbdf-3414-431c-8447-c59920fa49f9","ios":"levelo://app?vid=b284dbdf-3414-431c-8447-c59920fa49f9"},"vehicle_type_id":"4","last_reported":1718298430,"current_range_meters":24800,"station_id":"ce4bgkp2rcd13ifvqbmg","pricing_plan_id":"cebpf4jnsgd1na2vs0mg"},{"bike_id":"f8871521-281c-4028-87ec-f7f0334e88ee","system_id":"levelo_inurba_marseille","lat":43.295279,"lon":5.375048,"is_reserved":false,"is_disabled":false,"rental_uris":{"android":"levelo://app?vid=f8871521-281c-4028-87ec-f7f0334e88ee","ios":"levelo://app?vid=f8871521-281c-4028-87ec-f7f0334e88ee"},"vehicle_type_id":"4","last_reported":1718298430,"current_range_meters":22400,"station_id":"ce4bgkp2rcd13ifvqbmg","pricing_plan_id":"cebpf4jnsgd1na2vs0mg"},{"bike_id":"2e438add-b855-4f61-95fe-2f9d2ff76bbf","system_id":"levelo_inurba_marseille","lat":43.292644,"lon":5.384257,"is_reserved":false,"is_disabled":false,"rental_uris":{"android":"levelo://app?vid=2e438add-b855-4f61-95fe-2f9d2ff76bbf","ios":"levelo://app?vid=2e438add-b855-4f61-95fe-2f9d2ff76bbf"},"vehicle_type_id":"4","last_reported":1718298430,"current_range_meters":0,"station_id":"ce4bh692rcd13ifvqea0","pricing_plan_id":"cebpf4jnsgd1na2vs0mg"},{"bike_id":"fe7bdbd6-b868-417e-bd65-01309157b44a","system_id":"levelo_inurba_marseille","lat":43.299717,"lon":5.384845,"is_reserved":false,"is_disabled":false,"rental_uris":{"android":"levelo://app?vid=fe7bdbd6-b868-417e-bd65-01309157b44a","ios":"levelo://app?vid=fe7bdbd6-b868-417e-bd65-01309157b44a"},"vehicle_type_id":"4","last_reported":1718298430,"current_range_meters":6800,"station_id":"ce4bgj92rcd13ifvqbd0","pricing_plan_id":"cebpf4jnsgd1na2vs0mg"},{"bike_id":"f7b3e52a-7545-4d51-93e2-104711e77ae0","system_id":"levelo_inurba_marseille","lat":43.299724,"lon":5.384848,"is_reserved":false,"is_disabled":false,"rental_uris":{"android":"levelo://app?vid=f7b3e52a-7545-4d51-93e2-104711e77ae0","ios":"levelo://app?vid=f7b3e52a-7545-4d51-93e2-104711e77ae0"},"vehicle_type_id":"4","last_reported":1718298430,"current_range_meters":18800,"station_id":"ce4bgj92rcd13ifvqbd0","pricing_plan_id":"cebpf4jnsgd1na2vs0mg"},{"bike_id":"9ff6f064-3fe8-473f-ac8d-01d366f0c42d","system_id":"levelo_inurba_marseille","lat":43.299724,"lon":5.384848,"is_reserved":false,"is_disabled":false,"rental_uris":{"android":"levelo://app?vid=9ff6f064-3fe8-473f-ac8d-01d366f0c42d","ios":"levelo://app?vid=9ff6f064-3fe8-473f-ac8d-01d366f0c42d"},"vehicle_type_id":"4","last_reported":1718298430,"current_range_meters":10800,"station_id":"ce4bgj92rcd13ifvqbd0","pricing_plan_id":"cebpf4jnsgd1na2vs0mg"},{"bike_id":"d54ebb4f-c3f0-4e18-a12d-a1ae0383124d","system_id":"levelo_inurba_marseille","lat":43.29602,"lon":5.381084,"is_reserved":false,"is_disabled":false,"rental_uris":{"android":"levelo://app?vid=d54ebb4f-c3f0-4e18-a12d-a1ae0383124d","ios":"levelo://app?vid=d54ebb4f-c3f0-4e18-a12d-a1ae0383124d"},"vehicle_type_id":"4","last_reported":1718298430,"current_range_meters":13200,"station_id":"ce4bgl12rcd13ifvqbo0","pricing_plan_id":"cebpf4jnsgd1na2vs0mg"},{"bike_id":"22118d86-689a-42b1-b24c-c0554a894418","system_id":"levelo_inurba_marseille","lat":43.293259,"lon":5.371586,"is_reserved":false,"is_disabled":false,"rental_uris":{"android":"levelo://app?vid=22118d86-689a-42b1-b24c-c0554a894418","ios":"levelo://app?vid=22118d86-689a-42b1-b24c-c0554a894418"},"vehicle_type_id":"4","last_reported":1718298430,"current_range_meters":21600,"station_id":"ce4bgh92rcd13ifvqb40","pricing_plan_id":"cebpf4jnsgd1na2vs0mg"},{"bike_id":"bd6cc042-4104-4ea8-9896-8555d9caba74","system_id":"levelo_inurba_marseille","lat":43.29307,"lon":5.37178,"is_reserved":false,"is_disabled":false,"rental_uris":{"android":"levelo://app?vid=bd6cc042-4104-4ea8-9896-8555d9caba74","ios":"levelo://app?vid=bd6cc042-4104-4ea8-9896-8555d9caba74"},"vehicle_type_id":"4","last_reported":1718298430,"current_range_meters":0,"station_id":"ce4bgh92rcd13ifvqb40","pricing_plan_id":"cebpf4jnsgd1na2vs0mg"},{"bike_id":"e25d75de-991e-4234-a365-873f224a04a0","system_id":"levelo_inurba_marseille","lat":43.293259,"lon":5.371586,"is_reserved":false,"is_disabled":false,"rental_uris":{"android":"levelo://app?vid=e25d75de-991e-4234-a365-873f224a04a0","ios":"levelo://app?vid=e25d75de-991e-4234-a365-873f224a04a0"},"vehicle_type_id":"4","last_reported":1718298430,"current_range_meters":10400,"station_id":"ce4bgh92rcd13ifvqb40","pricing_plan_id":"cebpf4jnsgd1na2vs0mg"},{"bike_id":"be462b9d-76a7-489b-9e25-b885599561d3","system_id":"levelo_inurba_marseille","lat":43.29269,"lon":5.36844,"is_reserved":false,"is_disabled":false,"rental_uris":{"android":"levelo://app?vid=be462b9d-76a7-489b-9e25-b885599561d3","ios":"levelo://app?vid=be462b9d-76a7-489b-9e25-b885599561d3"},"vehicle_type_id":"4","last_reported":1718298430,"current_range_meters":0,"station_id":"ce4bhbp2rcd13ifvqesg","pricing_plan_id":"cebpf4jnsgd1na2vs0mg"},{"bike_id":"3d0e0993-c9bd-49d7-96e3-40873d392099","system_id":"levelo_inurba_marseille","lat":43.293009,"lon":5.374584,"is_reserved":false,"is_disabled":false,"rental_uris":{"android":"levelo://app?vid=3d0e0993-c9bd-49d7-96e3-40873d392099","ios":"levelo://app?vid=3d0e0993-c9bd-49d7-96e3-40873d392099"},"vehicle_type_id":"4","last_reported":1718298430,"current_range_meters":30800,"station_id":"ce4bgi12rcd13ifvqb70","pricing_plan_id":"cebpf4jnsgd1na2vs0mg"},{"bike_id":"07d8d354-9f18-41cb-9db7-fefd080bbcc2","system_id":"levelo_inurba_marseille","lat":43.293009,"lon":5.374584,"is_reserved":false,"is_disabled":false,"rental_uris":{"android":"levelo://app?vid=07d8d354-9f18-41cb-9db7-fefd080bbcc2","ios":"levelo://app?vid=07d8d354-9f18-41cb-9db7-fefd080bbcc2"},"vehicle_type_id":"4","last_reported":1718298430,"current_range_meters":0,"station_id":"ce4bgi12rcd13ifvqb70","pricing_plan_id":"cebpf4jnsgd1na2vs0mg"},{"bike_id":"53567f23-c75c-456c-af2a-ca367bab74f4","system_id":"levelo_inurba_marseille","lat":43.293009,"lon":5.374584,"is_reserved":false,"is_disabled":false,"rental_uris":{"android":"levelo://app?vid=53567f23-c75c-456c-af2a-ca367bab74f4","ios":"levelo://app?vid=53567f23-c75c-456c-af2a-ca367bab74f4"},"vehicle_type_id":"4","last_reported":1718298430,"current_range_meters":0,"station_id":"ce4bgi12rcd13ifvqb70","pricing_plan_id":"cebpf4jnsgd1na2vs0mg"},{"bike_id":"f253cd71-3c08-45b8-96a9-f8f1d10edd7a","system_id":"levelo_inurba_marseille","lat":43.305994,"lon":5.393687,"is_reserved":false,"is_disabled":false,"rental_uris":{"android":"levelo://app?vid=f253cd71-3c08-45b8-96a9-f8f1d10edd7a","ios":"levelo://app?vid=f253cd71-3c08-45b8-96a9-f8f1d10edd7a"},"vehicle_type_id":"4","last_reported":1718298430,"current_range_meters":23200,"station_id":"ce4bh0p2rcd13ifvqd80","pricing_plan_id":"cebpf4jnsgd1na2vs0mg"},{"bike_id":"5338e689-cb4d-4069-b3b1-f73905fd043b","system_id":"levelo_inurba_marseille","lat":43.305994,"lon":5.393687,"is_reserved":false,"is_disabled":false,"rental_uris":{"android":"levelo://app?vid=5338e689-cb4d-4069-b3b1-f73905fd043b","ios":"levelo://app?vid=5338e689-cb4d-4069-b3b1-f73905fd043b"},"vehicle_type_id":"4","last_reported":1718298430,"current_range_meters":4400,"station_id":"ce4bh0p2rcd13ifvqd80","pricing_plan_id":"cebpf4jnsgd1na2vs0mg"},{"bike_id":"11553045-6bed-485d-8a08-52ec60ce1ad0","system_id":"levelo_inurba_marseille","lat":43.303002,"lon":5.392142,"is_reserved":false,"is_disabled":false,"rental_uris":{"android":"levelo://app?vid=11553045-6bed-485d-8a08-52ec60ce1ad0","ios":"levelo://app?vid=11553045-6bed-485d-8a08-52ec60ce1ad0"},"vehicle_type_id":"4","last_reported":1718298430,"current_range_meters":22800,"station_id":"ce4bgkh2rcd13ifvqbk0","pricing_plan_id":"cebpf4jnsgd1na2vs0mg"},{"bike_id":"c4854dc9-674a-4e48-871f-6cfb58e6c3dc","system_id":"levelo_inurba_marseille","lat":43.302992,"lon":5.392136,"is_reserved":false,"is_disabled":false,"rental_uris":{"android":"levelo://app?vid=c4854dc9-674a-4e48-871f-6cfb58e6c3dc","ios":"levelo://app?vid=c4854dc9-674a-4e48-871f-6cfb58e6c3dc"},"vehicle_type_id":"4","last_reported":1718298430,"current_range_meters":2000,"station_id":"ce4bgkh2rcd13ifvqbk0","pricing_plan_id":"cebpf4jnsgd1na2vs0mg"},{"bike_id":"3ce3e8b3-1f08-41d9-a815-de3c2344394c","system_id":"levelo_inurba_marseille","lat":43.303002,"lon":5.392142,"is_reserved":false,"is_disabled":false,"rental_uris":{"android":"levelo://app?vid=3ce3e8b3-1f08-41d9-a815-de3c2344394c","ios":"levelo://app?vid=3ce3e8b3-1f08-41d9-a815-de3c2344394c"},"vehicle_type_id":"4","last_reported":1718298430,"current_range_meters":4000,"station_id":"ce4bgkh2rcd13ifvqbk0","pricing_plan_id":"cebpf4jnsgd1na2vs0mg"},{"bike_id":"92ed85b2-d601-4ee4-b24b-c1c8fe4daa84","system_id":"levelo_inurba_marseille","lat":43.292322,"lon":5.360606,"is_reserved":false,"is_disabled":false,"rental_uris":{"android":"levelo://app?vid=92ed85b2-d601-4ee4-b24b-c1c8fe4daa84","ios":"levelo://app?vid=92ed85b2-d601-4ee4-b24b-c1c8fe4daa84"},"vehicle_type_id":"4","last_reported":1718298430,"current_range_meters":800,"station_id":"","pricing_plan_id":"cebpf4jnsgd1na2vs0mg"},{"bike_id":"202141d5-6f51-46f3-b29f-d6a0aeda7806","system_id":"levelo_inurba_marseille","lat":43.2923,"lon":5.36071,"is_reserved":false,"is_disabled":false,"rental_uris":{"android":"levelo://app?vid=202141d5-6f51-46f3-b29f-d6a0aeda7806","ios":"levelo://app?vid=202141d5-6f51-46f3-b29f-d6a0aeda7806"},"vehicle_type_id":"4","last_reported":1718298430,"current_range_meters":10000,"station_id":"ce4bhbh2rcd13ifvqeqg","pricing_plan_id":"cebpf4jnsgd1na2vs0mg"},{"bike_id":"64655751-1b70-4e31-80dd-7ce133d2c522","system_id":"levelo_inurba_marseille","lat":43.29229,"lon":5.36052,"is_reserved":false,"is_disabled":false,"rental_uris":{"android":"levelo://app?vid=64655751-1b70-4e31-80dd-7ce133d2c522","ios":"levelo://app?vid=64655751-1b70-4e31-80dd-7ce133d2c522"},"vehicle_type_id":"4","last_reported":1718298430,"current_range_meters":22000,"station_id":"ce4bhbh2rcd13ifvqeqg","pricing_plan_id":"cebpf4jnsgd1na2vs0mg"},{"bike_id":"ffa278ef-07d3-497b-ace7-303dd2cfa820","system_id":"levelo_inurba_marseille","lat":43.29229,"lon":5.3605,"is_reserved":false,"is_disabled":false,"rental_uris":{"android":"levelo://app?vid=ffa278ef-07d3-497b-ace7-303dd2cfa820","ios":"levelo://app?vid=ffa278ef-07d3-497b-ace7-303dd2cfa820"},"vehicle_type_id":"4","last_reported":1718298430,"current_range_meters":2400,"station_id":"ce4bhbh2rcd13ifvqeqg","pricing_plan_id":"cebpf4jnsgd1na2vs0mg"},{"bike_id":"0f7dba99-8840-4f66-ae63-e342d118ab66","system_id":"levelo_inurba_marseille","lat":43.30085,"lon":5.390856,"is_reserved":false,"is_disabled":false,"rental_uris":{"android":"levelo://app?vid=0f7dba99-8840-4f66-ae63-e342d118ab66","ios":"levelo://app?vid=0f7dba99-8840-4f66-ae63-e342d118ab66"},"vehicle_type_id":"4","last_reported":1718298430,"current_range_meters":15600,"station_id":"ce4bh192rcd13ifvqdb0","pricing_plan_id":"cebpf4jnsgd1na2vs0mg"},{"bike_id":"8a158e84-ca6b-42a2-9de4-4f2c1caafed0","system_id":"levelo_inurba_marseille","lat":43.29224,"lon":5.36067,"is_reserved":false,"is_disabled":false,"rental_uris":{"android":"levelo://app?vid=8a158e84-ca6b-42a2-9de4-4f2c1caafed0","ios":"levelo://app?vid=8a158e84-ca6b-42a2-9de4-4f2c1caafed0"},"vehicle_type_id":"4","last_reported":1718298430,"current_range_meters":800,"station_id":"ce4bhbh2rcd13ifvqeqg","pricing_plan_id":"cebpf4jnsgd1na2vs0mg"},{"bike_id":"85742b14-2210-4c3f-8cdc-b499a455b19c","system_id":"levelo_inurba_marseille","lat":43.29219,"lon":5.3606,"is_reserved":false,"is_disabled":false,"rental_uris":{"android":"levelo://app?vid=85742b14-2210-4c3f-8cdc-b499a455b19c","ios":"levelo://app?vid=85742b14-2210-4c3f-8cdc-b499a455b19c"},"vehicle_type_id":"4","last_reported":1718298430,"current_range_meters":800,"station_id":"ce4bhbh2rcd13ifvqeqg","pricing_plan_id":"cebpf4jnsgd1na2vs0mg"},{"bike_id":"70cba465-ceab-4678-ac7b-93972314608f","system_id":"levelo_inurba_marseille","lat":43.30085,"lon":5.390856,"is_reserved":false,"is_disabled":false,"rental_uris":{"android":"levelo://app?vid=70cba465-ceab-4678-ac7b-93972314608f","ios":"levelo://app?vid=70cba465-ceab-4678-ac7b-93972314608f"},"vehicle_type_id":"4","last_reported":1718298430,"current_range_meters":22400,"station_id":"ce4bh192rcd13ifvqdb0","pricing_plan_id":"cebpf4jnsgd1na2vs0mg"},{"bike_id":"3f61781b-e563-4bc8-81ab-2aa7c96cbfc2","system_id":"levelo_inurba_marseille","lat":43.29871,"lon":5.3891,"is_reserved":false,"is_disabled":false,"rental_uris":{"android":"levelo://app?vid=3f61781b-e563-4bc8-81ab-2aa7c96cbfc2","ios":"levelo://app?vid=3f61781b-e563-4bc8-81ab-2aa7c96cbfc2"},"vehicle_type_id":"4","last_reported":1718298430,"current_range_meters":6000,"station_id":"ce4bh392rcd13ifvqdl0","pricing_plan_id":"cebpf4jnsgd1na2vs0mg"},{"bike_id":"c1f237e9-8927-4dc2-b90a-e80fd0cc4b44","system_id":"levelo_inurba_marseille","lat":43.298764,"lon":5.388973,"is_reserved":false,"is_disabled":false,"rental_uris":{"android":"levelo://app?vid=c1f237e9-8927-4dc2-b90a-e80fd0cc4b44","ios":"levelo://app?vid=c1f237e9-8927-4dc2-b90a-e80fd0cc4b44"},"vehicle_type_id":"4","last_reported":1718298430,"current_range_meters":7600,"station_id":"ce4bh392rcd13ifvqdl0","pricing_plan_id":"cebpf4jnsgd1na2vs0mg"},{"bike_id":"2392ac7b-11df-4a24-bf36-ec2d0189e72a","system_id":"levelo_inurba_marseille","lat":43.291994,"lon":5.357886,"is_reserved":false,"is_disabled":false,"rental_uris":{"android":"levelo://app?vid=2392ac7b-11df-4a24-bf36-ec2d0189e72a","ios":"levelo://app?vid=2392ac7b-11df-4a24-bf36-ec2d0189e72a"},"vehicle_type_id":"4","last_reported":1718298430,"current_range_meters":4800,"station_id":"ce4bhb12rcd13ifvqel0","pricing_plan_id":"cebpf4jnsgd1na2vs0mg"},{"bike_id":"4f49aec8-b34c-4836-9669-8684f9dd8cda","system_id":"levelo_inurba_marseille","lat":43.309047,"lon":5.396551,"is_reserved":false,"is_disabled":false,"rental_uris":{"android":"levelo://app?vid=4f49aec8-b34c-4836-9669-8684f9dd8cda","ios":"levelo://app?vid=4f49aec8-b34c-4836-9669-8684f9dd8cda"},"vehicle_type_id":"4","last_reported":1718298430,"current_range_meters":8000,"station_id":"ce4bh012rcd13ifvqcv0","pricing_plan_id":"cebpf4jnsgd1na2vs0mg"},{"bike_id":"3808f961-aa0b-46ff-b1e3-fc869a13b871","system_id":"levelo_inurba_marseille","lat":43.291994,"lon":5.357886,"is_reserved":false,"is_disabled":false,"rental_uris":{"android":"levelo://app?vid=3808f961-aa0b-46ff-b1e3-fc869a13b871","ios":"levelo://app?vid=3808f961-aa0b-46ff-b1e3-fc869a13b871"},"vehicle_type_id":"4","last_reported":1718298430,"current_range_meters":1600,"station_id":"ce4bhb12rcd13ifvqel0","pricing_plan_id":"cebpf4jnsgd1na2vs0mg"},{"bike_id":"e9870c76-e390-4ee3-bf63-c3a7d40032cd","system_id":"levelo_inurba_marseille","lat":43.313291,"lon":5.396838,"is_reserved":false,"is_disabled":false,"rental_uris":{"android":"levelo://app?vid=e9870c76-e390-4ee3-bf63-c3a7d40032cd","ios":"levelo://app?vid=e9870c76-e390-4ee3-bf63-c3a7d40032cd"},"vehicle_type_id":"4","last_reported":1718298430,"current_range_meters":14800,"station_id":"ce4bgvp2rcd13ifvqcu0","pricing_plan_id":"cebpf4jnsgd1na2vs0mg"},{"bike_id":"a6a7b5f2-a6fe-4520-abd5-b07b4cd5217d","system_id":"levelo_inurba_marseille","lat":43.313291,"lon":5.396838,"is_reserved":false,"is_disabled":false,"rental_uris":{"android":"levelo://app?vid=a6a7b5f2-a6fe-4520-abd5-b07b4cd5217d","ios":"levelo://app?vid=a6a7b5f2-a6fe-4520-abd5-b07b4cd5217d"},"vehicle_type_id":"4","last_reported":1718298430,"current_range_meters":1600,"station_id":"ce4bgvp2rcd13ifvqcu0","pricing_plan_id":"cebpf4jnsgd1na2vs0mg"},{"bike_id":"169ac853-6445-40e9-bd28-3e3e1c91a9fc","system_id":"levelo_inurba_marseille","lat":43.291994,"lon":5.357886,"is_reserved":false,"is_disabled":false,"rental_uris":{"android":"levelo://app?vid=169ac853-6445-40e9-bd28-3e3e1c91a9fc","ios":"levelo://app?vid=169ac853-6445-40e9-bd28-3e3e1c91a9fc"},"vehicle_type_id":"4","last_reported":1718298430,"current_range_meters":31600,"station_id":"ce4bhb12rcd13ifvqel0","pricing_plan_id":"cebpf4jnsgd1na2vs0mg"},{"bike_id":"ea6899d9-4b94-45e3-a770-91369c7595db","system_id":"levelo_inurba_marseille","lat":43.313291,"lon":5.396838,"is_reserved":false,"is_disabled":false,"rental_uris":{"android":"levelo://app?vid=ea6899d9-4b94-45e3-a770-91369c7595db","ios":"levelo://app?vid=ea6899d9-4b94-45e3-a770-91369c7595db"},"vehicle_type_id":"4","last_reported":1718298430,"current_range_meters":29200,"station_id":"ce4bgvp2rcd13ifvqcu0","pricing_plan_id":"cebpf4jnsgd1na2vs0mg"},{"bike_id":"6c337f38-4c16-49cf-b12d-1e03c96732d7","system_id":"levelo_inurba_marseille","lat":43.309038,"lon":5.396546,"is_reserved":false,"is_disabled":false,"rental_uris":{"android":"levelo://app?vid=6c337f38-4c16-49cf-b12d-1e03c96732d7","ios":"levelo://app?vid=6c337f38-4c16-49cf-b12d-1e03c96732d7"},"vehicle_type_id":"4","last_reported":1718298430,"current_range_meters":800,"station_id":"ce4bh012rcd13ifvqcv0","pricing_plan_id":"cebpf4jnsgd1na2vs0mg"},{"bike_id":"ecc7d168-2c6c-4870-a7c7-94ff830ea716","system_id":"levelo_inurba_marseille","lat":43.291994,"lon":5.357886,"is_reserved":false,"is_disabled":false,"rental_uris":{"android":"levelo://app?vid=ecc7d168-2c6c-4870-a7c7-94ff830ea716","ios":"levelo://app?vid=ecc7d168-2c6c-4870-a7c7-94ff830ea716"},"vehicle_type_id":"4","last_reported":1718298430,"current_range_meters":0,"station_id":"ce4bhb12rcd13ifvqel0","pricing_plan_id":"cebpf4jnsgd1na2vs0mg"},{"bike_id":"cb46a946-5b52-4fd9-aef6-3b5d0804bfba","system_id":"levelo_inurba_marseille","lat":43.29529,"lon":5.385581,"is_reserved":false,"is_disabled":false,"rental_uris":{"android":"levelo://app?vid=cb46a946-5b52-4fd9-aef6-3b5d0804bfba","ios":"levelo://app?vid=cb46a946-5b52-4fd9-aef6-3b5d0804bfba"},"vehicle_type_id":"4","last_reported":1718298430,"current_range_meters":5200,"station_id":"ce4bgih2rcd13ifvqba0","pricing_plan_id":"cebpf4jnsgd1na2vs0mg"},{"bike_id":"fd4651d1-8402-443a-beb5-7ae723aff2b5","system_id":"levelo_inurba_marseille","lat":43.29529,"lon":5.385581,"is_reserved":false,"is_disabled":false,"rental_uris":{"android":"levelo://app?vid=fd4651d1-8402-443a-beb5-7ae723aff2b5","ios":"levelo://app?vid=fd4651d1-8402-443a-beb5-7ae723aff2b5"},"vehicle_type_id":"4","last_reported":1718298430,"current_range_meters":21200,"station_id":"ce4bgih2rcd13ifvqba0","pricing_plan_id":"cebpf4jnsgd1na2vs0mg"},{"bike_id":"a9320c11-9edf-475c-8e30-8cbd9960dd42","system_id":"levelo_inurba_marseille","lat":43.29529,"lon":5.385581,"is_reserved":false,"is_disabled":false,"rental_uris":{"android":"levelo://app?vid=a9320c11-9edf-475c-8e30-8cbd9960dd42","ios":"levelo://app?vid=a9320c11-9edf-475c-8e30-8cbd9960dd42"},"vehicle_type_id":"4","last_reported":1718298430,"current_range_meters":2000,"station_id":"ce4bgih2rcd13ifvqba0","pricing_plan_id":"cebpf4jnsgd1na2vs0mg"},{"bike_id":"db80f148-7acf-4b73-8b8e-a4d0db725f04","system_id":"levelo_inurba_marseille","lat":43.29529,"lon":5.385581,"is_reserved":false,"is_disabled":false,"rental_uris":{"android":"levelo://app?vid=db80f148-7acf-4b73-8b8e-a4d0db725f04","ios":"levelo://app?vid=db80f148-7acf-4b73-8b8e-a4d0db725f04"},"vehicle_type_id":"4","last_reported":1718298430,"current_range_meters":5200,"station_id":"ce4bgih2rcd13ifvqba0","pricing_plan_id":"cebpf4jnsgd1na2vs0mg"},{"bike_id":"596df7e1-b1e7-422c-a268-34dcfd74dcd7","system_id":"levelo_inurba_marseille","lat":43.290779,"lon":5.371482,"is_reserved":false,"is_disabled":false,"rental_uris":{"android":"levelo://app?vid=596df7e1-b1e7-422c-a268-34dcfd74dcd7","ios":"levelo://app?vid=596df7e1-b1e7-422c-a268-34dcfd74dcd7"},"vehicle_type_id":"4","last_reported":1718298430,"current_range_meters":0,"station_id":"ce4bh5p2rcd13ifvqe4g","pricing_plan_id":"cebpf4jnsgd1na2vs0mg"},{"bike_id":"9bf22a09-7797-4e4c-92f9-4fcbe14ba75e","system_id":"levelo_inurba_marseille","lat":43.290779,"lon":5.371482,"is_reserved":false,"is_disabled":false,"rental_uris":{"android":"levelo://app?vid=9bf22a09-7797-4e4c-92f9-4fcbe14ba75e","ios":"levelo://app?vid=9bf22a09-7797-4e4c-92f9-4fcbe14ba75e"},"vehicle_type_id":"4","last_reported":1718298430,"current_range_meters":0,"station_id":"ce4bh5p2rcd13ifvqe4g","pricing_plan_id":"cebpf4jnsgd1na2vs0mg"},{"bike_id":"4dc55e6d-7617-4bae-a2e0-7e1a6e14c69a","system_id":"levelo_inurba_marseille","lat":43.290631,"lon":5.359244,"is_reserved":false,"is_disabled":false,"rental_uris":{"android":"levelo://app?vid=4dc55e6d-7617-4bae-a2e0-7e1a6e14c69a","ios":"levelo://app?vid=4dc55e6d-7617-4bae-a2e0-7e1a6e14c69a"},"vehicle_type_id":"4","last_reported":1718298430,"current_range_meters":13200,"station_id":"ce4bha92rcd13ifvqeg0","pricing_plan_id":"cebpf4jnsgd1na2vs0mg"},{"bike_id":"eaf4cdc4-bed2-445c-85bd-ffeb6a43efa8","system_id":"levelo_inurba_marseille","lat":43.290631,"lon":5.359244,"is_reserved":false,"is_disabled":false,"rental_uris":{"android":"levelo://app?vid=eaf4cdc4-bed2-445c-85bd-ffeb6a43efa8","ios":"levelo://app?vid=eaf4cdc4-bed2-445c-85bd-ffeb6a43efa8"},"vehicle_type_id":"4","last_reported":1718298430,"current_range_meters":26400,"station_id":"ce4bha92rcd13ifvqeg0","pricing_plan_id":"cebpf4jnsgd1na2vs0mg"},{"bike_id":"2e11ae69-4ebc-4bf6-8278-cee81404eb0c","system_id":"levelo_inurba_marseille","lat":43.294153,"lon":5.386305,"is_reserved":false,"is_disabled":false,"rental_uris":{"android":"levelo://app?vid=2e11ae69-4ebc-4bf6-8278-cee81404eb0c","ios":"levelo://app?vid=2e11ae69-4ebc-4bf6-8278-cee81404eb0c"},"vehicle_type_id":"4","last_reported":1718298430,"current_range_meters":10000,"station_id":"ce4bh2h2rcd13ifvqdh0","pricing_plan_id":"cebpf4jnsgd1na2vs0mg"},{"bike_id":"7116df54-c7d6-4cf5-8154-1ca7a06755ae","system_id":"levelo_inurba_marseille","lat":43.294162,"lon":5.386292,"is_reserved":false,"is_disabled":false,"rental_uris":{"android":"levelo://app?vid=7116df54-c7d6-4cf5-8154-1ca7a06755ae","ios":"levelo://app?vid=7116df54-c7d6-4cf5-8154-1ca7a06755ae"},"vehicle_type_id":"4","last_reported":1718298430,"current_range_meters":2400,"station_id":"ce4bh2h2rcd13ifvqdh0","pricing_plan_id":"cebpf4jnsgd1na2vs0mg"},{"bike_id":"c992db3f-65de-4a7e-be30-dbc92386be3b","system_id":"levelo_inurba_marseille","lat":43.309076,"lon":5.368465,"is_reserved":false,"is_disabled":false,"rental_uris":{"android":"levelo://app?vid=c992db3f-65de-4a7e-be30-dbc92386be3b","ios":"levelo://app?vid=c992db3f-65de-4a7e-be30-dbc92386be3b"},"vehicle_type_id":"4","last_reported":1718298430,"current_range_meters":10800,"station_id":"ce4bgn92rcd13ifvqbvg","pricing_plan_id":"cebpf4jnsgd1na2vs0mg"},{"bike_id":"9b77f09b-0b56-4b1b-9575-55ddd15188b5","system_id":"levelo_inurba_marseille","lat":43.294153,"lon":5.386305,"is_reserved":false,"is_disabled":false,"rental_uris":{"android":"levelo://app?vid=9b77f09b-0b56-4b1b-9575-55ddd15188b5","ios":"levelo://app?vid=9b77f09b-0b56-4b1b-9575-55ddd15188b5"},"vehicle_type_id":"4","last_reported":1718298430,"current_range_meters":18400,"station_id":"ce4bh2h2rcd13ifvqdh0","pricing_plan_id":"cebpf4jnsgd1na2vs0mg"},{"bike_id":"ad3390a9-0afd-415c-a789-17d4534499b7","system_id":"levelo_inurba_marseille","lat":43.289435,"lon":5.366366,"is_reserved":false,"is_disabled":false,"rental_uris":{"android":"levelo://app?vid=ad3390a9-0afd-415c-a789-17d4534499b7","ios":"levelo://app?vid=ad3390a9-0afd-415c-a789-17d4534499b7"},"vehicle_type_id":"4","last_reported":1718298430,"current_range_meters":12000,"station_id":"ce4bhap2rcd13ifvqek0","pricing_plan_id":"cebpf4jnsgd1na2vs0mg"},{"bike_id":"5bd39e4f-925f-4ea9-9564-3b157db6b647","system_id":"levelo_inurba_marseille","lat":43.29031,"lon":5.37564,"is_reserved":false,"is_disabled":false,"rental_uris":{"android":"levelo://app?vid=5bd39e4f-925f-4ea9-9564-3b157db6b647","ios":"levelo://app?vid=5bd39e4f-925f-4ea9-9564-3b157db6b647"},"vehicle_type_id":"4","last_reported":1718298430,"current_range_meters":0,"station_id":"ce4bh692rcd13ifvqe90","pricing_plan_id":"cebpf4jnsgd1na2vs0mg"},{"bike_id":"305d0d5f-3f89-4e51-9b4f-bcb98d6783f5","system_id":"levelo_inurba_marseille","lat":43.289431,"lon":5.366264,"is_reserved":false,"is_disabled":false,"rental_uris":{"android":"levelo://app?vid=305d0d5f-3f89-4e51-9b4f-bcb98d6783f5","ios":"levelo://app?vid=305d0d5f-3f89-4e51-9b4f-bcb98d6783f5"},"vehicle_type_id":"4","last_reported":1718298430,"current_range_meters":4800,"station_id":"ce4bhap2rcd13ifvqek0","pricing_plan_id":"cebpf4jnsgd1na2vs0mg"},{"bike_id":"aeb227a5-555a-4432-af3a-35f40e613dc8","system_id":"levelo_inurba_marseille","lat":43.28939,"lon":5.36639,"is_reserved":false,"is_disabled":false,"rental_uris":{"android":"levelo://app?vid=aeb227a5-555a-4432-af3a-35f40e613dc8","ios":"levelo://app?vid=aeb227a5-555a-4432-af3a-35f40e613dc8"},"vehicle_type_id":"4","last_reported":1718298430,"current_range_meters":23600,"station_id":"ce4bhap2rcd13ifvqek0","pricing_plan_id":"cebpf4jnsgd1na2vs0mg"},{"bike_id":"90498354-7882-48e2-b140-64c089a26804","system_id":"levelo_inurba_marseille","lat":43.289365,"lon":5.36634,"is_reserved":false,"is_disabled":false,"rental_uris":{"android":"levelo://app?vid=90498354-7882-48e2-b140-64c089a26804","ios":"levelo://app?vid=90498354-7882-48e2-b140-64c089a26804"},"vehicle_type_id":"4","last_reported":1718298430,"current_range_meters":0,"station_id":"ce4bhap2rcd13ifvqek0","pricing_plan_id":"cebpf4jnsgd1na2vs0mg"},{"bike_id":"04cb96eb-e18a-4db3-985a-d1cdfe128af6","system_id":"levelo_inurba_marseille","lat":43.289468,"lon":5.363719,"is_reserved":false,"is_disabled":false,"rental_uris":{"android":"levelo://app?vid=04cb96eb-e18a-4db3-985a-d1cdfe128af6","ios":"levelo://app?vid=04cb96eb-e18a-4db3-985a-d1cdfe128af6"},"vehicle_type_id":"4","last_reported":1718298430,"current_range_meters":3600,"station_id":"ce4bhc92rcd13ifvqetg","pricing_plan_id":"cebpf4jnsgd1na2vs0mg"},{"bike_id":"ab0d9e9c-d50b-4ebe-b337-503607524ca4","system_id":"levelo_inurba_marseille","lat":43.289468,"lon":5.363719,"is_reserved":false,"is_disabled":false,"rental_uris":{"android":"levelo://app?vid=ab0d9e9c-d50b-4ebe-b337-503607524ca4","ios":"levelo://app?vid=ab0d9e9c-d50b-4ebe-b337-503607524ca4"},"vehicle_type_id":"4","last_reported":1718298430,"current_range_meters":0,"station_id":"ce4bhc92rcd13ifvqetg","pricing_plan_id":"cebpf4jnsgd1na2vs0mg"},{"bike_id":"fbd7e617-eb50-4d4a-bb72-a3c428cc42a0","system_id":"levelo_inurba_marseille","lat":43.289468,"lon":5.363719,"is_reserved":false,"is_disabled":false,"rental_uris":{"android":"levelo://app?vid=fbd7e617-eb50-4d4a-bb72-a3c428cc42a0","ios":"levelo://app?vid=fbd7e617-eb50-4d4a-bb72-a3c428cc42a0"},"vehicle_type_id":"4","last_reported":1718298430,"current_range_meters":0,"station_id":"ce4bhc92rcd13ifvqetg","pricing_plan_id":"cebpf4jnsgd1na2vs0mg"},{"bike_id":"b938f37a-3735-4c83-9974-5a250392c719","system_id":"levelo_inurba_marseille","lat":43.289468,"lon":5.363719,"is_reserved":false,"is_disabled":false,"rental_uris":{"android":"levelo://app?vid=b938f37a-3735-4c83-9974-5a250392c719","ios":"levelo://app?vid=b938f37a-3735-4c83-9974-5a250392c719"},"vehicle_type_id":"4","last_reported":1718298430,"current_range_meters":29600,"station_id":"ce4bhc92rcd13ifvqetg","pricing_plan_id":"cebpf4jnsgd1na2vs0mg"},{"bike_id":"3dadd920-6cbc-48c5-bd56-c7649217fc88","system_id":"levelo_inurba_marseille","lat":43.289283,"lon":5.36409,"is_reserved":false,"is_disabled":false,"rental_uris":{"android":"levelo://app?vid=3dadd920-6cbc-48c5-bd56-c7649217fc88","ios":"levelo://app?vid=3dadd920-6cbc-48c5-bd56-c7649217fc88"},"vehicle_type_id":"4","last_reported":1718298430,"current_range_meters":19200,"station_id":"ce4bhc92rcd13ifvqetg","pricing_plan_id":"cebpf4jnsgd1na2vs0mg"},{"bike_id":"c320d62e-90cf-4142-aa7a-b36c2f20484b","system_id":"levelo_inurba_marseille","lat":43.29266,"lon":5.38435,"is_reserved":false,"is_disabled":false,"rental_uris":{"android":"levelo://app?vid=c320d62e-90cf-4142-aa7a-b36c2f20484b","ios":"levelo://app?vid=c320d62e-90cf-4142-aa7a-b36c2f20484b"},"vehicle_type_id":"4","last_reported":1718298430,"current_range_meters":11600,"station_id":"ce4bh692rcd13ifvqea0","pricing_plan_id":"cebpf4jnsgd1na2vs0mg"},{"bike_id":"0ffc14c6-732b-4972-bca9-dae6a427ef94","system_id":"levelo_inurba_marseille","lat":43.292671,"lon":5.384471,"is_reserved":false,"is_disabled":false,"rental_uris":{"android":"levelo://app?vid=0ffc14c6-732b-4972-bca9-dae6a427ef94","ios":"levelo://app?vid=0ffc14c6-732b-4972-bca9-dae6a427ef94"},"vehicle_type_id":"4","last_reported":1718298430,"current_range_meters":31200,"station_id":"ce4bh692rcd13ifvqea0","pricing_plan_id":"cebpf4jnsgd1na2vs0mg"},{"bike_id":"7c442513-135e-4e97-a47f-9df6fe46d768","system_id":"levelo_inurba_marseille","lat":43.29266,"lon":5.38445,"is_reserved":false,"is_disabled":false,"rental_uris":{"android":"levelo://app?vid=7c442513-135e-4e97-a47f-9df6fe46d768","ios":"levelo://app?vid=7c442513-135e-4e97-a47f-9df6fe46d768"},"vehicle_type_id":"4","last_reported":1718298430,"current_range_meters":6800,"station_id":"ce4bh692rcd13ifvqea0","pricing_plan_id":"cebpf4jnsgd1na2vs0mg"},{"bike_id":"7221587c-9950-4bc7-859e-79eb62f45565","system_id":"levelo_inurba_marseille","lat":43.292644,"lon":5.384257,"is_reserved":false,"is_disabled":false,"rental_uris":{"android":"levelo://app?vid=7221587c-9950-4bc7-859e-79eb62f45565","ios":"levelo://app?vid=7221587c-9950-4bc7-859e-79eb62f45565"},"vehicle_type_id":"4","last_reported":1718298430,"current_range_meters":0,"station_id":"ce4bh692rcd13ifvqea0","pricing_plan_id":"cebpf4jnsgd1na2vs0mg"},{"bike_id":"8a8a0177-6a7e-42e7-abb2-1946befd3dd3","system_id":"levelo_inurba_marseille","lat":43.29257,"lon":5.38432,"is_reserved":false,"is_disabled":false,"rental_uris":{"android":"levelo://app?vid=8a8a0177-6a7e-42e7-abb2-1946befd3dd3","ios":"levelo://app?vid=8a8a0177-6a7e-42e7-abb2-1946befd3dd3"},"vehicle_type_id":"4","last_reported":1718298430,"current_range_meters":15600,"station_id":"ce4bh692rcd13ifvqea0","pricing_plan_id":"cebpf4jnsgd1na2vs0mg"},{"bike_id":"b5bbe6c7-8888-4ed0-a0d0-f0d7e256869f","system_id":"levelo_inurba_marseille","lat":43.29251,"lon":5.38426,"is_reserved":false,"is_disabled":false,"rental_uris":{"android":"levelo://app?vid=b5bbe6c7-8888-4ed0-a0d0-f0d7e256869f","ios":"levelo://app?vid=b5bbe6c7-8888-4ed0-a0d0-f0d7e256869f"},"vehicle_type_id":"4","last_reported":1718298430,"current_range_meters":10400,"station_id":"ce4bh692rcd13ifvqea0","pricing_plan_id":"cebpf4jnsgd1na2vs0mg"},{"bike_id":"65e66358-426f-4c7a-86cc-3df7b1a12a05","system_id":"levelo_inurba_marseille","lat":43.292644,"lon":5.384257,"is_reserved":false,"is_disabled":false,"rental_uris":{"android":"levelo://app?vid=65e66358-426f-4c7a-86cc-3df7b1a12a05","ios":"levelo://app?vid=65e66358-426f-4c7a-86cc-3df7b1a12a05"},"vehicle_type_id":"4","last_reported":1718298430,"current_range_meters":25600,"station_id":"ce4bh692rcd13ifvqea0","pricing_plan_id":"cebpf4jnsgd1na2vs0mg"},{"bike_id":"eea48cff-e111-44ed-9194-d18da6f3bbcc","system_id":"levelo_inurba_marseille","lat":43.29254,"lon":5.38438,"is_reserved":false,"is_disabled":false,"rental_uris":{"android":"levelo://app?vid=eea48cff-e111-44ed-9194-d18da6f3bbcc","ios":"levelo://app?vid=eea48cff-e111-44ed-9194-d18da6f3bbcc"},"vehicle_type_id":"4","last_reported":1718298430,"current_range_meters":29200,"station_id":"ce4bh692rcd13ifvqea0","pricing_plan_id":"cebpf4jnsgd1na2vs0mg"},{"bike_id":"1f32bdb7-f685-408c-af4e-57cf522df34a","system_id":"levelo_inurba_marseille","lat":43.29252,"lon":5.38439,"is_reserved":false,"is_disabled":false,"rental_uris":{"android":"levelo://app?vid=1f32bdb7-f685-408c-af4e-57cf522df34a","ios":"levelo://app?vid=1f32bdb7-f685-408c-af4e-57cf522df34a"},"vehicle_type_id":"4","last_reported":1718298430,"current_range_meters":0,"station_id":"ce4bh692rcd13ifvqea0","pricing_plan_id":"cebpf4jnsgd1na2vs0mg"},{"bike_id":"d530525e-c601-431a-8365-63ae825aa159","system_id":"levelo_inurba_marseille","lat":43.292644,"lon":5.384257,"is_reserved":false,"is_disabled":false,"rental_uris":{"android":"levelo://app?vid=d530525e-c601-431a-8365-63ae825aa159","ios":"levelo://app?vid=d530525e-c601-431a-8365-63ae825aa159"},"vehicle_type_id":"4","last_reported":1718298430,"current_range_meters":0,"station_id":"ce4bh692rcd13ifvqea0","pricing_plan_id":"cebpf4jnsgd1na2vs0mg"},{"bike_id":"1764d3e0-1416-4aa9-b2fc-ca59accd1498","system_id":"levelo_inurba_marseille","lat":43.29251,"lon":5.38445,"is_reserved":false,"is_disabled":false,"rental_uris":{"android":"levelo://app?vid=1764d3e0-1416-4aa9-b2fc-ca59accd1498","ios":"levelo://app?vid=1764d3e0-1416-4aa9-b2fc-ca59accd1498"},"vehicle_type_id":"4","last_reported":1718298430,"current_range_meters":30000,"station_id":"ce4bh692rcd13ifvqea0","pricing_plan_id":"cebpf4jnsgd1na2vs0mg"},{"bike_id":"be1f25cb-6aaf-488e-a3c5-ee342f05dd87","system_id":"levelo_inurba_marseille","lat":43.29008,"lon":5.35614,"is_reserved":false,"is_disabled":false,"rental_uris":{"android":"levelo://app?vid=be1f25cb-6aaf-488e-a3c5-ee342f05dd87","ios":"levelo://app?vid=be1f25cb-6aaf-488e-a3c5-ee342f05dd87"},"vehicle_type_id":"4","last_reported":1718298430,"current_range_meters":0,"station_id":"ce4bhb92rcd13ifvqen0","pricing_plan_id":"cebpf4jnsgd1na2vs0mg"},{"bike_id":"233f5018-55aa-4cd8-9079-e42f3f86ef57","system_id":"levelo_inurba_marseille","lat":43.29004,"lon":5.35618,"is_reserved":false,"is_disabled":false,"rental_uris":{"android":"levelo://app?vid=233f5018-55aa-4cd8-9079-e42f3f86ef57","ios":"levelo://app?vid=233f5018-55aa-4cd8-9079-e42f3f86ef57"},"vehicle_type_id":"4","last_reported":1718298430,"current_range_meters":0,"station_id":"ce4bhb92rcd13ifvqen0","pricing_plan_id":"cebpf4jnsgd1na2vs0mg"},{"bike_id":"6e8dd65a-acc1-4c82-8566-a297faeabdf3","system_id":"levelo_inurba_marseille","lat":43.290103,"lon":5.356114,"is_reserved":false,"is_disabled":false,"rental_uris":{"android":"levelo://app?vid=6e8dd65a-acc1-4c82-8566-a297faeabdf3","ios":"levelo://app?vid=6e8dd65a-acc1-4c82-8566-a297faeabdf3"},"vehicle_type_id":"4","last_reported":1718298430,"current_range_meters":1200,"station_id":"ce4bhb92rcd13ifvqen0","pricing_plan_id":"cebpf4jnsgd1na2vs0mg"},{"bike_id":"b2490692-b590-40b6-8b4b-6b905a72d64b","system_id":"levelo_inurba_marseille","lat":43.290104,"lon":5.356111,"is_reserved":false,"is_disabled":false,"rental_uris":{"android":"levelo://app?vid=b2490692-b590-40b6-8b4b-6b905a72d64b","ios":"levelo://app?vid=b2490692-b590-40b6-8b4b-6b905a72d64b"},"vehicle_type_id":"4","last_reported":1718298430,"current_range_meters":10000,"station_id":"ce4bhb92rcd13ifvqen0","pricing_plan_id":"cebpf4jnsgd1na2vs0mg"},{"bike_id":"92a9da22-0251-4298-9c17-e6a1cecad176","system_id":"levelo_inurba_marseille","lat":43.290104,"lon":5.356111,"is_reserved":false,"is_disabled":false,"rental_uris":{"android":"levelo://app?vid=92a9da22-0251-4298-9c17-e6a1cecad176","ios":"levelo://app?vid=92a9da22-0251-4298-9c17-e6a1cecad176"},"vehicle_type_id":"4","last_reported":1718298430,"current_range_meters":14400,"station_id":"ce4bhb92rcd13ifvqen0","pricing_plan_id":"cebpf4jnsgd1na2vs0mg"},{"bike_id":"6dce9cfb-d025-4994-a857-10c47119c008","system_id":"levelo_inurba_marseille","lat":43.290104,"lon":5.356111,"is_reserved":false,"is_disabled":false,"rental_uris":{"android":"levelo://app?vid=6dce9cfb-d025-4994-a857-10c47119c008","ios":"levelo://app?vid=6dce9cfb-d025-4994-a857-10c47119c008"},"vehicle_type_id":"4","last_reported":1718298430,"current_range_meters":1200,"station_id":"ce4bhb92rcd13ifvqen0","pricing_plan_id":"cebpf4jnsgd1na2vs0mg"},{"bike_id":"46fd1ed3-ee02-469e-9b1a-04a2d4e722bf","system_id":"levelo_inurba_marseille","lat":43.290995,"lon":5.381361,"is_reserved":false,"is_disabled":false,"rental_uris":{"android":"levelo://app?vid=46fd1ed3-ee02-469e-9b1a-04a2d4e722bf","ios":"levelo://app?vid=46fd1ed3-ee02-469e-9b1a-04a2d4e722bf"},"vehicle_type_id":"4","last_reported":1718298430,"current_range_meters":0,"station_id":"ce4bh512rcd13ifvqe2g","pricing_plan_id":"cebpf4jnsgd1na2vs0mg"},{"bike_id":"44318797-785e-444c-84ee-ac8b32cf431f","system_id":"levelo_inurba_marseille","lat":43.29926,"lon":5.394723,"is_reserved":false,"is_disabled":false,"rental_uris":{"android":"levelo://app?vid=44318797-785e-444c-84ee-ac8b32cf431f","ios":"levelo://app?vid=44318797-785e-444c-84ee-ac8b32cf431f"},"vehicle_type_id":"4","last_reported":1718298430,"current_range_meters":0,"station_id":"ce4bh392rcd13ifvqdl0","pricing_plan_id":"cebpf4jnsgd1na2vs0mg"},{"bike_id":"cdef7a9f-ef5d-4668-8979-e261e022644a","system_id":"levelo_inurba_marseille","lat":43.289741,"lon":5.378306,"is_reserved":false,"is_disabled":false,"rental_uris":{"android":"levelo://app?vid=cdef7a9f-ef5d-4668-8979-e261e022644a","ios":"levelo://app?vid=cdef7a9f-ef5d-4668-8979-e261e022644a"},"vehicle_type_id":"4","last_reported":1718298430,"current_range_meters":3600,"station_id":"ce4bh9p2rcd13ifvqed0","pricing_plan_id":"cebpf4jnsgd1na2vs0mg"},{"bike_id":"aec9cf39-a74f-4b66-9c8f-2d858594bcd4","system_id":"levelo_inurba_marseille","lat":43.290995,"lon":5.381361,"is_reserved":false,"is_disabled":false,"rental_uris":{"android":"levelo://app?vid=aec9cf39-a74f-4b66-9c8f-2d858594bcd4","ios":"levelo://app?vid=aec9cf39-a74f-4b66-9c8f-2d858594bcd4"},"vehicle_type_id":"4","last_reported":1718298430,"current_range_meters":800,"station_id":"ce4bh512rcd13ifvqe2g","pricing_plan_id":"cebpf4jnsgd1na2vs0mg"},{"bike_id":"a01f1bc8-3862-40e2-afe0-ecffb2cfef46","system_id":"levelo_inurba_marseille","lat":43.29774,"lon":5.393344,"is_reserved":false,"is_disabled":false,"rental_uris":{"android":"levelo://app?vid=a01f1bc8-3862-40e2-afe0-ecffb2cfef46","ios":"levelo://app?vid=a01f1bc8-3862-40e2-afe0-ecffb2cfef46"},"vehicle_type_id":"4","last_reported":1718298430,"current_range_meters":0,"station_id":"chh1huq6cuj3fo74tm60","pricing_plan_id":"cebpf4jnsgd1na2vs0mg"},{"bike_id":"30aab9a0-efba-4c26-90b2-23360f5fe589","system_id":"levelo_inurba_marseille","lat":43.33022,"lon":5.39036,"is_reserved":false,"is_disabled":false,"rental_uris":{"android":"levelo://app?vid=30aab9a0-efba-4c26-90b2-23360f5fe589","ios":"levelo://app?vid=30aab9a0-efba-4c26-90b2-23360f5fe589"},"vehicle_type_id":"4","last_reported":1718298430,"current_range_meters":2800,"station_id":"ce4bhr92rcd13ifvqhrg","pricing_plan_id":"cebpf4jnsgd1na2vs0mg"},{"bike_id":"0a32f60a-9cb5-410c-936f-421371c731e2","system_id":"levelo_inurba_marseille","lat":43.30304,"lon":5.368987,"is_reserved":false,"is_disabled":false,"rental_uris":{"android":"levelo://app?vid=0a32f60a-9cb5-410c-936f-421371c731e2","ios":"levelo://app?vid=0a32f60a-9cb5-410c-936f-421371c731e2"},"vehicle_type_id":"4","last_reported":1718298430,"current_range_meters":0,"station_id":"ce4bgqh2rcd13ifvqc5g","pricing_plan_id":"cebpf4jnsgd1na2vs0mg"},{"bike_id":"a75ca73d-624c-4579-bf61-f5480becc539","system_id":"levelo_inurba_marseille","lat":43.330442,"lon":5.389148,"is_reserved":false,"is_disabled":false,"rental_uris":{"android":"levelo://app?vid=a75ca73d-624c-4579-bf61-f5480becc539","ios":"levelo://app?vid=a75ca73d-624c-4579-bf61-f5480becc539"},"vehicle_type_id":"4","last_reported":1718298430,"current_range_meters":2800,"station_id":"ce4bhr92rcd13ifvqhrg","pricing_plan_id":"cebpf4jnsgd1na2vs0mg"},{"bike_id":"c169b08b-d88d-4976-ac0c-76a459e3e542","system_id":"levelo_inurba_marseille","lat":43.330442,"lon":5.389148,"is_reserved":false,"is_disabled":false,"rental_uris":{"android":"levelo://app?vid=c169b08b-d88d-4976-ac0c-76a459e3e542","ios":"levelo://app?vid=c169b08b-d88d-4976-ac0c-76a459e3e542"},"vehicle_type_id":"4","last_reported":1718298430,"current_range_meters":2400,"station_id":"ce4bhr92rcd13ifvqhrg","pricing_plan_id":"cebpf4jnsgd1na2vs0mg"},{"bike_id":"1c1132f6-4945-4e5f-ae33-c9297d40a7db","system_id":"levelo_inurba_marseille","lat":43.33024,"lon":5.39046,"is_reserved":false,"is_disabled":false,"rental_uris":{"android":"levelo://app?vid=1c1132f6-4945-4e5f-ae33-c9297d40a7db","ios":"levelo://app?vid=1c1132f6-4945-4e5f-ae33-c9297d40a7db"},"vehicle_type_id":"4","last_reported":1718298430,"current_range_meters":0,"station_id":"ce4bhr92rcd13ifvqhrg","pricing_plan_id":"cebpf4jnsgd1na2vs0mg"},{"bike_id":"082e9c61-44d9-4957-8ed4-c7bdd7596080","system_id":"levelo_inurba_marseille","lat":43.28856,"lon":5.358371,"is_reserved":false,"is_disabled":false,"rental_uris":{"android":"levelo://app?vid=082e9c61-44d9-4957-8ed4-c7bdd7596080","ios":"levelo://app?vid=082e9c61-44d9-4957-8ed4-c7bdd7596080"},"vehicle_type_id":"4","last_reported":1718298430,"current_range_meters":22800,"station_id":"ce4bhb12rcd13ifvqem0","pricing_plan_id":"cebpf4jnsgd1na2vs0mg"},{"bike_id":"9ad544f8-92ba-4c11-aa09-57880fe28271","system_id":"levelo_inurba_marseille","lat":43.293009,"lon":5.374584,"is_reserved":false,"is_disabled":false,"rental_uris":{"android":"levelo://app?vid=9ad544f8-92ba-4c11-aa09-57880fe28271","ios":"levelo://app?vid=9ad544f8-92ba-4c11-aa09-57880fe28271"},"vehicle_type_id":"4","last_reported":1718298430,"current_range_meters":20800,"station_id":"ce4bgi12rcd13ifvqb70","pricing_plan_id":"cebpf4jnsgd1na2vs0mg"},{"bike_id":"c2629619-ae5c-4abe-9615-cb87b1e093d4","system_id":"levelo_inurba_marseille","lat":43.28856,"lon":5.358371,"is_reserved":false,"is_disabled":false,"rental_uris":{"android":"levelo://app?vid=c2629619-ae5c-4abe-9615-cb87b1e093d4","ios":"levelo://app?vid=c2629619-ae5c-4abe-9615-cb87b1e093d4"},"vehicle_type_id":"4","last_reported":1718298430,"current_range_meters":14400,"station_id":"ce4bhb12rcd13ifvqem0","pricing_plan_id":"cebpf4jnsgd1na2vs0mg"},{"bike_id":"ee75e1bd-dd19-4f7b-a7c8-b521f7233577","system_id":"levelo_inurba_marseille","lat":43.288404,"lon":5.358378,"is_reserved":false,"is_disabled":false,"rental_uris":{"android":"levelo://app?vid=ee75e1bd-dd19-4f7b-a7c8-b521f7233577","ios":"levelo://app?vid=ee75e1bd-dd19-4f7b-a7c8-b521f7233577"},"vehicle_type_id":"4","last_reported":1718298430,"current_range_meters":30800,"station_id":"ce4bhb12rcd13ifvqem0","pricing_plan_id":"cebpf4jnsgd1na2vs0mg"},{"bike_id":"28d3368f-7724-4e0b-89f3-6df0300f1fc8","system_id":"levelo_inurba_marseille","lat":43.30639,"lon":5.40041,"is_reserved":false,"is_disabled":false,"rental_uris":{"android":"levelo://app?vid=28d3368f-7724-4e0b-89f3-6df0300f1fc8","ios":"levelo://app?vid=28d3368f-7724-4e0b-89f3-6df0300f1fc8"},"vehicle_type_id":"4","last_reported":1718298430,"current_range_meters":5200,"station_id":"","pricing_plan_id":"cebpf4jnsgd1na2vs0mg"},{"bike_id":"54436671-bda4-433f-b6c2-5d4ef97a2448","system_id":"levelo_inurba_marseille","lat":43.312609,"lon":5.401662,"is_reserved":false,"is_disabled":false,"rental_uris":{"android":"levelo://app?vid=54436671-bda4-433f-b6c2-5d4ef97a2448","ios":"levelo://app?vid=54436671-bda4-433f-b6c2-5d4ef97a2448"},"vehicle_type_id":"4","last_reported":1718298430,"current_range_meters":19600,"station_id":"ce4bh092rcd13ifvqd30","pricing_plan_id":"cebpf4jnsgd1na2vs0mg"},{"bike_id":"46c4b0de-0bd9-4075-a3fc-82427eb7f798","system_id":"levelo_inurba_marseille","lat":43.309371,"lon":5.401449,"is_reserved":false,"is_disabled":false,"rental_uris":{"android":"levelo://app?vid=46c4b0de-0bd9-4075-a3fc-82427eb7f798","ios":"levelo://app?vid=46c4b0de-0bd9-4075-a3fc-82427eb7f798"},"vehicle_type_id":"4","last_reported":1718298430,"current_range_meters":0,"station_id":"ce4bgvp2rcd13ifvqct0","pricing_plan_id":"cebpf4jnsgd1na2vs0mg"},{"bike_id":"f2131975-8f62-48b5-b8fc-78e487f910d0","system_id":"levelo_inurba_marseille","lat":43.312609,"lon":5.401662,"is_reserved":false,"is_disabled":false,"rental_uris":{"android":"levelo://app?vid=f2131975-8f62-48b5-b8fc-78e487f910d0","ios":"levelo://app?vid=f2131975-8f62-48b5-b8fc-78e487f910d0"},"vehicle_type_id":"4","last_reported":1718298430,"current_range_meters":4800,"station_id":"ce4bh092rcd13ifvqd30","pricing_plan_id":"cebpf4jnsgd1na2vs0mg"},{"bike_id":"8e5af1cb-e056-413a-b32b-e6edcc32be99","system_id":"levelo_inurba_marseille","lat":43.309371,"lon":5.401449,"is_reserved":false,"is_disabled":false,"rental_uris":{"android":"levelo://app?vid=8e5af1cb-e056-413a-b32b-e6edcc32be99","ios":"levelo://app?vid=8e5af1cb-e056-413a-b32b-e6edcc32be99"},"vehicle_type_id":"4","last_reported":1718298430,"current_range_meters":11200,"station_id":"ce4bgvp2rcd13ifvqct0","pricing_plan_id":"cebpf4jnsgd1na2vs0mg"},{"bike_id":"4f4bae78-2533-427c-a0a5-7455f9b2216b","system_id":"levelo_inurba_marseille","lat":43.309371,"lon":5.401449,"is_reserved":false,"is_disabled":false,"rental_uris":{"android":"levelo://app?vid=4f4bae78-2533-427c-a0a5-7455f9b2216b","ios":"levelo://app?vid=4f4bae78-2533-427c-a0a5-7455f9b2216b"},"vehicle_type_id":"4","last_reported":1718298430,"current_range_meters":1200,"station_id":"ce4bgvp2rcd13ifvqct0","pricing_plan_id":"cebpf4jnsgd1na2vs0mg"},{"bike_id":"e3089509-c607-4747-82d3-bbc448d75090","system_id":"levelo_inurba_marseille","lat":43.312609,"lon":5.401662,"is_reserved":false,"is_disabled":false,"rental_uris":{"android":"levelo://app?vid=e3089509-c607-4747-82d3-bbc448d75090","ios":"levelo://app?vid=e3089509-c607-4747-82d3-bbc448d75090"},"vehicle_type_id":"4","last_reported":1718298430,"current_range_meters":23600,"station_id":"ce4bh092rcd13ifvqd30","pricing_plan_id":"cebpf4jnsgd1na2vs0mg"},{"bike_id":"61db2d5e-d80f-4cca-b97d-d48420287394","system_id":"levelo_inurba_marseille","lat":43.309371,"lon":5.401449,"is_reserved":false,"is_disabled":false,"rental_uris":{"android":"levelo://app?vid=61db2d5e-d80f-4cca-b97d-d48420287394","ios":"levelo://app?vid=61db2d5e-d80f-4cca-b97d-d48420287394"},"vehicle_type_id":"4","last_reported":1718298430,"current_range_meters":4800,"station_id":"ce4bgvp2rcd13ifvqct0","pricing_plan_id":"cebpf4jnsgd1na2vs0mg"},{"bike_id":"450bd678-ea63-4f57-96d2-7c49fca05f18","system_id":"levelo_inurba_marseille","lat":43.30657,"lon":5.40086,"is_reserved":false,"is_disabled":false,"rental_uris":{"android":"levelo://app?vid=450bd678-ea63-4f57-96d2-7c49fca05f18","ios":"levelo://app?vid=450bd678-ea63-4f57-96d2-7c49fca05f18"},"vehicle_type_id":"4","last_reported":1718298430,"current_range_meters":0,"station_id":"ce4bh112rcd13ifvqda0","pricing_plan_id":"cebpf4jnsgd1na2vs0mg"},{"bike_id":"4f22ce06-70ac-4975-8b9a-908f05d616b0","system_id":"levelo_inurba_marseille","lat":43.30637,"lon":5.40081,"is_reserved":false,"is_disabled":false,"rental_uris":{"android":"levelo://app?vid=4f22ce06-70ac-4975-8b9a-908f05d616b0","ios":"levelo://app?vid=4f22ce06-70ac-4975-8b9a-908f05d616b0"},"vehicle_type_id":"4","last_reported":1718298430,"current_range_meters":2000,"station_id":"ce4bh112rcd13ifvqda0","pricing_plan_id":"cebpf4jnsgd1na2vs0mg"},{"bike_id":"119cefc5-4e5c-4176-b71a-563ba0fbf606","system_id":"levelo_inurba_marseille","lat":43.30644,"lon":5.40085,"is_reserved":false,"is_disabled":false,"rental_uris":{"android":"levelo://app?vid=119cefc5-4e5c-4176-b71a-563ba0fbf606","ios":"levelo://app?vid=119cefc5-4e5c-4176-b71a-563ba0fbf606"},"vehicle_type_id":"4","last_reported":1718298430,"current_range_meters":23600,"station_id":"ce4bh112rcd13ifvqda0","pricing_plan_id":"cebpf4jnsgd1na2vs0mg"},{"bike_id":"89dc3ec2-2c66-4502-b4c8-1e50525df84b","system_id":"levelo_inurba_marseille","lat":43.306412,"lon":5.401035,"is_reserved":false,"is_disabled":false,"rental_uris":{"android":"levelo://app?vid=89dc3ec2-2c66-4502-b4c8-1e50525df84b","ios":"levelo://app?vid=89dc3ec2-2c66-4502-b4c8-1e50525df84b"},"vehicle_type_id":"4","last_reported":1718298430,"current_range_meters":2800,"station_id":"ce4bh112rcd13ifvqda0","pricing_plan_id":"cebpf4jnsgd1na2vs0mg"},{"bike_id":"bc26b2ea-1c92-4f3d-950d-e5fdaa6ba207","system_id":"levelo_inurba_marseille","lat":43.306412,"lon":5.401035,"is_reserved":false,"is_disabled":false,"rental_uris":{"android":"levelo://app?vid=bc26b2ea-1c92-4f3d-950d-e5fdaa6ba207","ios":"levelo://app?vid=bc26b2ea-1c92-4f3d-950d-e5fdaa6ba207"},"vehicle_type_id":"4","last_reported":1718298430,"current_range_meters":0,"station_id":"ce4bh112rcd13ifvqda0","pricing_plan_id":"cebpf4jnsgd1na2vs0mg"},{"bike_id":"9f6314ce-2f1b-44b9-8d70-759d45dde1f6","system_id":"levelo_inurba_marseille","lat":43.30637,"lon":5.40101,"is_reserved":false,"is_disabled":false,"rental_uris":{"android":"levelo://app?vid=9f6314ce-2f1b-44b9-8d70-759d45dde1f6","ios":"levelo://app?vid=9f6314ce-2f1b-44b9-8d70-759d45dde1f6"},"vehicle_type_id":"4","last_reported":1718298430,"current_range_meters":6800,"station_id":"ce4bh112rcd13ifvqda0","pricing_plan_id":"cebpf4jnsgd1na2vs0mg"},{"bike_id":"75b870bc-fb95-494b-a064-5c25029e330e","system_id":"levelo_inurba_marseille","lat":43.28727,"lon":5.36078,"is_reserved":false,"is_disabled":false,"rental_uris":{"android":"levelo://app?vid=75b870bc-fb95-494b-a064-5c25029e330e","ios":"levelo://app?vid=75b870bc-fb95-494b-a064-5c25029e330e"},"vehicle_type_id":"4","last_reported":1718298430,"current_range_meters":8400,"station_id":"cki0cbj6b192h4jlfktg","pricing_plan_id":"cebpf4jnsgd1na2vs0mg"},{"bike_id":"bdfd81a6-d9c1-4f74-ad5d-6e0a9de615b6","system_id":"levelo_inurba_marseille","lat":43.28727,"lon":5.36078,"is_reserved":false,"is_disabled":false,"rental_uris":{"android":"levelo://app?vid=bdfd81a6-d9c1-4f74-ad5d-6e0a9de615b6","ios":"levelo://app?vid=bdfd81a6-d9c1-4f74-ad5d-6e0a9de615b6"},"vehicle_type_id":"4","last_reported":1718298430,"current_range_meters":31600,"station_id":"cki0cbj6b192h4jlfktg","pricing_plan_id":"cebpf4jnsgd1na2vs0mg"},{"bike_id":"227aa5bf-d7fc-4159-a1ab-7e7669958edd","system_id":"levelo_inurba_marseille","lat":43.28672,"lon":5.3635,"is_reserved":false,"is_disabled":false,"rental_uris":{"android":"levelo://app?vid=227aa5bf-d7fc-4159-a1ab-7e7669958edd","ios":"levelo://app?vid=227aa5bf-d7fc-4159-a1ab-7e7669958edd"},"vehicle_type_id":"4","last_reported":1718298430,"current_range_meters":6000,"station_id":"ce4bhah2rcd13ifvqej0","pricing_plan_id":"cebpf4jnsgd1na2vs0mg"},{"bike_id":"924ecc88-e7bc-424b-a426-686d7b0fcb38","system_id":"levelo_inurba_marseille","lat":43.298681,"lon":5.397225,"is_reserved":false,"is_disabled":false,"rental_uris":{"android":"levelo://app?vid=924ecc88-e7bc-424b-a426-686d7b0fcb38","ios":"levelo://app?vid=924ecc88-e7bc-424b-a426-686d7b0fcb38"},"vehicle_type_id":"4","last_reported":1718298430,"current_range_meters":0,"station_id":"ce4bh0h2rcd13ifvqd50","pricing_plan_id":"cebpf4jnsgd1na2vs0mg"},{"bike_id":"e9156697-d399-4953-a7c9-1d9828046142","system_id":"levelo_inurba_marseille","lat":43.286591,"lon":5.363346,"is_reserved":false,"is_disabled":false,"rental_uris":{"android":"levelo://app?vid=e9156697-d399-4953-a7c9-1d9828046142","ios":"levelo://app?vid=e9156697-d399-4953-a7c9-1d9828046142"},"vehicle_type_id":"4","last_reported":1718298430,"current_range_meters":24800,"station_id":"ce4bhah2rcd13ifvqej0","pricing_plan_id":"cebpf4jnsgd1na2vs0mg"},{"bike_id":"47626136-c293-4736-a1f4-68f95c88e614","system_id":"levelo_inurba_marseille","lat":43.286593,"lon":5.363346,"is_reserved":false,"is_disabled":false,"rental_uris":{"android":"levelo://app?vid=47626136-c293-4736-a1f4-68f95c88e614","ios":"levelo://app?vid=47626136-c293-4736-a1f4-68f95c88e614"},"vehicle_type_id":"4","last_reported":1718298430,"current_range_meters":7600,"station_id":"ce4bhah2rcd13ifvqej0","pricing_plan_id":"cebpf4jnsgd1na2vs0mg"},{"bike_id":"1baed264-f3ac-4a1e-93b1-9d9f8827922e","system_id":"levelo_inurba_marseille","lat":43.2866,"lon":5.36347,"is_reserved":false,"is_disabled":false,"rental_uris":{"android":"levelo://app?vid=1baed264-f3ac-4a1e-93b1-9d9f8827922e","ios":"levelo://app?vid=1baed264-f3ac-4a1e-93b1-9d9f8827922e"},"vehicle_type_id":"4","last_reported":1718298430,"current_range_meters":23200,"station_id":"ce4bhah2rcd13ifvqej0","pricing_plan_id":"cebpf4jnsgd1na2vs0mg"},{"bike_id":"4745283c-a49d-41b8-b454-52e7d110d2ce","system_id":"levelo_inurba_marseille","lat":43.298681,"lon":5.397225,"is_reserved":false,"is_disabled":false,"rental_uris":{"android":"levelo://app?vid=4745283c-a49d-41b8-b454-52e7d110d2ce","ios":"levelo://app?vid=4745283c-a49d-41b8-b454-52e7d110d2ce"},"vehicle_type_id":"4","last_reported":1718298430,"current_range_meters":0,"station_id":"ce4bh0h2rcd13ifvqd50","pricing_plan_id":"cebpf4jnsgd1na2vs0mg"},{"bike_id":"d1122b05-bde9-48f7-8f62-ec392f525151","system_id":"levelo_inurba_marseille","lat":43.295196,"lon":5.39397,"is_reserved":false,"is_disabled":false,"rental_uris":{"android":"levelo://app?vid=d1122b05-bde9-48f7-8f62-ec392f525151","ios":"levelo://app?vid=d1122b05-bde9-48f7-8f62-ec392f525151"},"vehicle_type_id":"4","last_reported":1718298430,"current_range_meters":22000,"station_id":"ce4bh292rcd13ifvqdf0","pricing_plan_id":"cebpf4jnsgd1na2vs0mg"},{"bike_id":"105e0fe2-25c7-4e13-bf1f-f7d4c52992c2","system_id":"levelo_inurba_marseille","lat":43.295194,"lon":5.39397,"is_reserved":false,"is_disabled":false,"rental_uris":{"android":"levelo://app?vid=105e0fe2-25c7-4e13-bf1f-f7d4c52992c2","ios":"levelo://app?vid=105e0fe2-25c7-4e13-bf1f-f7d4c52992c2"},"vehicle_type_id":"4","last_reported":1718298430,"current_range_meters":0,"station_id":"ce4bh292rcd13ifvqdf0","pricing_plan_id":"cebpf4jnsgd1na2vs0mg"},{"bike_id":"715844bc-e37e-4f03-8ac0-7d25fbcd2e82","system_id":"levelo_inurba_marseille","lat":43.295194,"lon":5.39397,"is_reserved":false,"is_disabled":false,"rental_uris":{"android":"levelo://app?vid=715844bc-e37e-4f03-8ac0-7d25fbcd2e82","ios":"levelo://app?vid=715844bc-e37e-4f03-8ac0-7d25fbcd2e82"},"vehicle_type_id":"4","last_reported":1718298430,"current_range_meters":0,"station_id":"ce4bh292rcd13ifvqdf0","pricing_plan_id":"cebpf4jnsgd1na2vs0mg"},{"bike_id":"e37dae25-b159-4fb5-abc5-759707a2ef8d","system_id":"levelo_inurba_marseille","lat":43.30253,"lon":5.40054,"is_reserved":false,"is_disabled":false,"rental_uris":{"android":"levelo://app?vid=e37dae25-b159-4fb5-abc5-759707a2ef8d","ios":"levelo://app?vid=e37dae25-b159-4fb5-abc5-759707a2ef8d"},"vehicle_type_id":"4","last_reported":1718298430,"current_range_meters":1600,"station_id":"ce4bgvh2rcd13ifvqcs0","pricing_plan_id":"cebpf4jnsgd1na2vs0mg"},{"bike_id":"9e139e46-a301-42bd-8a8f-43df71a36c9c","system_id":"levelo_inurba_marseille","lat":43.30259,"lon":5.4007,"is_reserved":false,"is_disabled":false,"rental_uris":{"android":"levelo://app?vid=9e139e46-a301-42bd-8a8f-43df71a36c9c","ios":"levelo://app?vid=9e139e46-a301-42bd-8a8f-43df71a36c9c"},"vehicle_type_id":"4","last_reported":1718298430,"current_range_meters":800,"station_id":"ce4bgvh2rcd13ifvqcs0","pricing_plan_id":"cebpf4jnsgd1na2vs0mg"},{"bike_id":"ac38e0d7-1802-4f81-97c1-4cb3e5f06324","system_id":"levelo_inurba_marseille","lat":43.2902,"lon":5.38633,"is_reserved":false,"is_disabled":false,"rental_uris":{"android":"levelo://app?vid=ac38e0d7-1802-4f81-97c1-4cb3e5f06324","ios":"levelo://app?vid=ac38e0d7-1802-4f81-97c1-4cb3e5f06324"},"vehicle_type_id":"4","last_reported":1718298430,"current_range_meters":0,"station_id":"ce4bh4p2rcd13ifvqe0g","pricing_plan_id":"cebpf4jnsgd1na2vs0mg"},{"bike_id":"bda17339-ef15-409d-b201-ee2dae496377","system_id":"levelo_inurba_marseille","lat":43.30259,"lon":5.400712,"is_reserved":false,"is_disabled":false,"rental_uris":{"android":"levelo://app?vid=bda17339-ef15-409d-b201-ee2dae496377","ios":"levelo://app?vid=bda17339-ef15-409d-b201-ee2dae496377"},"vehicle_type_id":"4","last_reported":1718298430,"current_range_meters":6400,"station_id":"ce4bgvh2rcd13ifvqcs0","pricing_plan_id":"cebpf4jnsgd1na2vs0mg"},{"bike_id":"8f71e73a-69e0-44dd-8469-82279b1acbd9","system_id":"levelo_inurba_marseille","lat":43.302759,"lon":5.400793,"is_reserved":false,"is_disabled":false,"rental_uris":{"android":"levelo://app?vid=8f71e73a-69e0-44dd-8469-82279b1acbd9","ios":"levelo://app?vid=8f71e73a-69e0-44dd-8469-82279b1acbd9"},"vehicle_type_id":"4","last_reported":1718298430,"current_range_meters":10800,"station_id":"ce4bgvh2rcd13ifvqcs0","pricing_plan_id":"cebpf4jnsgd1na2vs0mg"},{"bike_id":"d4346ea7-9403-4f7f-a1b6-ff3323131efd","system_id":"levelo_inurba_marseille","lat":43.28615,"lon":5.37056,"is_reserved":false,"is_disabled":false,"rental_uris":{"android":"levelo://app?vid=d4346ea7-9403-4f7f-a1b6-ff3323131efd","ios":"levelo://app?vid=d4346ea7-9403-4f7f-a1b6-ff3323131efd"},"vehicle_type_id":"4","last_reported":1718298430,"current_range_meters":0,"station_id":"ce4bht12rcd13ifvqi60","pricing_plan_id":"cebpf4jnsgd1na2vs0mg"},{"bike_id":"bef091c3-9f13-478d-a847-49c2d5f47505","system_id":"levelo_inurba_marseille","lat":43.286039,"lon":5.370681,"is_reserved":false,"is_disabled":false,"rental_uris":{"android":"levelo://app?vid=bef091c3-9f13-478d-a847-49c2d5f47505","ios":"levelo://app?vid=bef091c3-9f13-478d-a847-49c2d5f47505"},"vehicle_type_id":"4","last_reported":1718298430,"current_range_meters":9200,"station_id":"ce4bht12rcd13ifvqi60","pricing_plan_id":"cebpf4jnsgd1na2vs0mg"},{"bike_id":"36c17418-01d0-459f-ac31-7603ed36a065","system_id":"levelo_inurba_marseille","lat":43.286039,"lon":5.370679,"is_reserved":false,"is_disabled":false,"rental_uris":{"android":"levelo://app?vid=36c17418-01d0-459f-ac31-7603ed36a065","ios":"levelo://app?vid=36c17418-01d0-459f-ac31-7603ed36a065"},"vehicle_type_id":"4","last_reported":1718298430,"current_range_meters":5600,"station_id":"ce4bht12rcd13ifvqi60","pricing_plan_id":"cebpf4jnsgd1na2vs0mg"},{"bike_id":"c998ae0b-bb26-496c-9c57-8e79f9c3922e","system_id":"levelo_inurba_marseille","lat":43.286039,"lon":5.370679,"is_reserved":false,"is_disabled":false,"rental_uris":{"android":"levelo://app?vid=c998ae0b-bb26-496c-9c57-8e79f9c3922e","ios":"levelo://app?vid=c998ae0b-bb26-496c-9c57-8e79f9c3922e"},"vehicle_type_id":"4","last_reported":1718298430,"current_range_meters":800,"station_id":"ce4bht12rcd13ifvqi60","pricing_plan_id":"cebpf4jnsgd1na2vs0mg"},{"bike_id":"dbeb1f13-035d-4335-aaf2-1b45507cedcf","system_id":"levelo_inurba_marseille","lat":43.286039,"lon":5.370681,"is_reserved":false,"is_disabled":false,"rental_uris":{"android":"levelo://app?vid=dbeb1f13-035d-4335-aaf2-1b45507cedcf","ios":"levelo://app?vid=dbeb1f13-035d-4335-aaf2-1b45507cedcf"},"vehicle_type_id":"4","last_reported":1718298430,"current_range_meters":20800,"station_id":"ce4bht12rcd13ifvqi60","pricing_plan_id":"cebpf4jnsgd1na2vs0mg"},{"bike_id":"772e16eb-f0ad-4381-a0a9-a2535c8eae02","system_id":"levelo_inurba_marseille","lat":43.286039,"lon":5.370679,"is_reserved":false,"is_disabled":false,"rental_uris":{"android":"levelo://app?vid=772e16eb-f0ad-4381-a0a9-a2535c8eae02","ios":"levelo://app?vid=772e16eb-f0ad-4381-a0a9-a2535c8eae02"},"vehicle_type_id":"4","last_reported":1718298430,"current_range_meters":10000,"station_id":"ce4bht12rcd13ifvqi60","pricing_plan_id":"cebpf4jnsgd1na2vs0mg"},{"bike_id":"37900605-ede0-4b74-a3bd-6569701cfff3","system_id":"levelo_inurba_marseille","lat":43.286039,"lon":5.370681,"is_reserved":false,"is_disabled":false,"rental_uris":{"android":"levelo://app?vid=37900605-ede0-4b74-a3bd-6569701cfff3","ios":"levelo://app?vid=37900605-ede0-4b74-a3bd-6569701cfff3"},"vehicle_type_id":"4","last_reported":1718298430,"current_range_meters":0,"station_id":"ce4bht12rcd13ifvqi60","pricing_plan_id":"cebpf4jnsgd1na2vs0mg"},{"bike_id":"8927a442-76a9-436e-a043-6ac9136a9507","system_id":"levelo_inurba_marseille","lat":43.286039,"lon":5.370681,"is_reserved":false,"is_disabled":false,"rental_uris":{"android":"levelo://app?vid=8927a442-76a9-436e-a043-6ac9136a9507","ios":"levelo://app?vid=8927a442-76a9-436e-a043-6ac9136a9507"},"vehicle_type_id":"4","last_reported":1718298430,"current_range_meters":10400,"station_id":"ce4bht12rcd13ifvqi60","pricing_plan_id":"cebpf4jnsgd1na2vs0mg"},{"bike_id":"b1cf5798-d5c4-446e-83f9-1221f9edcc5e","system_id":"levelo_inurba_marseille","lat":43.287184,"lon":5.37937,"is_reserved":false,"is_disabled":false,"rental_uris":{"android":"levelo://app?vid=b1cf5798-d5c4-446e-83f9-1221f9edcc5e","ios":"levelo://app?vid=b1cf5798-d5c4-446e-83f9-1221f9edcc5e"},"vehicle_type_id":"4","last_reported":1718298430,"current_range_meters":0,"station_id":"ce4bh9p2rcd13ifvqec0","pricing_plan_id":"cebpf4jnsgd1na2vs0mg"},{"bike_id":"dba70b74-ea03-4bf1-ab83-315c9e7397c0","system_id":"levelo_inurba_marseille","lat":43.287185,"lon":5.379373,"is_reserved":false,"is_disabled":false,"rental_uris":{"android":"levelo://app?vid=dba70b74-ea03-4bf1-ab83-315c9e7397c0","ios":"levelo://app?vid=dba70b74-ea03-4bf1-ab83-315c9e7397c0"},"vehicle_type_id":"4","last_reported":1718298430,"current_range_meters":800,"station_id":"ce4bh9p2rcd13ifvqec0","pricing_plan_id":"cebpf4jnsgd1na2vs0mg"},{"bike_id":"bcc182e2-f7e6-491d-bfaa-fb2e1bd1c3b2","system_id":"levelo_inurba_marseille","lat":43.287184,"lon":5.37937,"is_reserved":false,"is_disabled":false,"rental_uris":{"android":"levelo://app?vid=bcc182e2-f7e6-491d-bfaa-fb2e1bd1c3b2","ios":"levelo://app?vid=bcc182e2-f7e6-491d-bfaa-fb2e1bd1c3b2"},"vehicle_type_id":"4","last_reported":1718298430,"current_range_meters":0,"station_id":"ce4bh9p2rcd13ifvqec0","pricing_plan_id":"cebpf4jnsgd1na2vs0mg"},{"bike_id":"2688586b-21fc-4308-8083-550b8fc63042","system_id":"levelo_inurba_marseille","lat":43.316821,"lon":5.404737,"is_reserved":false,"is_disabled":false,"rental_uris":{"android":"levelo://app?vid=2688586b-21fc-4308-8083-550b8fc63042","ios":"levelo://app?vid=2688586b-21fc-4308-8083-550b8fc63042"},"vehicle_type_id":"4","last_reported":1718298430,"current_range_meters":8400,"station_id":"ce4bh012rcd13ifvqd00","pricing_plan_id":"cebpf4jnsgd1na2vs0mg"},{"bike_id":"a918a78f-c1f1-43b9-8d71-313b9d7fe48a","system_id":"levelo_inurba_marseille","lat":43.291994,"lon":5.392907,"is_reserved":false,"is_disabled":false,"rental_uris":{"android":"levelo://app?vid=a918a78f-c1f1-43b9-8d71-313b9d7fe48a","ios":"levelo://app?vid=a918a78f-c1f1-43b9-8d71-313b9d7fe48a"},"vehicle_type_id":"4","last_reported":1718298430,"current_range_meters":0,"station_id":"ce4bh192rcd13ifvqdd0","pricing_plan_id":"cebpf4jnsgd1na2vs0mg"},{"bike_id":"57affbba-e591-4eaa-bb7b-346b0b2b2bdf","system_id":"levelo_inurba_marseille","lat":43.291994,"lon":5.392907,"is_reserved":false,"is_disabled":false,"rental_uris":{"android":"levelo://app?vid=57affbba-e591-4eaa-bb7b-346b0b2b2bdf","ios":"levelo://app?vid=57affbba-e591-4eaa-bb7b-346b0b2b2bdf"},"vehicle_type_id":"4","last_reported":1718298430,"current_range_meters":11600,"station_id":"ce4bh192rcd13ifvqdd0","pricing_plan_id":"cebpf4jnsgd1na2vs0mg"},{"bike_id":"e637a207-3841-48d4-bf25-16ca5df23016","system_id":"levelo_inurba_marseille","lat":43.291994,"lon":5.392907,"is_reserved":false,"is_disabled":false,"rental_uris":{"android":"levelo://app?vid=e637a207-3841-48d4-bf25-16ca5df23016","ios":"levelo://app?vid=e637a207-3841-48d4-bf25-16ca5df23016"},"vehicle_type_id":"4","last_reported":1718298430,"current_range_meters":3600,"station_id":"ce4bh192rcd13ifvqdd0","pricing_plan_id":"cebpf4jnsgd1na2vs0mg"},{"bike_id":"8d4a684e-ce4b-4946-bdf9-3beea2a478d1","system_id":"levelo_inurba_marseille","lat":43.28465,"lon":5.35891,"is_reserved":false,"is_disabled":false,"rental_uris":{"android":"levelo://app?vid=8d4a684e-ce4b-4946-bdf9-3beea2a478d1","ios":"levelo://app?vid=8d4a684e-ce4b-4946-bdf9-3beea2a478d1"},"vehicle_type_id":"4","last_reported":1718298430,"current_range_meters":21600,"station_id":"ce4bhah2rcd13ifvqei0","pricing_plan_id":"cebpf4jnsgd1na2vs0mg"},{"bike_id":"425a835e-34f6-455e-8ac6-ba7202f56c85","system_id":"levelo_inurba_marseille","lat":43.28465,"lon":5.35886,"is_reserved":false,"is_disabled":false,"rental_uris":{"android":"levelo://app?vid=425a835e-34f6-455e-8ac6-ba7202f56c85","ios":"levelo://app?vid=425a835e-34f6-455e-8ac6-ba7202f56c85"},"vehicle_type_id":"4","last_reported":1718298430,"current_range_meters":0,"station_id":"ce4bhah2rcd13ifvqei0","pricing_plan_id":"cebpf4jnsgd1na2vs0mg"},{"bike_id":"a807c4d3-3cfd-471a-aa24-8b058d829919","system_id":"levelo_inurba_marseille","lat":43.284538,"lon":5.358657,"is_reserved":false,"is_disabled":false,"rental_uris":{"android":"levelo://app?vid=a807c4d3-3cfd-471a-aa24-8b058d829919","ios":"levelo://app?vid=a807c4d3-3cfd-471a-aa24-8b058d829919"},"vehicle_type_id":"4","last_reported":1718298430,"current_range_meters":9200,"station_id":"ce4bhah2rcd13ifvqei0","pricing_plan_id":"cebpf4jnsgd1na2vs0mg"},{"bike_id":"c9f4bfa7-8308-4180-99bb-5484d04195bc","system_id":"levelo_inurba_marseille","lat":43.284538,"lon":5.358657,"is_reserved":false,"is_disabled":false,"rental_uris":{"android":"levelo://app?vid=c9f4bfa7-8308-4180-99bb-5484d04195bc","ios":"levelo://app?vid=c9f4bfa7-8308-4180-99bb-5484d04195bc"},"vehicle_type_id":"4","last_reported":1718298430,"current_range_meters":17600,"station_id":"ce4bhah2rcd13ifvqei0","pricing_plan_id":"cebpf4jnsgd1na2vs0mg"},{"bike_id":"6b7be1da-7d6f-4ca9-83fd-85b8a7ab00dc","system_id":"levelo_inurba_marseille","lat":43.28457,"lon":5.35902,"is_reserved":false,"is_disabled":false,"rental_uris":{"android":"levelo://app?vid=6b7be1da-7d6f-4ca9-83fd-85b8a7ab00dc","ios":"levelo://app?vid=6b7be1da-7d6f-4ca9-83fd-85b8a7ab00dc"},"vehicle_type_id":"4","last_reported":1718298430,"current_range_meters":0,"station_id":"ce4bhah2rcd13ifvqei0","pricing_plan_id":"cebpf4jnsgd1na2vs0mg"},{"bike_id":"d2203e5d-1d6a-4e17-aac3-0b803c40db78","system_id":"levelo_inurba_marseille","lat":43.284538,"lon":5.358657,"is_reserved":false,"is_disabled":false,"rental_uris":{"android":"levelo://app?vid=d2203e5d-1d6a-4e17-aac3-0b803c40db78","ios":"levelo://app?vid=d2203e5d-1d6a-4e17-aac3-0b803c40db78"},