{"last_updated":1751030630,"ttl":60,"version":"2.2","data":{"bikes":[{"bike_id":"3da29fb8-fc97-44c6-b9ac-31dd456b2fd4","system_id":"levelo_inurba_marseille","lat":43.33771,"lon":5.37424,"is_reserved":false,"is_disabled":true,"rental_uris":{"android":"levelo://app?vid=3da29fb8-fc97-44c6-b9ac-31dd456b2fd4","ios":"levelo://app?vid=3da29fb8-fc97-44c6-b9ac-31dd456b2fd4"},"vehicle_type_id":"4","last_reported":1751030630,"current_range_meters":0,"station_id":"","pricing_plan_id":"cebpf4jnsgd1na2vs0mg"},{"bike_id":"01861ad8-a8d7-4be6-816e-651927c87584","system_id":"levelo_inurba_marseille","lat":43.33751,"lon":5.37456,"is_reserved":false,"is_disabled":true,"rental_uris":{"android":"levelo://app?vid=01861ad8-a8d7-4be6-816e-651927c87584","ios":"levelo://app?vid=01861ad8-a8d7-4be6-816e-651927c87584"},"vehicle_type_id":"4","last_reported":1751030630,"current_range_meters":0,"station_id":"","pricing_plan_id":"cebpf4jnsgd1na2vs0mg"},{"bike_id":"a147e67d-e0b1-425e-bbda-ae9524df353e","system_id":"levelo_inurba_marseille","lat":43.337541,"lon":5.374577,"is_reserved":false,"is_disabled":true,"rental_uris":{"android":"levelo://app?vid=a147e67d-e0b1-425e-bbda-ae9524df353e","ios":"levelo://app?vid=a147e67d-e0b1-425e-bbda-ae9524df353e"},"vehicle_type_id":"4","last_reported":1751030630,"current_range_meters":0,"station_id":"","pricing_plan_id":"cebpf4jnsgd1na2vs0mg"},{"bike_id":"d7ab0e84-3bbe-4115-b0ab-ab05a5f13dfd","system_id":"levelo_inurba_marseille","lat":43.33012,"lon":5.41034,"is_reserved":false,"is_disabled":true,"rental_uris":{"android":"levelo://app?vid=d7ab0e84-3bbe-4115-b0ab-ab05a5f13dfd","ios":"levelo://app?vid=d7ab0e84-3bbe-4115-b0ab-ab05a5f13dfd"},"vehicle_type_id":"4","last_reported":1751030630,"current_range_meters":0,"station_id":"","pricing_plan_id":"cebpf4jnsgd1na2vs0mg"},{"bike_id":"2c5ab5ef-6e3c-47bf-9405-4e96ff645858","system_id":"levelo_inurba_marseille","lat":43.340242,"lon":5.429036,"is_reserved":false,"is_disabled":true,"rental_uris":{"android":"levelo://app?vid=2c5ab5ef-6e3c-47bf-9405-4e96ff645858","ios":"levelo://app?vid=2c5ab5ef-6e3c-47bf-9405-4e96ff645858"},"vehicle_type_id":"4","last_reported":1751030630,"current_range_meters":0,"station_id":"","pricing_plan_id":"cebpf4jnsgd1na2vs0mg"},{"bike_id":"67a5051a-b32e-408a-8389-c22b54eb81f6","system_id":"levelo_inurba_marseille","lat":43.33034,"lon":5.45577,"is_reserved":false,"is_disabled":true,"rental_uris":{"android":"levelo://app?vid=67a5051a-b32e-408a-8389-c22b54eb81f6","ios":"levelo://app?vid=67a5051a-b32e-408a-8389-c22b54eb81f6"},"vehicle_type_id":"4","last_reported":1751030630,"current_range_meters":0,"station_id":"","pricing_plan_id":"cebpf4jnsgd1na2vs0mg"},{"bike_id":"4d064f95-6dcb-4234-9e98-7c70fbb74351","system_id":"levelo_inurba_marseille","lat":43.337444,"lon":5.374475,"is_reserved":false,"is_disabled":true,"rental_uris":{"android":"levelo://app?vid=4d064f95-6dcb-4234-9e98-7c70fbb74351","ios":"levelo://app?vid=4d064f95-6dcb-4234-9e98-7c70fbb74351"},"vehicle_type_id":"4","last_reported":1751030630,"current_range_meters":0,"station_id":"","pricing_plan_id":"cebpf4jnsgd1na2vs0mg"},{"bike_id":"446c66be-a677-44c2-9116-79a23398a824","system_id":"levelo_inurba_marseille","lat":43.27611,"lon":5.43179,"is_reserved":false,"is_disabled":true,"rental_uris":{"android":"levelo://app?vid=446c66be-a677-44c2-9116-79a23398a824","ios":"levelo://app?vid=446c66be-a677-44c2-9116-79a23398a824"},"vehicle_type_id":"4","last_reported":1751030630,"current_range_meters":0,"station_id":"","pricing_plan_id":"cebpf4jnsgd1na2vs0mg"},{"bike_id":"2315c627-494e-41a8-a12f-403d40de57ef","system_id":"levelo_inurba_marseille","lat":43.30141,"lon":5.40332,"is_reserved":false,"is_disabled":true,"rental_uris":{"android":"levelo://app?vid=2315c627-494e-41a8-a12f-403d40de57ef","ios":"levelo://app?vid=2315c627-494e-41a8-a12f-403d40de57ef"},"vehicle_type_id":"4","last_reported":1751030630,"current_range_meters":0,"station_id":"","pricing_plan_id":"cebpf4jnsgd1na2vs0mg"},{"bike_id":"d6609b4f-333b-43c1-9ebe-8726f5e76e88","system_id":"levelo_inurba_marseille","lat":43.337444,"lon":5.374475,"is_reserved":false,"is_disabled":true,"rental_uris":{"android":"levelo://app?vid=d6609b4f-333b-43c1-9ebe-8726f5e76e88","ios":"levelo://app?vid=d6609b4f-333b-43c1-9ebe-8726f5e76e88"},"vehicle_type_id":"4","last_reported":1751030630,"current_range_meters":0,"station_id":"","pricing_plan_id":"cebpf4jnsgd1na2vs0mg"},{"bike_id":"14903f35-1eaf-4a5d-86c3-23007b361999","system_id":"levelo_inurba_marseille","lat":43.27064,"lon":5.42274,"is_reserved":false,"is_disabled":true,"rental_uris":{"android":"levelo://app?vid=14903f35-1eaf-4a5d-86c3-23007b361999","ios":"levelo://app?vid=14903f35-1eaf-4a5d-86c3-23007b361999"},"vehicle_type_id":"4","last_reported":1751030630,"current_range_meters":0,"station_id":"","pricing_plan_id":"cebpf4jnsgd1na2vs0mg"},{"bike_id":"bf027107-0fe5-47a2-8fef-6473f83bb647","system_id":"levelo_inurba_marseille","lat":43.329385,"lon":5.364094,"is_reserved":false,"is_disabled":true,"rental_uris":{"android":"levelo://app?vid=bf027107-0fe5-47a2-8fef-6473f83bb647","ios":"levelo://app?vid=bf027107-0fe5-47a2-8fef-6473f83bb647"},"vehicle_type_id":"4","last_reported":1751030630,"current_range_meters":0,"station_id":"","pricing_plan_id":"cebpf4jnsgd1na2vs0mg"},{"bike_id":"b17b6606-336a-4606-9b65-af139c49de26","system_id":"levelo_inurba_marseille","lat":43.256682,"lon":5.426969,"is_reserved":false,"is_disabled":true,"rental_uris":{"android":"levelo://app?vid=b17b6606-336a-4606-9b65-af139c49de26","ios":"levelo://app?vid=b17b6606-336a-4606-9b65-af139c49de26"},"vehicle_type_id":"4","last_reported":1751030630,"current_range_meters":0,"station_id":"","pricing_plan_id":"cebpf4jnsgd1na2vs0mg"},{"bike_id":"9d3724b1-0dc8-4689-9d6a-55005a9503cb","system_id":"levelo_inurba_marseille","lat":43.28601,"lon":5.42801,"is_reserved":false,"is_disabled":true,"rental_uris":{"android":"levelo://app?vid=9d3724b1-0dc8-4689-9d6a-55005a9503cb","ios":"levelo://app?vid=9d3724b1-0dc8-4689-9d6a-55005a9503cb"},"vehicle_type_id":"4","last_reported":1751030630,"current_range_meters":0,"station_id":"","pricing_plan_id":"cebpf4jnsgd1na2vs0mg"},{"bike_id":"ce774a04-a4be-4eca-a30f-78eb921955bd","system_id":"levelo_inurba_marseille","lat":43.33871,"lon":5.35583,"is_reserved":false,"is_disabled":true,"rental_uris":{"android":"levelo://app?vid=ce774a04-a4be-4eca-a30f-78eb921955bd","ios":"levelo://app?vid=ce774a04-a4be-4eca-a30f-78eb921955bd"},"vehicle_type_id":"4","last_reported":1751030630,"current_range_meters":0,"station_id":"","pricing_plan_id":"cebpf4jnsgd1na2vs0mg"},{"bike_id":"d3927187-4c24-4136-8212-488c21e07e1d","system_id":"levelo_inurba_marseille","lat":43.2932,"lon":5.37205,"is_reserved":false,"is_disabled":true,"rental_uris":{"android":"levelo://app?vid=d3927187-4c24-4136-8212-488c21e07e1d","ios":"levelo://app?vid=d3927187-4c24-4136-8212-488c21e07e1d"},"vehicle_type_id":"4","last_reported":1751030630,"current_range_meters":0,"station_id":"ce4bgh92rcd13ifvqb40","pricing_plan_id":"cebpf4jnsgd1na2vs0mg"},{"bike_id":"3e9cb0e2-3dc1-4d36-98cd-cda18b03a44a","system_id":"levelo_inurba_marseille","lat":43.29565,"lon":5.39964,"is_reserved":false,"is_disabled":true,"rental_uris":{"android":"levelo://app?vid=3e9cb0e2-3dc1-4d36-98cd-cda18b03a44a","ios":"levelo://app?vid=3e9cb0e2-3dc1-4d36-98cd-cda18b03a44a"},"vehicle_type_id":"4","last_reported":1751030630,"current_range_meters":0,"station_id":"ce4bh312rcd13ifvqdj0","pricing_plan_id":"cebpf4jnsgd1na2vs0mg"},{"bike_id":"5e0f0c9a-4c31-47c4-9ee6-361ead397b7d","system_id":"levelo_inurba_marseille","lat":43.2904,"lon":5.3998,"is_reserved":false,"is_disabled":true,"rental_uris":{"android":"levelo://app?vid=5e0f0c9a-4c31-47c4-9ee6-361ead397b7d","ios":"levelo://app?vid=5e0f0c9a-4c31-47c4-9ee6-361ead397b7d"},"vehicle_type_id":"4","last_reported":1751030630,"current_range_meters":0,"station_id":"ce4bh392rcd13ifvqdm0","pricing_plan_id":"cebpf4jnsgd1na2vs0mg"},{"bike_id":"67f7b3d5-0ba1-4248-8d93-2a338244f92c","system_id":"levelo_inurba_marseille","lat":43.2893,"lon":5.3963,"is_reserved":false,"is_disabled":true,"rental_uris":{"android":"levelo://app?vid=67f7b3d5-0ba1-4248-8d93-2a338244f92c","ios":"levelo://app?vid=67f7b3d5-0ba1-4248-8d93-2a338244f92c"},"vehicle_type_id":"4","last_reported":1751030630,"current_range_meters":0,"station_id":"ce4bh3h2rcd13ifvqdn0","pricing_plan_id":"cebpf4jnsgd1na2vs0mg"},{"bike_id":"7ab0b880-bbd6-4aca-a2c1-e98746545961","system_id":"levelo_inurba_marseille","lat":43.29089,"lon":5.38133,"is_reserved":false,"is_disabled":true,"rental_uris":{"android":"levelo://app?vid=7ab0b880-bbd6-4aca-a2c1-e98746545961","ios":"levelo://app?vid=7ab0b880-bbd6-4aca-a2c1-e98746545961"},"vehicle_type_id":"4","last_reported":1751030630,"current_range_meters":0,"station_id":"ce4bh512rcd13ifvqe2g","pricing_plan_id":"cebpf4jnsgd1na2vs0mg"},{"bike_id":"10b45913-bca5-4606-bbb7-c67b78fb88df","system_id":"levelo_inurba_marseille","lat":43.28487,"lon":5.38544,"is_reserved":false,"is_disabled":true,"rental_uris":{"android":"levelo://app?vid=10b45913-bca5-4606-bbb7-c67b78fb88df","ios":"levelo://app?vid=10b45913-bca5-4606-bbb7-c67b78fb88df"},"vehicle_type_id":"4","last_reported":1751030630,"current_range_meters":0,"station_id":"ce4bh8p2rcd13ifvqeb0","pricing_plan_id":"cebpf4jnsgd1na2vs0mg"},{"bike_id":"f99601b1-bc3c-4f11-9044-fb43a400927e","system_id":"levelo_inurba_marseille","lat":43.28841,"lon":5.35863,"is_reserved":false,"is_disabled":true,"rental_uris":{"android":"levelo://app?vid=f99601b1-bc3c-4f11-9044-fb43a400927e","ios":"levelo://app?vid=f99601b1-bc3c-4f11-9044-fb43a400927e"},"vehicle_type_id":"4","last_reported":1751030630,"current_range_meters":0,"station_id":"ce4bhb12rcd13ifvqem0","pricing_plan_id":"cebpf4jnsgd1na2vs0mg"},{"bike_id":"29bee538-7001-4280-bcc8-0bd048d6d872","system_id":"levelo_inurba_marseille","lat":43.29,"lon":5.35631,"is_reserved":false,"is_disabled":true,"rental_uris":{"android":"levelo://app?vid=29bee538-7001-4280-bcc8-0bd048d6d872","ios":"levelo://app?vid=29bee538-7001-4280-bcc8-0bd048d6d872"},"vehicle_type_id":"4","last_reported":1751030630,"current_range_meters":0,"station_id":"ce4bhb92rcd13ifvqen0","pricing_plan_id":"cebpf4jnsgd1na2vs0mg"},{"bike_id":"0400b4ca-61aa-4c57-a567-efb9a0118225","system_id":"levelo_inurba_marseille","lat":43.28407,"lon":5.3501,"is_reserved":false,"is_disabled":true,"rental_uris":{"android":"levelo://app?vid=0400b4ca-61aa-4c57-a567-efb9a0118225","ios":"levelo://app?vid=0400b4ca-61aa-4c57-a567-efb9a0118225"},"vehicle_type_id":"4","last_reported":1751030630,"current_range_meters":0,"station_id":"ce4bhbh2rcd13ifvqepg","pricing_plan_id":"cebpf4jnsgd1na2vs0mg"},{"bike_id":"ae838b2e-74e1-4ab3-b3f8-d1208753850a","system_id":"levelo_inurba_marseille","lat":43.2319,"lon":5.35549,"is_reserved":false,"is_disabled":true,"rental_uris":{"android":"levelo://app?vid=ae838b2e-74e1-4ab3-b3f8-d1208753850a","ios":"levelo://app?vid=ae838b2e-74e1-4ab3-b3f8-d1208753850a"},"vehicle_type_id":"4","last_reported":1751030630,"current_range_meters":0,"station_id":"ce4bhu92rcd13ifvqi70","pricing_plan_id":"cebpf4jnsgd1na2vs0mg"},{"bike_id":"a1ae4fee-cbeb-43dc-a969-5827f87e448d","system_id":"levelo_inurba_marseille","lat":43.38416,"lon":5.36529,"is_reserved":false,"is_disabled":true,"rental_uris":{"android":"levelo://app?vid=a1ae4fee-cbeb-43dc-a969-5827f87e448d","ios":"levelo://app?vid=a1ae4fee-cbeb-43dc-a969-5827f87e448d"},"vehicle_type_id":"4","last_reported":1751030630,"current_range_meters":400,"station_id":"","pricing_plan_id":"cebpf4jnsgd1na2vs0mg"},{"bike_id":"3007d213-9868-4603-b5d1-fd45a506ca5a","system_id":"levelo_inurba_marseille","lat":43.29532,"lon":5.37502,"is_reserved":false,"is_disabled":true,"rental_uris":{"android":"levelo://app?vid=3007d213-9868-4603-b5d1-fd45a506ca5a","ios":"levelo://app?vid=3007d213-9868-4603-b5d1-fd45a506ca5a"},"vehicle_type_id":"4","last_reported":1751030630,"current_range_meters":400,"station_id":"ce4bgkp2rcd13ifvqbmg","pricing_plan_id":"cebpf4jnsgd1na2vs0mg"},{"bike_id":"fed1680d-f887-458f-a5fd-e3fdd34ed035","system_id":"levelo_inurba_marseille","lat":43.32662,"lon":5.40986,"is_reserved":false,"is_disabled":true,"rental_uris":{"android":"levelo://app?vid=fed1680d-f887-458f-a5fd-e3fdd34ed035","ios":"levelo://app?vid=fed1680d-f887-458f-a5fd-e3fdd34ed035"},"vehicle_type_id":"4","last_reported":1751030630,"current_range_meters":400,"station_id":"ce4bhpp2rcd13ifvqhgg","pricing_plan_id":"cebpf4jnsgd1na2vs0mg"},{"bike_id":"ca6b2aa3-99cd-4ba8-8c31-77dfd4e93919","system_id":"levelo_inurba_marseille","lat":43.21749,"lon":5.34603,"is_reserved":false,"is_disabled":true,"rental_uris":{"android":"levelo://app?vid=ca6b2aa3-99cd-4ba8-8c31-77dfd4e93919","ios":"levelo://app?vid=ca6b2aa3-99cd-4ba8-8c31-77dfd4e93919"},"vehicle_type_id":"4","last_reported":1751030630,"current_range_meters":400,"station_id":"st_cvj6r9ubvosntc0bgbag","pricing_plan_id":"cebpf4jnsgd1na2vs0mg"},{"bike_id":"ab9fc314-a9b6-448c-b2bc-3f9abff28e01","system_id":"levelo_inurba_marseille","lat":43.28617,"lon":5.35097,"is_reserved":false,"is_disabled":true,"rental_uris":{"android":"levelo://app?vid=ab9fc314-a9b6-448c-b2bc-3f9abff28e01","ios":"levelo://app?vid=ab9fc314-a9b6-448c-b2bc-3f9abff28e01"},"vehicle_type_id":"4","last_reported":1751030630,"current_range_meters":800,"station_id":"ce4bhch2rcd13ifvqeug","pricing_plan_id":"cebpf4jnsgd1na2vs0mg"},{"bike_id":"c6bf24b7-99ff-4c97-952f-7c45d5ee3134","system_id":"levelo_inurba_marseille","lat":43.26196,"lon":5.37459,"is_reserved":false,"is_disabled":true,"rental_uris":{"android":"levelo://app?vid=c6bf24b7-99ff-4c97-952f-7c45d5ee3134","ios":"levelo://app?vid=c6bf24b7-99ff-4c97-952f-7c45d5ee3134"},"vehicle_type_id":"4","last_reported":1751030630,"current_range_meters":800,"station_id":"ce4bhgp2rcd13ifvqfc0","pricing_plan_id":"cebpf4jnsgd1na2vs0mg"},{"bike_id":"38db06cd-cfed-4c25-ad5d-3f3a99d2136c","system_id":"levelo_inurba_marseille","lat":43.24386,"lon":5.37057,"is_reserved":false,"is_disabled":true,"rental_uris":{"android":"levelo://app?vid=38db06cd-cfed-4c25-ad5d-3f3a99d2136c","ios":"levelo://app?vid=38db06cd-cfed-4c25-ad5d-3f3a99d2136c"},"vehicle_type_id":"4","last_reported":1751030630,"current_range_meters":800,"station_id":"ce4bhhh2rcd13ifvqfk0","pricing_plan_id":"cebpf4jnsgd1na2vs0mg"},{"bike_id":"3bcb056d-77b9-4c1e-9972-570fa34052f6","system_id":"levelo_inurba_marseille","lat":43.241641,"lon":5.363925,"is_reserved":false,"is_disabled":true,"rental_uris":{"android":"levelo://app?vid=3bcb056d-77b9-4c1e-9972-570fa34052f6","ios":"levelo://app?vid=3bcb056d-77b9-4c1e-9972-570fa34052f6"},"vehicle_type_id":"4","last_reported":1751030630,"current_range_meters":800,"station_id":"cpo36qri1sfpv3e86is0","pricing_plan_id":"cebpf4jnsgd1na2vs0mg"},{"bike_id":"75b99ce5-98e2-480a-a889-073abbac7a3e","system_id":"levelo_inurba_marseille","lat":43.292849,"lon":5.374461,"is_reserved":false,"is_disabled":true,"rental_uris":{"android":"levelo://app?vid=75b99ce5-98e2-480a-a889-073abbac7a3e","ios":"levelo://app?vid=75b99ce5-98e2-480a-a889-073abbac7a3e"},"vehicle_type_id":"4","last_reported":1751030630,"current_range_meters":1200,"station_id":"ce4bgi12rcd13ifvqb70","pricing_plan_id":"cebpf4jnsgd1na2vs0mg"},{"bike_id":"63afe789-9367-440d-8695-6dbe7ac0e77b","system_id":"levelo_inurba_marseille","lat":43.30253,"lon":5.40077,"is_reserved":false,"is_disabled":true,"rental_uris":{"android":"levelo://app?vid=63afe789-9367-440d-8695-6dbe7ac0e77b","ios":"levelo://app?vid=63afe789-9367-440d-8695-6dbe7ac0e77b"},"vehicle_type_id":"4","last_reported":1751030630,"current_range_meters":1200,"station_id":"ce4bgvh2rcd13ifvqcs0","pricing_plan_id":"cebpf4jnsgd1na2vs0mg"},{"bike_id":"e0d9db9a-976c-4c7a-9e56-709cac03fb56","system_id":"levelo_inurba_marseille","lat":43.28699,"lon":5.3739,"is_reserved":false,"is_disabled":true,"rental_uris":{"android":"levelo://app?vid=e0d9db9a-976c-4c7a-9e56-709cac03fb56","ios":"levelo://app?vid=e0d9db9a-976c-4c7a-9e56-709cac03fb56"},"vehicle_type_id":"4","last_reported":1751030630,"current_range_meters":1200,"station_id":"ce4bh3p2rcd13ifvqdq0","pricing_plan_id":"cebpf4jnsgd1na2vs0mg"},{"bike_id":"6d99b328-7263-45b0-b9d8-4f89249b4483","system_id":"levelo_inurba_marseille","lat":43.27913,"lon":5.39578,"is_reserved":false,"is_disabled":true,"rental_uris":{"android":"levelo://app?vid=6d99b328-7263-45b0-b9d8-4f89249b4483","ios":"levelo://app?vid=6d99b328-7263-45b0-b9d8-4f89249b4483"},"vehicle_type_id":"4","last_reported":1751030630,"current_range_meters":1200,"station_id":"ce4bhf92rcd13ifvqf40","pricing_plan_id":"cebpf4jnsgd1na2vs0mg"},{"bike_id":"2527627e-7d79-40e7-9d2c-593ecdab409d","system_id":"levelo_inurba_marseille","lat":43.29196,"lon":5.39335,"is_reserved":false,"is_disabled":true,"rental_uris":{"android":"levelo://app?vid=2527627e-7d79-40e7-9d2c-593ecdab409d","ios":"levelo://app?vid=2527627e-7d79-40e7-9d2c-593ecdab409d"},"vehicle_type_id":"4","last_reported":1751030630,"current_range_meters":1600,"station_id":"ce4bh192rcd13ifvqdd0","pricing_plan_id":"cebpf4jnsgd1na2vs0mg"},{"bike_id":"d3b599bf-8164-4e25-8a05-a4c7430d7a88","system_id":"levelo_inurba_marseille","lat":43.28265,"lon":5.35059,"is_reserved":false,"is_disabled":true,"rental_uris":{"android":"levelo://app?vid=d3b599bf-8164-4e25-8a05-a4c7430d7a88","ios":"levelo://app?vid=d3b599bf-8164-4e25-8a05-a4c7430d7a88"},"vehicle_type_id":"4","last_reported":1751030630,"current_range_meters":1600,"station_id":"ce4bhbp2rcd13ifvqerg","pricing_plan_id":"cebpf4jnsgd1na2vs0mg"},{"bike_id":"a29d3c73-b62e-48d9-bddc-f84527046c0c","system_id":"levelo_inurba_marseille","lat":43.24152,"lon":5.39697,"is_reserved":false,"is_disabled":true,"rental_uris":{"android":"levelo://app?vid=a29d3c73-b62e-48d9-bddc-f84527046c0c","ios":"levelo://app?vid=a29d3c73-b62e-48d9-bddc-f84527046c0c"},"vehicle_type_id":"4","last_reported":1751030630,"current_range_meters":1600,"station_id":"ce4bhn12rcd13ifvqgpg","pricing_plan_id":"cebpf4jnsgd1na2vs0mg"},{"bike_id":"646404cf-52f2-455c-a961-4e8b21ea6c3e","system_id":"levelo_inurba_marseille","lat":43.30409,"lon":5.41283,"is_reserved":false,"is_disabled":true,"rental_uris":{"android":"levelo://app?vid=646404cf-52f2-455c-a961-4e8b21ea6c3e","ios":"levelo://app?vid=646404cf-52f2-455c-a961-4e8b21ea6c3e"},"vehicle_type_id":"4","last_reported":1751030630,"current_range_meters":1600,"station_id":"ce4bhop2rcd13ifvqh8g","pricing_plan_id":"cebpf4jnsgd1na2vs0mg"},{"bike_id":"d60113c8-3387-46de-adde-b2b1abf1350a","system_id":"levelo_inurba_marseille","lat":43.29971,"lon":5.41336,"is_reserved":false,"is_disabled":true,"rental_uris":{"android":"levelo://app?vid=d60113c8-3387-46de-adde-b2b1abf1350a","ios":"levelo://app?vid=d60113c8-3387-46de-adde-b2b1abf1350a"},"vehicle_type_id":"4","last_reported":1751030630,"current_range_meters":1600,"station_id":"ce4bhp12rcd13ifvqh9g","pricing_plan_id":"cebpf4jnsgd1na2vs0mg"},{"bike_id":"a86d2f9f-83d8-4f17-8422-d08e982c4a2a","system_id":"levelo_inurba_marseille","lat":43.29752,"lon":5.44888,"is_reserved":false,"is_disabled":true,"rental_uris":{"android":"levelo://app?vid=a86d2f9f-83d8-4f17-8422-d08e982c4a2a","ios":"levelo://app?vid=a86d2f9f-83d8-4f17-8422-d08e982c4a2a"},"vehicle_type_id":"4","last_reported":1751030630,"current_range_meters":2000,"station_id":"","pricing_plan_id":"cebpf4jnsgd1na2vs0mg"},{"bike_id":"7f51e593-7b21-4281-a769-648eb52dc2bd","system_id":"levelo_inurba_marseille","lat":43.31164,"lon":5.38742,"is_reserved":false,"is_disabled":true,"rental_uris":{"android":"levelo://app?vid=7f51e593-7b21-4281-a769-648eb52dc2bd","ios":"levelo://app?vid=7f51e593-7b21-4281-a769-648eb52dc2bd"},"vehicle_type_id":"4","last_reported":1751030630,"current_range_meters":2000,"station_id":"ce4bgv12rcd13ifvqcp0","pricing_plan_id":"cebpf4jnsgd1na2vs0mg"},{"bike_id":"41d5eb0d-92a8-4bf0-bd04-bc7d7289af2a","system_id":"levelo_inurba_marseille","lat":43.284177,"lon":5.349847,"is_reserved":false,"is_disabled":true,"rental_uris":{"android":"levelo://app?vid=41d5eb0d-92a8-4bf0-bd04-bc7d7289af2a","ios":"levelo://app?vid=41d5eb0d-92a8-4bf0-bd04-bc7d7289af2a"},"vehicle_type_id":"4","last_reported":1751030630,"current_range_meters":2000,"station_id":"ce4bhbh2rcd13ifvqepg","pricing_plan_id":"cebpf4jnsgd1na2vs0mg"},{"bike_id":"90615d53-5dba-4783-896f-99385d00fc36","system_id":"levelo_inurba_marseille","lat":43.282666,"lon":5.350729,"is_reserved":false,"is_disabled":true,"rental_uris":{"android":"levelo://app?vid=90615d53-5dba-4783-896f-99385d00fc36","ios":"levelo://app?vid=90615d53-5dba-4783-896f-99385d00fc36"},"vehicle_type_id":"4","last_reported":1751030630,"current_range_meters":2000,"station_id":"ce4bhbp2rcd13ifvqerg","pricing_plan_id":"cebpf4jnsgd1na2vs0mg"},{"bike_id":"b024027e-5b19-4284-b544-2ce543bcc8cf","system_id":"levelo_inurba_marseille","lat":43.2619,"lon":5.37448,"is_reserved":false,"is_disabled":true,"rental_uris":{"android":"levelo://app?vid=b024027e-5b19-4284-b544-2ce543bcc8cf","ios":"levelo://app?vid=b024027e-5b19-4284-b544-2ce543bcc8cf"},"vehicle_type_id":"4","last_reported":1751030630,"current_range_meters":2000,"station_id":"ce4bhgp2rcd13ifvqfc0","pricing_plan_id":"cebpf4jnsgd1na2vs0mg"},{"bike_id":"68f9ebbc-a0ff-4195-9762-5f672975ecc4","system_id":"levelo_inurba_marseille","lat":43.23966,"lon":5.36626,"is_reserved":false,"is_disabled":true,"rental_uris":{"android":"levelo://app?vid=68f9ebbc-a0ff-4195-9762-5f672975ecc4","ios":"levelo://app?vid=68f9ebbc-a0ff-4195-9762-5f672975ecc4"},"vehicle_type_id":"4","last_reported":1751030630,"current_range_meters":2000,"station_id":"ce4bhi12rcd13ifvqfp0","pricing_plan_id":"cebpf4jnsgd1na2vs0mg"},{"bike_id":"011b0d4e-f32e-4e04-befc-b5e1f4c48fb2","system_id":"levelo_inurba_marseille","lat":43.307771,"lon":5.428763,"is_reserved":false,"is_disabled":true,"rental_uris":{"android":"levelo://app?vid=011b0d4e-f32e-4e04-befc-b5e1f4c48fb2","ios":"levelo://app?vid=011b0d4e-f32e-4e04-befc-b5e1f4c48fb2"},"vehicle_type_id":"4","last_reported":1751030630,"current_range_meters":2000,"station_id":"ce4bhoh2rcd13ifvqh6g","pricing_plan_id":"cebpf4jnsgd1na2vs0mg"},{"bike_id":"45da7c9b-2f61-4ce8-b369-0b729ef77385","system_id":"levelo_inurba_marseille","lat":43.2417,"lon":5.364,"is_reserved":false,"is_disabled":false,"rental_uris":{"android":"levelo://app?vid=45da7c9b-2f61-4ce8-b369-0b729ef77385","ios":"levelo://app?vid=45da7c9b-2f61-4ce8-b369-0b729ef77385"},"vehicle_type_id":"4","last_reported":1751030630,"current_range_meters":2000,"station_id":"cpo36qri1sfpv3e86is0","pricing_plan_id":"cebpf4jnsgd1na2vs0mg"},{"bike_id":"3e5d0ae7-bac3-40ea-95d2-50ef1aae7bc7","system_id":"levelo_inurba_marseille","lat":43.26827,"lon":5.416,"is_reserved":false,"is_disabled":false,"rental_uris":{"android":"levelo://app?vid=3e5d0ae7-bac3-40ea-95d2-50ef1aae7bc7","ios":"levelo://app?vid=3e5d0ae7-bac3-40ea-95d2-50ef1aae7bc7"},"vehicle_type_id":"4","last_reported":1751030630,"current_range_meters":2800,"station_id":"","pricing_plan_id":"cebpf4jnsgd1na2vs0mg"},{"bike_id":"a8ab4707-35e5-4818-8cc6-10eedbdc7583","system_id":"levelo_inurba_marseille","lat":43.29258,"lon":5.40906,"is_reserved":false,"is_disabled":false,"rental_uris":{"android":"levelo://app?vid=a8ab4707-35e5-4818-8cc6-10eedbdc7583","ios":"levelo://app?vid=a8ab4707-35e5-4818-8cc6-10eedbdc7583"},"vehicle_type_id":"4","last_reported":1751030630,"current_range_meters":2800,"station_id":"ce4bh192rcd13ifvqdc0","pricing_plan_id":"cebpf4jnsgd1na2vs0mg"},{"bike_id":"fd393cb6-c9c2-4a50-99ae-ab2fd3701a5c","system_id":"levelo_inurba_marseille","lat":43.28701,"lon":5.37401,"is_reserved":false,"is_disabled":false,"rental_uris":{"android":"levelo://app?vid=fd393cb6-c9c2-4a50-99ae-ab2fd3701a5c","ios":"levelo://app?vid=fd393cb6-c9c2-4a50-99ae-ab2fd3701a5c"},"vehicle_type_id":"4","last_reported":1751030630,"current_range_meters":2800,"station_id":"ce4bh3p2rcd13ifvqdq0","pricing_plan_id":"cebpf4jnsgd1na2vs0mg"},{"bike_id":"23b8cd56-5ce6-40a8-abc7-5a95646d4768","system_id":"levelo_inurba_marseille","lat":43.299561,"lon":5.413261,"is_reserved":false,"is_disabled":false,"rental_uris":{"android":"levelo://app?vid=23b8cd56-5ce6-40a8-abc7-5a95646d4768","ios":"levelo://app?vid=23b8cd56-5ce6-40a8-abc7-5a95646d4768"},"vehicle_type_id":"4","last_reported":1751030630,"current_range_meters":2800,"station_id":"ce4bhp12rcd13ifvqh9g","pricing_plan_id":"cebpf4jnsgd1na2vs0mg"},{"bike_id":"ecec1e7e-ce3c-40e4-9b11-96deb2ecd53a","system_id":"levelo_inurba_marseille","lat":43.3414,"lon":5.40909,"is_reserved":false,"is_disabled":false,"rental_uris":{"android":"levelo://app?vid=ecec1e7e-ce3c-40e4-9b11-96deb2ecd53a","ios":"levelo://app?vid=ecec1e7e-ce3c-40e4-9b11-96deb2ecd53a"},"vehicle_type_id":"4","last_reported":1751030630,"current_range_meters":2800,"station_id":"ce4bhqh2rcd13ifvqhlg","pricing_plan_id":"cebpf4jnsgd1na2vs0mg"},{"bike_id":"8a8d1ab7-f7d8-4b72-93ac-af4b4150d05e","system_id":"levelo_inurba_marseille","lat":43.31169,"lon":5.38795,"is_reserved":false,"is_disabled":false,"rental_uris":{"android":"levelo://app?vid=8a8d1ab7-f7d8-4b72-93ac-af4b4150d05e","ios":"levelo://app?vid=8a8d1ab7-f7d8-4b72-93ac-af4b4150d05e"},"vehicle_type_id":"4","last_reported":1751030630,"current_range_meters":3200,"station_id":"","pricing_plan_id":"cebpf4jnsgd1na2vs0mg"},{"bike_id":"26a14eba-87a9-47b8-9607-30bd0042d428","system_id":"levelo_inurba_marseille","lat":43.31456,"lon":5.39435,"is_reserved":false,"is_disabled":false,"rental_uris":{"android":"levelo://app?vid=26a14eba-87a9-47b8-9607-30bd0042d428","ios":"levelo://app?vid=26a14eba-87a9-47b8-9607-30bd0042d428"},"vehicle_type_id":"4","last_reported":1751030630,"current_range_meters":3200,"station_id":"","pricing_plan_id":"cebpf4jnsgd1na2vs0mg"},{"bike_id":"af112b62-19de-41d4-b8d7-e14d0172315d","system_id":"levelo_inurba_marseille","lat":43.326679,"lon":5.392643,"is_reserved":false,"is_disabled":false,"rental_uris":{"android":"levelo://app?vid=af112b62-19de-41d4-b8d7-e14d0172315d","ios":"levelo://app?vid=af112b62-19de-41d4-b8d7-e14d0172315d"},"vehicle_type_id":"4","last_reported":1751030630,"current_range_meters":3200,"station_id":"","pricing_plan_id":"cebpf4jnsgd1na2vs0mg"},{"bike_id":"6462bf02-ad17-476a-9208-888197713840","system_id":"levelo_inurba_marseille","lat":43.2921,"lon":5.36062,"is_reserved":false,"is_disabled":false,"rental_uris":{"android":"levelo://app?vid=6462bf02-ad17-476a-9208-888197713840","ios":"levelo://app?vid=6462bf02-ad17-476a-9208-888197713840"},"vehicle_type_id":"4","last_reported":1751030630,"current_range_meters":3200,"station_id":"ce4bhbh2rcd13ifvqeqg","pricing_plan_id":"cebpf4jnsgd1na2vs0mg"},{"bike_id":"5851b21a-9f77-4769-82f0-4906d071d338","system_id":"levelo_inurba_marseille","lat":43.26589,"lon":5.37254,"is_reserved":false,"is_disabled":false,"rental_uris":{"android":"levelo://app?vid=5851b21a-9f77-4769-82f0-4906d071d338","ios":"levelo://app?vid=5851b21a-9f77-4769-82f0-4906d071d338"},"vehicle_type_id":"4","last_reported":1751030630,"current_range_meters":3200,"station_id":"ce4bhg12rcd13ifvqf70","pricing_plan_id":"cebpf4jnsgd1na2vs0mg"},{"bike_id":"97422569-f573-4a47-9ca7-c2bdddce7e20","system_id":"levelo_inurba_marseille","lat":43.26788,"lon":5.39413,"is_reserved":false,"is_disabled":false,"rental_uris":{"android":"levelo://app?vid=97422569-f573-4a47-9ca7-c2bdddce7e20","ios":"levelo://app?vid=97422569-f573-4a47-9ca7-c2bdddce7e20"},"vehicle_type_id":"4","last_reported":1751030630,"current_range_meters":3200,"station_id":"ce4bhh12rcd13ifvqfg0","pricing_plan_id":"cebpf4jnsgd1na2vs0mg"},{"bike_id":"7d5b7f9b-1501-4f7d-bc70-b588d87f91e0","system_id":"levelo_inurba_marseille","lat":43.30725,"lon":5.40316,"is_reserved":false,"is_disabled":false,"rental_uris":{"android":"levelo://app?vid=7d5b7f9b-1501-4f7d-bc70-b588d87f91e0","ios":"levelo://app?vid=7d5b7f9b-1501-4f7d-bc70-b588d87f91e0"},"vehicle_type_id":"4","last_reported":1751030630,"current_range_meters":3600,"station_id":"","pricing_plan_id":"cebpf4jnsgd1na2vs0mg"},{"bike_id":"9c852b16-5b53-4be4-8e1f-46867f09b0ea","system_id":"levelo_inurba_marseille","lat":43.30325,"lon":5.40431,"is_reserved":false,"is_disabled":false,"rental_uris":{"android":"levelo://app?vid=9c852b16-5b53-4be4-8e1f-46867f09b0ea","ios":"levelo://app?vid=9c852b16-5b53-4be4-8e1f-46867f09b0ea"},"vehicle_type_id":"4","last_reported":1751030630,"current_range_meters":3600,"station_id":"ce4bh012rcd13ifvqd10","pricing_plan_id":"cebpf4jnsgd1na2vs0mg"},{"bike_id":"9ce852fe-9449-4c16-b29b-642a7abdbbbf","system_id":"levelo_inurba_marseille","lat":43.2739,"lon":5.36206,"is_reserved":false,"is_disabled":false,"rental_uris":{"android":"levelo://app?vid=9ce852fe-9449-4c16-b29b-642a7abdbbbf","ios":"levelo://app?vid=9ce852fe-9449-4c16-b29b-642a7abdbbbf"},"vehicle_type_id":"4","last_reported":1751030630,"current_range_meters":4000,"station_id":"","pricing_plan_id":"cebpf4jnsgd1na2vs0mg"},{"bike_id":"41de19e9-9992-4fb1-ab07-ea51b9ad8912","system_id":"levelo_inurba_marseille","lat":43.27896,"lon":5.38012,"is_reserved":false,"is_disabled":false,"rental_uris":{"android":"levelo://app?vid=41de19e9-9992-4fb1-ab07-ea51b9ad8912","ios":"levelo://app?vid=41de19e9-9992-4fb1-ab07-ea51b9ad8912"},"vehicle_type_id":"4","last_reported":1751030630,"current_range_meters":4400,"station_id":"ce4bhf92rcd13ifvqf50","pricing_plan_id":"cebpf4jnsgd1na2vs0mg"},{"bike_id":"11477c87-be38-4367-bd66-80d6168f94f5","system_id":"levelo_inurba_marseille","lat":43.30586,"lon":5.36569,"is_reserved":false,"is_disabled":false,"rental_uris":{"android":"levelo://app?vid=11477c87-be38-4367-bd66-80d6168f94f5","ios":"levelo://app?vid=11477c87-be38-4367-bd66-80d6168f94f5"},"vehicle_type_id":"4","last_reported":1751030630,"current_range_meters":4800,"station_id":"ce4bgs12rcd13ifvqcag","pricing_plan_id":"cebpf4jnsgd1na2vs0mg"},{"bike_id":"2311ce92-3e99-4db8-8ef5-6d723827fa13","system_id":"levelo_inurba_marseille","lat":43.30557,"lon":5.365387,"is_reserved":false,"is_disabled":false,"rental_uris":{"android":"levelo://app?vid=2311ce92-3e99-4db8-8ef5-6d723827fa13","ios":"levelo://app?vid=2311ce92-3e99-4db8-8ef5-6d723827fa13"},"vehicle_type_id":"4","last_reported":1751030630,"current_range_meters":4800,"station_id":"ce4bgs12rcd13ifvqcag","pricing_plan_id":"cebpf4jnsgd1na2vs0mg"},{"bike_id":"dd1381f1-9b51-4302-a2f5-c9a46a8c1c66","system_id":"levelo_inurba_marseille","lat":43.29258,"lon":5.40901,"is_reserved":false,"is_disabled":false,"rental_uris":{"android":"levelo://app?vid=dd1381f1-9b51-4302-a2f5-c9a46a8c1c66","ios":"levelo://app?vid=dd1381f1-9b51-4302-a2f5-c9a46a8c1c66"},"vehicle_type_id":"4","last_reported":1751030630,"current_range_meters":4800,"station_id":"ce4bh192rcd13ifvqdc0","pricing_plan_id":"cebpf4jnsgd1na2vs0mg"},{"bike_id":"efb01ad2-81f6-4325-9b8c-5f000c5cc7b7","system_id":"levelo_inurba_marseille","lat":43.29035,"lon":5.37214,"is_reserved":false,"is_disabled":false,"rental_uris":{"android":"levelo://app?vid=efb01ad2-81f6-4325-9b8c-5f000c5cc7b7","ios":"levelo://app?vid=efb01ad2-81f6-4325-9b8c-5f000c5cc7b7"},"vehicle_type_id":"4","last_reported":1751030630,"current_range_meters":4800,"station_id":"ce4bh5p2rcd13ifvqe4g","pricing_plan_id":"cebpf4jnsgd1na2vs0mg"},{"bike_id":"be23aa95-d564-41f3-8d08-f261ef34a37b","system_id":"levelo_inurba_marseille","lat":43.27557,"lon":5.38436,"is_reserved":false,"is_disabled":false,"rental_uris":{"android":"levelo://app?vid=be23aa95-d564-41f3-8d08-f261ef34a37b","ios":"levelo://app?vid=be23aa95-d564-41f3-8d08-f261ef34a37b"},"vehicle_type_id":"4","last_reported":1751030630,"current_range_meters":4800,"station_id":"ce4bhh92rcd13ifvqfi0","pricing_plan_id":"cebpf4jnsgd1na2vs0mg"},{"bike_id":"e4594e54-d1ce-4b3c-99c0-1bec67a21327","system_id":"levelo_inurba_marseille","lat":43.29904,"lon":5.38489,"is_reserved":false,"is_disabled":false,"rental_uris":{"android":"levelo://app?vid=e4594e54-d1ce-4b3c-99c0-1bec67a21327","ios":"levelo://app?vid=e4594e54-d1ce-4b3c-99c0-1bec67a21327"},"vehicle_type_id":"4","last_reported":1751030630,"current_range_meters":5600,"station_id":"","pricing_plan_id":"cebpf4jnsgd1na2vs0mg"},{"bike_id":"03d773fb-2954-4708-823c-56e95b7920b5","system_id":"levelo_inurba_marseille","lat":43.2928,"lon":5.36829,"is_reserved":false,"is_disabled":false,"rental_uris":{"android":"levelo://app?vid=03d773fb-2954-4708-823c-56e95b7920b5","ios":"levelo://app?vid=03d773fb-2954-4708-823c-56e95b7920b5"},"vehicle_type_id":"4","last_reported":1751030630,"current_range_meters":5600,"station_id":"ce4bhbp2rcd13ifvqesg","pricing_plan_id":"cebpf4jnsgd1na2vs0mg"},{"bike_id":"d3aa9c97-81b0-417b-a3eb-1cf5add54f4f","system_id":"levelo_inurba_marseille","lat":43.30544,"lon":5.36524,"is_reserved":false,"is_disabled":false,"rental_uris":{"android":"levelo://app?vid=d3aa9c97-81b0-417b-a3eb-1cf5add54f4f","ios":"levelo://app?vid=d3aa9c97-81b0-417b-a3eb-1cf5add54f4f"},"vehicle_type_id":"4","last_reported":1751030630,"current_range_meters":6000,"station_id":"ce4bgs12rcd13ifvqcag","pricing_plan_id":"cebpf4jnsgd1na2vs0mg"},{"bike_id":"b3673efb-9fcd-49e7-bc5b-ddabc7692762","system_id":"levelo_inurba_marseille","lat":43.25583,"lon":5.38229,"is_reserved":false,"is_disabled":false,"rental_uris":{"android":"levelo://app?vid=b3673efb-9fcd-49e7-bc5b-ddabc7692762","ios":"levelo://app?vid=b3673efb-9fcd-49e7-bc5b-ddabc7692762"},"vehicle_type_id":"4","last_reported":1751030630,"current_range_meters":6000,"station_id":"ce4bhih2rcd13ifvqfs0","pricing_plan_id":"cebpf4jnsgd1na2vs0mg"},{"bike_id":"560bdc31-96fd-4b83-9de5-7fd1a2df0f10","system_id":"levelo_inurba_marseille","lat":43.27056,"lon":5.40259,"is_reserved":false,"is_disabled":false,"rental_uris":{"android":"levelo://app?vid=560bdc31-96fd-4b83-9de5-7fd1a2df0f10","ios":"levelo://app?vid=560bdc31-96fd-4b83-9de5-7fd1a2df0f10"},"vehicle_type_id":"4","last_reported":1751030630,"current_range_meters":6000,"station_id":"ce4bhk92rcd13ifvqgc0","pricing_plan_id":"cebpf4jnsgd1na2vs0mg"},{"bike_id":"e2f5b300-4a63-4778-aada-c29a8a0ea1e8","system_id":"levelo_inurba_marseille","lat":43.32809,"lon":5.39245,"is_reserved":false,"is_disabled":false,"rental_uris":{"android":"levelo://app?vid=e2f5b300-4a63-4778-aada-c29a8a0ea1e8","ios":"levelo://app?vid=e2f5b300-4a63-4778-aada-c29a8a0ea1e8"},"vehicle_type_id":"4","last_reported":1751030630,"current_range_meters":6400,"station_id":"","pricing_plan_id":"cebpf4jnsgd1na2vs0mg"},{"bike_id":"4c219a9f-9b1c-4ea2-b24d-ee517a0d8325","system_id":"levelo_inurba_marseille","lat":43.29571,"lon":5.37524,"is_reserved":false,"is_disabled":false,"rental_uris":{"android":"levelo://app?vid=4c219a9f-9b1c-4ea2-b24d-ee517a0d8325","ios":"levelo://app?vid=4c219a9f-9b1c-4ea2-b24d-ee517a0d8325"},"vehicle_type_id":"4","last_reported":1751030630,"current_range_meters":6400,"station_id":"ce4bgh92rcd13ifvqb50","pricing_plan_id":"cebpf4jnsgd1na2vs0mg"},{"bike_id":"a98fd970-88ac-431a-90ba-3731e0931174","system_id":"levelo_inurba_marseille","lat":43.31338,"lon":5.38602,"is_reserved":false,"is_disabled":false,"rental_uris":{"android":"levelo://app?vid=a98fd970-88ac-431a-90ba-3731e0931174","ios":"levelo://app?vid=a98fd970-88ac-431a-90ba-3731e0931174"},"vehicle_type_id":"4","last_reported":1751030630,"current_range_meters":6800,"station_id":"","pricing_plan_id":"cebpf4jnsgd1na2vs0mg"},{"bike_id":"c2525f4a-9711-4e85-b228-866afc9a4bf7","system_id":"levelo_inurba_marseille","lat":43.29289,"lon":5.37455,"is_reserved":false,"is_disabled":false,"rental_uris":{"android":"levelo://app?vid=c2525f4a-9711-4e85-b228-866afc9a4bf7","ios":"levelo://app?vid=c2525f4a-9711-4e85-b228-866afc9a4bf7"},"vehicle_type_id":"4","last_reported":1751030630,"current_range_meters":6800,"station_id":"ce4bgi12rcd13ifvqb70","pricing_plan_id":"cebpf4jnsgd1na2vs0mg"},{"bike_id":"9302a846-95bc-449f-b2df-353409041d53","system_id":"levelo_inurba_marseille","lat":43.27377,"lon":5.36254,"is_reserved":false,"is_disabled":false,"rental_uris":{"android":"levelo://app?vid=9302a846-95bc-449f-b2df-353409041d53","ios":"levelo://app?vid=9302a846-95bc-449f-b2df-353409041d53"},"vehicle_type_id":"4","last_reported":1751030630,"current_range_meters":6800,"station_id":"ce4bhbh2rcd13ifvqeo0","pricing_plan_id":"cebpf4jnsgd1na2vs0mg"},{"bike_id":"f2ec6f33-de72-4d8b-83f6-f806e7428412","system_id":"levelo_inurba_marseille","lat":43.27372,"lon":5.36255,"is_reserved":false,"is_disabled":false,"rental_uris":{"android":"levelo://app?vid=f2ec6f33-de72-4d8b-83f6-f806e7428412","ios":"levelo://app?vid=f2ec6f33-de72-4d8b-83f6-f806e7428412"},"vehicle_type_id":"4","last_reported":1751030630,"current_range_meters":6800,"station_id":"ce4bhbh2rcd13ifvqeo0","pricing_plan_id":"cebpf4jnsgd1na2vs0mg"},{"bike_id":"a9d25cad-d480-4c75-aec5-3969f1a4e6c7","system_id":"levelo_inurba_marseille","lat":43.32927,"lon":5.39051,"is_reserved":false,"is_disabled":false,"rental_uris":{"android":"levelo://app?vid=a9d25cad-d480-4c75-aec5-3969f1a4e6c7","ios":"levelo://app?vid=a9d25cad-d480-4c75-aec5-3969f1a4e6c7"},"vehicle_type_id":"4","last_reported":1751030630,"current_range_meters":7200,"station_id":"","pricing_plan_id":"cebpf4jnsgd1na2vs0mg"},{"bike_id":"7ac2d6ad-16d3-463d-9f49-789f3bb8e5d0","system_id":"levelo_inurba_marseille","lat":43.33754,"lon":5.39146,"is_reserved":false,"is_disabled":false,"rental_uris":{"android":"levelo://app?vid=7ac2d6ad-16d3-463d-9f49-789f3bb8e5d0","ios":"levelo://app?vid=7ac2d6ad-16d3-463d-9f49-789f3bb8e5d0"},"vehicle_type_id":"4","last_reported":1751030630,"current_range_meters":7200,"station_id":"","pricing_plan_id":"cebpf4jnsgd1na2vs0mg"},{"bike_id":"aab6f91c-bc05-4a35-a250-d2037b3d2bf3","system_id":"levelo_inurba_marseille","lat":43.30281,"lon":5.37704,"is_reserved":false,"is_disabled":false,"rental_uris":{"android":"levelo://app?vid=aab6f91c-bc05-4a35-a250-d2037b3d2bf3","ios":"levelo://app?vid=aab6f91c-bc05-4a35-a250-d2037b3d2bf3"},"vehicle_type_id":"4","last_reported":1751030630,"current_range_meters":7200,"station_id":"ce4bguh2rcd13ifvqcj0","pricing_plan_id":"cebpf4jnsgd1na2vs0mg"},{"bike_id":"092f3473-9d1d-4d1a-9595-a5801585730f","system_id":"levelo_inurba_marseille","lat":43.27343,"lon":5.36247,"is_reserved":false,"is_disabled":false,"rental_uris":{"android":"levelo://app?vid=092f3473-9d1d-4d1a-9595-a5801585730f","ios":"levelo://app?vid=092f3473-9d1d-4d1a-9595-a5801585730f"},"vehicle_type_id":"4","last_reported":1751030630,"current_range_meters":7200,"station_id":"ce4bhbh2rcd13ifvqeo0","pricing_plan_id":"cebpf4jnsgd1na2vs0mg"},{"bike_id":"4442bb63-810f-42fc-9d3f-23bc920ab47d","system_id":"levelo_inurba_marseille","lat":43.27314,"lon":5.3909,"is_reserved":false,"is_disabled":false,"rental_uris":{"android":"levelo://app?vid=4442bb63-810f-42fc-9d3f-23bc920ab47d","ios":"levelo://app?vid=4442bb63-810f-42fc-9d3f-23bc920ab47d"},"vehicle_type_id":"4","last_reported":1751030630,"current_range_meters":7200,"station_id":"ce4bhgp2rcd13ifvqfe0","pricing_plan_id":"cebpf4jnsgd1na2vs0mg"},{"bike_id":"a6559b5d-1a21-4be6-806d-651767f78ed9","system_id":"levelo_inurba_marseille","lat":43.30805,"lon":5.4352,"is_reserved":false,"is_disabled":false,"rental_uris":{"android":"levelo://app?vid=a6559b5d-1a21-4be6-806d-651767f78ed9","ios":"levelo://app?vid=a6559b5d-1a21-4be6-806d-651767f78ed9"},"vehicle_type_id":"4","last_reported":1751030630,"current_range_meters":7200,"station_id":"ce4bhph2rcd13ifvqheg","pricing_plan_id":"cebpf4jnsgd1na2vs0mg"},{"bike_id":"fbd584e2-02e2-400d-ba4e-c61cc4d2a50d","system_id":"levelo_inurba_marseille","lat":43.33601,"lon":5.41043,"is_reserved":false,"is_disabled":false,"rental_uris":{"android":"levelo://app?vid=fbd584e2-02e2-400d-ba4e-c61cc4d2a50d","ios":"levelo://app?vid=fbd584e2-02e2-400d-ba4e-c61cc4d2a50d"},"vehicle_type_id":"4","last_reported":1751030630,"current_range_meters":7200,"station_id":"ce4bhqh2rcd13ifvqhmg","pricing_plan_id":"cebpf4jnsgd1na2vs0mg"},{"bike_id":"9a8af02d-a5e5-44fc-a609-17eba9b6f095","system_id":"levelo_inurba_marseille","lat":43.28268,"lon":5.35069,"is_reserved":false,"is_disabled":false,"rental_uris":{"android":"levelo://app?vid=9a8af02d-a5e5-44fc-a609-17eba9b6f095","ios":"levelo://app?vid=9a8af02d-a5e5-44fc-a609-17eba9b6f095"},"vehicle_type_id":"4","last_reported":1751030630,"current_range_meters":8000,"station_id":"ce4bhbp2rcd13ifvqerg","pricing_plan_id":"cebpf4jnsgd1na2vs0mg"},{"bike_id":"e2b1b81d-27e8-495b-9fce-5bef10a02ecf","system_id":"levelo_inurba_marseille","lat":43.27047,"lon":5.38836,"is_reserved":false,"is_disabled":false,"rental_uris":{"android":"levelo://app?vid=e2b1b81d-27e8-495b-9fce-5bef10a02ecf","ios":"levelo://app?vid=e2b1b81d-27e8-495b-9fce-5bef10a02ecf"},"vehicle_type_id":"4","last_reported":1751030630,"current_range_meters":8400,"station_id":"","pricing_plan_id":"cebpf4jnsgd1na2vs0mg"},{"bike_id":"4b62043f-07a0-4230-b063-d1e443bd6a7e","system_id":"levelo_inurba_marseille","lat":43.301424,"lon":5.387764,"is_reserved":false,"is_disabled":false,"rental_uris":{"android":"levelo://app?vid=4b62043f-07a0-4230-b063-d1e443bd6a7e","ios":"levelo://app?vid=4b62043f-07a0-4230-b063-d1e443bd6a7e"},"vehicle_type_id":"4","last_reported":1751030630,"current_range_meters":8400,"station_id":"ce4bghh2rcd13ifvqb60","pricing_plan_id":"cebpf4jnsgd1na2vs0mg"},{"bike_id":"7a8736cf-aed8-4f12-be99-c2c8c74e6a20","system_id":"levelo_inurba_marseille","lat":43.293762,"lon":5.378966,"is_reserved":false,"is_disabled":false,"rental_uris":{"android":"levelo://app?vid=7a8736cf-aed8-4f12-be99-c2c8c74e6a20","ios":"levelo://app?vid=7a8736cf-aed8-4f12-be99-c2c8c74e6a20"},"vehicle_type_id":"4","last_reported":1751030630,"current_range_meters":8400,"station_id":"ce4bgjh2rcd13ifvqbf0","pricing_plan_id":"cebpf4jnsgd1na2vs0mg"},{"bike_id":"aaaba732-9dec-4e50-aaf4-18834fb03604","system_id":"levelo_inurba_marseille","lat":43.29947,"lon":5.36521,"is_reserved":false,"is_disabled":false,"rental_uris":{"android":"levelo://app?vid=aaaba732-9dec-4e50-aaf4-18834fb03604","ios":"levelo://app?vid=aaaba732-9dec-4e50-aaf4-18834fb03604"},"vehicle_type_id":"4","last_reported":1751030630,"current_range_meters":8400,"station_id":"ce4bgm92rcd13ifvqbr0","pricing_plan_id":"cebpf4jnsgd1na2vs0mg"},{"bike_id":"eb15694f-be70-4bd4-b934-4c638327d07a","system_id":"levelo_inurba_marseille","lat":43.29932,"lon":5.36551,"is_reserved":false,"is_disabled":false,"rental_uris":{"android":"levelo://app?vid=eb15694f-be70-4bd4-b934-4c638327d07a","ios":"levelo://app?vid=eb15694f-be70-4bd4-b934-4c638327d07a"},"vehicle_type_id":"4","last_reported":1751030630,"current_range_meters":8400,"station_id":"ce4bgm92rcd13ifvqbr0","pricing_plan_id":"cebpf4jnsgd1na2vs0mg"},{"bike_id":"e6a30e67-11fa-4a7f-9cc9-f64ecdd9bdf2","system_id":"levelo_inurba_marseille","lat":43.30551,"lon":5.36536,"is_reserved":false,"is_disabled":false,"rental_uris":{"android":"levelo://app?vid=e6a30e67-11fa-4a7f-9cc9-f64ecdd9bdf2","ios":"levelo://app?vid=e6a30e67-11fa-4a7f-9cc9-f64ecdd9bdf2"},"vehicle_type_id":"4","last_reported":1751030630,"current_range_meters":8400,"station_id":"ce4bgs12rcd13ifvqcag","pricing_plan_id":"cebpf4jnsgd1na2vs0mg"},{"bike_id":"94e84186-d780-461a-b647-8d1cf3f036ad","system_id":"levelo_inurba_marseille","lat":43.31849,"lon":5.37548,"is_reserved":false,"is_disabled":false,"rental_uris":{"android":"levelo://app?vid=94e84186-d780-461a-b647-8d1cf3f036ad","ios":"levelo://app?vid=94e84186-d780-461a-b647-8d1cf3f036ad"},"vehicle_type_id":"4","last_reported":1751030630,"current_range_meters":8400,"station_id":"ce4bgth2rcd13ifvqch0","pricing_plan_id":"cebpf4jnsgd1na2vs0mg"},{"bike_id":"d1f0a5a2-2998-4b29-8323-2b4f1c528972","system_id":"levelo_inurba_marseille","lat":43.28027,"lon":5.3695,"is_reserved":false,"is_disabled":false,"rental_uris":{"android":"levelo://app?vid=d1f0a5a2-2998-4b29-8323-2b4f1c528972","ios":"levelo://app?vid=d1f0a5a2-2998-4b29-8323-2b4f1c528972"},"vehicle_type_id":"4","last_reported":1751030630,"current_range_meters":8400,"station_id":"ce4bha12rcd13ifvqef0","pricing_plan_id":"cebpf4jnsgd1na2vs0mg"},{"bike_id":"f50e41bb-3641-43db-a534-5a1f3c50561d","system_id":"levelo_inurba_marseille","lat":43.25576,"lon":5.3824,"is_reserved":false,"is_disabled":false,"rental_uris":{"android":"levelo://app?vid=f50e41bb-3641-43db-a534-5a1f3c50561d","ios":"levelo://app?vid=f50e41bb-3641-43db-a534-5a1f3c50561d"},"vehicle_type_id":"4","last_reported":1751030630,"current_range_meters":8400,"station_id":"ce4bhih2rcd13ifvqfs0","pricing_plan_id":"cebpf4jnsgd1na2vs0mg"},{"bike_id":"1c9eb74a-78e8-41ef-846c-5cbce7a011f6","system_id":"levelo_inurba_marseille","lat":43.30419,"lon":5.41283,"is_reserved":false,"is_disabled":false,"rental_uris":{"android":"levelo://app?vid=1c9eb74a-78e8-41ef-846c-5cbce7a011f6","ios":"levelo://app?vid=1c9eb74a-78e8-41ef-846c-5cbce7a011f6"},"vehicle_type_id":"4","last_reported":1751030630,"current_range_meters":8400,"station_id":"ce4bhop2rcd13ifvqh8g","pricing_plan_id":"cebpf4jnsgd1na2vs0mg"},{"bike_id":"6d31f048-d73c-41cc-b3c8-639d13f63e10","system_id":"levelo_inurba_marseille","lat":43.32061,"lon":5.41614,"is_reserved":false,"is_disabled":false,"rental_uris":{"android":"levelo://app?vid=6d31f048-d73c-41cc-b3c8-639d13f63e10","ios":"levelo://app?vid=6d31f048-d73c-41cc-b3c8-639d13f63e10"},"vehicle_type_id":"4","last_reported":1751030630,"current_range_meters":8800,"station_id":"","pricing_plan_id":"cebpf4jnsgd1na2vs0mg"},{"bike_id":"f47876d7-9c85-474e-92c5-7a242e08b67c","system_id":"levelo_inurba_marseille","lat":43.305605,"lon":5.375593,"is_reserved":false,"is_disabled":false,"rental_uris":{"android":"levelo://app?vid=f47876d7-9c85-474e-92c5-7a242e08b67c","ios":"levelo://app?vid=f47876d7-9c85-474e-92c5-7a242e08b67c"},"vehicle_type_id":"4","last_reported":1751030630,"current_range_meters":8800,"station_id":"","pricing_plan_id":"cebpf4jnsgd1na2vs0mg"},{"bike_id":"83c8f00d-385b-4a50-9833-1f70f6faef62","system_id":"levelo_inurba_marseille","lat":43.305589,"lon":5.365619,"is_reserved":false,"is_disabled":false,"rental_uris":{"android":"levelo://app?vid=83c8f00d-385b-4a50-9833-1f70f6faef62","ios":"levelo://app?vid=83c8f00d-385b-4a50-9833-1f70f6faef62"},"vehicle_type_id":"4","last_reported":1751030630,"current_range_meters":8800,"station_id":"ce4bgs12rcd13ifvqcag","pricing_plan_id":"cebpf4jnsgd1na2vs0mg"},{"bike_id":"a47ee647-b777-4c68-a199-5cbebb4cf51c","system_id":"levelo_inurba_marseille","lat":43.28712,"lon":5.37938,"is_reserved":false,"is_disabled":false,"rental_uris":{"android":"levelo://app?vid=a47ee647-b777-4c68-a199-5cbebb4cf51c","ios":"levelo://app?vid=a47ee647-b777-4c68-a199-5cbebb4cf51c"},"vehicle_type_id":"4","last_reported":1751030630,"current_range_meters":8800,"station_id":"ce4bh9p2rcd13ifvqec0","pricing_plan_id":"cebpf4jnsgd1na2vs0mg"},{"bike_id":"0019376b-eaad-4fa3-aa76-ba9b0a661441","system_id":"levelo_inurba_marseille","lat":43.27378,"lon":5.36283,"is_reserved":false,"is_disabled":false,"rental_uris":{"android":"levelo://app?vid=0019376b-eaad-4fa3-aa76-ba9b0a661441","ios":"levelo://app?vid=0019376b-eaad-4fa3-aa76-ba9b0a661441"},"vehicle_type_id":"4","last_reported":1751030630,"current_range_meters":8800,"station_id":"ce4bhbh2rcd13ifvqeo0","pricing_plan_id":"cebpf4jnsgd1na2vs0mg"},{"bike_id":"e73f9e9b-f21e-4f43-9d8d-3aeb76ac5877","system_id":"levelo_inurba_marseille","lat":43.29559,"lon":5.42288,"is_reserved":false,"is_disabled":false,"rental_uris":{"android":"levelo://app?vid=e73f9e9b-f21e-4f43-9d8d-3aeb76ac5877","ios":"levelo://app?vid=e73f9e9b-f21e-4f43-9d8d-3aeb76ac5877"},"vehicle_type_id":"4","last_reported":1751030630,"current_range_meters":8800,"station_id":"ce4bhph2rcd13ifvqhdg","pricing_plan_id":"cebpf4jnsgd1na2vs0mg"},{"bike_id":"a8d020af-a517-43d3-a9f5-e1fd3a6f59ef","system_id":"levelo_inurba_marseille","lat":43.31758,"lon":5.39024,"is_reserved":false,"is_disabled":false,"rental_uris":{"android":"levelo://app?vid=a8d020af-a517-43d3-a9f5-e1fd3a6f59ef","ios":"levelo://app?vid=a8d020af-a517-43d3-a9f5-e1fd3a6f59ef"},"vehicle_type_id":"4","last_reported":1751030630,"current_range_meters":8800,"station_id":"ce4bhqp2rcd13ifvqhng","pricing_plan_id":"cebpf4jnsgd1na2vs0mg"},{"bike_id":"e8149d19-22f2-404b-b5fd-61fcf4f1d3f9","system_id":"levelo_inurba_marseille","lat":43.30892,"lon":5.39642,"is_reserved":false,"is_disabled":false,"rental_uris":{"android":"levelo://app?vid=e8149d19-22f2-404b-b5fd-61fcf4f1d3f9","ios":"levelo://app?vid=e8149d19-22f2-404b-b5fd-61fcf4f1d3f9"},"vehicle_type_id":"4","last_reported":1751030630,"current_range_meters":9200,"station_id":"ce4bh012rcd13ifvqcv0","pricing_plan_id":"cebpf4jnsgd1na2vs0mg"},{"bike_id":"ca3bd576-9126-4dba-977f-9fec324d1c91","system_id":"levelo_inurba_marseille","lat":43.28996,"lon":5.35589,"is_reserved":false,"is_disabled":false,"rental_uris":{"android":"levelo://app?vid=ca3bd576-9126-4dba-977f-9fec324d1c91","ios":"levelo://app?vid=ca3bd576-9126-4dba-977f-9fec324d1c91"},"vehicle_type_id":"4","last_reported":1751030630,"current_range_meters":9200,"station_id":"ce4bhb92rcd13ifvqen0","pricing_plan_id":"cebpf4jnsgd1na2vs0mg"},{"bike_id":"c984e9a7-e1e2-4139-b56f-3e98a8e5939d","system_id":"levelo_inurba_marseille","lat":43.27668,"lon":5.38902,"is_reserved":false,"is_disabled":false,"rental_uris":{"android":"levelo://app?vid=c984e9a7-e1e2-4139-b56f-3e98a8e5939d","ios":"levelo://app?vid=c984e9a7-e1e2-4139-b56f-3e98a8e5939d"},"vehicle_type_id":"4","last_reported":1751030630,"current_range_meters":9200,"station_id":"ce4bhi12rcd13ifvqfo0","pricing_plan_id":"cebpf4jnsgd1na2vs0mg"},{"bike_id":"c72d745b-a0c5-459b-b1ac-60393bd0cf40","system_id":"levelo_inurba_marseille","lat":43.30799,"lon":5.43517,"is_reserved":false,"is_disabled":false,"rental_uris":{"android":"levelo://app?vid=c72d745b-a0c5-459b-b1ac-60393bd0cf40","ios":"levelo://app?vid=c72d745b-a0c5-459b-b1ac-60393bd0cf40"},"vehicle_type_id":"4","last_reported":1751030630,"current_range_meters":9200,"station_id":"ce4bhph2rcd13ifvqheg","pricing_plan_id":"cebpf4jnsgd1na2vs0mg"},{"bike_id":"4d06c23d-5186-47c3-82a2-4c156c24f905","system_id":"levelo_inurba_marseille","lat":43.21758,"lon":5.34605,"is_reserved":false,"is_disabled":false,"rental_uris":{"android":"levelo://app?vid=4d06c23d-5186-47c3-82a2-4c156c24f905","ios":"levelo://app?vid=4d06c23d-5186-47c3-82a2-4c156c24f905"},"vehicle_type_id":"4","last_reported":1751030630,"current_range_meters":9200,"station_id":"st_cvj6r9ubvosntc0bgbag","pricing_plan_id":"cebpf4jnsgd1na2vs0mg"},{"bike_id":"ec2d5728-9962-43e7-8b03-1359420b0dd3","system_id":"levelo_inurba_marseille","lat":43.30712,"lon":5.40353,"is_reserved":false,"is_disabled":false,"rental_uris":{"android":"levelo://app?vid=ec2d5728-9962-43e7-8b03-1359420b0dd3","ios":"levelo://app?vid=ec2d5728-9962-43e7-8b03-1359420b0dd3"},"vehicle_type_id":"4","last_reported":1751030630,"current_range_meters":9600,"station_id":"","pricing_plan_id":"cebpf4jnsgd1na2vs0mg"},{"bike_id":"4b8da722-ee9e-48a4-a5e5-3a8a10364708","system_id":"levelo_inurba_marseille","lat":43.31223,"lon":5.37835,"is_reserved":false,"is_disabled":false,"rental_uris":{"android":"levelo://app?vid=4b8da722-ee9e-48a4-a5e5-3a8a10364708","ios":"levelo://app?vid=4b8da722-ee9e-48a4-a5e5-3a8a10364708"},"vehicle_type_id":"4","last_reported":1751030630,"current_range_meters":9600,"station_id":"","pricing_plan_id":"cebpf4jnsgd1na2vs0mg"},{"bike_id":"a883f219-e577-4c8c-8a63-91ae6336dd84","system_id":"levelo_inurba_marseille","lat":43.29974,"lon":5.36544,"is_reserved":false,"is_disabled":false,"rental_uris":{"android":"levelo://app?vid=a883f219-e577-4c8c-8a63-91ae6336dd84","ios":"levelo://app?vid=a883f219-e577-4c8c-8a63-91ae6336dd84"},"vehicle_type_id":"4","last_reported":1751030630,"current_range_meters":9600,"station_id":"","pricing_plan_id":"cebpf4jnsgd1na2vs0mg"},{"bike_id":"96bba26a-9c25-4213-98d7-883dff4f719c","system_id":"levelo_inurba_marseille","lat":43.27377,"lon":5.36261,"is_reserved":false,"is_disabled":false,"rental_uris":{"android":"levelo://app?vid=96bba26a-9c25-4213-98d7-883dff4f719c","ios":"levelo://app?vid=96bba26a-9c25-4213-98d7-883dff4f719c"},"vehicle_type_id":"4","last_reported":1751030630,"current_range_meters":9600,"station_id":"ce4bhbh2rcd13ifvqeo0","pricing_plan_id":"cebpf4jnsgd1na2vs0mg"},{"bike_id":"9a2228bd-2960-4af1-843a-663d23b274b7","system_id":"levelo_inurba_marseille","lat":43.27978,"lon":5.38722,"is_reserved":false,"is_disabled":false,"rental_uris":{"android":"levelo://app?vid=9a2228bd-2960-4af1-843a-663d23b274b7","ios":"levelo://app?vid=9a2228bd-2960-4af1-843a-663d23b274b7"},"vehicle_type_id":"4","last_reported":1751030630,"current_range_meters":9600,"station_id":"ce4bhg12rcd13ifvqf80","pricing_plan_id":"cebpf4jnsgd1na2vs0mg"},{"bike_id":"895d4070-0354-4bbe-8949-aec898465ded","system_id":"levelo_inurba_marseille","lat":43.25493,"lon":5.37646,"is_reserved":false,"is_disabled":false,"rental_uris":{"android":"levelo://app?vid=895d4070-0354-4bbe-8949-aec898465ded","ios":"levelo://app?vid=895d4070-0354-4bbe-8949-aec898465ded"},"vehicle_type_id":"4","last_reported":1751030630,"current_range_meters":9600,"station_id":"ce4bhh12rcd13ifvqff0","pricing_plan_id":"cebpf4jnsgd1na2vs0mg"},{"bike_id":"345bd2e6-75ed-40dd-abd5-72cb13616690","system_id":"levelo_inurba_marseille","lat":43.27663,"lon":5.38892,"is_reserved":false,"is_disabled":false,"rental_uris":{"android":"levelo://app?vid=345bd2e6-75ed-40dd-abd5-72cb13616690","ios":"levelo://app?vid=345bd2e6-75ed-40dd-abd5-72cb13616690"},"vehicle_type_id":"4","last_reported":1751030630,"current_range_meters":9600,"station_id":"ce4bhi12rcd13ifvqfo0","pricing_plan_id":"cebpf4jnsgd1na2vs0mg"},{"bike_id":"d4e177ad-79e4-456e-933f-1e1248bff5f2","system_id":"levelo_inurba_marseille","lat":43.270692,"lon":5.42276,"is_reserved":false,"is_disabled":false,"rental_uris":{"android":"levelo://app?vid=d4e177ad-79e4-456e-933f-1e1248bff5f2","ios":"levelo://app?vid=d4e177ad-79e4-456e-933f-1e1248bff5f2"},"vehicle_type_id":"4","last_reported":1751030630,"current_range_meters":9600,"station_id":"ce4bhk92rcd13ifvqgb0","pricing_plan_id":"cebpf4jnsgd1na2vs0mg"},{"bike_id":"88f51f31-11ea-4b3c-b173-41e387bb9011","system_id":"levelo_inurba_marseille","lat":43.33024,"lon":5.39043,"is_reserved":false,"is_disabled":false,"rental_uris":{"android":"levelo://app?vid=88f51f31-11ea-4b3c-b173-41e387bb9011","ios":"levelo://app?vid=88f51f31-11ea-4b3c-b173-41e387bb9011"},"vehicle_type_id":"4","last_reported":1751030630,"current_range_meters":9600,"station_id":"ce4bhr92rcd13ifvqhrg","pricing_plan_id":"cebpf4jnsgd1na2vs0mg"},{"bike_id":"bdee4145-fdcc-4fee-bf03-ffa3a6a5fef9","system_id":"levelo_inurba_marseille","lat":43.32107,"lon":5.36769,"is_reserved":false,"is_disabled":false,"rental_uris":{"android":"levelo://app?vid=bdee4145-fdcc-4fee-bf03-ffa3a6a5fef9","ios":"levelo://app?vid=bdee4145-fdcc-4fee-bf03-ffa3a6a5fef9"},"vehicle_type_id":"4","last_reported":1751030630,"current_range_meters":9600,"station_id":"ce4bhrh2rcd13ifvqhug","pricing_plan_id":"cebpf4jnsgd1na2vs0mg"},{"bike_id":"959a6144-1b8c-4394-b676-453ee52d4830","system_id":"levelo_inurba_marseille","lat":43.324757,"lon":5.365737,"is_reserved":false,"is_disabled":false,"rental_uris":{"android":"levelo://app?vid=959a6144-1b8c-4394-b676-453ee52d4830","ios":"levelo://app?vid=959a6144-1b8c-4394-b676-453ee52d4830"},"vehicle_type_id":"4","last_reported":1751030630,"current_range_meters":9600,"station_id":"ce4bhs12rcd13ifvqhvg","pricing_plan_id":"cebpf4jnsgd1na2vs0mg"},{"bike_id":"6e333cad-8154-4d5d-9ce4-405ad8359f75","system_id":"levelo_inurba_marseille","lat":43.22945,"lon":5.35382,"is_reserved":false,"is_disabled":false,"rental_uris":{"android":"levelo://app?vid=6e333cad-8154-4d5d-9ce4-405ad8359f75","ios":"levelo://app?vid=6e333cad-8154-4d5d-9ce4-405ad8359f75"},"vehicle_type_id":"4","last_reported":1751030630,"current_range_meters":9600,"station_id":"cpo3532slgdg3j2ikp40","pricing_plan_id":"cebpf4jnsgd1na2vs0mg"},{"bike_id":"6bb25087-4929-40aa-a0d7-d130e48685f0","system_id":"levelo_inurba_marseille","lat":43.24171,"lon":5.36394,"is_reserved":false,"is_disabled":false,"rental_uris":{"android":"levelo://app?vid=6bb25087-4929-40aa-a0d7-d130e48685f0","ios":"levelo://app?vid=6bb25087-4929-40aa-a0d7-d130e48685f0"},"vehicle_type_id":"4","last_reported":1751030630,"current_range_meters":9600,"station_id":"cpo36qri1sfpv3e86is0","pricing_plan_id":"cebpf4jnsgd1na2vs0mg"},{"bike_id":"45fa0d60-c92e-42df-8bdc-2132ce97e89f","system_id":"levelo_inurba_marseille","lat":43.27384,"lon":5.3626,"is_reserved":false,"is_disabled":false,"rental_uris":{"android":"levelo://app?vid=45fa0d60-c92e-42df-8bdc-2132ce97e89f","ios":"levelo://app?vid=45fa0d60-c92e-42df-8bdc-2132ce97e89f"},"vehicle_type_id":"4","last_reported":1751030630,"current_range_meters":10000,"station_id":"","pricing_plan_id":"cebpf4jnsgd1na2vs0mg"},{"bike_id":"642c040d-ed14-43d6-b8eb-f02fda43e030","system_id":"levelo_inurba_marseille","lat":43.28664,"lon":5.36344,"is_reserved":false,"is_disabled":false,"rental_uris":{"android":"levelo://app?vid=642c040d-ed14-43d6-b8eb-f02fda43e030","ios":"levelo://app?vid=642c040d-ed14-43d6-b8eb-f02fda43e030"},"vehicle_type_id":"4","last_reported":1751030630,"current_range_meters":10000,"station_id":"ce4bhah2rcd13ifvqej0","pricing_plan_id":"cebpf4jnsgd1na2vs0mg"},{"bike_id":"988069a9-2b9e-4f5c-a298-9f46162f4c55","system_id":"levelo_inurba_marseille","lat":43.29005,"lon":5.35611,"is_reserved":false,"is_disabled":false,"rental_uris":{"android":"levelo://app?vid=988069a9-2b9e-4f5c-a298-9f46162f4c55","ios":"levelo://app?vid=988069a9-2b9e-4f5c-a298-9f46162f4c55"},"vehicle_type_id":"4","last_reported":1751030630,"current_range_meters":10000,"station_id":"ce4bhb92rcd13ifvqen0","pricing_plan_id":"cebpf4jnsgd1na2vs0mg"},{"bike_id":"dd7ef647-3be5-4ca4-b5e7-6a6aaed6eaa7","system_id":"levelo_inurba_marseille","lat":43.28415,"lon":5.34974,"is_reserved":false,"is_disabled":false,"rental_uris":{"android":"levelo://app?vid=dd7ef647-3be5-4ca4-b5e7-6a6aaed6eaa7","ios":"levelo://app?vid=dd7ef647-3be5-4ca4-b5e7-6a6aaed6eaa7"},"vehicle_type_id":"4","last_reported":1751030630,"current_range_meters":10000,"station_id":"ce4bhbh2rcd13ifvqepg","pricing_plan_id":"cebpf4jnsgd1na2vs0mg"},{"bike_id":"34cb5941-3648-4035-97fb-b94b2b488753","system_id":"levelo_inurba_marseille","lat":43.26557,"lon":5.37284,"is_reserved":false,"is_disabled":false,"rental_uris":{"android":"levelo://app?vid=34cb5941-3648-4035-97fb-b94b2b488753","ios":"levelo://app?vid=34cb5941-3648-4035-97fb-b94b2b488753"},"vehicle_type_id":"4","last_reported":1751030630,"current_range_meters":10000,"station_id":"ce4bhg12rcd13ifvqf70","pricing_plan_id":"cebpf4jnsgd1na2vs0mg"},{"bike_id":"5e202208-42cb-456c-8e00-54da18cbc357","system_id":"levelo_inurba_marseille","lat":43.25495,"lon":5.37651,"is_reserved":false,"is_disabled":false,"rental_uris":{"android":"levelo://app?vid=5e202208-42cb-456c-8e00-54da18cbc357","ios":"levelo://app?vid=5e202208-42cb-456c-8e00-54da18cbc357"},"vehicle_type_id":"4","last_reported":1751030630,"current_range_meters":10000,"station_id":"ce4bhh12rcd13ifvqff0","pricing_plan_id":"cebpf4jnsgd1na2vs0mg"},{"bike_id":"ffb03ad4-55be-4be9-9ffb-389d6066e70f","system_id":"levelo_inurba_marseille","lat":43.2439,"lon":5.37064,"is_reserved":false,"is_disabled":false,"rental_uris":{"android":"levelo://app?vid=ffb03ad4-55be-4be9-9ffb-389d6066e70f","ios":"levelo://app?vid=ffb03ad4-55be-4be9-9ffb-389d6066e70f"},"vehicle_type_id":"4","last_reported":1751030630,"current_range_meters":10000,"station_id":"ce4bhhh2rcd13ifvqfk0","pricing_plan_id":"cebpf4jnsgd1na2vs0mg"},{"bike_id":"66bc1319-1a35-4afe-b986-ebe6ce713962","system_id":"levelo_inurba_marseille","lat":43.25106,"lon":5.40318,"is_reserved":false,"is_disabled":false,"rental_uris":{"android":"levelo://app?vid=66bc1319-1a35-4afe-b986-ebe6ce713962","ios":"levelo://app?vid=66bc1319-1a35-4afe-b986-ebe6ce713962"},"vehicle_type_id":"4","last_reported":1751030630,"current_range_meters":10000,"station_id":"ce4bhlh2rcd13ifvqgig","pricing_plan_id":"cebpf4jnsgd1na2vs0mg"},{"bike_id":"d2541864-294e-4fa8-8ed4-da3902bb58d5","system_id":"levelo_inurba_marseille","lat":43.22917,"lon":5.3539,"is_reserved":false,"is_disabled":false,"rental_uris":{"android":"levelo://app?vid=d2541864-294e-4fa8-8ed4-da3902bb58d5","ios":"levelo://app?vid=d2541864-294e-4fa8-8ed4-da3902bb58d5"},"vehicle_type_id":"4","last_reported":1751030630,"current_range_meters":10000,"station_id":"cpo3532slgdg3j2ikp40","pricing_plan_id":"cebpf4jnsgd1na2vs0mg"},{"bike_id":"38ee6c99-ed1c-4320-bb3c-b1d717388b30","system_id":"levelo_inurba_marseille","lat":43.22959,"lon":5.35384,"is_reserved":false,"is_disabled":false,"rental_uris":{"android":"levelo://app?vid=38ee6c99-ed1c-4320-bb3c-b1d717388b30","ios":"levelo://app?vid=38ee6c99-ed1c-4320-bb3c-b1d717388b30"},"vehicle_type_id":"4","last_reported":1751030630,"current_range_meters":10000,"station_id":"cpo3532slgdg3j2ikp40","pricing_plan_id":"cebpf4jnsgd1na2vs0mg"},{"bike_id":"61d52301-5315-4462-9419-d597d7d2d7dd","system_id":"levelo_inurba_marseille","lat":43.21764,"lon":5.34615,"is_reserved":false,"is_disabled":false,"rental_uris":{"android":"levelo://app?vid=61d52301-5315-4462-9419-d597d7d2d7dd","ios":"levelo://app?vid=61d52301-5315-4462-9419-d597d7d2d7dd"},"vehicle_type_id":"4","last_reported":1751030630,"current_range_meters":10000,"station_id":"st_cvj6r9ubvosntc0bgbag","pricing_plan_id":"cebpf4jnsgd1na2vs0mg"},{"bike_id":"768c0104-715f-4ae7-8bb0-ad9c0d98e622","system_id":"levelo_inurba_marseille","lat":43.31073,"lon":5.40088,"is_reserved":false,"is_disabled":false,"rental_uris":{"android":"levelo://app?vid=768c0104-715f-4ae7-8bb0-ad9c0d98e622","ios":"levelo://app?vid=768c0104-715f-4ae7-8bb0-ad9c0d98e622"},"vehicle_type_id":"4","last_reported":1751030630,"current_range_meters":10800,"station_id":"","pricing_plan_id":"cebpf4jnsgd1na2vs0mg"},{"bike_id":"7167bb11-82f1-4eb1-a605-f6199adbf0bc","system_id":"levelo_inurba_marseille","lat":43.29527,"lon":5.38543,"is_reserved":false,"is_disabled":false,"rental_uris":{"android":"levelo://app?vid=7167bb11-82f1-4eb1-a605-f6199adbf0bc","ios":"levelo://app?vid=7167bb11-82f1-4eb1-a605-f6199adbf0bc"},"vehicle_type_id":"4","last_reported":1751030630,"current_range_meters":10800,"station_id":"ce4bgih2rcd13ifvqba0","pricing_plan_id":"cebpf4jnsgd1na2vs0mg"},{"bike_id":"7a0118ae-d744-4a9c-8ccf-220f8067504d","system_id":"levelo_inurba_marseille","lat":43.309321,"lon":5.401364,"is_reserved":false,"is_disabled":false,"rental_uris":{"android":"levelo://app?vid=7a0118ae-d744-4a9c-8ccf-220f8067504d","ios":"levelo://app?vid=7a0118ae-d744-4a9c-8ccf-220f8067504d"},"vehicle_type_id":"4","last_reported":1751030630,"current_range_meters":10800,"station_id":"ce4bgvp2rcd13ifvqct0","pricing_plan_id":"cebpf4jnsgd1na2vs0mg"},{"bike_id":"2f868f43-fb9f-4869-8cb4-cbdb8370d2f8","system_id":"levelo_inurba_marseille","lat":43.27375,"lon":5.36244,"is_reserved":false,"is_disabled":false,"rental_uris":{"android":"levelo://app?vid=2f868f43-fb9f-4869-8cb4-cbdb8370d2f8","ios":"levelo://app?vid=2f868f43-fb9f-4869-8cb4-cbdb8370d2f8"},"vehicle_type_id":"4","last_reported":1751030630,"current_range_meters":10800,"station_id":"ce4bhbh2rcd13ifvqeo0","pricing_plan_id":"cebpf4jnsgd1na2vs0mg"},{"bike_id":"090e2353-2712-433d-9e3b-f469d6de2ebc","system_id":"levelo_inurba_marseille","lat":43.27373,"lon":5.36253,"is_reserved":false,"is_disabled":false,"rental_uris":{"android":"levelo://app?vid=090e2353-2712-433d-9e3b-f469d6de2ebc","ios":"levelo://app?vid=090e2353-2712-433d-9e3b-f469d6de2ebc"},"vehicle_type_id":"4","last_reported":1751030630,"current_range_meters":10800,"station_id":"ce4bhbh2rcd13ifvqeo0","pricing_plan_id":"cebpf4jnsgd1na2vs0mg"},{"bike_id":"fea895d1-80ad-4d60-9883-c4d114a92e95","system_id":"levelo_inurba_marseille","lat":43.273798,"lon":5.362649,"is_reserved":false,"is_disabled":false,"rental_uris":{"android":"levelo://app?vid=fea895d1-80ad-4d60-9883-c4d114a92e95","ios":"levelo://app?vid=fea895d1-80ad-4d60-9883-c4d114a92e95"},"vehicle_type_id":"4","last_reported":1751030630,"current_range_meters":10800,"station_id":"ce4bhbh2rcd13ifvqeo0","pricing_plan_id":"cebpf4jnsgd1na2vs0mg"},{"bike_id":"8fb0134c-03f4-4dd2-9376-71ae6a95a378","system_id":"levelo_inurba_marseille","lat":43.27063,"lon":5.40251,"is_reserved":false,"is_disabled":false,"rental_uris":{"android":"levelo://app?vid=8fb0134c-03f4-4dd2-9376-71ae6a95a378","ios":"levelo://app?vid=8fb0134c-03f4-4dd2-9376-71ae6a95a378"},"vehicle_type_id":"4","last_reported":1751030630,"current_range_meters":10800,"station_id":"ce4bhk92rcd13ifvqgc0","pricing_plan_id":"cebpf4jnsgd1na2vs0mg"},{"bike_id":"b7d0d8a1-c5dd-4278-8b3b-f5786872fe32","system_id":"levelo_inurba_marseille","lat":43.3209,"lon":5.36774,"is_reserved":false,"is_disabled":false,"rental_uris":{"android":"levelo://app?vid=b7d0d8a1-c5dd-4278-8b3b-f5786872fe32","ios":"levelo://app?vid=b7d0d8a1-c5dd-4278-8b3b-f5786872fe32"},"vehicle_type_id":"4","last_reported":1751030630,"current_range_meters":10800,"station_id":"ce4bhrh2rcd13ifvqhug","pricing_plan_id":"cebpf4jnsgd1na2vs0mg"},{"bike_id":"d02e5442-3e73-4241-9ee8-cd6db5cf6766","system_id":"levelo_inurba_marseille","lat":43.29186,"lon":5.35681,"is_reserved":false,"is_disabled":false,"rental_uris":{"android":"levelo://app?vid=d02e5442-3e73-4241-9ee8-cd6db5cf6766","ios":"levelo://app?vid=d02e5442-3e73-4241-9ee8-cd6db5cf6766"},"vehicle_type_id":"4","last_reported":1751030630,"current_range_meters":11200,"station_id":"","pricing_plan_id":"cebpf4jnsgd1na2vs0mg"},{"bike_id":"f05336dd-d2a3-450d-b83b-207c05e82d79","system_id":"levelo_inurba_marseille","lat":43.30134,"lon":5.39852,"is_reserved":false,"is_disabled":false,"rental_uris":{"android":"levelo://app?vid=f05336dd-d2a3-450d-b83b-207c05e82d79","ios":"levelo://app?vid=f05336dd-d2a3-450d-b83b-207c05e82d79"},"vehicle_type_id":"4","last_reported":1751030630,"current_range_meters":11200,"station_id":"ce4bh0h2rcd13ifvqd40","pricing_plan_id":"cebpf4jnsgd1na2vs0mg"},{"bike_id":"95795fbb-6952-43ab-88c1-6e5de6e232c2","system_id":"levelo_inurba_marseille","lat":43.284,"lon":5.37508,"is_reserved":false,"is_disabled":false,"rental_uris":{"android":"levelo://app?vid=95795fbb-6952-43ab-88c1-6e5de6e232c2","ios":"levelo://app?vid=95795fbb-6952-43ab-88c1-6e5de6e232c2"},"vehicle_type_id":"4","last_reported":1751030630,"current_range_meters":11600,"station_id":"ce4bh412rcd13ifvqds0","pricing_plan_id":"cebpf4jnsgd1na2vs0mg"},{"bike_id":"21e2f95e-0365-4a55-8b35-4bc5f3b11e0d","system_id":"levelo_inurba_marseille","lat":43.24379,"lon":5.37067,"is_reserved":false,"is_disabled":false,"rental_uris":{"android":"levelo://app?vid=21e2f95e-0365-4a55-8b35-4bc5f3b11e0d","ios":"levelo://app?vid=21e2f95e-0365-4a55-8b35-4bc5f3b11e0d"},"vehicle_type_id":"4","last_reported":1751030630,"current_range_meters":11600,"station_id":"ce4bhhh2rcd13ifvqfk0","pricing_plan_id":"cebpf4jnsgd1na2vs0mg"},{"bike_id":"4e243e06-fa03-4f2a-a1fb-1770348ba0d4","system_id":"levelo_inurba_marseille","lat":43.26492,"lon":5.39538,"is_reserved":false,"is_disabled":false,"rental_uris":{"android":"levelo://app?vid=4e243e06-fa03-4f2a-a1fb-1770348ba0d4","ios":"levelo://app?vid=4e243e06-fa03-4f2a-a1fb-1770348ba0d4"},"vehicle_type_id":"4","last_reported":1751030630,"current_range_meters":11600,"station_id":"ce4bhi12rcd13ifvqfq0","pricing_plan_id":"cebpf4jnsgd1na2vs0mg"},{"bike_id":"83aa87c0-8e40-4c89-b958-bb705a43fa3c","system_id":"levelo_inurba_marseille","lat":43.28078,"lon":5.39665,"is_reserved":false,"is_disabled":false,"rental_uris":{"android":"levelo://app?vid=83aa87c0-8e40-4c89-b958-bb705a43fa3c","ios":"levelo://app?vid=83aa87c0-8e40-4c89-b958-bb705a43fa3c"},"vehicle_type_id":"4","last_reported":1751030630,"current_range_meters":11600,"station_id":"ce4bho12rcd13ifvqh2g","pricing_plan_id":"cebpf4jnsgd1na2vs0mg"},{"bike_id":"75122bd9-642d-4b8d-8bad-0a0918ecc837","system_id":"levelo_inurba_marseille","lat":43.31712,"lon":5.43711,"is_reserved":false,"is_disabled":false,"rental_uris":{"android":"levelo://app?vid=75122bd9-642d-4b8d-8bad-0a0918ecc837","ios":"levelo://app?vid=75122bd9-642d-4b8d-8bad-0a0918ecc837"},"vehicle_type_id":"4","last_reported":1751030630,"current_range_meters":11600,"station_id":"ce4bhp92rcd13ifvqhcg","pricing_plan_id":"cebpf4jnsgd1na2vs0mg"},{"bike_id":"d93518a7-acea-49d1-8b1d-66917831e25a","system_id":"levelo_inurba_marseille","lat":43.28368,"lon":5.39571,"is_reserved":false,"is_disabled":false,"rental_uris":{"android":"levelo://app?vid=d93518a7-acea-49d1-8b1d-66917831e25a","ios":"levelo://app?vid=d93518a7-acea-49d1-8b1d-66917831e25a"},"vehicle_type_id":"4","last_reported":1751030630,"current_range_meters":12000,"station_id":"","pricing_plan_id":"cebpf4jnsgd1na2vs0mg"},{"bike_id":"106f51a6-8d14-465d-b94f-be0112029c3d","system_id":"levelo_inurba_marseille","lat":43.30534,"lon":5.36529,"is_reserved":false,"is_disabled":false,"rental_uris":{"android":"levelo://app?vid=106f51a6-8d14-465d-b94f-be0112029c3d","ios":"levelo://app?vid=106f51a6-8d14-465d-b94f-be0112029c3d"},"vehicle_type_id":"4","last_reported":1751030630,"current_range_meters":12000,"station_id":"ce4bgs12rcd13ifvqcag","pricing_plan_id":"cebpf4jnsgd1na2vs0mg"},{"bike_id":"f1299479-81e3-4dec-aa8e-bee1f5e5ecc7","system_id":"levelo_inurba_marseille","lat":43.28408,"lon":5.34987,"is_reserved":false,"is_disabled":false,"rental_uris":{"android":"levelo://app?vid=f1299479-81e3-4dec-aa8e-bee1f5e5ecc7","ios":"levelo://app?vid=f1299479-81e3-4dec-aa8e-bee1f5e5ecc7"},"vehicle_type_id":"4","last_reported":1751030630,"current_range_meters":12000,"station_id":"ce4bhbh2rcd13ifvqepg","pricing_plan_id":"cebpf4jnsgd1na2vs0mg"},{"bike_id":"8bd22999-5021-4d3c-98e7-69560353bbd6","system_id":"levelo_inurba_marseille","lat":43.24395,"lon":5.37071,"is_reserved":false,"is_disabled":false,"rental_uris":{"android":"levelo://app?vid=8bd22999-5021-4d3c-98e7-69560353bbd6","ios":"levelo://app?vid=8bd22999-5021-4d3c-98e7-69560353bbd6"},"vehicle_type_id":"4","last_reported":1751030630,"current_range_meters":12000,"station_id":"ce4bhhh2rcd13ifvqfk0","pricing_plan_id":"cebpf4jnsgd1na2vs0mg"},{"bike_id":"b8954a9f-7ce8-456c-a0b7-ca33c9473361","system_id":"levelo_inurba_marseille","lat":43.32016,"lon":5.38144,"is_reserved":false,"is_disabled":false,"rental_uris":{"android":"levelo://app?vid=b8954a9f-7ce8-456c-a0b7-ca33c9473361","ios":"levelo://app?vid=b8954a9f-7ce8-456c-a0b7-ca33c9473361"},"vehicle_type_id":"4","last_reported":1751030630,"current_range_meters":12000,"station_id":"ce4bhr12rcd13ifvqhpg","pricing_plan_id":"cebpf4jnsgd1na2vs0mg"},{"bike_id":"1c8ab180-05fd-405f-9922-b2b2c2d5142f","system_id":"levelo_inurba_marseille","lat":43.3213,"lon":5.3679,"is_reserved":false,"is_disabled":false,"rental_uris":{"android":"levelo://app?vid=1c8ab180-05fd-405f-9922-b2b2c2d5142f","ios":"levelo://app?vid=1c8ab180-05fd-405f-9922-b2b2c2d5142f"},"vehicle_type_id":"4","last_reported":1751030630,"current_range_meters":12000,"station_id":"ce4bhrh2rcd13ifvqhug","pricing_plan_id":"cebpf4jnsgd1na2vs0mg"},{"bike_id":"a440f2f6-8cf8-4348-9ba1-e21002a18a07","system_id":"levelo_inurba_marseille","lat":43.32111,"lon":5.36823,"is_reserved":false,"is_disabled":false,"rental_uris":{"android":"levelo://app?vid=a440f2f6-8cf8-4348-9ba1-e21002a18a07","ios":"levelo://app?vid=a440f2f6-8cf8-4348-9ba1-e21002a18a07"},"vehicle_type_id":"4","last_reported":1751030630,"current_range_meters":12000,"station_id":"ce4bhrh2rcd13ifvqhug","pricing_plan_id":"cebpf4jnsgd1na2vs0mg"},{"bike_id":"24377a68-2e5f-44ba-81f8-a02b7bfdc3a8","system_id":"levelo_inurba_marseille","lat":43.309383,"lon":5.401403,"is_reserved":false,"is_disabled":false,"rental_uris":{"android":"levelo://app?vid=24377a68-2e5f-44ba-81f8-a02b7bfdc3a8","ios":"levelo://app?vid=24377a68-2e5f-44ba-81f8-a02b7bfdc3a8"},"vehicle_type_id":"4","last_reported":1751030630,"current_range_meters":12400,"station_id":"ce4bgvp2rcd13ifvqct0","pricing_plan_id":"cebpf4jnsgd1na2vs0mg"},{"bike_id":"1643776b-773e-467d-b078-65ac39facdb4","system_id":"levelo_inurba_marseille","lat":43.27394,"lon":5.36247,"is_reserved":false,"is_disabled":false,"rental_uris":{"android":"levelo://app?vid=1643776b-773e-467d-b078-65ac39facdb4","ios":"levelo://app?vid=1643776b-773e-467d-b078-65ac39facdb4"},"vehicle_type_id":"4","last_reported":1751030630,"current_range_meters":12400,"station_id":"ce4bhbh2rcd13ifvqeo0","pricing_plan_id":"cebpf4jnsgd1na2vs0mg"},{"bike_id":"df9d330a-cbd4-4597-b999-ed135ac2cc4e","system_id":"levelo_inurba_marseille","lat":43.286234,"lon":5.350968,"is_reserved":false,"is_disabled":false,"rental_uris":{"android":"levelo://app?vid=df9d330a-cbd4-4597-b999-ed135ac2cc4e","ios":"levelo://app?vid=df9d330a-cbd4-4597-b999-ed135ac2cc4e"},"vehicle_type_id":"4","last_reported":1751030630,"current_range_meters":12400,"station_id":"ce4bhch2rcd13ifvqeug","pricing_plan_id":"cebpf4jnsgd1na2vs0mg"},{"bike_id":"819e4f91-ddaf-409f-b758-9dd95852cb26","system_id":"levelo_inurba_marseille","lat":43.26933,"lon":5.38923,"is_reserved":false,"is_disabled":false,"rental_uris":{"android":"levelo://app?vid=819e4f91-ddaf-409f-b758-9dd95852cb26","ios":"levelo://app?vid=819e4f91-ddaf-409f-b758-9dd95852cb26"},"vehicle_type_id":"4","last_reported":1751030630,"current_range_meters":12400,"station_id":"ce4bhhh2rcd13ifvqfl0","pricing_plan_id":"cebpf4jnsgd1na2vs0mg"},{"bike_id":"3f2e5038-cd5f-466d-9578-2783163f088e","system_id":"levelo_inurba_marseille","lat":43.32097,"lon":5.36775,"is_reserved":false,"is_disabled":false,"rental_uris":{"android":"levelo://app?vid=3f2e5038-cd5f-466d-9578-2783163f088e","ios":"levelo://app?vid=3f2e5038-cd5f-466d-9578-2783163f088e"},"vehicle_type_id":"4","last_reported":1751030630,"current_range_meters":12400,"station_id":"ce4bhrh2rcd13ifvqhug","pricing_plan_id":"cebpf4jnsgd1na2vs0mg"},{"bike_id":"6ce1d5f9-8976-4540-9991-5efc749fc227","system_id":"levelo_inurba_marseille","lat":43.22936,"lon":5.35379,"is_reserved":false,"is_disabled":false,"rental_uris":{"android":"levelo://app?vid=6ce1d5f9-8976-4540-9991-5efc749fc227","ios":"levelo://app?vid=6ce1d5f9-8976-4540-9991-5efc749fc227"},"vehicle_type_id":"4","last_reported":1751030630,"current_range_meters":12400,"station_id":"cpo3532slgdg3j2ikp40","pricing_plan_id":"cebpf4jnsgd1na2vs0mg"},{"bike_id":"17851ebc-acb5-42e1-995b-2e4ac1f6bbd3","system_id":"levelo_inurba_marseille","lat":43.312453,"lon":5.401483,"is_reserved":false,"is_disabled":false,"rental_uris":{"android":"levelo://app?vid=17851ebc-acb5-42e1-995b-2e4ac1f6bbd3","ios":"levelo://app?vid=17851ebc-acb5-42e1-995b-2e4ac1f6bbd3"},"vehicle_type_id":"4","last_reported":1751030630,"current_range_meters":12800,"station_id":"ce4bh092rcd13ifvqd30","pricing_plan_id":"cebpf4jnsgd1na2vs0mg"},{"bike_id":"104d9a39-d4fe-4577-bd3e-dfa2a6c208e7","system_id":"levelo_inurba_marseille","lat":43.27212,"lon":5.40983,"is_reserved":false,"is_disabled":false,"rental_uris":{"android":"levelo://app?vid=104d9a39-d4fe-4577-bd3e-dfa2a6c208e7","ios":"levelo://app?vid=104d9a39-d4fe-4577-bd3e-dfa2a6c208e7"},"vehicle_type_id":"4","last_reported":1751030630,"current_range_meters":12800,"station_id":"ce4bhl12rcd13ifvqgf0","pricing_plan_id":"cebpf4jnsgd1na2vs0mg"},{"bike_id":"0a83e637-1348-4298-86fe-ffce84e7b73f","system_id":"levelo_inurba_marseille","lat":43.2509,"lon":5.39523,"is_reserved":false,"is_disabled":false,"rental_uris":{"android":"levelo://app?vid=0a83e637-1348-4298-86fe-ffce84e7b73f","ios":"levelo://app?vid=0a83e637-1348-4298-86fe-ffce84e7b73f"},"vehicle_type_id":"4","last_reported":1751030630,"current_range_meters":12800,"station_id":"ce4bhm12rcd13ifvqgkg","pricing_plan_id":"cebpf4jnsgd1na2vs0mg"},{"bike_id":"918f9b2d-c2db-45f1-990c-b4fff80783d6","system_id":"levelo_inurba_marseille","lat":43.28192,"lon":5.36303,"is_reserved":false,"is_disabled":false,"rental_uris":{"android":"levelo://app?vid=918f9b2d-c2db-45f1-990c-b4fff80783d6","ios":"levelo://app?vid=918f9b2d-c2db-45f1-990c-b4fff80783d6"},"vehicle_type_id":"4","last_reported":1751030630,"current_range_meters":13600,"station_id":"","pricing_plan_id":"cebpf4jnsgd1na2vs0mg"},{"bike_id":"5a01ae6d-9064-484c-8d77-2d9e141e2313","system_id":"levelo_inurba_marseille","lat":43.24509,"lon":5.38983,"is_reserved":false,"is_disabled":false,"rental_uris":{"android":"levelo://app?vid=5a01ae6d-9064-484c-8d77-2d9e141e2313","ios":"levelo://app?vid=5a01ae6d-9064-484c-8d77-2d9e141e2313"},"vehicle_type_id":"4","last_reported":1751030630,"current_range_meters":13600,"station_id":"","pricing_plan_id":"cebpf4jnsgd1na2vs0mg"},{"bike_id":"8937e58e-5703-49d9-b2d6-6f0a04b19c36","system_id":"levelo_inurba_marseille","lat":43.28615,"lon":5.35093,"is_reserved":false,"is_disabled":false,"rental_uris":{"android":"levelo://app?vid=8937e58e-5703-49d9-b2d6-6f0a04b19c36","ios":"levelo://app?vid=8937e58e-5703-49d9-b2d6-6f0a04b19c36"},"vehicle_type_id":"4","last_reported":1751030630,"current_range_meters":13600,"station_id":"ce4bhch2rcd13ifvqeug","pricing_plan_id":"cebpf4jnsgd1na2vs0mg"},{"bike_id":"a9fe96de-80da-4abb-99dd-2814117943a6","system_id":"levelo_inurba_marseille","lat":43.26192,"lon":5.37449,"is_reserved":false,"is_disabled":false,"rental_uris":{"android":"levelo://app?vid=a9fe96de-80da-4abb-99dd-2814117943a6","ios":"levelo://app?vid=a9fe96de-80da-4abb-99dd-2814117943a6"},"vehicle_type_id":"4","last_reported":1751030630,"current_range_meters":13600,"station_id":"ce4bhgp2rcd13ifvqfc0","pricing_plan_id":"cebpf4jnsgd1na2vs0mg"},{"bike_id":"e7c86b76-fec6-4d82-9589-044e8efa048a","system_id":"levelo_inurba_marseille","lat":43.32319,"lon":5.38279,"is_reserved":false,"is_disabled":false,"rental_uris":{"android":"levelo://app?vid=e7c86b76-fec6-4d82-9589-044e8efa048a","ios":"levelo://app?vid=e7c86b76-fec6-4d82-9589-044e8efa048a"},"vehicle_type_id":"4","last_reported":1751030630,"current_range_meters":13600,"station_id":"ce4bhr12rcd13ifvqhqg","pricing_plan_id":"cebpf4jnsgd1na2vs0mg"},{"bike_id":"e5ae1fdd-ad1c-4e69-ac70-f715e6402e6b","system_id":"levelo_inurba_marseille","lat":43.277316,"lon":5.398718,"is_reserved":false,"is_disabled":false,"rental_uris":{"android":"levelo://app?vid=e5ae1fdd-ad1c-4e69-ac70-f715e6402e6b","ios":"levelo://app?vid=e5ae1fdd-ad1c-4e69-ac70-f715e6402e6b"},"vehicle_type_id":"4","last_reported":1751030630,"current_range_meters":14000,"station_id":"","pricing_plan_id":"cebpf4jnsgd1na2vs0mg"},{"bike_id":"41ba8ee4-1c1d-4513-978e-5702602b273f","system_id":"levelo_inurba_marseille","lat":43.290724,"lon":5.371654,"is_reserved":false,"is_disabled":false,"rental_uris":{"android":"levelo://app?vid=41ba8ee4-1c1d-4513-978e-5702602b273f","ios":"levelo://app?vid=41ba8ee4-1c1d-4513-978e-5702602b273f"},"vehicle_type_id":"4","last_reported":1751030630,"current_range_meters":14000,"station_id":"ce4bh3p2rcd13ifvqdq0","pricing_plan_id":"cebpf4jnsgd1na2vs0mg"},{"bike_id":"4493b170-acee-444e-8e2e-a66701903e23","system_id":"levelo_inurba_marseille","lat":43.28718,"lon":5.36097,"is_reserved":false,"is_disabled":false,"rental_uris":{"android":"levelo://app?vid=4493b170-acee-444e-8e2e-a66701903e23","ios":"levelo://app?vid=4493b170-acee-444e-8e2e-a66701903e23"},"vehicle_type_id":"4","last_reported":1751030630,"current_range_meters":14000,"station_id":"cki0cbj6b192h4jlfktg","pricing_plan_id":"cebpf4jnsgd1na2vs0mg"},{"bike_id":"5d4164c2-df8c-4cfb-a850-2f8f984d4e42","system_id":"levelo_inurba_marseille","lat":43.315037,"lon":5.373123,"is_reserved":false,"is_disabled":false,"rental_uris":{"android":"levelo://app?vid=5d4164c2-df8c-4cfb-a850-2f8f984d4e42","ios":"levelo://app?vid=5d4164c2-df8c-4cfb-a850-2f8f984d4e42"},"vehicle_type_id":"4","last_reported":1751030630,"current_range_meters":14400,"station_id":"ce4bgt12rcd13ifvqcd0","pricing_plan_id":"cebpf4jnsgd1na2vs0mg"},{"bike_id":"34d0bde5-a946-45f1-8b10-47023f311830","system_id":"levelo_inurba_marseille","lat":43.31078,"lon":5.38369,"is_reserved":false,"is_disabled":false,"rental_uris":{"android":"levelo://app?vid=34d0bde5-a946-45f1-8b10-47023f311830","ios":"levelo://app?vid=34d0bde5-a946-45f1-8b10-47023f311830"},"vehicle_type_id":"4","last_reported":1751030630,"current_range_meters":14400,"station_id":"ce4bgv92rcd13ifvqcr0","pricing_plan_id":"cebpf4jnsgd1na2vs0mg"},{"bike_id":"db27829e-2af5-4c6f-b2c6-74be5f07ea39","system_id":"levelo_inurba_marseille","lat":43.2908,"lon":5.37174,"is_reserved":false,"is_disabled":false,"rental_uris":{"android":"levelo://app?vid=db27829e-2af5-4c6f-b2c6-74be5f07ea39","ios":"levelo://app?vid=db27829e-2af5-4c6f-b2c6-74be5f07ea39"},"vehicle_type_id":"4","last_reported":1751030630,"current_range_meters":14400,"station_id":"ce4bh5p2rcd13ifvqe4g","pricing_plan_id":"cebpf4jnsgd1na2vs0mg"},{"bike_id":"9491bf9b-007c-4abd-8b71-00a9d9c6697f","system_id":"levelo_inurba_marseille","lat":43.22929,"lon":5.35375,"is_reserved":false,"is_disabled":false,"rental_uris":{"android":"levelo://app?vid=9491bf9b-007c-4abd-8b71-00a9d9c6697f","ios":"levelo://app?vid=9491bf9b-007c-4abd-8b71-00a9d9c6697f"},"vehicle_type_id":"4","last_reported":1751030630,"current_range_meters":14400,"station_id":"cpo3532slgdg3j2ikp40","pricing_plan_id":"cebpf4jnsgd1na2vs0mg"},{"bike_id":"bb69c1e1-7084-4be7-966a-57a7bcdfcb6c","system_id":"levelo_inurba_marseille","lat":43.24622,"lon":5.4166,"is_reserved":false,"is_disabled":false,"rental_uris":{"android":"levelo://app?vid=bb69c1e1-7084-4be7-966a-57a7bcdfcb6c","ios":"levelo://app?vid=bb69c1e1-7084-4be7-966a-57a7bcdfcb6c"},"vehicle_type_id":"4","last_reported":1751030630,"current_range_meters":14800,"station_id":"","pricing_plan_id":"cebpf4jnsgd1na2vs0mg"},{"bike_id":"d2b6899a-4fd7-456e-a51f-91f254d564fe","system_id":"levelo_inurba_marseille","lat":43.30192,"lon":5.36617,"is_reserved":false,"is_disabled":false,"rental_uris":{"android":"levelo://app?vid=d2b6899a-4fd7-456e-a51f-91f254d564fe","ios":"levelo://app?vid=d2b6899a-4fd7-456e-a51f-91f254d564fe"},"vehicle_type_id":"4","last_reported":1751030630,"current_range_meters":14800,"station_id":"ce4bgrh2rcd13ifvqc8g","pricing_plan_id":"cebpf4jnsgd1na2vs0mg"},{"bike_id":"e696efb2-3a68-4d2e-b560-9fad2453fb03","system_id":"levelo_inurba_marseille","lat":43.26556,"lon":5.3728,"is_reserved":false,"is_disabled":false,"rental_uris":{"android":"levelo://app?vid=e696efb2-3a68-4d2e-b560-9fad2453fb03","ios":"levelo://app?vid=e696efb2-3a68-4d2e-b560-9fad2453fb03"},"vehicle_type_id":"4","last_reported":1751030630,"current_range_meters":14800,"station_id":"ce4bhg12rcd13ifvqf70","pricing_plan_id":"cebpf4jnsgd1na2vs0mg"},{"bike_id":"923db655-3782-488a-9734-2f4c58243389","system_id":"levelo_inurba_marseille","lat":43.27945,"lon":5.41048,"is_reserved":false,"is_disabled":false,"rental_uris":{"android":"levelo://app?vid=923db655-3782-488a-9734-2f4c58243389","ios":"levelo://app?vid=923db655-3782-488a-9734-2f4c58243389"},"vehicle_type_id":"4","last_reported":1751030630,"current_range_meters":14800,"station_id":"ce4bhnp2rcd13ifvqh0g","pricing_plan_id":"cebpf4jnsgd1na2vs0mg"},{"bike_id":"ec47028b-632e-499c-a722-9642110401eb","system_id":"levelo_inurba_marseille","lat":43.308,"lon":5.435274,"is_reserved":false,"is_disabled":false,"rental_uris":{"android":"levelo://app?vid=ec47028b-632e-499c-a722-9642110401eb","ios":"levelo://app?vid=ec47028b-632e-499c-a722-9642110401eb"},"vehicle_type_id":"4","last_reported":1751030630,"current_range_meters":14800,"station_id":"ce4bhph2rcd13ifvqheg","pricing_plan_id":"cebpf4jnsgd1na2vs0mg"},{"bike_id":"46fc1da8-b21e-49ec-9f51-bd3892d403d9","system_id":"levelo_inurba_marseille","lat":43.24167,"lon":5.36424,"is_reserved":false,"is_disabled":false,"rental_uris":{"android":"levelo://app?vid=46fc1da8-b21e-49ec-9f51-bd3892d403d9","ios":"levelo://app?vid=46fc1da8-b21e-49ec-9f51-bd3892d403d9"},"vehicle_type_id":"4","last_reported":1751030630,"current_range_meters":14800,"station_id":"cpo36qri1sfpv3e86is0","pricing_plan_id":"cebpf4jnsgd1na2vs0mg"},{"bike_id":"197d0cdf-05a2-45b9-8304-30825f98dd77","system_id":"levelo_inurba_marseille","lat":43.27997,"lon":5.35695,"is_reserved":false,"is_disabled":false,"rental_uris":{"android":"levelo://app?vid=197d0cdf-05a2-45b9-8304-30825f98dd77","ios":"levelo://app?vid=197d0cdf-05a2-45b9-8304-30825f98dd77"},"vehicle_type_id":"4","last_reported":1751030630,"current_range_meters":15200,"station_id":"","pricing_plan_id":"cebpf4jnsgd1na2vs0mg"},{"bike_id":"33fd0fe9-99c2-4f72-bdef-90e03213ec50","system_id":"levelo_inurba_marseille","lat":43.2119,"lon":5.35076,"is_reserved":false,"is_disabled":false,"rental_uris":{"android":"levelo://app?vid=33fd0fe9-99c2-4f72-bdef-90e03213ec50","ios":"levelo://app?vid=33fd0fe9-99c2-4f72-bdef-90e03213ec50"},"vehicle_type_id":"4","last_reported":1751030630,"current_range_meters":15200,"station_id":"","pricing_plan_id":"cebpf4jnsgd1na2vs0mg"},{"bike_id":"52e8cfc6-7005-4d8a-ab5f-46947f80589c","system_id":"levelo_inurba_marseille","lat":43.27376,"lon":5.36256,"is_reserved":false,"is_disabled":false,"rental_uris":{"android":"levelo://app?vid=52e8cfc6-7005-4d8a-ab5f-46947f80589c","ios":"levelo://app?vid=52e8cfc6-7005-4d8a-ab5f-46947f80589c"},"vehicle_type_id":"4","last_reported":1751030630,"current_range_meters":15200,"station_id":"ce4bhbh2rcd13ifvqeo0","pricing_plan_id":"cebpf4jnsgd1na2vs0mg"},{"bike_id":"1160bd59-de8f-4a22-b18d-f594b44833a8","system_id":"levelo_inurba_marseille","lat":43.29597,"lon":5.38104,"is_reserved":false,"is_disabled":false,"rental_uris":{"android":"levelo://app?vid=1160bd59-de8f-4a22-b18d-f594b44833a8","ios":"levelo://app?vid=1160bd59-de8f-4a22-b18d-f594b44833a8"},"vehicle_type_id":"4","last_reported":1751030630,"current_range_meters":16000,"station_id":"ce4bgl12rcd13ifvqbo0","pricing_plan_id":"cebpf4jnsgd1na2vs0mg"},{"bike_id":"ad31fae6-4da4-4b6b-8844-651d9203a873","system_id":"levelo_inurba_marseille","lat":43.29923,"lon":5.36562,"is_reserved":false,"is_disabled":false,"rental_uris":{"android":"levelo://app?vid=ad31fae6-4da4-4b6b-8844-651d9203a873","ios":"levelo://app?vid=ad31fae6-4da4-4b6b-8844-651d9203a873"},"vehicle_type_id":"4","last_reported":1751030630,"current_range_meters":16000,"station_id":"ce4bgm92rcd13ifvqbr0","pricing_plan_id":"cebpf4jnsgd1na2vs0mg"},{"bike_id":"8056eca7-0815-4f5c-87fa-04d253887613","system_id":"levelo_inurba_marseille","lat":43.28705,"lon":5.37388,"is_reserved":false,"is_disabled":false,"rental_uris":{"android":"levelo://app?vid=8056eca7-0815-4f5c-87fa-04d253887613","ios":"levelo://app?vid=8056eca7-0815-4f5c-87fa-04d253887613"},"vehicle_type_id":"4","last_reported":1751030630,"current_range_meters":16000,"station_id":"ce4bh3p2rcd13ifvqdq0","pricing_plan_id":"cebpf4jnsgd1na2vs0mg"},{"bike_id":"10f98f88-3e27-455a-908f-49bdd4630998","system_id":"levelo_inurba_marseille","lat":43.28476,"lon":5.3857,"is_reserved":false,"is_disabled":false,"rental_uris":{"android":"levelo://app?vid=10f98f88-3e27-455a-908f-49bdd4630998","ios":"levelo://app?vid=10f98f88-3e27-455a-908f-49bdd4630998"},"vehicle_type_id":"4","last_reported":1751030630,"current_range_meters":16000,"station_id":"ce4bh8p2rcd13ifvqeb0","pricing_plan_id":"cebpf4jnsgd1na2vs0mg"},{"bike_id":"7dfc5216-abd2-4eb0-aa98-27c7a95c769d","system_id":"levelo_inurba_marseille","lat":43.22944,"lon":5.35391,"is_reserved":false,"is_disabled":false,"rental_uris":{"android":"levelo://app?vid=7dfc5216-abd2-4eb0-aa98-27c7a95c769d","ios":"levelo://app?vid=7dfc5216-abd2-4eb0-aa98-27c7a95c769d"},"vehicle_type_id":"4","last_reported":1751030630,"current_range_meters":16000,"station_id":"cpo3532slgdg3j2ikp40","pricing_plan_id":"cebpf4jnsgd1na2vs0mg"},{"bike_id":"e6ce70f7-9138-485c-a4db-2c9174614cff","system_id":"levelo_inurba_marseille","lat":43.3175,"lon":5.36875,"is_reserved":false,"is_disabled":false,"rental_uris":{"android":"levelo://app?vid=e6ce70f7-9138-485c-a4db-2c9174614cff","ios":"levelo://app?vid=e6ce70f7-9138-485c-a4db-2c9174614cff"},"vehicle_type_id":"4","last_reported":1751030630,"current_range_meters":16400,"station_id":"","pricing_plan_id":"cebpf4jnsgd1na2vs0mg"},{"bike_id":"e98e1eef-c0ff-4e2b-bc6b-e6ba346d848b","system_id":"levelo_inurba_marseille","lat":43.3028,"lon":5.37712,"is_reserved":false,"is_disabled":false,"rental_uris":{"android":"levelo://app?vid=e98e1eef-c0ff-4e2b-bc6b-e6ba346d848b","ios":"levelo://app?vid=e98e1eef-c0ff-4e2b-bc6b-e6ba346d848b"},"vehicle_type_id":"4","last_reported":1751030630,"current_range_meters":16400,"station_id":"ce4bguh2rcd13ifvqcj0","pricing_plan_id":"cebpf4jnsgd1na2vs0mg"},{"bike_id":"90d5f12e-2a06-42d9-84ee-9a308f9ed7d8","system_id":"levelo_inurba_marseille","lat":43.290718,"lon":5.371645,"is_reserved":false,"is_disabled":false,"rental_uris":{"android":"levelo://app?vid=90d5f12e-2a06-42d9-84ee-9a308f9ed7d8","ios":"levelo://app?vid=90d5f12e-2a06-42d9-84ee-9a308f9ed7d8"},"vehicle_type_id":"4","last_reported":1751030630,"current_range_meters":16400,"station_id":"ce4bhbh2rcd13ifvqeo0","pricing_plan_id":"cebpf4jnsgd1na2vs0mg"},{"bike_id":"d2146768-df0d-4ea1-8c1e-6d4e02c0f18e","system_id":"levelo_inurba_marseille","lat":43.27362,"lon":5.36251,"is_reserved":false,"is_disabled":false,"rental_uris":{"android":"levelo://app?vid=d2146768-df0d-4ea1-8c1e-6d4e02c0f18e","ios":"levelo://app?vid=d2146768-df0d-4ea1-8c1e-6d4e02c0f18e"},"vehicle_type_id":"4","last_reported":1751030630,"current_range_meters":16400,"station_id":"ce4bhbh2rcd13ifvqeo0","pricing_plan_id":"cebpf4jnsgd1na2vs0mg"},{"bike_id":"013ac517-4fb6-43f6-8d30-a747aaef35f0","system_id":"levelo_inurba_marseille","lat":43.26676,"lon":5.38268,"is_reserved":false,"is_disabled":false,"rental_uris":{"android":"levelo://app?vid=013ac517-4fb6-43f6-8d30-a747aaef35f0","ios":"levelo://app?vid=013ac517-4fb6-43f6-8d30-a747aaef35f0"},"vehicle_type_id":"4","last_reported":1751030630,"current_range_meters":16400,"station_id":"ce4bhg92rcd13ifvqf90","pricing_plan_id":"cebpf4jnsgd1na2vs0mg"},{"bike_id":"7be9d13f-e351-4088-8de1-c3e988843820","system_id":"levelo_inurba_marseille","lat":43.25928,"lon":5.40901,"is_reserved":false,"is_disabled":false,"rental_uris":{"android":"levelo://app?vid=7be9d13f-e351-4088-8de1-c3e988843820","ios":"levelo://app?vid=7be9d13f-e351-4088-8de1-c3e988843820"},"vehicle_type_id":"4","last_reported":1751030630,"current_range_meters":16400,"station_id":"ce4bhm92rcd13ifvqglg","pricing_plan_id":"cebpf4jnsgd1na2vs0mg"},{"bike_id":"dc22565b-d02b-48aa-8a34-34882a3d2317","system_id":"levelo_inurba_marseille","lat":43.23155,"lon":5.43706,"is_reserved":false,"is_disabled":false,"rental_uris":{"android":"levelo://app?vid=dc22565b-d02b-48aa-8a34-34882a3d2317","ios":"levelo://app?vid=dc22565b-d02b-48aa-8a34-34882a3d2317"},"vehicle_type_id":"4","last_reported":1751030630,"current_range_meters":16400,"station_id":"ce4bhmp2rcd13ifvqgog","pricing_plan_id":"cebpf4jnsgd1na2vs0mg"},{"bike_id":"bbc4a376-bee7-4ad5-a49a-1022d27c1489","system_id":"levelo_inurba_marseille","lat":43.32099,"lon":5.36779,"is_reserved":false,"is_disabled":false,"rental_uris":{"android":"levelo://app?vid=bbc4a376-bee7-4ad5-a49a-1022d27c1489","ios":"levelo://app?vid=bbc4a376-bee7-4ad5-a49a-1022d27c1489"},"vehicle_type_id":"4","last_reported":1751030630,"current_range_meters":16400,"station_id":"ce4bhrh2rcd13ifvqhug","pricing_plan_id":"cebpf4jnsgd1na2vs0mg"},{"bike_id":"834ea9c2-9ad0-4ddb-bd7d-21774b9745cd","system_id":"levelo_inurba_marseille","lat":43.22498,"lon":5.34785,"is_reserved":false,"is_disabled":false,"rental_uris":{"android":"levelo://app?vid=834ea9c2-9ad0-4ddb-bd7d-21774b9745cd","ios":"levelo://app?vid=834ea9c2-9ad0-4ddb-bd7d-21774b9745cd"},"vehicle_type_id":"4","last_reported":1751030630,"current_range_meters":16400,"station_id":"st_cvj5dfep6f1abm77gieg","pricing_plan_id":"cebpf4jnsgd1na2vs0mg"},{"bike_id":"f0057ca2-de2d-4464-8902-068dc3677e00","system_id":"levelo_inurba_marseille","lat":43.211903,"lon":5.350843,"is_reserved":false,"is_disabled":false,"rental_uris":{"android":"levelo://app?vid=f0057ca2-de2d-4464-8902-068dc3677e00","ios":"levelo://app?vid=f0057ca2-de2d-4464-8902-068dc3677e00"},"vehicle_type_id":"4","last_reported":1751030630,"current_range_meters":16400,"station_id":"st_cvj6sg6p6f1abm77japg","pricing_plan_id":"cebpf4jnsgd1na2vs0mg"},{"bike_id":"1b39abf9-3a3f-4d80-915b-22905554f4a6","system_id":"levelo_inurba_marseille","lat":43.30151,"lon":5.3643,"is_reserved":false,"is_disabled":false,"rental_uris":{"android":"levelo://app?vid=1b39abf9-3a3f-4d80-915b-22905554f4a6","ios":"levelo://app?vid=1b39abf9-3a3f-4d80-915b-22905554f4a6"},"vehicle_type_id":"4","last_reported":1751030630,"current_range_meters":16800,"station_id":"","pricing_plan_id":"cebpf4jnsgd1na2vs0mg"},{"bike_id":"f49a4e80-7084-4bee-89ff-b5566902717e","system_id":"levelo_inurba_marseille","lat":43.29515,"lon":5.37506,"is_reserved":false,"is_disabled":false,"rental_uris":{"android":"levelo://app?vid=f49a4e80-7084-4bee-89ff-b5566902717e","ios":"levelo://app?vid=f49a4e80-7084-4bee-89ff-b5566902717e"},"vehicle_type_id":"4","last_reported":1751030630,"current_range_meters":16800,"station_id":"ce4bgkp2rcd13ifvqbmg","pricing_plan_id":"cebpf4jnsgd1na2vs0mg"},{"bike_id":"130fd3b1-7e84-47c4-97a9-9edd92f6cd4b","system_id":"levelo_inurba_marseille","lat":43.30467,"lon":5.37901,"is_reserved":false,"is_disabled":false,"rental_uris":{"android":"levelo://app?vid=130fd3b1-7e84-47c4-97a9-9edd92f6cd4b","ios":"levelo://app?vid=130fd3b1-7e84-47c4-97a9-9edd92f6cd4b"},"vehicle_type_id":"4","last_reported":1751030630,"current_range_meters":16800,"station_id":"ce4bgup2rcd13ifvqcn0","pricing_plan_id":"cebpf4jnsgd1na2vs0mg"},{"bike_id":"d3221c4e-37f6-4136-9ce3-647a581eef8c","system_id":"levelo_inurba_marseille","lat":43.29513,"lon":5.39399,"is_reserved":false,"is_disabled":false,"rental_uris":{"android":"levelo://app?vid=d3221c4e-37f6-4136-9ce3-647a581eef8c","ios":"levelo://app?vid=d3221c4e-37f6-4136-9ce3-647a581eef8c"},"vehicle_type_id":"4","last_reported":1751030630,"current_range_meters":16800,"station_id":"ce4bh292rcd13ifvqdf0","pricing_plan_id":"cebpf4jnsgd1na2vs0mg"},{"bike_id":"596027ea-1fc1-4d39-b8ba-027eb6d77d9c","system_id":"levelo_inurba_marseille","lat":43.29282,"lon":5.36853,"is_reserved":false,"is_disabled":false,"rental_uris":{"android":"levelo://app?vid=596027ea-1fc1-4d39-b8ba-027eb6d77d9c","ios":"levelo://app?vid=596027ea-1fc1-4d39-b8ba-027eb6d77d9c"},"vehicle_type_id":"4","last_reported":1751030630,"current_range_meters":16800,"station_id":"ce4bhbp2rcd13ifvqesg","pricing_plan_id":"cebpf4jnsgd1na2vs0mg"},{"bike_id":"48d3b9c5-dda6-4097-85db-62f30a06d3cd","system_id":"levelo_inurba_marseille","lat":43.28612,"lon":5.351,"is_reserved":false,"is_disabled":false,"rental_uris":{"android":"levelo://app?vid=48d3b9c5-dda6-4097-85db-62f30a06d3cd","ios":"levelo://app?vid=48d3b9c5-dda6-4097-85db-62f30a06d3cd"},"vehicle_type_id":"4","last_reported":1751030630,"current_range_meters":16800,"station_id":"ce4bhch2rcd13ifvqeug","pricing_plan_id":"cebpf4jnsgd1na2vs0mg"},{"bike_id":"b5302c5e-1626-414b-8b40-6d72d7569a78","system_id":"levelo_inurba_marseille","lat":43.25505,"lon":5.37668,"is_reserved":false,"is_disabled":false,"rental_uris":{"android":"levelo://app?vid=b5302c5e-1626-414b-8b40-6d72d7569a78","ios":"levelo://app?vid=b5302c5e-1626-414b-8b40-6d72d7569a78"},"vehicle_type_id":"4","last_reported":1751030630,"current_range_meters":16800,"station_id":"ce4bhh12rcd13ifvqff0","pricing_plan_id":"cebpf4jnsgd1na2vs0mg"},{"bike_id":"935c8062-ae25-46e0-901d-4b81929b99b7","system_id":"levelo_inurba_marseille","lat":43.21753,"lon":5.34593,"is_reserved":false,"is_disabled":false,"rental_uris":{"android":"levelo://app?vid=935c8062-ae25-46e0-901d-4b81929b99b7","ios":"levelo://app?vid=935c8062-ae25-46e0-901d-4b81929b99b7"},"vehicle_type_id":"4","last_reported":1751030630,"current_range_meters":16800,"station_id":"st_cvj6r9ubvosntc0bgbag","pricing_plan_id":"cebpf4jnsgd1na2vs0mg"},{"bike_id":"e3aa9769-07bd-40fc-b1ee-9cc66211ab32","system_id":"levelo_inurba_marseille","lat":43.33771,"lon":5.37451,"is_reserved":false,"is_disabled":false,"rental_uris":{"android":"levelo://app?vid=e3aa9769-07bd-40fc-b1ee-9cc66211ab32","ios":"levelo://app?vid=e3aa9769-07bd-40fc-b1ee-9cc66211ab32"},"vehicle_type_id":"4","last_reported":1751030630,"current_range_meters":17200,"station_id":"","pricing_plan_id":"cebpf4jnsgd1na2vs0mg"},{"bike_id":"15d128bd-cfe4-4fde-84e3-861a91e21785","system_id":"levelo_inurba_marseille","lat":43.33741,"lon":5.39267,"is_reserved":false,"is_disabled":false,"rental_uris":{"android":"levelo://app?vid=15d128bd-cfe4-4fde-84e3-861a91e21785","ios":"levelo://app?vid=15d128bd-cfe4-4fde-84e3-861a91e21785"},"vehicle_type_id":"4","last_reported":1751030630,"current_range_meters":17200,"station_id":"","pricing_plan_id":"cebpf4jnsgd1na2vs0mg"},{"bike_id":"815201a7-dbbe-4827-ab77-bd49f80ea5ee","system_id":"levelo_inurba_marseille","lat":43.297645,"lon":5.459865,"is_reserved":false,"is_disabled":false,"rental_uris":{"android":"levelo://app?vid=815201a7-dbbe-4827-ab77-bd49f80ea5ee","ios":"levelo://app?vid=815201a7-dbbe-4827-ab77-bd49f80ea5ee"},"vehicle_type_id":"4","last_reported":1751030630,"current_range_meters":17200,"station_id":"","pricing_plan_id":"cebpf4jnsgd1na2vs0mg"},{"bike_id":"b2bbbbce-d1e9-4a1e-bf71-0e0d9afd1a54","system_id":"levelo_inurba_marseille","lat":43.29772,"lon":5.37103,"is_reserved":false,"is_disabled":false,"rental_uris":{"android":"levelo://app?vid=b2bbbbce-d1e9-4a1e-bf71-0e0d9afd1a54","ios":"levelo://app?vid=b2bbbbce-d1e9-4a1e-bf71-0e0d9afd1a54"},"vehicle_type_id":"4","last_reported":1751030630,"current_range_meters":17200,"station_id":"ce4bgop2rcd13ifvqc1g","pricing_plan_id":"cebpf4jnsgd1na2vs0mg"},{"bike_id":"e355721e-8779-48b3-a756-656678ad5790","system_id":"levelo_inurba_marseille","lat":43.29072,"lon":5.37168,"is_reserved":false,"is_disabled":false,"rental_uris":{"android":"levelo://app?vid=e355721e-8779-48b3-a756-656678ad5790","ios":"levelo://app?vid=e355721e-8779-48b3-a756-656678ad5790"},"vehicle_type_id":"4","last_reported":1751030630,"current_range_meters":17200,"station_id":"ce4bh5p2rcd13ifvqe4g","pricing_plan_id":"cebpf4jnsgd1na2vs0mg"},{"bike_id":"8e5b6e5d-213c-45bf-bc04-d7c364a0d41b","system_id":"levelo_inurba_marseille","lat":43.27916,"lon":5.3802,"is_reserved":false,"is_disabled":false,"rental_uris":{"android":"levelo://app?vid=8e5b6e5d-213c-45bf-bc04-d7c364a0d41b","ios":"levelo://app?vid=8e5b6e5d-213c-45bf-bc04-d7c364a0d41b"},"vehicle_type_id":"4","last_reported":1751030630,"current_range_meters":17200,"station_id":"ce4bhf92rcd13ifvqf50","pricing_plan_id":"cebpf4jnsgd1na2vs0mg"},{"bike_id":"581eb561-f5c2-4b12-93c9-31e421f28879","system_id":"levelo_inurba_marseille","lat":43.30352,"lon":5.41873,"is_reserved":false,"is_disabled":false,"rental_uris":{"android":"levelo://app?vid=581eb561-f5c2-4b12-93c9-31e421f28879","ios":"levelo://app?vid=581eb561-f5c2-4b12-93c9-31e421f28879"},"vehicle_type_id":"4","last_reported":1751030630,"current_range_meters":17200,"station_id":"ce4bhop2rcd13ifvqh7g","pricing_plan_id":"cebpf4jnsgd1na2vs0mg"},{"bike_id":"5132bc78-73df-4613-a7dd-0f8ae2846a9f","system_id":"levelo_inurba_marseille","lat":43.21748,"lon":5.34643,"is_reserved":false,"is_disabled":false,"rental_uris":{"android":"levelo://app?vid=5132bc78-73df-4613-a7dd-0f8ae2846a9f","ios":"levelo://app?vid=5132bc78-73df-4613-a7dd-0f8ae2846a9f"},"vehicle_type_id":"4","last_reported":1751030630,"current_range_meters":17200,"station_id":"st_cvj6r9ubvosntc0bgbag","pricing_plan_id":"cebpf4jnsgd1na2vs0mg"},{"bike_id":"3e1232f5-8b67-4594-9354-d0c1a38e7cb6","system_id":"levelo_inurba_marseille","lat":43.24009,"lon":5.37757,"is_reserved":false,"is_disabled":false,"rental_uris":{"android":"levelo://app?vid=3e1232f5-8b67-4594-9354-d0c1a38e7cb6","ios":"levelo://app?vid=3e1232f5-8b67-4594-9354-d0c1a38e7cb6"},"vehicle_type_id":"4","last_reported":1751030630,"current_range_meters":17600,"station_id":"","pricing_plan_id":"cebpf4jnsgd1na2vs0mg"},{"bike_id":"ad7c4717-55a4-46c2-9f97-7e180e080972","system_id":"levelo_inurba_marseille","lat":43.30577,"lon":5.37221,"is_reserved":false,"is_disabled":false,"rental_uris":{"android":"levelo://app?vid=ad7c4717-55a4-46c2-9f97-7e180e080972","ios":"levelo://app?vid=ad7c4717-55a4-46c2-9f97-7e180e080972"},"vehicle_type_id":"4","last_reported":1751030630,"current_range_meters":17600,"station_id":"ce4bgqh2rcd13ifvqc4g","pricing_plan_id":"cebpf4jnsgd1na2vs0mg"},{"bike_id":"b6e20a38-edd2-4265-b522-36f9dea8bb40","system_id":"levelo_inurba_marseille","lat":43.311692,"lon":5.38725,"is_reserved":false,"is_disabled":false,"rental_uris":{"android":"levelo://app?vid=b6e20a38-edd2-4265-b522-36f9dea8bb40","ios":"levelo://app?vid=b6e20a38-edd2-4265-b522-36f9dea8bb40"},"vehicle_type_id":"4","last_reported":1751030630,"current_range_meters":17600,"station_id":"ce4bgv12rcd13ifvqcp0","pricing_plan_id":"cebpf4jnsgd1na2vs0mg"},