{"last_updated":1721419836,"ttl":30,"version":"2.2","data":{"bikes":[{"bike_id":"d1d81e54-fed9-443c-944a-6820c8a62e66","system_id":"levelo_inurba_marseille","lat":43.31251,"lon":5.36793,"is_reserved":false,"is_disabled":false,"rental_uris":{"android":"levelo://app?vid=d1d81e54-fed9-443c-944a-6820c8a62e66","ios":"levelo://app?vid=d1d81e54-fed9-443c-944a-6820c8a62e66"},"vehicle_type_id":"4","last_reported":1721419836,"current_range_meters":3600,"station_id":"","pricing_plan_id":"cebpf4jnsgd1na2vs0mg"},{"bike_id":"4ed1534f-9914-4bac-8dba-f32fb671b682","system_id":"levelo_inurba_marseille","lat":43.31225,"lon":5.36867,"is_reserved":false,"is_disabled":false,"rental_uris":{"android":"levelo://app?vid=4ed1534f-9914-4bac-8dba-f32fb671b682","ios":"levelo://app?vid=4ed1534f-9914-4bac-8dba-f32fb671b682"},"vehicle_type_id":"4","last_reported":1721419836,"current_range_meters":0,"station_id":"ce4bgl92rcd13ifvqbq0","pricing_plan_id":"cebpf4jnsgd1na2vs0mg"},{"bike_id":"c4d441aa-eec2-4824-9f06-fde1c220e0f8","system_id":"levelo_inurba_marseille","lat":43.311601,"lon":5.369058,"is_reserved":false,"is_disabled":false,"rental_uris":{"android":"levelo://app?vid=c4d441aa-eec2-4824-9f06-fde1c220e0f8","ios":"levelo://app?vid=c4d441aa-eec2-4824-9f06-fde1c220e0f8"},"vehicle_type_id":"4","last_reported":1721419836,"current_range_meters":0,"station_id":"","pricing_plan_id":"cebpf4jnsgd1na2vs0mg"},{"bike_id":"1d6e9226-93c2-4840-8e55-965bc114e6fa","system_id":"levelo_inurba_marseille","lat":43.309076,"lon":5.368465,"is_reserved":false,"is_disabled":false,"rental_uris":{"android":"levelo://app?vid=1d6e9226-93c2-4840-8e55-965bc114e6fa","ios":"levelo://app?vid=1d6e9226-93c2-4840-8e55-965bc114e6fa"},"vehicle_type_id":"4","last_reported":1721419836,"current_range_meters":7200,"station_id":"ce4bgn92rcd13ifvqbvg","pricing_plan_id":"cebpf4jnsgd1na2vs0mg"},{"bike_id":"eb6a0a32-8a12-41d5-a23d-a4f8201e3e46","system_id":"levelo_inurba_marseille","lat":43.309076,"lon":5.368465,"is_reserved":false,"is_disabled":false,"rental_uris":{"android":"levelo://app?vid=eb6a0a32-8a12-41d5-a23d-a4f8201e3e46","ios":"levelo://app?vid=eb6a0a32-8a12-41d5-a23d-a4f8201e3e46"},"vehicle_type_id":"4","last_reported":1721419836,"current_range_meters":26400,"station_id":"ce4bgn92rcd13ifvqbvg","pricing_plan_id":"cebpf4jnsgd1na2vs0mg"},{"bike_id":"7ad27678-bceb-430f-a7d4-1c5fd703a44b","system_id":"levelo_inurba_marseille","lat":43.31485,"lon":5.37309,"is_reserved":false,"is_disabled":false,"rental_uris":{"android":"levelo://app?vid=7ad27678-bceb-430f-a7d4-1c5fd703a44b","ios":"levelo://app?vid=7ad27678-bceb-430f-a7d4-1c5fd703a44b"},"vehicle_type_id":"4","last_reported":1721419836,"current_range_meters":0,"station_id":"ce4bgt12rcd13ifvqcd0","pricing_plan_id":"cebpf4jnsgd1na2vs0mg"},{"bike_id":"9ea96136-dd50-49fa-a131-dda3759649d8","system_id":"levelo_inurba_marseille","lat":43.314811,"lon":5.373104,"is_reserved":false,"is_disabled":false,"rental_uris":{"android":"levelo://app?vid=9ea96136-dd50-49fa-a131-dda3759649d8","ios":"levelo://app?vid=9ea96136-dd50-49fa-a131-dda3759649d8"},"vehicle_type_id":"4","last_reported":1721419836,"current_range_meters":9200,"station_id":"ce4bgt12rcd13ifvqcd0","pricing_plan_id":"cebpf4jnsgd1na2vs0mg"},{"bike_id":"7df8dd4a-c865-4f29-b768-21740d0daaaa","system_id":"levelo_inurba_marseille","lat":43.314495,"lon":5.373782,"is_reserved":false,"is_disabled":false,"rental_uris":{"android":"levelo://app?vid=7df8dd4a-c865-4f29-b768-21740d0daaaa","ios":"levelo://app?vid=7df8dd4a-c865-4f29-b768-21740d0daaaa"},"vehicle_type_id":"4","last_reported":1721419836,"current_range_meters":26800,"station_id":"","pricing_plan_id":"cebpf4jnsgd1na2vs0mg"},{"bike_id":"219f126c-2704-43c7-8e72-5e6a41d34758","system_id":"levelo_inurba_marseille","lat":43.305714,"lon":5.365633,"is_reserved":false,"is_disabled":false,"rental_uris":{"android":"levelo://app?vid=219f126c-2704-43c7-8e72-5e6a41d34758","ios":"levelo://app?vid=219f126c-2704-43c7-8e72-5e6a41d34758"},"vehicle_type_id":"4","last_reported":1721419836,"current_range_meters":2000,"station_id":"ce4bgs12rcd13ifvqcag","pricing_plan_id":"cebpf4jnsgd1na2vs0mg"},{"bike_id":"4f843a89-c095-43ad-810f-70f65d0849d5","system_id":"levelo_inurba_marseille","lat":43.31847,"lon":5.36264,"is_reserved":false,"is_disabled":false,"rental_uris":{"android":"levelo://app?vid=4f843a89-c095-43ad-810f-70f65d0849d5","ios":"levelo://app?vid=4f843a89-c095-43ad-810f-70f65d0849d5"},"vehicle_type_id":"4","last_reported":1721419836,"current_range_meters":7200,"station_id":"","pricing_plan_id":"cebpf4jnsgd1na2vs0mg"},{"bike_id":"168474c2-78df-4f04-8eb5-36d7aa82fe9b","system_id":"levelo_inurba_marseille","lat":43.305706,"lon":5.365654,"is_reserved":false,"is_disabled":false,"rental_uris":{"android":"levelo://app?vid=168474c2-78df-4f04-8eb5-36d7aa82fe9b","ios":"levelo://app?vid=168474c2-78df-4f04-8eb5-36d7aa82fe9b"},"vehicle_type_id":"4","last_reported":1721419836,"current_range_meters":27200,"station_id":"ce4bgs12rcd13ifvqcag","pricing_plan_id":"cebpf4jnsgd1na2vs0mg"},{"bike_id":"75e8ae9f-52b3-4b38-a8b1-5f7d37518877","system_id":"levelo_inurba_marseille","lat":43.305706,"lon":5.365654,"is_reserved":false,"is_disabled":false,"rental_uris":{"android":"levelo://app?vid=75e8ae9f-52b3-4b38-a8b1-5f7d37518877","ios":"levelo://app?vid=75e8ae9f-52b3-4b38-a8b1-5f7d37518877"},"vehicle_type_id":"4","last_reported":1721419836,"current_range_meters":27200,"station_id":"ce4bgs12rcd13ifvqcag","pricing_plan_id":"cebpf4jnsgd1na2vs0mg"},{"bike_id":"70465c97-b6ce-4cce-97b8-8a7b5d6bd44e","system_id":"levelo_inurba_marseille","lat":43.3053,"lon":5.36652,"is_reserved":false,"is_disabled":false,"rental_uris":{"android":"levelo://app?vid=70465c97-b6ce-4cce-97b8-8a7b5d6bd44e","ios":"levelo://app?vid=70465c97-b6ce-4cce-97b8-8a7b5d6bd44e"},"vehicle_type_id":"4","last_reported":1721419836,"current_range_meters":800,"station_id":"","pricing_plan_id":"cebpf4jnsgd1na2vs0mg"},{"bike_id":"e0ea86ac-8dbb-4e2c-b224-487af0cec72f","system_id":"levelo_inurba_marseille","lat":43.3111,"lon":5.37764,"is_reserved":false,"is_disabled":false,"rental_uris":{"android":"levelo://app?vid=e0ea86ac-8dbb-4e2c-b224-487af0cec72f","ios":"levelo://app?vid=e0ea86ac-8dbb-4e2c-b224-487af0cec72f"},"vehicle_type_id":"4","last_reported":1721419836,"current_range_meters":0,"station_id":"ce4bgt92rcd13ifvqcg0","pricing_plan_id":"cebpf4jnsgd1na2vs0mg"},{"bike_id":"10c20be2-f0f5-4ee9-8c89-f0944cab13f7","system_id":"levelo_inurba_marseille","lat":43.307945,"lon":5.376487,"is_reserved":false,"is_disabled":false,"rental_uris":{"android":"levelo://app?vid=10c20be2-f0f5-4ee9-8c89-f0944cab13f7","ios":"levelo://app?vid=10c20be2-f0f5-4ee9-8c89-f0944cab13f7"},"vehicle_type_id":"4","last_reported":1721419836,"current_range_meters":8800,"station_id":"ce4bgv92rcd13ifvqcq0","pricing_plan_id":"cebpf4jnsgd1na2vs0mg"},{"bike_id":"102db060-ad20-4741-9349-a71d3fea30ee","system_id":"levelo_inurba_marseille","lat":43.307945,"lon":5.376487,"is_reserved":false,"is_disabled":false,"rental_uris":{"android":"levelo://app?vid=102db060-ad20-4741-9349-a71d3fea30ee","ios":"levelo://app?vid=102db060-ad20-4741-9349-a71d3fea30ee"},"vehicle_type_id":"4","last_reported":1721419836,"current_range_meters":26000,"station_id":"ce4bgv92rcd13ifvqcq0","pricing_plan_id":"cebpf4jnsgd1na2vs0mg"},{"bike_id":"bb25a067-3be7-40a0-8793-b2813257233b","system_id":"levelo_inurba_marseille","lat":43.315289,"lon":5.380349,"is_reserved":false,"is_disabled":false,"rental_uris":{"android":"levelo://app?vid=bb25a067-3be7-40a0-8793-b2813257233b","ios":"levelo://app?vid=bb25a067-3be7-40a0-8793-b2813257233b"},"vehicle_type_id":"4","last_reported":1721419836,"current_range_meters":18000,"station_id":"ce4bhsp2rcd13ifvqi50","pricing_plan_id":"cebpf4jnsgd1na2vs0mg"},{"bike_id":"ac804ad5-589c-4f8a-b7db-49445509d0bc","system_id":"levelo_inurba_marseille","lat":43.31531,"lon":5.38036,"is_reserved":false,"is_disabled":false,"rental_uris":{"android":"levelo://app?vid=ac804ad5-589c-4f8a-b7db-49445509d0bc","ios":"levelo://app?vid=ac804ad5-589c-4f8a-b7db-49445509d0bc"},"vehicle_type_id":"4","last_reported":1721419836,"current_range_meters":1200,"station_id":"ce4bhsp2rcd13ifvqi50","pricing_plan_id":"cebpf4jnsgd1na2vs0mg"},{"bike_id":"8ac15713-0591-4407-b001-101910cf41b0","system_id":"levelo_inurba_marseille","lat":43.301939,"lon":5.366286,"is_reserved":false,"is_disabled":false,"rental_uris":{"android":"levelo://app?vid=8ac15713-0591-4407-b001-101910cf41b0","ios":"levelo://app?vid=8ac15713-0591-4407-b001-101910cf41b0"},"vehicle_type_id":"4","last_reported":1721419836,"current_range_meters":16800,"station_id":"ce4bgrh2rcd13ifvqc8g","pricing_plan_id":"cebpf4jnsgd1na2vs0mg"},{"bike_id":"5e553a80-0882-4a71-89cf-bd55bb6fa87b","system_id":"levelo_inurba_marseille","lat":43.301939,"lon":5.366286,"is_reserved":false,"is_disabled":false,"rental_uris":{"android":"levelo://app?vid=5e553a80-0882-4a71-89cf-bd55bb6fa87b","ios":"levelo://app?vid=5e553a80-0882-4a71-89cf-bd55bb6fa87b"},"vehicle_type_id":"4","last_reported":1721419836,"current_range_meters":29600,"station_id":"ce4bgrh2rcd13ifvqc8g","pricing_plan_id":"cebpf4jnsgd1na2vs0mg"},{"bike_id":"73ac899d-b1c2-4fb2-92bc-9fc874450589","system_id":"levelo_inurba_marseille","lat":43.308012,"lon":5.381511,"is_reserved":false,"is_disabled":false,"rental_uris":{"android":"levelo://app?vid=73ac899d-b1c2-4fb2-92bc-9fc874450589","ios":"levelo://app?vid=73ac899d-b1c2-4fb2-92bc-9fc874450589"},"vehicle_type_id":"4","last_reported":1721419836,"current_range_meters":2000,"station_id":"ce4bgt12rcd13ifvqce0","pricing_plan_id":"cebpf4jnsgd1na2vs0mg"},{"bike_id":"9098a9ef-6c89-4c47-9ed2-09d8d2179039","system_id":"levelo_inurba_marseille","lat":43.308012,"lon":5.381511,"is_reserved":false,"is_disabled":false,"rental_uris":{"android":"levelo://app?vid=9098a9ef-6c89-4c47-9ed2-09d8d2179039","ios":"levelo://app?vid=9098a9ef-6c89-4c47-9ed2-09d8d2179039"},"vehicle_type_id":"4","last_reported":1721419836,"current_range_meters":24400,"station_id":"ce4bgt12rcd13ifvqce0","pricing_plan_id":"cebpf4jnsgd1na2vs0mg"},{"bike_id":"72cc1cb7-ca3a-4bfa-9ebb-4baf0a2979a1","system_id":"levelo_inurba_marseille","lat":43.304606,"lon":5.379026,"is_reserved":false,"is_disabled":false,"rental_uris":{"android":"levelo://app?vid=72cc1cb7-ca3a-4bfa-9ebb-4baf0a2979a1","ios":"levelo://app?vid=72cc1cb7-ca3a-4bfa-9ebb-4baf0a2979a1"},"vehicle_type_id":"4","last_reported":1721419836,"current_range_meters":2400,"station_id":"ce4bgup2rcd13ifvqcn0","pricing_plan_id":"cebpf4jnsgd1na2vs0mg"},{"bike_id":"8c0c3657-5b7d-4bc2-89ff-3c029e9cc6bf","system_id":"levelo_inurba_marseille","lat":43.304606,"lon":5.379026,"is_reserved":false,"is_disabled":false,"rental_uris":{"android":"levelo://app?vid=8c0c3657-5b7d-4bc2-89ff-3c029e9cc6bf","ios":"levelo://app?vid=8c0c3657-5b7d-4bc2-89ff-3c029e9cc6bf"},"vehicle_type_id":"4","last_reported":1721419836,"current_range_meters":12000,"station_id":"ce4bgup2rcd13ifvqcn0","pricing_plan_id":"cebpf4jnsgd1na2vs0mg"},{"bike_id":"5e09c5af-02b3-42fa-9cca-5c7ff3b330db","system_id":"levelo_inurba_marseille","lat":43.324771,"lon":5.36557,"is_reserved":false,"is_disabled":false,"rental_uris":{"android":"levelo://app?vid=5e09c5af-02b3-42fa-9cca-5c7ff3b330db","ios":"levelo://app?vid=5e09c5af-02b3-42fa-9cca-5c7ff3b330db"},"vehicle_type_id":"4","last_reported":1721419836,"current_range_meters":8400,"station_id":"ce4bhs12rcd13ifvqhvg","pricing_plan_id":"cebpf4jnsgd1na2vs0mg"},{"bike_id":"951bc901-c238-42d4-aac0-3c805623be77","system_id":"levelo_inurba_marseille","lat":43.32476,"lon":5.36566,"is_reserved":false,"is_disabled":false,"rental_uris":{"android":"levelo://app?vid=951bc901-c238-42d4-aac0-3c805623be77","ios":"levelo://app?vid=951bc901-c238-42d4-aac0-3c805623be77"},"vehicle_type_id":"4","last_reported":1721419836,"current_range_meters":0,"station_id":"ce4bhs12rcd13ifvqhvg","pricing_plan_id":"cebpf4jnsgd1na2vs0mg"},{"bike_id":"5aad4bf1-e755-4a25-b0ab-32b518d88aba","system_id":"levelo_inurba_marseille","lat":43.32476,"lon":5.36565,"is_reserved":false,"is_disabled":false,"rental_uris":{"android":"levelo://app?vid=5aad4bf1-e755-4a25-b0ab-32b518d88aba","ios":"levelo://app?vid=5aad4bf1-e755-4a25-b0ab-32b518d88aba"},"vehicle_type_id":"4","last_reported":1721419836,"current_range_meters":6400,"station_id":"ce4bhs12rcd13ifvqhvg","pricing_plan_id":"cebpf4jnsgd1na2vs0mg"},{"bike_id":"49c9174c-e04b-4e00-9848-b6d035396dd2","system_id":"levelo_inurba_marseille","lat":43.324771,"lon":5.36557,"is_reserved":false,"is_disabled":false,"rental_uris":{"android":"levelo://app?vid=49c9174c-e04b-4e00-9848-b6d035396dd2","ios":"levelo://app?vid=49c9174c-e04b-4e00-9848-b6d035396dd2"},"vehicle_type_id":"4","last_reported":1721419836,"current_range_meters":21200,"station_id":"ce4bhs12rcd13ifvqhvg","pricing_plan_id":"cebpf4jnsgd1na2vs0mg"},{"bike_id":"162842f5-3813-44ed-956d-cfc64b4a9302","system_id":"levelo_inurba_marseille","lat":43.324771,"lon":5.36557,"is_reserved":false,"is_disabled":false,"rental_uris":{"android":"levelo://app?vid=162842f5-3813-44ed-956d-cfc64b4a9302","ios":"levelo://app?vid=162842f5-3813-44ed-956d-cfc64b4a9302"},"vehicle_type_id":"4","last_reported":1721419836,"current_range_meters":4800,"station_id":"ce4bhs12rcd13ifvqhvg","pricing_plan_id":"cebpf4jnsgd1na2vs0mg"},{"bike_id":"2baca4ef-0d69-4564-91f0-6aa88a9ace5b","system_id":"levelo_inurba_marseille","lat":43.324771,"lon":5.36557,"is_reserved":false,"is_disabled":false,"rental_uris":{"android":"levelo://app?vid=2baca4ef-0d69-4564-91f0-6aa88a9ace5b","ios":"levelo://app?vid=2baca4ef-0d69-4564-91f0-6aa88a9ace5b"},"vehicle_type_id":"4","last_reported":1721419836,"current_range_meters":14800,"station_id":"ce4bhs12rcd13ifvqhvg","pricing_plan_id":"cebpf4jnsgd1na2vs0mg"},{"bike_id":"5293ffae-7c83-40e3-9aa6-9b83985dce26","system_id":"levelo_inurba_marseille","lat":43.310804,"lon":5.38359,"is_reserved":false,"is_disabled":false,"rental_uris":{"android":"levelo://app?vid=5293ffae-7c83-40e3-9aa6-9b83985dce26","ios":"levelo://app?vid=5293ffae-7c83-40e3-9aa6-9b83985dce26"},"vehicle_type_id":"4","last_reported":1721419836,"current_range_meters":4800,"station_id":"ce4bgv92rcd13ifvqcr0","pricing_plan_id":"cebpf4jnsgd1na2vs0mg"},{"bike_id":"fb6027ab-8127-4a6d-b306-fd5cba723945","system_id":"levelo_inurba_marseille","lat":43.310804,"lon":5.38359,"is_reserved":false,"is_disabled":false,"rental_uris":{"android":"levelo://app?vid=fb6027ab-8127-4a6d-b306-fd5cba723945","ios":"levelo://app?vid=fb6027ab-8127-4a6d-b306-fd5cba723945"},"vehicle_type_id":"4","last_reported":1721419836,"current_range_meters":18000,"station_id":"ce4bgv92rcd13ifvqcr0","pricing_plan_id":"cebpf4jnsgd1na2vs0mg"},{"bike_id":"988fe304-f05c-40a3-a584-7b1a9863dad7","system_id":"levelo_inurba_marseille","lat":43.310804,"lon":5.38359,"is_reserved":false,"is_disabled":false,"rental_uris":{"android":"levelo://app?vid=988fe304-f05c-40a3-a584-7b1a9863dad7","ios":"levelo://app?vid=988fe304-f05c-40a3-a584-7b1a9863dad7"},"vehicle_type_id":"4","last_reported":1721419836,"current_range_meters":21600,"station_id":"ce4bgv92rcd13ifvqcr0","pricing_plan_id":"cebpf4jnsgd1na2vs0mg"},{"bike_id":"1effa88b-df52-4e13-b0d4-5d3e5541687c","system_id":"levelo_inurba_marseille","lat":43.302784,"lon":5.377158,"is_reserved":false,"is_disabled":false,"rental_uris":{"android":"levelo://app?vid=1effa88b-df52-4e13-b0d4-5d3e5541687c","ios":"levelo://app?vid=1effa88b-df52-4e13-b0d4-5d3e5541687c"},"vehicle_type_id":"4","last_reported":1721419836,"current_range_meters":28400,"station_id":"ce4bguh2rcd13ifvqcj0","pricing_plan_id":"cebpf4jnsgd1na2vs0mg"},{"bike_id":"37df6975-2957-4eb5-b199-4a4dd17dd937","system_id":"levelo_inurba_marseille","lat":43.30143,"lon":5.37413,"is_reserved":false,"is_disabled":false,"rental_uris":{"android":"levelo://app?vid=37df6975-2957-4eb5-b199-4a4dd17dd937","ios":"levelo://app?vid=37df6975-2957-4eb5-b199-4a4dd17dd937"},"vehicle_type_id":"4","last_reported":1721419836,"current_range_meters":28800,"station_id":"ce4bgs92rcd13ifvqcc0","pricing_plan_id":"cebpf4jnsgd1na2vs0mg"},{"bike_id":"5ffe731f-7437-4ea1-9fea-4e2505c8898d","system_id":"levelo_inurba_marseille","lat":43.301429,"lon":5.37413,"is_reserved":false,"is_disabled":false,"rental_uris":{"android":"levelo://app?vid=5ffe731f-7437-4ea1-9fea-4e2505c8898d","ios":"levelo://app?vid=5ffe731f-7437-4ea1-9fea-4e2505c8898d"},"vehicle_type_id":"4","last_reported":1721419836,"current_range_meters":30400,"station_id":"ce4bgs92rcd13ifvqcc0","pricing_plan_id":"cebpf4jnsgd1na2vs0mg"},{"bike_id":"3ce919f2-2df5-4f56-83b9-a2c0725df5a1","system_id":"levelo_inurba_marseille","lat":43.3057,"lon":5.38142,"is_reserved":false,"is_disabled":false,"rental_uris":{"android":"levelo://app?vid=3ce919f2-2df5-4f56-83b9-a2c0725df5a1","ios":"levelo://app?vid=3ce919f2-2df5-4f56-83b9-a2c0725df5a1"},"vehicle_type_id":"4","last_reported":1721419836,"current_range_meters":17200,"station_id":"","pricing_plan_id":"cebpf4jnsgd1na2vs0mg"},{"bike_id":"f00e6450-c954-4601-95b6-9c991c1b244c","system_id":"levelo_inurba_marseille","lat":43.319935,"lon":5.381699,"is_reserved":false,"is_disabled":false,"rental_uris":{"android":"levelo://app?vid=f00e6450-c954-4601-95b6-9c991c1b244c","ios":"levelo://app?vid=f00e6450-c954-4601-95b6-9c991c1b244c"},"vehicle_type_id":"4","last_reported":1721419836,"current_range_meters":8000,"station_id":"ce4bhr12rcd13ifvqhpg","pricing_plan_id":"cebpf4jnsgd1na2vs0mg"},{"bike_id":"3623f93d-bd9b-4a41-86c9-409e8e4b7b21","system_id":"levelo_inurba_marseille","lat":43.319935,"lon":5.381699,"is_reserved":false,"is_disabled":false,"rental_uris":{"android":"levelo://app?vid=3623f93d-bd9b-4a41-86c9-409e8e4b7b21","ios":"levelo://app?vid=3623f93d-bd9b-4a41-86c9-409e8e4b7b21"},"vehicle_type_id":"4","last_reported":1721419836,"current_range_meters":22400,"station_id":"ce4bhr12rcd13ifvqhpg","pricing_plan_id":"cebpf4jnsgd1na2vs0mg"},{"bike_id":"11ec9cb9-632e-4a00-b9d9-74178410641c","system_id":"levelo_inurba_marseille","lat":43.319935,"lon":5.381699,"is_reserved":false,"is_disabled":false,"rental_uris":{"android":"levelo://app?vid=11ec9cb9-632e-4a00-b9d9-74178410641c","ios":"levelo://app?vid=11ec9cb9-632e-4a00-b9d9-74178410641c"},"vehicle_type_id":"4","last_reported":1721419836,"current_range_meters":26400,"station_id":"ce4bhr12rcd13ifvqhpg","pricing_plan_id":"cebpf4jnsgd1na2vs0mg"},{"bike_id":"be290f77-4e86-4088-8795-bae0f2a6d892","system_id":"levelo_inurba_marseille","lat":43.313571,"lon":5.384829,"is_reserved":false,"is_disabled":false,"rental_uris":{"android":"levelo://app?vid=be290f77-4e86-4088-8795-bae0f2a6d892","ios":"levelo://app?vid=be290f77-4e86-4088-8795-bae0f2a6d892"},"vehicle_type_id":"4","last_reported":1721419836,"current_range_meters":10800,"station_id":"ce4bgt92rcd13ifvqcf0","pricing_plan_id":"cebpf4jnsgd1na2vs0mg"},{"bike_id":"9962179c-47a2-4cfa-8fe7-b3185a103a8f","system_id":"levelo_inurba_marseille","lat":43.313571,"lon":5.384829,"is_reserved":false,"is_disabled":false,"rental_uris":{"android":"levelo://app?vid=9962179c-47a2-4cfa-8fe7-b3185a103a8f","ios":"levelo://app?vid=9962179c-47a2-4cfa-8fe7-b3185a103a8f"},"vehicle_type_id":"4","last_reported":1721419836,"current_range_meters":1600,"station_id":"ce4bgt92rcd13ifvqcf0","pricing_plan_id":"cebpf4jnsgd1na2vs0mg"},{"bike_id":"8fdc3572-f691-40c5-b402-1e81a976602e","system_id":"levelo_inurba_marseille","lat":43.31353,"lon":5.38489,"is_reserved":false,"is_disabled":false,"rental_uris":{"android":"levelo://app?vid=8fdc3572-f691-40c5-b402-1e81a976602e","ios":"levelo://app?vid=8fdc3572-f691-40c5-b402-1e81a976602e"},"vehicle_type_id":"4","last_reported":1721419836,"current_range_meters":1200,"station_id":"ce4bgt92rcd13ifvqcf0","pricing_plan_id":"cebpf4jnsgd1na2vs0mg"},{"bike_id":"c36dc10b-e725-4171-a5f6-47f84dd78201","system_id":"levelo_inurba_marseille","lat":43.31357,"lon":5.38493,"is_reserved":false,"is_disabled":false,"rental_uris":{"android":"levelo://app?vid=c36dc10b-e725-4171-a5f6-47f84dd78201","ios":"levelo://app?vid=c36dc10b-e725-4171-a5f6-47f84dd78201"},"vehicle_type_id":"4","last_reported":1721419836,"current_range_meters":21200,"station_id":"ce4bgt92rcd13ifvqcf0","pricing_plan_id":"cebpf4jnsgd1na2vs0mg"},{"bike_id":"1b005aef-9017-4b62-93f9-8d05c923f3b2","system_id":"levelo_inurba_marseille","lat":43.31362,"lon":5.38499,"is_reserved":false,"is_disabled":false,"rental_uris":{"android":"levelo://app?vid=1b005aef-9017-4b62-93f9-8d05c923f3b2","ios":"levelo://app?vid=1b005aef-9017-4b62-93f9-8d05c923f3b2"},"vehicle_type_id":"4","last_reported":1721419836,"current_range_meters":7600,"station_id":"ce4bgt92rcd13ifvqcf0","pricing_plan_id":"cebpf4jnsgd1na2vs0mg"},{"bike_id":"2b503a9c-8b01-4fec-952c-9bef93edf006","system_id":"levelo_inurba_marseille","lat":43.299222,"lon":5.365554,"is_reserved":false,"is_disabled":false,"rental_uris":{"android":"levelo://app?vid=2b503a9c-8b01-4fec-952c-9bef93edf006","ios":"levelo://app?vid=2b503a9c-8b01-4fec-952c-9bef93edf006"},"vehicle_type_id":"4","last_reported":1721419836,"current_range_meters":12800,"station_id":"ce4bgm92rcd13ifvqbr0","pricing_plan_id":"cebpf4jnsgd1na2vs0mg"},{"bike_id":"cd86dbb2-dcb5-47fb-9b6a-f19784cac243","system_id":"levelo_inurba_marseille","lat":43.299222,"lon":5.365554,"is_reserved":false,"is_disabled":false,"rental_uris":{"android":"levelo://app?vid=cd86dbb2-dcb5-47fb-9b6a-f19784cac243","ios":"levelo://app?vid=cd86dbb2-dcb5-47fb-9b6a-f19784cac243"},"vehicle_type_id":"4","last_reported":1721419836,"current_range_meters":27200,"station_id":"ce4bgm92rcd13ifvqbr0","pricing_plan_id":"cebpf4jnsgd1na2vs0mg"},{"bike_id":"3b258efc-9614-4df0-8a8d-cb97e7a37b04","system_id":"levelo_inurba_marseille","lat":43.305364,"lon":5.384119,"is_reserved":false,"is_disabled":false,"rental_uris":{"android":"levelo://app?vid=3b258efc-9614-4df0-8a8d-cb97e7a37b04","ios":"levelo://app?vid=3b258efc-9614-4df0-8a8d-cb97e7a37b04"},"vehicle_type_id":"4","last_reported":1721419836,"current_range_meters":12400,"station_id":"ce4bgg92rcd13ifvqb30","pricing_plan_id":"cebpf4jnsgd1na2vs0mg"},{"bike_id":"2d40862b-55ef-4c59-897d-b8a0a0214ee1","system_id":"levelo_inurba_marseille","lat":43.298433,"lon":5.362774,"is_reserved":false,"is_disabled":false,"rental_uris":{"android":"levelo://app?vid=2d40862b-55ef-4c59-897d-b8a0a0214ee1","ios":"levelo://app?vid=2d40862b-55ef-4c59-897d-b8a0a0214ee1"},"vehicle_type_id":"4","last_reported":1721419836,"current_range_meters":13200,"station_id":"ce4bgpp2rcd13ifvqc3g","pricing_plan_id":"cebpf4jnsgd1na2vs0mg"},{"bike_id":"9c01937c-96bc-4d76-bf94-74ffd835b190","system_id":"levelo_inurba_marseille","lat":43.298433,"lon":5.362774,"is_reserved":false,"is_disabled":false,"rental_uris":{"android":"levelo://app?vid=9c01937c-96bc-4d76-bf94-74ffd835b190","ios":"levelo://app?vid=9c01937c-96bc-4d76-bf94-74ffd835b190"},"vehicle_type_id":"4","last_reported":1721419836,"current_range_meters":28400,"station_id":"ce4bgpp2rcd13ifvqc3g","pricing_plan_id":"cebpf4jnsgd1na2vs0mg"},{"bike_id":"73d52621-517b-403f-92b6-8899539ab0cc","system_id":"levelo_inurba_marseille","lat":43.298433,"lon":5.362774,"is_reserved":false,"is_disabled":false,"rental_uris":{"android":"levelo://app?vid=73d52621-517b-403f-92b6-8899539ab0cc","ios":"levelo://app?vid=73d52621-517b-403f-92b6-8899539ab0cc"},"vehicle_type_id":"4","last_reported":1721419836,"current_range_meters":800,"station_id":"ce4bgpp2rcd13ifvqc3g","pricing_plan_id":"cebpf4jnsgd1na2vs0mg"},{"bike_id":"9a24af3c-7eec-4955-8331-a028ec488efd","system_id":"levelo_inurba_marseille","lat":43.298433,"lon":5.362774,"is_reserved":false,"is_disabled":false,"rental_uris":{"android":"levelo://app?vid=9a24af3c-7eec-4955-8331-a028ec488efd","ios":"levelo://app?vid=9a24af3c-7eec-4955-8331-a028ec488efd"},"vehicle_type_id":"4","last_reported":1721419836,"current_range_meters":26000,"station_id":"ce4bgpp2rcd13ifvqc3g","pricing_plan_id":"cebpf4jnsgd1na2vs0mg"},{"bike_id":"8c8c920e-07f4-4f91-a408-0d5099c278e3","system_id":"levelo_inurba_marseille","lat":43.298433,"lon":5.362774,"is_reserved":false,"is_disabled":false,"rental_uris":{"android":"levelo://app?vid=8c8c920e-07f4-4f91-a408-0d5099c278e3","ios":"levelo://app?vid=8c8c920e-07f4-4f91-a408-0d5099c278e3"},"vehicle_type_id":"4","last_reported":1721419836,"current_range_meters":4400,"station_id":"ce4bgpp2rcd13ifvqc3g","pricing_plan_id":"cebpf4jnsgd1na2vs0mg"},{"bike_id":"4917c56c-7cc6-4b95-98a9-2e3061d8d078","system_id":"levelo_inurba_marseille","lat":43.298433,"lon":5.362774,"is_reserved":false,"is_disabled":false,"rental_uris":{"android":"levelo://app?vid=4917c56c-7cc6-4b95-98a9-2e3061d8d078","ios":"levelo://app?vid=4917c56c-7cc6-4b95-98a9-2e3061d8d078"},"vehicle_type_id":"4","last_reported":1721419836,"current_range_meters":23600,"station_id":"ce4bgpp2rcd13ifvqc3g","pricing_plan_id":"cebpf4jnsgd1na2vs0mg"},{"bike_id":"27877c1c-61d1-4d84-b51f-a293d7cac9fc","system_id":"levelo_inurba_marseille","lat":43.298433,"lon":5.362774,"is_reserved":false,"is_disabled":false,"rental_uris":{"android":"levelo://app?vid=27877c1c-61d1-4d84-b51f-a293d7cac9fc","ios":"levelo://app?vid=27877c1c-61d1-4d84-b51f-a293d7cac9fc"},"vehicle_type_id":"4","last_reported":1721419836,"current_range_meters":27200,"station_id":"ce4bgpp2rcd13ifvqc3g","pricing_plan_id":"cebpf4jnsgd1na2vs0mg"},{"bike_id":"4af90e90-d0e0-49c3-b8ce-31395cf3bfd1","system_id":"levelo_inurba_marseille","lat":43.298433,"lon":5.362774,"is_reserved":false,"is_disabled":false,"rental_uris":{"android":"levelo://app?vid=4af90e90-d0e0-49c3-b8ce-31395cf3bfd1","ios":"levelo://app?vid=4af90e90-d0e0-49c3-b8ce-31395cf3bfd1"},"vehicle_type_id":"4","last_reported":1721419836,"current_range_meters":2000,"station_id":"ce4bgpp2rcd13ifvqc3g","pricing_plan_id":"cebpf4jnsgd1na2vs0mg"},{"bike_id":"c2e72e32-4db6-45a5-b50d-8847dc8da9f7","system_id":"levelo_inurba_marseille","lat":43.298433,"lon":5.362774,"is_reserved":false,"is_disabled":false,"rental_uris":{"android":"levelo://app?vid=c2e72e32-4db6-45a5-b50d-8847dc8da9f7","ios":"levelo://app?vid=c2e72e32-4db6-45a5-b50d-8847dc8da9f7"},"vehicle_type_id":"4","last_reported":1721419836,"current_range_meters":5600,"station_id":"ce4bgpp2rcd13ifvqc3g","pricing_plan_id":"cebpf4jnsgd1na2vs0mg"},{"bike_id":"e9cfb649-b634-4aef-ae13-fed08633690f","system_id":"levelo_inurba_marseille","lat":43.311722,"lon":5.387247,"is_reserved":false,"is_disabled":false,"rental_uris":{"android":"levelo://app?vid=e9cfb649-b634-4aef-ae13-fed08633690f","ios":"levelo://app?vid=e9cfb649-b634-4aef-ae13-fed08633690f"},"vehicle_type_id":"4","last_reported":1721419836,"current_range_meters":25200,"station_id":"ce4bgv12rcd13ifvqcp0","pricing_plan_id":"cebpf4jnsgd1na2vs0mg"},{"bike_id":"f45e669a-cc19-4a31-9a6f-90bcda7468bc","system_id":"levelo_inurba_marseille","lat":43.31166,"lon":5.38718,"is_reserved":false,"is_disabled":false,"rental_uris":{"android":"levelo://app?vid=f45e669a-cc19-4a31-9a6f-90bcda7468bc","ios":"levelo://app?vid=f45e669a-cc19-4a31-9a6f-90bcda7468bc"},"vehicle_type_id":"4","last_reported":1721419836,"current_range_meters":0,"station_id":"ce4bgv12rcd13ifvqcp0","pricing_plan_id":"cebpf4jnsgd1na2vs0mg"},{"bike_id":"22815b7b-eba1-4e5b-a2cd-de32f4a9ad6a","system_id":"levelo_inurba_marseille","lat":43.311722,"lon":5.387247,"is_reserved":false,"is_disabled":false,"rental_uris":{"android":"levelo://app?vid=22815b7b-eba1-4e5b-a2cd-de32f4a9ad6a","ios":"levelo://app?vid=22815b7b-eba1-4e5b-a2cd-de32f4a9ad6a"},"vehicle_type_id":"4","last_reported":1721419836,"current_range_meters":16000,"station_id":"ce4bgv12rcd13ifvqcp0","pricing_plan_id":"cebpf4jnsgd1na2vs0mg"},{"bike_id":"d7be2a2c-208c-47b1-b09a-7d0478721634","system_id":"levelo_inurba_marseille","lat":43.29784,"lon":5.37101,"is_reserved":false,"is_disabled":false,"rental_uris":{"android":"levelo://app?vid=d7be2a2c-208c-47b1-b09a-7d0478721634","ios":"levelo://app?vid=d7be2a2c-208c-47b1-b09a-7d0478721634"},"vehicle_type_id":"4","last_reported":1721419836,"current_range_meters":8400,"station_id":"ce4bgop2rcd13ifvqc1g","pricing_plan_id":"cebpf4jnsgd1na2vs0mg"},{"bike_id":"cb1d751a-f507-43ce-a661-135d0d6ace30","system_id":"levelo_inurba_marseille","lat":43.29782,"lon":5.37097,"is_reserved":false,"is_disabled":false,"rental_uris":{"android":"levelo://app?vid=cb1d751a-f507-43ce-a661-135d0d6ace30","ios":"levelo://app?vid=cb1d751a-f507-43ce-a661-135d0d6ace30"},"vehicle_type_id":"4","last_reported":1721419836,"current_range_meters":31200,"station_id":"ce4bgop2rcd13ifvqc1g","pricing_plan_id":"cebpf4jnsgd1na2vs0mg"},{"bike_id":"16de8ca8-2988-44a8-a5f4-adf199333755","system_id":"levelo_inurba_marseille","lat":43.297774,"lon":5.370875,"is_reserved":false,"is_disabled":false,"rental_uris":{"android":"levelo://app?vid=16de8ca8-2988-44a8-a5f4-adf199333755","ios":"levelo://app?vid=16de8ca8-2988-44a8-a5f4-adf199333755"},"vehicle_type_id":"4","last_reported":1721419836,"current_range_meters":8000,"station_id":"ce4bgop2rcd13ifvqc1g","pricing_plan_id":"cebpf4jnsgd1na2vs0mg"},{"bike_id":"b05b1b16-dce3-4729-a811-0151d87370d0","system_id":"levelo_inurba_marseille","lat":43.297774,"lon":5.370875,"is_reserved":false,"is_disabled":false,"rental_uris":{"android":"levelo://app?vid=b05b1b16-dce3-4729-a811-0151d87370d0","ios":"levelo://app?vid=b05b1b16-dce3-4729-a811-0151d87370d0"},"vehicle_type_id":"4","last_reported":1721419836,"current_range_meters":16000,"station_id":"ce4bgop2rcd13ifvqc1g","pricing_plan_id":"cebpf4jnsgd1na2vs0mg"},{"bike_id":"0d18f563-d0d0-4f59-8ccb-c15c77810434","system_id":"levelo_inurba_marseille","lat":43.297794,"lon":5.370888,"is_reserved":false,"is_disabled":false,"rental_uris":{"android":"levelo://app?vid=0d18f563-d0d0-4f59-8ccb-c15c77810434","ios":"levelo://app?vid=0d18f563-d0d0-4f59-8ccb-c15c77810434"},"vehicle_type_id":"4","last_reported":1721419836,"current_range_meters":2000,"station_id":"ce4bgop2rcd13ifvqc1g","pricing_plan_id":"cebpf4jnsgd1na2vs0mg"},{"bike_id":"261ce9a1-d6bd-43e1-be0e-57b0da051510","system_id":"levelo_inurba_marseille","lat":43.297774,"lon":5.370875,"is_reserved":false,"is_disabled":false,"rental_uris":{"android":"levelo://app?vid=261ce9a1-d6bd-43e1-be0e-57b0da051510","ios":"levelo://app?vid=261ce9a1-d6bd-43e1-be0e-57b0da051510"},"vehicle_type_id":"4","last_reported":1721419836,"current_range_meters":31200,"station_id":"ce4bgop2rcd13ifvqc1g","pricing_plan_id":"cebpf4jnsgd1na2vs0mg"},{"bike_id":"a8bfb254-1db2-4974-8075-32ebc6f973a0","system_id":"levelo_inurba_marseille","lat":43.29779,"lon":5.37114,"is_reserved":false,"is_disabled":false,"rental_uris":{"android":"levelo://app?vid=a8bfb254-1db2-4974-8075-32ebc6f973a0","ios":"levelo://app?vid=a8bfb254-1db2-4974-8075-32ebc6f973a0"},"vehicle_type_id":"4","last_reported":1721419836,"current_range_meters":4400,"station_id":"ce4bgop2rcd13ifvqc1g","pricing_plan_id":"cebpf4jnsgd1na2vs0mg"},{"bike_id":"84e849a5-7513-470b-8c46-e36e20c809e0","system_id":"levelo_inurba_marseille","lat":43.322872,"lon":5.382756,"is_reserved":false,"is_disabled":false,"rental_uris":{"android":"levelo://app?vid=84e849a5-7513-470b-8c46-e36e20c809e0","ios":"levelo://app?vid=84e849a5-7513-470b-8c46-e36e20c809e0"},"vehicle_type_id":"4","last_reported":1721419836,"current_range_meters":19600,"station_id":"ce4bhr12rcd13ifvqhqg","pricing_plan_id":"cebpf4jnsgd1na2vs0mg"},{"bike_id":"7b631476-17e6-4279-bcd5-d74b0ad2fd48","system_id":"levelo_inurba_marseille","lat":43.322872,"lon":5.382756,"is_reserved":false,"is_disabled":false,"rental_uris":{"android":"levelo://app?vid=7b631476-17e6-4279-bcd5-d74b0ad2fd48","ios":"levelo://app?vid=7b631476-17e6-4279-bcd5-d74b0ad2fd48"},"vehicle_type_id":"4","last_reported":1721419836,"current_range_meters":28800,"station_id":"ce4bhr12rcd13ifvqhqg","pricing_plan_id":"cebpf4jnsgd1na2vs0mg"},{"bike_id":"8b460115-e7a6-4204-94a5-179c8278aba1","system_id":"levelo_inurba_marseille","lat":43.322872,"lon":5.382756,"is_reserved":false,"is_disabled":false,"rental_uris":{"android":"levelo://app?vid=8b460115-e7a6-4204-94a5-179c8278aba1","ios":"levelo://app?vid=8b460115-e7a6-4204-94a5-179c8278aba1"},"vehicle_type_id":"4","last_reported":1721419836,"current_range_meters":18400,"station_id":"ce4bhr12rcd13ifvqhqg","pricing_plan_id":"cebpf4jnsgd1na2vs0mg"},{"bike_id":"be5f13fd-c276-488a-93e7-12b96e3b5009","system_id":"levelo_inurba_marseille","lat":43.297774,"lon":5.370875,"is_reserved":false,"is_disabled":false,"rental_uris":{"android":"levelo://app?vid=be5f13fd-c276-488a-93e7-12b96e3b5009","ios":"levelo://app?vid=be5f13fd-c276-488a-93e7-12b96e3b5009"},"vehicle_type_id":"4","last_reported":1721419836,"current_range_meters":28800,"station_id":"ce4bgop2rcd13ifvqc1g","pricing_plan_id":"cebpf4jnsgd1na2vs0mg"},{"bike_id":"eba26707-a34c-43a7-b715-6b16c925979a","system_id":"levelo_inurba_marseille","lat":43.297163,"lon":5.365866,"is_reserved":false,"is_disabled":false,"rental_uris":{"android":"levelo://app?vid=eba26707-a34c-43a7-b715-6b16c925979a","ios":"levelo://app?vid=eba26707-a34c-43a7-b715-6b16c925979a"},"vehicle_type_id":"4","last_reported":1721419836,"current_range_meters":19200,"station_id":"ce4bgn12rcd13ifvqbt0","pricing_plan_id":"cebpf4jnsgd1na2vs0mg"},{"bike_id":"78ca6a48-9adf-4d29-8475-68b9ba12956e","system_id":"levelo_inurba_marseille","lat":43.297163,"lon":5.365866,"is_reserved":false,"is_disabled":false,"rental_uris":{"android":"levelo://app?vid=78ca6a48-9adf-4d29-8475-68b9ba12956e","ios":"levelo://app?vid=78ca6a48-9adf-4d29-8475-68b9ba12956e"},"vehicle_type_id":"4","last_reported":1721419836,"current_range_meters":5200,"station_id":"ce4bgn12rcd13ifvqbt0","pricing_plan_id":"cebpf4jnsgd1na2vs0mg"},{"bike_id":"0abd938b-43b0-4d63-ab84-b677ac6216f8","system_id":"levelo_inurba_marseille","lat":43.29707,"lon":5.36612,"is_reserved":false,"is_disabled":false,"rental_uris":{"android":"levelo://app?vid=0abd938b-43b0-4d63-ab84-b677ac6216f8","ios":"levelo://app?vid=0abd938b-43b0-4d63-ab84-b677ac6216f8"},"vehicle_type_id":"4","last_reported":1721419836,"current_range_meters":4400,"station_id":"","pricing_plan_id":"cebpf4jnsgd1na2vs0mg"},{"bike_id":"e08167f8-c295-49a7-bd4e-df13ce4c26a3","system_id":"levelo_inurba_marseille","lat":43.30805,"lon":5.38797,"is_reserved":false,"is_disabled":false,"rental_uris":{"android":"levelo://app?vid=e08167f8-c295-49a7-bd4e-df13ce4c26a3","ios":"levelo://app?vid=e08167f8-c295-49a7-bd4e-df13ce4c26a3"},"vehicle_type_id":"4","last_reported":1721419836,"current_range_meters":9600,"station_id":"","pricing_plan_id":"cebpf4jnsgd1na2vs0mg"},{"bike_id":"ef633512-5053-4a04-9563-15c5ce9a20ac","system_id":"levelo_inurba_marseille","lat":43.2968,"lon":5.37291,"is_reserved":false,"is_disabled":false,"rental_uris":{"android":"levelo://app?vid=ef633512-5053-4a04-9563-15c5ce9a20ac","ios":"levelo://app?vid=ef633512-5053-4a04-9563-15c5ce9a20ac"},"vehicle_type_id":"4","last_reported":1721419836,"current_range_meters":31200,"station_id":"ce4bgk12rcd13ifvqbj0","pricing_plan_id":"cebpf4jnsgd1na2vs0mg"},{"bike_id":"302a6ea4-09db-4b80-b260-90cbbc2f2e78","system_id":"levelo_inurba_marseille","lat":43.2968,"lon":5.37291,"is_reserved":false,"is_disabled":false,"rental_uris":{"android":"levelo://app?vid=302a6ea4-09db-4b80-b260-90cbbc2f2e78","ios":"levelo://app?vid=302a6ea4-09db-4b80-b260-90cbbc2f2e78"},"vehicle_type_id":"4","last_reported":1721419836,"current_range_meters":24400,"station_id":"ce4bgk12rcd13ifvqbj0","pricing_plan_id":"cebpf4jnsgd1na2vs0mg"},{"bike_id":"3ffff01a-51cd-474b-b10d-e5be36f0ab57","system_id":"levelo_inurba_marseille","lat":43.2968,"lon":5.37291,"is_reserved":false,"is_disabled":false,"rental_uris":{"android":"levelo://app?vid=3ffff01a-51cd-474b-b10d-e5be36f0ab57","ios":"levelo://app?vid=3ffff01a-51cd-474b-b10d-e5be36f0ab57"},"vehicle_type_id":"4","last_reported":1721419836,"current_range_meters":31200,"station_id":"ce4bgk12rcd13ifvqbj0","pricing_plan_id":"cebpf4jnsgd1na2vs0mg"},{"bike_id":"8fcae39e-453e-4077-a17d-2ebc4fde73a7","system_id":"levelo_inurba_marseille","lat":43.2968,"lon":5.37291,"is_reserved":false,"is_disabled":false,"rental_uris":{"android":"levelo://app?vid=8fcae39e-453e-4077-a17d-2ebc4fde73a7","ios":"levelo://app?vid=8fcae39e-453e-4077-a17d-2ebc4fde73a7"},"vehicle_type_id":"4","last_reported":1721419836,"current_range_meters":18800,"station_id":"ce4bgk12rcd13ifvqbj0","pricing_plan_id":"cebpf4jnsgd1na2vs0mg"},{"bike_id":"f2aafacc-45d8-4013-8ade-e0d3cd65d0b2","system_id":"levelo_inurba_marseille","lat":43.296131,"lon":5.370791,"is_reserved":false,"is_disabled":false,"rental_uris":{"android":"levelo://app?vid=f2aafacc-45d8-4013-8ade-e0d3cd65d0b2","ios":"levelo://app?vid=f2aafacc-45d8-4013-8ade-e0d3cd65d0b2"},"vehicle_type_id":"4","last_reported":1721419836,"current_range_meters":31200,"station_id":"ce4bgnh2rcd13ifvqc0g","pricing_plan_id":"cebpf4jnsgd1na2vs0mg"},{"bike_id":"e52be67d-412e-4c9e-8a3f-ca81fe64b5ad","system_id":"levelo_inurba_marseille","lat":43.296131,"lon":5.370791,"is_reserved":false,"is_disabled":false,"rental_uris":{"android":"levelo://app?vid=e52be67d-412e-4c9e-8a3f-ca81fe64b5ad","ios":"levelo://app?vid=e52be67d-412e-4c9e-8a3f-ca81fe64b5ad"},"vehicle_type_id":"4","last_reported":1721419836,"current_range_meters":4400,"station_id":"ce4bgnh2rcd13ifvqc0g","pricing_plan_id":"cebpf4jnsgd1na2vs0mg"},{"bike_id":"c2c66ddc-cd4f-434f-877e-85c0da00cde2","system_id":"levelo_inurba_marseille","lat":43.296131,"lon":5.370791,"is_reserved":false,"is_disabled":false,"rental_uris":{"android":"levelo://app?vid=c2c66ddc-cd4f-434f-877e-85c0da00cde2","ios":"levelo://app?vid=c2c66ddc-cd4f-434f-877e-85c0da00cde2"},"vehicle_type_id":"4","last_reported":1721419836,"current_range_meters":13200,"station_id":"ce4bgnh2rcd13ifvqc0g","pricing_plan_id":"cebpf4jnsgd1na2vs0mg"},{"bike_id":"8f9b412c-8fdb-4416-9dd1-ca58066120ba","system_id":"levelo_inurba_marseille","lat":43.296131,"lon":5.370791,"is_reserved":false,"is_disabled":false,"rental_uris":{"android":"levelo://app?vid=8f9b412c-8fdb-4416-9dd1-ca58066120ba","ios":"levelo://app?vid=8f9b412c-8fdb-4416-9dd1-ca58066120ba"},"vehicle_type_id":"4","last_reported":1721419836,"current_range_meters":5600,"station_id":"ce4bgnh2rcd13ifvqc0g","pricing_plan_id":"cebpf4jnsgd1na2vs0mg"},{"bike_id":"ab1d6092-1837-40ca-997c-6027aca52131","system_id":"levelo_inurba_marseille","lat":43.296131,"lon":5.370791,"is_reserved":false,"is_disabled":false,"rental_uris":{"android":"levelo://app?vid=ab1d6092-1837-40ca-997c-6027aca52131","ios":"levelo://app?vid=ab1d6092-1837-40ca-997c-6027aca52131"},"vehicle_type_id":"4","last_reported":1721419836,"current_range_meters":30800,"station_id":"ce4bgnh2rcd13ifvqc0g","pricing_plan_id":"cebpf4jnsgd1na2vs0mg"},{"bike_id":"5edf3e1a-57e7-40c3-9db1-2ba138a6bb2a","system_id":"levelo_inurba_marseille","lat":43.296131,"lon":5.370773,"is_reserved":false,"is_disabled":false,"rental_uris":{"android":"levelo://app?vid=5edf3e1a-57e7-40c3-9db1-2ba138a6bb2a","ios":"levelo://app?vid=5edf3e1a-57e7-40c3-9db1-2ba138a6bb2a"},"vehicle_type_id":"4","last_reported":1721419836,"current_range_meters":4800,"station_id":"ce4bgnh2rcd13ifvqc0g","pricing_plan_id":"cebpf4jnsgd1na2vs0mg"},{"bike_id":"9ae34e3d-ea31-4e42-ba01-9436d9b228b8","system_id":"levelo_inurba_marseille","lat":43.2958,"lon":5.36742,"is_reserved":false,"is_disabled":false,"rental_uris":{"android":"levelo://app?vid=9ae34e3d-ea31-4e42-ba01-9436d9b228b8","ios":"levelo://app?vid=9ae34e3d-ea31-4e42-ba01-9436d9b228b8"},"vehicle_type_id":"4","last_reported":1721419836,"current_range_meters":0,"station_id":"ce4bgph2rcd13ifvqc2g","pricing_plan_id":"cebpf4jnsgd1na2vs0mg"},{"bike_id":"f8bd7348-9b80-4382-a0d5-bfe7c4db70df","system_id":"levelo_inurba_marseille","lat":43.296143,"lon":5.371627,"is_reserved":false,"is_disabled":false,"rental_uris":{"android":"levelo://app?vid=f8bd7348-9b80-4382-a0d5-bfe7c4db70df","ios":"levelo://app?vid=f8bd7348-9b80-4382-a0d5-bfe7c4db70df"},"vehicle_type_id":"4","last_reported":1721419836,"current_range_meters":4400,"station_id":"ce4bgnh2rcd13ifvqc0g","pricing_plan_id":"cebpf4jnsgd1na2vs0mg"},{"bike_id":"9db4647e-22ce-4c78-946a-598f331b50b5","system_id":"levelo_inurba_marseille","lat":43.29573,"lon":5.367355,"is_reserved":false,"is_disabled":false,"rental_uris":{"android":"levelo://app?vid=9db4647e-22ce-4c78-946a-598f331b50b5","ios":"levelo://app?vid=9db4647e-22ce-4c78-946a-598f331b50b5"},"vehicle_type_id":"4","last_reported":1721419836,"current_range_meters":11200,"station_id":"ce4bgph2rcd13ifvqc2g","pricing_plan_id":"cebpf4jnsgd1na2vs0mg"},{"bike_id":"45d31712-f8a1-4278-98ae-cd405c1330af","system_id":"levelo_inurba_marseille","lat":43.29573,"lon":5.367355,"is_reserved":false,"is_disabled":false,"rental_uris":{"android":"levelo://app?vid=45d31712-f8a1-4278-98ae-cd405c1330af","ios":"levelo://app?vid=45d31712-f8a1-4278-98ae-cd405c1330af"},"vehicle_type_id":"4","last_reported":1721419836,"current_range_meters":20400,"station_id":"ce4bgph2rcd13ifvqc2g","pricing_plan_id":"cebpf4jnsgd1na2vs0mg"},{"bike_id":"cc1603c4-246c-4198-8003-e529de0c19ca","system_id":"levelo_inurba_marseille","lat":43.29573,"lon":5.367355,"is_reserved":false,"is_disabled":false,"rental_uris":{"android":"levelo://app?vid=cc1603c4-246c-4198-8003-e529de0c19ca","ios":"levelo://app?vid=cc1603c4-246c-4198-8003-e529de0c19ca"},"vehicle_type_id":"4","last_reported":1721419836,"current_range_meters":2000,"station_id":"ce4bgph2rcd13ifvqc2g","pricing_plan_id":"cebpf4jnsgd1na2vs0mg"},{"bike_id":"13c032a4-901e-4a23-9cb0-da9b61c5bb1f","system_id":"levelo_inurba_marseille","lat":43.29573,"lon":5.367355,"is_reserved":false,"is_disabled":false,"rental_uris":{"android":"levelo://app?vid=13c032a4-901e-4a23-9cb0-da9b61c5bb1f","ios":"levelo://app?vid=13c032a4-901e-4a23-9cb0-da9b61c5bb1f"},"vehicle_type_id":"4","last_reported":1721419836,"current_range_meters":25200,"station_id":"ce4bgph2rcd13ifvqc2g","pricing_plan_id":"cebpf4jnsgd1na2vs0mg"},{"bike_id":"dbc97213-8e9c-48da-84ed-003c4fe76d83","system_id":"levelo_inurba_marseille","lat":43.29573,"lon":5.367355,"is_reserved":false,"is_disabled":false,"rental_uris":{"android":"levelo://app?vid=dbc97213-8e9c-48da-84ed-003c4fe76d83","ios":"levelo://app?vid=dbc97213-8e9c-48da-84ed-003c4fe76d83"},"vehicle_type_id":"4","last_reported":1721419836,"current_range_meters":11200,"station_id":"ce4bgph2rcd13ifvqc2g","pricing_plan_id":"cebpf4jnsgd1na2vs0mg"},{"bike_id":"fff47b42-72c8-4704-931f-34628cdb4d37","system_id":"levelo_inurba_marseille","lat":43.296921,"lon":5.376579,"is_reserved":false,"is_disabled":false,"rental_uris":{"android":"levelo://app?vid=fff47b42-72c8-4704-931f-34628cdb4d37","ios":"levelo://app?vid=fff47b42-72c8-4704-931f-34628cdb4d37"},"vehicle_type_id":"4","last_reported":1721419836,"current_range_meters":31200,"station_id":"ce4bgkh2rcd13ifvqbl0","pricing_plan_id":"cebpf4jnsgd1na2vs0mg"},{"bike_id":"93c16535-841d-4b3c-bd70-1df797c8fee1","system_id":"levelo_inurba_marseille","lat":43.309589,"lon":5.390258,"is_reserved":false,"is_disabled":false,"rental_uris":{"android":"levelo://app?vid=93c16535-841d-4b3c-bd70-1df797c8fee1","ios":"levelo://app?vid=93c16535-841d-4b3c-bd70-1df797c8fee1"},"vehicle_type_id":"4","last_reported":1721419836,"current_range_meters":9200,"station_id":"ce4bgup2rcd13ifvqco0","pricing_plan_id":"cebpf4jnsgd1na2vs0mg"},{"bike_id":"f09a2a2d-e20d-4108-b6ad-f672e2e99e5d","system_id":"levelo_inurba_marseille","lat":43.299028,"lon":5.381509,"is_reserved":false,"is_disabled":false,"rental_uris":{"android":"levelo://app?vid=f09a2a2d-e20d-4108-b6ad-f672e2e99e5d","ios":"levelo://app?vid=f09a2a2d-e20d-4108-b6ad-f672e2e99e5d"},"vehicle_type_id":"4","last_reported":1721419836,"current_range_meters":18800,"station_id":"ce4bgj12rcd13ifvqbc0","pricing_plan_id":"cebpf4jnsgd1na2vs0mg"},{"bike_id":"4c5dc36b-5473-4807-99e0-2398dabb65c2","system_id":"levelo_inurba_marseille","lat":43.296935,"lon":5.376544,"is_reserved":false,"is_disabled":false,"rental_uris":{"android":"levelo://app?vid=4c5dc36b-5473-4807-99e0-2398dabb65c2","ios":"levelo://app?vid=4c5dc36b-5473-4807-99e0-2398dabb65c2"},"vehicle_type_id":"4","last_reported":1721419836,"current_range_meters":1600,"station_id":"ce4bgkh2rcd13ifvqbl0","pricing_plan_id":"cebpf4jnsgd1na2vs0mg"},{"bike_id":"b79d17e6-757d-46f4-8213-9a15ec39f531","system_id":"levelo_inurba_marseille","lat":43.296921,"lon":5.376579,"is_reserved":false,"is_disabled":false,"rental_uris":{"android":"levelo://app?vid=b79d17e6-757d-46f4-8213-9a15ec39f531","ios":"levelo://app?vid=b79d17e6-757d-46f4-8213-9a15ec39f531"},"vehicle_type_id":"4","last_reported":1721419836,"current_range_meters":21600,"station_id":"ce4bgkh2rcd13ifvqbl0","pricing_plan_id":"cebpf4jnsgd1na2vs0mg"},{"bike_id":"ea66750d-32ac-425c-8852-20911de174d4","system_id":"levelo_inurba_marseille","lat":43.309589,"lon":5.390258,"is_reserved":false,"is_disabled":false,"rental_uris":{"android":"levelo://app?vid=ea66750d-32ac-425c-8852-20911de174d4","ios":"levelo://app?vid=ea66750d-32ac-425c-8852-20911de174d4"},"vehicle_type_id":"4","last_reported":1721419836,"current_range_meters":14000,"station_id":"ce4bgup2rcd13ifvqco0","pricing_plan_id":"cebpf4jnsgd1na2vs0mg"},{"bike_id":"2ddbe7e8-2131-4119-b68d-c6e0ea7ad516","system_id":"levelo_inurba_marseille","lat":43.309589,"lon":5.390258,"is_reserved":false,"is_disabled":false,"rental_uris":{"android":"levelo://app?vid=2ddbe7e8-2131-4119-b68d-c6e0ea7ad516","ios":"levelo://app?vid=2ddbe7e8-2131-4119-b68d-c6e0ea7ad516"},"vehicle_type_id":"4","last_reported":1721419836,"current_range_meters":19600,"station_id":"ce4bgup2rcd13ifvqco0","pricing_plan_id":"cebpf4jnsgd1na2vs0mg"},{"bike_id":"d93adae5-5e6b-48bf-a2e0-4fd16db0dd7c","system_id":"levelo_inurba_marseille","lat":43.296935,"lon":5.376544,"is_reserved":false,"is_disabled":false,"rental_uris":{"android":"levelo://app?vid=d93adae5-5e6b-48bf-a2e0-4fd16db0dd7c","ios":"levelo://app?vid=d93adae5-5e6b-48bf-a2e0-4fd16db0dd7c"},"vehicle_type_id":"4","last_reported":1721419836,"current_range_meters":22800,"station_id":"ce4bgkh2rcd13ifvqbl0","pricing_plan_id":"cebpf4jnsgd1na2vs0mg"},{"bike_id":"9726e420-1af4-46b9-b3db-56b88e7317a8","system_id":"levelo_inurba_marseille","lat":43.309608,"lon":5.390297,"is_reserved":false,"is_disabled":false,"rental_uris":{"android":"levelo://app?vid=9726e420-1af4-46b9-b3db-56b88e7317a8","ios":"levelo://app?vid=9726e420-1af4-46b9-b3db-56b88e7317a8"},"vehicle_type_id":"4","last_reported":1721419836,"current_range_meters":16000,"station_id":"ce4bgup2rcd13ifvqco0","pricing_plan_id":"cebpf4jnsgd1na2vs0mg"},{"bike_id":"37e396b7-d5cb-414c-b979-4e62c45140d4","system_id":"levelo_inurba_marseille","lat":43.309589,"lon":5.390258,"is_reserved":false,"is_disabled":false,"rental_uris":{"android":"levelo://app?vid=37e396b7-d5cb-414c-b979-4e62c45140d4","ios":"levelo://app?vid=37e396b7-d5cb-414c-b979-4e62c45140d4"},"vehicle_type_id":"4","last_reported":1721419836,"current_range_meters":30400,"station_id":"ce4bgup2rcd13ifvqco0","pricing_plan_id":"cebpf4jnsgd1na2vs0mg"},{"bike_id":"56eecbc4-92ed-4cf5-9c32-594869e21110","system_id":"levelo_inurba_marseille","lat":43.309589,"lon":5.390258,"is_reserved":false,"is_disabled":false,"rental_uris":{"android":"levelo://app?vid=56eecbc4-92ed-4cf5-9c32-594869e21110","ios":"levelo://app?vid=56eecbc4-92ed-4cf5-9c32-594869e21110"},"vehicle_type_id":"4","last_reported":1721419836,"current_range_meters":4800,"station_id":"ce4bgup2rcd13ifvqco0","pricing_plan_id":"cebpf4jnsgd1na2vs0mg"},{"bike_id":"2d58099c-1843-42f2-9d08-2affe9c6f551","system_id":"levelo_inurba_marseille","lat":43.3095,"lon":5.39029,"is_reserved":false,"is_disabled":false,"rental_uris":{"android":"levelo://app?vid=2d58099c-1843-42f2-9d08-2affe9c6f551","ios":"levelo://app?vid=2d58099c-1843-42f2-9d08-2affe9c6f551"},"vehicle_type_id":"4","last_reported":1721419836,"current_range_meters":4800,"station_id":"ce4bgup2rcd13ifvqco0","pricing_plan_id":"cebpf4jnsgd1na2vs0mg"},{"bike_id":"8601520c-c4e6-4495-b75a-442b61c67f14","system_id":"levelo_inurba_marseille","lat":43.30956,"lon":5.39031,"is_reserved":false,"is_disabled":false,"rental_uris":{"android":"levelo://app?vid=8601520c-c4e6-4495-b75a-442b61c67f14","ios":"levelo://app?vid=8601520c-c4e6-4495-b75a-442b61c67f14"},"vehicle_type_id":"4","last_reported":1721419836,"current_range_meters":0,"station_id":"ce4bgup2rcd13ifvqco0","pricing_plan_id":"cebpf4jnsgd1na2vs0mg"},{"bike_id":"86d2720d-83b2-475d-99cc-2345c27f053d","system_id":"levelo_inurba_marseille","lat":43.309589,"lon":5.390258,"is_reserved":false,"is_disabled":false,"rental_uris":{"android":"levelo://app?vid=86d2720d-83b2-475d-99cc-2345c27f053d","ios":"levelo://app?vid=86d2720d-83b2-475d-99cc-2345c27f053d"},"vehicle_type_id":"4","last_reported":1721419836,"current_range_meters":6000,"station_id":"ce4bgup2rcd13ifvqco0","pricing_plan_id":"cebpf4jnsgd1na2vs0mg"},{"bike_id":"0d283bf9-e385-4fb4-91ff-220ff39d23bb","system_id":"levelo_inurba_marseille","lat":43.309589,"lon":5.390258,"is_reserved":false,"is_disabled":false,"rental_uris":{"android":"levelo://app?vid=0d283bf9-e385-4fb4-91ff-220ff39d23bb","ios":"levelo://app?vid=0d283bf9-e385-4fb4-91ff-220ff39d23bb"},"vehicle_type_id":"4","last_reported":1721419836,"current_range_meters":18800,"station_id":"ce4bgup2rcd13ifvqco0","pricing_plan_id":"cebpf4jnsgd1na2vs0mg"},{"bike_id":"250a9eca-a9d4-45f8-9aeb-cec9cae7c741","system_id":"levelo_inurba_marseille","lat":43.309589,"lon":5.390258,"is_reserved":false,"is_disabled":false,"rental_uris":{"android":"levelo://app?vid=250a9eca-a9d4-45f8-9aeb-cec9cae7c741","ios":"levelo://app?vid=250a9eca-a9d4-45f8-9aeb-cec9cae7c741"},"vehicle_type_id":"4","last_reported":1721419836,"current_range_meters":4800,"station_id":"ce4bgup2rcd13ifvqco0","pricing_plan_id":"cebpf4jnsgd1na2vs0mg"},{"bike_id":"8569072f-468b-4dca-89ee-513a76231022","system_id":"levelo_inurba_marseille","lat":43.30953,"lon":5.39037,"is_reserved":false,"is_disabled":false,"rental_uris":{"android":"levelo://app?vid=8569072f-468b-4dca-89ee-513a76231022","ios":"levelo://app?vid=8569072f-468b-4dca-89ee-513a76231022"},"vehicle_type_id":"4","last_reported":1721419836,"current_range_meters":0,"station_id":"ce4bgup2rcd13ifvqco0","pricing_plan_id":"cebpf4jnsgd1na2vs0mg"},{"bike_id":"1c282fac-6085-45b5-9c7e-1b237ffe46dc","system_id":"levelo_inurba_marseille","lat":43.309589,"lon":5.390258,"is_reserved":false,"is_disabled":false,"rental_uris":{"android":"levelo://app?vid=1c282fac-6085-45b5-9c7e-1b237ffe46dc","ios":"levelo://app?vid=1c282fac-6085-45b5-9c7e-1b237ffe46dc"},"vehicle_type_id":"4","last_reported":1721419836,"current_range_meters":0,"station_id":"ce4bgup2rcd13ifvqco0","pricing_plan_id":"cebpf4jnsgd1na2vs0mg"},{"bike_id":"6003365c-daac-4a55-a282-ff4322cbf1d6","system_id":"levelo_inurba_marseille","lat":43.309589,"lon":5.390258,"is_reserved":false,"is_disabled":false,"rental_uris":{"android":"levelo://app?vid=6003365c-daac-4a55-a282-ff4322cbf1d6","ios":"levelo://app?vid=6003365c-daac-4a55-a282-ff4322cbf1d6"},"vehicle_type_id":"4","last_reported":1721419836,"current_range_meters":26800,"station_id":"ce4bgup2rcd13ifvqco0","pricing_plan_id":"cebpf4jnsgd1na2vs0mg"},{"bike_id":"e2fdefb9-642e-4298-8ea9-a38477109dca","system_id":"levelo_inurba_marseille","lat":43.3095,"lon":5.39043,"is_reserved":false,"is_disabled":false,"rental_uris":{"android":"levelo://app?vid=e2fdefb9-642e-4298-8ea9-a38477109dca","ios":"levelo://app?vid=e2fdefb9-642e-4298-8ea9-a38477109dca"},"vehicle_type_id":"4","last_reported":1721419836,"current_range_meters":0,"station_id":"ce4bgup2rcd13ifvqco0","pricing_plan_id":"cebpf4jnsgd1na2vs0mg"},{"bike_id":"772de8c2-a415-42ec-8660-ca6754f624ac","system_id":"levelo_inurba_marseille","lat":43.309589,"lon":5.390258,"is_reserved":false,"is_disabled":false,"rental_uris":{"android":"levelo://app?vid=772de8c2-a415-42ec-8660-ca6754f624ac","ios":"levelo://app?vid=772de8c2-a415-42ec-8660-ca6754f624ac"},"vehicle_type_id":"4","last_reported":1721419836,"current_range_meters":27200,"station_id":"ce4bgup2rcd13ifvqco0","pricing_plan_id":"cebpf4jnsgd1na2vs0mg"},{"bike_id":"71e99181-7d02-46c6-a4c6-7f82209efa02","system_id":"levelo_inurba_marseille","lat":43.2968,"lon":5.37291,"is_reserved":false,"is_disabled":false,"rental_uris":{"android":"levelo://app?vid=71e99181-7d02-46c6-a4c6-7f82209efa02","ios":"levelo://app?vid=71e99181-7d02-46c6-a4c6-7f82209efa02"},"vehicle_type_id":"4","last_reported":1721419836,"current_range_meters":10800,"station_id":"ce4bgk12rcd13ifvqbj0","pricing_plan_id":"cebpf4jnsgd1na2vs0mg"},{"bike_id":"0b32c8d8-729e-4964-839f-c5131ad080d1","system_id":"levelo_inurba_marseille","lat":43.296935,"lon":5.376544,"is_reserved":false,"is_disabled":false,"rental_uris":{"android":"levelo://app?vid=0b32c8d8-729e-4964-839f-c5131ad080d1","ios":"levelo://app?vid=0b32c8d8-729e-4964-839f-c5131ad080d1"},"vehicle_type_id":"4","last_reported":1721419836,"current_range_meters":26800,"station_id":"ce4bgkh2rcd13ifvqbl0","pricing_plan_id":"cebpf4jnsgd1na2vs0mg"},{"bike_id":"3d574c34-a5d3-4e7f-99ce-916c8b9a3e14","system_id":"levelo_inurba_marseille","lat":43.31751,"lon":5.39008,"is_reserved":false,"is_disabled":false,"rental_uris":{"android":"levelo://app?vid=3d574c34-a5d3-4e7f-99ce-916c8b9a3e14","ios":"levelo://app?vid=3d574c34-a5d3-4e7f-99ce-916c8b9a3e14"},"vehicle_type_id":"4","last_reported":1721419836,"current_range_meters":4800,"station_id":"ce4bhqp2rcd13ifvqhng","pricing_plan_id":"cebpf4jnsgd1na2vs0mg"},{"bike_id":"5f154e1d-c496-4175-9805-325468cb7673","system_id":"levelo_inurba_marseille","lat":43.317557,"lon":5.390173,"is_reserved":false,"is_disabled":false,"rental_uris":{"android":"levelo://app?vid=5f154e1d-c496-4175-9805-325468cb7673","ios":"levelo://app?vid=5f154e1d-c496-4175-9805-325468cb7673"},"vehicle_type_id":"4","last_reported":1721419836,"current_range_meters":11200,"station_id":"ce4bhqp2rcd13ifvqhng","pricing_plan_id":"cebpf4jnsgd1na2vs0mg"},{"bike_id":"d1ae3a85-b382-4fe2-a663-a335c1ab946c","system_id":"levelo_inurba_marseille","lat":43.31759,"lon":5.39011,"is_reserved":false,"is_disabled":false,"rental_uris":{"android":"levelo://app?vid=d1ae3a85-b382-4fe2-a663-a335c1ab946c","ios":"levelo://app?vid=d1ae3a85-b382-4fe2-a663-a335c1ab946c"},"vehicle_type_id":"4","last_reported":1721419836,"current_range_meters":20800,"station_id":"ce4bhqp2rcd13ifvqhng","pricing_plan_id":"cebpf4jnsgd1na2vs0mg"},{"bike_id":"fceade41-7754-4a2e-a9f5-28d21d240216","system_id":"levelo_inurba_marseille","lat":43.317557,"lon":5.390173,"is_reserved":false,"is_disabled":false,"rental_uris":{"android":"levelo://app?vid=fceade41-7754-4a2e-a9f5-28d21d240216","ios":"levelo://app?vid=fceade41-7754-4a2e-a9f5-28d21d240216"},"vehicle_type_id":"4","last_reported":1721419836,"current_range_meters":23200,"station_id":"ce4bhqp2rcd13ifvqhng","pricing_plan_id":"cebpf4jnsgd1na2vs0mg"},{"bike_id":"1d8d5629-43b8-453e-b30c-8a5968289c34","system_id":"levelo_inurba_marseille","lat":43.29573,"lon":5.367355,"is_reserved":false,"is_disabled":false,"rental_uris":{"android":"levelo://app?vid=1d8d5629-43b8-453e-b30c-8a5968289c34","ios":"levelo://app?vid=1d8d5629-43b8-453e-b30c-8a5968289c34"},"vehicle_type_id":"4","last_reported":1721419836,"current_range_meters":23600,"station_id":"ce4bgph2rcd13ifvqc2g","pricing_plan_id":"cebpf4jnsgd1na2vs0mg"},{"bike_id":"80c6fff3-5b70-4a5a-99eb-4dc99c960090","system_id":"levelo_inurba_marseille","lat":43.31759,"lon":5.39015,"is_reserved":false,"is_disabled":false,"rental_uris":{"android":"levelo://app?vid=80c6fff3-5b70-4a5a-99eb-4dc99c960090","ios":"levelo://app?vid=80c6fff3-5b70-4a5a-99eb-4dc99c960090"},"vehicle_type_id":"4","last_reported":1721419836,"current_range_meters":8800,"station_id":"ce4bhqp2rcd13ifvqhng","pricing_plan_id":"cebpf4jnsgd1na2vs0mg"},{"bike_id":"fff0ffb6-8a52-4821-8a28-4a92071acb18","system_id":"levelo_inurba_marseille","lat":43.317557,"lon":5.390173,"is_reserved":false,"is_disabled":false,"rental_uris":{"android":"levelo://app?vid=fff0ffb6-8a52-4821-8a28-4a92071acb18","ios":"levelo://app?vid=fff0ffb6-8a52-4821-8a28-4a92071acb18"},"vehicle_type_id":"4","last_reported":1721419836,"current_range_meters":27200,"station_id":"ce4bhqp2rcd13ifvqhng","pricing_plan_id":"cebpf4jnsgd1na2vs0mg"},{"bike_id":"ed9978a7-ad64-42c5-b59f-cc5623c35520","system_id":"levelo_inurba_marseille","lat":43.317557,"lon":5.390173,"is_reserved":false,"is_disabled":false,"rental_uris":{"android":"levelo://app?vid=ed9978a7-ad64-42c5-b59f-cc5623c35520","ios":"levelo://app?vid=ed9978a7-ad64-42c5-b59f-cc5623c35520"},"vehicle_type_id":"4","last_reported":1721419836,"current_range_meters":12400,"station_id":"ce4bhqp2rcd13ifvqhng","pricing_plan_id":"cebpf4jnsgd1na2vs0mg"},{"bike_id":"2ca9d7ee-345a-47b6-a468-20743cec9600","system_id":"levelo_inurba_marseille","lat":43.3175,"lon":5.39024,"is_reserved":false,"is_disabled":false,"rental_uris":{"android":"levelo://app?vid=2ca9d7ee-345a-47b6-a468-20743cec9600","ios":"levelo://app?vid=2ca9d7ee-345a-47b6-a468-20743cec9600"},"vehicle_type_id":"4","last_reported":1721419836,"current_range_meters":2400,"station_id":"ce4bhqp2rcd13ifvqhng","pricing_plan_id":"cebpf4jnsgd1na2vs0mg"},{"bike_id":"96cdc6d5-0303-4840-b3bf-2f0a60daf126","system_id":"levelo_inurba_marseille","lat":43.309589,"lon":5.390258,"is_reserved":false,"is_disabled":false,"rental_uris":{"android":"levelo://app?vid=96cdc6d5-0303-4840-b3bf-2f0a60daf126","ios":"levelo://app?vid=96cdc6d5-0303-4840-b3bf-2f0a60daf126"},"vehicle_type_id":"4","last_reported":1721419836,"current_range_meters":3200,"station_id":"ce4bgup2rcd13ifvqco0","pricing_plan_id":"cebpf4jnsgd1na2vs0mg"},{"bike_id":"07c75007-0042-4bd6-96ab-dcda9ffb2cb4","system_id":"levelo_inurba_marseille","lat":43.298037,"lon":5.381066,"is_reserved":false,"is_disabled":false,"rental_uris":{"android":"levelo://app?vid=07c75007-0042-4bd6-96ab-dcda9ffb2cb4","ios":"levelo://app?vid=07c75007-0042-4bd6-96ab-dcda9ffb2cb4"},"vehicle_type_id":"4","last_reported":1721419836,"current_range_meters":3200,"station_id":"ce4bgip2rcd13ifvqbb0","pricing_plan_id":"cebpf4jnsgd1na2vs0mg"},{"bike_id":"df2d0fc7-d8d2-47fa-b6e1-41f9c65ed7cd","system_id":"levelo_inurba_marseille","lat":43.298037,"lon":5.381066,"is_reserved":false,"is_disabled":false,"rental_uris":{"android":"levelo://app?vid=df2d0fc7-d8d2-47fa-b6e1-41f9c65ed7cd","ios":"levelo://app?vid=df2d0fc7-d8d2-47fa-b6e1-41f9c65ed7cd"},"vehicle_type_id":"4","last_reported":1721419836,"current_range_meters":5600,"station_id":"ce4bgip2rcd13ifvqbb0","pricing_plan_id":"cebpf4jnsgd1na2vs0mg"},{"bike_id":"dc3918c9-690f-4b90-a817-07e561e3a504","system_id":"levelo_inurba_marseille","lat":43.295748,"lon":5.37522,"is_reserved":false,"is_disabled":false,"rental_uris":{"android":"levelo://app?vid=dc3918c9-690f-4b90-a817-07e561e3a504","ios":"levelo://app?vid=dc3918c9-690f-4b90-a817-07e561e3a504"},"vehicle_type_id":"4","last_reported":1721419836,"current_range_meters":31200,"station_id":"ce4bgh92rcd13ifvqb50","pricing_plan_id":"cebpf4jnsgd1na2vs0mg"},{"bike_id":"fe32859e-90f0-4f0f-8b4a-65cb56e02894","system_id":"levelo_inurba_marseille","lat":43.295748,"lon":5.37522,"is_reserved":false,"is_disabled":false,"rental_uris":{"android":"levelo://app?vid=fe32859e-90f0-4f0f-8b4a-65cb56e02894","ios":"levelo://app?vid=fe32859e-90f0-4f0f-8b4a-65cb56e02894"},"vehicle_type_id":"4","last_reported":1721419836,"current_range_meters":7200,"station_id":"ce4bgh92rcd13ifvqb50","pricing_plan_id":"cebpf4jnsgd1na2vs0mg"},{"bike_id":"85805a8d-8ede-43a1-ac72-ecfbf54d72ce","system_id":"levelo_inurba_marseille","lat":43.298037,"lon":5.381066,"is_reserved":false,"is_disabled":false,"rental_uris":{"android":"levelo://app?vid=85805a8d-8ede-43a1-ac72-ecfbf54d72ce","ios":"levelo://app?vid=85805a8d-8ede-43a1-ac72-ecfbf54d72ce"},"vehicle_type_id":"4","last_reported":1721419836,"current_range_meters":5200,"station_id":"ce4bgip2rcd13ifvqbb0","pricing_plan_id":"cebpf4jnsgd1na2vs0mg"},{"bike_id":"78267abf-3d3f-4b3e-a8f0-02f99bae97d0","system_id":"levelo_inurba_marseille","lat":43.295748,"lon":5.37522,"is_reserved":false,"is_disabled":false,"rental_uris":{"android":"levelo://app?vid=78267abf-3d3f-4b3e-a8f0-02f99bae97d0","ios":"levelo://app?vid=78267abf-3d3f-4b3e-a8f0-02f99bae97d0"},"vehicle_type_id":"4","last_reported":1721419836,"current_range_meters":18400,"station_id":"ce4bgh92rcd13ifvqb50","pricing_plan_id":"cebpf4jnsgd1na2vs0mg"},{"bike_id":"5dc1928d-01b0-4b1d-abba-c9d1d8f605d1","system_id":"levelo_inurba_marseille","lat":43.29571,"lon":5.3751,"is_reserved":false,"is_disabled":false,"rental_uris":{"android":"levelo://app?vid=5dc1928d-01b0-4b1d-abba-c9d1d8f605d1","ios":"levelo://app?vid=5dc1928d-01b0-4b1d-abba-c9d1d8f605d1"},"vehicle_type_id":"4","last_reported":1721419836,"current_range_meters":30000,"station_id":"ce4bgh92rcd13ifvqb50","pricing_plan_id":"cebpf4jnsgd1na2vs0mg"},{"bike_id":"5e29209f-59cf-4f65-9cd3-888d14bf2e20","system_id":"levelo_inurba_marseille","lat":43.29568,"lon":5.37515,"is_reserved":false,"is_disabled":false,"rental_uris":{"android":"levelo://app?vid=5e29209f-59cf-4f65-9cd3-888d14bf2e20","ios":"levelo://app?vid=5e29209f-59cf-4f65-9cd3-888d14bf2e20"},"vehicle_type_id":"4","last_reported":1721419836,"current_range_meters":0,"station_id":"ce4bgh92rcd13ifvqb50","pricing_plan_id":"cebpf4jnsgd1na2vs0mg"},{"bike_id":"35d50d4c-5be4-410e-9f2c-8d667c7052a3","system_id":"levelo_inurba_marseille","lat":43.295748,"lon":5.37522,"is_reserved":false,"is_disabled":false,"rental_uris":{"android":"levelo://app?vid=35d50d4c-5be4-410e-9f2c-8d667c7052a3","ios":"levelo://app?vid=35d50d4c-5be4-410e-9f2c-8d667c7052a3"},"vehicle_type_id":"4","last_reported":1721419836,"current_range_meters":30000,"station_id":"ce4bgh92rcd13ifvqb50","pricing_plan_id":"cebpf4jnsgd1na2vs0mg"},{"bike_id":"f9440eb2-607e-4c4c-b9a8-b65a06cc9e27","system_id":"levelo_inurba_marseille","lat":43.295748,"lon":5.37522,"is_reserved":false,"is_disabled":false,"rental_uris":{"android":"levelo://app?vid=f9440eb2-607e-4c4c-b9a8-b65a06cc9e27","ios":"levelo://app?vid=f9440eb2-607e-4c4c-b9a8-b65a06cc9e27"},"vehicle_type_id":"4","last_reported":1721419836,"current_range_meters":14800,"station_id":"ce4bgh92rcd13ifvqb50","pricing_plan_id":"cebpf4jnsgd1na2vs0mg"},{"bike_id":"d0556233-bc89-4fa0-977b-6035e0671306","system_id":"levelo_inurba_marseille","lat":43.304278,"lon":5.388868,"is_reserved":false,"is_disabled":false,"rental_uris":{"android":"levelo://app?vid=d0556233-bc89-4fa0-977b-6035e0671306","ios":"levelo://app?vid=d0556233-bc89-4fa0-977b-6035e0671306"},"vehicle_type_id":"4","last_reported":1721419836,"current_range_meters":24800,"station_id":"ce4bgk12rcd13ifvqbi0","pricing_plan_id":"cebpf4jnsgd1na2vs0mg"},{"bike_id":"ed8daf29-b59c-4cd3-8d1f-50637d94b735","system_id":"levelo_inurba_marseille","lat":43.29785,"lon":5.3811,"is_reserved":false,"is_disabled":false,"rental_uris":{"android":"levelo://app?vid=ed8daf29-b59c-4cd3-8d1f-50637d94b735","ios":"levelo://app?vid=ed8daf29-b59c-4cd3-8d1f-50637d94b735"},"vehicle_type_id":"4","last_reported":1721419836,"current_range_meters":16000,"station_id":"ce4bgip2rcd13ifvqbb0","pricing_plan_id":"cebpf4jnsgd1na2vs0mg"},{"bike_id":"c486eca0-6986-4260-9d58-a0b40ff75ee9","system_id":"levelo_inurba_marseille","lat":43.296263,"lon":5.377094,"is_reserved":false,"is_disabled":false,"rental_uris":{"android":"levelo://app?vid=c486eca0-6986-4260-9d58-a0b40ff75ee9","ios":"levelo://app?vid=c486eca0-6986-4260-9d58-a0b40ff75ee9"},"vehicle_type_id":"4","last_reported":1721419836,"current_range_meters":23600,"station_id":"ce4bgi92rcd13ifvqb90","pricing_plan_id":"cebpf4jnsgd1na2vs0mg"},{"bike_id":"bc0ca7d2-eb6d-4078-8a70-ea821190e48e","system_id":"levelo_inurba_marseille","lat":43.296277,"lon":5.377108,"is_reserved":false,"is_disabled":false,"rental_uris":{"android":"levelo://app?vid=bc0ca7d2-eb6d-4078-8a70-ea821190e48e","ios":"levelo://app?vid=bc0ca7d2-eb6d-4078-8a70-ea821190e48e"},"vehicle_type_id":"4","last_reported":1721419836,"current_range_meters":24800,"station_id":"ce4bgi92rcd13ifvqb90","pricing_plan_id":"cebpf4jnsgd1na2vs0mg"},{"bike_id":"52ec5e19-bc70-4bb0-ba42-222664ab006d","system_id":"levelo_inurba_marseille","lat":43.29617,"lon":5.37717,"is_reserved":false,"is_disabled":false,"rental_uris":{"android":"levelo://app?vid=52ec5e19-bc70-4bb0-ba42-222664ab006d","ios":"levelo://app?vid=52ec5e19-bc70-4bb0-ba42-222664ab006d"},"vehicle_type_id":"4","last_reported":1721419836,"current_range_meters":0,"station_id":"ce4bgi92rcd13ifvqb90","pricing_plan_id":"cebpf4jnsgd1na2vs0mg"},{"bike_id":"5627f97d-918c-4cf4-937e-2a9c9aa71926","system_id":"levelo_inurba_marseille","lat":43.29617,"lon":5.37719,"is_reserved":false,"is_disabled":false,"rental_uris":{"android":"levelo://app?vid=5627f97d-918c-4cf4-937e-2a9c9aa71926","ios":"levelo://app?vid=5627f97d-918c-4cf4-937e-2a9c9aa71926"},"vehicle_type_id":"4","last_reported":1721419836,"current_range_meters":4000,"station_id":"ce4bgi92rcd13ifvqb90","pricing_plan_id":"cebpf4jnsgd1na2vs0mg"},{"bike_id":"d8c0503d-0705-44c1-a095-281c1b367c50","system_id":"levelo_inurba_marseille","lat":43.296221,"lon":5.377359,"is_reserved":false,"is_disabled":false,"rental_uris":{"android":"levelo://app?vid=d8c0503d-0705-44c1-a095-281c1b367c50","ios":"levelo://app?vid=d8c0503d-0705-44c1-a095-281c1b367c50"},"vehicle_type_id":"4","last_reported":1721419836,"current_range_meters":29600,"station_id":"ce4bgi92rcd13ifvqb90","pricing_plan_id":"cebpf4jnsgd1na2vs0mg"},{"bike_id":"2b1dd5c8-245d-42d4-b019-6aff04182e35","system_id":"levelo_inurba_marseille","lat":43.296277,"lon":5.377108,"is_reserved":false,"is_disabled":false,"rental_uris":{"android":"levelo://app?vid=2b1dd5c8-245d-42d4-b019-6aff04182e35","ios":"levelo://app?vid=2b1dd5c8-245d-42d4-b019-6aff04182e35"},"vehicle_type_id":"4","last_reported":1721419836,"current_range_meters":21200,"station_id":"ce4bgi92rcd13ifvqb90","pricing_plan_id":"cebpf4jnsgd1na2vs0mg"},{"bike_id":"76cb9bfa-1d97-4e74-bf2c-d429c1542f30","system_id":"levelo_inurba_marseille","lat":43.29611,"lon":5.37716,"is_reserved":false,"is_disabled":false,"rental_uris":{"android":"levelo://app?vid=76cb9bfa-1d97-4e74-bf2c-d429c1542f30","ios":"levelo://app?vid=76cb9bfa-1d97-4e74-bf2c-d429c1542f30"},"vehicle_type_id":"4","last_reported":1721419836,"current_range_meters":30800,"station_id":"ce4bgi92rcd13ifvqb90","pricing_plan_id":"cebpf4jnsgd1na2vs0mg"},{"bike_id":"2ee70559-efbe-4c25-b2b6-d455bc22e70d","system_id":"levelo_inurba_marseille","lat":43.29611,"lon":5.37719,"is_reserved":false,"is_disabled":false,"rental_uris":{"android":"levelo://app?vid=2ee70559-efbe-4c25-b2b6-d455bc22e70d","ios":"levelo://app?vid=2ee70559-efbe-4c25-b2b6-d455bc22e70d"},"vehicle_type_id":"4","last_reported":1721419836,"current_range_meters":27600,"station_id":"ce4bgi92rcd13ifvqb90","pricing_plan_id":"cebpf4jnsgd1na2vs0mg"},{"bike_id":"5ad03d29-19db-4a38-9b29-99843df02f30","system_id":"levelo_inurba_marseille","lat":43.296277,"lon":5.377108,"is_reserved":false,"is_disabled":false,"rental_uris":{"android":"levelo://app?vid=5ad03d29-19db-4a38-9b29-99843df02f30","ios":"levelo://app?vid=5ad03d29-19db-4a38-9b29-99843df02f30"},"vehicle_type_id":"4","last_reported":1721419836,"current_range_meters":21600,"station_id":"ce4bgi92rcd13ifvqb90","pricing_plan_id":"cebpf4jnsgd1na2vs0mg"},{"bike_id":"6079823c-50b8-4f2b-b0a2-5266fef57eee","system_id":"levelo_inurba_marseille","lat":43.29539,"lon":5.37507,"is_reserved":false,"is_disabled":false,"rental_uris":{"android":"levelo://app?vid=6079823c-50b8-4f2b-b0a2-5266fef57eee","ios":"levelo://app?vid=6079823c-50b8-4f2b-b0a2-5266fef57eee"},"vehicle_type_id":"4","last_reported":1721419836,"current_range_meters":16400,"station_id":"ce4bgkp2rcd13ifvqbmg","pricing_plan_id":"cebpf4jnsgd1na2vs0mg"},{"bike_id":"4afdc862-16bc-4670-ac8a-f28ad6b0af01","system_id":"levelo_inurba_marseille","lat":43.304,"lon":5.389117,"is_reserved":false,"is_disabled":false,"rental_uris":{"android":"levelo://app?vid=4afdc862-16bc-4670-ac8a-f28ad6b0af01","ios":"levelo://app?vid=4afdc862-16bc-4670-ac8a-f28ad6b0af01"},"vehicle_type_id":"4","last_reported":1721419836,"current_range_meters":20800,"station_id":"","pricing_plan_id":"cebpf4jnsgd1na2vs0mg"},{"bike_id":"3f6d328d-e099-45ec-a6b7-cc8e2b9c7e60","system_id":"levelo_inurba_marseille","lat":43.29975,"lon":5.3849,"is_reserved":false,"is_disabled":false,"rental_uris":{"android":"levelo://app?vid=3f6d328d-e099-45ec-a6b7-cc8e2b9c7e60","ios":"levelo://app?vid=3f6d328d-e099-45ec-a6b7-cc8e2b9c7e60"},"vehicle_type_id":"4","last_reported":1721419836,"current_range_meters":8800,"station_id":"ce4bgj92rcd13ifvqbd0","pricing_plan_id":"cebpf4jnsgd1na2vs0mg"},{"bike_id":"54d2cb39-a44a-4df8-b6cc-9c2e9491e575","system_id":"levelo_inurba_marseille","lat":43.299724,"lon":5.384848,"is_reserved":false,"is_disabled":false,"rental_uris":{"android":"levelo://app?vid=54d2cb39-a44a-4df8-b6cc-9c2e9491e575","ios":"levelo://app?vid=54d2cb39-a44a-4df8-b6cc-9c2e9491e575"},"vehicle_type_id":"4","last_reported":1721419836,"current_range_meters":1600,"station_id":"ce4bgj92rcd13ifvqbd0","pricing_plan_id":"cebpf4jnsgd1na2vs0mg"},{"bike_id":"eaa4d74c-8dd2-4d1d-bd40-b40a976ced79","system_id":"levelo_inurba_marseille","lat":43.296277,"lon":5.377108,"is_reserved":false,"is_disabled":false,"rental_uris":{"android":"levelo://app?vid=eaa4d74c-8dd2-4d1d-bd40-b40a976ced79","ios":"levelo://app?vid=eaa4d74c-8dd2-4d1d-bd40-b40a976ced79"},"vehicle_type_id":"4","last_reported":1721419836,"current_range_meters":31200,"station_id":"ce4bgi92rcd13ifvqb90","pricing_plan_id":"cebpf4jnsgd1na2vs0mg"},{"bike_id":"ec1ca67d-604c-4db5-87ea-1bf66eacfd3e","system_id":"levelo_inurba_marseille","lat":43.299707,"lon":5.384859,"is_reserved":false,"is_disabled":false,"rental_uris":{"android":"levelo://app?vid=ec1ca67d-604c-4db5-87ea-1bf66eacfd3e","ios":"levelo://app?vid=ec1ca67d-604c-4db5-87ea-1bf66eacfd3e"},"vehicle_type_id":"4","last_reported":1721419836,"current_range_meters":20400,"station_id":"ce4bgj92rcd13ifvqbd0","pricing_plan_id":"cebpf4jnsgd1na2vs0mg"},{"bike_id":"b75b8bf1-fc2a-4daf-9aa4-65adac31f85a","system_id":"levelo_inurba_marseille","lat":43.299707,"lon":5.384859,"is_reserved":false,"is_disabled":false,"rental_uris":{"android":"levelo://app?vid=b75b8bf1-fc2a-4daf-9aa4-65adac31f85a","ios":"levelo://app?vid=b75b8bf1-fc2a-4daf-9aa4-65adac31f85a"},"vehicle_type_id":"4","last_reported":1721419836,"current_range_meters":20400,"station_id":"ce4bgj92rcd13ifvqbd0","pricing_plan_id":"cebpf4jnsgd1na2vs0mg"},{"bike_id":"42ab16d5-ed66-4b05-b746-3546e7a9d75e","system_id":"levelo_inurba_marseille","lat":43.29965,"lon":5.38492,"is_reserved":false,"is_disabled":false,"rental_uris":{"android":"levelo://app?vid=42ab16d5-ed66-4b05-b746-3546e7a9d75e","ios":"levelo://app?vid=42ab16d5-ed66-4b05-b746-3546e7a9d75e"},"vehicle_type_id":"4","last_reported":1721419836,"current_range_meters":0,"station_id":"ce4bgj92rcd13ifvqbd0","pricing_plan_id":"cebpf4jnsgd1na2vs0mg"},{"bike_id":"18491e9b-089a-423d-92a6-2224fb4ac1cb","system_id":"levelo_inurba_marseille","lat":43.30473,"lon":5.39011,"is_reserved":false,"is_disabled":false,"rental_uris":{"android":"levelo://app?vid=18491e9b-089a-423d-92a6-2224fb4ac1cb","ios":"levelo://app?vid=18491e9b-089a-423d-92a6-2224fb4ac1cb"},"vehicle_type_id":"4","last_reported":1721419836,"current_range_meters":6400,"station_id":"","pricing_plan_id":"cebpf4jnsgd1na2vs0mg"},{"bike_id":"5d127372-ae5a-44b6-b9bd-34c2e9a8f720","system_id":"levelo_inurba_marseille","lat":43.311722,"lon":5.387247,"is_reserved":false,"is_disabled":false,"rental_uris":{"android":"levelo://app?vid=5d127372-ae5a-44b6-b9bd-34c2e9a8f720","ios":"levelo://app?vid=5d127372-ae5a-44b6-b9bd-34c2e9a8f720"},"vehicle_type_id":"4","last_reported":1721419836,"current_range_meters":5600,"station_id":"ce4bgv12rcd13ifvqcp0","pricing_plan_id":"cebpf4jnsgd1na2vs0mg"},{"bike_id":"f0561c26-9337-4596-ad83-19fc5ddb6226","system_id":"levelo_inurba_marseille","lat":43.309589,"lon":5.390258,"is_reserved":false,"is_disabled":false,"rental_uris":{"android":"levelo://app?vid=f0561c26-9337-4596-ad83-19fc5ddb6226","ios":"levelo://app?vid=f0561c26-9337-4596-ad83-19fc5ddb6226"},"vehicle_type_id":"4","last_reported":1721419836,"current_range_meters":0,"station_id":"ce4bgup2rcd13ifvqco0","pricing_plan_id":"cebpf4jnsgd1na2vs0mg"},{"bike_id":"d0f15692-df11-4dcd-9f69-9f6f3e03b6e5","system_id":"levelo_inurba_marseille","lat":43.301396,"lon":5.387812,"is_reserved":false,"is_disabled":false,"rental_uris":{"android":"levelo://app?vid=d0f15692-df11-4dcd-9f69-9f6f3e03b6e5","ios":"levelo://app?vid=d0f15692-df11-4dcd-9f69-9f6f3e03b6e5"},"vehicle_type_id":"4","last_reported":1721419836,"current_range_meters":16400,"station_id":"ce4bghh2rcd13ifvqb60","pricing_plan_id":"cebpf4jnsgd1na2vs0mg"},{"bike_id":"d6d7c7e5-b554-4fef-964c-74d7f053297d","system_id":"levelo_inurba_marseille","lat":43.32367,"lon":5.388836,"is_reserved":false,"is_disabled":false,"rental_uris":{"android":"levelo://app?vid=d6d7c7e5-b554-4fef-964c-74d7f053297d","ios":"levelo://app?vid=d6d7c7e5-b554-4fef-964c-74d7f053297d"},"vehicle_type_id":"4","last_reported":1721419836,"current_range_meters":14400,"station_id":"ce4bhqp2rcd13ifvqhog","pricing_plan_id":"cebpf4jnsgd1na2vs0mg"},{"bike_id":"3bf50158-45ee-49de-b525-cf01c8680091","system_id":"levelo_inurba_marseille","lat":43.32367,"lon":5.388836,"is_reserved":false,"is_disabled":false,"rental_uris":{"android":"levelo://app?vid=3bf50158-45ee-49de-b525-cf01c8680091","ios":"levelo://app?vid=3bf50158-45ee-49de-b525-cf01c8680091"},"vehicle_type_id":"4","last_reported":1721419836,"current_range_meters":0,"station_id":"ce4bhqp2rcd13ifvqhog","pricing_plan_id":"cebpf4jnsgd1na2vs0mg"},{"bike_id":"b837533d-3ae3-4377-a38c-6acd56eafd19","system_id":"levelo_inurba_marseille","lat":43.29601,"lon":5.381084,"is_reserved":false,"is_disabled":false,"rental_uris":{"android":"levelo://app?vid=b837533d-3ae3-4377-a38c-6acd56eafd19","ios":"levelo://app?vid=b837533d-3ae3-4377-a38c-6acd56eafd19"},"vehicle_type_id":"4","last_reported":1721419836,"current_range_meters":12800,"station_id":"ce4bgl12rcd13ifvqbo0","pricing_plan_id":"cebpf4jnsgd1na2vs0mg"},{"bike_id":"5a685d64-4c36-4f17-ab1f-0993529c5df1","system_id":"levelo_inurba_marseille","lat":43.29601,"lon":5.381084,"is_reserved":false,"is_disabled":false,"rental_uris":{"android":"levelo://app?vid=5a685d64-4c36-4f17-ab1f-0993529c5df1","ios":"levelo://app?vid=5a685d64-4c36-4f17-ab1f-0993529c5df1"},"vehicle_type_id":"4","last_reported":1721419836,"current_range_meters":22000,"station_id":"ce4bgl12rcd13ifvqbo0","pricing_plan_id":"cebpf4jnsgd1na2vs0mg"},{"bike_id":"9351ca5f-a98b-4b97-99ad-be046ef7dde3","system_id":"levelo_inurba_marseille","lat":43.29602,"lon":5.381084,"is_reserved":false,"is_disabled":false,"rental_uris":{"android":"levelo://app?vid=9351ca5f-a98b-4b97-99ad-be046ef7dde3","ios":"levelo://app?vid=9351ca5f-a98b-4b97-99ad-be046ef7dde3"},"vehicle_type_id":"4","last_reported":1721419836,"current_range_meters":21600,"station_id":"ce4bgl12rcd13ifvqbo0","pricing_plan_id":"cebpf4jnsgd1na2vs0mg"},{"bike_id":"9f9b8e3e-a0b6-44dc-80b7-a8aee1a56427","system_id":"levelo_inurba_marseille","lat":43.29597,"lon":5.38102,"is_reserved":false,"is_disabled":false,"rental_uris":{"android":"levelo://app?vid=9f9b8e3e-a0b6-44dc-80b7-a8aee1a56427","ios":"levelo://app?vid=9f9b8e3e-a0b6-44dc-80b7-a8aee1a56427"},"vehicle_type_id":"4","last_reported":1721419836,"current_range_meters":1200,"station_id":"ce4bgl12rcd13ifvqbo0","pricing_plan_id":"cebpf4jnsgd1na2vs0mg"},{"bike_id":"8c8bb82c-58fe-449c-8329-ff46f9da2202","system_id":"levelo_inurba_marseille","lat":43.29597,"lon":5.38104,"is_reserved":false,"is_disabled":false,"rental_uris":{"android":"levelo://app?vid=8c8bb82c-58fe-449c-8329-ff46f9da2202","ios":"levelo://app?vid=8c8bb82c-58fe-449c-8329-ff46f9da2202"},"vehicle_type_id":"4","last_reported":1721419836,"current_range_meters":18000,"station_id":"ce4bgl12rcd13ifvqbo0","pricing_plan_id":"cebpf4jnsgd1na2vs0mg"},{"bike_id":"ca882d26-81a5-4fa9-a0fc-66994f4c03cb","system_id":"levelo_inurba_marseille","lat":43.295974,"lon":5.381072,"is_reserved":false,"is_disabled":false,"rental_uris":{"android":"levelo://app?vid=ca882d26-81a5-4fa9-a0fc-66994f4c03cb","ios":"levelo://app?vid=ca882d26-81a5-4fa9-a0fc-66994f4c03cb"},"vehicle_type_id":"4","last_reported":1721419836,"current_range_meters":26400,"station_id":"ce4bgl12rcd13ifvqbo0","pricing_plan_id":"cebpf4jnsgd1na2vs0mg"},{"bike_id":"8890bbf6-1c77-4714-b578-d866ec4b60c8","system_id":"levelo_inurba_marseille","lat":43.29602,"lon":5.381084,"is_reserved":false,"is_disabled":false,"rental_uris":{"android":"levelo://app?vid=8890bbf6-1c77-4714-b578-d866ec4b60c8","ios":"levelo://app?vid=8890bbf6-1c77-4714-b578-d866ec4b60c8"},"vehicle_type_id":"4","last_reported":1721419836,"current_range_meters":9200,"station_id":"ce4bgl12rcd13ifvqbo0","pricing_plan_id":"cebpf4jnsgd1na2vs0mg"},{"bike_id":"d226ba4a-7a8d-4b3d-a9c4-e066b2443f8f","system_id":"levelo_inurba_marseille","lat":43.29308,"lon":5.37181,"is_reserved":false,"is_disabled":false,"rental_uris":{"android":"levelo://app?vid=d226ba4a-7a8d-4b3d-a9c4-e066b2443f8f","ios":"levelo://app?vid=d226ba4a-7a8d-4b3d-a9c4-e066b2443f8f"},"vehicle_type_id":"4","last_reported":1721419836,"current_range_meters":0,"station_id":"ce4bgh92rcd13ifvqb40","pricing_plan_id":"cebpf4jnsgd1na2vs0mg"},{"bike_id":"01b2d072-9a8b-43a0-b887-5d585e0b4296","system_id":"levelo_inurba_marseille","lat":43.293077,"lon":5.37184,"is_reserved":false,"is_disabled":false,"rental_uris":{"android":"levelo://app?vid=01b2d072-9a8b-43a0-b887-5d585e0b4296","ios":"levelo://app?vid=01b2d072-9a8b-43a0-b887-5d585e0b4296"},"vehicle_type_id":"4","last_reported":1721419836,"current_range_meters":0,"station_id":"ce4bgh92rcd13ifvqb40","pricing_plan_id":"cebpf4jnsgd1na2vs0mg"},{"bike_id":"2f0925fd-1a45-4b0f-875a-13b20df81b43","system_id":"levelo_inurba_marseille","lat":43.293259,"lon":5.371586,"is_reserved":false,"is_disabled":false,"rental_uris":{"android":"levelo://app?vid=2f0925fd-1a45-4b0f-875a-13b20df81b43","ios":"levelo://app?vid=2f0925fd-1a45-4b0f-875a-13b20df81b43"},"vehicle_type_id":"4","last_reported":1721419836,"current_range_meters":0,"station_id":"ce4bgh92rcd13ifvqb40","pricing_plan_id":"cebpf4jnsgd1na2vs0mg"},{"bike_id":"0f843f2c-6ae4-4310-94dc-839b50265b13","system_id":"levelo_inurba_marseille","lat":43.29276,"lon":5.36849,"is_reserved":false,"is_disabled":false,"rental_uris":{"android":"levelo://app?vid=0f843f2c-6ae4-4310-94dc-839b50265b13","ios":"levelo://app?vid=0f843f2c-6ae4-4310-94dc-839b50265b13"},"vehicle_type_id":"4","last_reported":1721419836,"current_range_meters":16800,"station_id":"ce4bhbp2rcd13ifvqesg","pricing_plan_id":"cebpf4jnsgd1na2vs0mg"},{"bike_id":"830f32e3-7c6b-4f1e-aa80-1c5be6a0ec72","system_id":"levelo_inurba_marseille","lat":43.292749,"lon":5.368402,"is_reserved":false,"is_disabled":false,"rental_uris":{"android":"levelo://app?vid=830f32e3-7c6b-4f1e-aa80-1c5be6a0ec72","ios":"levelo://app?vid=830f32e3-7c6b-4f1e-aa80-1c5be6a0ec72"},"vehicle_type_id":"4","last_reported":1721419836,"current_range_meters":28000,"station_id":"ce4bhbp2rcd13ifvqesg","pricing_plan_id":"cebpf4jnsgd1na2vs0mg"},{"bike_id":"e19bf82c-c5b2-4b4e-9b97-7b4d5568f7ae","system_id":"levelo_inurba_marseille","lat":43.293259,"lon":5.371586,"is_reserved":false,"is_disabled":false,"rental_uris":{"android":"levelo://app?vid=e19bf82c-c5b2-4b4e-9b97-7b4d5568f7ae","ios":"levelo://app?vid=e19bf82c-c5b2-4b4e-9b97-7b4d5568f7ae"},"vehicle_type_id":"4","last_reported":1721419836,"current_range_meters":3200,"station_id":"ce4bgh92rcd13ifvqb40","pricing_plan_id":"cebpf4jnsgd1na2vs0mg"},{"bike_id":"ab718277-5513-46c4-8ed3-236ac57ec992","system_id":"levelo_inurba_marseille","lat":43.292749,"lon":5.368402,"is_reserved":false,"is_disabled":false,"rental_uris":{"android":"levelo://app?vid=ab718277-5513-46c4-8ed3-236ac57ec992","ios":"levelo://app?vid=ab718277-5513-46c4-8ed3-236ac57ec992"},"vehicle_type_id":"4","last_reported":1721419836,"current_range_meters":24400,"station_id":"ce4bhbp2rcd13ifvqesg","pricing_plan_id":"cebpf4jnsgd1na2vs0mg"},{"bike_id":"b23bf709-d092-40b4-b5d3-752f563b416f","system_id":"levelo_inurba_marseille","lat":43.29271,"lon":5.36839,"is_reserved":false,"is_disabled":false,"rental_uris":{"android":"levelo://app?vid=b23bf709-d092-40b4-b5d3-752f563b416f","ios":"levelo://app?vid=b23bf709-d092-40b4-b5d3-752f563b416f"},"vehicle_type_id":"4","last_reported":1721419836,"current_range_meters":31200,"station_id":"ce4bhbp2rcd13ifvqesg","pricing_plan_id":"cebpf4jnsgd1na2vs0mg"},{"bike_id":"95879f2d-f397-48c0-a342-cc004e914f34","system_id":"levelo_inurba_marseille","lat":43.2927,"lon":5.36835,"is_reserved":false,"is_disabled":false,"rental_uris":{"android":"levelo://app?vid=95879f2d-f397-48c0-a342-cc004e914f34","ios":"levelo://app?vid=95879f2d-f397-48c0-a342-cc004e914f34"},"vehicle_type_id":"4","last_reported":1721419836,"current_range_meters":28800,"station_id":"ce4bhbp2rcd13ifvqesg","pricing_plan_id":"cebpf4jnsgd1na2vs0mg"},{"bike_id":"25c1854b-5527-4951-b770-790dd7d01b01","system_id":"levelo_inurba_marseille","lat":43.29268,"lon":5.36843,"is_reserved":false,"is_disabled":false,"rental_uris":{"android":"levelo://app?vid=25c1854b-5527-4951-b770-790dd7d01b01","ios":"levelo://app?vid=25c1854b-5527-4951-b770-790dd7d01b01"},"vehicle_type_id":"4","last_reported":1721419836,"current_range_meters":31200,"station_id":"ce4bhbp2rcd13ifvqesg","pricing_plan_id":"cebpf4jnsgd1na2vs0mg"},{"bike_id":"cd93b78d-931b-4a60-a412-4a75a32a07bf","system_id":"levelo_inurba_marseille","lat":43.29267,"lon":5.36837,"is_reserved":false,"is_disabled":false,"rental_uris":{"android":"levelo://app?vid=cd93b78d-931b-4a60-a412-4a75a32a07bf","ios":"levelo://app?vid=cd93b78d-931b-4a60-a412-4a75a32a07bf"},"vehicle_type_id":"4","last_reported":1721419836,"current_range_meters":30000,"station_id":"ce4bhbp2rcd13ifvqesg","pricing_plan_id":"cebpf4jnsgd1na2vs0mg"},{"bike_id":"33f9bdcd-81ec-4c8e-b5d7-7703e457a599","system_id":"levelo_inurba_marseille","lat":43.305994,"lon":5.393687,"is_reserved":false,"is_disabled":false,"rental_uris":{"android":"levelo://app?vid=33f9bdcd-81ec-4c8e-b5d7-7703e457a599","ios":"levelo://app?vid=33f9bdcd-81ec-4c8e-b5d7-7703e457a599"},"vehicle_type_id":"4","last_reported":1721419836,"current_range_meters":3600,"station_id":"ce4bh0p2rcd13ifvqd80","pricing_plan_id":"cebpf4jnsgd1na2vs0mg"},{"bike_id":"19cee794-8317-490b-84fd-5b0822075032","system_id":"levelo_inurba_marseille","lat":43.305994,"lon":5.393687,"is_reserved":false,"is_disabled":false,"rental_uris":{"android":"levelo://app?vid=19cee794-8317-490b-84fd-5b0822075032","ios":"levelo://app?vid=19cee794-8317-490b-84fd-5b0822075032"},"vehicle_type_id":"4","last_reported":1721419836,"current_range_meters":9200,"station_id":"ce4bh0p2rcd13ifvqd80","pricing_plan_id":"cebpf4jnsgd1na2vs0mg"},{"bike_id":"1e1f3165-ef36-4e20-a9ec-11a5bc9dd157","system_id":"levelo_inurba_marseille","lat":43.302992,"lon":5.392136,"is_reserved":false,"is_disabled":false,"rental_uris":{"android":"levelo://app?vid=1e1f3165-ef36-4e20-a9ec-11a5bc9dd157","ios":"levelo://app?vid=1e1f3165-ef36-4e20-a9ec-11a5bc9dd157"},"vehicle_type_id":"4","last_reported":1721419836,"current_range_meters":8400,"station_id":"ce4bgkh2rcd13ifvqbk0","pricing_plan_id":"cebpf4jnsgd1na2vs0mg"},{"bike_id":"982705c8-434b-4984-840a-d1e0da4b6124","system_id":"levelo_inurba_marseille","lat":43.337168,"lon":5.391825,"is_reserved":false,"is_disabled":false,"rental_uris":{"android":"levelo://app?vid=982705c8-434b-4984-840a-d1e0da4b6124","ios":"levelo://app?vid=982705c8-434b-4984-840a-d1e0da4b6124"},"vehicle_type_id":"4","last_reported":1721419836,"current_range_meters":12400,"station_id":"ce4bhr92rcd13ifvqhsg","pricing_plan_id":"cebpf4jnsgd1na2vs0mg"},{"bike_id":"15485ee9-49a0-4daf-8a4b-b500c03898e9","system_id":"levelo_inurba_marseille","lat":43.2936,"lon":5.37835,"is_reserved":false,"is_disabled":false,"rental_uris":{"android":"levelo://app?vid=15485ee9-49a0-4daf-8a4b-b500c03898e9","ios":"levelo://app?vid=15485ee9-49a0-4daf-8a4b-b500c03898e9"},"vehicle_type_id":"4","last_reported":1721419836,"current_range_meters":8000,"station_id":"ce4bgjh2rcd13ifvqbf0","pricing_plan_id":"cebpf4jnsgd1na2vs0mg"},{"bike_id":"4f3a1ca0-aed0-4996-8c78-cc00bf63eb4f","system_id":"levelo_inurba_marseille","lat":43.292324,"lon":5.360562,"is_reserved":false,"is_disabled":false,"rental_uris":{"android":"levelo://app?vid=4f3a1ca0-aed0-4996-8c78-cc00bf63eb4f","ios":"levelo://app?vid=4f3a1ca0-aed0-4996-8c78-cc00bf63eb4f"},"vehicle_type_id":"4","last_reported":1721419836,"current_range_meters":31200,"station_id":"ce4bhbh2rcd13ifvqeqg","pricing_plan_id":"cebpf4jnsgd1na2vs0mg"},{"bike_id":"d26ab941-1c1f-4712-93e6-e928c4f2855d","system_id":"levelo_inurba_marseille","lat":43.30085,"lon":5.390856,"is_reserved":false,"is_disabled":false,"rental_uris":{"android":"levelo://app?vid=d26ab941-1c1f-4712-93e6-e928c4f2855d","ios":"levelo://app?vid=d26ab941-1c1f-4712-93e6-e928c4f2855d"},"vehicle_type_id":"4","last_reported":1721419836,"current_range_meters":10800,"station_id":"ce4bh192rcd13ifvqdb0","pricing_plan_id":"cebpf4jnsgd1na2vs0mg"},{"bike_id":"dfd80ae0-aeed-4a75-ab20-5db9691fa7c2","system_id":"levelo_inurba_marseille","lat":43.30085,"lon":5.390856,"is_reserved":false,"is_disabled":false,"rental_uris":{"android":"levelo://app?vid=dfd80ae0-aeed-4a75-ab20-5db9691fa7c2","ios":"levelo://app?vid=dfd80ae0-aeed-4a75-ab20-5db9691fa7c2"},"vehicle_type_id":"4","last_reported":1721419836,"current_range_meters":29600,"station_id":"ce4bh192rcd13ifvqdb0","pricing_plan_id":"cebpf4jnsgd1na2vs0mg"},{"bike_id":"74ab261d-5653-4a20-817f-b27692895b24","system_id":"levelo_inurba_marseille","lat":43.29221,"lon":5.36056,"is_reserved":false,"is_disabled":false,"rental_uris":{"android":"levelo://app?vid=74ab261d-5653-4a20-817f-b27692895b24","ios":"levelo://app?vid=74ab261d-5653-4a20-817f-b27692895b24"},"vehicle_type_id":"4","last_reported":1721419836,"current_range_meters":31200,"station_id":"ce4bhbh2rcd13ifvqeqg","pricing_plan_id":"cebpf4jnsgd1na2vs0mg"},{"bike_id":"61caf979-73d8-4ce9-9b52-640e4019f497","system_id":"levelo_inurba_marseille","lat":43.29887,"lon":5.38906,"is_reserved":false,"is_disabled":false,"rental_uris":{"android":"levelo://app?vid=61caf979-73d8-4ce9-9b52-640e4019f497","ios":"levelo://app?vid=61caf979-73d8-4ce9-9b52-640e4019f497"},"vehicle_type_id":"4","last_reported":1721419836,"current_range_meters":0,"station_id":"ce4bh392rcd13ifvqdl0","pricing_plan_id":"cebpf4jnsgd1na2vs0mg"},{"bike_id":"dd4fa6f3-30ed-48fe-94ce-a2fba4e6ea9a","system_id":"levelo_inurba_marseille","lat":43.29884,"lon":5.38906,"is_reserved":false,"is_disabled":false,"rental_uris":{"android":"levelo://app?vid=dd4fa6f3-30ed-48fe-94ce-a2fba4e6ea9a","ios":"levelo://app?vid=dd4fa6f3-30ed-48fe-94ce-a2fba4e6ea9a"},"vehicle_type_id":"4","last_reported":1721419836,"current_range_meters":25600,"station_id":"ce4bh392rcd13ifvqdl0","pricing_plan_id":"cebpf4jnsgd1na2vs0mg"},{"bike_id":"ba7cbc88-4c3c-40e1-926b-17827d56281d","system_id":"levelo_inurba_marseille","lat":43.334177,"lon":5.37008,"is_reserved":false,"is_disabled":false,"rental_uris":{"android":"levelo://app?vid=ba7cbc88-4c3c-40e1-926b-17827d56281d","ios":"levelo://app?vid=ba7cbc88-4c3c-40e1-926b-17827d56281d"},"vehicle_type_id":"4","last_reported":1721419836,"current_range_meters":18000,"station_id":"","pricing_plan_id":"cebpf4jnsgd1na2vs0mg"},{"bike_id":"babd661c-634f-4e11-9566-3e92babd14f0","system_id":"levelo_inurba_marseille","lat":43.291789,"lon":5.375208,"is_reserved":false,"is_disabled":false,"rental_uris":{"android":"levelo://app?vid=babd661c-634f-4e11-9566-3e92babd14f0","ios":"levelo://app?vid=babd661c-634f-4e11-9566-3e92babd14f0"},"vehicle_type_id":"4","last_reported":1721419836,"current_range_meters":0,"station_id":"","pricing_plan_id":"cebpf4jnsgd1na2vs0mg"},{"bike_id":"4c4c8979-f6f4-4653-a462-1dd8b2895c28","system_id":"levelo_inurba_marseille","lat":43.313291,"lon":5.396838,"is_reserved":false,"is_disabled":false,"rental_uris":{"android":"levelo://app?vid=4c4c8979-f6f4-4653-a462-1dd8b2895c28","ios":"levelo://app?vid=4c4c8979-f6f4-4653-a462-1dd8b2895c28"},"vehicle_type_id":"4","last_reported":1721419836,"current_range_meters":18400,"station_id":"ce4bgvp2rcd13ifvqcu0","pricing_plan_id":"cebpf4jnsgd1na2vs0mg"},{"bike_id":"f67ac6d6-8ed5-406f-b429-bb7a7b5d2e84","system_id":"levelo_inurba_marseille","lat":43.313291,"lon":5.396838,"is_reserved":false,"is_disabled":false,"rental_uris":{"android":"levelo://app?vid=f67ac6d6-8ed5-406f-b429-bb7a7b5d2e84","ios":"levelo://app?vid=f67ac6d6-8ed5-406f-b429-bb7a7b5d2e84"},"vehicle_type_id":"4","last_reported":1721419836,"current_range_meters":13200,"station_id":"ce4bgvp2rcd13ifvqcu0","pricing_plan_id":"cebpf4jnsgd1na2vs0mg"},{"bike_id":"a802a1f0-809e-423d-b2ce-18ef5204548b","system_id":"levelo_inurba_marseille","lat":43.313291,"lon":5.396838,"is_reserved":false,"is_disabled":false,"rental_uris":{"android":"levelo://app?vid=a802a1f0-809e-423d-b2ce-18ef5204548b","ios":"levelo://app?vid=a802a1f0-809e-423d-b2ce-18ef5204548b"},"vehicle_type_id":"4","last_reported":1721419836,"current_range_meters":22400,"station_id":"ce4bgvp2rcd13ifvqcu0","pricing_plan_id":"cebpf4jnsgd1na2vs0mg"},{"bike_id":"387f7fbb-ce64-4ca9-b2ba-efd65e6a15c7","system_id":"levelo_inurba_marseille","lat":43.313291,"lon":5.396838,"is_reserved":false,"is_disabled":false,"rental_uris":{"android":"levelo://app?vid=387f7fbb-ce64-4ca9-b2ba-efd65e6a15c7","ios":"levelo://app?vid=387f7fbb-ce64-4ca9-b2ba-efd65e6a15c7"},"vehicle_type_id":"4","last_reported":1721419836,"current_range_meters":15200,"station_id":"ce4bgvp2rcd13ifvqcu0","pricing_plan_id":"cebpf4jnsgd1na2vs0mg"},{"bike_id":"67e65a76-76a1-4030-a36f-5a3d7a5ce26d","system_id":"levelo_inurba_marseille","lat":43.309038,"lon":5.396546,"is_reserved":false,"is_disabled":false,"rental_uris":{"android":"levelo://app?vid=67e65a76-76a1-4030-a36f-5a3d7a5ce26d","ios":"levelo://app?vid=67e65a76-76a1-4030-a36f-5a3d7a5ce26d"},"vehicle_type_id":"4","last_reported":1721419836,"current_range_meters":6800,"station_id":"ce4bh012rcd13ifvqcv0","pricing_plan_id":"cebpf4jnsgd1na2vs0mg"},{"bike_id":"68f6f676-9a25-42e3-b2e9-7d5792c2b89c","system_id":"levelo_inurba_marseille","lat":43.29529,"lon":5.385581,"is_reserved":false,"is_disabled":false,"rental_uris":{"android":"levelo://app?vid=68f6f676-9a25-42e3-b2e9-7d5792c2b89c","ios":"levelo://app?vid=68f6f676-9a25-42e3-b2e9-7d5792c2b89c"},"vehicle_type_id":"4","last_reported":1721419836,"current_range_meters":16000,"station_id":"ce4bgih2rcd13ifvqba0","pricing_plan_id":"cebpf4jnsgd1na2vs0mg"},{"bike_id":"13f427fa-2312-4e59-9394-e5eff6cb9bf0","system_id":"levelo_inurba_marseille","lat":43.29529,"lon":5.385581,"is_reserved":false,"is_disabled":false,"rental_uris":{"android":"levelo://app?vid=13f427fa-2312-4e59-9394-e5eff6cb9bf0","ios":"levelo://app?vid=13f427fa-2312-4e59-9394-e5eff6cb9bf0"},"vehicle_type_id":"4","last_reported":1721419836,"current_range_meters":13600,"station_id":"ce4bgih2rcd13ifvqba0","pricing_plan_id":"cebpf4jnsgd1na2vs0mg"},{"bike_id":"449bf3d8-caaa-4037-badd-049cb5cf0e3f","system_id":"levelo_inurba_marseille","lat":43.29529,"lon":5.385581,"is_reserved":false,"is_disabled":false,"rental_uris":{"android":"levelo://app?vid=449bf3d8-caaa-4037-badd-049cb5cf0e3f","ios":"levelo://app?vid=449bf3d8-caaa-4037-badd-049cb5cf0e3f"},"vehicle_type_id":"4","last_reported":1721419836,"current_range_meters":31200,"station_id":"ce4bgih2rcd13ifvqba0","pricing_plan_id":"cebpf4jnsgd1na2vs0mg"},{"bike_id":"bcb077bc-6a4b-4532-b1ac-369669a755c9","system_id":"levelo_inurba_marseille","lat":43.29529,"lon":5.385581,"is_reserved":false,"is_disabled":false,"rental_uris":{"android":"levelo://app?vid=bcb077bc-6a4b-4532-b1ac-369669a755c9","ios":"levelo://app?vid=bcb077bc-6a4b-4532-b1ac-369669a755c9"},"vehicle_type_id":"4","last_reported":1721419836,"current_range_meters":12000,"station_id":"ce4bgih2rcd13ifvqba0","pricing_plan_id":"cebpf4jnsgd1na2vs0mg"},{"bike_id":"cbfcfc1e-e0ae-4a90-8421-114b674be564","system_id":"levelo_inurba_marseille","lat":43.29529,"lon":5.385581,"is_reserved":false,"is_disabled":false,"rental_uris":{"android":"levelo://app?vid=cbfcfc1e-e0ae-4a90-8421-114b674be564","ios":"levelo://app?vid=cbfcfc1e-e0ae-4a90-8421-114b674be564"},"vehicle_type_id":"4","last_reported":1721419836,"current_range_meters":14000,"station_id":"ce4bgih2rcd13ifvqba0","pricing_plan_id":"cebpf4jnsgd1na2vs0mg"},{"bike_id":"61f5b2a5-20f8-4469-9048-89078f7c96e0","system_id":"levelo_inurba_marseille","lat":43.29529,"lon":5.385581,"is_reserved":false,"is_disabled":false,"rental_uris":{"android":"levelo://app?vid=61f5b2a5-20f8-4469-9048-89078f7c96e0","ios":"levelo://app?vid=61f5b2a5-20f8-4469-9048-89078f7c96e0"},"vehicle_type_id":"4","last_reported":1721419836,"current_range_meters":31200,"station_id":"ce4bgih2rcd13ifvqba0","pricing_plan_id":"cebpf4jnsgd1na2vs0mg"},{"bike_id":"21f3f6c8-f6a1-45f7-bf9a-1c9a29ce422d","system_id":"levelo_inurba_marseille","lat":43.29529,"lon":5.385581,"is_reserved":false,"is_disabled":false,"rental_uris":{"android":"levelo://app?vid=21f3f6c8-f6a1-45f7-bf9a-1c9a29ce422d","ios":"levelo://app?vid=21f3f6c8-f6a1-45f7-bf9a-1c9a29ce422d"},"vehicle_type_id":"4","last_reported":1721419836,"current_range_meters":31200,"station_id":"ce4bgih2rcd13ifvqba0","pricing_plan_id":"cebpf4jnsgd1na2vs0mg"},{"bike_id":"6ec112d9-fec5-4c54-8fe2-ad20fae2453a","system_id":"levelo_inurba_marseille","lat":43.29529,"lon":5.385581,"is_reserved":false,"is_disabled":false,"rental_uris":{"android":"levelo://app?vid=6ec112d9-fec5-4c54-8fe2-ad20fae2453a","ios":"levelo://app?vid=6ec112d9-fec5-4c54-8fe2-ad20fae2453a"},"vehicle_type_id":"4","last_reported":1721419836,"current_range_meters":31200,"station_id":"ce4bgih2rcd13ifvqba0","pricing_plan_id":"cebpf4jnsgd1na2vs0mg"},{"bike_id":"0859220a-1cfb-41fe-980a-86a0ec2b0d90","system_id":"levelo_inurba_marseille","lat":43.29529,"lon":5.385581,"is_reserved":false,"is_disabled":false,"rental_uris":{"android":"levelo://app?vid=0859220a-1cfb-41fe-980a-86a0ec2b0d90","ios":"levelo://app?vid=0859220a-1cfb-41fe-980a-86a0ec2b0d90"},"vehicle_type_id":"4","last_reported":1721419836,"current_range_meters":5600,"station_id":"ce4bgih2rcd13ifvqba0","pricing_plan_id":"cebpf4jnsgd1na2vs0mg"},{"bike_id":"0c53f604-1ab3-411a-aa4d-99d433373f02","system_id":"levelo_inurba_marseille","lat":43.29529,"lon":5.385581,"is_reserved":false,"is_disabled":false,"rental_uris":{"android":"levelo://app?vid=0c53f604-1ab3-411a-aa4d-99d433373f02","ios":"levelo://app?vid=0c53f604-1ab3-411a-aa4d-99d433373f02"},"vehicle_type_id":"4","last_reported":1721419836,"current_range_meters":0,"station_id":"ce4bgih2rcd13ifvqba0","pricing_plan_id":"cebpf4jnsgd1na2vs0mg"},{"bike_id":"e83a9396-2174-4640-90a0-8173ea5c1545","system_id":"levelo_inurba_marseille","lat":43.29529,"lon":5.385581,"is_reserved":false,"is_disabled":false,"rental_uris":{"android":"levelo://app?vid=e83a9396-2174-4640-90a0-8173ea5c1545","ios":"levelo://app?vid=e83a9396-2174-4640-90a0-8173ea5c1545"},"vehicle_type_id":"4","last_reported":1721419836,"current_range_meters":16800,"station_id":"ce4bgih2rcd13ifvqba0","pricing_plan_id":"cebpf4jnsgd1na2vs0mg"},{"bike_id":"6a5f15a0-2555-4cdd-98b2-30ce10e6c496","system_id":"levelo_inurba_marseille","lat":43.29529,"lon":5.385581,"is_reserved":false,"is_disabled":false,"rental_uris":{"android":"levelo://app?vid=6a5f15a0-2555-4cdd-98b2-30ce10e6c496","ios":"levelo://app?vid=6a5f15a0-2555-4cdd-98b2-30ce10e6c496"},"vehicle_type_id":"4","last_reported":1721419836,"current_range_meters":29600,"station_id":"ce4bgih2rcd13ifvqba0","pricing_plan_id":"cebpf4jnsgd1na2vs0mg"},{"bike_id":"fafb0e9d-0cce-4680-9bb1-f80f1fc180c7","system_id":"levelo_inurba_marseille","lat":43.29529,"lon":5.385581,"is_reserved":false,"is_disabled":false,"rental_uris":{"android":"levelo://app?vid=fafb0e9d-0cce-4680-9bb1-f80f1fc180c7","ios":"levelo://app?vid=fafb0e9d-0cce-4680-9bb1-f80f1fc180c7"},"vehicle_type_id":"4","last_reported":1721419836,"current_range_meters":25200,"station_id":"ce4bgih2rcd13ifvqba0","pricing_plan_id":"cebpf4jnsgd1na2vs0mg"},{"bike_id":"c9e10013-d8d6-4606-8e63-0c40f9d3e105","system_id":"levelo_inurba_marseille","lat":43.29529,"lon":5.385581,"is_reserved":false,"is_disabled":false,"rental_uris":{"android":"levelo://app?vid=c9e10013-d8d6-4606-8e63-0c40f9d3e105","ios":"levelo://app?vid=c9e10013-d8d6-4606-8e63-0c40f9d3e105"},"vehicle_type_id":"4","last_reported":1721419836,"current_range_meters":10800,"station_id":"ce4bgih2rcd13ifvqba0","pricing_plan_id":"cebpf4jnsgd1na2vs0mg"},{"bike_id":"817e09bc-1ba4-40a4-b571-6ae261979251","system_id":"levelo_inurba_marseille","lat":43.29529,"lon":5.385581,"is_reserved":false,"is_disabled":false,"rental_uris":{"android":"levelo://app?vid=817e09bc-1ba4-40a4-b571-6ae261979251","ios":"levelo://app?vid=817e09bc-1ba4-40a4-b571-6ae261979251"},"vehicle_type_id":"4","last_reported":1721419836,"current_range_meters":15600,"station_id":"ce4bgih2rcd13ifvqba0","pricing_plan_id":"cebpf4jnsgd1na2vs0mg"},{"bike_id":"0229add2-fc29-4b3e-ac8b-6d5a2c7d432e","system_id":"levelo_inurba_marseille","lat":43.29529,"lon":5.385581,"is_reserved":false,"is_disabled":false,"rental_uris":{"android":"levelo://app?vid=0229add2-fc29-4b3e-ac8b-6d5a2c7d432e","ios":"levelo://app?vid=0229add2-fc29-4b3e-ac8b-6d5a2c7d432e"},"vehicle_type_id":"4","last_reported":1721419836,"current_range_meters":4400,"station_id":"ce4bgih2rcd13ifvqba0","pricing_plan_id":"cebpf4jnsgd1na2vs0mg"},{"bike_id":"a6ccefe8-874d-4eb8-9839-4dba5ca53e46","system_id":"levelo_inurba_marseille","lat":43.29529,"lon":5.385581,"is_reserved":false,"is_disabled":false,"rental_uris":{"android":"levelo://app?vid=a6ccefe8-874d-4eb8-9839-4dba5ca53e46","ios":"levelo://app?vid=a6ccefe8-874d-4eb8-9839-4dba5ca53e46"},"vehicle_type_id":"4","last_reported":1721419836,"current_range_meters":5200,"station_id":"ce4bgih2rcd13ifvqba0","pricing_plan_id":"cebpf4jnsgd1na2vs0mg"},{"bike_id":"0528e093-dda1-4190-9a80-a0634ce7fb4f","system_id":"levelo_inurba_marseille","lat":43.29529,"lon":5.385581,"is_reserved":false,"is_disabled":false,"rental_uris":{"android":"levelo://app?vid=0528e093-dda1-4190-9a80-a0634ce7fb4f","ios":"levelo://app?vid=0528e093-dda1-4190-9a80-a0634ce7fb4f"},"vehicle_type_id":"4","last_reported":1721419836,"current_range_meters":14800,"station_id":"ce4bgih2rcd13ifvqba0","pricing_plan_id":"cebpf4jnsgd1na2vs0mg"},{"bike_id":"fa493185-182a-4b0a-ad15-3cb5c53c5692","system_id":"levelo_inurba_marseille","lat":43.29529,"lon":5.385581,"is_reserved":false,"is_disabled":false,"rental_uris":{"android":"levelo://app?vid=fa493185-182a-4b0a-ad15-3cb5c53c5692","ios":"levelo://app?vid=fa493185-182a-4b0a-ad15-3cb5c53c5692"},"vehicle_type_id":"4","last_reported":1721419836,"current_range_meters":30400,"station_id":"ce4bgih2rcd13ifvqba0","pricing_plan_id":"cebpf4jnsgd1na2vs0mg"},{"bike_id":"6ea79a6b-c285-4de8-bc71-85cbb9e1cd0c","system_id":"levelo_inurba_marseille","lat":43.29529,"lon":5.385581,"is_reserved":false,"is_disabled":false,"rental_uris":{"android":"levelo://app?vid=6ea79a6b-c285-4de8-bc71-85cbb9e1cd0c","ios":"levelo://app?vid=6ea79a6b-c285-4de8-bc71-85cbb9e1cd0c"},"vehicle_type_id":"4","last_reported":1721419836,"current_range_meters":21200,"station_id":"ce4bgih2rcd13ifvqba0","pricing_plan_id":"cebpf4jnsgd1na2vs0mg"},{"bike_id":"4af141cf-e975-4964-ac02-3213df222d6e","system_id":"levelo_inurba_marseille","lat":43.29529,"lon":5.385581,"is_reserved":false,"is_disabled":false,"rental_uris":{"android":"levelo://app?vid=4af141cf-e975-4964-ac02-3213df222d6e","ios":"levelo://app?vid=4af141cf-e975-4964-ac02-3213df222d6e"},"vehicle_type_id":"4","last_reported":1721419836,"current_range_meters":10400,"station_id":"ce4bgih2rcd13ifvqba0","pricing_plan_id":"cebpf4jnsgd1na2vs0mg"},{"bike_id":"f88016c0-7118-486f-bdca-32d9157dad10","system_id":"levelo_inurba_marseille","lat":43.29524,"lon":5.38548,"is_reserved":false,"is_disabled":false,"rental_uris":{"android":"levelo://app?vid=f88016c0-7118-486f-bdca-32d9157dad10","ios":"levelo://app?vid=f88016c0-7118-486f-bdca-32d9157dad10"},"vehicle_type_id":"4","last_reported":1721419836,"current_range_meters":28000,"station_id":"ce4bgih2rcd13ifvqba0","pricing_plan_id":"cebpf4jnsgd1na2vs0mg"},{"bike_id":"4d134080-1f99-4d42-8282-4767df661038","system_id":"levelo_inurba_marseille","lat":43.290624,"lon":5.359245,"is_reserved":false,"is_disabled":false,"rental_uris":{"android":"levelo://app?vid=4d134080-1f99-4d42-8282-4767df661038","ios":"levelo://app?vid=4d134080-1f99-4d42-8282-4767df661038"},