{"last_updated":1767792757,"ttl":60,"version":"2.2","data":{"bikes":[{"bike_id":"d22d9ece-62b8-40c6-881b-8ad44e1a6b0e","system_id":"levelo_inurba_marseille","lat":43.26205,"lon":5.37457,"is_reserved":false,"is_disabled":false,"rental_uris":{"android":"levelo://app?vid=d22d9ece-62b8-40c6-881b-8ad44e1a6b0e","ios":"levelo://app?vid=d22d9ece-62b8-40c6-881b-8ad44e1a6b0e"},"vehicle_type_id":"4","last_reported":1767792757,"current_range_meters":2800,"station_id":"ce4bhgp2rcd13ifvqfc0","pricing_plan_id":"cebpf4jnsgd1na2vs0mg"},{"bike_id":"676e009e-64a4-4c3a-982d-3996c5d570b7","system_id":"levelo_inurba_marseille","lat":43.2791,"lon":5.39589,"is_reserved":false,"is_disabled":false,"rental_uris":{"android":"levelo://app?vid=676e009e-64a4-4c3a-982d-3996c5d570b7","ios":"levelo://app?vid=676e009e-64a4-4c3a-982d-3996c5d570b7"},"vehicle_type_id":"4","last_reported":1767792757,"current_range_meters":2800,"station_id":"ce4bhf92rcd13ifvqf40","pricing_plan_id":"cebpf4jnsgd1na2vs0mg"},{"bike_id":"565f99b7-e9e2-4b44-8331-6450d9ae6732","system_id":"levelo_inurba_marseille","lat":43.32095,"lon":5.36795,"is_reserved":false,"is_disabled":false,"rental_uris":{"android":"levelo://app?vid=565f99b7-e9e2-4b44-8331-6450d9ae6732","ios":"levelo://app?vid=565f99b7-e9e2-4b44-8331-6450d9ae6732"},"vehicle_type_id":"4","last_reported":1767792757,"current_range_meters":2800,"station_id":"ce4bhrh2rcd13ifvqhug","pricing_plan_id":"cebpf4jnsgd1na2vs0mg"},{"bike_id":"969b1719-3fa2-4d7b-b48c-3f3c994a3da7","system_id":"levelo_inurba_marseille","lat":43.29198,"lon":5.39564,"is_reserved":false,"is_disabled":false,"rental_uris":{"android":"levelo://app?vid=969b1719-3fa2-4d7b-b48c-3f3c994a3da7","ios":"levelo://app?vid=969b1719-3fa2-4d7b-b48c-3f3c994a3da7"},"vehicle_type_id":"4","last_reported":1767792757,"current_range_meters":2800,"station_id":"","pricing_plan_id":"cebpf4jnsgd1na2vs0mg"},{"bike_id":"fad68b58-3feb-4a99-9f33-50e6502be28a","system_id":"levelo_inurba_marseille","lat":43.32886,"lon":5.375,"is_reserved":false,"is_disabled":false,"rental_uris":{"android":"levelo://app?vid=fad68b58-3feb-4a99-9f33-50e6502be28a","ios":"levelo://app?vid=fad68b58-3feb-4a99-9f33-50e6502be28a"},"vehicle_type_id":"4","last_reported":1767792757,"current_range_meters":2800,"station_id":"","pricing_plan_id":"cebpf4jnsgd1na2vs0mg"},{"bike_id":"0ae17694-1e8a-4ef2-9e84-1dcb531b0c9b","system_id":"levelo_inurba_marseille","lat":43.308697,"lon":5.396545,"is_reserved":false,"is_disabled":false,"rental_uris":{"android":"levelo://app?vid=0ae17694-1e8a-4ef2-9e84-1dcb531b0c9b","ios":"levelo://app?vid=0ae17694-1e8a-4ef2-9e84-1dcb531b0c9b"},"vehicle_type_id":"4","last_reported":1767792757,"current_range_meters":2800,"station_id":"ce4bh012rcd13ifvqcv0","pricing_plan_id":"cebpf4jnsgd1na2vs0mg"},{"bike_id":"c773f61c-a83f-41d9-bdd4-df8791dcab70","system_id":"levelo_inurba_marseille","lat":43.29784,"lon":5.37737,"is_reserved":false,"is_disabled":false,"rental_uris":{"android":"levelo://app?vid=c773f61c-a83f-41d9-bdd4-df8791dcab70","ios":"levelo://app?vid=c773f61c-a83f-41d9-bdd4-df8791dcab70"},"vehicle_type_id":"4","last_reported":1767792757,"current_range_meters":2800,"station_id":"","pricing_plan_id":"cebpf4jnsgd1na2vs0mg"},{"bike_id":"8015c7a3-ca99-4bed-b795-854d89867176","system_id":"levelo_inurba_marseille","lat":43.300345,"lon":5.373509,"is_reserved":false,"is_disabled":false,"rental_uris":{"android":"levelo://app?vid=8015c7a3-ca99-4bed-b795-854d89867176","ios":"levelo://app?vid=8015c7a3-ca99-4bed-b795-854d89867176"},"vehicle_type_id":"4","last_reported":1767792757,"current_range_meters":2800,"station_id":"","pricing_plan_id":"cebpf4jnsgd1na2vs0mg"},{"bike_id":"71c53044-c0ca-48e9-968f-ab1ba6524736","system_id":"levelo_inurba_marseille","lat":43.23961,"lon":5.36641,"is_reserved":false,"is_disabled":false,"rental_uris":{"android":"levelo://app?vid=71c53044-c0ca-48e9-968f-ab1ba6524736","ios":"levelo://app?vid=71c53044-c0ca-48e9-968f-ab1ba6524736"},"vehicle_type_id":"4","last_reported":1767792757,"current_range_meters":2800,"station_id":"ce4bhi12rcd13ifvqfp0","pricing_plan_id":"cebpf4jnsgd1na2vs0mg"},{"bike_id":"9fb27fb7-a234-4b5f-a720-3cd91e7c715d","system_id":"levelo_inurba_marseille","lat":43.32865,"lon":5.40495,"is_reserved":false,"is_disabled":false,"rental_uris":{"android":"levelo://app?vid=9fb27fb7-a234-4b5f-a720-3cd91e7c715d","ios":"levelo://app?vid=9fb27fb7-a234-4b5f-a720-3cd91e7c715d"},"vehicle_type_id":"4","last_reported":1767792757,"current_range_meters":2800,"station_id":"","pricing_plan_id":"cebpf4jnsgd1na2vs0mg"},{"bike_id":"46fbaf80-e730-48c7-81c2-ddbf9fe8fea7","system_id":"levelo_inurba_marseille","lat":43.26771,"lon":5.39425,"is_reserved":false,"is_disabled":false,"rental_uris":{"android":"levelo://app?vid=46fbaf80-e730-48c7-81c2-ddbf9fe8fea7","ios":"levelo://app?vid=46fbaf80-e730-48c7-81c2-ddbf9fe8fea7"},"vehicle_type_id":"4","last_reported":1767792757,"current_range_meters":2800,"station_id":"ce4bhh12rcd13ifvqfg0","pricing_plan_id":"cebpf4jnsgd1na2vs0mg"},{"bike_id":"eb803557-4827-404f-bef7-8a559750584d","system_id":"levelo_inurba_marseille","lat":43.322921,"lon":5.382724,"is_reserved":false,"is_disabled":false,"rental_uris":{"android":"levelo://app?vid=eb803557-4827-404f-bef7-8a559750584d","ios":"levelo://app?vid=eb803557-4827-404f-bef7-8a559750584d"},"vehicle_type_id":"4","last_reported":1767792757,"current_range_meters":2800,"station_id":"ce4bhr12rcd13ifvqhqg","pricing_plan_id":"cebpf4jnsgd1na2vs0mg"},{"bike_id":"f7266f96-97df-4d00-8894-b574c422868e","system_id":"levelo_inurba_marseille","lat":43.2871,"lon":5.36113,"is_reserved":false,"is_disabled":false,"rental_uris":{"android":"levelo://app?vid=f7266f96-97df-4d00-8894-b574c422868e","ios":"levelo://app?vid=f7266f96-97df-4d00-8894-b574c422868e"},"vehicle_type_id":"4","last_reported":1767792757,"current_range_meters":3200,"station_id":"cki0cbj6b192h4jlfktg","pricing_plan_id":"cebpf4jnsgd1na2vs0mg"},{"bike_id":"0c06ee89-a23c-4de7-ad02-722fd9dfce80","system_id":"levelo_inurba_marseille","lat":43.23152,"lon":5.43715,"is_reserved":false,"is_disabled":false,"rental_uris":{"android":"levelo://app?vid=0c06ee89-a23c-4de7-ad02-722fd9dfce80","ios":"levelo://app?vid=0c06ee89-a23c-4de7-ad02-722fd9dfce80"},"vehicle_type_id":"4","last_reported":1767792757,"current_range_meters":3200,"station_id":"ce4bhmp2rcd13ifvqgog","pricing_plan_id":"cebpf4jnsgd1na2vs0mg"},{"bike_id":"d599e143-3cfd-4dd2-ba0d-054f2e412eda","system_id":"levelo_inurba_marseille","lat":43.28263,"lon":5.35085,"is_reserved":false,"is_disabled":false,"rental_uris":{"android":"levelo://app?vid=d599e143-3cfd-4dd2-ba0d-054f2e412eda","ios":"levelo://app?vid=d599e143-3cfd-4dd2-ba0d-054f2e412eda"},"vehicle_type_id":"4","last_reported":1767792757,"current_range_meters":3200,"station_id":"ce4bhbp2rcd13ifvqerg","pricing_plan_id":"cebpf4jnsgd1na2vs0mg"},{"bike_id":"5c78052d-8b4f-4e51-8ddb-87be6fb225ca","system_id":"levelo_inurba_marseille","lat":43.23197,"lon":5.35564,"is_reserved":false,"is_disabled":false,"rental_uris":{"android":"levelo://app?vid=5c78052d-8b4f-4e51-8ddb-87be6fb225ca","ios":"levelo://app?vid=5c78052d-8b4f-4e51-8ddb-87be6fb225ca"},"vehicle_type_id":"4","last_reported":1767792757,"current_range_meters":3200,"station_id":"ce4bhu92rcd13ifvqi70","pricing_plan_id":"cebpf4jnsgd1na2vs0mg"},{"bike_id":"9543aad1-f2c5-4f3f-ab6a-e1b8918ce8ce","system_id":"levelo_inurba_marseille","lat":43.29899,"lon":5.38499,"is_reserved":false,"is_disabled":false,"rental_uris":{"android":"levelo://app?vid=9543aad1-f2c5-4f3f-ab6a-e1b8918ce8ce","ios":"levelo://app?vid=9543aad1-f2c5-4f3f-ab6a-e1b8918ce8ce"},"vehicle_type_id":"4","last_reported":1767792757,"current_range_meters":3200,"station_id":"","pricing_plan_id":"cebpf4jnsgd1na2vs0mg"},{"bike_id":"e271dcd8-0584-4ad8-9c29-480ecfdaeef5","system_id":"levelo_inurba_marseille","lat":43.337444,"lon":5.374475,"is_reserved":false,"is_disabled":false,"rental_uris":{"android":"levelo://app?vid=e271dcd8-0584-4ad8-9c29-480ecfdaeef5","ios":"levelo://app?vid=e271dcd8-0584-4ad8-9c29-480ecfdaeef5"},"vehicle_type_id":"4","last_reported":1767792757,"current_range_meters":3200,"station_id":"","pricing_plan_id":"cebpf4jnsgd1na2vs0mg"},{"bike_id":"51bab64f-1b87-4acc-8f72-1bf6c05e5090","system_id":"levelo_inurba_marseille","lat":43.231917,"lon":5.355514,"is_reserved":false,"is_disabled":false,"rental_uris":{"android":"levelo://app?vid=51bab64f-1b87-4acc-8f72-1bf6c05e5090","ios":"levelo://app?vid=51bab64f-1b87-4acc-8f72-1bf6c05e5090"},"vehicle_type_id":"4","last_reported":1767792757,"current_range_meters":3200,"station_id":"ce4bhu92rcd13ifvqi70","pricing_plan_id":"cebpf4jnsgd1na2vs0mg"},{"bike_id":"bf0a0489-ec91-406d-a7a0-4b4e36bfc3bb","system_id":"levelo_inurba_marseille","lat":43.229333,"lon":5.353798,"is_reserved":false,"is_disabled":false,"rental_uris":{"android":"levelo://app?vid=bf0a0489-ec91-406d-a7a0-4b4e36bfc3bb","ios":"levelo://app?vid=bf0a0489-ec91-406d-a7a0-4b4e36bfc3bb"},"vehicle_type_id":"4","last_reported":1767792757,"current_range_meters":3200,"station_id":"cpo3532slgdg3j2ikp40","pricing_plan_id":"cebpf4jnsgd1na2vs0mg"},{"bike_id":"79050b2d-51dd-4422-b5f7-33cfc5837f53","system_id":"levelo_inurba_marseille","lat":43.31281,"lon":5.37753,"is_reserved":false,"is_disabled":false,"rental_uris":{"android":"levelo://app?vid=79050b2d-51dd-4422-b5f7-33cfc5837f53","ios":"levelo://app?vid=79050b2d-51dd-4422-b5f7-33cfc5837f53"},"vehicle_type_id":"4","last_reported":1767792757,"current_range_meters":3200,"station_id":"","pricing_plan_id":"cebpf4jnsgd1na2vs0mg"},{"bike_id":"999e74f3-d4b2-444d-89bc-239d909db7d5","system_id":"levelo_inurba_marseille","lat":43.30152,"lon":5.36951,"is_reserved":false,"is_disabled":false,"rental_uris":{"android":"levelo://app?vid=999e74f3-d4b2-444d-89bc-239d909db7d5","ios":"levelo://app?vid=999e74f3-d4b2-444d-89bc-239d909db7d5"},"vehicle_type_id":"4","last_reported":1767792757,"current_range_meters":3200,"station_id":"","pricing_plan_id":"cebpf4jnsgd1na2vs0mg"},{"bike_id":"d2d5c922-3ec7-47cf-bb49-4d3b2b6af0f3","system_id":"levelo_inurba_marseille","lat":43.27675,"lon":5.38913,"is_reserved":false,"is_disabled":false,"rental_uris":{"android":"levelo://app?vid=d2d5c922-3ec7-47cf-bb49-4d3b2b6af0f3","ios":"levelo://app?vid=d2d5c922-3ec7-47cf-bb49-4d3b2b6af0f3"},"vehicle_type_id":"4","last_reported":1767792757,"current_range_meters":3200,"station_id":"ce4bhi12rcd13ifvqfo0","pricing_plan_id":"cebpf4jnsgd1na2vs0mg"},{"bike_id":"9265da08-af6b-41f8-a564-a7a5e4a8d66e","system_id":"levelo_inurba_marseille","lat":43.28472,"lon":5.48396,"is_reserved":false,"is_disabled":false,"rental_uris":{"android":"levelo://app?vid=9265da08-af6b-41f8-a564-a7a5e4a8d66e","ios":"levelo://app?vid=9265da08-af6b-41f8-a564-a7a5e4a8d66e"},"vehicle_type_id":"4","last_reported":1767792757,"current_range_meters":3200,"station_id":"","pricing_plan_id":"cebpf4jnsgd1na2vs0mg"},{"bike_id":"3bc88049-fe85-4f81-88f2-4fe0073c7893","system_id":"levelo_inurba_marseille","lat":43.29819,"lon":5.3904,"is_reserved":false,"is_disabled":false,"rental_uris":{"android":"levelo://app?vid=3bc88049-fe85-4f81-88f2-4fe0073c7893","ios":"levelo://app?vid=3bc88049-fe85-4f81-88f2-4fe0073c7893"},"vehicle_type_id":"4","last_reported":1767792757,"current_range_meters":3200,"station_id":"ce4bgqh2rcd13ifvqc5g","pricing_plan_id":"cebpf4jnsgd1na2vs0mg"},{"bike_id":"93e168c7-21ff-4b6f-b601-03a989e84e40","system_id":"levelo_inurba_marseille","lat":43.28936,"lon":5.364,"is_reserved":false,"is_disabled":false,"rental_uris":{"android":"levelo://app?vid=93e168c7-21ff-4b6f-b601-03a989e84e40","ios":"levelo://app?vid=93e168c7-21ff-4b6f-b601-03a989e84e40"},"vehicle_type_id":"4","last_reported":1767792757,"current_range_meters":3200,"station_id":"ce4bhc92rcd13ifvqetg","pricing_plan_id":"cebpf4jnsgd1na2vs0mg"},{"bike_id":"c92f9eb1-4edf-4277-a16e-c93cc6295b90","system_id":"levelo_inurba_marseille","lat":43.31407,"lon":5.40425,"is_reserved":false,"is_disabled":false,"rental_uris":{"android":"levelo://app?vid=c92f9eb1-4edf-4277-a16e-c93cc6295b90","ios":"levelo://app?vid=c92f9eb1-4edf-4277-a16e-c93cc6295b90"},"vehicle_type_id":"4","last_reported":1767792757,"current_range_meters":3200,"station_id":"","pricing_plan_id":"cebpf4jnsgd1na2vs0mg"},{"bike_id":"e39e909d-a3c5-43e0-be4e-6cfc87e9605c","system_id":"levelo_inurba_marseille","lat":43.27675,"lon":5.38866,"is_reserved":false,"is_disabled":false,"rental_uris":{"android":"levelo://app?vid=e39e909d-a3c5-43e0-be4e-6cfc87e9605c","ios":"levelo://app?vid=e39e909d-a3c5-43e0-be4e-6cfc87e9605c"},"vehicle_type_id":"4","last_reported":1767792757,"current_range_meters":3200,"station_id":"ce4bhi12rcd13ifvqfo0","pricing_plan_id":"cebpf4jnsgd1na2vs0mg"},{"bike_id":"762cdaa4-e65c-4520-93b8-df10b89d355f","system_id":"levelo_inurba_marseille","lat":43.26944,"lon":5.40259,"is_reserved":false,"is_disabled":false,"rental_uris":{"android":"levelo://app?vid=762cdaa4-e65c-4520-93b8-df10b89d355f","ios":"levelo://app?vid=762cdaa4-e65c-4520-93b8-df10b89d355f"},"vehicle_type_id":"4","last_reported":1767792757,"current_range_meters":3600,"station_id":"cjm6bp8fraef2m0cb0m0","pricing_plan_id":"cebpf4jnsgd1na2vs0mg"},{"bike_id":"65adcb48-fd70-4e3a-9d63-9c88a9b10948","system_id":"levelo_inurba_marseille","lat":43.2905,"lon":5.39985,"is_reserved":false,"is_disabled":false,"rental_uris":{"android":"levelo://app?vid=65adcb48-fd70-4e3a-9d63-9c88a9b10948","ios":"levelo://app?vid=65adcb48-fd70-4e3a-9d63-9c88a9b10948"},"vehicle_type_id":"4","last_reported":1767792757,"current_range_meters":3600,"station_id":"","pricing_plan_id":"cebpf4jnsgd1na2vs0mg"},{"bike_id":"6c497e6d-f387-4486-b6c4-b3361d5d69f2","system_id":"levelo_inurba_marseille","lat":43.26779,"lon":5.39419,"is_reserved":false,"is_disabled":false,"rental_uris":{"android":"levelo://app?vid=6c497e6d-f387-4486-b6c4-b3361d5d69f2","ios":"levelo://app?vid=6c497e6d-f387-4486-b6c4-b3361d5d69f2"},"vehicle_type_id":"4","last_reported":1767792757,"current_range_meters":3600,"station_id":"ce4bhh12rcd13ifvqfg0","pricing_plan_id":"cebpf4jnsgd1na2vs0mg"},{"bike_id":"a3da1827-148b-41c2-bd04-cbeb3bb21a64","system_id":"levelo_inurba_marseille","lat":43.2796,"lon":5.38734,"is_reserved":false,"is_disabled":false,"rental_uris":{"android":"levelo://app?vid=a3da1827-148b-41c2-bd04-cbeb3bb21a64","ios":"levelo://app?vid=a3da1827-148b-41c2-bd04-cbeb3bb21a64"},"vehicle_type_id":"4","last_reported":1767792757,"current_range_meters":3600,"station_id":"ce4bhg12rcd13ifvqf80","pricing_plan_id":"cebpf4jnsgd1na2vs0mg"},{"bike_id":"27d9b984-914c-44c6-abe9-2fee68ccfc43","system_id":"levelo_inurba_marseille","lat":43.33154,"lon":5.37702,"is_reserved":false,"is_disabled":false,"rental_uris":{"android":"levelo://app?vid=27d9b984-914c-44c6-abe9-2fee68ccfc43","ios":"levelo://app?vid=27d9b984-914c-44c6-abe9-2fee68ccfc43"},"vehicle_type_id":"4","last_reported":1767792757,"current_range_meters":3600,"station_id":"st_d46cu089ee8s73dldbu0","pricing_plan_id":"cebpf4jnsgd1na2vs0mg"},{"bike_id":"69fa1287-3b4c-43a4-a734-74dc488adad2","system_id":"levelo_inurba_marseille","lat":43.25708,"lon":5.41136,"is_reserved":false,"is_disabled":false,"rental_uris":{"android":"levelo://app?vid=69fa1287-3b4c-43a4-a734-74dc488adad2","ios":"levelo://app?vid=69fa1287-3b4c-43a4-a734-74dc488adad2"},"vehicle_type_id":"4","last_reported":1767792757,"current_range_meters":3600,"station_id":"ce4bhkp2rcd13ifvqgd0","pricing_plan_id":"cebpf4jnsgd1na2vs0mg"},{"bike_id":"2b249141-87e2-4eaa-8d21-183c28a1a8bb","system_id":"levelo_inurba_marseille","lat":43.29733,"lon":5.42801,"is_reserved":false,"is_disabled":false,"rental_uris":{"android":"levelo://app?vid=2b249141-87e2-4eaa-8d21-183c28a1a8bb","ios":"levelo://app?vid=2b249141-87e2-4eaa-8d21-183c28a1a8bb"},"vehicle_type_id":"4","last_reported":1767792757,"current_range_meters":3600,"station_id":"st_d3md5207bmas73dh9klg","pricing_plan_id":"cebpf4jnsgd1na2vs0mg"},{"bike_id":"12c5f871-be2d-45b3-8403-73dcbd963733","system_id":"levelo_inurba_marseille","lat":43.265679,"lon":5.39011,"is_reserved":false,"is_disabled":false,"rental_uris":{"android":"levelo://app?vid=12c5f871-be2d-45b3-8403-73dcbd963733","ios":"levelo://app?vid=12c5f871-be2d-45b3-8403-73dcbd963733"},"vehicle_type_id":"4","last_reported":1767792757,"current_range_meters":4000,"station_id":"ce4bhe12rcd13ifvqf30","pricing_plan_id":"cebpf4jnsgd1na2vs0mg"},{"bike_id":"9429cadb-a739-4f5f-8c2b-cc91a27439eb","system_id":"levelo_inurba_marseille","lat":43.276815,"lon":5.420419,"is_reserved":false,"is_disabled":false,"rental_uris":{"android":"levelo://app?vid=9429cadb-a739-4f5f-8c2b-cc91a27439eb","ios":"levelo://app?vid=9429cadb-a739-4f5f-8c2b-cc91a27439eb"},"vehicle_type_id":"4","last_reported":1767792757,"current_range_meters":4000,"station_id":"","pricing_plan_id":"cebpf4jnsgd1na2vs0mg"},{"bike_id":"6a37a502-8a4f-4bc7-83bd-16348e8cf97e","system_id":"levelo_inurba_marseille","lat":43.32086,"lon":5.36763,"is_reserved":false,"is_disabled":false,"rental_uris":{"android":"levelo://app?vid=6a37a502-8a4f-4bc7-83bd-16348e8cf97e","ios":"levelo://app?vid=6a37a502-8a4f-4bc7-83bd-16348e8cf97e"},"vehicle_type_id":"4","last_reported":1767792757,"current_range_meters":4000,"station_id":"ce4bhrh2rcd13ifvqhug","pricing_plan_id":"cebpf4jnsgd1na2vs0mg"},{"bike_id":"2af0ce7c-ca3c-4dfe-9ab3-190f23e26597","system_id":"levelo_inurba_marseille","lat":43.238731,"lon":5.365227,"is_reserved":false,"is_disabled":false,"rental_uris":{"android":"levelo://app?vid=2af0ce7c-ca3c-4dfe-9ab3-190f23e26597","ios":"levelo://app?vid=2af0ce7c-ca3c-4dfe-9ab3-190f23e26597"},"vehicle_type_id":"4","last_reported":1767792757,"current_range_meters":4000,"station_id":"","pricing_plan_id":"cebpf4jnsgd1na2vs0mg"},{"bike_id":"1cc14a4e-8f2c-4bea-9c25-f855a4eff001","system_id":"levelo_inurba_marseille","lat":43.286153,"lon":5.351025,"is_reserved":false,"is_disabled":false,"rental_uris":{"android":"levelo://app?vid=1cc14a4e-8f2c-4bea-9c25-f855a4eff001","ios":"levelo://app?vid=1cc14a4e-8f2c-4bea-9c25-f855a4eff001"},"vehicle_type_id":"4","last_reported":1767792757,"current_range_meters":4000,"station_id":"ce4bhch2rcd13ifvqeug","pricing_plan_id":"cebpf4jnsgd1na2vs0mg"},{"bike_id":"b2bf8f93-af04-463d-b424-98c34e1a8754","system_id":"levelo_inurba_marseille","lat":43.31321,"lon":5.36728,"is_reserved":false,"is_disabled":false,"rental_uris":{"android":"levelo://app?vid=b2bf8f93-af04-463d-b424-98c34e1a8754","ios":"levelo://app?vid=b2bf8f93-af04-463d-b424-98c34e1a8754"},"vehicle_type_id":"4","last_reported":1767792757,"current_range_meters":4000,"station_id":"ce4bgr92rcd13ifvqc6g","pricing_plan_id":"cebpf4jnsgd1na2vs0mg"},{"bike_id":"0f323b4d-468b-4ecc-b404-0ab8c33e44c2","system_id":"levelo_inurba_marseille","lat":43.30249,"lon":5.40058,"is_reserved":false,"is_disabled":false,"rental_uris":{"android":"levelo://app?vid=0f323b4d-468b-4ecc-b404-0ab8c33e44c2","ios":"levelo://app?vid=0f323b4d-468b-4ecc-b404-0ab8c33e44c2"},"vehicle_type_id":"4","last_reported":1767792757,"current_range_meters":4000,"station_id":"ce4bgvh2rcd13ifvqcs0","pricing_plan_id":"cebpf4jnsgd1na2vs0mg"},{"bike_id":"b873d448-1951-4df5-bd2c-5e9d96c8aae5","system_id":"levelo_inurba_marseille","lat":43.23785,"lon":5.3663,"is_reserved":false,"is_disabled":false,"rental_uris":{"android":"levelo://app?vid=b873d448-1951-4df5-bd2c-5e9d96c8aae5","ios":"levelo://app?vid=b873d448-1951-4df5-bd2c-5e9d96c8aae5"},"vehicle_type_id":"4","last_reported":1767792757,"current_range_meters":4000,"station_id":"st_d3nk18o9ro0c73en2l3g","pricing_plan_id":"cebpf4jnsgd1na2vs0mg"},{"bike_id":"174e0a88-28ce-484e-8861-adcbe3a929da","system_id":"levelo_inurba_marseille","lat":43.28481,"lon":5.48386,"is_reserved":false,"is_disabled":false,"rental_uris":{"android":"levelo://app?vid=174e0a88-28ce-484e-8861-adcbe3a929da","ios":"levelo://app?vid=174e0a88-28ce-484e-8861-adcbe3a929da"},"vehicle_type_id":"4","last_reported":1767792757,"current_range_meters":4000,"station_id":"st_d3svhcjqgbts73a3dn0g","pricing_plan_id":"cebpf4jnsgd1na2vs0mg"},{"bike_id":"9b21424a-1587-45e4-bf2a-4284accabf77","system_id":"levelo_inurba_marseille","lat":43.28481,"lon":5.48405,"is_reserved":false,"is_disabled":false,"rental_uris":{"android":"levelo://app?vid=9b21424a-1587-45e4-bf2a-4284accabf77","ios":"levelo://app?vid=9b21424a-1587-45e4-bf2a-4284accabf77"},"vehicle_type_id":"4","last_reported":1767792757,"current_range_meters":4000,"station_id":"","pricing_plan_id":"cebpf4jnsgd1na2vs0mg"},{"bike_id":"7e757638-69a8-48b6-9e27-cb0b71cb5d47","system_id":"levelo_inurba_marseille","lat":43.29516,"lon":5.38552,"is_reserved":false,"is_disabled":false,"rental_uris":{"android":"levelo://app?vid=7e757638-69a8-48b6-9e27-cb0b71cb5d47","ios":"levelo://app?vid=7e757638-69a8-48b6-9e27-cb0b71cb5d47"},"vehicle_type_id":"4","last_reported":1767792757,"current_range_meters":4400,"station_id":"ce4bgih2rcd13ifvqba0","pricing_plan_id":"cebpf4jnsgd1na2vs0mg"},{"bike_id":"a60e859d-20a7-4efc-ab94-0c4ccc8ad025","system_id":"levelo_inurba_marseille","lat":43.30646,"lon":5.36595,"is_reserved":false,"is_disabled":false,"rental_uris":{"android":"levelo://app?vid=a60e859d-20a7-4efc-ab94-0c4ccc8ad025","ios":"levelo://app?vid=a60e859d-20a7-4efc-ab94-0c4ccc8ad025"},"vehicle_type_id":"4","last_reported":1767792757,"current_range_meters":4400,"station_id":"","pricing_plan_id":"cebpf4jnsgd1na2vs0mg"},{"bike_id":"6eb221bd-dee6-40a4-b98b-ed096afa0d58","system_id":"levelo_inurba_marseille","lat":43.301882,"lon":5.366296,"is_reserved":false,"is_disabled":false,"rental_uris":{"android":"levelo://app?vid=6eb221bd-dee6-40a4-b98b-ed096afa0d58","ios":"levelo://app?vid=6eb221bd-dee6-40a4-b98b-ed096afa0d58"},"vehicle_type_id":"4","last_reported":1767792757,"current_range_meters":4400,"station_id":"ce4bgrh2rcd13ifvqc8g","pricing_plan_id":"cebpf4jnsgd1na2vs0mg"},{"bike_id":"15bf6c3d-bc89-4e44-bfe7-ef27538e093c","system_id":"levelo_inurba_marseille","lat":43.24627,"lon":5.43152,"is_reserved":false,"is_disabled":false,"rental_uris":{"android":"levelo://app?vid=15bf6c3d-bc89-4e44-bfe7-ef27538e093c","ios":"levelo://app?vid=15bf6c3d-bc89-4e44-bfe7-ef27538e093c"},"vehicle_type_id":"4","last_reported":1767792757,"current_range_meters":4400,"station_id":"st_d2m6c4gdas8pm72e190g","pricing_plan_id":"cebpf4jnsgd1na2vs0mg"},{"bike_id":"9c62d6bb-0172-41f5-ba4c-2bc02cb06a76","system_id":"levelo_inurba_marseille","lat":43.30193,"lon":5.36646,"is_reserved":false,"is_disabled":false,"rental_uris":{"android":"levelo://app?vid=9c62d6bb-0172-41f5-ba4c-2bc02cb06a76","ios":"levelo://app?vid=9c62d6bb-0172-41f5-ba4c-2bc02cb06a76"},"vehicle_type_id":"4","last_reported":1767792757,"current_range_meters":4400,"station_id":"ce4bgrh2rcd13ifvqc8g","pricing_plan_id":"cebpf4jnsgd1na2vs0mg"},{"bike_id":"82f6d72a-169c-46dc-bf44-f03a21f411bf","system_id":"levelo_inurba_marseille","lat":43.24472,"lon":5.42553,"is_reserved":false,"is_disabled":false,"rental_uris":{"android":"levelo://app?vid=82f6d72a-169c-46dc-bf44-f03a21f411bf","ios":"levelo://app?vid=82f6d72a-169c-46dc-bf44-f03a21f411bf"},"vehicle_type_id":"4","last_reported":1767792757,"current_range_meters":4400,"station_id":"st_d4a3vfp97mjs738cd8kg","pricing_plan_id":"cebpf4jnsgd1na2vs0mg"},{"bike_id":"a3ee079f-260a-47a9-a88a-3d7fd53629b6","system_id":"levelo_inurba_marseille","lat":43.298514,"lon":5.362913,"is_reserved":false,"is_disabled":false,"rental_uris":{"android":"levelo://app?vid=a3ee079f-260a-47a9-a88a-3d7fd53629b6","ios":"levelo://app?vid=a3ee079f-260a-47a9-a88a-3d7fd53629b6"},"vehicle_type_id":"4","last_reported":1767792757,"current_range_meters":4400,"station_id":"ce4bgpp2rcd13ifvqc3g","pricing_plan_id":"cebpf4jnsgd1na2vs0mg"},{"bike_id":"55a802b4-e353-46ec-8234-30b8b13627a1","system_id":"levelo_inurba_marseille","lat":43.311857,"lon":5.387218,"is_reserved":false,"is_disabled":false,"rental_uris":{"android":"levelo://app?vid=55a802b4-e353-46ec-8234-30b8b13627a1","ios":"levelo://app?vid=55a802b4-e353-46ec-8234-30b8b13627a1"},"vehicle_type_id":"4","last_reported":1767792757,"current_range_meters":4800,"station_id":"ce4bgv12rcd13ifvqcp0","pricing_plan_id":"cebpf4jnsgd1na2vs0mg"},{"bike_id":"5e72df6a-f014-4ea4-ad60-94057d8db01a","system_id":"levelo_inurba_marseille","lat":43.259334,"lon":5.409143,"is_reserved":false,"is_disabled":false,"rental_uris":{"android":"levelo://app?vid=5e72df6a-f014-4ea4-ad60-94057d8db01a","ios":"levelo://app?vid=5e72df6a-f014-4ea4-ad60-94057d8db01a"},"vehicle_type_id":"4","last_reported":1767792757,"current_range_meters":4800,"station_id":"ce4bhm92rcd13ifvqglg","pricing_plan_id":"cebpf4jnsgd1na2vs0mg"},{"bike_id":"ab6fe2ee-200d-418c-a693-20bf0b5f3548","system_id":"levelo_inurba_marseille","lat":43.260668,"lon":5.393931,"is_reserved":false,"is_disabled":false,"rental_uris":{"android":"levelo://app?vid=ab6fe2ee-200d-418c-a693-20bf0b5f3548","ios":"levelo://app?vid=ab6fe2ee-200d-418c-a693-20bf0b5f3548"},"vehicle_type_id":"4","last_reported":1767792757,"current_range_meters":4800,"station_id":"","pricing_plan_id":"cebpf4jnsgd1na2vs0mg"},{"bike_id":"e9e6f93f-566e-422e-9b71-a79556ab8c5d","system_id":"levelo_inurba_marseille","lat":43.30286,"lon":5.45653,"is_reserved":false,"is_disabled":false,"rental_uris":{"android":"levelo://app?vid=e9e6f93f-566e-422e-9b71-a79556ab8c5d","ios":"levelo://app?vid=e9e6f93f-566e-422e-9b71-a79556ab8c5d"},"vehicle_type_id":"4","last_reported":1767792757,"current_range_meters":4800,"station_id":"","pricing_plan_id":"cebpf4jnsgd1na2vs0mg"},{"bike_id":"63931dd9-5e9c-4cb5-b5fe-d5d26fe59f6e","system_id":"levelo_inurba_marseille","lat":43.24168,"lon":5.36397,"is_reserved":false,"is_disabled":false,"rental_uris":{"android":"levelo://app?vid=63931dd9-5e9c-4cb5-b5fe-d5d26fe59f6e","ios":"levelo://app?vid=63931dd9-5e9c-4cb5-b5fe-d5d26fe59f6e"},"vehicle_type_id":"4","last_reported":1767792757,"current_range_meters":4800,"station_id":"cpo36qri1sfpv3e86is0","pricing_plan_id":"cebpf4jnsgd1na2vs0mg"},{"bike_id":"b8408ccb-17d0-4ba3-b31e-918a33cf6e7d","system_id":"levelo_inurba_marseille","lat":43.24669,"lon":5.38172,"is_reserved":false,"is_disabled":true,"rental_uris":{"android":"levelo://app?vid=b8408ccb-17d0-4ba3-b31e-918a33cf6e7d","ios":"levelo://app?vid=b8408ccb-17d0-4ba3-b31e-918a33cf6e7d"},"vehicle_type_id":"4","last_reported":1767792757,"current_range_meters":4800,"station_id":"ce4bhih2rcd13ifvqfr0","pricing_plan_id":"cebpf4jnsgd1na2vs0mg"},{"bike_id":"d2201747-bdee-4fca-872c-80a5ab417c3a","system_id":"levelo_inurba_marseille","lat":43.27205,"lon":5.39194,"is_reserved":false,"is_disabled":false,"rental_uris":{"android":"levelo://app?vid=d2201747-bdee-4fca-872c-80a5ab417c3a","ios":"levelo://app?vid=d2201747-bdee-4fca-872c-80a5ab417c3a"},"vehicle_type_id":"4","last_reported":1767792757,"current_range_meters":4800,"station_id":"ce4bhhp2rcd13ifvqfm0","pricing_plan_id":"cebpf4jnsgd1na2vs0mg"},{"bike_id":"97ffd4db-4451-43a6-9ab0-0787e4e0386e","system_id":"levelo_inurba_marseille","lat":43.265538,"lon":5.372834,"is_reserved":false,"is_disabled":false,"rental_uris":{"android":"levelo://app?vid=97ffd4db-4451-43a6-9ab0-0787e4e0386e","ios":"levelo://app?vid=97ffd4db-4451-43a6-9ab0-0787e4e0386e"},"vehicle_type_id":"4","last_reported":1767792757,"current_range_meters":5600,"station_id":"","pricing_plan_id":"cebpf4jnsgd1na2vs0mg"},{"bike_id":"73b7ffc9-4bed-4e99-bfa7-6d859db78ae7","system_id":"levelo_inurba_marseille","lat":43.26563,"lon":5.40328,"is_reserved":false,"is_disabled":false,"rental_uris":{"android":"levelo://app?vid=73b7ffc9-4bed-4e99-bfa7-6d859db78ae7","ios":"levelo://app?vid=73b7ffc9-4bed-4e99-bfa7-6d859db78ae7"},"vehicle_type_id":"4","last_reported":1767792757,"current_range_meters":5600,"station_id":"ce4bhmp2rcd13ifvqgng","pricing_plan_id":"cebpf4jnsgd1na2vs0mg"},{"bike_id":"8f0d1315-0bea-48f3-947d-e402f4e774a7","system_id":"levelo_inurba_marseille","lat":43.29713,"lon":5.37697,"is_reserved":false,"is_disabled":false,"rental_uris":{"android":"levelo://app?vid=8f0d1315-0bea-48f3-947d-e402f4e774a7","ios":"levelo://app?vid=8f0d1315-0bea-48f3-947d-e402f4e774a7"},"vehicle_type_id":"4","last_reported":1767792757,"current_range_meters":5600,"station_id":"ce4bgkh2rcd13ifvqbl0","pricing_plan_id":"cebpf4jnsgd1na2vs0mg"},{"bike_id":"a12d0214-d901-4a7d-b315-4d327e206f7f","system_id":"levelo_inurba_marseille","lat":43.265488,"lon":5.372913,"is_reserved":false,"is_disabled":true,"rental_uris":{"android":"levelo://app?vid=a12d0214-d901-4a7d-b315-4d327e206f7f","ios":"levelo://app?vid=a12d0214-d901-4a7d-b315-4d327e206f7f"},"vehicle_type_id":"4","last_reported":1767792757,"current_range_meters":5600,"station_id":"ce4bhg12rcd13ifvqf70","pricing_plan_id":"cebpf4jnsgd1na2vs0mg"},{"bike_id":"72ba40ff-3811-448f-9824-0a29539e09d4","system_id":"levelo_inurba_marseille","lat":43.22556,"lon":5.41623,"is_reserved":false,"is_disabled":false,"rental_uris":{"android":"levelo://app?vid=72ba40ff-3811-448f-9824-0a29539e09d4","ios":"levelo://app?vid=72ba40ff-3811-448f-9824-0a29539e09d4"},"vehicle_type_id":"4","last_reported":1767792757,"current_range_meters":5600,"station_id":"st_d2o4gvlbi1j2169b742g","pricing_plan_id":"cebpf4jnsgd1na2vs0mg"},{"bike_id":"35a86916-534f-43b4-984a-3f0e1e7ff772","system_id":"levelo_inurba_marseille","lat":43.31492,"lon":5.3731,"is_reserved":false,"is_disabled":false,"rental_uris":{"android":"levelo://app?vid=35a86916-534f-43b4-984a-3f0e1e7ff772","ios":"levelo://app?vid=35a86916-534f-43b4-984a-3f0e1e7ff772"},"vehicle_type_id":"4","last_reported":1767792757,"current_range_meters":5600,"station_id":"ce4bgt12rcd13ifvqcd0","pricing_plan_id":"cebpf4jnsgd1na2vs0mg"},{"bike_id":"1ed1136a-6d18-431b-ac67-f90736592795","system_id":"levelo_inurba_marseille","lat":43.29033,"lon":5.39962,"is_reserved":false,"is_disabled":false,"rental_uris":{"android":"levelo://app?vid=1ed1136a-6d18-431b-ac67-f90736592795","ios":"levelo://app?vid=1ed1136a-6d18-431b-ac67-f90736592795"},"vehicle_type_id":"4","last_reported":1767792757,"current_range_meters":5600,"station_id":"ce4bh392rcd13ifvqdm0","pricing_plan_id":"cebpf4jnsgd1na2vs0mg"},{"bike_id":"03bb26cc-5abe-463b-b42d-df12dfc80fb1","system_id":"levelo_inurba_marseille","lat":43.27985,"lon":5.40032,"is_reserved":false,"is_disabled":false,"rental_uris":{"android":"levelo://app?vid=03bb26cc-5abe-463b-b42d-df12dfc80fb1","ios":"levelo://app?vid=03bb26cc-5abe-463b-b42d-df12dfc80fb1"},"vehicle_type_id":"4","last_reported":1767792757,"current_range_meters":5600,"station_id":"ce4bho92rcd13ifvqh4g","pricing_plan_id":"cebpf4jnsgd1na2vs0mg"},{"bike_id":"611c0c7e-8d54-4ad1-832e-5510ffd3817c","system_id":"levelo_inurba_marseille","lat":43.2982,"lon":5.38085,"is_reserved":false,"is_disabled":false,"rental_uris":{"android":"levelo://app?vid=611c0c7e-8d54-4ad1-832e-5510ffd3817c","ios":"levelo://app?vid=611c0c7e-8d54-4ad1-832e-5510ffd3817c"},"vehicle_type_id":"4","last_reported":1767792757,"current_range_meters":5600,"station_id":"ce4bgip2rcd13ifvqbb0","pricing_plan_id":"cebpf4jnsgd1na2vs0mg"},{"bike_id":"05913a82-5d97-49fd-869e-011fe384b874","system_id":"levelo_inurba_marseille","lat":43.29843,"lon":5.378312,"is_reserved":false,"is_disabled":false,"rental_uris":{"android":"levelo://app?vid=05913a82-5d97-49fd-869e-011fe384b874","ios":"levelo://app?vid=05913a82-5d97-49fd-869e-011fe384b874"},"vehicle_type_id":"4","last_reported":1767792757,"current_range_meters":5600,"station_id":"","pricing_plan_id":"cebpf4jnsgd1na2vs0mg"},{"bike_id":"0c2d784c-b4bb-4d08-8bab-0e065a6b1926","system_id":"levelo_inurba_marseille","lat":43.30479,"lon":5.379,"is_reserved":false,"is_disabled":false,"rental_uris":{"android":"levelo://app?vid=0c2d784c-b4bb-4d08-8bab-0e065a6b1926","ios":"levelo://app?vid=0c2d784c-b4bb-4d08-8bab-0e065a6b1926"},"vehicle_type_id":"4","last_reported":1767792757,"current_range_meters":5600,"station_id":"ce4bgup2rcd13ifvqcn0","pricing_plan_id":"cebpf4jnsgd1na2vs0mg"},{"bike_id":"16aa4273-9889-401f-a55e-b9a148a6292e","system_id":"levelo_inurba_marseille","lat":43.275537,"lon":5.384378,"is_reserved":false,"is_disabled":false,"rental_uris":{"android":"levelo://app?vid=16aa4273-9889-401f-a55e-b9a148a6292e","ios":"levelo://app?vid=16aa4273-9889-401f-a55e-b9a148a6292e"},"vehicle_type_id":"4","last_reported":1767792757,"current_range_meters":5600,"station_id":"ce4bhh92rcd13ifvqfi0","pricing_plan_id":"cebpf4jnsgd1na2vs0mg"},{"bike_id":"3f2f1631-23db-4e01-a38b-0daabcdf369a","system_id":"levelo_inurba_marseille","lat":43.29924,"lon":5.40236,"is_reserved":false,"is_disabled":false,"rental_uris":{"android":"levelo://app?vid=3f2f1631-23db-4e01-a38b-0daabcdf369a","ios":"levelo://app?vid=3f2f1631-23db-4e01-a38b-0daabcdf369a"},"vehicle_type_id":"4","last_reported":1767792757,"current_range_meters":5600,"station_id":"","pricing_plan_id":"cebpf4jnsgd1na2vs0mg"},{"bike_id":"4b02a8d2-87b0-4ad1-9463-8088094b1434","system_id":"levelo_inurba_marseille","lat":43.29282,"lon":5.37785,"is_reserved":false,"is_disabled":false,"rental_uris":{"android":"levelo://app?vid=4b02a8d2-87b0-4ad1-9463-8088094b1434","ios":"levelo://app?vid=4b02a8d2-87b0-4ad1-9463-8088094b1434"},"vehicle_type_id":"4","last_reported":1767792757,"current_range_meters":5600,"station_id":"","pricing_plan_id":"cebpf4jnsgd1na2vs0mg"},{"bike_id":"62cb22d9-379f-4a14-9307-a2357290642a","system_id":"levelo_inurba_marseille","lat":43.2999,"lon":5.3789,"is_reserved":false,"is_disabled":false,"rental_uris":{"android":"levelo://app?vid=62cb22d9-379f-4a14-9307-a2357290642a","ios":"levelo://app?vid=62cb22d9-379f-4a14-9307-a2357290642a"},"vehicle_type_id":"4","last_reported":1767792757,"current_range_meters":5600,"station_id":"","pricing_plan_id":"cebpf4jnsgd1na2vs0mg"},{"bike_id":"06992c46-6889-40f3-a5d1-edc32d603bfb","system_id":"levelo_inurba_marseille","lat":43.286,"lon":5.39932,"is_reserved":false,"is_disabled":false,"rental_uris":{"android":"levelo://app?vid=06992c46-6889-40f3-a5d1-edc32d603bfb","ios":"levelo://app?vid=06992c46-6889-40f3-a5d1-edc32d603bfb"},"vehicle_type_id":"4","last_reported":1767792757,"current_range_meters":5600,"station_id":"ce4bho92rcd13ifvqh3g","pricing_plan_id":"cebpf4jnsgd1na2vs0mg"},{"bike_id":"c4f17ea1-3d13-44a1-922d-ca39b1f92478","system_id":"levelo_inurba_marseille","lat":43.29628,"lon":5.37149,"is_reserved":false,"is_disabled":true,"rental_uris":{"android":"levelo://app?vid=c4f17ea1-3d13-44a1-922d-ca39b1f92478","ios":"levelo://app?vid=c4f17ea1-3d13-44a1-922d-ca39b1f92478"},"vehicle_type_id":"4","last_reported":1767792757,"current_range_meters":6000,"station_id":"ce4bgnh2rcd13ifvqc0g","pricing_plan_id":"cebpf4jnsgd1na2vs0mg"},{"bike_id":"847cf1b4-4bce-4576-9690-b0c6f3de0dd0","system_id":"levelo_inurba_marseille","lat":43.26363,"lon":5.41071,"is_reserved":false,"is_disabled":false,"rental_uris":{"android":"levelo://app?vid=847cf1b4-4bce-4576-9690-b0c6f3de0dd0","ios":"levelo://app?vid=847cf1b4-4bce-4576-9690-b0c6f3de0dd0"},"vehicle_type_id":"4","last_reported":1767792757,"current_range_meters":6000,"station_id":"st_d4e5ca6na9uc73bfl5fg","pricing_plan_id":"cebpf4jnsgd1na2vs0mg"},{"bike_id":"7f8f8133-4c5b-4469-8602-47a2aed54586","system_id":"levelo_inurba_marseille","lat":43.30284,"lon":5.4352,"is_reserved":false,"is_disabled":false,"rental_uris":{"android":"levelo://app?vid=7f8f8133-4c5b-4469-8602-47a2aed54586","ios":"levelo://app?vid=7f8f8133-4c5b-4469-8602-47a2aed54586"},"vehicle_type_id":"4","last_reported":1767792757,"current_range_meters":6000,"station_id":"","pricing_plan_id":"cebpf4jnsgd1na2vs0mg"},{"bike_id":"24273750-fbb8-405a-a600-7b8d138393f8","system_id":"levelo_inurba_marseille","lat":43.29608,"lon":5.37795,"is_reserved":false,"is_disabled":false,"rental_uris":{"android":"levelo://app?vid=24273750-fbb8-405a-a600-7b8d138393f8","ios":"levelo://app?vid=24273750-fbb8-405a-a600-7b8d138393f8"},"vehicle_type_id":"4","last_reported":1767792757,"current_range_meters":6000,"station_id":"","pricing_plan_id":"cebpf4jnsgd1na2vs0mg"},{"bike_id":"dbe1578d-1079-44f5-be0c-7995dc4cef12","system_id":"levelo_inurba_marseille","lat":43.30229,"lon":5.39488,"is_reserved":false,"is_disabled":false,"rental_uris":{"android":"levelo://app?vid=dbe1578d-1079-44f5-be0c-7995dc4cef12","ios":"levelo://app?vid=dbe1578d-1079-44f5-be0c-7995dc4cef12"},"vehicle_type_id":"4","last_reported":1767792757,"current_range_meters":6000,"station_id":"","pricing_plan_id":"cebpf4jnsgd1na2vs0mg"},{"bike_id":"aa323760-6cdd-4364-b0a8-848f910cc737","system_id":"levelo_inurba_marseille","lat":43.30184,"lon":5.36629,"is_reserved":false,"is_disabled":false,"rental_uris":{"android":"levelo://app?vid=aa323760-6cdd-4364-b0a8-848f910cc737","ios":"levelo://app?vid=aa323760-6cdd-4364-b0a8-848f910cc737"},"vehicle_type_id":"4","last_reported":1767792757,"current_range_meters":6000,"station_id":"ce4bgrh2rcd13ifvqc8g","pricing_plan_id":"cebpf4jnsgd1na2vs0mg"},{"bike_id":"9eb913cd-2db4-48fc-a9eb-2256ba745c47","system_id":"levelo_inurba_marseille","lat":43.31704,"lon":5.437,"is_reserved":false,"is_disabled":false,"rental_uris":{"android":"levelo://app?vid=9eb913cd-2db4-48fc-a9eb-2256ba745c47","ios":"levelo://app?vid=9eb913cd-2db4-48fc-a9eb-2256ba745c47"},"vehicle_type_id":"4","last_reported":1767792757,"current_range_meters":6000,"station_id":"ce4bhp92rcd13ifvqhcg","pricing_plan_id":"cebpf4jnsgd1na2vs0mg"},{"bike_id":"3275b859-c08d-4706-afc8-86a6bdcab3a2","system_id":"levelo_inurba_marseille","lat":43.24392,"lon":5.3705,"is_reserved":false,"is_disabled":false,"rental_uris":{"android":"levelo://app?vid=3275b859-c08d-4706-afc8-86a6bdcab3a2","ios":"levelo://app?vid=3275b859-c08d-4706-afc8-86a6bdcab3a2"},"vehicle_type_id":"4","last_reported":1767792757,"current_range_meters":6000,"station_id":"ce4bhhh2rcd13ifvqfk0","pricing_plan_id":"cebpf4jnsgd1na2vs0mg"},{"bike_id":"26471476-0788-4cdb-9b4d-9f0b3e686ab5","system_id":"levelo_inurba_marseille","lat":43.31311,"lon":5.3868,"is_reserved":false,"is_disabled":false,"rental_uris":{"android":"levelo://app?vid=26471476-0788-4cdb-9b4d-9f0b3e686ab5","ios":"levelo://app?vid=26471476-0788-4cdb-9b4d-9f0b3e686ab5"},"vehicle_type_id":"4","last_reported":1767792757,"current_range_meters":6000,"station_id":"","pricing_plan_id":"cebpf4jnsgd1na2vs0mg"},{"bike_id":"4b095016-db2a-4566-99ac-7ac9d70ba99d","system_id":"levelo_inurba_marseille","lat":43.29626,"lon":5.37712,"is_reserved":false,"is_disabled":false,"rental_uris":{"android":"levelo://app?vid=4b095016-db2a-4566-99ac-7ac9d70ba99d","ios":"levelo://app?vid=4b095016-db2a-4566-99ac-7ac9d70ba99d"},"vehicle_type_id":"4","last_reported":1767792757,"current_range_meters":6000,"station_id":"ce4bgi92rcd13ifvqb90","pricing_plan_id":"cebpf4jnsgd1na2vs0mg"},{"bike_id":"f5e7e1f2-33c5-4813-86da-3c7d45f6a313","system_id":"levelo_inurba_marseille","lat":43.2716,"lon":5.362827,"is_reserved":false,"is_disabled":false,"rental_uris":{"android":"levelo://app?vid=f5e7e1f2-33c5-4813-86da-3c7d45f6a313","ios":"levelo://app?vid=f5e7e1f2-33c5-4813-86da-3c7d45f6a313"},"vehicle_type_id":"4","last_reported":1767792757,"current_range_meters":6000,"station_id":"","pricing_plan_id":"cebpf4jnsgd1na2vs0mg"},{"bike_id":"ab04393d-6fa3-4001-a0f9-e3f858f95f81","system_id":"levelo_inurba_marseille","lat":43.30464,"lon":5.37913,"is_reserved":false,"is_disabled":false,"rental_uris":{"android":"levelo://app?vid=ab04393d-6fa3-4001-a0f9-e3f858f95f81","ios":"levelo://app?vid=ab04393d-6fa3-4001-a0f9-e3f858f95f81"},"vehicle_type_id":"4","last_reported":1767792757,"current_range_meters":6000,"station_id":"ce4bgup2rcd13ifvqcn0","pricing_plan_id":"cebpf4jnsgd1na2vs0mg"},{"bike_id":"882a8eaa-7854-4e86-9d8f-580b3e2ac347","system_id":"levelo_inurba_marseille","lat":43.265538,"lon":5.372878,"is_reserved":false,"is_disabled":false,"rental_uris":{"android":"levelo://app?vid=882a8eaa-7854-4e86-9d8f-580b3e2ac347","ios":"levelo://app?vid=882a8eaa-7854-4e86-9d8f-580b3e2ac347"},"vehicle_type_id":"4","last_reported":1767792757,"current_range_meters":6000,"station_id":"ce4bhg12rcd13ifvqf70","pricing_plan_id":"cebpf4jnsgd1na2vs0mg"},{"bike_id":"544308b1-4221-4936-8f93-e18efc28f27b","system_id":"levelo_inurba_marseille","lat":43.26785,"lon":5.39411,"is_reserved":false,"is_disabled":false,"rental_uris":{"android":"levelo://app?vid=544308b1-4221-4936-8f93-e18efc28f27b","ios":"levelo://app?vid=544308b1-4221-4936-8f93-e18efc28f27b"},"vehicle_type_id":"4","last_reported":1767792757,"current_range_meters":6000,"station_id":"ce4bhh12rcd13ifvqfg0","pricing_plan_id":"cebpf4jnsgd1na2vs0mg"},{"bike_id":"8a460654-7ebe-4190-b4f4-7baa7c373f0b","system_id":"levelo_inurba_marseille","lat":43.25119,"lon":5.40316,"is_reserved":false,"is_disabled":false,"rental_uris":{"android":"levelo://app?vid=8a460654-7ebe-4190-b4f4-7baa7c373f0b","ios":"levelo://app?vid=8a460654-7ebe-4190-b4f4-7baa7c373f0b"},"vehicle_type_id":"4","last_reported":1767792757,"current_range_meters":6000,"station_id":"ce4bhlh2rcd13ifvqgig","pricing_plan_id":"cebpf4jnsgd1na2vs0mg"},{"bike_id":"3c4ae0d1-39a6-4c69-a6f7-722d43e1907b","system_id":"levelo_inurba_marseille","lat":43.27079,"lon":5.42272,"is_reserved":false,"is_disabled":false,"rental_uris":{"android":"levelo://app?vid=3c4ae0d1-39a6-4c69-a6f7-722d43e1907b","ios":"levelo://app?vid=3c4ae0d1-39a6-4c69-a6f7-722d43e1907b"},"vehicle_type_id":"4","last_reported":1767792757,"current_range_meters":6000,"station_id":"ce4bhk92rcd13ifvqgb0","pricing_plan_id":"cebpf4jnsgd1na2vs0mg"},{"bike_id":"02670ebd-fc52-4f04-b628-6be9e3aff8a7","system_id":"levelo_inurba_marseille","lat":43.30634,"lon":5.40094,"is_reserved":false,"is_disabled":false,"rental_uris":{"android":"levelo://app?vid=02670ebd-fc52-4f04-b628-6be9e3aff8a7","ios":"levelo://app?vid=02670ebd-fc52-4f04-b628-6be9e3aff8a7"},"vehicle_type_id":"4","last_reported":1767792757,"current_range_meters":6000,"station_id":"ce4bh112rcd13ifvqda0","pricing_plan_id":"cebpf4jnsgd1na2vs0mg"},{"bike_id":"1ac84a2f-834c-4512-8844-a6504078a505","system_id":"levelo_inurba_marseille","lat":43.29228,"lon":5.360652,"is_reserved":false,"is_disabled":false,"rental_uris":{"android":"levelo://app?vid=1ac84a2f-834c-4512-8844-a6504078a505","ios":"levelo://app?vid=1ac84a2f-834c-4512-8844-a6504078a505"},"vehicle_type_id":"4","last_reported":1767792757,"current_range_meters":6400,"station_id":"ce4bhbh2rcd13ifvqeqg","pricing_plan_id":"cebpf4jnsgd1na2vs0mg"},{"bike_id":"255f6a83-686a-42d7-b59b-0886f81cf758","system_id":"levelo_inurba_marseille","lat":43.23156,"lon":5.43707,"is_reserved":false,"is_disabled":false,"rental_uris":{"android":"levelo://app?vid=255f6a83-686a-42d7-b59b-0886f81cf758","ios":"levelo://app?vid=255f6a83-686a-42d7-b59b-0886f81cf758"},"vehicle_type_id":"4","last_reported":1767792757,"current_range_meters":6400,"station_id":"ce4bhmp2rcd13ifvqgog","pricing_plan_id":"cebpf4jnsgd1na2vs0mg"},{"bike_id":"bc2eb7b0-bb23-4973-8afa-e645fdad0791","system_id":"levelo_inurba_marseille","lat":43.29815,"lon":5.44063,"is_reserved":false,"is_disabled":false,"rental_uris":{"android":"levelo://app?vid=bc2eb7b0-bb23-4973-8afa-e645fdad0791","ios":"levelo://app?vid=bc2eb7b0-bb23-4973-8afa-e645fdad0791"},"vehicle_type_id":"4","last_reported":1767792757,"current_range_meters":6400,"station_id":"st_d3jp68qikq2c7381ktn0","pricing_plan_id":"cebpf4jnsgd1na2vs0mg"},{"bike_id":"5b1e28d0-cfd4-4f63-bcd7-e389c7a33f6a","system_id":"levelo_inurba_marseille","lat":43.24645,"lon":5.43139,"is_reserved":false,"is_disabled":false,"rental_uris":{"android":"levelo://app?vid=5b1e28d0-cfd4-4f63-bcd7-e389c7a33f6a","ios":"levelo://app?vid=5b1e28d0-cfd4-4f63-bcd7-e389c7a33f6a"},"vehicle_type_id":"4","last_reported":1767792757,"current_range_meters":6400,"station_id":"st_d2m6c4gdas8pm72e190g","pricing_plan_id":"cebpf4jnsgd1na2vs0mg"},{"bike_id":"184adeb8-9203-4f19-b080-ca451c49fd36","system_id":"levelo_inurba_marseille","lat":43.29159,"lon":5.37164,"is_reserved":false,"is_disabled":false,"rental_uris":{"android":"levelo://app?vid=184adeb8-9203-4f19-b080-ca451c49fd36","ios":"levelo://app?vid=184adeb8-9203-4f19-b080-ca451c49fd36"},"vehicle_type_id":"4","last_reported":1767792757,"current_range_meters":6400,"station_id":"ce4bha92rcd13ifvqeh0","pricing_plan_id":"cebpf4jnsgd1na2vs0mg"},{"bike_id":"dc8d977b-d7c3-429a-a52c-02eed234c21d","system_id":"levelo_inurba_marseille","lat":43.28474,"lon":5.38414,"is_reserved":false,"is_disabled":false,"rental_uris":{"android":"levelo://app?vid=dc8d977b-d7c3-429a-a52c-02eed234c21d","ios":"levelo://app?vid=dc8d977b-d7c3-429a-a52c-02eed234c21d"},"vehicle_type_id":"4","last_reported":1767792757,"current_range_meters":6400,"station_id":"ce4bh512rcd13ifvqe3g","pricing_plan_id":"cebpf4jnsgd1na2vs0mg"},{"bike_id":"4e9944d7-ff17-431f-9506-b409b96c8161","system_id":"levelo_inurba_marseille","lat":43.25575,"lon":5.38228,"is_reserved":false,"is_disabled":false,"rental_uris":{"android":"levelo://app?vid=4e9944d7-ff17-431f-9506-b409b96c8161","ios":"levelo://app?vid=4e9944d7-ff17-431f-9506-b409b96c8161"},"vehicle_type_id":"4","last_reported":1767792757,"current_range_meters":6400,"station_id":"ce4bhih2rcd13ifvqfs0","pricing_plan_id":"cebpf4jnsgd1na2vs0mg"},{"bike_id":"d4cb7d87-6e05-4a12-a6a8-801515607d75","system_id":"levelo_inurba_marseille","lat":43.32096,"lon":5.3677,"is_reserved":false,"is_disabled":false,"rental_uris":{"android":"levelo://app?vid=d4cb7d87-6e05-4a12-a6a8-801515607d75","ios":"levelo://app?vid=d4cb7d87-6e05-4a12-a6a8-801515607d75"},"vehicle_type_id":"4","last_reported":1767792757,"current_range_meters":6400,"station_id":"ce4bhrh2rcd13ifvqhug","pricing_plan_id":"cebpf4jnsgd1na2vs0mg"},{"bike_id":"05e8b676-62c1-43f9-8e39-73bec80b3a86","system_id":"levelo_inurba_marseille","lat":43.305502,"lon":5.365561,"is_reserved":false,"is_disabled":false,"rental_uris":{"android":"levelo://app?vid=05e8b676-62c1-43f9-8e39-73bec80b3a86","ios":"levelo://app?vid=05e8b676-62c1-43f9-8e39-73bec80b3a86"},"vehicle_type_id":"4","last_reported":1767792757,"current_range_meters":6400,"station_id":"ce4bgs12rcd13ifvqcag","pricing_plan_id":"cebpf4jnsgd1na2vs0mg"},{"bike_id":"acbd5e4f-e25a-4f78-98f2-8ce2be51a356","system_id":"levelo_inurba_marseille","lat":43.29853,"lon":5.36291,"is_reserved":false,"is_disabled":false,"rental_uris":{"android":"levelo://app?vid=acbd5e4f-e25a-4f78-98f2-8ce2be51a356","ios":"levelo://app?vid=acbd5e4f-e25a-4f78-98f2-8ce2be51a356"},"vehicle_type_id":"4","last_reported":1767792757,"current_range_meters":6400,"station_id":"ce4bgpp2rcd13ifvqc3g","pricing_plan_id":"cebpf4jnsgd1na2vs0mg"},{"bike_id":"d160cd8f-87bf-4d5f-b74b-9b1964c17957","system_id":"levelo_inurba_marseille","lat":43.28946,"lon":5.39629,"is_reserved":false,"is_disabled":false,"rental_uris":{"android":"levelo://app?vid=d160cd8f-87bf-4d5f-b74b-9b1964c17957","ios":"levelo://app?vid=d160cd8f-87bf-4d5f-b74b-9b1964c17957"},"vehicle_type_id":"4","last_reported":1767792757,"current_range_meters":6400,"station_id":"ce4bh3h2rcd13ifvqdn0","pricing_plan_id":"cebpf4jnsgd1na2vs0mg"},{"bike_id":"d56711ed-d0a1-40ef-a018-93f9c4fd77c9","system_id":"levelo_inurba_marseille","lat":43.290328,"lon":5.399858,"is_reserved":false,"is_disabled":false,"rental_uris":{"android":"levelo://app?vid=d56711ed-d0a1-40ef-a018-93f9c4fd77c9","ios":"levelo://app?vid=d56711ed-d0a1-40ef-a018-93f9c4fd77c9"},"vehicle_type_id":"4","last_reported":1767792757,"current_range_meters":6400,"station_id":"ce4bh392rcd13ifvqdm0","pricing_plan_id":"cebpf4jnsgd1na2vs0mg"},{"bike_id":"5ba0d7cc-04c8-45fb-a3f0-023a6c7d5f3b","system_id":"levelo_inurba_marseille","lat":43.25934,"lon":5.40902,"is_reserved":false,"is_disabled":false,"rental_uris":{"android":"levelo://app?vid=5ba0d7cc-04c8-45fb-a3f0-023a6c7d5f3b","ios":"levelo://app?vid=5ba0d7cc-04c8-45fb-a3f0-023a6c7d5f3b"},"vehicle_type_id":"4","last_reported":1767792757,"current_range_meters":6400,"station_id":"ce4bhm92rcd13ifvqglg","pricing_plan_id":"cebpf4jnsgd1na2vs0mg"},{"bike_id":"5f03a72b-ddbd-4fb9-9543-0e8d5d1dcead","system_id":"levelo_inurba_marseille","lat":43.31717,"lon":5.37745,"is_reserved":false,"is_disabled":false,"rental_uris":{"android":"levelo://app?vid=5f03a72b-ddbd-4fb9-9543-0e8d5d1dcead","ios":"levelo://app?vid=5f03a72b-ddbd-4fb9-9543-0e8d5d1dcead"},"vehicle_type_id":"4","last_reported":1767792757,"current_range_meters":6400,"station_id":"ce4bgth2rcd13ifvqch0","pricing_plan_id":"cebpf4jnsgd1na2vs0mg"},{"bike_id":"d94a94f4-003c-473b-87bc-9cd8d9c889e2","system_id":"levelo_inurba_marseille","lat":43.32352,"lon":5.36736,"is_reserved":false,"is_disabled":false,"rental_uris":{"android":"levelo://app?vid=d94a94f4-003c-473b-87bc-9cd8d9c889e2","ios":"levelo://app?vid=d94a94f4-003c-473b-87bc-9cd8d9c889e2"},"vehicle_type_id":"4","last_reported":1767792757,"current_range_meters":6400,"station_id":"ce4bhsh2rcd13ifvqi2g","pricing_plan_id":"cebpf4jnsgd1na2vs0mg"},{"bike_id":"d91d190f-94b5-4b8d-88d9-473e2a714e39","system_id":"levelo_inurba_marseille","lat":43.28936,"lon":5.36402,"is_reserved":false,"is_disabled":false,"rental_uris":{"android":"levelo://app?vid=d91d190f-94b5-4b8d-88d9-473e2a714e39","ios":"levelo://app?vid=d91d190f-94b5-4b8d-88d9-473e2a714e39"},"vehicle_type_id":"4","last_reported":1767792757,"current_range_meters":6400,"station_id":"ce4bhc92rcd13ifvqetg","pricing_plan_id":"cebpf4jnsgd1na2vs0mg"},{"bike_id":"00ea198f-1513-4ae8-9202-e0794b524e8a","system_id":"levelo_inurba_marseille","lat":43.29815,"lon":5.44074,"is_reserved":false,"is_disabled":false,"rental_uris":{"android":"levelo://app?vid=00ea198f-1513-4ae8-9202-e0794b524e8a","ios":"levelo://app?vid=00ea198f-1513-4ae8-9202-e0794b524e8a"},"vehicle_type_id":"4","last_reported":1767792757,"current_range_meters":6400,"station_id":"st_d3jp68qikq2c7381ktn0","pricing_plan_id":"cebpf4jnsgd1na2vs0mg"},{"bike_id":"ca3660be-e655-4d27-bde3-afaedbaa10ab","system_id":"levelo_inurba_marseille","lat":43.30152,"lon":5.38093,"is_reserved":false,"is_disabled":false,"rental_uris":{"android":"levelo://app?vid=ca3660be-e655-4d27-bde3-afaedbaa10ab","ios":"levelo://app?vid=ca3660be-e655-4d27-bde3-afaedbaa10ab"},"vehicle_type_id":"4","last_reported":1767792757,"current_range_meters":6400,"station_id":"ce4bgjp2rcd13ifvqbh0","pricing_plan_id":"cebpf4jnsgd1na2vs0mg"},{"bike_id":"25bcfc78-3f0b-4981-8911-91eda9adaaf9","system_id":"levelo_inurba_marseille","lat":43.283602,"lon":5.416639,"is_reserved":false,"is_disabled":false,"rental_uris":{"android":"levelo://app?vid=25bcfc78-3f0b-4981-8911-91eda9adaaf9","ios":"levelo://app?vid=25bcfc78-3f0b-4981-8911-91eda9adaaf9"},"vehicle_type_id":"4","last_reported":1767792757,"current_range_meters":6400,"station_id":"","pricing_plan_id":"cebpf4jnsgd1na2vs0mg"},{"bike_id":"28119d97-7102-4d29-b6d8-83d7d4b56a13","system_id":"levelo_inurba_marseille","lat":43.32359,"lon":5.36745,"is_reserved":false,"is_disabled":false,"rental_uris":{"android":"levelo://app?vid=28119d97-7102-4d29-b6d8-83d7d4b56a13","ios":"levelo://app?vid=28119d97-7102-4d29-b6d8-83d7d4b56a13"},"vehicle_type_id":"4","last_reported":1767792757,"current_range_meters":6400,"station_id":"ce4bhsh2rcd13ifvqi2g","pricing_plan_id":"cebpf4jnsgd1na2vs0mg"},{"bike_id":"3a1a012f-e2cb-489c-8aaa-49659e7dafd1","system_id":"levelo_inurba_marseille","lat":43.293,"lon":5.36034,"is_reserved":false,"is_disabled":false,"rental_uris":{"android":"levelo://app?vid=3a1a012f-e2cb-489c-8aaa-49659e7dafd1","ios":"levelo://app?vid=3a1a012f-e2cb-489c-8aaa-49659e7dafd1"},"vehicle_type_id":"4","last_reported":1767792757,"current_range_meters":6400,"station_id":"","pricing_plan_id":"cebpf4jnsgd1na2vs0mg"},{"bike_id":"d8ce3d05-20cf-4549-aa79-bd02d6f9c3ab","system_id":"levelo_inurba_marseille","lat":43.29197,"lon":5.3932,"is_reserved":false,"is_disabled":false,"rental_uris":{"android":"levelo://app?vid=d8ce3d05-20cf-4549-aa79-bd02d6f9c3ab","ios":"levelo://app?vid=d8ce3d05-20cf-4549-aa79-bd02d6f9c3ab"},"vehicle_type_id":"4","last_reported":1767792757,"current_range_meters":6400,"station_id":"ce4bh192rcd13ifvqdd0","pricing_plan_id":"cebpf4jnsgd1na2vs0mg"},{"bike_id":"7cd9ab34-deb1-41b5-bd69-947789edb17f","system_id":"levelo_inurba_marseille","lat":43.28404,"lon":5.3499,"is_reserved":false,"is_disabled":false,"rental_uris":{"android":"levelo://app?vid=7cd9ab34-deb1-41b5-bd69-947789edb17f","ios":"levelo://app?vid=7cd9ab34-deb1-41b5-bd69-947789edb17f"},"vehicle_type_id":"4","last_reported":1767792757,"current_range_meters":6800,"station_id":"ce4bhbh2rcd13ifvqepg","pricing_plan_id":"cebpf4jnsgd1na2vs0mg"},{"bike_id":"1511a012-c085-4f38-8ab1-d9eee4c01f86","system_id":"levelo_inurba_marseille","lat":43.24168,"lon":5.36417,"is_reserved":false,"is_disabled":false,"rental_uris":{"android":"levelo://app?vid=1511a012-c085-4f38-8ab1-d9eee4c01f86","ios":"levelo://app?vid=1511a012-c085-4f38-8ab1-d9eee4c01f86"},"vehicle_type_id":"4","last_reported":1767792757,"current_range_meters":6800,"station_id":"cpo36qri1sfpv3e86is0","pricing_plan_id":"cebpf4jnsgd1na2vs0mg"},{"bike_id":"16df7d25-4261-47b4-bcb3-b0edbc0538d3","system_id":"levelo_inurba_marseille","lat":43.29053,"lon":5.37542,"is_reserved":false,"is_disabled":false,"rental_uris":{"android":"levelo://app?vid=16df7d25-4261-47b4-bcb3-b0edbc0538d3","ios":"levelo://app?vid=16df7d25-4261-47b4-bcb3-b0edbc0538d3"},"vehicle_type_id":"4","last_reported":1767792757,"current_range_meters":6800,"station_id":"ce4bh692rcd13ifvqe90","pricing_plan_id":"cebpf4jnsgd1na2vs0mg"},{"bike_id":"cd3bcb44-8c79-42ac-b9d7-85da71e69049","system_id":"levelo_inurba_marseille","lat":43.29262,"lon":5.4018,"is_reserved":false,"is_disabled":false,"rental_uris":{"android":"levelo://app?vid=cd3bcb44-8c79-42ac-b9d7-85da71e69049","ios":"levelo://app?vid=cd3bcb44-8c79-42ac-b9d7-85da71e69049"},"vehicle_type_id":"4","last_reported":1767792757,"current_range_meters":6800,"station_id":"ce4bh312rcd13ifvqdk0","pricing_plan_id":"cebpf4jnsgd1na2vs0mg"},{"bike_id":"0e7be8fb-8b4e-4f31-b6a9-c9720e32396b","system_id":"levelo_inurba_marseille","lat":43.26768,"lon":5.39422,"is_reserved":false,"is_disabled":false,"rental_uris":{"android":"levelo://app?vid=0e7be8fb-8b4e-4f31-b6a9-c9720e32396b","ios":"levelo://app?vid=0e7be8fb-8b4e-4f31-b6a9-c9720e32396b"},"vehicle_type_id":"4","last_reported":1767792757,"current_range_meters":6800,"station_id":"ce4bhh12rcd13ifvqfg0","pricing_plan_id":"cebpf4jnsgd1na2vs0mg"},{"bike_id":"4cfb8777-eb51-4d5b-b74b-91dd3e9a0e15","system_id":"levelo_inurba_marseille","lat":43.3065,"lon":5.40091,"is_reserved":false,"is_disabled":false,"rental_uris":{"android":"levelo://app?vid=4cfb8777-eb51-4d5b-b74b-91dd3e9a0e15","ios":"levelo://app?vid=4cfb8777-eb51-4d5b-b74b-91dd3e9a0e15"},"vehicle_type_id":"4","last_reported":1767792757,"current_range_meters":6800,"station_id":"ce4bh112rcd13ifvqda0","pricing_plan_id":"cebpf4jnsgd1na2vs0mg"},{"bike_id":"6174981e-bed3-4bbe-a3fa-13b0fcc75de4","system_id":"levelo_inurba_marseille","lat":43.23143,"lon":5.43712,"is_reserved":false,"is_disabled":true,"rental_uris":{"android":"levelo://app?vid=6174981e-bed3-4bbe-a3fa-13b0fcc75de4","ios":"levelo://app?vid=6174981e-bed3-4bbe-a3fa-13b0fcc75de4"},"vehicle_type_id":"4","last_reported":1767792757,"current_range_meters":6800,"station_id":"","pricing_plan_id":"cebpf4jnsgd1na2vs0mg"},{"bike_id":"fa22967a-e8a3-4285-a901-cb3fb5280fde","system_id":"levelo_inurba_marseille","lat":43.30369,"lon":5.42482,"is_reserved":false,"is_disabled":false,"rental_uris":{"android":"levelo://app?vid=fa22967a-e8a3-4285-a901-cb3fb5280fde","ios":"levelo://app?vid=fa22967a-e8a3-4285-a901-cb3fb5280fde"},"vehicle_type_id":"4","last_reported":1767792757,"current_range_meters":6800,"station_id":"ce4bhoh2rcd13ifvqh6g","pricing_plan_id":"cebpf4jnsgd1na2vs0mg"},{"bike_id":"e2de6e33-136a-4b50-9bee-761873cb6ead","system_id":"levelo_inurba_marseille","lat":43.260598,"lon":5.394017,"is_reserved":false,"is_disabled":false,"rental_uris":{"android":"levelo://app?vid=e2de6e33-136a-4b50-9bee-761873cb6ead","ios":"levelo://app?vid=e2de6e33-136a-4b50-9bee-761873cb6ead"},"vehicle_type_id":"4","last_reported":1767792757,"current_range_meters":6800,"station_id":"ce4bhh92rcd13ifvqfj0","pricing_plan_id":"cebpf4jnsgd1na2vs0mg"},{"bike_id":"9a6bcb44-e334-4131-b81f-1fe3b2f62c5f","system_id":"levelo_inurba_marseille","lat":43.23148,"lon":5.43718,"is_reserved":false,"is_disabled":false,"rental_uris":{"android":"levelo://app?vid=9a6bcb44-e334-4131-b81f-1fe3b2f62c5f","ios":"levelo://app?vid=9a6bcb44-e334-4131-b81f-1fe3b2f62c5f"},"vehicle_type_id":"4","last_reported":1767792757,"current_range_meters":6800,"station_id":"ce4bhmp2rcd13ifvqgog","pricing_plan_id":"cebpf4jnsgd1na2vs0mg"},{"bike_id":"a31ba797-d219-4a65-a019-17190c6343b6","system_id":"levelo_inurba_marseille","lat":43.31945,"lon":5.37606,"is_reserved":false,"is_disabled":false,"rental_uris":{"android":"levelo://app?vid=a31ba797-d219-4a65-a019-17190c6343b6","ios":"levelo://app?vid=a31ba797-d219-4a65-a019-17190c6343b6"},"vehicle_type_id":"4","last_reported":1767792757,"current_range_meters":6800,"station_id":"","pricing_plan_id":"cebpf4jnsgd1na2vs0mg"},{"bike_id":"487727fc-b86a-49d4-ba26-c5fdcf0a20ca","system_id":"levelo_inurba_marseille","lat":43.28948,"lon":5.39624,"is_reserved":false,"is_disabled":false,"rental_uris":{"android":"levelo://app?vid=487727fc-b86a-49d4-ba26-c5fdcf0a20ca","ios":"levelo://app?vid=487727fc-b86a-49d4-ba26-c5fdcf0a20ca"},"vehicle_type_id":"4","last_reported":1767792757,"current_range_meters":6800,"station_id":"ce4bh3h2rcd13ifvqdn0","pricing_plan_id":"cebpf4jnsgd1na2vs0mg"},{"bike_id":"2a72016b-e107-4594-9228-a75e8e173f08","system_id":"levelo_inurba_marseille","lat":43.31201,"lon":5.36859,"is_reserved":false,"is_disabled":false,"rental_uris":{"android":"levelo://app?vid=2a72016b-e107-4594-9228-a75e8e173f08","ios":"levelo://app?vid=2a72016b-e107-4594-9228-a75e8e173f08"},"vehicle_type_id":"4","last_reported":1767792757,"current_range_meters":6800,"station_id":"ce4bgl92rcd13ifvqbq0","pricing_plan_id":"cebpf4jnsgd1na2vs0mg"},{"bike_id":"d1349b06-6558-46c3-aee4-61d2a0fa8dc3","system_id":"levelo_inurba_marseille","lat":43.2669,"lon":5.38267,"is_reserved":false,"is_disabled":false,"rental_uris":{"android":"levelo://app?vid=d1349b06-6558-46c3-aee4-61d2a0fa8dc3","ios":"levelo://app?vid=d1349b06-6558-46c3-aee4-61d2a0fa8dc3"},"vehicle_type_id":"4","last_reported":1767792757,"current_range_meters":6800,"station_id":"ce4bhg92rcd13ifvqf90","pricing_plan_id":"cebpf4jnsgd1na2vs0mg"},{"bike_id":"fc0ee569-0539-41df-be98-7a47d4d88e7d","system_id":"levelo_inurba_marseille","lat":43.29267,"lon":5.4091,"is_reserved":false,"is_disabled":false,"rental_uris":{"android":"levelo://app?vid=fc0ee569-0539-41df-be98-7a47d4d88e7d","ios":"levelo://app?vid=fc0ee569-0539-41df-be98-7a47d4d88e7d"},"vehicle_type_id":"4","last_reported":1767792757,"current_range_meters":6800,"station_id":"ce4bh192rcd13ifvqdc0","pricing_plan_id":"cebpf4jnsgd1na2vs0mg"},{"bike_id":"d5b0c4ed-7646-45b9-b9d3-d49c57b897b7","system_id":"levelo_inurba_marseille","lat":43.29757,"lon":5.42797,"is_reserved":false,"is_disabled":false,"rental_uris":{"android":"levelo://app?vid=d5b0c4ed-7646-45b9-b9d3-d49c57b897b7","ios":"levelo://app?vid=d5b0c4ed-7646-45b9-b9d3-d49c57b897b7"},"vehicle_type_id":"4","last_reported":1767792757,"current_range_meters":6800,"station_id":"st_d3md5207bmas73dh9klg","pricing_plan_id":"cebpf4jnsgd1na2vs0mg"},{"bike_id":"35c3cbbb-0469-478d-b4da-bfb159e2f13b","system_id":"levelo_inurba_marseille","lat":43.259357,"lon":5.409096,"is_reserved":false,"is_disabled":true,"rental_uris":{"android":"levelo://app?vid=35c3cbbb-0469-478d-b4da-bfb159e2f13b","ios":"levelo://app?vid=35c3cbbb-0469-478d-b4da-bfb159e2f13b"},"vehicle_type_id":"4","last_reported":1767792757,"current_range_meters":6800,"station_id":"ce4bhm92rcd13ifvqglg","pricing_plan_id":"cebpf4jnsgd1na2vs0mg"},{"bike_id":"d2c339b4-a56d-43ff-94f0-a84efa7fbb08","system_id":"levelo_inurba_marseille","lat":43.29605,"lon":5.38101,"is_reserved":false,"is_disabled":false,"rental_uris":{"android":"levelo://app?vid=d2c339b4-a56d-43ff-94f0-a84efa7fbb08","ios":"levelo://app?vid=d2c339b4-a56d-43ff-94f0-a84efa7fbb08"},"vehicle_type_id":"4","last_reported":1767792757,"current_range_meters":6800,"station_id":"ce4bgl12rcd13ifvqbo0","pricing_plan_id":"cebpf4jnsgd1na2vs0mg"},{"bike_id":"533ded1c-f64a-40a7-987e-c996af8b74ed","system_id":"levelo_inurba_marseille","lat":43.23787,"lon":5.36624,"is_reserved":false,"is_disabled":false,"rental_uris":{"android":"levelo://app?vid=533ded1c-f64a-40a7-987e-c996af8b74ed","ios":"levelo://app?vid=533ded1c-f64a-40a7-987e-c996af8b74ed"},"vehicle_type_id":"4","last_reported":1767792757,"current_range_meters":6800,"station_id":"st_d3nk18o9ro0c73en2l3g","pricing_plan_id":"cebpf4jnsgd1na2vs0mg"},{"bike_id":"8f9c263f-7889-4a85-9933-e07749969bb3","system_id":"levelo_inurba_marseille","lat":43.25574,"lon":5.38237,"is_reserved":false,"is_disabled":false,"rental_uris":{"android":"levelo://app?vid=8f9c263f-7889-4a85-9933-e07749969bb3","ios":"levelo://app?vid=8f9c263f-7889-4a85-9933-e07749969bb3"},"vehicle_type_id":"4","last_reported":1767792757,"current_range_meters":6800,"station_id":"ce4bhih2rcd13ifvqfs0","pricing_plan_id":"cebpf4jnsgd1na2vs0mg"},{"bike_id":"ec9151c6-ee9c-4077-aff2-0feb9119b58e","system_id":"levelo_inurba_marseille","lat":43.26832,"lon":5.40678,"is_reserved":false,"is_disabled":false,"rental_uris":{"android":"levelo://app?vid=ec9151c6-ee9c-4077-aff2-0feb9119b58e","ios":"levelo://app?vid=ec9151c6-ee9c-4077-aff2-0feb9119b58e"},"vehicle_type_id":"4","last_reported":1767792757,"current_range_meters":6800,"station_id":"","pricing_plan_id":"cebpf4jnsgd1na2vs0mg"},{"bike_id":"1cd33015-7d60-42fe-86c5-194c1d2c93af","system_id":"levelo_inurba_marseille","lat":43.28601,"lon":5.35118,"is_reserved":false,"is_disabled":false,"rental_uris":{"android":"levelo://app?vid=1cd33015-7d60-42fe-86c5-194c1d2c93af","ios":"levelo://app?vid=1cd33015-7d60-42fe-86c5-194c1d2c93af"},"vehicle_type_id":"4","last_reported":1767792757,"current_range_meters":7200,"station_id":"ce4bhch2rcd13ifvqeug","pricing_plan_id":"cebpf4jnsgd1na2vs0mg"},{"bike_id":"a0baeed8-1c2d-4b3d-a98c-a841d5f11ee9","system_id":"levelo_inurba_marseille","lat":43.23139,"lon":5.43731,"is_reserved":false,"is_disabled":false,"rental_uris":{"android":"levelo://app?vid=a0baeed8-1c2d-4b3d-a98c-a841d5f11ee9","ios":"levelo://app?vid=a0baeed8-1c2d-4b3d-a98c-a841d5f11ee9"},"vehicle_type_id":"4","last_reported":1767792757,"current_range_meters":7200,"station_id":"ce4bhmp2rcd13ifvqgog","pricing_plan_id":"cebpf4jnsgd1na2vs0mg"},{"bike_id":"42d7f82f-3557-4ba7-9974-9f02193f22cc","system_id":"levelo_inurba_marseille","lat":43.295262,"lon":5.375011,"is_reserved":false,"is_disabled":true,"rental_uris":{"android":"levelo://app?vid=42d7f82f-3557-4ba7-9974-9f02193f22cc","ios":"levelo://app?vid=42d7f82f-3557-4ba7-9974-9f02193f22cc"},"vehicle_type_id":"4","last_reported":1767792757,"current_range_meters":7200,"station_id":"","pricing_plan_id":"cebpf4jnsgd1na2vs0mg"},{"bike_id":"ee33983f-10d1-4d63-8bde-105556f6242d","system_id":"levelo_inurba_marseille","lat":43.262,"lon":5.37932,"is_reserved":false,"is_disabled":false,"rental_uris":{"android":"levelo://app?vid=ee33983f-10d1-4d63-8bde-105556f6242d","ios":"levelo://app?vid=ee33983f-10d1-4d63-8bde-105556f6242d"},"vehicle_type_id":"4","last_reported":1767792757,"current_range_meters":7200,"station_id":"ce4bhjp2rcd13ifvqg90","pricing_plan_id":"cebpf4jnsgd1na2vs0mg"},{"bike_id":"d4aa93f0-043b-4bba-9e4c-d0386c2a86d0","system_id":"levelo_inurba_marseille","lat":43.23749,"lon":5.36629,"is_reserved":false,"is_disabled":false,"rental_uris":{"android":"levelo://app?vid=d4aa93f0-043b-4bba-9e4c-d0386c2a86d0","ios":"levelo://app?vid=d4aa93f0-043b-4bba-9e4c-d0386c2a86d0"},"vehicle_type_id":"4","last_reported":1767792757,"current_range_meters":7200,"station_id":"st_d3nk18o9ro0c73en2l3g","pricing_plan_id":"cebpf4jnsgd1na2vs0mg"},{"bike_id":"3a3979a9-13de-42fb-b2b5-459d626be407","system_id":"levelo_inurba_marseille","lat":43.26052,"lon":5.39397,"is_reserved":false,"is_disabled":false,"rental_uris":{"android":"levelo://app?vid=3a3979a9-13de-42fb-b2b5-459d626be407","ios":"levelo://app?vid=3a3979a9-13de-42fb-b2b5-459d626be407"},"vehicle_type_id":"4","last_reported":1767792757,"current_range_meters":7200,"station_id":"ce4bhh92rcd13ifvqfj0","pricing_plan_id":"cebpf4jnsgd1na2vs0mg"},{"bike_id":"754e4108-4c57-4763-b08c-1bdebeea8ce2","system_id":"levelo_inurba_marseille","lat":43.28696,"lon":5.38616,"is_reserved":false,"is_disabled":false,"rental_uris":{"android":"levelo://app?vid=754e4108-4c57-4763-b08c-1bdebeea8ce2","ios":"levelo://app?vid=754e4108-4c57-4763-b08c-1bdebeea8ce2"},"vehicle_type_id":"4","last_reported":1767792757,"current_range_meters":7200,"station_id":"","pricing_plan_id":"cebpf4jnsgd1na2vs0mg"},{"bike_id":"067ca337-309a-4444-a755-1124e864d8c9","system_id":"levelo_inurba_marseille","lat":43.29518,"lon":5.39396,"is_reserved":false,"is_disabled":true,"rental_uris":{"android":"levelo://app?vid=067ca337-309a-4444-a755-1124e864d8c9","ios":"levelo://app?vid=067ca337-309a-4444-a755-1124e864d8c9"},"vehicle_type_id":"4","last_reported":1767792757,"current_range_meters":7200,"station_id":"ce4bh292rcd13ifvqdf0","pricing_plan_id":"cebpf4jnsgd1na2vs0mg"},{"bike_id":"c0c8695a-5dc1-437f-a20b-09acef88b652","system_id":"levelo_inurba_marseille","lat":43.28338,"lon":5.3507,"is_reserved":false,"is_disabled":false,"rental_uris":{"android":"levelo://app?vid=c0c8695a-5dc1-437f-a20b-09acef88b652","ios":"levelo://app?vid=c0c8695a-5dc1-437f-a20b-09acef88b652"},"vehicle_type_id":"4","last_reported":1767792757,"current_range_meters":7200,"station_id":"","pricing_plan_id":"cebpf4jnsgd1na2vs0mg"},{"bike_id":"44fa942a-7f3c-4db8-b498-e46e05b08cc0","system_id":"levelo_inurba_marseille","lat":43.26493,"lon":5.39596,"is_reserved":false,"is_disabled":false,"rental_uris":{"android":"levelo://app?vid=44fa942a-7f3c-4db8-b498-e46e05b08cc0","ios":"levelo://app?vid=44fa942a-7f3c-4db8-b498-e46e05b08cc0"},"vehicle_type_id":"4","last_reported":1767792757,"current_range_meters":7200,"station_id":"ce4bhi12rcd13ifvqfq0","pricing_plan_id":"cebpf4jnsgd1na2vs0mg"},{"bike_id":"c6e38eb8-7b47-4906-b177-2fd475243fa6","system_id":"levelo_inurba_marseille","lat":43.29263,"lon":5.40139,"is_reserved":false,"is_disabled":false,"rental_uris":{"android":"levelo://app?vid=c6e38eb8-7b47-4906-b177-2fd475243fa6","ios":"levelo://app?vid=c6e38eb8-7b47-4906-b177-2fd475243fa6"},"vehicle_type_id":"4","last_reported":1767792757,"current_range_meters":7200,"station_id":"ce4bh312rcd13ifvqdk0","pricing_plan_id":"cebpf4jnsgd1na2vs0mg"},{"bike_id":"89ead92d-9dfc-4502-af87-e8db8e47404a","system_id":"levelo_inurba_marseille","lat":43.24946,"lon":5.40487,"is_reserved":false,"is_disabled":false,"rental_uris":{"android":"levelo://app?vid=89ead92d-9dfc-4502-af87-e8db8e47404a","ios":"levelo://app?vid=89ead92d-9dfc-4502-af87-e8db8e47404a"},"vehicle_type_id":"4","last_reported":1767792757,"current_range_meters":7200,"station_id":"st_d2ngiaodas8pm72gd1h0","pricing_plan_id":"cebpf4jnsgd1na2vs0mg"},{"bike_id":"e93b9aae-c8c6-4131-b213-c37952396f7c","system_id":"levelo_inurba_marseille","lat":43.29315,"lon":5.37184,"is_reserved":false,"is_disabled":false,"rental_uris":{"android":"levelo://app?vid=e93b9aae-c8c6-4131-b213-c37952396f7c","ios":"levelo://app?vid=e93b9aae-c8c6-4131-b213-c37952396f7c"},"vehicle_type_id":"4","last_reported":1767792757,"current_range_meters":7200,"station_id":"ce4bgh92rcd13ifvqb40","pricing_plan_id":"cebpf4jnsgd1na2vs0mg"},{"bike_id":"ddfc6a9c-692b-499f-b476-b4d9b6fe8c85","system_id":"levelo_inurba_marseille","lat":43.30947,"lon":5.39052,"is_reserved":false,"is_disabled":false,"rental_uris":{"android":"levelo://app?vid=ddfc6a9c-692b-499f-b476-b4d9b6fe8c85","ios":"levelo://app?vid=ddfc6a9c-692b-499f-b476-b4d9b6fe8c85"},"vehicle_type_id":"4","last_reported":1767792757,"current_range_meters":7200,"station_id":"","pricing_plan_id":"cebpf4jnsgd1na2vs0mg"},{"bike_id":"48da305f-3867-4ad3-af46-7fda6a2d9ae6","system_id":"levelo_inurba_marseille","lat":43.24999,"lon":5.38929,"is_reserved":false,"is_disabled":false,"rental_uris":{"android":"levelo://app?vid=48da305f-3867-4ad3-af46-7fda6a2d9ae6","ios":"levelo://app?vid=48da305f-3867-4ad3-af46-7fda6a2d9ae6"},"vehicle_type_id":"4","last_reported":1767792757,"current_range_meters":7200,"station_id":"ce4bhgp2rcd13ifvqfd0","pricing_plan_id":"cebpf4jnsgd1na2vs0mg"},{"bike_id":"222badfd-5695-4c5f-8b12-a4274837eb6d","system_id":"levelo_inurba_marseille","lat":43.26193,"lon":5.40371,"is_reserved":false,"is_disabled":false,"rental_uris":{"android":"levelo://app?vid=222badfd-5695-4c5f-8b12-a4274837eb6d","ios":"levelo://app?vid=222badfd-5695-4c5f-8b12-a4274837eb6d"},"vehicle_type_id":"4","last_reported":1767792757,"current_range_meters":7200,"station_id":"","pricing_plan_id":"cebpf4jnsgd1na2vs0mg"},{"bike_id":"98249e23-d727-42e2-bc64-1013f35aedc9","system_id":"levelo_inurba_marseille","lat":43.23046,"lon":5.35505,"is_reserved":false,"is_disabled":false,"rental_uris":{"android":"levelo://app?vid=98249e23-d727-42e2-bc64-1013f35aedc9","ios":"levelo://app?vid=98249e23-d727-42e2-bc64-1013f35aedc9"},"vehicle_type_id":"4","last_reported":1767792757,"current_range_meters":8000,"station_id":"cpo3342slgdg3j2ifvpg","pricing_plan_id":"cebpf4jnsgd1na2vs0mg"},{"bike_id":"d563daa9-a26a-468e-96ac-aa24a58d4870","system_id":"levelo_inurba_marseille","lat":43.27215,"lon":5.39197,"is_reserved":false,"is_disabled":false,"rental_uris":{"android":"levelo://app?vid=d563daa9-a26a-468e-96ac-aa24a58d4870","ios":"levelo://app?vid=d563daa9-a26a-468e-96ac-aa24a58d4870"},"vehicle_type_id":"4","last_reported":1767792757,"current_range_meters":8000,"station_id":"ce4bhhp2rcd13ifvqfm0","pricing_plan_id":"cebpf4jnsgd1na2vs0mg"},{"bike_id":"3f01a066-4e5f-48ef-86cf-799ad22b3248","system_id":"levelo_inurba_marseille","lat":43.29303,"lon":5.37181,"is_reserved":false,"is_disabled":false,"rental_uris":{"android":"levelo://app?vid=3f01a066-4e5f-48ef-86cf-799ad22b3248","ios":"levelo://app?vid=3f01a066-4e5f-48ef-86cf-799ad22b3248"},"vehicle_type_id":"4","last_reported":1767792757,"current_range_meters":8000,"station_id":"ce4bgh92rcd13ifvqb40","pricing_plan_id":"cebpf4jnsgd1na2vs0mg"},{"bike_id":"9e67ac1e-3627-4f55-a031-abf35eb3bad6","system_id":"levelo_inurba_marseille","lat":43.30218,"lon":5.39469,"is_reserved":false,"is_disabled":false,"rental_uris":{"android":"levelo://app?vid=9e67ac1e-3627-4f55-a031-abf35eb3bad6","ios":"levelo://app?vid=9e67ac1e-3627-4f55-a031-abf35eb3bad6"},"vehicle_type_id":"4","last_reported":1767792757,"current_range_meters":8000,"station_id":"ce4bh0p2rcd13ifvqd70","pricing_plan_id":"cebpf4jnsgd1na2vs0mg"},{"bike_id":"0622f7c5-ee76-4fc8-a5df-57e2aa3c0085","system_id":"levelo_inurba_marseille","lat":43.2992,"lon":5.38071,"is_reserved":false,"is_disabled":false,"rental_uris":{"android":"levelo://app?vid=0622f7c5-ee76-4fc8-a5df-57e2aa3c0085","ios":"levelo://app?vid=0622f7c5-ee76-4fc8-a5df-57e2aa3c0085"},"vehicle_type_id":"4","last_reported":1767792757,"current_range_meters":8000,"station_id":"","pricing_plan_id":"cebpf4jnsgd1na2vs0mg"},{"bike_id":"37dc455b-6bec-4838-8bba-f2eb31c9a25b","system_id":"levelo_inurba_marseille","lat":43.25579,"lon":5.38243,"is_reserved":false,"is_disabled":false,"rental_uris":{"android":"levelo://app?vid=37dc455b-6bec-4838-8bba-f2eb31c9a25b","ios":"levelo://app?vid=37dc455b-6bec-4838-8bba-f2eb31c9a25b"},"vehicle_type_id":"4","last_reported":1767792757,"current_range_meters":8000,"station_id":"ce4bhih2rcd13ifvqfs0","pricing_plan_id":"cebpf4jnsgd1na2vs0mg"},{"bike_id":"eec7f246-2540-4ab7-b168-ea7ca4ebb9e0","system_id":"levelo_inurba_marseille","lat":43.3132,"lon":5.36731,"is_reserved":false,"is_disabled":false,"rental_uris":{"android":"levelo://app?vid=eec7f246-2540-4ab7-b168-ea7ca4ebb9e0","ios":"levelo://app?vid=eec7f246-2540-4ab7-b168-ea7ca4ebb9e0"},"vehicle_type_id":"4","last_reported":1767792757,"current_range_meters":8000,"station_id":"ce4bgr92rcd13ifvqc6g","pricing_plan_id":"cebpf4jnsgd1na2vs0mg"},{"bike_id":"7fc53fa6-f85c-423c-86d5-704a6cda6137","system_id":"levelo_inurba_marseille","lat":43.31248,"lon":5.36844,"is_reserved":false,"is_disabled":false,"rental_uris":{"android":"levelo://app?vid=7fc53fa6-f85c-423c-86d5-704a6cda6137","ios":"levelo://app?vid=7fc53fa6-f85c-423c-86d5-704a6cda6137"},"vehicle_type_id":"4","last_reported":1767792757,"current_range_meters":8000,"station_id":"ce4bgl92rcd13ifvqbq0","pricing_plan_id":"cebpf4jnsgd1na2vs0mg"},{"bike_id":"772bf3b5-2fb2-4abd-a529-fdf3012df8cc","system_id":"levelo_inurba_marseille","lat":43.25191,"lon":5.40595,"is_reserved":false,"is_disabled":false,"rental_uris":{"android":"levelo://app?vid=772bf3b5-2fb2-4abd-a529-fdf3012df8cc","ios":"levelo://app?vid=772bf3b5-2fb2-4abd-a529-fdf3012df8cc"},"vehicle_type_id":"4","last_reported":1767792757,"current_range_meters":8000,"station_id":"","pricing_plan_id":"cebpf4jnsgd1na2vs0mg"},{"bike_id":"f323eec5-f654-4bdf-8118-8c8db52565b4","system_id":"levelo_inurba_marseille","lat":43.28501,"lon":5.38669,"is_reserved":false,"is_disabled":false,"rental_uris":{"android":"levelo://app?vid=f323eec5-f654-4bdf-8118-8c8db52565b4","ios":"levelo://app?vid=f323eec5-f654-4bdf-8118-8c8db52565b4"},"vehicle_type_id":"4","last_reported":1767792757,"current_range_meters":8000,"station_id":"","pricing_plan_id":"cebpf4jnsgd1na2vs0mg"},{"bike_id":"d311e83f-a1e3-4e4b-bc51-98ee46938913","system_id":"levelo_inurba_marseille","lat":43.29046,"lon":5.39942,"is_reserved":false,"is_disabled":false,"rental_uris":{"android":"levelo://app?vid=d311e83f-a1e3-4e4b-bc51-98ee46938913","ios":"levelo://app?vid=d311e83f-a1e3-4e4b-bc51-98ee46938913"},"vehicle_type_id":"4","last_reported":1767792757,"current_range_meters":8000,"station_id":"ce4bh392rcd13ifvqdm0","pricing_plan_id":"cebpf4jnsgd1na2vs0mg"},{"bike_id":"8e9cd320-222e-4849-8f3f-db8fcd5c5954","system_id":"levelo_inurba_marseille","lat":43.31815,"lon":5.36865,"is_reserved":false,"is_disabled":false,"rental_uris":{"android":"levelo://app?vid=8e9cd320-222e-4849-8f3f-db8fcd5c5954","ios":"levelo://app?vid=8e9cd320-222e-4849-8f3f-db8fcd5c5954"},"vehicle_type_id":"4","last_reported":1767792757,"current_range_meters":8000,"station_id":"","pricing_plan_id":"cebpf4jnsgd1na2vs0mg"},{"bike_id":"44833d54-0e08-4546-b788-0c7150b05378","system_id":"levelo_inurba_marseille","lat":43.2848,"lon":5.48383,"is_reserved":false,"is_disabled":false,"rental_uris":{"android":"levelo://app?vid=44833d54-0e08-4546-b788-0c7150b05378","ios":"levelo://app?vid=44833d54-0e08-4546-b788-0c7150b05378"},"vehicle_type_id":"4","last_reported":1767792757,"current_range_meters":8000,"station_id":"st_d3svhcjqgbts73a3dn0g","pricing_plan_id":"cebpf4jnsgd1na2vs0mg"},{"bike_id":"0c83f1ea-95ce-45ca-9676-02b0da2c2cfa","system_id":"levelo_inurba_marseille","lat":43.3106,"lon":5.37189,"is_reserved":false,"is_disabled":false,"rental_uris":{"android":"levelo://app?vid=0c83f1ea-95ce-45ca-9676-02b0da2c2cfa","ios":"levelo://app?vid=0c83f1ea-95ce-45ca-9676-02b0da2c2cfa"},"vehicle_type_id":"4","last_reported":1767792757,"current_range_meters":8000,"station_id":"st_d4kl2rp97mjs73e7tdfg","pricing_plan_id":"cebpf4jnsgd1na2vs0mg"},{"bike_id":"bf3c5452-0238-43e2-b338-8c19911c88fc","system_id":"levelo_inurba_marseille","lat":43.22533,"lon":5.348305,"is_reserved":false,"is_disabled":false,"rental_uris":{"android":"levelo://app?vid=bf3c5452-0238-43e2-b338-8c19911c88fc","ios":"levelo://app?vid=bf3c5452-0238-43e2-b338-8c19911c88fc"},"vehicle_type_id":"4","last_reported":1767792757,"current_range_meters":8000,"station_id":"st_cvj6r9ubvosntc0bgbag","pricing_plan_id":"cebpf4jnsgd1na2vs0mg"},{"bike_id":"1ecb5758-c000-4771-a449-f9906002248f","system_id":"levelo_inurba_marseille","lat":43.27941,"lon":5.41039,"is_reserved":false,"is_disabled":false,"rental_uris":{"android":"levelo://app?vid=1ecb5758-c000-4771-a449-f9906002248f","ios":"levelo://app?vid=1ecb5758-c000-4771-a449-f9906002248f"},"vehicle_type_id":"4","last_reported":1767792757,"current_range_meters":8000,"station_id":"ce4bhnp2rcd13ifvqh0g","pricing_plan_id":"cebpf4jnsgd1na2vs0mg"},{"bike_id":"2b77b610-a2b9-4442-adfd-b62b58882d80","system_id":"levelo_inurba_marseille","lat":43.29616,"lon":5.37713,"is_reserved":false,"is_disabled":false,"rental_uris":{"android":"levelo://app?vid=2b77b610-a2b9-4442-adfd-b62b58882d80","ios":"levelo://app?vid=2b77b610-a2b9-4442-adfd-b62b58882d80"},"vehicle_type_id":"4","last_reported":1767792757,"current_range_meters":8000,"station_id":"ce4bgi92rcd13ifvqb90","pricing_plan_id":"cebpf4jnsgd1na2vs0mg"},{"bike_id":"864d9ffc-0d33-487b-bc55-b0721b4adc7e","system_id":"levelo_inurba_marseille","lat":43.28652,"lon":5.37789,"is_reserved":false,"is_disabled":false,"rental_uris":{"android":"levelo://app?vid=864d9ffc-0d33-487b-bc55-b0721b4adc7e","ios":"levelo://app?vid=864d9ffc-0d33-487b-bc55-b0721b4adc7e"},"vehicle_type_id":"4","last_reported":1767792757,"current_range_meters":8000,"station_id":"","pricing_plan_id":"cebpf4jnsgd1na2vs0mg"},{"bike_id":"663c6ec3-cdff-49a2-861d-91b77b2f8ef0","system_id":"levelo_inurba_marseille","lat":43.26345,"lon":5.40121,"is_reserved":false,"is_disabled":false,"rental_uris":{"android":"levelo://app?vid=663c6ec3-cdff-49a2-861d-91b77b2f8ef0","ios":"levelo://app?vid=663c6ec3-cdff-49a2-861d-91b77b2f8ef0"},"vehicle_type_id":"4","last_reported":1767792757,"current_range_meters":8000,"station_id":"","pricing_plan_id":"cebpf4jnsgd1na2vs0mg"},{"bike_id":"ceb78c50-6deb-430c-aebe-b2fe34811655","system_id":"levelo_inurba_marseille","lat":43.272029,"lon":5.391899,"is_reserved":false,"is_disabled":false,"rental_uris":{"android":"levelo://app?vid=ceb78c50-6deb-430c-aebe-b2fe34811655","ios":"levelo://app?vid=ceb78c50-6deb-430c-aebe-b2fe34811655"},"vehicle_type_id":"4","last_reported":1767792757,"current_range_meters":8000,"station_id":"ce4bhhp2rcd13ifvqfm0","pricing_plan_id":"cebpf4jnsgd1na2vs0mg"},{"bike_id":"cb4606a4-ce77-419c-9379-1b48a89b0fcb","system_id":"levelo_inurba_marseille","lat":43.29043,"lon":5.39976,"is_reserved":false,"is_disabled":false,"rental_uris":{"android":"levelo://app?vid=cb4606a4-ce77-419c-9379-1b48a89b0fcb","ios":"levelo://app?vid=cb4606a4-ce77-419c-9379-1b48a89b0fcb"},"vehicle_type_id":"4","last_reported":1767792757,"current_range_meters":8400,"station_id":"ce4bh392rcd13ifvqdm0","pricing_plan_id":"cebpf4jnsgd1na2vs0mg"},{"bike_id":"3697b8c2-beb9-483a-9838-ccac7c3035dd","system_id":"levelo_inurba_marseille","lat":43.30142,"lon":5.38066,"is_reserved":false,"is_disabled":false,"rental_uris":{"android":"levelo://app?vid=3697b8c2-beb9-483a-9838-ccac7c3035dd","ios":"levelo://app?vid=3697b8c2-beb9-483a-9838-ccac7c3035dd"},"vehicle_type_id":"4","last_reported":1767792757,"current_range_meters":8400,"station_id":"ce4bgjp2rcd13ifvqbh0","pricing_plan_id":"cebpf4jnsgd1na2vs0mg"},{"bike_id":"8af7f5e7-ad96-4b48-b9a1-4d3f47692c34","system_id":"levelo_inurba_marseille","lat":43.26199,"lon":5.37925,"is_reserved":false,"is_disabled":true,"rental_uris":{"android":"levelo://app?vid=8af7f5e7-ad96-4b48-b9a1-4d3f47692c34","ios":"levelo://app?vid=8af7f5e7-ad96-4b48-b9a1-4d3f47692c34"},"vehicle_type_id":"4","last_reported":1767792757,"current_range_meters":8400,"station_id":"ce4bhjp2rcd13ifvqg90","pricing_plan_id":"cebpf4jnsgd1na2vs0mg"},{"bike_id":"58225b8d-28fd-4cc2-91f8-83ea7f334d78","system_id":"levelo_inurba_marseille","lat":43.31213,"lon":5.36853,"is_reserved":false,"is_disabled":false,"rental_uris":{"android":"levelo://app?vid=58225b8d-28fd-4cc2-91f8-83ea7f334d78","ios":"levelo://app?vid=58225b8d-28fd-4cc2-91f8-83ea7f334d78"},"vehicle_type_id":"4","last_reported":1767792757,"current_range_meters":8400,"station_id":"ce4bgl92rcd13ifvqbq0","pricing_plan_id":"cebpf4jnsgd1na2vs0mg"},{"bike_id":"d293f938-06f4-47c6-ae6d-906beae764af","system_id":"levelo_inurba_marseille","lat":43.2799,"lon":5.40026,"is_reserved":false,"is_disabled":false,"rental_uris":{"android":"levelo://app?vid=d293f938-06f4-47c6-ae6d-906beae764af","ios":"levelo://app?vid=d293f938-06f4-47c6-ae6d-906beae764af"},"vehicle_type_id":"4","last_reported":1767792757,"current_range_meters":8400,"station_id":"ce4bho92rcd13ifvqh4g","pricing_plan_id":"cebpf4jnsgd1na2vs0mg"},{"bike_id":"f9694d4b-6e2f-4fc5-ae06-59dad6b1ea4d","system_id":"levelo_inurba_marseille","lat":43.25021,"lon":5.37533,"is_reserved":false,"is_disabled":false,"rental_uris":{"android":"levelo://app?vid=f9694d4b-6e2f-4fc5-ae06-59dad6b1ea4d","ios":"levelo://app?vid=f9694d4b-6e2f-4fc5-ae06-59dad6b1ea4d"},"vehicle_type_id":"4","last_reported":1767792757,"current_range_meters":8400,"station_id":"","pricing_plan_id":"cebpf4jnsgd1na2vs0mg"},{"bike_id":"6780348f-fb93-4884-95fc-676ab6258ce9","system_id":"levelo_inurba_marseille","lat":43.2708,"lon":5.3829,"is_reserved":false,"is_disabled":true,"rental_uris":{"android":"levelo://app?vid=6780348f-fb93-4884-95fc-676ab6258ce9","ios":"levelo://app?vid=6780348f-fb93-4884-95fc-676ab6258ce9"},"vehicle_type_id":"4","last_reported":1767792757,"current_range_meters":8400,"station_id":"st_d3n2fo6cfp8s73cte1j0","pricing_plan_id":"cebpf4jnsgd1na2vs0mg"},{"bike_id":"6161915a-379c-47d1-a0b6-32b98cda77f1","system_id":"levelo_inurba_marseille","lat":43.32444,"lon":5.38953,"is_reserved":false,"is_disabled":false,"rental_uris":{"android":"levelo://app?vid=6161915a-379c-47d1-a0b6-32b98cda77f1","ios":"levelo://app?vid=6161915a-379c-47d1-a0b6-32b98cda77f1"},"vehicle_type_id":"4","last_reported":1767792757,"current_range_meters":8400,"station_id":"","pricing_plan_id":"cebpf4jnsgd1na2vs0mg"},{"bike_id":"132b6c2e-f86c-4117-a723-d53b691687c5","system_id":"levelo_inurba_marseille","lat":43.28509,"lon":5.38572,"is_reserved":false,"is_disabled":false,"rental_uris":{"android":"levelo://app?vid=132b6c2e-f86c-4117-a723-d53b691687c5","ios":"levelo://app?vid=132b6c2e-f86c-4117-a723-d53b691687c5"},"vehicle_type_id":"4","last_reported":1767792757,"current_range_meters":8400,"station_id":"ce4bh8p2rcd13ifvqeb0","pricing_plan_id":"cebpf4jnsgd1na2vs0mg"},{"bike_id":"65a75831-8083-44de-8d34-fcaa11209b00","system_id":"levelo_inurba_marseille","lat":43.29279,"lon":5.36852,"is_reserved":false,"is_disabled":false,"rental_uris":{"android":"levelo://app?vid=65a75831-8083-44de-8d34-fcaa11209b00","ios":"levelo://app?vid=65a75831-8083-44de-8d34-fcaa11209b00"},"vehicle_type_id":"4","last_reported":1767792757,"current_range_meters":8400,"station_id":"ce4bhbp2rcd13ifvqesg","pricing_plan_id":"cebpf4jnsgd1na2vs0mg"},{"bike_id":"a897355a-e9d2-40ac-9bcd-6664d85cf531","system_id":"levelo_inurba_marseille","lat":43.29777,"lon":5.38076,"is_reserved":false,"is_disabled":false,"rental_uris":{"android":"levelo://app?vid=a897355a-e9d2-40ac-9bcd-6664d85cf531","ios":"levelo://app?vid=a897355a-e9d2-40ac-9bcd-6664d85cf531"},"vehicle_type_id":"4","last_reported":1767792757,"current_range_meters":8400,"station_id":"ce4bgip2rcd13ifvqbb0","pricing_plan_id":"cebpf4jnsgd1na2vs0mg"},{"bike_id":"1ec10a54-2423-4914-961d-8eb5d988b9cc","system_id":"levelo_inurba_marseille","lat":43.2656,"lon":5.37289,"is_reserved":false,"is_disabled":false,"rental_uris":{"android":"levelo://app?vid=1ec10a54-2423-4914-961d-8eb5d988b9cc","ios":"levelo://app?vid=1ec10a54-2423-4914-961d-8eb5d988b9cc"},"vehicle_type_id":"4","last_reported":1767792757,"current_range_meters":8400,"station_id":"ce4bhg12rcd13ifvqf70","pricing_plan_id":"cebpf4jnsgd1na2vs0mg"},{"bike_id":"037f3da2-a9a4-448b-9f35-b11f69d80e0e","system_id":"levelo_inurba_marseille","lat":43.29744,"lon":5.3767,"is_reserved":false,"is_disabled":false,"rental_uris":{"android":"levelo://app?vid=037f3da2-a9a4-448b-9f35-b11f69d80e0e","ios":"levelo://app?vid=037f3da2-a9a4-448b-9f35-b11f69d80e0e"},"vehicle_type_id":"4","last_reported":1767792757,"current_range_meters":8400,"station_id":"ce4bgkh2rcd13ifvqbl0","pricing_plan_id":"cebpf4jnsgd1na2vs0mg"},{"bike_id":"c1ef2330-0e53-4d05-acc5-a06ad4178821","system_id":"levelo_inurba_marseille","lat":43.257208,"lon":5.411166,"is_reserved":false,"is_disabled":false,"rental_uris":{"android":"levelo://app?vid=c1ef2330-0e53-4d05-acc5-a06ad4178821","ios":"levelo://app?vid=c1ef2330-0e53-4d05-acc5-a06ad4178821"},"vehicle_type_id":"4","last_reported":1767792757,"current_range_meters":8400,"station_id":"ce4bhkp2rcd13ifvqgd0","pricing_plan_id":"cebpf4jnsgd1na2vs0mg"},{"bike_id":"60261236-4956-4847-96bc-10f2e96b99df","system_id":"levelo_inurba_marseille","lat":43.27899,"lon":5.39598,"is_reserved":false,"is_disabled":false,"rental_uris":{"android":"levelo://app?vid=60261236-4956-4847-96bc-10f2e96b99df","ios":"levelo://app?vid=60261236-4956-4847-96bc-10f2e96b99df"},"vehicle_type_id":"4","last_reported":1767792757,"current_range_meters":8400,"station_id":"ce4bhf92rcd13ifvqf40","pricing_plan_id":"cebpf4jnsgd1na2vs0mg"},{"bike_id":"1ec87dc4-96ce-4c93-a5ce-3d185389cb5b","system_id":"levelo_inurba_marseille","lat":43.28537,"lon":5.44098,"is_reserved":false,"is_disabled":false,"rental_uris":{"android":"levelo://app?vid=1ec87dc4-96ce-4c93-a5ce-3d185389cb5b","ios":"levelo://app?vid=1ec87dc4-96ce-4c93-a5ce-3d185389cb5b"},"vehicle_type_id":"4","last_reported":1767792757,"current_range_meters":8400,"station_id":"st_d3j3df2ikq2c7380ej80","pricing_plan_id":"cebpf4jnsgd1na2vs0mg"},{"bike_id":"50f04bdb-6e10-4fbc-9702-0f60b6b1aa73","system_id":"levelo_inurba_marseille","lat":43.30548,"lon":5.36543,"is_reserved":false,"is_disabled":false,"rental_uris":{"android":"levelo://app?vid=50f04bdb-6e10-4fbc-9702-0f60b6b1aa73","ios":"levelo://app?vid=50f04bdb-6e10-4fbc-9702-0f60b6b1aa73"},"vehicle_type_id":"4","last_reported":1767792757,"current_range_meters":8400,"station_id":"ce4bgs12rcd13ifvqcag","pricing_plan_id":"cebpf4jnsgd1na2vs0mg"},{"bike_id":"31ee1072-44ae-4f71-b06c-c86c3965fcef","system_id":"levelo_inurba_marseille","lat":43.26547,"lon":5.3729,"is_reserved":false,"is_disabled":false,"rental_uris":{"android":"levelo://app?vid=31ee1072-44ae-4f71-b06c-c86c3965fcef","ios":"levelo://app?vid=31ee1072-44ae-4f71-b06c-c86c3965fcef"},"vehicle_type_id":"4","last_reported":1767792757,"current_range_meters":8400,"station_id":"ce4bhg12rcd13ifvqf70","pricing_plan_id":"cebpf4jnsgd1na2vs0mg"},{"bike_id":"e8334dab-46d2-432c-9c29-c817f2a685d8","system_id":"levelo_inurba_marseille","lat":43.29527,"lon":5.38549,"is_reserved":false,"is_disabled":false,"rental_uris":{"android":"levelo://app?vid=e8334dab-46d2-432c-9c29-c817f2a685d8","ios":"levelo://app?vid=e8334dab-46d2-432c-9c29-c817f2a685d8"},"vehicle_type_id":"4","last_reported":1767792757,"current_range_meters":8400,"station_id":"ce4bgih2rcd13ifvqba0","pricing_plan_id":"cebpf4jnsgd1na2vs0mg"},{"bike_id":"d0d67774-3af3-4c86-b7b6-8109c321647b","system_id":"levelo_inurba_marseille","lat":43.22949,"lon":5.35375,"is_reserved":false,"is_disabled":false,"rental_uris":{"android":"levelo://app?vid=d0d67774-3af3-4c86-b7b6-8109c321647b","ios":"levelo://app?vid=d0d67774-3af3-4c86-b7b6-8109c321647b"},"vehicle_type_id":"4","last_reported":1767792757,"current_range_meters":8400,"station_id":"cpo3532slgdg3j2ikp40","pricing_plan_id":"cebpf4jnsgd1na2vs0mg"},{"bike_id":"79da0552-dfad-4dd8-ba73-aacf08d3a89e","system_id":"levelo_inurba_marseille","lat":43.24389,"lon":5.37055,"is_reserved":false,"is_disabled":false,"rental_uris":{"android":"levelo://app?vid=79da0552-dfad-4dd8-ba73-aacf08d3a89e","ios":"levelo://app?vid=79da0552-dfad-4dd8-ba73-aacf08d3a89e"},"vehicle_type_id":"4","last_reported":1767792757,"current_range_meters":8400,"station_id":"ce4bhhh2rcd13ifvqfk0","pricing_plan_id":"cebpf4jnsgd1na2vs0mg"},{"bike_id":"62fc939d-c429-4cfa-a26b-ec1617311383","system_id":"levelo_inurba_marseille","lat":43.30886,"lon":5.39648,"is_reserved":false,"is_disabled":false,"rental_uris":{"android":"levelo://app?vid=62fc939d-c429-4cfa-a26b-ec1617311383","ios":"levelo://app?vid=62fc939d-c429-4cfa-a26b-ec1617311383"},"vehicle_type_id":"4","last_reported":1767792757,"current_range_meters":8400,"station_id":"ce4bh012rcd13ifvqcv0","pricing_plan_id":"cebpf4jnsgd1na2vs0mg"},{"bike_id":"5a1a9e9a-f0a6-4d0e-aace-29e5adbf7f6f","system_id":"levelo_inurba_marseille","lat":43.24467,"lon":5.42542,"is_reserved":false,"is_disabled":false,"rental_uris":{"android":"levelo://app?vid=5a1a9e9a-f0a6-4d0e-aace-29e5adbf7f6f","ios":"levelo://app?vid=5a1a9e9a-f0a6-4d0e-aace-29e5adbf7f6f"},"vehicle_type_id":"4","last_reported":1767792757,"current_range_meters":8400,"station_id":"st_d4a3vfp97mjs738cd8kg","pricing_plan_id":"cebpf4jnsgd1na2vs0mg"},{"bike_id":"1c4b26ae-7723-4cf2-bb68-ee4f35274dcd","system_id":"levelo_inurba_marseille","lat":43.29519,"lon":5.37507,"is_reserved":false,"is_disabled":false,"rental_uris":{"android":"levelo://app?vid=1c4b26ae-7723-4cf2-bb68-ee4f35274dcd","ios":"levelo://app?vid=1c4b26ae-7723-4cf2-bb68-ee4f35274dcd"},"vehicle_type_id":"4","last_reported":1767792757,"current_range_meters":8800,"station_id":"ce4bgkp2rcd13ifvqbmg","pricing_plan_id":"cebpf4jnsgd1na2vs0mg"},{"bike_id":"7bed6c7f-598e-48e9-bae3-214e5eee84f3","system_id":"levelo_inurba_marseille","lat":43.24485,"lon":5.42529,"is_reserved":false,"is_disabled":false,"rental_uris":{"android":"levelo://app?vid=7bed6c7f-598e-48e9-bae3-214e5eee84f3","ios":"levelo://app?vid=7bed6c7f-598e-48e9-bae3-214e5eee84f3"},"vehicle_type_id":"4","last_reported":1767792757,"current_range_meters":8800,"station_id":"st_d4a3vfp97mjs738cd8kg","pricing_plan_id":"cebpf4jnsgd1na2vs0mg"},{"bike_id":"be75706c-d84a-4279-b5a3-376dba45c6a6","system_id":"levelo_inurba_marseille","lat":43.24813,"lon":5.37452,"is_reserved":false,"is_disabled":false,"rental_uris":{"android":"levelo://app?vid=be75706c-d84a-4279-b5a3-376dba45c6a6","ios":"levelo://app?vid=be75706c-d84a-4279-b5a3-376dba45c6a6"},"vehicle_type_id":"4","last_reported":1767792757,"current_range_meters":8800,"station_id":"ce4bhgh2rcd13ifvqfb0","pricing_plan_id":"cebpf4jnsgd1na2vs0mg"},{"bike_id":"948bd2ed-8fdc-4ef6-9827-a943cc835e12","system_id":"levelo_inurba_marseille","lat":43.30138,"lon":5.43112,"is_reserved":false,"is_disabled":false,"rental_uris":{"android":"levelo://app?vid=948bd2ed-8fdc-4ef6-9827-a943cc835e12","ios":"levelo://app?vid=948bd2ed-8fdc-4ef6-9827-a943cc835e12"},"vehicle_type_id":"4","last_reported":1767792757,"current_range_meters":8800,"station_id":"st_d3js3co5814s73ftftug","pricing_plan_id":"cebpf4jnsgd1na2vs0mg"},{"bike_id":"7e56ead6-0dcc-483d-86d1-d4af73c68e4a","system_id":"levelo_inurba_marseille","lat":43.2939,"lon":5.38612,"is_reserved":false,"is_disabled":true,"rental_uris":{"android":"levelo://app?vid=7e56ead6-0dcc-483d-86d1-d4af73c68e4a","ios":"levelo://app?vid=7e56ead6-0dcc-483d-86d1-d4af73c68e4a"},"vehicle_type_id":"4","last_reported":1767792757,"current_range_meters":8800,"station_id":"","pricing_plan_id":"cebpf4jnsgd1na2vs0mg"},{"bike_id":"318ab7ee-cd4e-4fbb-a198-dc67360e53a7","system_id":"levelo_inurba_marseille","lat":43.22927,"lon":5.3538,"is_reserved":false,"is_disabled":false,"rental_uris":{"android":"levelo://app?vid=318ab7ee-cd4e-4fbb-a198-dc67360e53a7","ios":"levelo://app?vid=318ab7ee-cd4e-4fbb-a198-dc67360e53a7"},"vehicle_type_id":"4","last_reported":1767792757,"current_range_meters":8800,"station_id":"cpo3532slgdg3j2ikp40","pricing_plan_id":"cebpf4jnsgd1na2vs0mg"},{"bike_id":"e3ffb854-e428-4a18-904d-ea5ddd084e10","system_id":"levelo_inurba_marseille","lat":43.32385,"lon":5.36711,"is_reserved":false,"is_disabled":false,"rental_uris":{"android":"levelo://app?vid=e3ffb854-e428-4a18-904d-ea5ddd084e10","ios":"levelo://app?vid=e3ffb854-e428-4a18-904d-ea5ddd084e10"},"vehicle_type_id":"4","last_reported":1767792757,"current_range_meters":8800,"station_id":"ce4bhsh2rcd13ifvqi2g","pricing_plan_id":"cebpf4jnsgd1na2vs0mg"},{"bike_id":"0b08096c-4995-449d-9715-13377335d815","system_id":"levelo_inurba_marseille","lat":43.22564,"lon":5.41634,"is_reserved":false,"is_disabled":false,"rental_uris":{"android":"levelo://app?vid=0b08096c-4995-449d-9715-13377335d815","ios":"levelo://app?vid=0b08096c-4995-449d-9715-13377335d815"},"vehicle_type_id":"4","last_reported":1767792757,"current_range_meters":8800,"station_id":"st_d2o4gvlbi1j2169b742g","pricing_plan_id":"cebpf4jnsgd1na2vs0mg"},{"bike_id":"505c851b-40c8-484d-bf20-ce58a025a1f3","system_id":"levelo_inurba_marseille","lat":43.301613,"lon":5.374172,"is_reserved":false,"is_disabled":false,"rental_uris":{"android":"levelo://app?vid=505c851b-40c8-484d-bf20-ce58a025a1f3","ios":"levelo://app?vid=505c851b-40c8-484d-bf20-ce58a025a1f3"},"vehicle_type_id":"4","last_reported":1767792757,"current_range_meters":8800,"station_id":"ce4bgs92rcd13ifvqcc0","pricing_plan_id":"cebpf4jnsgd1na2vs0mg"},{"bike_id":"12d41d42-0df1-44df-b48f-62c73404ec27","system_id":"levelo_inurba_marseille","lat":43.27089,"lon":5.38282,"is_reserved":false,"is_disabled":false,"rental_uris":{"android":"levelo://app?vid=12d41d42-0df1-44df-b48f-62c73404ec27","ios":"levelo://app?vid=12d41d42-0df1-44df-b48f-62c73404ec27"},"vehicle_type_id":"4","last_reported":1767792757,"current_range_meters":8800,"station_id":"st_d3n2fo6cfp8s73cte1j0","pricing_plan_id":"cebpf4jnsgd1na2vs0mg"},{"bike_id":"e333ef92-9481-476e-a416-b4070e2823b7","system_id":"levelo_inurba_marseille","lat":43.255,"lon":5.37666,"is_reserved":false,"is_disabled":false,"rental_uris":{"android":"levelo://app?vid=e333ef92-9481-476e-a416-b4070e2823b7","ios":"levelo://app?vid=e333ef92-9481-476e-a416-b4070e2823b7"},"vehicle_type_id":"4","last_reported":1767792757,"current_range_meters":8800,"station_id":"ce4bhh12rcd13ifvqff0","pricing_plan_id":"cebpf4jnsgd1na2vs0mg"},{"bike_id":"284c2c73-1113-4cf5-85f6-92c0f8eb2789","system_id":"levelo_inurba_marseille","lat":43.29766,"lon":5.42784,"is_reserved":false,"is_disabled":false,"rental_uris":{"android":"levelo://app?vid=284c2c73-1113-4cf5-85f6-92c0f8eb2789","ios":"levelo://app?vid=284c2c73-1113-4cf5-85f6-92c0f8eb2789"},"vehicle_type_id":"4","last_reported":1767792757,"current_range_meters":8800,"station_id":"st_d3md5207bmas73dh9klg","pricing_plan_id":"cebpf4jnsgd1na2vs0mg"},{"bike_id":"52d34342-3e9f-4dcf-bdaa-e9c90c40bb8b","system_id":"levelo_inurba_marseille","lat":43.29204,"lon":5.39327,"is_reserved":false,"is_disabled":false,"rental_uris":{"android":"levelo://app?vid=52d34342-3e9f-4dcf-bdaa-e9c90c40bb8b","ios":"levelo://app?vid=52d34342-3e9f-4dcf-bdaa-e9c90c40bb8b"},"vehicle_type_id":"4","last_reported":1767792757,"current_range_meters":8800,"station_id":"ce4bh192rcd13ifvqdd0","pricing_plan_id":"cebpf4jnsgd1na2vs0mg"},{"bike_id":"47d0a8b3-c4fc-4d20-befe-0d9c69ad92a9","system_id":"levelo_inurba_marseille","lat":43.238017,"lon":5.36647,"is_reserved":false,"is_disabled":false,"rental_uris":{"android":"levelo://app?vid=47d0a8b3-c4fc-4d20-befe-0d9c69ad92a9","ios":"levelo://app?vid=47d0a8b3-c4fc-4d20-befe-0d9c69ad92a9"},"vehicle_type_id":"4","last_reported":1767792757,"current_range_meters":8800,"station_id":"st_d3nk18o9ro0c73en2l3g","pricing_plan_id":"cebpf4jnsgd1na2vs0mg"},{"bike_id":"5a68ff48-3ca4-4b8d-81f5-0545c9e06ce5","system_id":"levelo_inurba_marseille","lat":43.28866,"lon":5.42524,"is_reserved":false,"is_disabled":false,"rental_uris":{"android":"levelo://app?vid=5a68ff48-3ca4-4b8d-81f5-0545c9e06ce5","ios":"levelo://app?vid=5a68ff48-3ca4-4b8d-81f5-0545c9e06ce5"},"vehicle_type_id":"4","last_reported":1767792757,"current_range_meters":9200,"station_id":"st_d3b462108ojc7389ooeg","pricing_plan_id":"cebpf4jnsgd1na2vs0mg"},{"bike_id":"f6c1d545-d8df-48a4-b906-098a561f57c6","system_id":"levelo_inurba_marseille","lat":43.29492,"lon":5.43304,"is_reserved":false,"is_disabled":false,"rental_uris":{"android":"levelo://app?vid=f6c1d545-d8df-48a4-b906-098a561f57c6","ios":"levelo://app?vid=f6c1d545-d8df-48a4-b906-098a561f57c6"},"vehicle_type_id":"4","last_reported":1767792757,"current_range_meters":9200,"station_id":"st_d3j5ugp08ojc73fj9d10","pricing_plan_id":"cebpf4jnsgd1na2vs0mg"},{"bike_id":"716f70c6-c645-4189-bca5-9c06dfbd6c99","system_id":"levelo_inurba_marseille","lat":43.29794,"lon":5.38085,"is_reserved":false,"is_disabled":false,"rental_uris":{"android":"levelo://app?vid=716f70c6-c645-4189-bca5-9c06dfbd6c99","ios":"levelo://app?vid=716f70c6-c645-4189-bca5-9c06dfbd6c99"},"vehicle_type_id":"4","last_reported":1767792757,"current_range_meters":9200,"station_id":"ce4bgip2rcd13ifvqbb0","pricing_plan_id":"cebpf4jnsgd1na2vs0mg"},{"bike_id":"19e15d06-cf4c-459d-8887-b3feaa0bcacf","system_id":"levelo_inurba_marseille","lat":43.3285,"lon":5.40451,"is_reserved":false,"is_disabled":false,"rental_uris":{"android":"levelo://app?vid=19e15d06-cf4c-459d-8887-b3feaa0bcacf","ios":"levelo://app?vid=19e15d06-cf4c-459d-8887-b3feaa0bcacf"},"vehicle_type_id":"4","last_reported":1767792757,"current_range_meters":9200,"station_id":"ce4bhq92rcd13ifvqhkg","pricing_plan_id":"cebpf4jnsgd1na2vs0mg"},{"bike_id":"e90f7184-cd39-4bc0-805c-9ce2c7183400","system_id":"levelo_inurba_marseille","lat":43.26205,"lon":5.37941,"is_reserved":false,"is_disabled":false,"rental_uris":{"android":"levelo://app?vid=e90f7184-cd39-4bc0-805c-9ce2c7183400","ios":"levelo://app?vid=e90f7184-cd39-4bc0-805c-9ce2c7183400"},"vehicle_type_id":"4","last_reported":1767792757,"current_range_meters":9200,"station_id":"ce4bhjp2rcd13ifvqg90","pricing_plan_id":"cebpf4jnsgd1na2vs0mg"},{"bike_id":"fe56dbfc-2a5d-4310-954a-46a9ebdee279","system_id":"levelo_inurba_marseille","lat":43.27989,"lon":5.40017,"is_reserved":false,"is_disabled":false,"rental_uris":{"android":"levelo://app?vid=fe56dbfc-2a5d-4310-954a-46a9ebdee279","ios":"levelo://app?vid=fe56dbfc-2a5d-4310-954a-46a9ebdee279"},"vehicle_type_id":"4","last_reported":1767792757,"current_range_meters":9200,"station_id":"ce4bho92rcd13ifvqh4g","pricing_plan_id":"cebpf4jnsgd1na2vs0mg"},{"bike_id":"23364dbc-8173-4f68-ac8e-7877464e23a5","system_id":"levelo_inurba_marseille","lat":43.28044,"lon":5.36948,"is_reserved":false,"is_disabled":false,"rental_uris":{"android":"levelo://app?vid=23364dbc-8173-4f68-ac8e-7877464e23a5","ios":"levelo://app?vid=23364dbc-8173-4f68-ac8e-7877464e23a5"},"vehicle_type_id":"4","last_reported":1767792757,"current_range_meters":9200,"station_id":"ce4bha12rcd13ifvqef0","pricing_plan_id":"cebpf4jnsgd1na2vs0mg"},{"bike_id":"fe99a84f-5ce7-4cef-a997-e79fffe9bddd","system_id":"levelo_inurba_marseille","lat":43.32097,"lon":5.36759,"is_reserved":false,"is_disabled":false,"rental_uris":{"android":"levelo://app?vid=fe99a84f-5ce7-4cef-a997-e79fffe9bddd","ios":"levelo://app?vid=fe99a84f-5ce7-4cef-a997-e79fffe9bddd"},"vehicle_type_id":"4","last_reported":1767792757,"current_range_meters":9200,"station_id":"ce4bhrh2rcd13ifvqhug","pricing_plan_id":"cebpf4jnsgd1na2vs0mg"},{"bike_id":"17ffc005-fa72-4d1f-9413-b31aab6a3fd6","system_id":"levelo_inurba_marseille","lat":43.32358,"lon":5.36737,"is_reserved":false,"is_disabled":false,"rental_uris":{"android":"levelo://app?vid=17ffc005-fa72-4d1f-9413-b31aab6a3fd6","ios":"levelo://app?vid=17ffc005-fa72-4d1f-9413-b31aab6a3fd6"},"vehicle_type_id":"4","last_reported":1767792757,"current_range_meters":9200,"station_id":"ce4bhsh2rcd13ifvqi2g","pricing_plan_id":"cebpf4jnsgd1na2vs0mg"},{"bike_id":"b13ae0c7-c649-4432-8006-a288d1cb6e86","system_id":"levelo_inurba_marseille","lat":43.29531,"lon":5.38541,"is_reserved":false,"is_disabled":false,"rental_uris":{"android":"levelo://app?vid=b13ae0c7-c649-4432-8006-a288d1cb6e86","ios":"levelo://app?vid=b13ae0c7-c649-4432-8006-a288d1cb6e86"},"vehicle_type_id":"4","last_reported":1767792757,"current_range_meters":9200,"station_id":"ce4bgih2rcd13ifvqba0","pricing_plan_id":"cebpf4jnsgd1na2vs0mg"},{"bike_id":"fa8dacec-3d9c-409d-961a-6b00f53c7d2a","system_id":"levelo_inurba_marseille","lat":43.30141,"lon":5.37425,"is_reserved":false,"is_disabled":false,"rental_uris":{"android":"levelo://app?vid=fa8dacec-3d9c-409d-961a-6b00f53c7d2a","ios":"levelo://app?vid=fa8dacec-3d9c-409d-961a-6b00f53c7d2a"},"vehicle_type_id":"4","last_reported":1767792757,"current_range_meters":9200,"station_id":"ce4bgs92rcd13ifvqcc0","pricing_plan_id":"cebpf4jnsgd1na2vs0mg"},{"bike_id":"627ad4fb-d3f7-406d-9fa6-760355e4142d","system_id":"levelo_inurba_marseille","lat":43.23189,"lon":5.35558,"is_reserved":false,"is_disabled":false,"rental_uris":{"android":"levelo://app?vid=627ad4fb-d3f7-406d-9fa6-760355e4142d","ios":"levelo://app?vid=627ad4fb-d3f7-406d-9fa6-760355e4142d"},"vehicle_type_id":"4","last_reported":1767792757,"current_range_meters":9200,"station_id":"ce4bhu92rcd13ifvqi70","pricing_plan_id":"cebpf4jnsgd1na2vs0mg"},{"bike_id":"77b3085d-690c-4013-9fd8-a663db30499b","system_id":"levelo_inurba_marseille","lat":43.26675,"lon":5.38272,"is_reserved":false,"is_disabled":false,"rental_uris":{"android":"levelo://app?vid=77b3085d-690c-4013-9fd8-a663db30499b","ios":"levelo://app?vid=77b3085d-690c-4013-9fd8-a663db30499b"},"vehicle_type_id":"4","last_reported":1767792757,"current_range_meters":9200,"station_id":"ce4bhg92rcd13ifvqf90","pricing_plan_id":"cebpf4jnsgd1na2vs0mg"},