{"last_updated":1758308860,"ttl":60,"version":"2.2","data":{"bikes":[{"bike_id":"05f72616-4487-437c-af6a-328caf07a82b","system_id":"levelo_inurba_marseille","lat":43.26688,"lon":5.38269,"is_reserved":false,"is_disabled":false,"rental_uris":{"android":"levelo://app?vid=05f72616-4487-437c-af6a-328caf07a82b","ios":"levelo://app?vid=05f72616-4487-437c-af6a-328caf07a82b"},"vehicle_type_id":"4","last_reported":1758308860,"current_range_meters":2800,"station_id":"ce4bhg92rcd13ifvqf90","pricing_plan_id":"cebpf4jnsgd1na2vs0mg"},{"bike_id":"6a8b12d1-6fce-43b9-9abf-29648b2dfb32","system_id":"levelo_inurba_marseille","lat":43.26555,"lon":5.37289,"is_reserved":false,"is_disabled":true,"rental_uris":{"android":"levelo://app?vid=6a8b12d1-6fce-43b9-9abf-29648b2dfb32","ios":"levelo://app?vid=6a8b12d1-6fce-43b9-9abf-29648b2dfb32"},"vehicle_type_id":"4","last_reported":1758308860,"current_range_meters":3200,"station_id":"ce4bhg12rcd13ifvqf70","pricing_plan_id":"cebpf4jnsgd1na2vs0mg"},{"bike_id":"82da354f-da4c-4039-80fd-6f4eadd9e5d6","system_id":"levelo_inurba_marseille","lat":43.28485,"lon":5.38448,"is_reserved":false,"is_disabled":false,"rental_uris":{"android":"levelo://app?vid=82da354f-da4c-4039-80fd-6f4eadd9e5d6","ios":"levelo://app?vid=82da354f-da4c-4039-80fd-6f4eadd9e5d6"},"vehicle_type_id":"4","last_reported":1758308860,"current_range_meters":3200,"station_id":"ce4bh512rcd13ifvqe3g","pricing_plan_id":"cebpf4jnsgd1na2vs0mg"},{"bike_id":"9ec078b9-cfc8-434e-822c-da3929fd2539","system_id":"levelo_inurba_marseille","lat":43.289373,"lon":5.366392,"is_reserved":false,"is_disabled":false,"rental_uris":{"android":"levelo://app?vid=9ec078b9-cfc8-434e-822c-da3929fd2539","ios":"levelo://app?vid=9ec078b9-cfc8-434e-822c-da3929fd2539"},"vehicle_type_id":"4","last_reported":1758308860,"current_range_meters":3200,"station_id":"ce4bhap2rcd13ifvqek0","pricing_plan_id":"cebpf4jnsgd1na2vs0mg"},{"bike_id":"d4e42fed-b7d1-4743-b033-42e94790e119","system_id":"levelo_inurba_marseille","lat":43.24047,"lon":5.37693,"is_reserved":false,"is_disabled":false,"rental_uris":{"android":"levelo://app?vid=d4e42fed-b7d1-4743-b033-42e94790e119","ios":"levelo://app?vid=d4e42fed-b7d1-4743-b033-42e94790e119"},"vehicle_type_id":"4","last_reported":1758308860,"current_range_meters":3600,"station_id":"","pricing_plan_id":"cebpf4jnsgd1na2vs0mg"},{"bike_id":"dac13e94-bd82-4966-aded-c09fe6cba645","system_id":"levelo_inurba_marseille","lat":43.28037,"lon":5.36945,"is_reserved":false,"is_disabled":false,"rental_uris":{"android":"levelo://app?vid=dac13e94-bd82-4966-aded-c09fe6cba645","ios":"levelo://app?vid=dac13e94-bd82-4966-aded-c09fe6cba645"},"vehicle_type_id":"4","last_reported":1758308860,"current_range_meters":3200,"station_id":"ce4bha12rcd13ifvqef0","pricing_plan_id":"cebpf4jnsgd1na2vs0mg"},{"bike_id":"7a71ad5b-7454-4f8c-a9be-2b403b537bea","system_id":"levelo_inurba_marseille","lat":43.30371,"lon":5.424809,"is_reserved":false,"is_disabled":false,"rental_uris":{"android":"levelo://app?vid=7a71ad5b-7454-4f8c-a9be-2b403b537bea","ios":"levelo://app?vid=7a71ad5b-7454-4f8c-a9be-2b403b537bea"},"vehicle_type_id":"4","last_reported":1758308860,"current_range_meters":3600,"station_id":"ce4bhoh2rcd13ifvqh6g","pricing_plan_id":"cebpf4jnsgd1na2vs0mg"},{"bike_id":"48597062-9222-46bd-962c-809504036912","system_id":"levelo_inurba_marseille","lat":43.3014,"lon":5.39875,"is_reserved":false,"is_disabled":false,"rental_uris":{"android":"levelo://app?vid=48597062-9222-46bd-962c-809504036912","ios":"levelo://app?vid=48597062-9222-46bd-962c-809504036912"},"vehicle_type_id":"4","last_reported":1758308860,"current_range_meters":3600,"station_id":"ce4bh0h2rcd13ifvqd40","pricing_plan_id":"cebpf4jnsgd1na2vs0mg"},{"bike_id":"ba367fdb-8832-4266-8e61-9bddaf191a7e","system_id":"levelo_inurba_marseille","lat":43.25086,"lon":5.39522,"is_reserved":false,"is_disabled":false,"rental_uris":{"android":"levelo://app?vid=ba367fdb-8832-4266-8e61-9bddaf191a7e","ios":"levelo://app?vid=ba367fdb-8832-4266-8e61-9bddaf191a7e"},"vehicle_type_id":"4","last_reported":1758308860,"current_range_meters":3600,"station_id":"ce4bhm12rcd13ifvqgkg","pricing_plan_id":"cebpf4jnsgd1na2vs0mg"},{"bike_id":"d5a2f2f3-4095-4ce1-a2c2-a9cd19c18c3f","system_id":"levelo_inurba_marseille","lat":43.29579,"lon":5.36739,"is_reserved":false,"is_disabled":false,"rental_uris":{"android":"levelo://app?vid=d5a2f2f3-4095-4ce1-a2c2-a9cd19c18c3f","ios":"levelo://app?vid=d5a2f2f3-4095-4ce1-a2c2-a9cd19c18c3f"},"vehicle_type_id":"4","last_reported":1758308860,"current_range_meters":4000,"station_id":"ce4bgph2rcd13ifvqc2g","pricing_plan_id":"cebpf4jnsgd1na2vs0mg"},{"bike_id":"07c8a407-8b01-49f8-80b0-5f86620cc3b8","system_id":"levelo_inurba_marseille","lat":43.29259,"lon":5.40909,"is_reserved":false,"is_disabled":false,"rental_uris":{"android":"levelo://app?vid=07c8a407-8b01-49f8-80b0-5f86620cc3b8","ios":"levelo://app?vid=07c8a407-8b01-49f8-80b0-5f86620cc3b8"},"vehicle_type_id":"4","last_reported":1758308860,"current_range_meters":4000,"station_id":"ce4bh192rcd13ifvqdc0","pricing_plan_id":"cebpf4jnsgd1na2vs0mg"},{"bike_id":"28c14d57-393e-419d-91c4-591e27b56905","system_id":"levelo_inurba_marseille","lat":43.30136,"lon":5.39871,"is_reserved":false,"is_disabled":false,"rental_uris":{"android":"levelo://app?vid=28c14d57-393e-419d-91c4-591e27b56905","ios":"levelo://app?vid=28c14d57-393e-419d-91c4-591e27b56905"},"vehicle_type_id":"4","last_reported":1758308860,"current_range_meters":4000,"station_id":"ce4bh0h2rcd13ifvqd40","pricing_plan_id":"cebpf4jnsgd1na2vs0mg"},{"bike_id":"7b51a36e-d3c1-400a-a130-b00f35dc0b10","system_id":"levelo_inurba_marseille","lat":43.225343,"lon":5.348357,"is_reserved":false,"is_disabled":false,"rental_uris":{"android":"levelo://app?vid=7b51a36e-d3c1-400a-a130-b00f35dc0b10","ios":"levelo://app?vid=7b51a36e-d3c1-400a-a130-b00f35dc0b10"},"vehicle_type_id":"4","last_reported":1758308860,"current_range_meters":4000,"station_id":"","pricing_plan_id":"cebpf4jnsgd1na2vs0mg"},{"bike_id":"a99928c2-ad73-4f8e-85ff-e0916a1c44d4","system_id":"levelo_inurba_marseille","lat":43.27072,"lon":5.4229,"is_reserved":false,"is_disabled":false,"rental_uris":{"android":"levelo://app?vid=a99928c2-ad73-4f8e-85ff-e0916a1c44d4","ios":"levelo://app?vid=a99928c2-ad73-4f8e-85ff-e0916a1c44d4"},"vehicle_type_id":"4","last_reported":1758308860,"current_range_meters":4000,"station_id":"ce4bhk92rcd13ifvqgb0","pricing_plan_id":"cebpf4jnsgd1na2vs0mg"},{"bike_id":"35d62a25-3b57-4f76-a4bd-ead2e34ad801","system_id":"levelo_inurba_marseille","lat":43.30899,"lon":5.39668,"is_reserved":false,"is_disabled":false,"rental_uris":{"android":"levelo://app?vid=35d62a25-3b57-4f76-a4bd-ead2e34ad801","ios":"levelo://app?vid=35d62a25-3b57-4f76-a4bd-ead2e34ad801"},"vehicle_type_id":"4","last_reported":1758308860,"current_range_meters":4000,"station_id":"ce4bh012rcd13ifvqcv0","pricing_plan_id":"cebpf4jnsgd1na2vs0mg"},{"bike_id":"2c11e5f9-3b23-4aa5-b16d-892dc51abc6a","system_id":"levelo_inurba_marseille","lat":43.29274,"lon":5.36848,"is_reserved":false,"is_disabled":false,"rental_uris":{"android":"levelo://app?vid=2c11e5f9-3b23-4aa5-b16d-892dc51abc6a","ios":"levelo://app?vid=2c11e5f9-3b23-4aa5-b16d-892dc51abc6a"},"vehicle_type_id":"4","last_reported":1758308860,"current_range_meters":4000,"station_id":"ce4bhbp2rcd13ifvqesg","pricing_plan_id":"cebpf4jnsgd1na2vs0mg"},{"bike_id":"f837d9bb-1454-4902-b7dd-9b63600e79db","system_id":"levelo_inurba_marseille","lat":43.2784,"lon":5.39214,"is_reserved":false,"is_disabled":false,"rental_uris":{"android":"levelo://app?vid=f837d9bb-1454-4902-b7dd-9b63600e79db","ios":"levelo://app?vid=f837d9bb-1454-4902-b7dd-9b63600e79db"},"vehicle_type_id":"4","last_reported":1758308860,"current_range_meters":4000,"station_id":"ce4bhjp2rcd13ifvqga0","pricing_plan_id":"cebpf4jnsgd1na2vs0mg"},{"bike_id":"45afe5f4-5cbe-49c2-a913-33c967100178","system_id":"levelo_inurba_marseille","lat":43.29776,"lon":5.380931,"is_reserved":false,"is_disabled":false,"rental_uris":{"android":"levelo://app?vid=45afe5f4-5cbe-49c2-a913-33c967100178","ios":"levelo://app?vid=45afe5f4-5cbe-49c2-a913-33c967100178"},"vehicle_type_id":"4","last_reported":1758308860,"current_range_meters":4000,"station_id":"","pricing_plan_id":"cebpf4jnsgd1na2vs0mg"},{"bike_id":"48f0d0b7-3a5b-4003-9b1d-3e153bb53aaf","system_id":"levelo_inurba_marseille","lat":43.27042,"lon":5.42257,"is_reserved":false,"is_disabled":false,"rental_uris":{"android":"levelo://app?vid=48f0d0b7-3a5b-4003-9b1d-3e153bb53aaf","ios":"levelo://app?vid=48f0d0b7-3a5b-4003-9b1d-3e153bb53aaf"},"vehicle_type_id":"4","last_reported":1758308860,"current_range_meters":4400,"station_id":"ce4bhk92rcd13ifvqgb0","pricing_plan_id":"cebpf4jnsgd1na2vs0mg"},{"bike_id":"059c0ba7-1dcb-4f29-8d05-6060640937cc","system_id":"levelo_inurba_marseille","lat":43.31056,"lon":5.37443,"is_reserved":false,"is_disabled":true,"rental_uris":{"android":"levelo://app?vid=059c0ba7-1dcb-4f29-8d05-6060640937cc","ios":"levelo://app?vid=059c0ba7-1dcb-4f29-8d05-6060640937cc"},"vehicle_type_id":"4","last_reported":1758308860,"current_range_meters":4400,"station_id":"","pricing_plan_id":"cebpf4jnsgd1na2vs0mg"},{"bike_id":"7918c8ea-f7f4-4157-b837-0cbefe2a77c9","system_id":"levelo_inurba_marseille","lat":43.27487,"lon":5.42454,"is_reserved":false,"is_disabled":true,"rental_uris":{"android":"levelo://app?vid=7918c8ea-f7f4-4157-b837-0cbefe2a77c9","ios":"levelo://app?vid=7918c8ea-f7f4-4157-b837-0cbefe2a77c9"},"vehicle_type_id":"4","last_reported":1758308860,"current_range_meters":4400,"station_id":"ce4bhn92rcd13ifvqgrg","pricing_plan_id":"cebpf4jnsgd1na2vs0mg"},{"bike_id":"e786dbe1-219b-4ee9-a5aa-b88f3b25fe2f","system_id":"levelo_inurba_marseille","lat":43.29532,"lon":5.38546,"is_reserved":false,"is_disabled":false,"rental_uris":{"android":"levelo://app?vid=e786dbe1-219b-4ee9-a5aa-b88f3b25fe2f","ios":"levelo://app?vid=e786dbe1-219b-4ee9-a5aa-b88f3b25fe2f"},"vehicle_type_id":"4","last_reported":1758308860,"current_range_meters":2000,"station_id":"ce4bgih2rcd13ifvqba0","pricing_plan_id":"cebpf4jnsgd1na2vs0mg"},{"bike_id":"d592305f-5e4b-4ab0-b346-cf71ba23d66c","system_id":"levelo_inurba_marseille","lat":43.25006,"lon":5.38932,"is_reserved":false,"is_disabled":false,"rental_uris":{"android":"levelo://app?vid=d592305f-5e4b-4ab0-b346-cf71ba23d66c","ios":"levelo://app?vid=d592305f-5e4b-4ab0-b346-cf71ba23d66c"},"vehicle_type_id":"4","last_reported":1758308860,"current_range_meters":4400,"station_id":"ce4bhgp2rcd13ifvqfd0","pricing_plan_id":"cebpf4jnsgd1na2vs0mg"},{"bike_id":"79ae7946-4ce7-4cc4-b2d5-558959a7f3a3","system_id":"levelo_inurba_marseille","lat":43.29799,"lon":5.38079,"is_reserved":false,"is_disabled":false,"rental_uris":{"android":"levelo://app?vid=79ae7946-4ce7-4cc4-b2d5-558959a7f3a3","ios":"levelo://app?vid=79ae7946-4ce7-4cc4-b2d5-558959a7f3a3"},"vehicle_type_id":"4","last_reported":1758308860,"current_range_meters":4400,"station_id":"ce4bgip2rcd13ifvqbb0","pricing_plan_id":"cebpf4jnsgd1na2vs0mg"},{"bike_id":"8be53c8c-f9d0-4375-8dc1-afd47afaa1b3","system_id":"levelo_inurba_marseille","lat":43.33032,"lon":5.39017,"is_reserved":false,"is_disabled":false,"rental_uris":{"android":"levelo://app?vid=8be53c8c-f9d0-4375-8dc1-afd47afaa1b3","ios":"levelo://app?vid=8be53c8c-f9d0-4375-8dc1-afd47afaa1b3"},"vehicle_type_id":"4","last_reported":1758308860,"current_range_meters":4400,"station_id":"ce4bhr92rcd13ifvqhrg","pricing_plan_id":"cebpf4jnsgd1na2vs0mg"},{"bike_id":"beba7a9d-f5e8-44cd-a576-e3541d5ce043","system_id":"levelo_inurba_marseille","lat":43.29795,"lon":5.38101,"is_reserved":false,"is_disabled":false,"rental_uris":{"android":"levelo://app?vid=beba7a9d-f5e8-44cd-a576-e3541d5ce043","ios":"levelo://app?vid=beba7a9d-f5e8-44cd-a576-e3541d5ce043"},"vehicle_type_id":"4","last_reported":1758308860,"current_range_meters":4400,"station_id":"ce4bgip2rcd13ifvqbb0","pricing_plan_id":"cebpf4jnsgd1na2vs0mg"},{"bike_id":"6e89d1ff-c084-48fc-a2d3-90498832234e","system_id":"levelo_inurba_marseille","lat":43.30742,"lon":5.38046,"is_reserved":false,"is_disabled":false,"rental_uris":{"android":"levelo://app?vid=6e89d1ff-c084-48fc-a2d3-90498832234e","ios":"levelo://app?vid=6e89d1ff-c084-48fc-a2d3-90498832234e"},"vehicle_type_id":"4","last_reported":1758308860,"current_range_meters":4800,"station_id":"","pricing_plan_id":"cebpf4jnsgd1na2vs0mg"},{"bike_id":"ec753155-ece3-46e9-a454-41b891d4be01","system_id":"levelo_inurba_marseille","lat":43.29905,"lon":5.436475,"is_reserved":false,"is_disabled":false,"rental_uris":{"android":"levelo://app?vid=ec753155-ece3-46e9-a454-41b891d4be01","ios":"levelo://app?vid=ec753155-ece3-46e9-a454-41b891d4be01"},"vehicle_type_id":"4","last_reported":1758308860,"current_range_meters":4800,"station_id":"ce4bhpp2rcd13ifvqhfg","pricing_plan_id":"cebpf4jnsgd1na2vs0mg"},{"bike_id":"dddfb242-a4ef-4d72-86f9-58e4762592e8","system_id":"levelo_inurba_marseille","lat":43.29199,"lon":5.39334,"is_reserved":false,"is_disabled":false,"rental_uris":{"android":"levelo://app?vid=dddfb242-a4ef-4d72-86f9-58e4762592e8","ios":"levelo://app?vid=dddfb242-a4ef-4d72-86f9-58e4762592e8"},"vehicle_type_id":"4","last_reported":1758308860,"current_range_meters":4800,"station_id":"ce4bh192rcd13ifvqdd0","pricing_plan_id":"cebpf4jnsgd1na2vs0mg"},{"bike_id":"1d8019b8-998e-47a5-9ffe-53c7e7525920","system_id":"levelo_inurba_marseille","lat":43.28708,"lon":5.37945,"is_reserved":false,"is_disabled":false,"rental_uris":{"android":"levelo://app?vid=1d8019b8-998e-47a5-9ffe-53c7e7525920","ios":"levelo://app?vid=1d8019b8-998e-47a5-9ffe-53c7e7525920"},"vehicle_type_id":"4","last_reported":1758308860,"current_range_meters":4800,"station_id":"ce4bh9p2rcd13ifvqec0","pricing_plan_id":"cebpf4jnsgd1na2vs0mg"},{"bike_id":"cca01d86-77a5-4d91-8ba4-5e9502295fe8","system_id":"levelo_inurba_marseille","lat":43.29048,"lon":5.37562,"is_reserved":false,"is_disabled":false,"rental_uris":{"android":"levelo://app?vid=cca01d86-77a5-4d91-8ba4-5e9502295fe8","ios":"levelo://app?vid=cca01d86-77a5-4d91-8ba4-5e9502295fe8"},"vehicle_type_id":"4","last_reported":1758308860,"current_range_meters":4800,"station_id":"ce4bh692rcd13ifvqe90","pricing_plan_id":"cebpf4jnsgd1na2vs0mg"},{"bike_id":"4e6a9e33-2282-4bb9-ad04-2db22248a4e7","system_id":"levelo_inurba_marseille","lat":43.28266,"lon":5.3506,"is_reserved":false,"is_disabled":false,"rental_uris":{"android":"levelo://app?vid=4e6a9e33-2282-4bb9-ad04-2db22248a4e7","ios":"levelo://app?vid=4e6a9e33-2282-4bb9-ad04-2db22248a4e7"},"vehicle_type_id":"4","last_reported":1758308860,"current_range_meters":5600,"station_id":"ce4bhbp2rcd13ifvqerg","pricing_plan_id":"cebpf4jnsgd1na2vs0mg"},{"bike_id":"83fa453f-1a16-46b3-b2e1-c725ad9e7bf3","system_id":"levelo_inurba_marseille","lat":43.28829,"lon":5.3791,"is_reserved":false,"is_disabled":false,"rental_uris":{"android":"levelo://app?vid=83fa453f-1a16-46b3-b2e1-c725ad9e7bf3","ios":"levelo://app?vid=83fa453f-1a16-46b3-b2e1-c725ad9e7bf3"},"vehicle_type_id":"4","last_reported":1758308860,"current_range_meters":5600,"station_id":"","pricing_plan_id":"cebpf4jnsgd1na2vs0mg"},{"bike_id":"f860cb47-6e65-4971-ba34-453d0b922e2b","system_id":"levelo_inurba_marseille","lat":43.26781,"lon":5.39414,"is_reserved":false,"is_disabled":false,"rental_uris":{"android":"levelo://app?vid=f860cb47-6e65-4971-ba34-453d0b922e2b","ios":"levelo://app?vid=f860cb47-6e65-4971-ba34-453d0b922e2b"},"vehicle_type_id":"4","last_reported":1758308860,"current_range_meters":5600,"station_id":"ce4bhh12rcd13ifvqfg0","pricing_plan_id":"cebpf4jnsgd1na2vs0mg"},{"bike_id":"91d75646-396b-4e35-8c7f-b572fede9fd4","system_id":"levelo_inurba_marseille","lat":43.30798,"lon":5.43522,"is_reserved":false,"is_disabled":false,"rental_uris":{"android":"levelo://app?vid=91d75646-396b-4e35-8c7f-b572fede9fd4","ios":"levelo://app?vid=91d75646-396b-4e35-8c7f-b572fede9fd4"},"vehicle_type_id":"4","last_reported":1758308860,"current_range_meters":5600,"station_id":"ce4bhph2rcd13ifvqheg","pricing_plan_id":"cebpf4jnsgd1na2vs0mg"},{"bike_id":"9963a081-3d47-45c3-9a5f-f912abc0ffc5","system_id":"levelo_inurba_marseille","lat":43.25005,"lon":5.38914,"is_reserved":false,"is_disabled":true,"rental_uris":{"android":"levelo://app?vid=9963a081-3d47-45c3-9a5f-f912abc0ffc5","ios":"levelo://app?vid=9963a081-3d47-45c3-9a5f-f912abc0ffc5"},"vehicle_type_id":"4","last_reported":1758308860,"current_range_meters":5600,"station_id":"ce4bhgp2rcd13ifvqfd0","pricing_plan_id":"cebpf4jnsgd1na2vs0mg"},{"bike_id":"7745eab8-3d48-4349-b863-861b7cc7cbd1","system_id":"levelo_inurba_marseille","lat":43.290054,"lon":5.381405,"is_reserved":false,"is_disabled":false,"rental_uris":{"android":"levelo://app?vid=7745eab8-3d48-4349-b863-861b7cc7cbd1","ios":"levelo://app?vid=7745eab8-3d48-4349-b863-861b7cc7cbd1"},"vehicle_type_id":"4","last_reported":1758308860,"current_range_meters":5600,"station_id":"","pricing_plan_id":"cebpf4jnsgd1na2vs0mg"},{"bike_id":"313b7631-f913-4569-8d42-a70fb5a94ee6","system_id":"levelo_inurba_marseille","lat":43.317252,"lon":5.423977,"is_reserved":false,"is_disabled":false,"rental_uris":{"android":"levelo://app?vid=313b7631-f913-4569-8d42-a70fb5a94ee6","ios":"levelo://app?vid=313b7631-f913-4569-8d42-a70fb5a94ee6"},"vehicle_type_id":"4","last_reported":1758308860,"current_range_meters":5600,"station_id":"ce4bhp92rcd13ifvqhbg","pricing_plan_id":"cebpf4jnsgd1na2vs0mg"},{"bike_id":"f9cdcd48-d466-4089-996d-cbdb89c93a29","system_id":"levelo_inurba_marseille","lat":43.32365,"lon":5.38896,"is_reserved":false,"is_disabled":false,"rental_uris":{"android":"levelo://app?vid=f9cdcd48-d466-4089-996d-cbdb89c93a29","ios":"levelo://app?vid=f9cdcd48-d466-4089-996d-cbdb89c93a29"},"vehicle_type_id":"4","last_reported":1758308860,"current_range_meters":5600,"station_id":"ce4bhqp2rcd13ifvqhog","pricing_plan_id":"cebpf4jnsgd1na2vs0mg"},{"bike_id":"c383a25a-46d3-4686-afad-e874823b853e","system_id":"levelo_inurba_marseille","lat":43.274487,"lon":5.407487,"is_reserved":false,"is_disabled":false,"rental_uris":{"android":"levelo://app?vid=c383a25a-46d3-4686-afad-e874823b853e","ios":"levelo://app?vid=c383a25a-46d3-4686-afad-e874823b853e"},"vehicle_type_id":"4","last_reported":1758308860,"current_range_meters":5600,"station_id":"","pricing_plan_id":"cebpf4jnsgd1na2vs0mg"},{"bike_id":"f6b4577b-e807-4dc2-8445-9e40b96521f6","system_id":"levelo_inurba_marseille","lat":43.30258,"lon":5.40068,"is_reserved":false,"is_disabled":false,"rental_uris":{"android":"levelo://app?vid=f6b4577b-e807-4dc2-8445-9e40b96521f6","ios":"levelo://app?vid=f6b4577b-e807-4dc2-8445-9e40b96521f6"},"vehicle_type_id":"4","last_reported":1758308860,"current_range_meters":5600,"station_id":"ce4bgvh2rcd13ifvqcs0","pricing_plan_id":"cebpf4jnsgd1na2vs0mg"},{"bike_id":"11d60f6e-f505-474f-a6c2-5b8f76486b7b","system_id":"levelo_inurba_marseille","lat":43.28282,"lon":5.35071,"is_reserved":false,"is_disabled":true,"rental_uris":{"android":"levelo://app?vid=11d60f6e-f505-474f-a6c2-5b8f76486b7b","ios":"levelo://app?vid=11d60f6e-f505-474f-a6c2-5b8f76486b7b"},"vehicle_type_id":"4","last_reported":1758308860,"current_range_meters":6000,"station_id":"ce4bhbp2rcd13ifvqerg","pricing_plan_id":"cebpf4jnsgd1na2vs0mg"},{"bike_id":"9859f474-c024-4d01-a591-af4d9fcbcc05","system_id":"levelo_inurba_marseille","lat":43.28575,"lon":5.39494,"is_reserved":false,"is_disabled":false,"rental_uris":{"android":"levelo://app?vid=9859f474-c024-4d01-a591-af4d9fcbcc05","ios":"levelo://app?vid=9859f474-c024-4d01-a591-af4d9fcbcc05"},"vehicle_type_id":"4","last_reported":1758308860,"current_range_meters":6000,"station_id":"ce4bh292rcd13ifvqdg0","pricing_plan_id":"cebpf4jnsgd1na2vs0mg"},{"bike_id":"6a776f74-8106-4f35-b300-f2bbe71c53f0","system_id":"levelo_inurba_marseille","lat":43.29189,"lon":5.39308,"is_reserved":false,"is_disabled":false,"rental_uris":{"android":"levelo://app?vid=6a776f74-8106-4f35-b300-f2bbe71c53f0","ios":"levelo://app?vid=6a776f74-8106-4f35-b300-f2bbe71c53f0"},"vehicle_type_id":"4","last_reported":1758308860,"current_range_meters":6000,"station_id":"ce4bh192rcd13ifvqdd0","pricing_plan_id":"cebpf4jnsgd1na2vs0mg"},{"bike_id":"ccd44948-7c00-492e-b618-36105a29ab8f","system_id":"levelo_inurba_marseille","lat":43.326521,"lon":5.409831,"is_reserved":false,"is_disabled":true,"rental_uris":{"android":"levelo://app?vid=ccd44948-7c00-492e-b618-36105a29ab8f","ios":"levelo://app?vid=ccd44948-7c00-492e-b618-36105a29ab8f"},"vehicle_type_id":"4","last_reported":1758308860,"current_range_meters":6000,"station_id":"ce4bhpp2rcd13ifvqhgg","pricing_plan_id":"cebpf4jnsgd1na2vs0mg"},{"bike_id":"e3e096d4-8287-4616-ba8f-6f3fbc252ef6","system_id":"levelo_inurba_marseille","lat":43.32366,"lon":5.38882,"is_reserved":false,"is_disabled":false,"rental_uris":{"android":"levelo://app?vid=e3e096d4-8287-4616-ba8f-6f3fbc252ef6","ios":"levelo://app?vid=e3e096d4-8287-4616-ba8f-6f3fbc252ef6"},"vehicle_type_id":"4","last_reported":1758308860,"current_range_meters":6000,"station_id":"ce4bhqp2rcd13ifvqhog","pricing_plan_id":"cebpf4jnsgd1na2vs0mg"},{"bike_id":"ddd0c6de-ab84-4ea8-ad27-a731087c8ea3","system_id":"levelo_inurba_marseille","lat":43.30538,"lon":5.36543,"is_reserved":false,"is_disabled":false,"rental_uris":{"android":"levelo://app?vid=ddd0c6de-ab84-4ea8-ad27-a731087c8ea3","ios":"levelo://app?vid=ddd0c6de-ab84-4ea8-ad27-a731087c8ea3"},"vehicle_type_id":"4","last_reported":1758308860,"current_range_meters":5600,"station_id":"ce4bgs12rcd13ifvqcag","pricing_plan_id":"cebpf4jnsgd1na2vs0mg"},{"bike_id":"0902f32b-a142-42f3-99be-d4c30f5a5e2a","system_id":"levelo_inurba_marseille","lat":43.289727,"lon":5.378408,"is_reserved":false,"is_disabled":false,"rental_uris":{"android":"levelo://app?vid=0902f32b-a142-42f3-99be-d4c30f5a5e2a","ios":"levelo://app?vid=0902f32b-a142-42f3-99be-d4c30f5a5e2a"},"vehicle_type_id":"4","last_reported":1758308860,"current_range_meters":6400,"station_id":"ce4bh9p2rcd13ifvqed0","pricing_plan_id":"cebpf4jnsgd1na2vs0mg"},{"bike_id":"6b2a0b15-bf7e-480a-9a4f-2752a6be1cb1","system_id":"levelo_inurba_marseille","lat":43.29263,"lon":5.38448,"is_reserved":false,"is_disabled":false,"rental_uris":{"android":"levelo://app?vid=6b2a0b15-bf7e-480a-9a4f-2752a6be1cb1","ios":"levelo://app?vid=6b2a0b15-bf7e-480a-9a4f-2752a6be1cb1"},"vehicle_type_id":"4","last_reported":1758308860,"current_range_meters":6400,"station_id":"ce4bh692rcd13ifvqea0","pricing_plan_id":"cebpf4jnsgd1na2vs0mg"},{"bike_id":"8d095b49-8350-47eb-baa2-da7ffebae61b","system_id":"levelo_inurba_marseille","lat":43.29269,"lon":5.38444,"is_reserved":false,"is_disabled":false,"rental_uris":{"android":"levelo://app?vid=8d095b49-8350-47eb-baa2-da7ffebae61b","ios":"levelo://app?vid=8d095b49-8350-47eb-baa2-da7ffebae61b"},"vehicle_type_id":"4","last_reported":1758308860,"current_range_meters":6400,"station_id":"ce4bh692rcd13ifvqea0","pricing_plan_id":"cebpf4jnsgd1na2vs0mg"},{"bike_id":"966d708d-8af7-4fa9-ae3b-3c7062440845","system_id":"levelo_inurba_marseille","lat":43.29252,"lon":5.38436,"is_reserved":false,"is_disabled":false,"rental_uris":{"android":"levelo://app?vid=966d708d-8af7-4fa9-ae3b-3c7062440845","ios":"levelo://app?vid=966d708d-8af7-4fa9-ae3b-3c7062440845"},"vehicle_type_id":"4","last_reported":1758308860,"current_range_meters":6400,"station_id":"ce4bh692rcd13ifvqea0","pricing_plan_id":"cebpf4jnsgd1na2vs0mg"},{"bike_id":"98f432d7-73b2-48b8-b669-6e7d7a292816","system_id":"levelo_inurba_marseille","lat":43.2953,"lon":5.39407,"is_reserved":false,"is_disabled":false,"rental_uris":{"android":"levelo://app?vid=98f432d7-73b2-48b8-b669-6e7d7a292816","ios":"levelo://app?vid=98f432d7-73b2-48b8-b669-6e7d7a292816"},"vehicle_type_id":"4","last_reported":1758308860,"current_range_meters":6400,"station_id":"ce4bh292rcd13ifvqdf0","pricing_plan_id":"cebpf4jnsgd1na2vs0mg"},{"bike_id":"b03963e7-f165-473d-a43d-a68e09ff2d96","system_id":"levelo_inurba_marseille","lat":43.25737,"lon":5.41989,"is_reserved":false,"is_disabled":false,"rental_uris":{"android":"levelo://app?vid=b03963e7-f165-473d-a43d-a68e09ff2d96","ios":"levelo://app?vid=b03963e7-f165-473d-a43d-a68e09ff2d96"},"vehicle_type_id":"4","last_reported":1758308860,"current_range_meters":6400,"station_id":"","pricing_plan_id":"cebpf4jnsgd1na2vs0mg"},{"bike_id":"cd452cea-9201-418f-a8ce-69ed7fa1f7de","system_id":"levelo_inurba_marseille","lat":43.29167,"lon":5.37153,"is_reserved":false,"is_disabled":false,"rental_uris":{"android":"levelo://app?vid=cd452cea-9201-418f-a8ce-69ed7fa1f7de","ios":"levelo://app?vid=cd452cea-9201-418f-a8ce-69ed7fa1f7de"},"vehicle_type_id":"4","last_reported":1758308860,"current_range_meters":6800,"station_id":"ce4bha92rcd13ifvqeh0","pricing_plan_id":"cebpf4jnsgd1na2vs0mg"},{"bike_id":"6f2bd437-51a7-4cdc-abb6-82d66756d896","system_id":"levelo_inurba_marseille","lat":43.27062,"lon":5.42276,"is_reserved":false,"is_disabled":false,"rental_uris":{"android":"levelo://app?vid=6f2bd437-51a7-4cdc-abb6-82d66756d896","ios":"levelo://app?vid=6f2bd437-51a7-4cdc-abb6-82d66756d896"},"vehicle_type_id":"4","last_reported":1758308860,"current_range_meters":6800,"station_id":"ce4bhk92rcd13ifvqgb0","pricing_plan_id":"cebpf4jnsgd1na2vs0mg"},{"bike_id":"9f9187c1-50c0-4c99-be22-a58905920b70","system_id":"levelo_inurba_marseille","lat":43.29596,"lon":5.38102,"is_reserved":false,"is_disabled":false,"rental_uris":{"android":"levelo://app?vid=9f9187c1-50c0-4c99-be22-a58905920b70","ios":"levelo://app?vid=9f9187c1-50c0-4c99-be22-a58905920b70"},"vehicle_type_id":"4","last_reported":1758308860,"current_range_meters":6800,"station_id":"ce4bgl12rcd13ifvqbo0","pricing_plan_id":"cebpf4jnsgd1na2vs0mg"},{"bike_id":"81ea3978-fbda-49d5-b108-c6ef7378f4ae","system_id":"levelo_inurba_marseille","lat":43.29527,"lon":5.39041,"is_reserved":false,"is_disabled":false,"rental_uris":{"android":"levelo://app?vid=81ea3978-fbda-49d5-b108-c6ef7378f4ae","ios":"levelo://app?vid=81ea3978-fbda-49d5-b108-c6ef7378f4ae"},"vehicle_type_id":"4","last_reported":1758308860,"current_range_meters":6800,"station_id":"ce4bh3p2rcd13ifvqdp0","pricing_plan_id":"cebpf4jnsgd1na2vs0mg"},{"bike_id":"e045e22c-4b8c-4825-aaa2-3876406b12d3","system_id":"levelo_inurba_marseille","lat":43.29084,"lon":5.37175,"is_reserved":false,"is_disabled":false,"rental_uris":{"android":"levelo://app?vid=e045e22c-4b8c-4825-aaa2-3876406b12d3","ios":"levelo://app?vid=e045e22c-4b8c-4825-aaa2-3876406b12d3"},"vehicle_type_id":"4","last_reported":1758308860,"current_range_meters":6800,"station_id":"ce4bh5p2rcd13ifvqe4g","pricing_plan_id":"cebpf4jnsgd1na2vs0mg"},{"bike_id":"cf66592a-d8fa-4c6c-9927-5d7a9fef5026","system_id":"levelo_inurba_marseille","lat":43.262111,"lon":5.397344,"is_reserved":false,"is_disabled":false,"rental_uris":{"android":"levelo://app?vid=cf66592a-d8fa-4c6c-9927-5d7a9fef5026","ios":"levelo://app?vid=cf66592a-d8fa-4c6c-9927-5d7a9fef5026"},"vehicle_type_id":"4","last_reported":1758308860,"current_range_meters":6800,"station_id":"","pricing_plan_id":"cebpf4jnsgd1na2vs0mg"},{"bike_id":"8f9b7cec-e8ff-4eeb-aafd-23d23f825551","system_id":"levelo_inurba_marseille","lat":43.29257,"lon":5.38434,"is_reserved":false,"is_disabled":false,"rental_uris":{"android":"levelo://app?vid=8f9b7cec-e8ff-4eeb-aafd-23d23f825551","ios":"levelo://app?vid=8f9b7cec-e8ff-4eeb-aafd-23d23f825551"},"vehicle_type_id":"4","last_reported":1758308860,"current_range_meters":6800,"station_id":"ce4bh692rcd13ifvqea0","pricing_plan_id":"cebpf4jnsgd1na2vs0mg"},{"bike_id":"d3e33463-b9a9-4a17-8a17-b45ec9217729","system_id":"levelo_inurba_marseille","lat":43.30794,"lon":5.38155,"is_reserved":false,"is_disabled":false,"rental_uris":{"android":"levelo://app?vid=d3e33463-b9a9-4a17-8a17-b45ec9217729","ios":"levelo://app?vid=d3e33463-b9a9-4a17-8a17-b45ec9217729"},"vehicle_type_id":"4","last_reported":1758308860,"current_range_meters":6400,"station_id":"ce4bgt12rcd13ifvqce0","pricing_plan_id":"cebpf4jnsgd1na2vs0mg"},{"bike_id":"1e45bd3c-eb04-414b-b254-712899e7d5f0","system_id":"levelo_inurba_marseille","lat":43.26197,"lon":5.37928,"is_reserved":false,"is_disabled":false,"rental_uris":{"android":"levelo://app?vid=1e45bd3c-eb04-414b-b254-712899e7d5f0","ios":"levelo://app?vid=1e45bd3c-eb04-414b-b254-712899e7d5f0"},"vehicle_type_id":"4","last_reported":1758308860,"current_range_meters":7200,"station_id":"ce4bhjp2rcd13ifvqg90","pricing_plan_id":"cebpf4jnsgd1na2vs0mg"},{"bike_id":"99dc3684-8ce8-45a1-84b8-65392722b3bd","system_id":"levelo_inurba_marseille","lat":43.29974,"lon":5.38489,"is_reserved":false,"is_disabled":false,"rental_uris":{"android":"levelo://app?vid=99dc3684-8ce8-45a1-84b8-65392722b3bd","ios":"levelo://app?vid=99dc3684-8ce8-45a1-84b8-65392722b3bd"},"vehicle_type_id":"4","last_reported":1758308860,"current_range_meters":7200,"station_id":"ce4bgj92rcd13ifvqbd0","pricing_plan_id":"cebpf4jnsgd1na2vs0mg"},{"bike_id":"f394ac62-13e1-43c7-8954-a7aafb960cd0","system_id":"levelo_inurba_marseille","lat":43.29854,"lon":5.36289,"is_reserved":false,"is_disabled":false,"rental_uris":{"android":"levelo://app?vid=f394ac62-13e1-43c7-8954-a7aafb960cd0","ios":"levelo://app?vid=f394ac62-13e1-43c7-8954-a7aafb960cd0"},"vehicle_type_id":"4","last_reported":1758308860,"current_range_meters":7200,"station_id":"ce4bgpp2rcd13ifvqc3g","pricing_plan_id":"cebpf4jnsgd1na2vs0mg"},{"bike_id":"ed4df23c-8ee3-46ee-afe2-e175016fbe92","system_id":"levelo_inurba_marseille","lat":43.30435,"lon":5.38901,"is_reserved":false,"is_disabled":false,"rental_uris":{"android":"levelo://app?vid=ed4df23c-8ee3-46ee-afe2-e175016fbe92","ios":"levelo://app?vid=ed4df23c-8ee3-46ee-afe2-e175016fbe92"},"vehicle_type_id":"4","last_reported":1758308860,"current_range_meters":7200,"station_id":"ce4bgk12rcd13ifvqbi0","pricing_plan_id":"cebpf4jnsgd1na2vs0mg"},{"bike_id":"359acfdd-6088-470c-a135-df2f79f8c3d6","system_id":"levelo_inurba_marseille","lat":43.28723,"lon":5.37937,"is_reserved":false,"is_disabled":false,"rental_uris":{"android":"levelo://app?vid=359acfdd-6088-470c-a135-df2f79f8c3d6","ios":"levelo://app?vid=359acfdd-6088-470c-a135-df2f79f8c3d6"},"vehicle_type_id":"4","last_reported":1758308860,"current_range_meters":8000,"station_id":"ce4bh9p2rcd13ifvqec0","pricing_plan_id":"cebpf4jnsgd1na2vs0mg"},{"bike_id":"c1b31529-c427-4cad-adb6-7b6bf801d9d4","system_id":"levelo_inurba_marseille","lat":43.28491,"lon":5.38417,"is_reserved":false,"is_disabled":false,"rental_uris":{"android":"levelo://app?vid=c1b31529-c427-4cad-adb6-7b6bf801d9d4","ios":"levelo://app?vid=c1b31529-c427-4cad-adb6-7b6bf801d9d4"},"vehicle_type_id":"4","last_reported":1758308860,"current_range_meters":8000,"station_id":"ce4bh512rcd13ifvqe3g","pricing_plan_id":"cebpf4jnsgd1na2vs0mg"},{"bike_id":"f9636a44-11a8-49d6-9b1c-12db7ad64ee3","system_id":"levelo_inurba_marseille","lat":43.24186,"lon":5.3972,"is_reserved":false,"is_disabled":true,"rental_uris":{"android":"levelo://app?vid=f9636a44-11a8-49d6-9b1c-12db7ad64ee3","ios":"levelo://app?vid=f9636a44-11a8-49d6-9b1c-12db7ad64ee3"},"vehicle_type_id":"4","last_reported":1758308860,"current_range_meters":8000,"station_id":"ce4bhn12rcd13ifvqgpg","pricing_plan_id":"cebpf4jnsgd1na2vs0mg"},{"bike_id":"828b8f94-4293-4c49-9424-42c8f759ef6d","system_id":"levelo_inurba_marseille","lat":43.30924,"lon":5.36857,"is_reserved":false,"is_disabled":false,"rental_uris":{"android":"levelo://app?vid=828b8f94-4293-4c49-9424-42c8f759ef6d","ios":"levelo://app?vid=828b8f94-4293-4c49-9424-42c8f759ef6d"},"vehicle_type_id":"4","last_reported":1758308860,"current_range_meters":8400,"station_id":"","pricing_plan_id":"cebpf4jnsgd1na2vs0mg"},{"bike_id":"56a4f75d-eaf2-44b4-aa02-4a439b19699b","system_id":"levelo_inurba_marseille","lat":43.33777,"lon":5.37412,"is_reserved":false,"is_disabled":false,"rental_uris":{"android":"levelo://app?vid=56a4f75d-eaf2-44b4-aa02-4a439b19699b","ios":"levelo://app?vid=56a4f75d-eaf2-44b4-aa02-4a439b19699b"},"vehicle_type_id":"4","last_reported":1758308860,"current_range_meters":8400,"station_id":"","pricing_plan_id":"cebpf4jnsgd1na2vs0mg"},{"bike_id":"f184912f-01f4-4b2e-9e18-75e083c88cd5","system_id":"levelo_inurba_marseille","lat":43.29534,"lon":5.3855,"is_reserved":false,"is_disabled":false,"rental_uris":{"android":"levelo://app?vid=f184912f-01f4-4b2e-9e18-75e083c88cd5","ios":"levelo://app?vid=f184912f-01f4-4b2e-9e18-75e083c88cd5"},"vehicle_type_id":"4","last_reported":1758308860,"current_range_meters":8400,"station_id":"ce4bgih2rcd13ifvqba0","pricing_plan_id":"cebpf4jnsgd1na2vs0mg"},{"bike_id":"e5c68daf-3be8-4dbf-bc0b-940b85af5fc7","system_id":"levelo_inurba_marseille","lat":43.29536,"lon":5.38548,"is_reserved":false,"is_disabled":false,"rental_uris":{"android":"levelo://app?vid=e5c68daf-3be8-4dbf-bc0b-940b85af5fc7","ios":"levelo://app?vid=e5c68daf-3be8-4dbf-bc0b-940b85af5fc7"},"vehicle_type_id":"4","last_reported":1758308860,"current_range_meters":8400,"station_id":"ce4bgih2rcd13ifvqba0","pricing_plan_id":"cebpf4jnsgd1na2vs0mg"},{"bike_id":"a4c3ff6b-c69b-4a78-a365-f2af2e8817d7","system_id":"levelo_inurba_marseille","lat":43.26549,"lon":5.3728,"is_reserved":false,"is_disabled":false,"rental_uris":{"android":"levelo://app?vid=a4c3ff6b-c69b-4a78-a365-f2af2e8817d7","ios":"levelo://app?vid=a4c3ff6b-c69b-4a78-a365-f2af2e8817d7"},"vehicle_type_id":"4","last_reported":1758308860,"current_range_meters":8400,"station_id":"ce4bhg12rcd13ifvqf70","pricing_plan_id":"cebpf4jnsgd1na2vs0mg"},{"bike_id":"42323a1a-489c-43cb-90ae-c675b27444d5","system_id":"levelo_inurba_marseille","lat":43.2164,"lon":5.34362,"is_reserved":false,"is_disabled":false,"rental_uris":{"android":"levelo://app?vid=42323a1a-489c-43cb-90ae-c675b27444d5","ios":"levelo://app?vid=42323a1a-489c-43cb-90ae-c675b27444d5"},"vehicle_type_id":"4","last_reported":1758308860,"current_range_meters":8400,"station_id":"","pricing_plan_id":"cebpf4jnsgd1na2vs0mg"},{"bike_id":"9513bebe-cdda-4cae-b0df-dbc94ebdbc92","system_id":"levelo_inurba_marseille","lat":43.27942,"lon":5.41051,"is_reserved":false,"is_disabled":false,"rental_uris":{"android":"levelo://app?vid=9513bebe-cdda-4cae-b0df-dbc94ebdbc92","ios":"levelo://app?vid=9513bebe-cdda-4cae-b0df-dbc94ebdbc92"},"vehicle_type_id":"4","last_reported":1758308860,"current_range_meters":8400,"station_id":"ce4bhnp2rcd13ifvqh0g","pricing_plan_id":"cebpf4jnsgd1na2vs0mg"},{"bike_id":"d70de581-78e4-4fbb-b1b4-80ee08ab1684","system_id":"levelo_inurba_marseille","lat":43.29567,"lon":5.37521,"is_reserved":false,"is_disabled":false,"rental_uris":{"android":"levelo://app?vid=d70de581-78e4-4fbb-b1b4-80ee08ab1684","ios":"levelo://app?vid=d70de581-78e4-4fbb-b1b4-80ee08ab1684"},"vehicle_type_id":"4","last_reported":1758308860,"current_range_meters":8400,"station_id":"ce4bgh92rcd13ifvqb50","pricing_plan_id":"cebpf4jnsgd1na2vs0mg"},{"bike_id":"0e3e971c-81da-4a58-8060-e0370f3c8dd6","system_id":"levelo_inurba_marseille","lat":43.29524,"lon":5.39045,"is_reserved":false,"is_disabled":false,"rental_uris":{"android":"levelo://app?vid=0e3e971c-81da-4a58-8060-e0370f3c8dd6","ios":"levelo://app?vid=0e3e971c-81da-4a58-8060-e0370f3c8dd6"},"vehicle_type_id":"4","last_reported":1758308860,"current_range_meters":8400,"station_id":"ce4bh3p2rcd13ifvqdp0","pricing_plan_id":"cebpf4jnsgd1na2vs0mg"},{"bike_id":"67496a24-3801-4b78-ae0e-a10898d9205d","system_id":"levelo_inurba_marseille","lat":43.287197,"lon":5.379374,"is_reserved":false,"is_disabled":false,"rental_uris":{"android":"levelo://app?vid=67496a24-3801-4b78-ae0e-a10898d9205d","ios":"levelo://app?vid=67496a24-3801-4b78-ae0e-a10898d9205d"},"vehicle_type_id":"4","last_reported":1758308860,"current_range_meters":9200,"station_id":"ce4bh9p2rcd13ifvqec0","pricing_plan_id":"cebpf4jnsgd1na2vs0mg"},{"bike_id":"e8080106-dca2-4d80-a206-13361a97aa69","system_id":"levelo_inurba_marseille","lat":43.28996,"lon":5.35615,"is_reserved":false,"is_disabled":false,"rental_uris":{"android":"levelo://app?vid=e8080106-dca2-4d80-a206-13361a97aa69","ios":"levelo://app?vid=e8080106-dca2-4d80-a206-13361a97aa69"},"vehicle_type_id":"4","last_reported":1758308860,"current_range_meters":8800,"station_id":"ce4bhb92rcd13ifvqen0","pricing_plan_id":"cebpf4jnsgd1na2vs0mg"},{"bike_id":"cba133ce-e515-497c-868a-40448b7e67c2","system_id":"levelo_inurba_marseille","lat":43.31334,"lon":5.3969,"is_reserved":false,"is_disabled":false,"rental_uris":{"android":"levelo://app?vid=cba133ce-e515-497c-868a-40448b7e67c2","ios":"levelo://app?vid=cba133ce-e515-497c-868a-40448b7e67c2"},"vehicle_type_id":"4","last_reported":1758308860,"current_range_meters":8800,"station_id":"ce4bgvp2rcd13ifvqcu0","pricing_plan_id":"cebpf4jnsgd1na2vs0mg"},{"bike_id":"d200f861-b77d-4382-8830-1b5ffcb1138c","system_id":"levelo_inurba_marseille","lat":43.28684,"lon":5.38658,"is_reserved":false,"is_disabled":false,"rental_uris":{"android":"levelo://app?vid=d200f861-b77d-4382-8830-1b5ffcb1138c","ios":"levelo://app?vid=d200f861-b77d-4382-8830-1b5ffcb1138c"},"vehicle_type_id":"4","last_reported":1758308860,"current_range_meters":8800,"station_id":"ce4bh492rcd13ifvqdug","pricing_plan_id":"cebpf4jnsgd1na2vs0mg"},{"bike_id":"bc194db5-6de0-4620-9d79-65e881b4d4c0","system_id":"levelo_inurba_marseille","lat":43.30173,"lon":5.3663,"is_reserved":false,"is_disabled":false,"rental_uris":{"android":"levelo://app?vid=bc194db5-6de0-4620-9d79-65e881b4d4c0","ios":"levelo://app?vid=bc194db5-6de0-4620-9d79-65e881b4d4c0"},"vehicle_type_id":"4","last_reported":1758308860,"current_range_meters":8800,"station_id":"ce4bgrh2rcd13ifvqc8g","pricing_plan_id":"cebpf4jnsgd1na2vs0mg"},{"bike_id":"31838f7e-d500-4c33-b341-e4cd0189676d","system_id":"levelo_inurba_marseille","lat":43.31369,"lon":5.38503,"is_reserved":false,"is_disabled":false,"rental_uris":{"android":"levelo://app?vid=31838f7e-d500-4c33-b341-e4cd0189676d","ios":"levelo://app?vid=31838f7e-d500-4c33-b341-e4cd0189676d"},"vehicle_type_id":"4","last_reported":1758308860,"current_range_meters":8800,"station_id":"ce4bgt92rcd13ifvqcf0","pricing_plan_id":"cebpf4jnsgd1na2vs0mg"},{"bike_id":"e6f8489d-fe42-4015-a82c-b604c2c8b33e","system_id":"levelo_inurba_marseille","lat":43.29795,"lon":5.36682,"is_reserved":false,"is_disabled":false,"rental_uris":{"android":"levelo://app?vid=e6f8489d-fe42-4015-a82c-b604c2c8b33e","ios":"levelo://app?vid=e6f8489d-fe42-4015-a82c-b604c2c8b33e"},"vehicle_type_id":"4","last_reported":1758308860,"current_range_meters":8800,"station_id":"","pricing_plan_id":"cebpf4jnsgd1na2vs0mg"},{"bike_id":"cad97885-b582-49b2-8b83-0a6c3d079fc6","system_id":"levelo_inurba_marseille","lat":43.297018,"lon":5.365873,"is_reserved":false,"is_disabled":false,"rental_uris":{"android":"levelo://app?vid=cad97885-b582-49b2-8b83-0a6c3d079fc6","ios":"levelo://app?vid=cad97885-b582-49b2-8b83-0a6c3d079fc6"},"vehicle_type_id":"4","last_reported":1758308860,"current_range_meters":9200,"station_id":"ce4bgn12rcd13ifvqbt0","pricing_plan_id":"cebpf4jnsgd1na2vs0mg"},{"bike_id":"a4faa1fd-62ee-404a-aff8-b79ea6b6b5d2","system_id":"levelo_inurba_marseille","lat":43.32986,"lon":5.39245,"is_reserved":false,"is_disabled":false,"rental_uris":{"android":"levelo://app?vid=a4faa1fd-62ee-404a-aff8-b79ea6b6b5d2","ios":"levelo://app?vid=a4faa1fd-62ee-404a-aff8-b79ea6b6b5d2"},"vehicle_type_id":"4","last_reported":1758308860,"current_range_meters":9200,"station_id":"","pricing_plan_id":"cebpf4jnsgd1na2vs0mg"},{"bike_id":"e942f984-8fe7-48d1-8f04-3806656b9996","system_id":"levelo_inurba_marseille","lat":43.33618,"lon":5.37944,"is_reserved":false,"is_disabled":false,"rental_uris":{"android":"levelo://app?vid=e942f984-8fe7-48d1-8f04-3806656b9996","ios":"levelo://app?vid=e942f984-8fe7-48d1-8f04-3806656b9996"},"vehicle_type_id":"4","last_reported":1758308860,"current_range_meters":9200,"station_id":"","pricing_plan_id":"cebpf4jnsgd1na2vs0mg"},{"bike_id":"7812b0dc-6e6a-48c9-b972-cd7e1a102072","system_id":"levelo_inurba_marseille","lat":43.29554,"lon":5.42294,"is_reserved":false,"is_disabled":false,"rental_uris":{"android":"levelo://app?vid=7812b0dc-6e6a-48c9-b972-cd7e1a102072","ios":"levelo://app?vid=7812b0dc-6e6a-48c9-b972-cd7e1a102072"},"vehicle_type_id":"4","last_reported":1758308860,"current_range_meters":9200,"station_id":"ce4bhph2rcd13ifvqhdg","pricing_plan_id":"cebpf4jnsgd1na2vs0mg"},{"bike_id":"b3c1e2b0-0296-4666-a6cf-6fb59ad11c2f","system_id":"levelo_inurba_marseille","lat":43.29838,"lon":5.36266,"is_reserved":false,"is_disabled":false,"rental_uris":{"android":"levelo://app?vid=b3c1e2b0-0296-4666-a6cf-6fb59ad11c2f","ios":"levelo://app?vid=b3c1e2b0-0296-4666-a6cf-6fb59ad11c2f"},"vehicle_type_id":"4","last_reported":1758308860,"current_range_meters":9200,"station_id":"ce4bgpp2rcd13ifvqc3g","pricing_plan_id":"cebpf4jnsgd1na2vs0mg"},{"bike_id":"a9b86d0a-cae1-482e-98a0-649cb9ac2639","system_id":"levelo_inurba_marseille","lat":43.31119,"lon":5.37768,"is_reserved":false,"is_disabled":false,"rental_uris":{"android":"levelo://app?vid=a9b86d0a-cae1-482e-98a0-649cb9ac2639","ios":"levelo://app?vid=a9b86d0a-cae1-482e-98a0-649cb9ac2639"},"vehicle_type_id":"4","last_reported":1758308860,"current_range_meters":9200,"station_id":"ce4bgt92rcd13ifvqcg0","pricing_plan_id":"cebpf4jnsgd1na2vs0mg"},{"bike_id":"4806da5a-67b2-4245-853a-7c8de74bc531","system_id":"levelo_inurba_marseille","lat":43.2707,"lon":5.42277,"is_reserved":false,"is_disabled":false,"rental_uris":{"android":"levelo://app?vid=4806da5a-67b2-4245-853a-7c8de74bc531","ios":"levelo://app?vid=4806da5a-67b2-4245-853a-7c8de74bc531"},"vehicle_type_id":"4","last_reported":1758308860,"current_range_meters":8800,"station_id":"ce4bhk92rcd13ifvqgb0","pricing_plan_id":"cebpf4jnsgd1na2vs0mg"},{"bike_id":"afa46f0e-61af-4a01-99ea-015181013280","system_id":"levelo_inurba_marseille","lat":43.310707,"lon":5.383506,"is_reserved":false,"is_disabled":false,"rental_uris":{"android":"levelo://app?vid=afa46f0e-61af-4a01-99ea-015181013280","ios":"levelo://app?vid=afa46f0e-61af-4a01-99ea-015181013280"},"vehicle_type_id":"4","last_reported":1758308860,"current_range_meters":9600,"station_id":"ce4bgv92rcd13ifvqcr0","pricing_plan_id":"cebpf4jnsgd1na2vs0mg"},{"bike_id":"09072e22-69e4-4626-b463-ded44cfd8e7d","system_id":"levelo_inurba_marseille","lat":43.298127,"lon":5.417095,"is_reserved":false,"is_disabled":false,"rental_uris":{"android":"levelo://app?vid=09072e22-69e4-4626-b463-ded44cfd8e7d","ios":"levelo://app?vid=09072e22-69e4-4626-b463-ded44cfd8e7d"},"vehicle_type_id":"4","last_reported":1758308860,"current_range_meters":9600,"station_id":"","pricing_plan_id":"cebpf4jnsgd1na2vs0mg"},{"bike_id":"fb8e8bf8-9dc0-406a-a6a9-a3dd19b44918","system_id":"levelo_inurba_marseille","lat":43.29358,"lon":5.37848,"is_reserved":false,"is_disabled":false,"rental_uris":{"android":"levelo://app?vid=fb8e8bf8-9dc0-406a-a6a9-a3dd19b44918","ios":"levelo://app?vid=fb8e8bf8-9dc0-406a-a6a9-a3dd19b44918"},"vehicle_type_id":"4","last_reported":1758308860,"current_range_meters":9600,"station_id":"ce4bgjh2rcd13ifvqbf0","pricing_plan_id":"cebpf4jnsgd1na2vs0mg"},{"bike_id":"d136eef5-f0c0-46f7-b03f-0361a1fef708","system_id":"levelo_inurba_marseille","lat":43.31992,"lon":5.3815,"is_reserved":false,"is_disabled":false,"rental_uris":{"android":"levelo://app?vid=d136eef5-f0c0-46f7-b03f-0361a1fef708","ios":"levelo://app?vid=d136eef5-f0c0-46f7-b03f-0361a1fef708"},"vehicle_type_id":"4","last_reported":1758308860,"current_range_meters":9600,"station_id":"ce4bhr12rcd13ifvqhpg","pricing_plan_id":"cebpf4jnsgd1na2vs0mg"},{"bike_id":"aafbcd19-4237-40dc-9a3b-562c06790bb3","system_id":"levelo_inurba_marseille","lat":43.26235,"lon":5.374705,"is_reserved":false,"is_disabled":false,"rental_uris":{"android":"levelo://app?vid=aafbcd19-4237-40dc-9a3b-562c06790bb3","ios":"levelo://app?vid=aafbcd19-4237-40dc-9a3b-562c06790bb3"},"vehicle_type_id":"4","last_reported":1758308860,"current_range_meters":9600,"station_id":"ce4bhgp2rcd13ifvqfc0","pricing_plan_id":"cebpf4jnsgd1na2vs0mg"},{"bike_id":"c03db5d6-931c-41e0-bfa5-6550a106fb99","system_id":"levelo_inurba_marseille","lat":43.233,"lon":5.36011,"is_reserved":false,"is_disabled":false,"rental_uris":{"android":"levelo://app?vid=c03db5d6-931c-41e0-bfa5-6550a106fb99","ios":"levelo://app?vid=c03db5d6-931c-41e0-bfa5-6550a106fb99"},"vehicle_type_id":"4","last_reported":1758308860,"current_range_meters":9600,"station_id":"","pricing_plan_id":"cebpf4jnsgd1na2vs0mg"},{"bike_id":"40c2ecc5-9f78-492a-aaa4-dee93f068c4a","system_id":"levelo_inurba_marseille","lat":43.29619,"lon":5.37152,"is_reserved":false,"is_disabled":false,"rental_uris":{"android":"levelo://app?vid=40c2ecc5-9f78-492a-aaa4-dee93f068c4a","ios":"levelo://app?vid=40c2ecc5-9f78-492a-aaa4-dee93f068c4a"},"vehicle_type_id":"4","last_reported":1758308860,"current_range_meters":9600,"station_id":"ce4bgnh2rcd13ifvqc0g","pricing_plan_id":"cebpf4jnsgd1na2vs0mg"},{"bike_id":"22f0687d-25d3-4094-9c4a-293a61e189a6","system_id":"levelo_inurba_marseille","lat":43.2463,"lon":5.39626,"is_reserved":false,"is_disabled":false,"rental_uris":{"android":"levelo://app?vid=22f0687d-25d3-4094-9c4a-293a61e189a6","ios":"levelo://app?vid=22f0687d-25d3-4094-9c4a-293a61e189a6"},"vehicle_type_id":"4","last_reported":1758308860,"current_range_meters":9600,"station_id":"","pricing_plan_id":"cebpf4jnsgd1na2vs0mg"},{"bike_id":"7af710ff-1523-45f5-885e-095601e231c6","system_id":"levelo_inurba_marseille","lat":43.2849,"lon":5.38418,"is_reserved":false,"is_disabled":false,"rental_uris":{"android":"levelo://app?vid=7af710ff-1523-45f5-885e-095601e231c6","ios":"levelo://app?vid=7af710ff-1523-45f5-885e-095601e231c6"},"vehicle_type_id":"4","last_reported":1758308860,"current_range_meters":10000,"station_id":"ce4bh512rcd13ifvqe3g","pricing_plan_id":"cebpf4jnsgd1na2vs0mg"},{"bike_id":"49b4454a-a78e-42a3-a24b-fe5a333025c6","system_id":"levelo_inurba_marseille","lat":43.31998,"lon":5.38161,"is_reserved":false,"is_disabled":false,"rental_uris":{"android":"levelo://app?vid=49b4454a-a78e-42a3-a24b-fe5a333025c6","ios":"levelo://app?vid=49b4454a-a78e-42a3-a24b-fe5a333025c6"},"vehicle_type_id":"4","last_reported":1758308860,"current_range_meters":10000,"station_id":"ce4bhr12rcd13ifvqhpg","pricing_plan_id":"cebpf4jnsgd1na2vs0mg"},{"bike_id":"88bc929a-5df2-478e-9201-dd32ed031c59","system_id":"levelo_inurba_marseille","lat":43.290322,"lon":5.375611,"is_reserved":false,"is_disabled":false,"rental_uris":{"android":"levelo://app?vid=88bc929a-5df2-478e-9201-dd32ed031c59","ios":"levelo://app?vid=88bc929a-5df2-478e-9201-dd32ed031c59"},"vehicle_type_id":"4","last_reported":1758308860,"current_range_meters":10000,"station_id":"ce4bh692rcd13ifvqe90","pricing_plan_id":"cebpf4jnsgd1na2vs0mg"},{"bike_id":"d52651bd-4efd-4359-893d-c9ee6b5f63db","system_id":"levelo_inurba_marseille","lat":43.28458,"lon":5.35896,"is_reserved":false,"is_disabled":false,"rental_uris":{"android":"levelo://app?vid=d52651bd-4efd-4359-893d-c9ee6b5f63db","ios":"levelo://app?vid=d52651bd-4efd-4359-893d-c9ee6b5f63db"},"vehicle_type_id":"4","last_reported":1758308860,"current_range_meters":10000,"station_id":"ce4bhah2rcd13ifvqei0","pricing_plan_id":"cebpf4jnsgd1na2vs0mg"},{"bike_id":"c3897c00-e950-4044-8f08-e0b1f3ccd977","system_id":"levelo_inurba_marseille","lat":43.22946,"lon":5.35379,"is_reserved":false,"is_disabled":true,"rental_uris":{"android":"levelo://app?vid=c3897c00-e950-4044-8f08-e0b1f3ccd977","ios":"levelo://app?vid=c3897c00-e950-4044-8f08-e0b1f3ccd977"},"vehicle_type_id":"4","last_reported":1758308860,"current_range_meters":10000,"station_id":"cpo3532slgdg3j2ikp40","pricing_plan_id":"cebpf4jnsgd1na2vs0mg"},{"bike_id":"61d6bd44-8373-44dd-a68f-835ab26f25d7","system_id":"levelo_inurba_marseille","lat":43.29252,"lon":5.38449,"is_reserved":false,"is_disabled":false,"rental_uris":{"android":"levelo://app?vid=61d6bd44-8373-44dd-a68f-835ab26f25d7","ios":"levelo://app?vid=61d6bd44-8373-44dd-a68f-835ab26f25d7"},"vehicle_type_id":"4","last_reported":1758308860,"current_range_meters":10000,"station_id":"ce4bh692rcd13ifvqea0","pricing_plan_id":"cebpf4jnsgd1na2vs0mg"},{"bike_id":"3e682cf4-5ea7-4563-9004-71435c031ec4","system_id":"levelo_inurba_marseille","lat":43.21201,"lon":5.35065,"is_reserved":false,"is_disabled":true,"rental_uris":{"android":"levelo://app?vid=3e682cf4-5ea7-4563-9004-71435c031ec4","ios":"levelo://app?vid=3e682cf4-5ea7-4563-9004-71435c031ec4"},"vehicle_type_id":"4","last_reported":1758308860,"current_range_meters":10800,"station_id":"st_cvj6sg6p6f1abm77japg","pricing_plan_id":"cebpf4jnsgd1na2vs0mg"},{"bike_id":"fb78ea42-e26f-45b3-a617-d3474b811b72","system_id":"levelo_inurba_marseille","lat":43.29881,"lon":5.379272,"is_reserved":false,"is_disabled":false,"rental_uris":{"android":"levelo://app?vid=fb78ea42-e26f-45b3-a617-d3474b811b72","ios":"levelo://app?vid=fb78ea42-e26f-45b3-a617-d3474b811b72"},"vehicle_type_id":"4","last_reported":1758308860,"current_range_meters":11200,"station_id":"","pricing_plan_id":"cebpf4jnsgd1na2vs0mg"},{"bike_id":"2aa1e690-fb47-41f4-87b4-95b056172a1a","system_id":"levelo_inurba_marseille","lat":43.22928,"lon":5.35378,"is_reserved":false,"is_disabled":false,"rental_uris":{"android":"levelo://app?vid=2aa1e690-fb47-41f4-87b4-95b056172a1a","ios":"levelo://app?vid=2aa1e690-fb47-41f4-87b4-95b056172a1a"},"vehicle_type_id":"4","last_reported":1758308860,"current_range_meters":10800,"station_id":"cpo3532slgdg3j2ikp40","pricing_plan_id":"cebpf4jnsgd1na2vs0mg"},{"bike_id":"95a62c10-7ca9-4348-809a-c3089ad076d3","system_id":"levelo_inurba_marseille","lat":43.29883,"lon":5.39735,"is_reserved":false,"is_disabled":true,"rental_uris":{"android":"levelo://app?vid=95a62c10-7ca9-4348-809a-c3089ad076d3","ios":"levelo://app?vid=95a62c10-7ca9-4348-809a-c3089ad076d3"},"vehicle_type_id":"4","last_reported":1758308860,"current_range_meters":10800,"station_id":"ce4bh0h2rcd13ifvqd50","pricing_plan_id":"cebpf4jnsgd1na2vs0mg"},{"bike_id":"aee25409-5642-498a-8500-8ce3da5fe9af","system_id":"levelo_inurba_marseille","lat":43.2953,"lon":5.38538,"is_reserved":false,"is_disabled":false,"rental_uris":{"android":"levelo://app?vid=aee25409-5642-498a-8500-8ce3da5fe9af","ios":"levelo://app?vid=aee25409-5642-498a-8500-8ce3da5fe9af"},"vehicle_type_id":"4","last_reported":1758308860,"current_range_meters":10800,"station_id":"ce4bgih2rcd13ifvqba0","pricing_plan_id":"cebpf4jnsgd1na2vs0mg"},{"bike_id":"4f6ce967-8bba-4be7-a248-375f05e4b50b","system_id":"levelo_inurba_marseille","lat":43.31374,"lon":5.3849,"is_reserved":false,"is_disabled":false,"rental_uris":{"android":"levelo://app?vid=4f6ce967-8bba-4be7-a248-375f05e4b50b","ios":"levelo://app?vid=4f6ce967-8bba-4be7-a248-375f05e4b50b"},"vehicle_type_id":"4","last_reported":1758308860,"current_range_meters":10800,"station_id":"ce4bgt92rcd13ifvqcf0","pricing_plan_id":"cebpf4jnsgd1na2vs0mg"},{"bike_id":"375f1086-376e-46a4-ac8a-31c6cfb4cc1b","system_id":"levelo_inurba_marseille","lat":43.279968,"lon":5.416678,"is_reserved":false,"is_disabled":false,"rental_uris":{"android":"levelo://app?vid=375f1086-376e-46a4-ac8a-31c6cfb4cc1b","ios":"levelo://app?vid=375f1086-376e-46a4-ac8a-31c6cfb4cc1b"},"vehicle_type_id":"4","last_reported":1758308860,"current_range_meters":10800,"station_id":"ce4bho12rcd13ifvqh1g","pricing_plan_id":"cebpf4jnsgd1na2vs0mg"},{"bike_id":"dabbff3a-fb40-47eb-91c9-d557ed438bd5","system_id":"levelo_inurba_marseille","lat":43.2985,"lon":5.36287,"is_reserved":false,"is_disabled":false,"rental_uris":{"android":"levelo://app?vid=dabbff3a-fb40-47eb-91c9-d557ed438bd5","ios":"levelo://app?vid=dabbff3a-fb40-47eb-91c9-d557ed438bd5"},"vehicle_type_id":"4","last_reported":1758308860,"current_range_meters":10800,"station_id":"ce4bgpp2rcd13ifvqc3g","pricing_plan_id":"cebpf4jnsgd1na2vs0mg"},{"bike_id":"e400d50f-b4c3-46f8-8672-9e05d660d0e9","system_id":"levelo_inurba_marseille","lat":43.28362,"lon":5.38634,"is_reserved":false,"is_disabled":false,"rental_uris":{"android":"levelo://app?vid=e400d50f-b4c3-46f8-8672-9e05d660d0e9","ios":"levelo://app?vid=e400d50f-b4c3-46f8-8672-9e05d660d0e9"},"vehicle_type_id":"4","last_reported":1758308860,"current_range_meters":10000,"station_id":"ce4bh492rcd13ifvqdvg","pricing_plan_id":"cebpf4jnsgd1na2vs0mg"},{"bike_id":"9a5c2b70-7129-48fa-be5e-9e3c661ec764","system_id":"levelo_inurba_marseille","lat":43.29252,"lon":5.38429,"is_reserved":false,"is_disabled":false,"rental_uris":{"android":"levelo://app?vid=9a5c2b70-7129-48fa-be5e-9e3c661ec764","ios":"levelo://app?vid=9a5c2b70-7129-48fa-be5e-9e3c661ec764"},"vehicle_type_id":"4","last_reported":1758308860,"current_range_meters":10800,"station_id":"ce4bh692rcd13ifvqea0","pricing_plan_id":"cebpf4jnsgd1na2vs0mg"},{"bike_id":"fcef1dd1-5ee9-4c8d-976a-f79236403212","system_id":"levelo_inurba_marseille","lat":43.31376,"lon":5.38501,"is_reserved":false,"is_disabled":false,"rental_uris":{"android":"levelo://app?vid=fcef1dd1-5ee9-4c8d-976a-f79236403212","ios":"levelo://app?vid=fcef1dd1-5ee9-4c8d-976a-f79236403212"},"vehicle_type_id":"4","last_reported":1758308860,"current_range_meters":10800,"station_id":"ce4bgt92rcd13ifvqcf0","pricing_plan_id":"cebpf4jnsgd1na2vs0mg"},{"bike_id":"4dcfa230-ff49-4055-bf67-d4723b707802","system_id":"levelo_inurba_marseille","lat":43.29858,"lon":5.36289,"is_reserved":false,"is_disabled":false,"rental_uris":{"android":"levelo://app?vid=4dcfa230-ff49-4055-bf67-d4723b707802","ios":"levelo://app?vid=4dcfa230-ff49-4055-bf67-d4723b707802"},"vehicle_type_id":"4","last_reported":1758308860,"current_range_meters":10800,"station_id":"ce4bgpp2rcd13ifvqc3g","pricing_plan_id":"cebpf4jnsgd1na2vs0mg"},{"bike_id":"f9418cc9-c64d-43d9-9060-3aeedd69cdee","system_id":"levelo_inurba_marseille","lat":43.33079,"lon":5.37839,"is_reserved":false,"is_disabled":false,"rental_uris":{"android":"levelo://app?vid=f9418cc9-c64d-43d9-9060-3aeedd69cdee","ios":"levelo://app?vid=f9418cc9-c64d-43d9-9060-3aeedd69cdee"},"vehicle_type_id":"4","last_reported":1758308860,"current_range_meters":10800,"station_id":"","pricing_plan_id":"cebpf4jnsgd1na2vs0mg"},{"bike_id":"e9befce7-e659-48db-9305-9ad48dc8940e","system_id":"levelo_inurba_marseille","lat":43.29691,"lon":5.37291,"is_reserved":false,"is_disabled":false,"rental_uris":{"android":"levelo://app?vid=e9befce7-e659-48db-9305-9ad48dc8940e","ios":"levelo://app?vid=e9befce7-e659-48db-9305-9ad48dc8940e"},"vehicle_type_id":"4","last_reported":1758308860,"current_range_meters":10800,"station_id":"ce4bgk12rcd13ifvqbj0","pricing_plan_id":"cebpf4jnsgd1na2vs0mg"},{"bike_id":"4a571329-2cb9-4122-8a51-9d09579b5532","system_id":"levelo_inurba_marseille","lat":43.32685,"lon":5.39172,"is_reserved":false,"is_disabled":false,"rental_uris":{"android":"levelo://app?vid=4a571329-2cb9-4122-8a51-9d09579b5532","ios":"levelo://app?vid=4a571329-2cb9-4122-8a51-9d09579b5532"},"vehicle_type_id":"4","last_reported":1758308860,"current_range_meters":10800,"station_id":"","pricing_plan_id":"cebpf4jnsgd1na2vs0mg"},{"bike_id":"cc48539f-3363-44f7-9041-3eea5291a9db","system_id":"levelo_inurba_marseille","lat":43.21214,"lon":5.3507,"is_reserved":false,"is_disabled":true,"rental_uris":{"android":"levelo://app?vid=cc48539f-3363-44f7-9041-3eea5291a9db","ios":"levelo://app?vid=cc48539f-3363-44f7-9041-3eea5291a9db"},"vehicle_type_id":"4","last_reported":1758308860,"current_range_meters":10800,"station_id":"st_cvj6sg6p6f1abm77japg","pricing_plan_id":"cebpf4jnsgd1na2vs0mg"},{"bike_id":"c2f908a3-814c-48e7-83b8-1c7082fa4bac","system_id":"levelo_inurba_marseille","lat":43.30802,"lon":5.38146,"is_reserved":false,"is_disabled":false,"rental_uris":{"android":"levelo://app?vid=c2f908a3-814c-48e7-83b8-1c7082fa4bac","ios":"levelo://app?vid=c2f908a3-814c-48e7-83b8-1c7082fa4bac"},"vehicle_type_id":"4","last_reported":1758308860,"current_range_meters":11200,"station_id":"ce4bgt12rcd13ifvqce0","pricing_plan_id":"cebpf4jnsgd1na2vs0mg"},{"bike_id":"3493bf29-936f-4337-a436-4b46d7629d20","system_id":"levelo_inurba_marseille","lat":43.28488,"lon":5.38417,"is_reserved":false,"is_disabled":false,"rental_uris":{"android":"levelo://app?vid=3493bf29-936f-4337-a436-4b46d7629d20","ios":"levelo://app?vid=3493bf29-936f-4337-a436-4b46d7629d20"},"vehicle_type_id":"4","last_reported":1758308860,"current_range_meters":11200,"station_id":"ce4bh512rcd13ifvqe3g","pricing_plan_id":"cebpf4jnsgd1na2vs0mg"},{"bike_id":"129693f1-bec1-405c-a566-241911c46a01","system_id":"levelo_inurba_marseille","lat":43.27993,"lon":5.36506,"is_reserved":false,"is_disabled":false,"rental_uris":{"android":"levelo://app?vid=129693f1-bec1-405c-a566-241911c46a01","ios":"levelo://app?vid=129693f1-bec1-405c-a566-241911c46a01"},"vehicle_type_id":"4","last_reported":1758308860,"current_range_meters":11200,"station_id":"","pricing_plan_id":"cebpf4jnsgd1na2vs0mg"},{"bike_id":"59a821f9-f57d-4634-af3c-a289ca1dd736","system_id":"levelo_inurba_marseille","lat":43.298836,"lon":5.389086,"is_reserved":false,"is_disabled":false,"rental_uris":{"android":"levelo://app?vid=59a821f9-f57d-4634-af3c-a289ca1dd736","ios":"levelo://app?vid=59a821f9-f57d-4634-af3c-a289ca1dd736"},"vehicle_type_id":"4","last_reported":1758308860,"current_range_meters":11200,"station_id":"ce4bh392rcd13ifvqdl0","pricing_plan_id":"cebpf4jnsgd1na2vs0mg"},{"bike_id":"c7bb65c4-6bea-4a96-bf5e-da17577d7c13","system_id":"levelo_inurba_marseille","lat":43.29574,"lon":5.39976,"is_reserved":false,"is_disabled":false,"rental_uris":{"android":"levelo://app?vid=c7bb65c4-6bea-4a96-bf5e-da17577d7c13","ios":"levelo://app?vid=c7bb65c4-6bea-4a96-bf5e-da17577d7c13"},"vehicle_type_id":"4","last_reported":1758308860,"current_range_meters":11200,"station_id":"ce4bh312rcd13ifvqdj0","pricing_plan_id":"cebpf4jnsgd1na2vs0mg"},{"bike_id":"c627b34a-8e81-4438-af3b-4fd0aab1c160","system_id":"levelo_inurba_marseille","lat":43.29615,"lon":5.3604,"is_reserved":false,"is_disabled":false,"rental_uris":{"android":"levelo://app?vid=c627b34a-8e81-4438-af3b-4fd0aab1c160","ios":"levelo://app?vid=c627b34a-8e81-4438-af3b-4fd0aab1c160"},"vehicle_type_id":"4","last_reported":1758308860,"current_range_meters":11200,"station_id":"","pricing_plan_id":"cebpf4jnsgd1na2vs0mg"},{"bike_id":"6f28235e-3f31-4c9c-9456-a4ed29864072","system_id":"levelo_inurba_marseille","lat":43.28928,"lon":5.36644,"is_reserved":false,"is_disabled":false,"rental_uris":{"android":"levelo://app?vid=6f28235e-3f31-4c9c-9456-a4ed29864072","ios":"levelo://app?vid=6f28235e-3f31-4c9c-9456-a4ed29864072"},"vehicle_type_id":"4","last_reported":1758308860,"current_range_meters":11200,"station_id":"ce4bhap2rcd13ifvqek0","pricing_plan_id":"cebpf4jnsgd1na2vs0mg"},{"bike_id":"55b3fe62-7c57-41f7-ada5-d851fd455e1d","system_id":"levelo_inurba_marseille","lat":43.29514,"lon":5.39399,"is_reserved":false,"is_disabled":false,"rental_uris":{"android":"levelo://app?vid=55b3fe62-7c57-41f7-ada5-d851fd455e1d","ios":"levelo://app?vid=55b3fe62-7c57-41f7-ada5-d851fd455e1d"},"vehicle_type_id":"4","last_reported":1758308860,"current_range_meters":11600,"station_id":"ce4bh292rcd13ifvqdf0","pricing_plan_id":"cebpf4jnsgd1na2vs0mg"},{"bike_id":"9b9f6315-958e-4e43-8771-5ee5f050185e","system_id":"levelo_inurba_marseille","lat":43.24804,"lon":5.37477,"is_reserved":false,"is_disabled":true,"rental_uris":{"android":"levelo://app?vid=9b9f6315-958e-4e43-8771-5ee5f050185e","ios":"levelo://app?vid=9b9f6315-958e-4e43-8771-5ee5f050185e"},"vehicle_type_id":"4","last_reported":1758308860,"current_range_meters":11600,"station_id":"ce4bhgh2rcd13ifvqfb0","pricing_plan_id":"cebpf4jnsgd1na2vs0mg"},{"bike_id":"461e0d93-3411-43e6-860f-f1d819ec1de1","system_id":"levelo_inurba_marseille","lat":43.28431,"lon":5.34995,"is_reserved":false,"is_disabled":false,"rental_uris":{"android":"levelo://app?vid=461e0d93-3411-43e6-860f-f1d819ec1de1","ios":"levelo://app?vid=461e0d93-3411-43e6-860f-f1d819ec1de1"},"vehicle_type_id":"4","last_reported":1758308860,"current_range_meters":11600,"station_id":"ce4bhbh2rcd13ifvqepg","pricing_plan_id":"cebpf4jnsgd1na2vs0mg"},{"bike_id":"11826c70-5b0f-48a1-b40a-3c8cabd738eb","system_id":"levelo_inurba_marseille","lat":43.31113,"lon":5.37778,"is_reserved":false,"is_disabled":false,"rental_uris":{"android":"levelo://app?vid=11826c70-5b0f-48a1-b40a-3c8cabd738eb","ios":"levelo://app?vid=11826c70-5b0f-48a1-b40a-3c8cabd738eb"},"vehicle_type_id":"4","last_reported":1758308860,"current_range_meters":11200,"station_id":"ce4bgt92rcd13ifvqcg0","pricing_plan_id":"cebpf4jnsgd1na2vs0mg"},{"bike_id":"bbdb0b2f-bb6d-47cc-908f-75f08add81ea","system_id":"levelo_inurba_marseille","lat":43.2918,"lon":5.37159,"is_reserved":false,"is_disabled":false,"rental_uris":{"android":"levelo://app?vid=bbdb0b2f-bb6d-47cc-908f-75f08add81ea","ios":"levelo://app?vid=bbdb0b2f-bb6d-47cc-908f-75f08add81ea"},"vehicle_type_id":"4","last_reported":1758308860,"current_range_meters":11600,"station_id":"ce4bha92rcd13ifvqeh0","pricing_plan_id":"cebpf4jnsgd1na2vs0mg"},{"bike_id":"4bbb8e4b-8415-4755-924b-7c4f87fc83dd","system_id":"levelo_inurba_marseille","lat":43.21744,"lon":5.34606,"is_reserved":false,"is_disabled":false,"rental_uris":{"android":"levelo://app?vid=4bbb8e4b-8415-4755-924b-7c4f87fc83dd","ios":"levelo://app?vid=4bbb8e4b-8415-4755-924b-7c4f87fc83dd"},"vehicle_type_id":"4","last_reported":1758308860,"current_range_meters":11600,"station_id":"","pricing_plan_id":"cebpf4jnsgd1na2vs0mg"},{"bike_id":"f1361d5f-2a0b-4c89-8461-0f1b9412b9f1","system_id":"levelo_inurba_marseille","lat":43.28714,"lon":5.3795,"is_reserved":false,"is_disabled":false,"rental_uris":{"android":"levelo://app?vid=f1361d5f-2a0b-4c89-8461-0f1b9412b9f1","ios":"levelo://app?vid=f1361d5f-2a0b-4c89-8461-0f1b9412b9f1"},"vehicle_type_id":"4","last_reported":1758308860,"current_range_meters":11600,"station_id":"ce4bh9p2rcd13ifvqec0","pricing_plan_id":"cebpf4jnsgd1na2vs0mg"},{"bike_id":"c7375894-39d4-4577-bb77-7d1d0849fd65","system_id":"levelo_inurba_marseille","lat":43.28713,"lon":5.37939,"is_reserved":false,"is_disabled":false,"rental_uris":{"android":"levelo://app?vid=c7375894-39d4-4577-bb77-7d1d0849fd65","ios":"levelo://app?vid=c7375894-39d4-4577-bb77-7d1d0849fd65"},"vehicle_type_id":"4","last_reported":1758308860,"current_range_meters":11600,"station_id":"ce4bh9p2rcd13ifvqec0","pricing_plan_id":"cebpf4jnsgd1na2vs0mg"},{"bike_id":"985fdd2b-3af7-4121-9c25-e58d2989803f","system_id":"levelo_inurba_marseille","lat":43.253394,"lon":5.421723,"is_reserved":false,"is_disabled":false,"rental_uris":{"android":"levelo://app?vid=985fdd2b-3af7-4121-9c25-e58d2989803f","ios":"levelo://app?vid=985fdd2b-3af7-4121-9c25-e58d2989803f"},"vehicle_type_id":"4","last_reported":1758308860,"current_range_meters":8800,"station_id":"st_d2m65c5bi1j21697t3ng","pricing_plan_id":"cebpf4jnsgd1na2vs0mg"},{"bike_id":"be3b6b32-b701-4b6c-b4ab-80f7ba7590a2","system_id":"levelo_inurba_marseille","lat":43.241793,"lon":5.397007,"is_reserved":false,"is_disabled":false,"rental_uris":{"android":"levelo://app?vid=be3b6b32-b701-4b6c-b4ab-80f7ba7590a2","ios":"levelo://app?vid=be3b6b32-b701-4b6c-b4ab-80f7ba7590a2"},"vehicle_type_id":"4","last_reported":1758308860,"current_range_meters":12000,"station_id":"ce4bhn12rcd13ifvqgpg","pricing_plan_id":"cebpf4jnsgd1na2vs0mg"},{"bike_id":"56f34a6f-d509-4600-bf95-38b0f09f76a9","system_id":"levelo_inurba_marseille","lat":43.29678,"lon":5.37285,"is_reserved":false,"is_disabled":false,"rental_uris":{"android":"levelo://app?vid=56f34a6f-d509-4600-bf95-38b0f09f76a9","ios":"levelo://app?vid=56f34a6f-d509-4600-bf95-38b0f09f76a9"},"vehicle_type_id":"4","last_reported":1758308860,"current_range_meters":12000,"station_id":"ce4bgk12rcd13ifvqbj0","pricing_plan_id":"cebpf4jnsgd1na2vs0mg"},{"bike_id":"6969112e-a655-475d-b120-995cac7f4cc8","system_id":"levelo_inurba_marseille","lat":43.3116,"lon":5.38719,"is_reserved":false,"is_disabled":false,"rental_uris":{"android":"levelo://app?vid=6969112e-a655-475d-b120-995cac7f4cc8","ios":"levelo://app?vid=6969112e-a655-475d-b120-995cac7f4cc8"},"vehicle_type_id":"4","last_reported":1758308860,"current_range_meters":12000,"station_id":"ce4bgv12rcd13ifvqcp0","pricing_plan_id":"cebpf4jnsgd1na2vs0mg"},{"bike_id":"d39a9131-8908-4936-b47a-51dd08fb7815","system_id":"levelo_inurba_marseille","lat":43.29601,"lon":5.38103,"is_reserved":false,"is_disabled":false,"rental_uris":{"android":"levelo://app?vid=d39a9131-8908-4936-b47a-51dd08fb7815","ios":"levelo://app?vid=d39a9131-8908-4936-b47a-51dd08fb7815"},"vehicle_type_id":"4","last_reported":1758308860,"current_range_meters":12000,"station_id":"ce4bgl12rcd13ifvqbo0","pricing_plan_id":"cebpf4jnsgd1na2vs0mg"},{"bike_id":"7acae3dc-4a35-4795-a73c-b6ee3d0aa090","system_id":"levelo_inurba_marseille","lat":43.296,"lon":5.38099,"is_reserved":false,"is_disabled":false,"rental_uris":{"android":"levelo://app?vid=7acae3dc-4a35-4795-a73c-b6ee3d0aa090","ios":"levelo://app?vid=7acae3dc-4a35-4795-a73c-b6ee3d0aa090"},"vehicle_type_id":"4","last_reported":1758308860,"current_range_meters":12000,"station_id":"ce4bgl12rcd13ifvqbo0","pricing_plan_id":"cebpf4jnsgd1na2vs0mg"},{"bike_id":"bf6e6d27-c09e-4725-9fbc-20073fd5a515","system_id":"levelo_inurba_marseille","lat":43.289376,"lon":5.396214,"is_reserved":false,"is_disabled":false,"rental_uris":{"android":"levelo://app?vid=bf6e6d27-c09e-4725-9fbc-20073fd5a515","ios":"levelo://app?vid=bf6e6d27-c09e-4725-9fbc-20073fd5a515"},"vehicle_type_id":"4","last_reported":1758308860,"current_range_meters":12000,"station_id":"","pricing_plan_id":"cebpf4jnsgd1na2vs0mg"},{"bike_id":"89f9cc06-e7bf-4e7f-b5f7-eb008f67ed23","system_id":"levelo_inurba_marseille","lat":43.29254,"lon":5.36868,"is_reserved":false,"is_disabled":false,"rental_uris":{"android":"levelo://app?vid=89f9cc06-e7bf-4e7f-b5f7-eb008f67ed23","ios":"levelo://app?vid=89f9cc06-e7bf-4e7f-b5f7-eb008f67ed23"},"vehicle_type_id":"4","last_reported":1758308860,"current_range_meters":12000,"station_id":"ce4bhbp2rcd13ifvqesg","pricing_plan_id":"cebpf4jnsgd1na2vs0mg"},{"bike_id":"0960e3dd-c358-4474-bd10-8223758e1f6b","system_id":"levelo_inurba_marseille","lat":43.296996,"lon":5.376855,"is_reserved":false,"is_disabled":false,"rental_uris":{"android":"levelo://app?vid=0960e3dd-c358-4474-bd10-8223758e1f6b","ios":"levelo://app?vid=0960e3dd-c358-4474-bd10-8223758e1f6b"},"vehicle_type_id":"4","last_reported":1758308860,"current_range_meters":12000,"station_id":"","pricing_plan_id":"cebpf4jnsgd1na2vs0mg"},{"bike_id":"0dbd6519-cfcc-4660-8d15-b18f90b01658","system_id":"levelo_inurba_marseille","lat":43.29984,"lon":5.38494,"is_reserved":false,"is_disabled":false,"rental_uris":{"android":"levelo://app?vid=0dbd6519-cfcc-4660-8d15-b18f90b01658","ios":"levelo://app?vid=0dbd6519-cfcc-4660-8d15-b18f90b01658"},"vehicle_type_id":"4","last_reported":1758308860,"current_range_meters":12400,"station_id":"ce4bgj92rcd13ifvqbd0","pricing_plan_id":"cebpf4jnsgd1na2vs0mg"},{"bike_id":"52fb78dc-ba9a-40ba-9111-5a63081795af","system_id":"levelo_inurba_marseille","lat":43.289161,"lon":5.384026,"is_reserved":false,"is_disabled":false,"rental_uris":{"android":"levelo://app?vid=52fb78dc-ba9a-40ba-9111-5a63081795af","ios":"levelo://app?vid=52fb78dc-ba9a-40ba-9111-5a63081795af"},"vehicle_type_id":"4","last_reported":1758308860,"current_range_meters":12400,"station_id":"ce4bh612rcd13ifvqe6g","pricing_plan_id":"cebpf4jnsgd1na2vs0mg"},{"bike_id":"41855bc9-a0b6-4b3d-a1dc-6e9024caaec7","system_id":"levelo_inurba_marseille","lat":43.29004,"lon":5.38144,"is_reserved":false,"is_disabled":false,"rental_uris":{"android":"levelo://app?vid=41855bc9-a0b6-4b3d-a1dc-6e9024caaec7","ios":"levelo://app?vid=41855bc9-a0b6-4b3d-a1dc-6e9024caaec7"},"vehicle_type_id":"4","last_reported":1758308860,"current_range_meters":12400,"station_id":"ce4bh4p2rcd13ifvqe1g","pricing_plan_id":"cebpf4jnsgd1na2vs0mg"},{"bike_id":"e0fa618d-316c-40f0-84a4-361066b627a3","system_id":"levelo_inurba_marseille","lat":43.21753,"lon":5.34612,"is_reserved":false,"is_disabled":true,"rental_uris":{"android":"levelo://app?vid=e0fa618d-316c-40f0-84a4-361066b627a3","ios":"levelo://app?vid=e0fa618d-316c-40f0-84a4-361066b627a3"},"vehicle_type_id":"4","last_reported":1758308860,"current_range_meters":12400,"station_id":"st_cvj6r9ubvosntc0bgbag","pricing_plan_id":"cebpf4jnsgd1na2vs0mg"},{"bike_id":"fe9db630-a991-4391-8668-6e44730b87a8","system_id":"levelo_inurba_marseille","lat":43.29296,"lon":5.37183,"is_reserved":false,"is_disabled":false,"rental_uris":{"android":"levelo://app?vid=fe9db630-a991-4391-8668-6e44730b87a8","ios":"levelo://app?vid=fe9db630-a991-4391-8668-6e44730b87a8"},"vehicle_type_id":"4","last_reported":1758308860,"current_range_meters":12400,"station_id":"ce4bgh92rcd13ifvqb40","pricing_plan_id":"cebpf4jnsgd1na2vs0mg"},{"bike_id":"c46381f4-64e7-4624-a985-255986d1fd70","system_id":"levelo_inurba_marseille","lat":43.29074,"lon":5.37166,"is_reserved":false,"is_disabled":false,"rental_uris":{"android":"levelo://app?vid=c46381f4-64e7-4624-a985-255986d1fd70","ios":"levelo://app?vid=c46381f4-64e7-4624-a985-255986d1fd70"},"vehicle_type_id":"4","last_reported":1758308860,"current_range_meters":12400,"station_id":"ce4bh5p2rcd13ifvqe4g","pricing_plan_id":"cebpf4jnsgd1na2vs0mg"},{"bike_id":"4e5c2e97-6c61-4332-9672-f5a53881b0d1","system_id":"levelo_inurba_marseille","lat":43.28454,"lon":5.35886,"is_reserved":false,"is_disabled":false,"rental_uris":{"android":"levelo://app?vid=4e5c2e97-6c61-4332-9672-f5a53881b0d1","ios":"levelo://app?vid=4e5c2e97-6c61-4332-9672-f5a53881b0d1"},"vehicle_type_id":"4","last_reported":1758308860,"current_range_meters":12800,"station_id":"ce4bhah2rcd13ifvqei0","pricing_plan_id":"cebpf4jnsgd1na2vs0mg"},{"bike_id":"893de9b6-20a3-4e22-b4ca-0b093dbfe13b","system_id":"levelo_inurba_marseille","lat":43.28939,"lon":5.36639,"is_reserved":false,"is_disabled":false,"rental_uris":{"android":"levelo://app?vid=893de9b6-20a3-4e22-b4ca-0b093dbfe13b","ios":"levelo://app?vid=893de9b6-20a3-4e22-b4ca-0b093dbfe13b"},"vehicle_type_id":"4","last_reported":1758308860,"current_range_meters":12800,"station_id":"ce4bhap2rcd13ifvqek0","pricing_plan_id":"cebpf4jnsgd1na2vs0mg"},{"bike_id":"eccfbe0d-5d48-4415-8a59-51b74f22e9d3","system_id":"levelo_inurba_marseille","lat":43.32359,"lon":5.3889,"is_reserved":false,"is_disabled":false,"rental_uris":{"android":"levelo://app?vid=eccfbe0d-5d48-4415-8a59-51b74f22e9d3","ios":"levelo://app?vid=eccfbe0d-5d48-4415-8a59-51b74f22e9d3"},"vehicle_type_id":"4","last_reported":1758308860,"current_range_meters":12800,"station_id":"ce4bhqp2rcd13ifvqhog","pricing_plan_id":"cebpf4jnsgd1na2vs0mg"},{"bike_id":"6dc49f8f-31b8-485c-b489-e3fd253e6676","system_id":"levelo_inurba_marseille","lat":43.333009,"lon":5.410255,"is_reserved":false,"is_disabled":true,"rental_uris":{"android":"levelo://app?vid=6dc49f8f-31b8-485c-b489-e3fd253e6676","ios":"levelo://app?vid=6dc49f8f-31b8-485c-b489-e3fd253e6676"},"vehicle_type_id":"4","last_reported":1758308860,"current_range_meters":12800,"station_id":"","pricing_plan_id":"cebpf4jnsgd1na2vs0mg"},{"bike_id":"3f5e9678-cbd7-42e0-a9d9-d6426f396cb1","system_id":"levelo_inurba_marseille","lat":43.2846,"lon":5.35881,"is_reserved":false,"is_disabled":false,"rental_uris":{"android":"levelo://app?vid=3f5e9678-cbd7-42e0-a9d9-d6426f396cb1","ios":"levelo://app?vid=3f5e9678-cbd7-42e0-a9d9-d6426f396cb1"},"vehicle_type_id":"4","last_reported":1758308860,"current_range_meters":12800,"station_id":"ce4bhah2rcd13ifvqei0","pricing_plan_id":"cebpf4jnsgd1na2vs0mg"},{"bike_id":"1a6ff4d0-d063-443a-93a6-b35cab3f70a7","system_id":"levelo_inurba_marseille","lat":43.31173,"lon":5.38713,"is_reserved":false,"is_disabled":false,"rental_uris":{"android":"levelo://app?vid=1a6ff4d0-d063-443a-93a6-b35cab3f70a7","ios":"levelo://app?vid=1a6ff4d0-d063-443a-93a6-b35cab3f70a7"},"vehicle_type_id":"4","last_reported":1758308860,"current_range_meters":12800,"station_id":"ce4bgv12rcd13ifvqcp0","pricing_plan_id":"cebpf4jnsgd1na2vs0mg"},{"bike_id":"68d18bb1-6e22-4e9c-b1b6-23d467015531","system_id":"levelo_inurba_marseille","lat":43.29912,"lon":5.3747,"is_reserved":false,"is_disabled":false,"rental_uris":{"android":"levelo://app?vid=68d18bb1-6e22-4e9c-b1b6-23d467015531","ios":"levelo://app?vid=68d18bb1-6e22-4e9c-b1b6-23d467015531"},"vehicle_type_id":"4","last_reported":1758308860,"current_range_meters":12400,"station_id":"ce4bgjh2rcd13ifvqbg0","pricing_plan_id":"cebpf4jnsgd1na2vs0mg"},{"bike_id":"8d242853-b277-47cb-81da-498a2e164394","system_id":"levelo_inurba_marseille","lat":43.2958,"lon":5.36737,"is_reserved":false,"is_disabled":false,"rental_uris":{"android":"levelo://app?vid=8d242853-b277-47cb-81da-498a2e164394","ios":"levelo://app?vid=8d242853-b277-47cb-81da-498a2e164394"},"vehicle_type_id":"4","last_reported":1758308860,"current_range_meters":13600,"station_id":"ce4bgph2rcd13ifvqc2g","pricing_plan_id":"cebpf4jnsgd1na2vs0mg"},{"bike_id":"931664d9-a1f9-4b23-9426-5b3082bf7d09","system_id":"levelo_inurba_marseille","lat":43.309314,"lon":5.401288,"is_reserved":false,"is_disabled":true,"rental_uris":{"android":"levelo://app?vid=931664d9-a1f9-4b23-9426-5b3082bf7d09","ios":"levelo://app?vid=931664d9-a1f9-4b23-9426-5b3082bf7d09"},"vehicle_type_id":"4","last_reported":1758308860,"current_range_meters":13600,"station_id":"ce4bgvp2rcd13ifvqct0","pricing_plan_id":"cebpf4jnsgd1na2vs0mg"},{"bike_id":"518eef5b-9e3c-4b06-94a9-56e70af9d262","system_id":"levelo_inurba_marseille","lat":43.30802,"lon":5.38146,"is_reserved":false,"is_disabled":true,"rental_uris":{"android":"levelo://app?vid=518eef5b-9e3c-4b06-94a9-56e70af9d262","ios":"levelo://app?vid=518eef5b-9e3c-4b06-94a9-56e70af9d262"},"vehicle_type_id":"4","last_reported":1758308860,"current_range_meters":13600,"station_id":"ce4bgt12rcd13ifvqce0","pricing_plan_id":"cebpf4jnsgd1na2vs0mg"},{"bike_id":"9c0693b2-33f4-40d9-85fa-754a770a9d54","system_id":"levelo_inurba_marseille","lat":43.295188,"lon":5.390328,"is_reserved":false,"is_disabled":false,"rental_uris":{"android":"levelo://app?vid=9c0693b2-33f4-40d9-85fa-754a770a9d54","ios":"levelo://app?vid=9c0693b2-33f4-40d9-85fa-754a770a9d54"},"vehicle_type_id":"4","last_reported":1758308860,"current_range_meters":13600,"station_id":"ce4bh312rcd13ifvqdj0","pricing_plan_id":"cebpf4jnsgd1na2vs0mg"},{"bike_id":"f04cb610-16b9-4534-b7ac-dac3a8d01bc0","system_id":"levelo_inurba_marseille","lat":43.292947,"lon":5.374685,"is_reserved":false,"is_disabled":false,"rental_uris":{"android":"levelo://app?vid=f04cb610-16b9-4534-b7ac-dac3a8d01bc0","ios":"levelo://app?vid=f04cb610-16b9-4534-b7ac-dac3a8d01bc0"},"vehicle_type_id":"4","last_reported":1758308860,"current_range_meters":13600,"station_id":"ce4bgi12rcd13ifvqb70","pricing_plan_id":"cebpf4jnsgd1na2vs0mg"},{"bike_id":"1734ff0a-1606-4b55-bfbf-3f09fa5129a2","system_id":"levelo_inurba_marseille","lat":43.23179,"lon":5.39993,"is_reserved":false,"is_disabled":false,"rental_uris":{"android":"levelo://app?vid=1734ff0a-1606-4b55-bfbf-3f09fa5129a2","ios":"levelo://app?vid=1734ff0a-1606-4b55-bfbf-3f09fa5129a2"},"vehicle_type_id":"4","last_reported":1758308860,"current_range_meters":13600,"station_id":"ce4bhn12rcd13ifvqgqg","pricing_plan_id":"cebpf4jnsgd1na2vs0mg"},{"bike_id":"4eb9f3df-b867-4c03-b05f-ab25b661c5e9","system_id":"levelo_inurba_marseille","lat":43.29963,"lon":5.38501,"is_reserved":false,"is_disabled":false,"rental_uris":{"android":"levelo://app?vid=4eb9f3df-b867-4c03-b05f-ab25b661c5e9","ios":"levelo://app?vid=4eb9f3df-b867-4c03-b05f-ab25b661c5e9"},"vehicle_type_id":"4","last_reported":1758308860,"current_range_meters":14000,"station_id":"ce4bgj92rcd13ifvqbd0","pricing_plan_id":"cebpf4jnsgd1na2vs0mg"},{"bike_id":"1835b825-2b28-461d-b8f7-a2b3804e765d","system_id":"levelo_inurba_marseille","lat":43.29257,"lon":5.38436,"is_reserved":false,"is_disabled":false,"rental_uris":{"android":"levelo://app?vid=1835b825-2b28-461d-b8f7-a2b3804e765d","ios":"levelo://app?vid=1835b825-2b28-461d-b8f7-a2b3804e765d"},"vehicle_type_id":"4","last_reported":1758308860,"current_range_meters":14000,"station_id":"ce4bh692rcd13ifvqea0","pricing_plan_id":"cebpf4jnsgd1na2vs0mg"},{"bike_id":"f85a8c4d-f9d0-4136-9b57-8bfb28db950c","system_id":"levelo_inurba_marseille","lat":43.31895,"lon":5.37429,"is_reserved":false,"is_disabled":false,"rental_uris":{"android":"levelo://app?vid=f85a8c4d-f9d0-4136-9b57-8bfb28db950c","ios":"levelo://app?vid=f85a8c4d-f9d0-4136-9b57-8bfb28db950c"},"vehicle_type_id":"4","last_reported":1758308860,"current_range_meters":14400,"station_id":"","pricing_plan_id":"cebpf4jnsgd1na2vs0mg"},{"bike_id":"df55349e-cff7-49b1-91d6-50e12e180928","system_id":"levelo_inurba_marseille","lat":43.28035,"lon":5.36943,"is_reserved":false,"is_disabled":false,"rental_uris":{"android":"levelo://app?vid=df55349e-cff7-49b1-91d6-50e12e180928","ios":"levelo://app?vid=df55349e-cff7-49b1-91d6-50e12e180928"},"vehicle_type_id":"4","last_reported":1758308860,"current_range_meters":14400,"station_id":"ce4bha12rcd13ifvqef0","pricing_plan_id":"cebpf4jnsgd1na2vs0mg"},{"bike_id":"c447c4e0-c5d7-4c0a-88c0-47ed1ffc3a10","system_id":"levelo_inurba_marseille","lat":43.26929,"lon":5.38917,"is_reserved":false,"is_disabled":false,"rental_uris":{"android":"levelo://app?vid=c447c4e0-c5d7-4c0a-88c0-47ed1ffc3a10","ios":"levelo://app?vid=c447c4e0-c5d7-4c0a-88c0-47ed1ffc3a10"},"vehicle_type_id":"4","last_reported":1758308860,"current_range_meters":14400,"station_id":"ce4bhhh2rcd13ifvqfl0","pricing_plan_id":"cebpf4jnsgd1na2vs0mg"},{"bike_id":"438ead59-de14-4fa0-a61d-03a70a4122ae","system_id":"levelo_inurba_marseille","lat":43.97275,"lon":4.89129,"is_reserved":false,"is_disabled":true,"rental_uris":{"android":"levelo://app?vid=438ead59-de14-4fa0-a61d-03a70a4122ae","ios":"levelo://app?vid=438ead59-de14-4fa0-a61d-03a70a4122ae"},"vehicle_type_id":"4","last_reported":1758308860,"current_range_meters":14400,"station_id":"","pricing_plan_id":"cebpf4jnsgd1na2vs0mg"},{"bike_id":"2de9af74-ae37-4626-afc5-f33f2010624a","system_id":"levelo_inurba_marseille","lat":43.29527,"lon":5.38548,"is_reserved":false,"is_disabled":false,"rental_uris":{"android":"levelo://app?vid=2de9af74-ae37-4626-afc5-f33f2010624a","ios":"levelo://app?vid=2de9af74-ae37-4626-afc5-f33f2010624a"},"vehicle_type_id":"4","last_reported":1758308860,"current_range_meters":14400,"station_id":"ce4bgih2rcd13ifvqba0","pricing_plan_id":"cebpf4jnsgd1na2vs0mg"},{"bike_id":"fbf8b3ef-fab4-496b-9171-97052b3bc0bd","system_id":"levelo_inurba_marseille","lat":43.30593,"lon":5.37223,"is_reserved":false,"is_disabled":true,"rental_uris":{"android":"levelo://app?vid=fbf8b3ef-fab4-496b-9171-97052b3bc0bd","ios":"levelo://app?vid=fbf8b3ef-fab4-496b-9171-97052b3bc0bd"},"vehicle_type_id":"4","last_reported":1758308860,"current_range_meters":14800,"station_id":"ce4bgqh2rcd13ifvqc4g","pricing_plan_id":"cebpf4jnsgd1na2vs0mg"},{"bike_id":"fe0c5995-2e71-42f1-ba01-8f998e96a5bb","system_id":"levelo_inurba_marseille","lat":43.28941,"lon":5.36634,"is_reserved":false,"is_disabled":false,"rental_uris":{"android":"levelo://app?vid=fe0c5995-2e71-42f1-ba01-8f998e96a5bb","ios":"levelo://app?vid=fe0c5995-2e71-42f1-ba01-8f998e96a5bb"},"vehicle_type_id":"4","last_reported":1758308860,"current_range_meters":14800,"station_id":"ce4bhap2rcd13ifvqek0","pricing_plan_id":"cebpf4jnsgd1na2vs0mg"},{"bike_id":"9c617a5b-fe1f-4812-b911-57bc9fdbc741","system_id":"levelo_inurba_marseille","lat":43.28439,"lon":5.39191,"is_reserved":false,"is_disabled":false,"rental_uris":{"android":"levelo://app?vid=9c617a5b-fe1f-4812-b911-57bc9fdbc741","ios":"levelo://app?vid=9c617a5b-fe1f-4812-b911-57bc9fdbc741"},"vehicle_type_id":"4","last_reported":1758308860,"current_range_meters":14800,"station_id":"ce4bhoh2rcd13ifvqh5g","pricing_plan_id":"cebpf4jnsgd1na2vs0mg"},{"bike_id":"9494a8d1-9e78-462a-8035-ffed2e6b7380","system_id":"levelo_inurba_marseille","lat":43.29527,"lon":5.39032,"is_reserved":false,"is_disabled":false,"rental_uris":{"android":"levelo://app?vid=9494a8d1-9e78-462a-8035-ffed2e6b7380","ios":"levelo://app?vid=9494a8d1-9e78-462a-8035-ffed2e6b7380"},"vehicle_type_id":"4","last_reported":1758308860,"current_range_meters":14800,"station_id":"ce4bh3p2rcd13ifvqdp0","pricing_plan_id":"cebpf4jnsgd1na2vs0mg"},{"bike_id":"3c70ac7d-f6f1-4b32-a730-a5dfc2e234bf","system_id":"levelo_inurba_marseille","lat":43.29242,"lon":5.37619,"is_reserved":false,"is_disabled":true,"rental_uris":{"android":"levelo://app?vid=3c70ac7d-f6f1-4b32-a730-a5dfc2e234bf","ios":"levelo://app?vid=3c70ac7d-f6f1-4b32-a730-a5dfc2e234bf"},"vehicle_type_id":"4","last_reported":1758308860,"current_range_meters":14800,"station_id":"ce4bgi12rcd13ifvqb80","pricing_plan_id":"cebpf4jnsgd1na2vs0mg"},{"bike_id":"d8f204e0-2e50-47f7-838c-ffb08fd55976","system_id":"levelo_inurba_marseille","lat":43.28701,"lon":5.39989,"is_reserved":false,"is_disabled":false,"rental_uris":{"android":"levelo://app?vid=d8f204e0-2e50-47f7-838c-ffb08fd55976","ios":"levelo://app?vid=d8f204e0-2e50-47f7-838c-ffb08fd55976"},"vehicle_type_id":"4","last_reported":1758308860,"current_range_meters":14800,"station_id":"ce4bho92rcd13ifvqh3g","pricing_plan_id":"cebpf4jnsgd1na2vs0mg"},{"bike_id":"dccefeab-758e-4850-a415-f18571ed0a71","system_id":"levelo_inurba_marseille","lat":43.29535,"lon":5.38548,"is_reserved":false,"is_disabled":true,"rental_uris":{"android":"levelo://app?vid=dccefeab-758e-4850-a415-f18571ed0a71","ios":"levelo://app?vid=dccefeab-758e-4850-a415-f18571ed0a71"},"vehicle_type_id":"4","last_reported":1758308860,"current_range_meters":14800,"station_id":"ce4bgih2rcd13ifvqba0","pricing_plan_id":"cebpf4jnsgd1na2vs0mg"},{"bike_id":"2499a65f-106c-4cee-823e-c9d939ffbc5f","system_id":"levelo_inurba_marseille","lat":43.31091,"lon":5.38602,"is_reserved":false,"is_disabled":false,"rental_uris":{"android":"levelo://app?vid=2499a65f-106c-4cee-823e-c9d939ffbc5f","ios":"levelo://app?vid=2499a65f-106c-4cee-823e-c9d939ffbc5f"},"vehicle_type_id":"4","last_reported":1758308860,"current_range_meters":14800,"station_id":"","pricing_plan_id":"cebpf4jnsgd1na2vs0mg"},{"bike_id":"4572f421-3171-46ba-a455-51a8021d98d8","system_id":"levelo_inurba_marseille","lat":43.28157,"lon":5.4264,"is_reserved":false,"is_disabled":false,"rental_uris":{"android":"levelo://app?vid=4572f421-3171-46ba-a455-51a8021d98d8","ios":"levelo://app?vid=4572f421-3171-46ba-a455-51a8021d98d8"},"vehicle_type_id":"4","last_reported":1758308860,"current_range_meters":14800,"station_id":"ce4bhnh2rcd13ifvqgug","pricing_plan_id":"cebpf4jnsgd1na2vs0mg"},{"bike_id":"30b6ea63-acdb-4279-bacb-f64a75998630","system_id":"levelo_inurba_marseille","lat":43.28377,"lon":5.38636,"is_reserved":false,"is_disabled":false,"rental_uris":{"android":"levelo://app?vid=30b6ea63-acdb-4279-bacb-f64a75998630","ios":"levelo://app?vid=30b6ea63-acdb-4279-bacb-f64a75998630"},"vehicle_type_id":"4","last_reported":1758308860,"current_range_meters":15200,"station_id":"ce4bh492rcd13ifvqdvg","pricing_plan_id":"cebpf4jnsgd1na2vs0mg"},{"bike_id":"c4706891-6ce1-4440-91ff-a3ecf2ff007e","system_id":"levelo_inurba_marseille","lat":43.26374,"lon":5.40075,"is_reserved":false,"is_disabled":false,"rental_uris":{"android":"levelo://app?vid=c4706891-6ce1-4440-91ff-a3ecf2ff007e","ios":"levelo://app?vid=c4706891-6ce1-4440-91ff-a3ecf2ff007e"},"vehicle_type_id":"4","last_reported":1758308860,"current_range_meters":15200,"station_id":"","pricing_plan_id":"cebpf4jnsgd1na2vs0mg"},{"bike_id":"df0199ee-ab4f-48ab-bbe9-404b970e49dc","system_id":"levelo_inurba_marseille","lat":43.29048,"lon":5.37158,"is_reserved":false,"is_disabled":true,"rental_uris":{"android":"levelo://app?vid=df0199ee-ab4f-48ab-bbe9-404b970e49dc","ios":"levelo://app?vid=df0199ee-ab4f-48ab-bbe9-404b970e49dc"},"vehicle_type_id":"4","last_reported":1758308860,"current_range_meters":15200,"station_id":"ce4bh5p2rcd13ifvqe4g","pricing_plan_id":"cebpf4jnsgd1na2vs0mg"},{"bike_id":"784c8f38-74bf-4084-8fd4-143125dea043","system_id":"levelo_inurba_marseille","lat":43.292816,"lon":5.401205,"is_reserved":false,"is_disabled":false,"rental_uris":{"android":"levelo://app?vid=784c8f38-74bf-4084-8fd4-143125dea043","ios":"levelo://app?vid=784c8f38-74bf-4084-8fd4-143125dea043"},"vehicle_type_id":"4","last_reported":1758308860,"current_range_meters":16000,"station_id":"ce4bh312rcd13ifvqdk0","pricing_plan_id":"cebpf4jnsgd1na2vs0mg"},{"bike_id":"7c00454d-87e2-4622-8e26-0a709fe028eb","system_id":"levelo_inurba_marseille","lat":43.29243,"lon":5.38437,"is_reserved":false,"is_disabled":false,"rental_uris":{"android":"levelo://app?vid=7c00454d-87e2-4622-8e26-0a709fe028eb","ios":"levelo://app?vid=7c00454d-87e2-4622-8e26-0a709fe028eb"},"vehicle_type_id":"4","last_reported":1758308860,"current_range_meters":16000,"station_id":"ce4bh692rcd13ifvqea0","pricing_plan_id":"cebpf4jnsgd1na2vs0mg"},{"bike_id":"a3d02a6a-570c-49f8-9800-975cf7f695a4","system_id":"levelo_inurba_marseille","lat":43.262,"lon":5.37927,"is_reserved":false,"is_disabled":false,"rental_uris":{"android":"levelo://app?vid=a3d02a6a-570c-49f8-9800-975cf7f695a4","ios":"levelo://app?vid=a3d02a6a-570c-49f8-9800-975cf7f695a4"},"vehicle_type_id":"4","last_reported":1758308860,"current_range_meters":16000,"station_id":"ce4bhjp2rcd13ifvqg90","pricing_plan_id":"cebpf4jnsgd1na2vs0mg"},{"bike_id":"0d32671b-e095-4e26-99f5-ddbdb32068f9","system_id":"levelo_inurba_marseille","lat":43.28675,"lon":5.38659,"is_reserved":false,"is_disabled":false,"rental_uris":{"android":"levelo://app?vid=0d32671b-e095-4e26-99f5-ddbdb32068f9","ios":"levelo://app?vid=0d32671b-e095-4e26-99f5-ddbdb32068f9"},"vehicle_type_id":"4","last_reported":1758308860,"current_range_meters":16000,"station_id":"ce4bh492rcd13ifvqdug","pricing_plan_id":"cebpf4jnsgd1na2vs0mg"},{"bike_id":"9186af57-f08c-4cc8-9050-a3582004c079","system_id":"levelo_inurba_marseille","lat":43.25343,"lon":5.42162,"is_reserved":false,"is_disabled":false,"rental_uris":{"android":"levelo://app?vid=9186af57-f08c-4cc8-9050-a3582004c079","ios":"levelo://app?vid=9186af57-f08c-4cc8-9050-a3582004c079"},"vehicle_type_id":"4","last_reported":1758308860,"current_range_meters":16000,"station_id":"st_d2m65c5bi1j21697t3ng","pricing_plan_id":"cebpf4jnsgd1na2vs0mg"},{"bike_id":"18e3aeb1-b2cc-4222-967e-3fa218817483","system_id":"levelo_inurba_marseille","lat":43.29603,"lon":5.38104,"is_reserved":false,"is_disabled":false,"rental_uris":{"android":"levelo://app?vid=18e3aeb1-b2cc-4222-967e-3fa218817483","ios":"levelo://app?vid=18e3aeb1-b2cc-4222-967e-3fa218817483"},"vehicle_type_id":"4","last_reported":1758308860,"current_range_meters":16000,"station_id":"ce4bgl12rcd13ifvqbo0","pricing_plan_id":"cebpf4jnsgd1na2vs0mg"},{"bike_id":"36905614-b793-4d74-a47f-a5dc0a8acae3","system_id":"levelo_inurba_marseille","lat":43.31762,"lon":5.39026,"is_reserved":false,"is_disabled":false,"rental_uris":{"android":"levelo://app?vid=36905614-b793-4d74-a47f-a5dc0a8acae3","ios":"levelo://app?vid=36905614-b793-4d74-a47f-a5dc0a8acae3"},"vehicle_type_id":"4","last_reported":1758308860,"current_range_meters":16000,"station_id":"ce4bhqp2rcd13ifvqhng","pricing_plan_id":"cebpf4jnsgd1na2vs0mg"},{"bike_id":"835975a0-27c7-47e7-bc1c-b8ba0b505127","system_id":"levelo_inurba_marseille","lat":43.32605,"lon":5.37817,"is_reserved":false,"is_disabled":false,"rental_uris":{"android":"levelo://app?vid=835975a0-27c7-47e7-bc1c-b8ba0b505127","ios":"levelo://app?vid=835975a0-27c7-47e7-bc1c-b8ba0b505127"},"vehicle_type_id":"4","last_reported":1758308860,"current_range_meters":16000,"station_id":"","pricing_plan_id":"cebpf4jnsgd1na2vs0mg"},{"bike_id":"3a738d32-7d3d-4e70-a41c-d1bcf998b110","system_id":"levelo_inurba_marseille","lat":43.29806,"lon":5.38105,"is_reserved":false,"is_disabled":false,"rental_uris":{"android":"levelo://app?vid=3a738d32-7d3d-4e70-a41c-d1bcf998b110","ios":"levelo://app?vid=3a738d32-7d3d-4e70-a41c-d1bcf998b110"},"vehicle_type_id":"4","last_reported":1758308860,"current_range_meters":16000,"station_id":"ce4bgip2rcd13ifvqbb0","pricing_plan_id":"cebpf4jnsgd1na2vs0mg"},{"bike_id":"23fac069-01cc-45b6-b24d-e676fd2da16a","system_id":"levelo_inurba_marseille","lat":43.29283,"lon":5.36847,"is_reserved":false,"is_disabled":true,"rental_uris":{"android":"levelo://app?vid=23fac069-01cc-45b6-b24d-e676fd2da16a","ios":"levelo://app?vid=23fac069-01cc-45b6-b24d-e676fd2da16a"},"vehicle_type_id":"4","last_reported":1758308860,"current_range_meters":16000,"station_id":"ce4bhbp2rcd13ifvqesg","pricing_plan_id":"cebpf4jnsgd1na2vs0mg"},{"bike_id":"2966fb98-fd0a-4e97-97f0-9ba68458b923","system_id":"levelo_inurba_marseille","lat":43.29529,"lon":5.38543,"is_reserved":false,"is_disabled":false,"rental_uris":{"android":"levelo://app?vid=2966fb98-fd0a-4e97-97f0-9ba68458b923","ios":"levelo://app?vid=2966fb98-fd0a-4e97-97f0-9ba68458b923"},"vehicle_type_id":"4","last_reported":1758308860,"current_range_meters":16000,"station_id":"ce4bgih2rcd13ifvqba0","pricing_plan_id":"cebpf4jnsgd1na2vs0mg"},{"bike_id":"066708fb-1b32-45c7-8dee-edb418e15980","system_id":"levelo_inurba_marseille","lat":43.26805,"lon":5.39392,"is_reserved":false,"is_disabled":false,"rental_uris":{"android":"levelo://app?vid=066708fb-1b32-45c7-8dee-edb418e15980","ios":"levelo://app?vid=066708fb-1b32-45c7-8dee-edb418e15980"},"vehicle_type_id":"4","last_reported":1758308860,"current_range_meters":16000,"station_id":"ce4bhh12rcd13ifvqfg0","pricing_plan_id":"cebpf4jnsgd1na2vs0mg"},{"bike_id":"ab3ab1a4-9880-4447-8936-fae57877c847","system_id":"levelo_inurba_marseille","lat":43.26058,"lon":5.39399,"is_reserved":false,"is_disabled":false,"rental_uris":{"android":"levelo://app?vid=ab3ab1a4-9880-4447-8936-fae57877c847","ios":"levelo://app?vid=ab3ab1a4-9880-4447-8936-fae57877c847"},"vehicle_type_id":"4","last_reported":1758308860,"current_range_meters":16400,"station_id":"ce4bhh92rcd13ifvqfj0","pricing_plan_id":"cebpf4jnsgd1na2vs0mg"},{"bike_id":"15056272-9948-4fb8-8a3f-0dce85d9f376","system_id":"levelo_inurba_marseille","lat":43.2782,"lon":5.39205,"is_reserved":false,"is_disabled":true,"rental_uris":{"android":"levelo://app?vid=15056272-9948-4fb8-8a3f-0dce85d9f376","ios":"levelo://app?vid=15056272-9948-4fb8-8a3f-0dce85d9f376"},"vehicle_type_id":"4","last_reported":1758308860,"current_range_meters":16400,"station_id":"ce4bhjp2rcd13ifvqga0","pricing_plan_id":"cebpf4jnsgd1na2vs0mg"},{"bike_id":"1b0b3f72-3ff3-49b0-a3e4-cc6be8e494bc","system_id":"levelo_inurba_marseille","lat":43.298056,"lon":5.380906,"is_reserved":false,"is_disabled":false,"rental_uris":{"android":"levelo://app?vid=1b0b3f72-3ff3-49b0-a3e4-cc6be8e494bc","ios":"levelo://app?vid=1b0b3f72-3ff3-49b0-a3e4-cc6be8e494bc"},"vehicle_type_id":"4","last_reported":1758308860,"current_range_meters":16400,"station_id":"","pricing_plan_id":"cebpf4jnsgd1na2vs0mg"},{"bike_id":"192ff222-00f4-48e0-a859-abe6f3e10e5f","system_id":"levelo_inurba_marseille","lat":43.25869,"lon":5.39897,"is_reserved":false,"is_disabled":false,"rental_uris":{"android":"levelo://app?vid=192ff222-00f4-48e0-a859-abe6f3e10e5f","ios":"levelo://app?vid=192ff222-00f4-48e0-a859-abe6f3e10e5f"},"vehicle_type_id":"4","last_reported":1758308860,"current_range_meters":16400,"station_id":"ce4bhl92rcd13ifvqghg","pricing_plan_id":"cebpf4jnsgd1na2vs0mg"},{"bike_id":"fe88b160-fe9b-426c-9532-d75c476c785a","system_id":"levelo_inurba_marseille","lat":43.28944,"lon":5.36641,"is_reserved":false,"is_disabled":false,"rental_uris":{"android":"levelo://app?vid=fe88b160-fe9b-426c-9532-d75c476c785a","ios":"levelo://app?vid=fe88b160-fe9b-426c-9532-d75c476c785a"},"vehicle_type_id":"4","last_reported":1758308860,"current_range_meters":16400,"station_id":"ce4bhap2rcd13ifvqek0","pricing_plan_id":"cebpf4jnsgd1na2vs0mg"},{"bike_id":"43d57fd4-047e-4ac8-97e5-ec9b96239472","system_id":"levelo_inurba_marseille","lat":43.32606,"lon":5.38917,"is_reserved":false,"is_disabled":false,"rental_uris":{"android":"levelo://app?vid=43d57fd4-047e-4ac8-97e5-ec9b96239472","ios":"levelo://app?vid=43d57fd4-047e-4ac8-97e5-ec9b96239472"},"vehicle_type_id":"4","last_reported":1758308860,"current_range_meters":16400,"station_id":"","pricing_plan_id":"cebpf4jnsgd1na2vs0mg"},{"bike_id":"4cc8559f-a376-46d5-92e8-18aa4c43c7c1","system_id":"levelo_inurba_marseille","lat":43.303031,"lon":5.368919,"is_reserved":false,"is_disabled":false,"rental_uris":{"android":"levelo://app?vid=4cc8559f-a376-46d5-92e8-18aa4c43c7c1","ios":"levelo://app?vid=4cc8559f-a376-46d5-92e8-18aa4c43c7c1"},"vehicle_type_id":"4","last_reported":1758308860,"current_range_meters":16400,"station_id":"ce4bgqh2rcd13ifvqc5g","pricing_plan_id":"cebpf4jnsgd1na2vs0mg"},{"bike_id":"8bea0566-00fd-46db-a946-1cbb79e9627e","system_id":"levelo_inurba_marseille","lat":43.31992,"lon":5.38145,"is_reserved":false,"is_disabled":false,"rental_uris":{"android":"levelo://app?vid=8bea0566-00fd-46db-a946-1cbb79e9627e","ios":"levelo://app?vid=8bea0566-00fd-46db-a946-1cbb79e9627e"},"vehicle_type_id":"4","last_reported":1758308860,"current_range_meters":16800,"station_id":"ce4bhr12rcd13ifvqhpg","pricing_plan_id":"cebpf4jnsgd1na2vs0mg"},{"bike_id":"7aa4fe8f-035f-4d95-9b6d-1bcfea3d3415","system_id":"levelo_inurba_marseille","lat":43.30879,"lon":5.39641,"is_reserved":false,"is_disabled":false,"rental_uris":{"android":"levelo://app?vid=7aa4fe8f-035f-4d95-9b6d-1bcfea3d3415","ios":"levelo://app?vid=7aa4fe8f-035f-4d95-9b6d-1bcfea3d3415"},"vehicle_type_id":"4","last_reported":1758308860,"current_range_meters":16800,"station_id":"ce4bh012rcd13ifvqcv0","pricing_plan_id":"cebpf4jnsgd1na2vs0mg"},{"bike_id":"8e86fe12-b2d6-4764-9720-31f5ab462b7b","system_id":"levelo_inurba_marseille","lat":43.22575,"lon":5.41622,"is_reserved":false,"is_disabled":false,"rental_uris":{"android":"levelo://app?vid=8e86fe12-b2d6-4764-9720-31f5ab462b7b","ios":"levelo://app?vid=8e86fe12-b2d6-4764-9720-31f5ab462b7b"},"vehicle_type_id":"4","last_reported":1758308860,"current_range_meters":16800,"station_id":"st_d2o4gvlbi1j2169b742g","pricing_plan_id":"cebpf4jnsgd1na2vs0mg"},{"bike_id":"a1a12c71-6d96-4648-a25f-8df642a6dc66","system_id":"levelo_inurba_marseille","lat":43.28496,"lon":5.38456,"is_reserved":false,"is_disabled":true,"rental_uris":{"android":"levelo://app?vid=a1a12c71-6d96-4648-a25f-8df642a6dc66","ios":"levelo://app?vid=a1a12c71-6d96-4648-a25f-8df642a6dc66"},"vehicle_type_id":"4","last_reported":1758308860,"current_range_meters":16800,"station_id":"ce4bh512rcd13ifvqe3g","pricing_plan_id":"cebpf4jnsgd1na2vs0mg"},{"bike_id":"100fc699-7bc2-45de-9e70-967069e79569","system_id":"levelo_inurba_marseille","lat":43.27946,"lon":5.41053,"is_reserved":false,"is_disabled":false,"rental_uris":{"android":"levelo://app?vid=100fc699-7bc2-45de-9e70-967069e79569","ios":"levelo://app?vid=100fc699-7bc2-45de-9e70-967069e79569"},"vehicle_type_id":"4","last_reported":1758308860,"current_range_meters":16800,"station_id":"ce4bhnp2rcd13ifvqh0g","pricing_plan_id":"cebpf4jnsgd1na2vs0mg"},{"bike_id":"8f8458a7-d63f-485d-b4e8-7b4f14400c95","system_id":"levelo_inurba_marseille","lat":43.29253,"lon":5.38434,"is_reserved":false,"is_disabled":false,"rental_uris":{"android":"levelo://app?vid=8f8458a7-d63f-485d-b4e8-7b4f14400c95","ios":"levelo://app?vid=8f8458a7-d63f-485d-b4e8-7b4f14400c95"},"vehicle_type_id":"4","last_reported":1758308860,"current_range_meters":16800,"station_id":"ce4bh692rcd13ifvqea0","pricing_plan_id":"cebpf4jnsgd1na2vs0mg"},{"bike_id":"45b73b96-2568-4267-b40c-471be47af509","system_id":"levelo_inurba_marseille","lat":43.2986,"lon":5.36281,"is_reserved":false,"is_disabled":false,"rental_uris":{"android":"levelo://app?vid=45b73b96-2568-4267-b40c-471be47af509","ios":"levelo://app?vid=45b73b96-2568-4267-b40c-471be47af509"},"vehicle_type_id":"4","last_reported":1758308860,"current_range_meters":16800,"station_id":"ce4bgpp2rcd13ifvqc3g","pricing_plan_id":"cebpf4jnsgd1na2vs0mg"},{"bike_id":"7ea2d879-b0ae-4031-a4e0-dc06eaaa28dd","system_id":"levelo_inurba_marseille","lat":43.2985,"lon":5.36282,"is_reserved":false,"is_disabled":false,"rental_uris":{"android":"levelo://app?vid=7ea2d879-b0ae-4031-a4e0-dc06eaaa28dd","ios":"levelo://app?vid=7ea2d879-b0ae-4031-a4e0-dc06eaaa28dd"},"vehicle_type_id":"4","last_reported":1758308860,"current_range_meters":16800,"station_id":"ce4bgpp2rcd13ifvqc3g","pricing_plan_id":"cebpf4jnsgd1na2vs0mg"},{"bike_id":"e314674c-85a3-43d7-8dcf-6bfb78172737","system_id":"levelo_inurba_marseille","lat":43.29533,"lon":5.38546,"is_reserved":false,"is_disabled":false,"rental_uris":{"android":"levelo://app?vid=e314674c-85a3-43d7-8dcf-6bfb78172737","ios":"levelo://app?vid=e314674c-85a3-43d7-8dcf-6bfb78172737"},"vehicle_type_id":"4","last_reported":1758308860,"current_range_meters":16800,"station_id":"ce4bgih2rcd13ifvqba0","pricing_plan_id":"cebpf4jnsgd1na2vs0mg"},{"bike_id":"05ca0aa0-5596-4971-a0c3-94e65df6bd50","system_id":"levelo_inurba_marseille","lat":43.22554,"lon":5.41638,"is_reserved":false,"is_disabled":false,"rental_uris":{"android":"levelo://app?vid=05ca0aa0-5596-4971-a0c3-94e65df6bd50","ios":"levelo://app?vid=05ca0aa0-5596-4971-a0c3-94e65df6bd50"},"vehicle_type_id":"4","last_reported":1758308860,"current_range_meters":16800,"station_id":"st_d2o4gvlbi1j2169b742g","pricing_plan_id":"cebpf4jnsgd1na2vs0mg"},{"bike_id":"827df932-cbeb-443a-8d8b-d194db0a963d","system_id":"levelo_inurba_marseille","lat":43.3137,"lon":5.39717,"is_reserved":false,"is_disabled":false,"rental_uris":{"android":"levelo://app?vid=827df932-cbeb-443a-8d8b-d194db0a963d","ios":"levelo://app?vid=827df932-cbeb-443a-8d8b-d194db0a963d"},"vehicle_type_id":"4","last_reported":1758308860,"current_range_meters":17200,"station_id":"ce4bgvp2rcd13ifvqcu0","pricing_plan_id":"cebpf4jnsgd1na2vs0mg"},{"bike_id":"b810ec46-97ab-4356-95f9-0c9d02506d5a","system_id":"levelo_inurba_marseille","lat":43.24458,"lon":5.39039,"is_reserved":false,"is_disabled":false,"rental_uris":{"android":"levelo://app?vid=b810ec46-97ab-4356-95f9-0c9d02506d5a","ios":"levelo://app?vid=b810ec46-97ab-4356-95f9-0c9d02506d5a"},"vehicle_type_id":"4","last_reported":1758308860,"current_range_meters":17200,"station_id":"","pricing_plan_id":"cebpf4jnsgd1na2vs0mg"},{"bike_id":"839b261b-56b0-40fb-acb3-4eb32819ec06","system_id":"levelo_inurba_marseille","lat":43.29044,"lon":5.35931,"is_reserved":false,"is_disabled":false,"rental_uris":{"android":"levelo://app?vid=839b261b-56b0-40fb-acb3-4eb32819ec06","ios":"levelo://app?vid=839b261b-56b0-40fb-acb3-4eb32819ec06"},"vehicle_type_id":"4","last_reported":1758308860,"current_range_meters":17200,"station_id":"ce4bha92rcd13ifvqeg0","pricing_plan_id":"cebpf4jnsgd1na2vs0mg"},{"bike_id":"014b859c-8e48-4671-b9c1-4ee13801e82d","system_id":"levelo_inurba_marseille","lat":43.292696,"lon":5.384363,"is_reserved":false,"is_disabled":false,"rental_uris":{"android":"levelo://app?vid=014b859c-8e48-4671-b9c1-4ee13801e82d","ios":"levelo://app?vid=014b859c-8e48-4671-b9c1-4ee13801e82d"},"vehicle_type_id":"4","last_reported":1758308860,"current_range_meters":17200,"station_id":"ce4bh692rcd13ifvqea0","pricing_plan_id":"cebpf4jnsgd1na2vs0mg"},{"bike_id":"c989fb21-7b30-4802-a9d8-9a6dd7866241","system_id":"levelo_inurba_marseille","lat":43.24954,"lon":5.40487,"is_reserved":false,"is_disabled":false,"rental_uris":{"android":"levelo://app?vid=c989fb21-7b30-4802-a9d8-9a6dd7866241","ios":"levelo://app?vid=c989fb21-7b30-4802-a9d8-9a6dd7866241"},"vehicle_type_id":"4","last_reported":1758308860,"current_range_meters":17200,"station_id":"st_d2ngiaodas8pm72gd1h0","pricing_plan_id":"cebpf4jnsgd1na2vs0mg"},{"bike_id":"6162b192-16bc-403e-bdf1-57830dbebe4b","system_id":"levelo_inurba_marseille","lat":43.31752,"lon":5.39023,"is_reserved":false,"is_disabled":false,"rental_uris":{"android":"levelo://app?vid=6162b192-16bc-403e-bdf1-57830dbebe4b","ios":"levelo://app?vid=6162b192-16bc-403e-bdf1-57830dbebe4b"},"vehicle_type_id":"4","last_reported":1758308860,"current_range_meters":17200,"station_id":"ce4bhqp2rcd13ifvqhng","pricing_plan_id":"cebpf4jnsgd1na2vs0mg"},{"bike_id":"7cf4e898-cdbe-48af-a0e6-3312befb7096","system_id":"levelo_inurba_marseille","lat":43.26675,"lon":5.38267,"is_reserved":false,"is_disabled":false,"rental_uris":{"android":"levelo://app?vid=7cf4e898-cdbe-48af-a0e6-3312befb7096","ios":"levelo://app?vid=7cf4e898-cdbe-48af-a0e6-3312befb7096"},"vehicle_type_id":"4","last_reported":1758308860,"current_range_meters":17200,"station_id":"ce4bhg92rcd13ifvqf90","pricing_plan_id":"cebpf4jnsgd1na2vs0mg"},{"bike_id":"92fcd53f-6854-4cc0-8454-b3a9b71f0daa","system_id":"levelo_inurba_marseille","lat":43.28411,"lon":5.34992,"is_reserved":false,"is_disabled":false,"rental_uris":{"android":"levelo://app?vid=92fcd53f-6854-4cc0-8454-b3a9b71f0daa","ios":"levelo://app?vid=92fcd53f-6854-4cc0-8454-b3a9b71f0daa"},"vehicle_type_id":"4","last_reported":1758308860,"current_range_meters":17200,"station_id":"ce4bhbh2rcd13ifvqepg","pricing_plan_id":"cebpf4jnsgd1na2vs0mg"},