{"last_updated":1735888106,"ttl":60,"version":"2.2","data":{"bikes":[{"bike_id":"1828231b-04b5-40c3-bd54-4de58633ae39","system_id":"levelo_inurba_marseille","lat":43.30906,"lon":5.36836,"is_reserved":false,"is_disabled":false,"rental_uris":{"android":"levelo://app?vid=1828231b-04b5-40c3-bd54-4de58633ae39","ios":"levelo://app?vid=1828231b-04b5-40c3-bd54-4de58633ae39"},"vehicle_type_id":"4","last_reported":1735888107,"current_range_meters":37600,"station_id":"ce4bgn92rcd13ifvqbvg","pricing_plan_id":"cebpf4jnsgd1na2vs0mg"},{"bike_id":"6d385c51-096d-4e1f-b9dc-fad4b4c50116","system_id":"levelo_inurba_marseille","lat":43.34137,"lon":5.4092,"is_reserved":false,"is_disabled":false,"rental_uris":{"android":"levelo://app?vid=6d385c51-096d-4e1f-b9dc-fad4b4c50116","ios":"levelo://app?vid=6d385c51-096d-4e1f-b9dc-fad4b4c50116"},"vehicle_type_id":"4","last_reported":1735888107,"current_range_meters":38000,"station_id":"ce4bhqh2rcd13ifvqhlg","pricing_plan_id":"cebpf4jnsgd1na2vs0mg"},{"bike_id":"172ccd61-d49f-41ee-9d70-c90aa70835fe","system_id":"levelo_inurba_marseille","lat":43.27434,"lon":5.39412,"is_reserved":false,"is_disabled":false,"rental_uris":{"android":"levelo://app?vid=172ccd61-d49f-41ee-9d70-c90aa70835fe","ios":"levelo://app?vid=172ccd61-d49f-41ee-9d70-c90aa70835fe"},"vehicle_type_id":"4","last_reported":1735888107,"current_range_meters":30800,"station_id":"ce4bhdp2rcd13ifvqf20","pricing_plan_id":"cebpf4jnsgd1na2vs0mg"},{"bike_id":"3042dbc1-c819-4040-80d9-b25d524d5dea","system_id":"levelo_inurba_marseille","lat":43.28482,"lon":5.384361,"is_reserved":false,"is_disabled":false,"rental_uris":{"android":"levelo://app?vid=3042dbc1-c819-4040-80d9-b25d524d5dea","ios":"levelo://app?vid=3042dbc1-c819-4040-80d9-b25d524d5dea"},"vehicle_type_id":"4","last_reported":1735888107,"current_range_meters":38400,"station_id":"ce4bh512rcd13ifvqe3g","pricing_plan_id":"cebpf4jnsgd1na2vs0mg"},{"bike_id":"27e2e931-efb9-4e2f-be67-8266e417c4e2","system_id":"levelo_inurba_marseille","lat":43.31541,"lon":5.38021,"is_reserved":false,"is_disabled":false,"rental_uris":{"android":"levelo://app?vid=27e2e931-efb9-4e2f-be67-8266e417c4e2","ios":"levelo://app?vid=27e2e931-efb9-4e2f-be67-8266e417c4e2"},"vehicle_type_id":"4","last_reported":1735888107,"current_range_meters":30400,"station_id":"ce4bhsp2rcd13ifvqi50","pricing_plan_id":"cebpf4jnsgd1na2vs0mg"},{"bike_id":"a95f7a4f-b106-47fb-b884-a0e3c27f8867","system_id":"levelo_inurba_marseille","lat":43.2886,"lon":5.39329,"is_reserved":false,"is_disabled":true,"rental_uris":{"android":"levelo://app?vid=a95f7a4f-b106-47fb-b884-a0e3c27f8867","ios":"levelo://app?vid=a95f7a4f-b106-47fb-b884-a0e3c27f8867"},"vehicle_type_id":"4","last_reported":1735888107,"current_range_meters":800,"station_id":"ce4bh2p2rcd13ifvqdi0","pricing_plan_id":"cebpf4jnsgd1na2vs0mg"},{"bike_id":"83cf3ed5-c352-4a39-821d-1f7d95dea627","system_id":"levelo_inurba_marseille","lat":43.25576,"lon":5.38248,"is_reserved":false,"is_disabled":false,"rental_uris":{"android":"levelo://app?vid=83cf3ed5-c352-4a39-821d-1f7d95dea627","ios":"levelo://app?vid=83cf3ed5-c352-4a39-821d-1f7d95dea627"},"vehicle_type_id":"4","last_reported":1735888107,"current_range_meters":24000,"station_id":"ce4bhih2rcd13ifvqfs0","pricing_plan_id":"cebpf4jnsgd1na2vs0mg"},{"bike_id":"00524dd7-207c-413a-92cf-82fd50a2409c","system_id":"levelo_inurba_marseille","lat":43.288437,"lon":5.358476,"is_reserved":false,"is_disabled":false,"rental_uris":{"android":"levelo://app?vid=00524dd7-207c-413a-92cf-82fd50a2409c","ios":"levelo://app?vid=00524dd7-207c-413a-92cf-82fd50a2409c"},"vehicle_type_id":"4","last_reported":1735888107,"current_range_meters":34800,"station_id":"ce4bhb12rcd13ifvqem0","pricing_plan_id":"cebpf4jnsgd1na2vs0mg"},{"bike_id":"c5f1ebc9-c7b3-480d-9f5a-465741babe42","system_id":"levelo_inurba_marseille","lat":43.23193,"lon":5.39975,"is_reserved":false,"is_disabled":false,"rental_uris":{"android":"levelo://app?vid=c5f1ebc9-c7b3-480d-9f5a-465741babe42","ios":"levelo://app?vid=c5f1ebc9-c7b3-480d-9f5a-465741babe42"},"vehicle_type_id":"4","last_reported":1735888107,"current_range_meters":11600,"station_id":"ce4bhn12rcd13ifvqgqg","pricing_plan_id":"cebpf4jnsgd1na2vs0mg"},{"bike_id":"76f0fd63-f178-4d5f-bda4-6962e6a31d92","system_id":"levelo_inurba_marseille","lat":43.290221,"lon":5.381416,"is_reserved":false,"is_disabled":false,"rental_uris":{"android":"levelo://app?vid=76f0fd63-f178-4d5f-bda4-6962e6a31d92","ios":"levelo://app?vid=76f0fd63-f178-4d5f-bda4-6962e6a31d92"},"vehicle_type_id":"4","last_reported":1735888107,"current_range_meters":24800,"station_id":"ce4bh4p2rcd13ifvqe1g","pricing_plan_id":"cebpf4jnsgd1na2vs0mg"},{"bike_id":"0cc226b6-5f36-4e90-9e5b-497bf45d78e0","system_id":"levelo_inurba_marseille","lat":43.28009,"lon":5.40002,"is_reserved":false,"is_disabled":true,"rental_uris":{"android":"levelo://app?vid=0cc226b6-5f36-4e90-9e5b-497bf45d78e0","ios":"levelo://app?vid=0cc226b6-5f36-4e90-9e5b-497bf45d78e0"},"vehicle_type_id":"4","last_reported":1735888107,"current_range_meters":3600,"station_id":"ce4bho92rcd13ifvqh4g","pricing_plan_id":"cebpf4jnsgd1na2vs0mg"},{"bike_id":"8b902440-a132-4276-a4e5-f9d3851d429d","system_id":"levelo_inurba_marseille","lat":43.28488,"lon":5.38564,"is_reserved":false,"is_disabled":false,"rental_uris":{"android":"levelo://app?vid=8b902440-a132-4276-a4e5-f9d3851d429d","ios":"levelo://app?vid=8b902440-a132-4276-a4e5-f9d3851d429d"},"vehicle_type_id":"4","last_reported":1735888107,"current_range_meters":39200,"station_id":"ce4bh8p2rcd13ifvqeb0","pricing_plan_id":"cebpf4jnsgd1na2vs0mg"},{"bike_id":"7fe488eb-12c8-4e00-91f1-2c46d8f6d979","system_id":"levelo_inurba_marseille","lat":43.28458,"lon":5.35895,"is_reserved":false,"is_disabled":true,"rental_uris":{"android":"levelo://app?vid=7fe488eb-12c8-4e00-91f1-2c46d8f6d979","ios":"levelo://app?vid=7fe488eb-12c8-4e00-91f1-2c46d8f6d979"},"vehicle_type_id":"4","last_reported":1735888107,"current_range_meters":1200,"station_id":"ce4bhah2rcd13ifvqei0","pricing_plan_id":"cebpf4jnsgd1na2vs0mg"},{"bike_id":"116f92ae-65b4-4f7c-a23b-1117c0a69b33","system_id":"levelo_inurba_marseille","lat":43.286181,"lon":5.351042,"is_reserved":false,"is_disabled":false,"rental_uris":{"android":"levelo://app?vid=116f92ae-65b4-4f7c-a23b-1117c0a69b33","ios":"levelo://app?vid=116f92ae-65b4-4f7c-a23b-1117c0a69b33"},"vehicle_type_id":"4","last_reported":1735888107,"current_range_meters":28000,"station_id":"ce4bhch2rcd13ifvqeug","pricing_plan_id":"cebpf4jnsgd1na2vs0mg"},{"bike_id":"cf9371cf-b4a6-4f3a-92f4-f898ea85e696","system_id":"levelo_inurba_marseille","lat":43.25561,"lon":5.38234,"is_reserved":false,"is_disabled":false,"rental_uris":{"android":"levelo://app?vid=cf9371cf-b4a6-4f3a-92f4-f898ea85e696","ios":"levelo://app?vid=cf9371cf-b4a6-4f3a-92f4-f898ea85e696"},"vehicle_type_id":"4","last_reported":1735888107,"current_range_meters":7200,"station_id":"ce4bhih2rcd13ifvqfs0","pricing_plan_id":"cebpf4jnsgd1na2vs0mg"},{"bike_id":"2b8ea8a9-0690-406c-a433-e73cfed24c7d","system_id":"levelo_inurba_marseille","lat":43.27818,"lon":5.40723,"is_reserved":false,"is_disabled":false,"rental_uris":{"android":"levelo://app?vid=2b8ea8a9-0690-406c-a433-e73cfed24c7d","ios":"levelo://app?vid=2b8ea8a9-0690-406c-a433-e73cfed24c7d"},"vehicle_type_id":"4","last_reported":1735888107,"current_range_meters":35600,"station_id":"ce4bhnh2rcd13ifvqgtg","pricing_plan_id":"cebpf4jnsgd1na2vs0mg"},{"bike_id":"24ca3e2f-64a4-4b53-bdba-00c6e98625d8","system_id":"levelo_inurba_marseille","lat":43.297,"lon":5.37713,"is_reserved":false,"is_disabled":false,"rental_uris":{"android":"levelo://app?vid=24ca3e2f-64a4-4b53-bdba-00c6e98625d8","ios":"levelo://app?vid=24ca3e2f-64a4-4b53-bdba-00c6e98625d8"},"vehicle_type_id":"4","last_reported":1735888107,"current_range_meters":38800,"station_id":"ce4bgkh2rcd13ifvqbl0","pricing_plan_id":"cebpf4jnsgd1na2vs0mg"},{"bike_id":"89867fc5-aa88-4405-8a4b-15ec23d678bc","system_id":"levelo_inurba_marseille","lat":43.30125,"lon":5.39868,"is_reserved":false,"is_disabled":false,"rental_uris":{"android":"levelo://app?vid=89867fc5-aa88-4405-8a4b-15ec23d678bc","ios":"levelo://app?vid=89867fc5-aa88-4405-8a4b-15ec23d678bc"},"vehicle_type_id":"4","last_reported":1735888107,"current_range_meters":20800,"station_id":"ce4bh0h2rcd13ifvqd40","pricing_plan_id":"cebpf4jnsgd1na2vs0mg"},{"bike_id":"76d392c8-6dd4-4fbf-b626-27c2990c047b","system_id":"levelo_inurba_marseille","lat":43.28166,"lon":5.42828,"is_reserved":false,"is_disabled":false,"rental_uris":{"android":"levelo://app?vid=76d392c8-6dd4-4fbf-b626-27c2990c047b","ios":"levelo://app?vid=76d392c8-6dd4-4fbf-b626-27c2990c047b"},"vehicle_type_id":"4","last_reported":1735888107,"current_range_meters":20400,"station_id":"","pricing_plan_id":"cebpf4jnsgd1na2vs0mg"},{"bike_id":"ebb56956-e2e2-4f51-8f7a-80ccc26c078c","system_id":"levelo_inurba_marseille","lat":43.28155,"lon":5.4264,"is_reserved":false,"is_disabled":false,"rental_uris":{"android":"levelo://app?vid=ebb56956-e2e2-4f51-8f7a-80ccc26c078c","ios":"levelo://app?vid=ebb56956-e2e2-4f51-8f7a-80ccc26c078c"},"vehicle_type_id":"4","last_reported":1735888107,"current_range_meters":32400,"station_id":"ce4bhnh2rcd13ifvqgug","pricing_plan_id":"cebpf4jnsgd1na2vs0mg"},{"bike_id":"449e9d0f-fb13-4908-913f-2d43c33e9c78","system_id":"levelo_inurba_marseille","lat":43.33592,"lon":5.40982,"is_reserved":false,"is_disabled":false,"rental_uris":{"android":"levelo://app?vid=449e9d0f-fb13-4908-913f-2d43c33e9c78","ios":"levelo://app?vid=449e9d0f-fb13-4908-913f-2d43c33e9c78"},"vehicle_type_id":"4","last_reported":1735888107,"current_range_meters":39200,"station_id":"ce4bhqh2rcd13ifvqhmg","pricing_plan_id":"cebpf4jnsgd1na2vs0mg"},{"bike_id":"2b7188e7-1fb2-4955-a6cb-a0e00d15fce0","system_id":"levelo_inurba_marseille","lat":43.25114,"lon":5.40332,"is_reserved":false,"is_disabled":false,"rental_uris":{"android":"levelo://app?vid=2b7188e7-1fb2-4955-a6cb-a0e00d15fce0","ios":"levelo://app?vid=2b7188e7-1fb2-4955-a6cb-a0e00d15fce0"},"vehicle_type_id":"4","last_reported":1735888107,"current_range_meters":4000,"station_id":"ce4bhlh2rcd13ifvqgig","pricing_plan_id":"cebpf4jnsgd1na2vs0mg"},{"bike_id":"24e02238-d92f-424f-8b72-85c062a83bbe","system_id":"levelo_inurba_marseille","lat":43.27678,"lon":5.38885,"is_reserved":false,"is_disabled":false,"rental_uris":{"android":"levelo://app?vid=24e02238-d92f-424f-8b72-85c062a83bbe","ios":"levelo://app?vid=24e02238-d92f-424f-8b72-85c062a83bbe"},"vehicle_type_id":"4","last_reported":1735888107,"current_range_meters":38000,"station_id":"ce4bhi12rcd13ifvqfo0","pricing_plan_id":"cebpf4jnsgd1na2vs0mg"},{"bike_id":"cb41729f-f8b5-46fd-b11b-2f25f57d2997","system_id":"levelo_inurba_marseille","lat":43.24696,"lon":5.37626,"is_reserved":false,"is_disabled":true,"rental_uris":{"android":"levelo://app?vid=cb41729f-f8b5-46fd-b11b-2f25f57d2997","ios":"levelo://app?vid=cb41729f-f8b5-46fd-b11b-2f25f57d2997"},"vehicle_type_id":"4","last_reported":1735888107,"current_range_meters":34800,"station_id":"","pricing_plan_id":"cebpf4jnsgd1na2vs0mg"},{"bike_id":"97717a3a-5240-48fe-b29e-9e7f0d2b5fba","system_id":"levelo_inurba_marseille","lat":43.31686,"lon":5.43691,"is_reserved":false,"is_disabled":false,"rental_uris":{"android":"levelo://app?vid=97717a3a-5240-48fe-b29e-9e7f0d2b5fba","ios":"levelo://app?vid=97717a3a-5240-48fe-b29e-9e7f0d2b5fba"},"vehicle_type_id":"4","last_reported":1735888107,"current_range_meters":38800,"station_id":"ce4bhp92rcd13ifvqhcg","pricing_plan_id":"cebpf4jnsgd1na2vs0mg"},{"bike_id":"b34f82fe-9ce1-4339-8ef1-4ced08779956","system_id":"levelo_inurba_marseille","lat":43.30141,"lon":5.39861,"is_reserved":false,"is_disabled":false,"rental_uris":{"android":"levelo://app?vid=b34f82fe-9ce1-4339-8ef1-4ced08779956","ios":"levelo://app?vid=b34f82fe-9ce1-4339-8ef1-4ced08779956"},"vehicle_type_id":"4","last_reported":1735888107,"current_range_meters":17200,"station_id":"ce4bh0h2rcd13ifvqd40","pricing_plan_id":"cebpf4jnsgd1na2vs0mg"},{"bike_id":"b4fe4e0c-5b03-4373-9ca0-6f8f6eef3ef1","system_id":"levelo_inurba_marseille","lat":43.241612,"lon":5.363956,"is_reserved":false,"is_disabled":false,"rental_uris":{"android":"levelo://app?vid=b4fe4e0c-5b03-4373-9ca0-6f8f6eef3ef1","ios":"levelo://app?vid=b4fe4e0c-5b03-4373-9ca0-6f8f6eef3ef1"},"vehicle_type_id":"4","last_reported":1735888107,"current_range_meters":10800,"station_id":"cpo36qri1sfpv3e86is0","pricing_plan_id":"cebpf4jnsgd1na2vs0mg"},{"bike_id":"326ba597-2f41-4f94-a6d7-b83bc4801538","system_id":"levelo_inurba_marseille","lat":43.27814,"lon":5.40713,"is_reserved":false,"is_disabled":false,"rental_uris":{"android":"levelo://app?vid=326ba597-2f41-4f94-a6d7-b83bc4801538","ios":"levelo://app?vid=326ba597-2f41-4f94-a6d7-b83bc4801538"},"vehicle_type_id":"4","last_reported":1735888107,"current_range_meters":6400,"station_id":"ce4bhnh2rcd13ifvqgtg","pricing_plan_id":"cebpf4jnsgd1na2vs0mg"},{"bike_id":"6acc676b-8bbc-455e-a2a0-369d88715ceb","system_id":"levelo_inurba_marseille","lat":43.28701,"lon":5.399796,"is_reserved":false,"is_disabled":false,"rental_uris":{"android":"levelo://app?vid=6acc676b-8bbc-455e-a2a0-369d88715ceb","ios":"levelo://app?vid=6acc676b-8bbc-455e-a2a0-369d88715ceb"},"vehicle_type_id":"4","last_reported":1735888107,"current_range_meters":36400,"station_id":"ce4bho92rcd13ifvqh3g","pricing_plan_id":"cebpf4jnsgd1na2vs0mg"},{"bike_id":"b28f291c-56d0-49a4-9f46-0d5a3c2639ac","system_id":"levelo_inurba_marseille","lat":43.30885,"lon":5.3719,"is_reserved":false,"is_disabled":false,"rental_uris":{"android":"levelo://app?vid=b28f291c-56d0-49a4-9f46-0d5a3c2639ac","ios":"levelo://app?vid=b28f291c-56d0-49a4-9f46-0d5a3c2639ac"},"vehicle_type_id":"4","last_reported":1735888107,"current_range_meters":17600,"station_id":"ce4bguh2rcd13ifvqckg","pricing_plan_id":"cebpf4jnsgd1na2vs0mg"},{"bike_id":"dcd711c6-0b92-490f-97df-470d44c16843","system_id":"levelo_inurba_marseille","lat":43.27916,"lon":5.39594,"is_reserved":false,"is_disabled":false,"rental_uris":{"android":"levelo://app?vid=dcd711c6-0b92-490f-97df-470d44c16843","ios":"levelo://app?vid=dcd711c6-0b92-490f-97df-470d44c16843"},"vehicle_type_id":"4","last_reported":1735888107,"current_range_meters":36800,"station_id":"ce4bhf92rcd13ifvqf40","pricing_plan_id":"cebpf4jnsgd1na2vs0mg"},{"bike_id":"ef5fc943-b415-4f42-b453-4a835dbd3d2b","system_id":"levelo_inurba_marseille","lat":43.30945,"lon":5.40136,"is_reserved":false,"is_disabled":false,"rental_uris":{"android":"levelo://app?vid=ef5fc943-b415-4f42-b453-4a835dbd3d2b","ios":"levelo://app?vid=ef5fc943-b415-4f42-b453-4a835dbd3d2b"},"vehicle_type_id":"4","last_reported":1735888107,"current_range_meters":32800,"station_id":"ce4bgvp2rcd13ifvqct0","pricing_plan_id":"cebpf4jnsgd1na2vs0mg"},{"bike_id":"4a1ad4c0-f6d8-4f02-a755-37ff4cc1ad61","system_id":"levelo_inurba_marseille","lat":43.25827,"lon":5.39428,"is_reserved":false,"is_disabled":false,"rental_uris":{"android":"levelo://app?vid=4a1ad4c0-f6d8-4f02-a755-37ff4cc1ad61","ios":"levelo://app?vid=4a1ad4c0-f6d8-4f02-a755-37ff4cc1ad61"},"vehicle_type_id":"4","last_reported":1735888107,"current_range_meters":38400,"station_id":"ce4bhip2rcd13ifvqft0","pricing_plan_id":"cebpf4jnsgd1na2vs0mg"},{"bike_id":"f42e7863-652c-4650-920a-8ae4567b98da","system_id":"levelo_inurba_marseille","lat":43.32362,"lon":5.38882,"is_reserved":false,"is_disabled":false,"rental_uris":{"android":"levelo://app?vid=f42e7863-652c-4650-920a-8ae4567b98da","ios":"levelo://app?vid=f42e7863-652c-4650-920a-8ae4567b98da"},"vehicle_type_id":"4","last_reported":1735888107,"current_range_meters":14000,"station_id":"ce4bhqp2rcd13ifvqhog","pricing_plan_id":"cebpf4jnsgd1na2vs0mg"},{"bike_id":"1edca33b-8d82-4613-945e-057a682428fe","system_id":"levelo_inurba_marseille","lat":43.33107,"lon":5.38226,"is_reserved":false,"is_disabled":false,"rental_uris":{"android":"levelo://app?vid=1edca33b-8d82-4613-945e-057a682428fe","ios":"levelo://app?vid=1edca33b-8d82-4613-945e-057a682428fe"},"vehicle_type_id":"4","last_reported":1735888107,"current_range_meters":35600,"station_id":"","pricing_plan_id":"cebpf4jnsgd1na2vs0mg"},{"bike_id":"90be4ecf-e9e3-49e6-8acd-ca50a85b4085","system_id":"levelo_inurba_marseille","lat":43.312366,"lon":5.368757,"is_reserved":false,"is_disabled":true,"rental_uris":{"android":"levelo://app?vid=90be4ecf-e9e3-49e6-8acd-ca50a85b4085","ios":"levelo://app?vid=90be4ecf-e9e3-49e6-8acd-ca50a85b4085"},"vehicle_type_id":"4","last_reported":1735888107,"current_range_meters":24000,"station_id":"ce4bgl92rcd13ifvqbq0","pricing_plan_id":"cebpf4jnsgd1na2vs0mg"},{"bike_id":"bcc47b98-405a-4d86-8e5f-bbe262abbd0d","system_id":"levelo_inurba_marseille","lat":43.32121,"lon":5.36794,"is_reserved":false,"is_disabled":false,"rental_uris":{"android":"levelo://app?vid=bcc47b98-405a-4d86-8e5f-bbe262abbd0d","ios":"levelo://app?vid=bcc47b98-405a-4d86-8e5f-bbe262abbd0d"},"vehicle_type_id":"4","last_reported":1735888107,"current_range_meters":27200,"station_id":"ce4bhrh2rcd13ifvqhug","pricing_plan_id":"cebpf4jnsgd1na2vs0mg"},{"bike_id":"4ff02992-46d1-4939-b33e-7e9de4ef7281","system_id":"levelo_inurba_marseille","lat":43.25836,"lon":5.39429,"is_reserved":false,"is_disabled":false,"rental_uris":{"android":"levelo://app?vid=4ff02992-46d1-4939-b33e-7e9de4ef7281","ios":"levelo://app?vid=4ff02992-46d1-4939-b33e-7e9de4ef7281"},"vehicle_type_id":"4","last_reported":1735888107,"current_range_meters":28400,"station_id":"ce4bhip2rcd13ifvqft0","pricing_plan_id":"cebpf4jnsgd1na2vs0mg"},{"bike_id":"a9729bac-b14c-4f28-bb26-3ce80633fcc6","system_id":"levelo_inurba_marseille","lat":43.2781,"lon":5.40718,"is_reserved":false,"is_disabled":false,"rental_uris":{"android":"levelo://app?vid=a9729bac-b14c-4f28-bb26-3ce80633fcc6","ios":"levelo://app?vid=a9729bac-b14c-4f28-bb26-3ce80633fcc6"},"vehicle_type_id":"4","last_reported":1735888107,"current_range_meters":36800,"station_id":"ce4bhnh2rcd13ifvqgtg","pricing_plan_id":"cebpf4jnsgd1na2vs0mg"},{"bike_id":"027085de-3c06-4c90-8099-b9537f78e863","system_id":"levelo_inurba_marseille","lat":43.23174,"lon":5.43657,"is_reserved":false,"is_disabled":false,"rental_uris":{"android":"levelo://app?vid=027085de-3c06-4c90-8099-b9537f78e863","ios":"levelo://app?vid=027085de-3c06-4c90-8099-b9537f78e863"},"vehicle_type_id":"4","last_reported":1735888107,"current_range_meters":27200,"station_id":"ce4bhmp2rcd13ifvqgog","pricing_plan_id":"cebpf4jnsgd1na2vs0mg"},{"bike_id":"4b6a41bf-6158-4f95-8733-20938233d170","system_id":"levelo_inurba_marseille","lat":43.25724,"lon":5.41108,"is_reserved":false,"is_disabled":false,"rental_uris":{"android":"levelo://app?vid=4b6a41bf-6158-4f95-8733-20938233d170","ios":"levelo://app?vid=4b6a41bf-6158-4f95-8733-20938233d170"},"vehicle_type_id":"4","last_reported":1735888107,"current_range_meters":39200,"station_id":"ce4bhkp2rcd13ifvqgd0","pricing_plan_id":"cebpf4jnsgd1na2vs0mg"},{"bike_id":"d936b726-436d-4e1d-883d-74d49ddbe842","system_id":"levelo_inurba_marseille","lat":43.315329,"lon":5.380311,"is_reserved":false,"is_disabled":false,"rental_uris":{"android":"levelo://app?vid=d936b726-436d-4e1d-883d-74d49ddbe842","ios":"levelo://app?vid=d936b726-436d-4e1d-883d-74d49ddbe842"},"vehicle_type_id":"4","last_reported":1735888107,"current_range_meters":14400,"station_id":"ce4bhsp2rcd13ifvqi50","pricing_plan_id":"cebpf4jnsgd1na2vs0mg"},{"bike_id":"c962b62b-e6ad-482e-b4f4-072d3250af7f","system_id":"levelo_inurba_marseille","lat":43.25704,"lon":5.41093,"is_reserved":false,"is_disabled":false,"rental_uris":{"android":"levelo://app?vid=c962b62b-e6ad-482e-b4f4-072d3250af7f","ios":"levelo://app?vid=c962b62b-e6ad-482e-b4f4-072d3250af7f"},"vehicle_type_id":"4","last_reported":1735888107,"current_range_meters":28800,"station_id":"ce4bhkp2rcd13ifvqgd0","pricing_plan_id":"cebpf4jnsgd1na2vs0mg"},{"bike_id":"7a63d77d-b3e4-4713-9060-b918ad8247d2","system_id":"levelo_inurba_marseille","lat":43.22947,"lon":5.3537,"is_reserved":false,"is_disabled":false,"rental_uris":{"android":"levelo://app?vid=7a63d77d-b3e4-4713-9060-b918ad8247d2","ios":"levelo://app?vid=7a63d77d-b3e4-4713-9060-b918ad8247d2"},"vehicle_type_id":"4","last_reported":1735888107,"current_range_meters":36800,"station_id":"cpo3532slgdg3j2ikp40","pricing_plan_id":"cebpf4jnsgd1na2vs0mg"},{"bike_id":"55e21000-1bfe-4926-9e9b-bbab942d7159","system_id":"levelo_inurba_marseille","lat":43.28041,"lon":5.39428,"is_reserved":false,"is_disabled":false,"rental_uris":{"android":"levelo://app?vid=55e21000-1bfe-4926-9e9b-bbab942d7159","ios":"levelo://app?vid=55e21000-1bfe-4926-9e9b-bbab942d7159"},"vehicle_type_id":"4","last_reported":1735888107,"current_range_meters":9200,"station_id":"","pricing_plan_id":"cebpf4jnsgd1na2vs0mg"},{"bike_id":"68a83683-54d4-4d13-b71e-dd5930123830","system_id":"levelo_inurba_marseille","lat":43.29798,"lon":5.38107,"is_reserved":false,"is_disabled":false,"rental_uris":{"android":"levelo://app?vid=68a83683-54d4-4d13-b71e-dd5930123830","ios":"levelo://app?vid=68a83683-54d4-4d13-b71e-dd5930123830"},"vehicle_type_id":"4","last_reported":1735888107,"current_range_meters":36000,"station_id":"ce4bgip2rcd13ifvqbb0","pricing_plan_id":"cebpf4jnsgd1na2vs0mg"},{"bike_id":"277d9579-fc29-4ce6-94cb-f3e169453ace","system_id":"levelo_inurba_marseille","lat":43.31756,"lon":5.39017,"is_reserved":false,"is_disabled":false,"rental_uris":{"android":"levelo://app?vid=277d9579-fc29-4ce6-94cb-f3e169453ace","ios":"levelo://app?vid=277d9579-fc29-4ce6-94cb-f3e169453ace"},"vehicle_type_id":"4","last_reported":1735888107,"current_range_meters":38800,"station_id":"ce4bhqp2rcd13ifvqhng","pricing_plan_id":"cebpf4jnsgd1na2vs0mg"},{"bike_id":"3c7472a4-a45c-4f46-a692-aa44ebf92f21","system_id":"levelo_inurba_marseille","lat":43.2748,"lon":5.3949,"is_reserved":false,"is_disabled":false,"rental_uris":{"android":"levelo://app?vid=3c7472a4-a45c-4f46-a692-aa44ebf92f21","ios":"levelo://app?vid=3c7472a4-a45c-4f46-a692-aa44ebf92f21"},"vehicle_type_id":"4","last_reported":1735888107,"current_range_meters":32400,"station_id":"","pricing_plan_id":"cebpf4jnsgd1na2vs0mg"},{"bike_id":"15f428d5-04a0-4b6a-a23c-757c18fbf743","system_id":"levelo_inurba_marseille","lat":43.30873,"lon":5.39648,"is_reserved":false,"is_disabled":false,"rental_uris":{"android":"levelo://app?vid=15f428d5-04a0-4b6a-a23c-757c18fbf743","ios":"levelo://app?vid=15f428d5-04a0-4b6a-a23c-757c18fbf743"},"vehicle_type_id":"4","last_reported":1735888107,"current_range_meters":39200,"station_id":"ce4bh012rcd13ifvqcv0","pricing_plan_id":"cebpf4jnsgd1na2vs0mg"},{"bike_id":"034b0005-8956-45a9-ad90-f0ac541944e7","system_id":"levelo_inurba_marseille","lat":43.26938,"lon":5.38929,"is_reserved":false,"is_disabled":true,"rental_uris":{"android":"levelo://app?vid=034b0005-8956-45a9-ad90-f0ac541944e7","ios":"levelo://app?vid=034b0005-8956-45a9-ad90-f0ac541944e7"},"vehicle_type_id":"4","last_reported":1735888107,"current_range_meters":28400,"station_id":"ce4bhhh2rcd13ifvqfl0","pricing_plan_id":"cebpf4jnsgd1na2vs0mg"},{"bike_id":"60aa8768-465e-4e59-8359-ab05b91a90a1","system_id":"levelo_inurba_marseille","lat":43.28948,"lon":5.36382,"is_reserved":false,"is_disabled":false,"rental_uris":{"android":"levelo://app?vid=60aa8768-465e-4e59-8359-ab05b91a90a1","ios":"levelo://app?vid=60aa8768-465e-4e59-8359-ab05b91a90a1"},"vehicle_type_id":"4","last_reported":1735888107,"current_range_meters":38800,"station_id":"ce4bhc92rcd13ifvqetg","pricing_plan_id":"cebpf4jnsgd1na2vs0mg"},{"bike_id":"b5b2166a-b0b8-4fc4-9960-24fcf8dddf0c","system_id":"levelo_inurba_marseille","lat":43.30825,"lon":5.38059,"is_reserved":false,"is_disabled":false,"rental_uris":{"android":"levelo://app?vid=b5b2166a-b0b8-4fc4-9960-24fcf8dddf0c","ios":"levelo://app?vid=b5b2166a-b0b8-4fc4-9960-24fcf8dddf0c"},"vehicle_type_id":"4","last_reported":1735888107,"current_range_meters":16400,"station_id":"","pricing_plan_id":"cebpf4jnsgd1na2vs0mg"},{"bike_id":"4b9b3c02-7773-410b-a74d-2537aad0fdc1","system_id":"levelo_inurba_marseille","lat":43.28404,"lon":5.37505,"is_reserved":false,"is_disabled":false,"rental_uris":{"android":"levelo://app?vid=4b9b3c02-7773-410b-a74d-2537aad0fdc1","ios":"levelo://app?vid=4b9b3c02-7773-410b-a74d-2537aad0fdc1"},"vehicle_type_id":"4","last_reported":1735888107,"current_range_meters":24000,"station_id":"ce4bh412rcd13ifvqds0","pricing_plan_id":"cebpf4jnsgd1na2vs0mg"},{"bike_id":"e3736c07-1f20-46a9-8fea-1baae69a6a9b","system_id":"levelo_inurba_marseille","lat":43.29553,"lon":5.38544,"is_reserved":false,"is_disabled":true,"rental_uris":{"android":"levelo://app?vid=e3736c07-1f20-46a9-8fea-1baae69a6a9b","ios":"levelo://app?vid=e3736c07-1f20-46a9-8fea-1baae69a6a9b"},"vehicle_type_id":"4","last_reported":1735888107,"current_range_meters":14000,"station_id":"ce4bgih2rcd13ifvqba0","pricing_plan_id":"cebpf4jnsgd1na2vs0mg"},{"bike_id":"1be7cd26-cea4-4ed2-9f87-bb295a3586b7","system_id":"levelo_inurba_marseille","lat":43.30927,"lon":5.40147,"is_reserved":false,"is_disabled":true,"rental_uris":{"android":"levelo://app?vid=1be7cd26-cea4-4ed2-9f87-bb295a3586b7","ios":"levelo://app?vid=1be7cd26-cea4-4ed2-9f87-bb295a3586b7"},"vehicle_type_id":"4","last_reported":1735888107,"current_range_meters":36400,"station_id":"ce4bgvp2rcd13ifvqct0","pricing_plan_id":"cebpf4jnsgd1na2vs0mg"},{"bike_id":"2d37891b-3e35-407f-964b-7c262ae2b2d0","system_id":"levelo_inurba_marseille","lat":43.29419,"lon":5.38091,"is_reserved":false,"is_disabled":true,"rental_uris":{"android":"levelo://app?vid=2d37891b-3e35-407f-964b-7c262ae2b2d0","ios":"levelo://app?vid=2d37891b-3e35-407f-964b-7c262ae2b2d0"},"vehicle_type_id":"4","last_reported":1735888107,"current_range_meters":0,"station_id":"","pricing_plan_id":"cebpf4jnsgd1na2vs0mg"},{"bike_id":"7f968a75-73e1-4ea3-8232-1b89f91e799d","system_id":"levelo_inurba_marseille","lat":43.30805,"lon":5.39706,"is_reserved":false,"is_disabled":false,"rental_uris":{"android":"levelo://app?vid=7f968a75-73e1-4ea3-8232-1b89f91e799d","ios":"levelo://app?vid=7f968a75-73e1-4ea3-8232-1b89f91e799d"},"vehicle_type_id":"4","last_reported":1735888107,"current_range_meters":27600,"station_id":"ce4bh012rcd13ifvqcv0","pricing_plan_id":"cebpf4jnsgd1na2vs0mg"},{"bike_id":"a704d00f-fa02-4fe3-91e2-2416c16951bb","system_id":"levelo_inurba_marseille","lat":43.24074,"lon":5.37737,"is_reserved":false,"is_disabled":false,"rental_uris":{"android":"levelo://app?vid=a704d00f-fa02-4fe3-91e2-2416c16951bb","ios":"levelo://app?vid=a704d00f-fa02-4fe3-91e2-2416c16951bb"},"vehicle_type_id":"4","last_reported":1735888107,"current_range_meters":38800,"station_id":"ce4bhnp2rcd13ifvqgvg","pricing_plan_id":"cebpf4jnsgd1na2vs0mg"},{"bike_id":"2332862a-3884-4317-af82-ee9793e9b62c","system_id":"levelo_inurba_marseille","lat":43.24081,"lon":5.37754,"is_reserved":false,"is_disabled":false,"rental_uris":{"android":"levelo://app?vid=2332862a-3884-4317-af82-ee9793e9b62c","ios":"levelo://app?vid=2332862a-3884-4317-af82-ee9793e9b62c"},"vehicle_type_id":"4","last_reported":1735888107,"current_range_meters":23200,"station_id":"ce4bhnp2rcd13ifvqgvg","pricing_plan_id":"cebpf4jnsgd1na2vs0mg"},{"bike_id":"1b0b8897-032a-46c6-aaf7-d764fab8e97a","system_id":"levelo_inurba_marseille","lat":43.25872,"lon":5.39891,"is_reserved":false,"is_disabled":false,"rental_uris":{"android":"levelo://app?vid=1b0b8897-032a-46c6-aaf7-d764fab8e97a","ios":"levelo://app?vid=1b0b8897-032a-46c6-aaf7-d764fab8e97a"},"vehicle_type_id":"4","last_reported":1735888107,"current_range_meters":38800,"station_id":"ce4bhl92rcd13ifvqghg","pricing_plan_id":"cebpf4jnsgd1na2vs0mg"},{"bike_id":"e6fa8bd9-5f74-401a-b12e-57e85af877cf","system_id":"levelo_inurba_marseille","lat":43.30334,"lon":5.36931,"is_reserved":false,"is_disabled":false,"rental_uris":{"android":"levelo://app?vid=e6fa8bd9-5f74-401a-b12e-57e85af877cf","ios":"levelo://app?vid=e6fa8bd9-5f74-401a-b12e-57e85af877cf"},"vehicle_type_id":"4","last_reported":1735888107,"current_range_meters":26800,"station_id":"ce4bgqh2rcd13ifvqc5g","pricing_plan_id":"cebpf4jnsgd1na2vs0mg"},{"bike_id":"4483098c-d27d-4534-ad16-c209ae457c9a","system_id":"levelo_inurba_marseille","lat":43.31525,"lon":5.38035,"is_reserved":false,"is_disabled":false,"rental_uris":{"android":"levelo://app?vid=4483098c-d27d-4534-ad16-c209ae457c9a","ios":"levelo://app?vid=4483098c-d27d-4534-ad16-c209ae457c9a"},"vehicle_type_id":"4","last_reported":1735888107,"current_range_meters":39200,"station_id":"ce4bhsp2rcd13ifvqi50","pricing_plan_id":"cebpf4jnsgd1na2vs0mg"},{"bike_id":"b0f40622-14a2-47af-8c8c-4a938f1cf2c3","system_id":"levelo_inurba_marseille","lat":43.2886,"lon":5.35854,"is_reserved":false,"is_disabled":false,"rental_uris":{"android":"levelo://app?vid=b0f40622-14a2-47af-8c8c-4a938f1cf2c3","ios":"levelo://app?vid=b0f40622-14a2-47af-8c8c-4a938f1cf2c3"},"vehicle_type_id":"4","last_reported":1735888107,"current_range_meters":30400,"station_id":"ce4bhb12rcd13ifvqem0","pricing_plan_id":"cebpf4jnsgd1na2vs0mg"},{"bike_id":"6e51dd9f-cdd7-4e88-a3a7-736fac684727","system_id":"levelo_inurba_marseille","lat":43.31077,"lon":5.38345,"is_reserved":false,"is_disabled":false,"rental_uris":{"android":"levelo://app?vid=6e51dd9f-cdd7-4e88-a3a7-736fac684727","ios":"levelo://app?vid=6e51dd9f-cdd7-4e88-a3a7-736fac684727"},"vehicle_type_id":"4","last_reported":1735888107,"current_range_meters":20400,"station_id":"ce4bgv92rcd13ifvqcr0","pricing_plan_id":"cebpf4jnsgd1na2vs0mg"},{"bike_id":"2cad5e9d-f183-4c3f-a642-7c176e4884d1","system_id":"levelo_inurba_marseille","lat":43.25837,"lon":5.39446,"is_reserved":false,"is_disabled":false,"rental_uris":{"android":"levelo://app?vid=2cad5e9d-f183-4c3f-a642-7c176e4884d1","ios":"levelo://app?vid=2cad5e9d-f183-4c3f-a642-7c176e4884d1"},"vehicle_type_id":"4","last_reported":1735888107,"current_range_meters":36800,"station_id":"ce4bhip2rcd13ifvqft0","pricing_plan_id":"cebpf4jnsgd1na2vs0mg"},{"bike_id":"2bc85ea5-00ae-44c0-a255-cc0d04be90b9","system_id":"levelo_inurba_marseille","lat":43.284215,"lon":5.350019,"is_reserved":false,"is_disabled":false,"rental_uris":{"android":"levelo://app?vid=2bc85ea5-00ae-44c0-a255-cc0d04be90b9","ios":"levelo://app?vid=2bc85ea5-00ae-44c0-a255-cc0d04be90b9"},"vehicle_type_id":"4","last_reported":1735888107,"current_range_meters":10000,"station_id":"ce4bhbh2rcd13ifvqepg","pricing_plan_id":"cebpf4jnsgd1na2vs0mg"},{"bike_id":"9ec22bb6-ddde-4544-bfca-bd222a10c5d4","system_id":"levelo_inurba_marseille","lat":43.28634,"lon":5.3508,"is_reserved":false,"is_disabled":false,"rental_uris":{"android":"levelo://app?vid=9ec22bb6-ddde-4544-bfca-bd222a10c5d4","ios":"levelo://app?vid=9ec22bb6-ddde-4544-bfca-bd222a10c5d4"},"vehicle_type_id":"4","last_reported":1735888107,"current_range_meters":9600,"station_id":"ce4bhch2rcd13ifvqeug","pricing_plan_id":"cebpf4jnsgd1na2vs0mg"},{"bike_id":"97906f7b-eda2-4c80-8b4b-122bc957a1cd","system_id":"levelo_inurba_marseille","lat":43.28615,"lon":5.35116,"is_reserved":false,"is_disabled":true,"rental_uris":{"android":"levelo://app?vid=97906f7b-eda2-4c80-8b4b-122bc957a1cd","ios":"levelo://app?vid=97906f7b-eda2-4c80-8b4b-122bc957a1cd"},"vehicle_type_id":"4","last_reported":1735888107,"current_range_meters":22400,"station_id":"ce4bhch2rcd13ifvqeug","pricing_plan_id":"cebpf4jnsgd1na2vs0mg"},{"bike_id":"1c062351-f698-4ee4-87ae-fce7281bfbb0","system_id":"levelo_inurba_marseille","lat":43.295269,"lon":5.38548,"is_reserved":false,"is_disabled":false,"rental_uris":{"android":"levelo://app?vid=1c062351-f698-4ee4-87ae-fce7281bfbb0","ios":"levelo://app?vid=1c062351-f698-4ee4-87ae-fce7281bfbb0"},"vehicle_type_id":"4","last_reported":1735888107,"current_range_meters":37600,"station_id":"ce4bgih2rcd13ifvqba0","pricing_plan_id":"cebpf4jnsgd1na2vs0mg"},{"bike_id":"a767814d-32c1-4888-928e-16b2e9383b03","system_id":"levelo_inurba_marseille","lat":43.28698,"lon":5.38661,"is_reserved":false,"is_disabled":false,"rental_uris":{"android":"levelo://app?vid=a767814d-32c1-4888-928e-16b2e9383b03","ios":"levelo://app?vid=a767814d-32c1-4888-928e-16b2e9383b03"},"vehicle_type_id":"4","last_reported":1735888107,"current_range_meters":38800,"station_id":"ce4bh492rcd13ifvqdug","pricing_plan_id":"cebpf4jnsgd1na2vs0mg"},{"bike_id":"6ae21bf4-723a-4bec-a078-944e55a17a07","system_id":"levelo_inurba_marseille","lat":43.3133,"lon":5.39694,"is_reserved":false,"is_disabled":false,"rental_uris":{"android":"levelo://app?vid=6ae21bf4-723a-4bec-a078-944e55a17a07","ios":"levelo://app?vid=6ae21bf4-723a-4bec-a078-944e55a17a07"},"vehicle_type_id":"4","last_reported":1735888107,"current_range_meters":24000,"station_id":"ce4bgvp2rcd13ifvqcu0","pricing_plan_id":"cebpf4jnsgd1na2vs0mg"},{"bike_id":"8c1a59b4-2c8f-4307-8a5a-eec2cd0e5913","system_id":"levelo_inurba_marseille","lat":43.30273,"lon":5.37705,"is_reserved":false,"is_disabled":false,"rental_uris":{"android":"levelo://app?vid=8c1a59b4-2c8f-4307-8a5a-eec2cd0e5913","ios":"levelo://app?vid=8c1a59b4-2c8f-4307-8a5a-eec2cd0e5913"},"vehicle_type_id":"4","last_reported":1735888107,"current_range_meters":38800,"station_id":"ce4bguh2rcd13ifvqcj0","pricing_plan_id":"cebpf4jnsgd1na2vs0mg"},{"bike_id":"a1c87532-6196-402b-916e-8ad945b95f72","system_id":"levelo_inurba_marseille","lat":43.25116,"lon":5.40334,"is_reserved":false,"is_disabled":false,"rental_uris":{"android":"levelo://app?vid=a1c87532-6196-402b-916e-8ad945b95f72","ios":"levelo://app?vid=a1c87532-6196-402b-916e-8ad945b95f72"},"vehicle_type_id":"4","last_reported":1735888107,"current_range_meters":9200,"station_id":"ce4bhlh2rcd13ifvqgig","pricing_plan_id":"cebpf4jnsgd1na2vs0mg"},{"bike_id":"4ce38f45-b3ef-4ce1-84b1-8cf7c7ee4592","system_id":"levelo_inurba_marseille","lat":43.27946,"lon":5.41043,"is_reserved":false,"is_disabled":false,"rental_uris":{"android":"levelo://app?vid=4ce38f45-b3ef-4ce1-84b1-8cf7c7ee4592","ios":"levelo://app?vid=4ce38f45-b3ef-4ce1-84b1-8cf7c7ee4592"},"vehicle_type_id":"4","last_reported":1735888107,"current_range_meters":30000,"station_id":"ce4bhnp2rcd13ifvqh0g","pricing_plan_id":"cebpf4jnsgd1na2vs0mg"},{"bike_id":"249b9bdd-ae2a-4d4a-8d50-4d8b0271c881","system_id":"levelo_inurba_marseille","lat":43.27375,"lon":5.36237,"is_reserved":false,"is_disabled":false,"rental_uris":{"android":"levelo://app?vid=249b9bdd-ae2a-4d4a-8d50-4d8b0271c881","ios":"levelo://app?vid=249b9bdd-ae2a-4d4a-8d50-4d8b0271c881"},"vehicle_type_id":"4","last_reported":1735888107,"current_range_meters":29600,"station_id":"ce4bhbh2rcd13ifvqeo0","pricing_plan_id":"cebpf4jnsgd1na2vs0mg"},{"bike_id":"4d9834e9-3371-4204-9113-d5b77f750081","system_id":"levelo_inurba_marseille","lat":43.29042,"lon":5.39972,"is_reserved":false,"is_disabled":true,"rental_uris":{"android":"levelo://app?vid=4d9834e9-3371-4204-9113-d5b77f750081","ios":"levelo://app?vid=4d9834e9-3371-4204-9113-d5b77f750081"},"vehicle_type_id":"4","last_reported":1735888107,"current_range_meters":30800,"station_id":"ce4bh392rcd13ifvqdm0","pricing_plan_id":"cebpf4jnsgd1na2vs0mg"},{"bike_id":"78572a2c-1c3f-4133-b287-846b2e936b8b","system_id":"levelo_inurba_marseille","lat":43.24051,"lon":5.37739,"is_reserved":false,"is_disabled":false,"rental_uris":{"android":"levelo://app?vid=78572a2c-1c3f-4133-b287-846b2e936b8b","ios":"levelo://app?vid=78572a2c-1c3f-4133-b287-846b2e936b8b"},"vehicle_type_id":"4","last_reported":1735888107,"current_range_meters":37600,"station_id":"ce4bhnp2rcd13ifvqgvg","pricing_plan_id":"cebpf4jnsgd1na2vs0mg"},{"bike_id":"5f1486d7-4fae-4801-9d26-fff2da0e4875","system_id":"levelo_inurba_marseille","lat":43.31999,"lon":5.38148,"is_reserved":false,"is_disabled":false,"rental_uris":{"android":"levelo://app?vid=5f1486d7-4fae-4801-9d26-fff2da0e4875","ios":"levelo://app?vid=5f1486d7-4fae-4801-9d26-fff2da0e4875"},"vehicle_type_id":"4","last_reported":1735888107,"current_range_meters":32000,"station_id":"ce4bhr12rcd13ifvqhpg","pricing_plan_id":"cebpf4jnsgd1na2vs0mg"},{"bike_id":"b3c9c756-8404-49d9-9a02-e748fc0751ce","system_id":"levelo_inurba_marseille","lat":43.25827,"lon":5.39436,"is_reserved":false,"is_disabled":false,"rental_uris":{"android":"levelo://app?vid=b3c9c756-8404-49d9-9a02-e748fc0751ce","ios":"levelo://app?vid=b3c9c756-8404-49d9-9a02-e748fc0751ce"},"vehicle_type_id":"4","last_reported":1735888107,"current_range_meters":22800,"station_id":"ce4bhip2rcd13ifvqft0","pricing_plan_id":"cebpf4jnsgd1na2vs0mg"},{"bike_id":"2f857458-45ae-4306-9ffb-5d94252d59a5","system_id":"levelo_inurba_marseille","lat":43.24644,"lon":5.389,"is_reserved":false,"is_disabled":false,"rental_uris":{"android":"levelo://app?vid=2f857458-45ae-4306-9ffb-5d94252d59a5","ios":"levelo://app?vid=2f857458-45ae-4306-9ffb-5d94252d59a5"},"vehicle_type_id":"4","last_reported":1735888107,"current_range_meters":38800,"station_id":"ce4bhg12rcd13ifvqf60","pricing_plan_id":"cebpf4jnsgd1na2vs0mg"},{"bike_id":"0c44e8cb-6c44-450a-a3ff-5dfd7e18baf3","system_id":"levelo_inurba_marseille","lat":43.27999,"lon":5.41668,"is_reserved":false,"is_disabled":false,"rental_uris":{"android":"levelo://app?vid=0c44e8cb-6c44-450a-a3ff-5dfd7e18baf3","ios":"levelo://app?vid=0c44e8cb-6c44-450a-a3ff-5dfd7e18baf3"},"vehicle_type_id":"4","last_reported":1735888107,"current_range_meters":38800,"station_id":"ce4bho12rcd13ifvqh1g","pricing_plan_id":"cebpf4jnsgd1na2vs0mg"},{"bike_id":"25990fff-4e8a-4c9a-9f77-d0b15d680caa","system_id":"levelo_inurba_marseille","lat":43.26941,"lon":5.38629,"is_reserved":false,"is_disabled":true,"rental_uris":{"android":"levelo://app?vid=25990fff-4e8a-4c9a-9f77-d0b15d680caa","ios":"levelo://app?vid=25990fff-4e8a-4c9a-9f77-d0b15d680caa"},"vehicle_type_id":"4","last_reported":1735888107,"current_range_meters":18000,"station_id":"ce4bhh92rcd13ifvqfh0","pricing_plan_id":"cebpf4jnsgd1na2vs0mg"},{"bike_id":"62d408d0-e0fd-421c-8a1a-168ab701b6d1","system_id":"levelo_inurba_marseille","lat":43.28605,"lon":5.35098,"is_reserved":false,"is_disabled":false,"rental_uris":{"android":"levelo://app?vid=62d408d0-e0fd-421c-8a1a-168ab701b6d1","ios":"levelo://app?vid=62d408d0-e0fd-421c-8a1a-168ab701b6d1"},"vehicle_type_id":"4","last_reported":1735888107,"current_range_meters":22400,"station_id":"ce4bhch2rcd13ifvqeug","pricing_plan_id":"cebpf4jnsgd1na2vs0mg"},{"bike_id":"2170d6ca-e81b-4d62-8f72-aeeb5bab1c5b","system_id":"levelo_inurba_marseille","lat":43.26192,"lon":5.37465,"is_reserved":false,"is_disabled":false,"rental_uris":{"android":"levelo://app?vid=2170d6ca-e81b-4d62-8f72-aeeb5bab1c5b","ios":"levelo://app?vid=2170d6ca-e81b-4d62-8f72-aeeb5bab1c5b"},"vehicle_type_id":"4","last_reported":1735888107,"current_range_meters":15200,"station_id":"ce4bhgp2rcd13ifvqfc0","pricing_plan_id":"cebpf4jnsgd1na2vs0mg"},{"bike_id":"51855b67-dd6c-4e75-b660-5384b749b10b","system_id":"levelo_inurba_marseille","lat":43.31712,"lon":5.377838,"is_reserved":false,"is_disabled":false,"rental_uris":{"android":"levelo://app?vid=51855b67-dd6c-4e75-b660-5384b749b10b","ios":"levelo://app?vid=51855b67-dd6c-4e75-b660-5384b749b10b"},"vehicle_type_id":"4","last_reported":1735888107,"current_range_meters":38800,"station_id":"ce4bgth2rcd13ifvqch0","pricing_plan_id":"cebpf4jnsgd1na2vs0mg"},{"bike_id":"35a7ba4c-f349-421e-8ea6-42dfcb276c15","system_id":"levelo_inurba_marseille","lat":43.2971,"lon":5.37699,"is_reserved":false,"is_disabled":false,"rental_uris":{"android":"levelo://app?vid=35a7ba4c-f349-421e-8ea6-42dfcb276c15","ios":"levelo://app?vid=35a7ba4c-f349-421e-8ea6-42dfcb276c15"},"vehicle_type_id":"4","last_reported":1735888107,"current_range_meters":30800,"station_id":"ce4bgkh2rcd13ifvqbl0","pricing_plan_id":"cebpf4jnsgd1na2vs0mg"},{"bike_id":"56f472aa-6acc-47d3-ada3-27f6fe447e34","system_id":"levelo_inurba_marseille","lat":43.28102,"lon":5.3786,"is_reserved":false,"is_disabled":false,"rental_uris":{"android":"levelo://app?vid=56f472aa-6acc-47d3-ada3-27f6fe447e34","ios":"levelo://app?vid=56f472aa-6acc-47d3-ada3-27f6fe447e34"},"vehicle_type_id":"4","last_reported":1735888107,"current_range_meters":17600,"station_id":"ce4bha12rcd13ifvqee0","pricing_plan_id":"cebpf4jnsgd1na2vs0mg"},{"bike_id":"a34109c1-878e-429f-9326-63e9db216b66","system_id":"levelo_inurba_marseille","lat":43.2797,"lon":5.4103,"is_reserved":false,"is_disabled":true,"rental_uris":{"android":"levelo://app?vid=a34109c1-878e-429f-9326-63e9db216b66","ios":"levelo://app?vid=a34109c1-878e-429f-9326-63e9db216b66"},"vehicle_type_id":"4","last_reported":1735888107,"current_range_meters":23200,"station_id":"ce4bhnp2rcd13ifvqh0g","pricing_plan_id":"cebpf4jnsgd1na2vs0mg"},{"bike_id":"07914263-3d03-4738-b553-ee795a62a79e","system_id":"levelo_inurba_marseille","lat":43.25871,"lon":5.39947,"is_reserved":false,"is_disabled":false,"rental_uris":{"android":"levelo://app?vid=07914263-3d03-4738-b553-ee795a62a79e","ios":"levelo://app?vid=07914263-3d03-4738-b553-ee795a62a79e"},"vehicle_type_id":"4","last_reported":1735888107,"current_range_meters":27200,"station_id":"ce4bhl92rcd13ifvqghg","pricing_plan_id":"cebpf4jnsgd1na2vs0mg"},{"bike_id":"9e83b452-077b-4442-9934-11d5b260f040","system_id":"levelo_inurba_marseille","lat":43.26776,"lon":5.39455,"is_reserved":false,"is_disabled":true,"rental_uris":{"android":"levelo://app?vid=9e83b452-077b-4442-9934-11d5b260f040","ios":"levelo://app?vid=9e83b452-077b-4442-9934-11d5b260f040"},"vehicle_type_id":"4","last_reported":1735888107,"current_range_meters":27200,"station_id":"ce4bhh12rcd13ifvqfg0","pricing_plan_id":"cebpf4jnsgd1na2vs0mg"},{"bike_id":"5862ec90-0ecf-4daf-b43a-b43ae1ddb546","system_id":"levelo_inurba_marseille","lat":43.31691,"lon":5.40475,"is_reserved":false,"is_disabled":false,"rental_uris":{"android":"levelo://app?vid=5862ec90-0ecf-4daf-b43a-b43ae1ddb546","ios":"levelo://app?vid=5862ec90-0ecf-4daf-b43a-b43ae1ddb546"},"vehicle_type_id":"4","last_reported":1735888107,"current_range_meters":39200,"station_id":"ce4bh012rcd13ifvqd00","pricing_plan_id":"cebpf4jnsgd1na2vs0mg"},{"bike_id":"15d0178a-864e-4615-a31a-63c2aa43b2ba","system_id":"levelo_inurba_marseille","lat":43.31486,"lon":5.373,"is_reserved":false,"is_disabled":false,"rental_uris":{"android":"levelo://app?vid=15d0178a-864e-4615-a31a-63c2aa43b2ba","ios":"levelo://app?vid=15d0178a-864e-4615-a31a-63c2aa43b2ba"},"vehicle_type_id":"4","last_reported":1735888107,"current_range_meters":21600,"station_id":"ce4bgt12rcd13ifvqcd0","pricing_plan_id":"cebpf4jnsgd1na2vs0mg"},{"bike_id":"930d1246-af8a-4749-bccd-369ef682eb0b","system_id":"levelo_inurba_marseille","lat":43.28456,"lon":5.35889,"is_reserved":false,"is_disabled":false,"rental_uris":{"android":"levelo://app?vid=930d1246-af8a-4749-bccd-369ef682eb0b","ios":"levelo://app?vid=930d1246-af8a-4749-bccd-369ef682eb0b"},"vehicle_type_id":"4","last_reported":1735888107,"current_range_meters":33600,"station_id":"ce4bhah2rcd13ifvqei0","pricing_plan_id":"cebpf4jnsgd1na2vs0mg"},{"bike_id":"25c73ff4-b516-4ca7-9e8d-cb16f8cf8ef6","system_id":"levelo_inurba_marseille","lat":43.24059,"lon":5.37739,"is_reserved":false,"is_disabled":false,"rental_uris":{"android":"levelo://app?vid=25c73ff4-b516-4ca7-9e8d-cb16f8cf8ef6","ios":"levelo://app?vid=25c73ff4-b516-4ca7-9e8d-cb16f8cf8ef6"},"vehicle_type_id":"4","last_reported":1735888107,"current_range_meters":38400,"station_id":"ce4bhnp2rcd13ifvqgvg","pricing_plan_id":"cebpf4jnsgd1na2vs0mg"},{"bike_id":"827b0813-db3a-45cd-9f07-276eb24a36dd","system_id":"levelo_inurba_marseille","lat":43.31348,"lon":5.36721,"is_reserved":false,"is_disabled":false,"rental_uris":{"android":"levelo://app?vid=827b0813-db3a-45cd-9f07-276eb24a36dd","ios":"levelo://app?vid=827b0813-db3a-45cd-9f07-276eb24a36dd"},"vehicle_type_id":"4","last_reported":1735888107,"current_range_meters":18800,"station_id":"ce4bgr92rcd13ifvqc6g","pricing_plan_id":"cebpf4jnsgd1na2vs0mg"},{"bike_id":"1c65d5ca-002d-46d8-8cf8-e2765edf73c5","system_id":"levelo_inurba_marseille","lat":43.2834,"lon":5.38104,"is_reserved":false,"is_disabled":false,"rental_uris":{"android":"levelo://app?vid=1c65d5ca-002d-46d8-8cf8-e2765edf73c5","ios":"levelo://app?vid=1c65d5ca-002d-46d8-8cf8-e2765edf73c5"},"vehicle_type_id":"4","last_reported":1735888107,"current_range_meters":39200,"station_id":"ce4bh412rcd13ifvqdr0","pricing_plan_id":"cebpf4jnsgd1na2vs0mg"},{"bike_id":"ea32b928-7eb3-4fee-b386-0e661138c78a","system_id":"levelo_inurba_marseille","lat":43.30434,"lon":5.38903,"is_reserved":false,"is_disabled":false,"rental_uris":{"android":"levelo://app?vid=ea32b928-7eb3-4fee-b386-0e661138c78a","ios":"levelo://app?vid=ea32b928-7eb3-4fee-b386-0e661138c78a"},"vehicle_type_id":"4","last_reported":1735888107,"current_range_meters":28000,"station_id":"ce4bgk12rcd13ifvqbi0","pricing_plan_id":"cebpf4jnsgd1na2vs0mg"},{"bike_id":"8c075b15-cd04-4cb6-97b9-57194e3bb94c","system_id":"levelo_inurba_marseille","lat":43.30776,"lon":5.37653,"is_reserved":false,"is_disabled":false,"rental_uris":{"android":"levelo://app?vid=8c075b15-cd04-4cb6-97b9-57194e3bb94c","ios":"levelo://app?vid=8c075b15-cd04-4cb6-97b9-57194e3bb94c"},"vehicle_type_id":"4","last_reported":1735888107,"current_range_meters":16800,"station_id":"ce4bgv92rcd13ifvqcq0","pricing_plan_id":"cebpf4jnsgd1na2vs0mg"},{"bike_id":"a6f828f1-5f97-4da7-bf33-7d48a155db3e","system_id":"levelo_inurba_marseille","lat":43.278222,"lon":5.392014,"is_reserved":false,"is_disabled":false,"rental_uris":{"android":"levelo://app?vid=a6f828f1-5f97-4da7-bf33-7d48a155db3e","ios":"levelo://app?vid=a6f828f1-5f97-4da7-bf33-7d48a155db3e"},"vehicle_type_id":"4","last_reported":1735888107,"current_range_meters":32000,"station_id":"ce4bhjp2rcd13ifvqga0","pricing_plan_id":"cebpf4jnsgd1na2vs0mg"},{"bike_id":"bbefe573-2e5c-4fbf-a5d6-e0f28031c10d","system_id":"levelo_inurba_marseille","lat":43.31359,"lon":5.38509,"is_reserved":false,"is_disabled":false,"rental_uris":{"android":"levelo://app?vid=bbefe573-2e5c-4fbf-a5d6-e0f28031c10d","ios":"levelo://app?vid=bbefe573-2e5c-4fbf-a5d6-e0f28031c10d"},"vehicle_type_id":"4","last_reported":1735888107,"current_range_meters":38000,"station_id":"ce4bgt92rcd13ifvqcf0","pricing_plan_id":"cebpf4jnsgd1na2vs0mg"},{"bike_id":"97e13ddf-c974-499e-83cd-3303626944c0","system_id":"levelo_inurba_marseille","lat":43.25579,"lon":5.382348,"is_reserved":false,"is_disabled":false,"rental_uris":{"android":"levelo://app?vid=97e13ddf-c974-499e-83cd-3303626944c0","ios":"levelo://app?vid=97e13ddf-c974-499e-83cd-3303626944c0"},"vehicle_type_id":"4","last_reported":1735888107,"current_range_meters":38800,"station_id":"ce4bhih2rcd13ifvqfs0","pricing_plan_id":"cebpf4jnsgd1na2vs0mg"},{"bike_id":"2cb73bff-3a8c-4792-af59-167d685e0a29","system_id":"levelo_inurba_marseille","lat":43.313323,"lon":5.374778,"is_reserved":false,"is_disabled":false,"rental_uris":{"android":"levelo://app?vid=2cb73bff-3a8c-4792-af59-167d685e0a29","ios":"levelo://app?vid=2cb73bff-3a8c-4792-af59-167d685e0a29"},"vehicle_type_id":"4","last_reported":1735888107,"current_range_meters":36800,"station_id":"","pricing_plan_id":"cebpf4jnsgd1na2vs0mg"},{"bike_id":"15bf45e2-cc32-4d25-ae66-98a940b3062d","system_id":"levelo_inurba_marseille","lat":43.296338,"lon":5.405989,"is_reserved":false,"is_disabled":false,"rental_uris":{"android":"levelo://app?vid=15bf45e2-cc32-4d25-ae66-98a940b3062d","ios":"levelo://app?vid=15bf45e2-cc32-4d25-ae66-98a940b3062d"},"vehicle_type_id":"4","last_reported":1735888107,"current_range_meters":36800,"station_id":"ce4bh0h2rcd13ifvqd60","pricing_plan_id":"cebpf4jnsgd1na2vs0mg"},{"bike_id":"0d22c007-f5b2-4481-9b21-08f35f061702","system_id":"levelo_inurba_marseille","lat":43.29617,"lon":5.37148,"is_reserved":false,"is_disabled":true,"rental_uris":{"android":"levelo://app?vid=0d22c007-f5b2-4481-9b21-08f35f061702","ios":"levelo://app?vid=0d22c007-f5b2-4481-9b21-08f35f061702"},"vehicle_type_id":"4","last_reported":1735888107,"current_range_meters":0,"station_id":"ce4bgnh2rcd13ifvqc0g","pricing_plan_id":"cebpf4jnsgd1na2vs0mg"},{"bike_id":"a674cf4e-6283-4ce6-8819-659a9495f9ad","system_id":"levelo_inurba_marseille","lat":43.29047,"lon":5.39945,"is_reserved":false,"is_disabled":false,"rental_uris":{"android":"levelo://app?vid=a674cf4e-6283-4ce6-8819-659a9495f9ad","ios":"levelo://app?vid=a674cf4e-6283-4ce6-8819-659a9495f9ad"},"vehicle_type_id":"4","last_reported":1735888107,"current_range_meters":32400,"station_id":"ce4bh392rcd13ifvqdm0","pricing_plan_id":"cebpf4jnsgd1na2vs0mg"},{"bike_id":"0fb09dc4-c559-469b-b944-d0167194cfca","system_id":"levelo_inurba_marseille","lat":43.27946,"lon":5.4105,"is_reserved":false,"is_disabled":false,"rental_uris":{"android":"levelo://app?vid=0fb09dc4-c559-469b-b944-d0167194cfca","ios":"levelo://app?vid=0fb09dc4-c559-469b-b944-d0167194cfca"},"vehicle_type_id":"4","last_reported":1735888107,"current_range_meters":2800,"station_id":"ce4bhnp2rcd13ifvqh0g","pricing_plan_id":"cebpf4jnsgd1na2vs0mg"},{"bike_id":"e763b9cf-65eb-4131-8b74-455e6f49dde4","system_id":"levelo_inurba_marseille","lat":43.32475,"lon":5.36555,"is_reserved":false,"is_disabled":false,"rental_uris":{"android":"levelo://app?vid=e763b9cf-65eb-4131-8b74-455e6f49dde4","ios":"levelo://app?vid=e763b9cf-65eb-4131-8b74-455e6f49dde4"},"vehicle_type_id":"4","last_reported":1735888107,"current_range_meters":12000,"station_id":"ce4bhs12rcd13ifvqhvg","pricing_plan_id":"cebpf4jnsgd1na2vs0mg"},{"bike_id":"4ec9a40c-8280-4de8-96a4-11e7ba503642","system_id":"levelo_inurba_marseille","lat":43.23862,"lon":5.38984,"is_reserved":false,"is_disabled":true,"rental_uris":{"android":"levelo://app?vid=4ec9a40c-8280-4de8-96a4-11e7ba503642","ios":"levelo://app?vid=4ec9a40c-8280-4de8-96a4-11e7ba503642"},"vehicle_type_id":"4","last_reported":1735888107,"current_range_meters":800,"station_id":"","pricing_plan_id":"cebpf4jnsgd1na2vs0mg"},{"bike_id":"e0fa08a6-be81-49cf-8513-a0d798ea88aa","system_id":"levelo_inurba_marseille","lat":43.28672,"lon":5.36353,"is_reserved":false,"is_disabled":false,"rental_uris":{"android":"levelo://app?vid=e0fa08a6-be81-49cf-8513-a0d798ea88aa","ios":"levelo://app?vid=e0fa08a6-be81-49cf-8513-a0d798ea88aa"},"vehicle_type_id":"4","last_reported":1735888107,"current_range_meters":36400,"station_id":"ce4bhah2rcd13ifvqej0","pricing_plan_id":"cebpf4jnsgd1na2vs0mg"},{"bike_id":"f811a98b-9aa7-419d-8e74-1c4088ab1bbc","system_id":"levelo_inurba_marseille","lat":43.27072,"lon":5.42267,"is_reserved":false,"is_disabled":false,"rental_uris":{"android":"levelo://app?vid=f811a98b-9aa7-419d-8e74-1c4088ab1bbc","ios":"levelo://app?vid=f811a98b-9aa7-419d-8e74-1c4088ab1bbc"},"vehicle_type_id":"4","last_reported":1735888107,"current_range_meters":38800,"station_id":"ce4bhk92rcd13ifvqgb0","pricing_plan_id":"cebpf4jnsgd1na2vs0mg"},{"bike_id":"8f236aa0-69d9-4777-af98-8397a0b1ff94","system_id":"levelo_inurba_marseille","lat":43.28159,"lon":5.4264,"is_reserved":false,"is_disabled":true,"rental_uris":{"android":"levelo://app?vid=8f236aa0-69d9-4777-af98-8397a0b1ff94","ios":"levelo://app?vid=8f236aa0-69d9-4777-af98-8397a0b1ff94"},"vehicle_type_id":"4","last_reported":1735888107,"current_range_meters":6800,"station_id":"ce4bhnh2rcd13ifvqgug","pricing_plan_id":"cebpf4jnsgd1na2vs0mg"},{"bike_id":"f91168e5-3a6a-477b-824d-bfc9fbc12320","system_id":"levelo_inurba_marseille","lat":43.30313,"lon":5.36887,"is_reserved":false,"is_disabled":false,"rental_uris":{"android":"levelo://app?vid=f91168e5-3a6a-477b-824d-bfc9fbc12320","ios":"levelo://app?vid=f91168e5-3a6a-477b-824d-bfc9fbc12320"},"vehicle_type_id":"4","last_reported":1735888107,"current_range_meters":37600,"station_id":"ce4bgqh2rcd13ifvqc5g","pricing_plan_id":"cebpf4jnsgd1na2vs0mg"},{"bike_id":"8e936699-fb94-4c05-a18e-6a31521ab968","system_id":"levelo_inurba_marseille","lat":43.284569,"lon":5.358994,"is_reserved":false,"is_disabled":false,"rental_uris":{"android":"levelo://app?vid=8e936699-fb94-4c05-a18e-6a31521ab968","ios":"levelo://app?vid=8e936699-fb94-4c05-a18e-6a31521ab968"},"vehicle_type_id":"4","last_reported":1735888107,"current_range_meters":36800,"station_id":"ce4bhah2rcd13ifvqei0","pricing_plan_id":"cebpf4jnsgd1na2vs0mg"},{"bike_id":"387a3faa-da54-496f-b5f6-4775a3993cfc","system_id":"levelo_inurba_marseille","lat":43.31228,"lon":5.36864,"is_reserved":false,"is_disabled":false,"rental_uris":{"android":"levelo://app?vid=387a3faa-da54-496f-b5f6-4775a3993cfc","ios":"levelo://app?vid=387a3faa-da54-496f-b5f6-4775a3993cfc"},"vehicle_type_id":"4","last_reported":1735888107,"current_range_meters":22000,"station_id":"ce4bgl92rcd13ifvqbq0","pricing_plan_id":"cebpf4jnsgd1na2vs0mg"},{"bike_id":"d9039fb6-1526-43a5-ab47-bf6c74051347","system_id":"levelo_inurba_marseille","lat":43.2816,"lon":5.42652,"is_reserved":false,"is_disabled":false,"rental_uris":{"android":"levelo://app?vid=d9039fb6-1526-43a5-ab47-bf6c74051347","ios":"levelo://app?vid=d9039fb6-1526-43a5-ab47-bf6c74051347"},"vehicle_type_id":"4","last_reported":1735888107,"current_range_meters":38000,"station_id":"ce4bhnh2rcd13ifvqgug","pricing_plan_id":"cebpf4jnsgd1na2vs0mg"},{"bike_id":"4c5b21c9-cceb-4647-bd76-de90a80bb2e5","system_id":"levelo_inurba_marseille","lat":43.26682,"lon":5.38262,"is_reserved":false,"is_disabled":false,"rental_uris":{"android":"levelo://app?vid=4c5b21c9-cceb-4647-bd76-de90a80bb2e5","ios":"levelo://app?vid=4c5b21c9-cceb-4647-bd76-de90a80bb2e5"},"vehicle_type_id":"4","last_reported":1735888107,"current_range_meters":36800,"station_id":"ce4bhg92rcd13ifvqf90","pricing_plan_id":"cebpf4jnsgd1na2vs0mg"},{"bike_id":"536ced03-f935-46b5-972d-99c9305195ab","system_id":"levelo_inurba_marseille","lat":43.31064,"lon":5.38355,"is_reserved":false,"is_disabled":false,"rental_uris":{"android":"levelo://app?vid=536ced03-f935-46b5-972d-99c9305195ab","ios":"levelo://app?vid=536ced03-f935-46b5-972d-99c9305195ab"},"vehicle_type_id":"4","last_reported":1735888107,"current_range_meters":28400,"station_id":"ce4bgv92rcd13ifvqcr0","pricing_plan_id":"cebpf4jnsgd1na2vs0mg"},{"bike_id":"31726578-174b-4af3-a782-5662a4e7c109","system_id":"levelo_inurba_marseille","lat":43.29195,"lon":5.39326,"is_reserved":false,"is_disabled":false,"rental_uris":{"android":"levelo://app?vid=31726578-174b-4af3-a782-5662a4e7c109","ios":"levelo://app?vid=31726578-174b-4af3-a782-5662a4e7c109"},"vehicle_type_id":"4","last_reported":1735888107,"current_range_meters":32400,"station_id":"ce4bh192rcd13ifvqdd0","pricing_plan_id":"cebpf4jnsgd1na2vs0mg"},{"bike_id":"022d826a-d31d-48ef-b07e-f8dd0ceaa746","system_id":"levelo_inurba_marseille","lat":43.24996,"lon":5.38935,"is_reserved":false,"is_disabled":false,"rental_uris":{"android":"levelo://app?vid=022d826a-d31d-48ef-b07e-f8dd0ceaa746","ios":"levelo://app?vid=022d826a-d31d-48ef-b07e-f8dd0ceaa746"},"vehicle_type_id":"4","last_reported":1735888107,"current_range_meters":24800,"station_id":"ce4bhgp2rcd13ifvqfd0","pricing_plan_id":"cebpf4jnsgd1na2vs0mg"},{"bike_id":"a51bd0d0-5c9f-46de-ba7b-7849152ce0cb","system_id":"levelo_inurba_marseille","lat":43.29284,"lon":5.40149,"is_reserved":false,"is_disabled":false,"rental_uris":{"android":"levelo://app?vid=a51bd0d0-5c9f-46de-ba7b-7849152ce0cb","ios":"levelo://app?vid=a51bd0d0-5c9f-46de-ba7b-7849152ce0cb"},"vehicle_type_id":"4","last_reported":1735888107,"current_range_meters":39200,"station_id":"ce4bh312rcd13ifvqdk0","pricing_plan_id":"cebpf4jnsgd1na2vs0mg"},{"bike_id":"5f97eee1-4bb9-43f4-8e6e-a0b21a58fdc8","system_id":"levelo_inurba_marseille","lat":43.31899,"lon":5.40719,"is_reserved":false,"is_disabled":false,"rental_uris":{"android":"levelo://app?vid=5f97eee1-4bb9-43f4-8e6e-a0b21a58fdc8","ios":"levelo://app?vid=5f97eee1-4bb9-43f4-8e6e-a0b21a58fdc8"},"vehicle_type_id":"4","last_reported":1735888107,"current_range_meters":38800,"station_id":"ce4bhq12rcd13ifvqhig","pricing_plan_id":"cebpf4jnsgd1na2vs0mg"},{"bike_id":"0293b7f2-c372-4874-8301-7bdb6d4cd2be","system_id":"levelo_inurba_marseille","lat":43.30652,"lon":5.40094,"is_reserved":false,"is_disabled":false,"rental_uris":{"android":"levelo://app?vid=0293b7f2-c372-4874-8301-7bdb6d4cd2be","ios":"levelo://app?vid=0293b7f2-c372-4874-8301-7bdb6d4cd2be"},"vehicle_type_id":"4","last_reported":1735888107,"current_range_meters":38800,"station_id":"ce4bh112rcd13ifvqda0","pricing_plan_id":"cebpf4jnsgd1na2vs0mg"},{"bike_id":"c142a247-dd9f-4d9f-a2f9-072e3030d7fa","system_id":"levelo_inurba_marseille","lat":43.3046,"lon":5.37905,"is_reserved":false,"is_disabled":false,"rental_uris":{"android":"levelo://app?vid=c142a247-dd9f-4d9f-a2f9-072e3030d7fa","ios":"levelo://app?vid=c142a247-dd9f-4d9f-a2f9-072e3030d7fa"},"vehicle_type_id":"4","last_reported":1735888107,"current_range_meters":39200,"station_id":"ce4bgup2rcd13ifvqcn0","pricing_plan_id":"cebpf4jnsgd1na2vs0mg"},{"bike_id":"41ceb840-185c-47e7-a0f3-5a5721651aab","system_id":"levelo_inurba_marseille","lat":43.31333,"lon":5.39678,"is_reserved":false,"is_disabled":false,"rental_uris":{"android":"levelo://app?vid=41ceb840-185c-47e7-a0f3-5a5721651aab","ios":"levelo://app?vid=41ceb840-185c-47e7-a0f3-5a5721651aab"},"vehicle_type_id":"4","last_reported":1735888107,"current_range_meters":38000,"station_id":"ce4bgvp2rcd13ifvqcu0","pricing_plan_id":"cebpf4jnsgd1na2vs0mg"},{"bike_id":"983a939f-0c90-4b41-8e07-1ba37a328643","system_id":"levelo_inurba_marseille","lat":43.241628,"lon":5.364048,"is_reserved":false,"is_disabled":false,"rental_uris":{"android":"levelo://app?vid=983a939f-0c90-4b41-8e07-1ba37a328643","ios":"levelo://app?vid=983a939f-0c90-4b41-8e07-1ba37a328643"},"vehicle_type_id":"4","last_reported":1735888107,"current_range_meters":29600,"station_id":"cpo36qri1sfpv3e86is0","pricing_plan_id":"cebpf4jnsgd1na2vs0mg"},{"bike_id":"658f3f86-23aa-48e9-af5f-b9cb4bbf3b8e","system_id":"levelo_inurba_marseille","lat":43.29549,"lon":5.42291,"is_reserved":false,"is_disabled":false,"rental_uris":{"android":"levelo://app?vid=658f3f86-23aa-48e9-af5f-b9cb4bbf3b8e","ios":"levelo://app?vid=658f3f86-23aa-48e9-af5f-b9cb4bbf3b8e"},"vehicle_type_id":"4","last_reported":1735888107,"current_range_meters":38800,"station_id":"ce4bhph2rcd13ifvqhdg","pricing_plan_id":"cebpf4jnsgd1na2vs0mg"},{"bike_id":"b1bc80ea-a37c-4c59-9a47-5e93a5449456","system_id":"levelo_inurba_marseille","lat":43.27682,"lon":5.38884,"is_reserved":false,"is_disabled":false,"rental_uris":{"android":"levelo://app?vid=b1bc80ea-a37c-4c59-9a47-5e93a5449456","ios":"levelo://app?vid=b1bc80ea-a37c-4c59-9a47-5e93a5449456"},"vehicle_type_id":"4","last_reported":1735888107,"current_range_meters":26000,"station_id":"ce4bhi12rcd13ifvqfo0","pricing_plan_id":"cebpf4jnsgd1na2vs0mg"},{"bike_id":"12fe9bcf-b9b9-4d46-ba46-964aa81e2a67","system_id":"levelo_inurba_marseille","lat":43.30805,"lon":5.43517,"is_reserved":false,"is_disabled":false,"rental_uris":{"android":"levelo://app?vid=12fe9bcf-b9b9-4d46-ba46-964aa81e2a67","ios":"levelo://app?vid=12fe9bcf-b9b9-4d46-ba46-964aa81e2a67"},"vehicle_type_id":"4","last_reported":1735888107,"current_range_meters":38400,"station_id":"ce4bhph2rcd13ifvqheg","pricing_plan_id":"cebpf4jnsgd1na2vs0mg"},{"bike_id":"38010124-a2b0-4a82-bd2d-3d1c166f9f7c","system_id":"levelo_inurba_marseille","lat":43.2794,"lon":5.41046,"is_reserved":false,"is_disabled":false,"rental_uris":{"android":"levelo://app?vid=38010124-a2b0-4a82-bd2d-3d1c166f9f7c","ios":"levelo://app?vid=38010124-a2b0-4a82-bd2d-3d1c166f9f7c"},"vehicle_type_id":"4","last_reported":1735888107,"current_range_meters":6000,"station_id":"ce4bhnp2rcd13ifvqh0g","pricing_plan_id":"cebpf4jnsgd1na2vs0mg"},{"bike_id":"d0030ff6-f8b3-4b75-bb9b-f2175ff4ca9d","system_id":"levelo_inurba_marseille","lat":43.24087,"lon":5.37731,"is_reserved":false,"is_disabled":false,"rental_uris":{"android":"levelo://app?vid=d0030ff6-f8b3-4b75-bb9b-f2175ff4ca9d","ios":"levelo://app?vid=d0030ff6-f8b3-4b75-bb9b-f2175ff4ca9d"},"vehicle_type_id":"4","last_reported":1735888107,"current_range_meters":38400,"station_id":"ce4bhnp2rcd13ifvqgvg","pricing_plan_id":"cebpf4jnsgd1na2vs0mg"},{"bike_id":"1df3f686-7a5b-4b27-a323-3ea93b91e5eb","system_id":"levelo_inurba_marseille","lat":43.28456,"lon":5.38405,"is_reserved":false,"is_disabled":true,"rental_uris":{"android":"levelo://app?vid=1df3f686-7a5b-4b27-a323-3ea93b91e5eb","ios":"levelo://app?vid=1df3f686-7a5b-4b27-a323-3ea93b91e5eb"},"vehicle_type_id":"4","last_reported":1735888107,"current_range_meters":33600,"station_id":"ce4bh512rcd13ifvqe3g","pricing_plan_id":"cebpf4jnsgd1na2vs0mg"},{"bike_id":"288df3f3-407a-4ba2-b112-c5ead5bfabe0","system_id":"levelo_inurba_marseille","lat":43.289963,"lon":5.356057,"is_reserved":false,"is_disabled":true,"rental_uris":{"android":"levelo://app?vid=288df3f3-407a-4ba2-b112-c5ead5bfabe0","ios":"levelo://app?vid=288df3f3-407a-4ba2-b112-c5ead5bfabe0"},"vehicle_type_id":"4","last_reported":1735888107,"current_range_meters":36800,"station_id":"ce4bhb92rcd13ifvqen0","pricing_plan_id":"cebpf4jnsgd1na2vs0mg"},{"bike_id":"349a4ab8-6f13-4948-be71-abaadb9466ee","system_id":"levelo_inurba_marseille","lat":43.24064,"lon":5.37717,"is_reserved":false,"is_disabled":false,"rental_uris":{"android":"levelo://app?vid=349a4ab8-6f13-4948-be71-abaadb9466ee","ios":"levelo://app?vid=349a4ab8-6f13-4948-be71-abaadb9466ee"},"vehicle_type_id":"4","last_reported":1735888107,"current_range_meters":38000,"station_id":"ce4bhnp2rcd13ifvqgvg","pricing_plan_id":"cebpf4jnsgd1na2vs0mg"},{"bike_id":"97829712-45ed-44f4-98b1-03aec2ad37f0","system_id":"levelo_inurba_marseille","lat":43.26682,"lon":5.38293,"is_reserved":false,"is_disabled":false,"rental_uris":{"android":"levelo://app?vid=97829712-45ed-44f4-98b1-03aec2ad37f0","ios":"levelo://app?vid=97829712-45ed-44f4-98b1-03aec2ad37f0"},"vehicle_type_id":"4","last_reported":1735888107,"current_range_meters":39200,"station_id":"ce4bhg92rcd13ifvqf90","pricing_plan_id":"cebpf4jnsgd1na2vs0mg"},{"bike_id":"e7f232e6-9751-45f4-a24f-005b95d10947","system_id":"levelo_inurba_marseille","lat":43.296039,"lon":5.377126,"is_reserved":false,"is_disabled":true,"rental_uris":{"android":"levelo://app?vid=e7f232e6-9751-45f4-a24f-005b95d10947","ios":"levelo://app?vid=e7f232e6-9751-45f4-a24f-005b95d10947"},"vehicle_type_id":"4","last_reported":1735888107,"current_range_meters":0,"station_id":"ce4bgi92rcd13ifvqb90","pricing_plan_id":"cebpf4jnsgd1na2vs0mg"},{"bike_id":"4cf49d06-d12a-4f67-a04c-da55d1b6d7b0","system_id":"levelo_inurba_marseille","lat":43.28104,"lon":5.3787,"is_reserved":false,"is_disabled":false,"rental_uris":{"android":"levelo://app?vid=4cf49d06-d12a-4f67-a04c-da55d1b6d7b0","ios":"levelo://app?vid=4cf49d06-d12a-4f67-a04c-da55d1b6d7b0"},"vehicle_type_id":"4","last_reported":1735888107,"current_range_meters":18000,"station_id":"ce4bha12rcd13ifvqee0","pricing_plan_id":"cebpf4jnsgd1na2vs0mg"},{"bike_id":"f3998a04-3b93-4948-8eb7-aa16047370fd","system_id":"levelo_inurba_marseille","lat":43.27954,"lon":5.41049,"is_reserved":false,"is_disabled":false,"rental_uris":{"android":"levelo://app?vid=f3998a04-3b93-4948-8eb7-aa16047370fd","ios":"levelo://app?vid=f3998a04-3b93-4948-8eb7-aa16047370fd"},"vehicle_type_id":"4","last_reported":1735888107,"current_range_meters":19600,"station_id":"ce4bhnp2rcd13ifvqh0g","pricing_plan_id":"cebpf4jnsgd1na2vs0mg"},{"bike_id":"1c5434c6-81cf-4ea8-9bf2-abfb41c12665","system_id":"levelo_inurba_marseille","lat":43.30877,"lon":5.37194,"is_reserved":false,"is_disabled":true,"rental_uris":{"android":"levelo://app?vid=1c5434c6-81cf-4ea8-9bf2-abfb41c12665","ios":"levelo://app?vid=1c5434c6-81cf-4ea8-9bf2-abfb41c12665"},"vehicle_type_id":"4","last_reported":1735888107,"current_range_meters":36000,"station_id":"ce4bguh2rcd13ifvqckg","pricing_plan_id":"cebpf4jnsgd1na2vs0mg"},{"bike_id":"bbb173c2-5fa6-4439-999a-e24a3ecc81ee","system_id":"levelo_inurba_marseille","lat":43.29546,"lon":5.42295,"is_reserved":false,"is_disabled":false,"rental_uris":{"android":"levelo://app?vid=bbb173c2-5fa6-4439-999a-e24a3ecc81ee","ios":"levelo://app?vid=bbb173c2-5fa6-4439-999a-e24a3ecc81ee"},"vehicle_type_id":"4","last_reported":1735888107,"current_range_meters":28800,"station_id":"ce4bhph2rcd13ifvqhdg","pricing_plan_id":"cebpf4jnsgd1na2vs0mg"},{"bike_id":"e15a4bd4-1dfb-4429-b884-aadaa2128739","system_id":"levelo_inurba_marseille","lat":43.29713,"lon":5.37704,"is_reserved":false,"is_disabled":false,"rental_uris":{"android":"levelo://app?vid=e15a4bd4-1dfb-4429-b884-aadaa2128739","ios":"levelo://app?vid=e15a4bd4-1dfb-4429-b884-aadaa2128739"},"vehicle_type_id":"4","last_reported":1735888107,"current_range_meters":37600,"station_id":"ce4bgkh2rcd13ifvqbl0","pricing_plan_id":"cebpf4jnsgd1na2vs0mg"},{"bike_id":"bf0134ca-54e1-43be-8b29-8c6ccab6ae0d","system_id":"levelo_inurba_marseille","lat":43.24798,"lon":5.37438,"is_reserved":false,"is_disabled":false,"rental_uris":{"android":"levelo://app?vid=bf0134ca-54e1-43be-8b29-8c6ccab6ae0d","ios":"levelo://app?vid=bf0134ca-54e1-43be-8b29-8c6ccab6ae0d"},"vehicle_type_id":"4","last_reported":1735888107,"current_range_meters":37600,"station_id":"ce4bhgh2rcd13ifvqfb0","pricing_plan_id":"cebpf4jnsgd1na2vs0mg"},{"bike_id":"9a633b20-48e1-4d57-88ca-cc77983ef0f1","system_id":"levelo_inurba_marseille","lat":43.28152,"lon":5.42636,"is_reserved":false,"is_disabled":false,"rental_uris":{"android":"levelo://app?vid=9a633b20-48e1-4d57-88ca-cc77983ef0f1","ios":"levelo://app?vid=9a633b20-48e1-4d57-88ca-cc77983ef0f1"},"vehicle_type_id":"4","last_reported":1735888107,"current_range_meters":12800,"station_id":"ce4bhnh2rcd13ifvqgug","pricing_plan_id":"cebpf4jnsgd1na2vs0mg"},{"bike_id":"e157af35-862f-4ff3-a971-0cec14143385","system_id":"levelo_inurba_marseille","lat":43.27941,"lon":5.41046,"is_reserved":false,"is_disabled":false,"rental_uris":{"android":"levelo://app?vid=e157af35-862f-4ff3-a971-0cec14143385","ios":"levelo://app?vid=e157af35-862f-4ff3-a971-0cec14143385"},"vehicle_type_id":"4","last_reported":1735888107,"current_range_meters":25200,"station_id":"ce4bhnp2rcd13ifvqh0g","pricing_plan_id":"cebpf4jnsgd1na2vs0mg"},{"bike_id":"a4828b82-6158-43c7-aedb-77476d918880","system_id":"levelo_inurba_marseille","lat":43.28614,"lon":5.35102,"is_reserved":false,"is_disabled":true,"rental_uris":{"android":"levelo://app?vid=a4828b82-6158-43c7-aedb-77476d918880","ios":"levelo://app?vid=a4828b82-6158-43c7-aedb-77476d918880"},"vehicle_type_id":"4","last_reported":1735888107,"current_range_meters":23200,"station_id":"ce4bhch2rcd13ifvqeug","pricing_plan_id":"cebpf4jnsgd1na2vs0mg"},{"bike_id":"43c64af5-9471-4260-89db-8ab112e03a32","system_id":"levelo_inurba_marseille","lat":43.27496,"lon":5.42458,"is_reserved":false,"is_disabled":true,"rental_uris":{"android":"levelo://app?vid=43c64af5-9471-4260-89db-8ab112e03a32","ios":"levelo://app?vid=43c64af5-9471-4260-89db-8ab112e03a32"},"vehicle_type_id":"4","last_reported":1735888107,"current_range_meters":9200,"station_id":"ce4bhn92rcd13ifvqgrg","pricing_plan_id":"cebpf4jnsgd1na2vs0mg"},{"bike_id":"b42c1d8f-5506-48e9-bf93-c8832d431612","system_id":"levelo_inurba_marseille","lat":43.29869,"lon":5.39742,"is_reserved":false,"is_disabled":false,"rental_uris":{"android":"levelo://app?vid=b42c1d8f-5506-48e9-bf93-c8832d431612","ios":"levelo://app?vid=b42c1d8f-5506-48e9-bf93-c8832d431612"},"vehicle_type_id":"4","last_reported":1735888107,"current_range_meters":37600,"station_id":"ce4bh0h2rcd13ifvqd50","pricing_plan_id":"cebpf4jnsgd1na2vs0mg"},{"bike_id":"6522d12d-31fc-4e51-a990-fb97edf98208","system_id":"levelo_inurba_marseille","lat":43.30176,"lon":5.38076,"is_reserved":false,"is_disabled":false,"rental_uris":{"android":"levelo://app?vid=6522d12d-31fc-4e51-a990-fb97edf98208","ios":"levelo://app?vid=6522d12d-31fc-4e51-a990-fb97edf98208"},"vehicle_type_id":"4","last_reported":1735888107,"current_range_meters":11200,"station_id":"ce4bgjp2rcd13ifvqbh0","pricing_plan_id":"cebpf4jnsgd1na2vs0mg"},{"bike_id":"f645f021-f3fa-4b82-90db-64d9306f3b35","system_id":"levelo_inurba_marseille","lat":43.25726,"lon":5.41113,"is_reserved":false,"is_disabled":false,"rental_uris":{"android":"levelo://app?vid=f645f021-f3fa-4b82-90db-64d9306f3b35","ios":"levelo://app?vid=f645f021-f3fa-4b82-90db-64d9306f3b35"},"vehicle_type_id":"4","last_reported":1735888107,"current_range_meters":36800,"station_id":"ce4bhkp2rcd13ifvqgd0","pricing_plan_id":"cebpf4jnsgd1na2vs0mg"},{"bike_id":"aa02178e-ac58-47f2-8332-47fa2172b977","system_id":"levelo_inurba_marseille","lat":43.30955,"lon":5.39055,"is_reserved":false,"is_disabled":false,"rental_uris":{"android":"levelo://app?vid=aa02178e-ac58-47f2-8332-47fa2172b977","ios":"levelo://app?vid=aa02178e-ac58-47f2-8332-47fa2172b977"},"vehicle_type_id":"4","last_reported":1735888107,"current_range_meters":38000,"station_id":"ce4bgup2rcd13ifvqco0","pricing_plan_id":"cebpf4jnsgd1na2vs0mg"},{"bike_id":"a106e2d5-d5f8-4132-b59f-a0b0becc7d1d","system_id":"levelo_inurba_marseille","lat":43.28001,"lon":5.40017,"is_reserved":false,"is_disabled":false,"rental_uris":{"android":"levelo://app?vid=a106e2d5-d5f8-4132-b59f-a0b0becc7d1d","ios":"levelo://app?vid=a106e2d5-d5f8-4132-b59f-a0b0becc7d1d"},"vehicle_type_id":"4","last_reported":1735888107,"current_range_meters":38800,"station_id":"ce4bho92rcd13ifvqh4g","pricing_plan_id":"cebpf4jnsgd1na2vs0mg"},{"bike_id":"01ff8f59-7e36-40f3-8c14-a4c836affc26","system_id":"levelo_inurba_marseille","lat":43.281,"lon":5.397,"is_reserved":false,"is_disabled":false,"rental_uris":{"android":"levelo://app?vid=01ff8f59-7e36-40f3-8c14-a4c836affc26","ios":"levelo://app?vid=01ff8f59-7e36-40f3-8c14-a4c836affc26"},"vehicle_type_id":"4","last_reported":1735888107,"current_range_meters":31200,"station_id":"ce4bho12rcd13ifvqh2g","pricing_plan_id":"cebpf4jnsgd1na2vs0mg"},{"bike_id":"494a29b4-6a3c-4a74-b476-1ed8b0458716","system_id":"levelo_inurba_marseille","lat":43.2845,"lon":5.35879,"is_reserved":false,"is_disabled":false,"rental_uris":{"android":"levelo://app?vid=494a29b4-6a3c-4a74-b476-1ed8b0458716","ios":"levelo://app?vid=494a29b4-6a3c-4a74-b476-1ed8b0458716"},"vehicle_type_id":"4","last_reported":1735888107,"current_range_meters":27200,"station_id":"ce4bhah2rcd13ifvqei0","pricing_plan_id":"cebpf4jnsgd1na2vs0mg"},{"bike_id":"1d64e5d9-6db1-4098-b8df-bf1bbd653564","system_id":"levelo_inurba_marseille","lat":43.27394,"lon":5.36283,"is_reserved":false,"is_disabled":true,"rental_uris":{"android":"levelo://app?vid=1d64e5d9-6db1-4098-b8df-bf1bbd653564","ios":"levelo://app?vid=1d64e5d9-6db1-4098-b8df-bf1bbd653564"},"vehicle_type_id":"4","last_reported":1735888107,"current_range_meters":0,"station_id":"ce4bhbh2rcd13ifvqeo0","pricing_plan_id":"cebpf4jnsgd1na2vs0mg"},{"bike_id":"def36ed6-f9e1-48ab-bc0b-b9c1311e69be","system_id":"levelo_inurba_marseille","lat":43.25491,"lon":5.37654,"is_reserved":false,"is_disabled":false,"rental_uris":{"android":"levelo://app?vid=def36ed6-f9e1-48ab-bc0b-b9c1311e69be","ios":"levelo://app?vid=def36ed6-f9e1-48ab-bc0b-b9c1311e69be"},"vehicle_type_id":"4","last_reported":1735888107,"current_range_meters":38800,"station_id":"ce4bhh12rcd13ifvqff0","pricing_plan_id":"cebpf4jnsgd1na2vs0mg"},{"bike_id":"660aed1d-cdeb-4a3c-a6d4-d19ef9a2563b","system_id":"levelo_inurba_marseille","lat":43.29898,"lon":5.43668,"is_reserved":false,"is_disabled":false,"rental_uris":{"android":"levelo://app?vid=660aed1d-cdeb-4a3c-a6d4-d19ef9a2563b","ios":"levelo://app?vid=660aed1d-cdeb-4a3c-a6d4-d19ef9a2563b"},"vehicle_type_id":"4","last_reported":1735888107,"current_range_meters":37600,"station_id":"ce4bhpp2rcd13ifvqhfg","pricing_plan_id":"cebpf4jnsgd1na2vs0mg"},{"bike_id":"725999bb-8b32-4e5b-95fc-d63880a1b626","system_id":"levelo_inurba_marseille","lat":43.32664,"lon":5.40985,"is_reserved":false,"is_disabled":false,"rental_uris":{"android":"levelo://app?vid=725999bb-8b32-4e5b-95fc-d63880a1b626","ios":"levelo://app?vid=725999bb-8b32-4e5b-95fc-d63880a1b626"},"vehicle_type_id":"4","last_reported":1735888107,"current_range_meters":38800,"station_id":"ce4bhpp2rcd13ifvqhgg","pricing_plan_id":"cebpf4jnsgd1na2vs0mg"},{"bike_id":"2af79f06-2f41-443a-8c98-b554c72b55db","system_id":"levelo_inurba_marseille","lat":43.248,"lon":5.37463,"is_reserved":false,"is_disabled":true,"rental_uris":{"android":"levelo://app?vid=2af79f06-2f41-443a-8c98-b554c72b55db","ios":"levelo://app?vid=2af79f06-2f41-443a-8c98-b554c72b55db"},"vehicle_type_id":"4","last_reported":1735888107,"current_range_meters":38000,"station_id":"ce4bhgh2rcd13ifvqfb0","pricing_plan_id":"cebpf4jnsgd1na2vs0mg"},{"bike_id":"c92c3694-79e8-422d-ab87-506887a0e89e","system_id":"levelo_inurba_marseille","lat":43.27938,"lon":5.4104,"is_reserved":false,"is_disabled":false,"rental_uris":{"android":"levelo://app?vid=c92c3694-79e8-422d-ab87-506887a0e89e","ios":"levelo://app?vid=c92c3694-79e8-422d-ab87-506887a0e89e"},"vehicle_type_id":"4","last_reported":1735888107,"current_range_meters":30000,"station_id":"ce4bhnp2rcd13ifvqh0g","pricing_plan_id":"cebpf4jnsgd1na2vs0mg"},{"bike_id":"123a3880-66e4-4a19-a99e-7253f12bf50c","system_id":"levelo_inurba_marseille","lat":43.25939,"lon":5.40865,"is_reserved":false,"is_disabled":false,"rental_uris":{"android":"levelo://app?vid=123a3880-66e4-4a19-a99e-7253f12bf50c","ios":"levelo://app?vid=123a3880-66e4-4a19-a99e-7253f12bf50c"},"vehicle_type_id":"4","last_reported":1735888107,"current_range_meters":20000,"station_id":"ce4bhm92rcd13ifvqglg","pricing_plan_id":"cebpf4jnsgd1na2vs0mg"},{"bike_id":"a04ab52a-8bac-468d-99bd-613e6943d4f3","system_id":"levelo_inurba_marseille","lat":43.32662,"lon":5.40989,"is_reserved":false,"is_disabled":false,"rental_uris":{"android":"levelo://app?vid=a04ab52a-8bac-468d-99bd-613e6943d4f3","ios":"levelo://app?vid=a04ab52a-8bac-468d-99bd-613e6943d4f3"},"vehicle_type_id":"4","last_reported":1735888107,"current_range_meters":16400,"station_id":"ce4bhpp2rcd13ifvqhgg","pricing_plan_id":"cebpf4jnsgd1na2vs0mg"},{"bike_id":"96cb6bae-f2f5-4454-84e9-1e631669b024","system_id":"levelo_inurba_marseille","lat":43.25125,"lon":5.40324,"is_reserved":false,"is_disabled":false,"rental_uris":{"android":"levelo://app?vid=96cb6bae-f2f5-4454-84e9-1e631669b024","ios":"levelo://app?vid=96cb6bae-f2f5-4454-84e9-1e631669b024"},"vehicle_type_id":"4","last_reported":1735888107,"current_range_meters":39200,"station_id":"ce4bhlh2rcd13ifvqgig","pricing_plan_id":"cebpf4jnsgd1na2vs0mg"},{"bike_id":"3f3c41c0-44af-4167-8792-189e9b2488de","system_id":"levelo_inurba_marseille","lat":43.2907,"lon":5.37171,"is_reserved":false,"is_disabled":false,"rental_uris":{"android":"levelo://app?vid=3f3c41c0-44af-4167-8792-189e9b2488de","ios":"levelo://app?vid=3f3c41c0-44af-4167-8792-189e9b2488de"},"vehicle_type_id":"4","last_reported":1735888107,"current_range_meters":32000,"station_id":"ce4bh5p2rcd13ifvqe4g","pricing_plan_id":"cebpf4jnsgd1na2vs0mg"},{"bike_id":"85f66c35-cf00-496f-866f-ed1cc2019cfb","system_id":"levelo_inurba_marseille","lat":43.28111,"lon":5.37834,"is_reserved":false,"is_disabled":false,"rental_uris":{"android":"levelo://app?vid=85f66c35-cf00-496f-866f-ed1cc2019cfb","ios":"levelo://app?vid=85f66c35-cf00-496f-866f-ed1cc2019cfb"},"vehicle_type_id":"4","last_reported":1735888107,"current_range_meters":38800,"station_id":"ce4bha12rcd13ifvqee0","pricing_plan_id":"cebpf4jnsgd1na2vs0mg"},{"bike_id":"71d7fd86-ae0c-4b15-9ac5-1afdce815ed0","system_id":"levelo_inurba_marseille","lat":43.29866,"lon":5.39727,"is_reserved":false,"is_disabled":false,"rental_uris":{"android":"levelo://app?vid=71d7fd86-ae0c-4b15-9ac5-1afdce815ed0","ios":"levelo://app?vid=71d7fd86-ae0c-4b15-9ac5-1afdce815ed0"},"vehicle_type_id":"4","last_reported":1735888107,"current_range_meters":38800,"station_id":"ce4bh0h2rcd13ifvqd50","pricing_plan_id":"cebpf4jnsgd1na2vs0mg"},{"bike_id":"921cbbf4-6180-4027-b0b7-152b6fc11410","system_id":"levelo_inurba_marseille","lat":43.27558,"lon":5.3842,"is_reserved":false,"is_disabled":false,"rental_uris":{"android":"levelo://app?vid=921cbbf4-6180-4027-b0b7-152b6fc11410","ios":"levelo://app?vid=921cbbf4-6180-4027-b0b7-152b6fc11410"},"vehicle_type_id":"4","last_reported":1735888107,"current_range_meters":4400,"station_id":"ce4bhh92rcd13ifvqfi0","pricing_plan_id":"cebpf4jnsgd1na2vs0mg"},{"bike_id":"d9e7591d-4e69-4829-a945-5299a0d4f5d3","system_id":"levelo_inurba_marseille","lat":43.31889,"lon":5.40748,"is_reserved":false,"is_disabled":false,"rental_uris":{"android":"levelo://app?vid=d9e7591d-4e69-4829-a945-5299a0d4f5d3","ios":"levelo://app?vid=d9e7591d-4e69-4829-a945-5299a0d4f5d3"},"vehicle_type_id":"4","last_reported":1735888107,"current_range_meters":16000,"station_id":"ce4bhq12rcd13ifvqhig","pricing_plan_id":"cebpf4jnsgd1na2vs0mg"},{"bike_id":"17011feb-119c-489c-906a-b56ce2c555ce","system_id":"levelo_inurba_marseille","lat":43.26516,"lon":5.39562,"is_reserved":false,"is_disabled":false,"rental_uris":{"android":"levelo://app?vid=17011feb-119c-489c-906a-b56ce2c555ce","ios":"levelo://app?vid=17011feb-119c-489c-906a-b56ce2c555ce"},"vehicle_type_id":"4","last_reported":1735888107,"current_range_meters":38800,"station_id":"ce4bhi12rcd13ifvqfq0","pricing_plan_id":"cebpf4jnsgd1na2vs0mg"},{"bike_id":"4e2e926a-cc62-4529-8b24-3abbcf0f0be2","system_id":"levelo_inurba_marseille","lat":43.23199,"lon":5.35529,"is_reserved":false,"is_disabled":false,"rental_uris":{"android":"levelo://app?vid=4e2e926a-cc62-4529-8b24-3abbcf0f0be2","ios":"levelo://app?vid=4e2e926a-cc62-4529-8b24-3abbcf0f0be2"},"vehicle_type_id":"4","last_reported":1735888107,"current_range_meters":34800,"station_id":"ce4bhu92rcd13ifvqi70","pricing_plan_id":"cebpf4jnsgd1na2vs0mg"},{"bike_id":"ee7da7e1-0487-4a7b-838f-676e9c820e80","system_id":"levelo_inurba_marseille","lat":43.3042,"lon":5.39762,"is_reserved":false,"is_disabled":true,"rental_uris":{"android":"levelo://app?vid=ee7da7e1-0487-4a7b-838f-676e9c820e80","ios":"levelo://app?vid=ee7da7e1-0487-4a7b-838f-676e9c820e80"},"vehicle_type_id":"4","last_reported":1735888107,"current_range_meters":35200,"station_id":"ce4bh092rcd13ifvqd20","pricing_plan_id":"cebpf4jnsgd1na2vs0mg"},{"bike_id":"7a656b0f-b894-4819-9a9c-6ca398469187","system_id":"levelo_inurba_marseille","lat":43.27994,"lon":5.41659,"is_reserved":false,"is_disabled":false,"rental_uris":{"android":"levelo://app?vid=7a656b0f-b894-4819-9a9c-6ca398469187","ios":"levelo://app?vid=7a656b0f-b894-4819-9a9c-6ca398469187"},"vehicle_type_id":"4","last_reported":1735888107,"current_range_meters":10000,"station_id":"ce4bho12rcd13ifvqh1g","pricing_plan_id":"cebpf4jnsgd1na2vs0mg"},{"bike_id":"6143990e-f7e7-4500-846e-085b8e8441f3","system_id":"levelo_inurba_marseille","lat":43.255796,"lon":5.38244,"is_reserved":false,"is_disabled":false,"rental_uris":{"android":"levelo://app?vid=6143990e-f7e7-4500-846e-085b8e8441f3","ios":"levelo://app?vid=6143990e-f7e7-4500-846e-085b8e8441f3"},"vehicle_type_id":"4","last_reported":1735888107,"current_range_meters":36400,"station_id":"ce4bhih2rcd13ifvqfs0","pricing_plan_id":"cebpf4jnsgd1na2vs0mg"},{"bike_id":"3c348272-b440-4426-b2c7-621e1bcaa53c","system_id":"levelo_inurba_marseille","lat":43.27063,"lon":5.42283,"is_reserved":false,"is_disabled":false,"rental_uris":{"android":"levelo://app?vid=3c348272-b440-4426-b2c7-621e1bcaa53c","ios":"levelo://app?vid=3c348272-b440-4426-b2c7-621e1bcaa53c"},"vehicle_type_id":"4","last_reported":1735888107,"current_range_meters":33600,"station_id":"ce4bhk92rcd13ifvqgb0","pricing_plan_id":"cebpf4jnsgd1na2vs0mg"},{"bike_id":"e39779cb-dd0b-481e-95ed-043cce584dc4","system_id":"levelo_inurba_marseille","lat":43.243948,"lon":5.37051,"is_reserved":false,"is_disabled":false,"rental_uris":{"android":"levelo://app?vid=e39779cb-dd0b-481e-95ed-043cce584dc4","ios":"levelo://app?vid=e39779cb-dd0b-481e-95ed-043cce584dc4"},"vehicle_type_id":"4","last_reported":1735888107,"current_range_meters":16800,"station_id":"ce4bhhh2rcd13ifvqfk0","pricing_plan_id":"cebpf4jnsgd1na2vs0mg"},{"bike_id":"425a34e9-1cc7-4b24-b16d-e2b351e83fca","system_id":"levelo_inurba_marseille","lat":43.26497,"lon":5.39544,"is_reserved":false,"is_disabled":false,"rental_uris":{"android":"levelo://app?vid=425a34e9-1cc7-4b24-b16d-e2b351e83fca","ios":"levelo://app?vid=425a34e9-1cc7-4b24-b16d-e2b351e83fca"},"vehicle_type_id":"4","last_reported":1735888107,"current_range_meters":26000,"station_id":"ce4bhi12rcd13ifvqfq0","pricing_plan_id":"cebpf4jnsgd1na2vs0mg"},{"bike_id":"52d5825b-8fdc-4854-992a-dcc3af8afc8b","system_id":"levelo_inurba_marseille","lat":43.29799,"lon":5.38102,"is_reserved":false,"is_disabled":false,"rental_uris":{"android":"levelo://app?vid=52d5825b-8fdc-4854-992a-dcc3af8afc8b","ios":"levelo://app?vid=52d5825b-8fdc-4854-992a-dcc3af8afc8b"},"vehicle_type_id":"4","last_reported":1735888107,"current_range_meters":39200,"station_id":"ce4bgip2rcd13ifvqbb0","pricing_plan_id":"cebpf4jnsgd1na2vs0mg"},{"bike_id":"48f20ce6-58d9-41f5-8742-bbc5315f24fc","system_id":"levelo_inurba_marseille","lat":43.29981,"lon":5.38488,"is_reserved":false,"is_disabled":true,"rental_uris":{"android":"levelo://app?vid=48f20ce6-58d9-41f5-8742-bbc5315f24fc","ios":"levelo://app?vid=48f20ce6-58d9-41f5-8742-bbc5315f24fc"},"vehicle_type_id":"4","last_reported":1735888107,"current_range_meters":38800,"station_id":"ce4bgj92rcd13ifvqbd0","pricing_plan_id":"cebpf4jnsgd1na2vs0mg"},{"bike_id":"a10cb38b-c0a9-46c5-81e3-8b36eafcdd96","system_id":"levelo_inurba_marseille","lat":43.289731,"lon":5.378429,"is_reserved":false,"is_disabled":true,"rental_uris":{"android":"levelo://app?vid=a10cb38b-c0a9-46c5-81e3-8b36eafcdd96","ios":"levelo://app?vid=a10cb38b-c0a9-46c5-81e3-8b36eafcdd96"},"vehicle_type_id":"4","last_reported":1735888107,"current_range_meters":33200,"station_id":"ce4bh9p2rcd13ifvqed0","pricing_plan_id":"cebpf4jnsgd1na2vs0mg"},{"bike_id":"9a9bf74d-b93a-4192-8733-08819111a2fb","system_id":"levelo_inurba_marseille","lat":43.26802,"lon":5.40271,"is_reserved":false,"is_disabled":false,"rental_uris":{"android":"levelo://app?vid=9a9bf74d-b93a-4192-8733-08819111a2fb","ios":"levelo://app?vid=9a9bf74d-b93a-4192-8733-08819111a2fb"},"vehicle_type_id":"4","last_reported":1735888107,"current_range_meters":38800,"station_id":"ce501612rcd8frsf0b60","pricing_plan_id":"cebpf4jnsgd1na2vs0mg"},{"bike_id":"e86e8a6b-2981-4147-9bb2-a5ab92db9450","system_id":"levelo_inurba_marseille","lat":43.281532,"lon":5.426486,"is_reserved":false,"is_disabled":false,"rental_uris":{"android":"levelo://app?vid=e86e8a6b-2981-4147-9bb2-a5ab92db9450","ios":"levelo://app?vid=e86e8a6b-2981-4147-9bb2-a5ab92db9450"},"vehicle_type_id":"4","last_reported":1735888107,"current_range_meters":38000,"station_id":"ce4bhnh2rcd13ifvqgug","pricing_plan_id":"cebpf4jnsgd1na2vs0mg"},{"bike_id":"36f6af84-b4ea-4fc7-b4cf-bfa109fbf38e","system_id":"levelo_inurba_marseille","lat":43.281474,"lon":5.426568,"is_reserved":false,"is_disabled":false,"rental_uris":{"android":"levelo://app?vid=36f6af84-b4ea-4fc7-b4cf-bfa109fbf38e","ios":"levelo://app?vid=36f6af84-b4ea-4fc7-b4cf-bfa109fbf38e"},"vehicle_type_id":"4","last_reported":1735888107,"current_range_meters":8400,"station_id":"ce4bhnh2rcd13ifvqgug","pricing_plan_id":"cebpf4jnsgd1na2vs0mg"},{"bike_id":"caa6fa5a-2c99-43f6-ad11-063669c14bd6","system_id":"levelo_inurba_marseille","lat":43.30802,"lon":5.43526,"is_reserved":false,"is_disabled":true,"rental_uris":{"android":"levelo://app?vid=caa6fa5a-2c99-43f6-ad11-063669c14bd6","ios":"levelo://app?vid=caa6fa5a-2c99-43f6-ad11-063669c14bd6"},"vehicle_type_id":"4","last_reported":1735888107,"current_range_meters":24400,"station_id":"ce4bhph2rcd13ifvqheg","pricing_plan_id":"cebpf4jnsgd1na2vs0mg"},{"bike_id":"a14175ed-21b7-4bee-a20f-b5e0add00694","system_id":"levelo_inurba_marseille","lat":43.28441,"lon":5.39193,"is_reserved":false,"is_disabled":false,"rental_uris":{"android":"levelo://app?vid=a14175ed-21b7-4bee-a20f-b5e0add00694","ios":"levelo://app?vid=a14175ed-21b7-4bee-a20f-b5e0add00694"},"vehicle_type_id":"4","last_reported":1735888107,"current_range_meters":38800,"station_id":"ce4bhoh2rcd13ifvqh5g","pricing_plan_id":"cebpf4jnsgd1na2vs0mg"},{"bike_id":"5367a292-5564-4681-91cd-97babb89fc00","system_id":"levelo_inurba_marseille","lat":43.22935,"lon":5.35378,"is_reserved":false,"is_disabled":false,"rental_uris":{"android":"levelo://app?vid=5367a292-5564-4681-91cd-97babb89fc00","ios":"levelo://app?vid=5367a292-5564-4681-91cd-97babb89fc00"},"vehicle_type_id":"4","last_reported":1735888107,"current_range_meters":12400,"station_id":"cpo3532slgdg3j2ikp40","pricing_plan_id":"cebpf4jnsgd1na2vs0mg"},{"bike_id":"e40b8873-a7cf-4e56-b106-d515344f64c4","system_id":"levelo_inurba_marseille","lat":43.23199,"lon":5.35553,"is_reserved":false,"is_disabled":false,"rental_uris":{"android":"levelo://app?vid=e40b8873-a7cf-4e56-b106-d515344f64c4","ios":"levelo://app?vid=e40b8873-a7cf-4e56-b106-d515344f64c4"},"vehicle_type_id":"4","last_reported":1735888107,"current_range_meters":38800,"station_id":"ce4bhu92rcd13ifvqi70","pricing_plan_id":"cebpf4jnsgd1na2vs0mg"},{"bike_id":"14360ff4-527b-4a38-97fd-e73b70c574f3","system_id":"levelo_inurba_marseille","lat":43.30135,"lon":5.38796,"is_reserved":false,"is_disabled":false,"rental_uris":{"android":"levelo://app?vid=14360ff4-527b-4a38-97fd-e73b70c574f3","ios":"levelo://app?vid=14360ff4-527b-4a38-97fd-e73b70c574f3"},"vehicle_type_id":"4","last_reported":1735888107,"current_range_meters":38800,"station_id":"ce4bhoh2rcd13ifvqh6g","pricing_plan_id":"cebpf4jnsgd1na2vs0mg"},{"bike_id":"16a79894-6299-4562-af17-8a7f393c1fad","system_id":"levelo_inurba_marseille","lat":43.30898,"lon":5.36846,"is_reserved":false,"is_disabled":false,"rental_uris":{"android":"levelo://app?vid=16a79894-6299-4562-af17-8a7f393c1fad","ios":"levelo://app?vid=16a79894-6299-4562-af17-8a7f393c1fad"},"vehicle_type_id":"4","last_reported":1735888107,"current_range_meters":38400,"station_id":"ce4bgn92rcd13ifvqbvg","pricing_plan_id":"cebpf4jnsgd1na2vs0mg"},{"bike_id":"53a885e1-1033-47c5-b897-02cf79dd54f7","system_id":"levelo_inurba_marseille","lat":43.25858,"lon":5.39931,"is_reserved":false,"is_disabled":false,"rental_uris":{"android":"levelo://app?vid=53a885e1-1033-47c5-b897-02cf79dd54f7","ios":"levelo://app?vid=53a885e1-1033-47c5-b897-02cf79dd54f7"},"vehicle_type_id":"4","last_reported":1735888107,"current_range_meters":31200,"station_id":"ce4bhl92rcd13ifvqghg","pricing_plan_id":"cebpf4jnsgd1na2vs0mg"},{"bike_id":"6fce06c9-9bfc-48fb-9d2e-249a3534e237","system_id":"levelo_inurba_marseille","lat":43.26563,"lon":5.39049,"is_reserved":false,"is_disabled":false,"rental_uris":{"android":"levelo://app?vid=6fce06c9-9bfc-48fb-9d2e-249a3534e237","ios":"levelo://app?vid=6fce06c9-9bfc-48fb-9d2e-249a3534e237"},"vehicle_type_id":"4","last_reported":1735888107,"current_range_meters":33200,"station_id":"ce4bhe12rcd13ifvqf30","pricing_plan_id":"cebpf4jnsgd1na2vs0mg"},{"bike_id":"d3bbc23a-977b-4b81-88be-f7e0b1a7ab38","system_id":"levelo_inurba_marseille","lat":43.29451,"lon":5.39753,"is_reserved":false,"is_disabled":true,"rental_uris":{"android":"levelo://app?vid=d3bbc23a-977b-4b81-88be-f7e0b1a7ab38","ios":"levelo://app?vid=d3bbc23a-977b-4b81-88be-f7e0b1a7ab38"},"vehicle_type_id":"4","last_reported":1735888107,"current_range_meters":35600,"station_id":"ce4bh3h2rcd13ifvqdo0","pricing_plan_id":"cebpf4jnsgd1na2vs0mg"},{"bike_id":"f7fcc3d9-0b87-41c9-8654-18625bc84619","system_id":"levelo_inurba_marseille","lat":43.275398,"lon":5.394933,"is_reserved":false,"is_disabled":false,"rental_uris":{"android":"levelo://app?vid=f7fcc3d9-0b87-41c9-8654-18625bc84619","ios":"levelo://app?vid=f7fcc3d9-0b87-41c9-8654-18625bc84619"},"vehicle_type_id":"4","last_reported":1735888107,"current_range_meters":23200,"station_id":"ce4bho92rcd13ifvqh3g","pricing_plan_id":"cebpf4jnsgd1na2vs0mg"},{"bike_id":"30c1d352-db5c-4607-b88d-320f57cbfa53","system_id":"levelo_inurba_marseille","lat":43.29703,"lon":5.36595,"is_reserved":false,"is_disabled":false,"rental_uris":{"android":"levelo://app?vid=30c1d352-db5c-4607-b88d-320f57cbfa53","ios":"levelo://app?vid=30c1d352-db5c-4607-b88d-320f57cbfa53"},"vehicle_type_id":"4","last_reported":1735888107,"current_range_meters":38800,"station_id":"ce4bgn12rcd13ifvqbt0","pricing_plan_id":"cebpf4jnsgd1na2vs0mg"},{"bike_id":"ed8f677e-8f05-420b-b151-5bc1ff9f5eeb","system_id":"levelo_inurba_marseille","lat":43.28986,"lon":5.35599,"is_reserved":false,"is_disabled":false,"rental_uris":{"android":"levelo://app?vid=ed8f677e-8f05-420b-b151-5bc1ff9f5eeb","ios":"levelo://app?vid=ed8f677e-8f05-420b-b151-5bc1ff9f5eeb"},"vehicle_type_id":"4","last_reported":1735888107,"current_range_meters":38000,"station_id":"ce4bhb92rcd13ifvqen0","pricing_plan_id":"cebpf4jnsgd1na2vs0mg"},{"bike_id":"4b18fc74-124a-4026-8735-302c08bbdf7e","system_id":"levelo_inurba_marseille","lat":43.28672,"lon":5.38668,"is_reserved":false,"is_disabled":false,"rental_uris":{"android":"levelo://app?vid=4b18fc74-124a-4026-8735-302c08bbdf7e","ios":"levelo://app?vid=4b18fc74-124a-4026-8735-302c08bbdf7e"},"vehicle_type_id":"4","last_reported":1735888107,"current_range_meters":32000,"station_id":"ce4bh492rcd13ifvqdug","pricing_plan_id":"cebpf4jnsgd1na2vs0mg"},{"bike_id":"dff98266-53e0-4259-bed5-afb761eb6165","system_id":"levelo_inurba_marseille","lat":43.29291,"lon":5.40134,"is_reserved":false,"is_disabled":false,"rental_uris":{"android":"levelo://app?vid=dff98266-53e0-4259-bed5-afb761eb6165","ios":"levelo://app?vid=dff98266-53e0-4259-bed5-afb761eb6165"},"vehicle_type_id":"4","last_reported":1735888107,"current_range_meters":26000,"station_id":"ce4bh312rcd13ifvqdk0","pricing_plan_id":"cebpf4jnsgd1na2vs0mg"},{"bike_id":"1c02ae40-e43c-4632-b75b-2df9308dc3fe","system_id":"levelo_inurba_marseille","lat":43.33776,"lon":5.37423,"is_reserved":false,"is_disabled":false,"rental_uris":{"android":"levelo://app?vid=1c02ae40-e43c-4632-b75b-2df9308dc3fe","ios":"levelo://app?vid=1c02ae40-e43c-4632-b75b-2df9308dc3fe"},"vehicle_type_id":"4","last_reported":1735888107,"current_range_meters":35600,"station_id":"","pricing_plan_id":"cebpf4jnsgd1na2vs0mg"},{"bike_id":"567914bc-dc8f-4f7b-88c8-5cbbd020bdfd","system_id":"levelo_inurba_marseille","lat":43.28709,"lon":5.39993,"is_reserved":false,"is_disabled":false,"rental_uris":{"android":"levelo://app?vid=567914bc-dc8f-4f7b-88c8-5cbbd020bdfd","ios":"levelo://app?vid=567914bc-dc8f-4f7b-88c8-5cbbd020bdfd"},"vehicle_type_id":"4","last_reported":1735888107,"current_range_meters":27600,"station_id":"ce4bho92rcd13ifvqh3g","pricing_plan_id":"cebpf4jnsgd1na2vs0mg"},{"bike_id":"6ffb4cb4-e3f4-4288-aac7-0645beedaa5f","system_id":"levelo_inurba_marseille","lat":43.29529,"lon":5.38551,"is_reserved":false,"is_disabled":false,"rental_uris":{"android":"levelo://app?vid=6ffb4cb4-e3f4-4288-aac7-0645beedaa5f","ios":"levelo://app?vid=6ffb4cb4-e3f4-4288-aac7-0645beedaa5f"},"vehicle_type_id":"4","last_reported":1735888107,"current_range_meters":11200,"station_id":"ce4bgih2rcd13ifvqba0","pricing_plan_id":"cebpf4jnsgd1na2vs0mg"},{"bike_id":"24049831-997c-4f9e-95e3-931d66cdb6df","system_id":"levelo_inurba_marseille","lat":43.28606,"lon":5.35102,"is_reserved":false,"is_disabled":false,"rental_uris":{"android":"levelo://app?vid=24049831-997c-4f9e-95e3-931d66cdb6df","ios":"levelo://app?vid=24049831-997c-4f9e-95e3-931d66cdb6df"},"vehicle_type_id":"4","last_reported":1735888107,"current_range_meters":29600,"station_id":"ce4bhch2rcd13ifvqeug","pricing_plan_id":"cebpf4jnsgd1na2vs0mg"},{"bike_id":"fb228aa6-6386-4266-80f4-b6f71ad0b618","system_id":"levelo_inurba_marseille","lat":43.2957,"lon":5.37511,"is_reserved":false,"is_disabled":false,"rental_uris":{"android":"levelo://app?vid=fb228aa6-6386-4266-80f4-b6f71ad0b618","ios":"levelo://app?vid=fb228aa6-6386-4266-80f4-b6f71ad0b618"},"vehicle_type_id":"4","last_reported":1735888107,"current_range_meters":32000,"station_id":"ce4bgh92rcd13ifvqb50","pricing_plan_id":"cebpf4jnsgd1na2vs0mg"},{"bike_id":"8da4c67d-2ed0-418e-b038-2836a9c86265","system_id":"levelo_inurba_marseille","lat":43.3172,"lon":5.43683,"is_reserved":false,"is_disabled":false,"rental_uris":{"android":"levelo://app?vid=8da4c67d-2ed0-418e-b038-2836a9c86265","ios":"levelo://app?vid=8da4c67d-2ed0-418e-b038-2836a9c86265"},"vehicle_type_id":"4","last_reported":1735888107,"current_range_meters":38800,"station_id":"ce4bhp92rcd13ifvqhcg","pricing_plan_id":"cebpf4jnsgd1na2vs0mg"},{"bike_id":"15f7408d-ac8b-40f6-b4bb-7aaceb3d3724","system_id":"levelo_inurba_marseille","lat":43.30453,"lon":5.3791,"is_reserved":false,"is_disabled":false,"rental_uris":{"android":"levelo://app?vid=15f7408d-ac8b-40f6-b4bb-7aaceb3d3724","ios":"levelo://app?vid=15f7408d-ac8b-40f6-b4bb-7aaceb3d3724"},"vehicle_type_id":"4","last_reported":1735888107,"current_range_meters":20400,"station_id":"ce4bgup2rcd13ifvqcn0","pricing_plan_id":"cebpf4jnsgd1na2vs0mg"},{"bike_id":"5da924b7-1d86-48f2-a906-f2fea708abbd","system_id":"levelo_inurba_marseille","lat":43.27661,"lon":5.38927,"is_reserved":false,"is_disabled":true,"rental_uris":{"android":"levelo://app?vid=5da924b7-1d86-48f2-a906-f2fea708abbd","ios":"levelo://app?vid=5da924b7-1d86-48f2-a906-f2fea708abbd"},"vehicle_type_id":"4","last_reported":1735888107,"current_range_meters":36400,"station_id":"ce4bhi12rcd13ifvqfo0","pricing_plan_id":"cebpf4jnsgd1na2vs0mg"},{"bike_id":"73d6586e-df3e-4e1c-9c54-408e330e8f71","system_id":"levelo_inurba_marseille","lat":43.30932,"lon":5.40148,"is_reserved":false,"is_disabled":false,"rental_uris":{"android":"levelo://app?vid=73d6586e-df3e-4e1c-9c54-408e330e8f71","ios":"levelo://app?vid=73d6586e-df3e-4e1c-9c54-408e330e8f71"},"vehicle_type_id":"4","last_reported":1735888107,"current_range_meters":38800,"station_id":"ce4bgvp2rcd13ifvqct0","pricing_plan_id":"cebpf4jnsgd1na2vs0mg"},{"bike_id":"0de59c75-d5a6-499f-820e-82b7500ec1c3","system_id":"levelo_inurba_marseille","lat":43.29194,"lon":5.3932,"is_reserved":false,"is_disabled":false,"rental_uris":{"android":"levelo://app?vid=0de59c75-d5a6-499f-820e-82b7500ec1c3","ios":"levelo://app?vid=0de59c75-d5a6-499f-820e-82b7500ec1c3"},"vehicle_type_id":"4","last_reported":1735888107,"current_range_meters":38400,"station_id":"ce4bh192rcd13ifvqdd0","pricing_plan_id":"cebpf4jnsgd1na2vs0mg"},{"bike_id":"d858f272-5396-4509-83f4-bf8d2e835b76","system_id":"levelo_inurba_marseille","lat":43.23195,"lon":5.3995,"is_reserved":false,"is_disabled":false,"rental_uris":{"android":"levelo://app?vid=d858f272-5396-4509-83f4-bf8d2e835b76","ios":"levelo://app?vid=d858f272-5396-4509-83f4-bf8d2e835b76"},"vehicle_type_id":"4","last_reported":1735888107,"current_range_meters":27200,"station_id":"ce4bhn12rcd13ifvqgqg","pricing_plan_id":"cebpf4jnsgd1na2vs0mg"},{"bike_id":"6014b1e2-35bf-4517-95c5-f4b2b2de8022","system_id":"levelo_inurba_marseille","lat":43.31055,"lon":5.39298,"is_reserved":false,"is_disabled":true,"rental_uris":{"android":"levelo://app?vid=6014b1e2-35bf-4517-95c5-f4b2b2de8022","ios":"levelo://app?vid=6014b1e2-35bf-4517-95c5-f4b2b2de8022"},"vehicle_type_id":"4","last_reported":1735888107,"current_range_meters":0,"station_id":"","pricing_plan_id":"cebpf4jnsgd1na2vs0mg"},{"bike_id":"8d979c36-a643-4f41-94a9-78734d4aeda6","system_id":"levelo_inurba_marseille","lat":43.30608,"lon":5.39313,"is_reserved":false,"is_disabled":false,"rental_uris":{"android":"levelo://app?vid=8d979c36-a643-4f41-94a9-78734d4aeda6","ios":"levelo://app?vid=8d979c36-a643-4f41-94a9-78734d4aeda6"},"vehicle_type_id":"4","last_reported":1735888107,"current_range_meters":38400,"station_id":"ce4bh0p2rcd13ifvqd80","pricing_plan_id":"cebpf4jnsgd1na2vs0mg"},{"bike_id":"bbc65bde-f287-4fb3-aad7-6d2f17569122","system_id":"levelo_inurba_marseille","lat":43.27997,"lon":5.38672,"is_reserved":false,"is_disabled":false,"rental_uris":{"android":"levelo://app?vid=bbc65bde-f287-4fb3-aad7-6d2f17569122","ios":"levelo://app?vid=bbc65bde-f287-4fb3-aad7-6d2f17569122"},"vehicle_type_id":"4","last_reported":1735888107,"current_range_meters":38400,"station_id":"ce4bhg12rcd13ifvqf80","pricing_plan_id":"cebpf4jnsgd1na2vs0mg"},{"bike_id":"96d68a9c-0cc4-4ced-927c-b815d6c91283","system_id":"levelo_inurba_marseille","lat":43.23966,"lon":5.36636,"is_reserved":false,"is_disabled":false,"rental_uris":{"android":"levelo://app?vid=96d68a9c-0cc4-4ced-927c-b815d6c91283","ios":"levelo://app?vid=96d68a9c-0cc4-4ced-927c-b815d6c91283"},"vehicle_type_id":"4","last_reported":1735888107,"current_range_meters":19200,"station_id":"ce4bhi12rcd13ifvqfp0","pricing_plan_id":"cebpf4jnsgd1na2vs0mg"},{"bike_id":"3bffce67-ea61-4076-9adf-a48f3341b258","system_id":"levelo_inurba_marseille","lat":43.3135,"lon":5.39688,"is_reserved":false,"is_disabled":true,"rental_uris":{"android":"levelo://app?vid=3bffce67-ea61-4076-9adf-a48f3341b258","ios":"levelo://app?vid=3bffce67-ea61-4076-9adf-a48f3341b258"},"vehicle_type_id":"4","last_reported":1735888107,"current_range_meters":33600,"station_id":"ce4bgvp2rcd13ifvqcu0","pricing_plan_id":"cebpf4jnsgd1na2vs0mg"},{"bike_id":"8551631d-0b18-4817-a777-2e719449779f","system_id":"levelo_inurba_marseille","lat":43.26548,"lon":5.37279,"is_reserved":false,"is_disabled":false,"rental_uris":{"android":"levelo://app?vid=8551631d-0b18-4817-a777-2e719449779f","ios":"levelo://app?vid=8551631d-0b18-4817-a777-2e719449779f"},"vehicle_type_id":"4","last_reported":1735888107,"current_range_meters":26000,"station_id":"ce4bhg12rcd13ifvqf70","pricing_plan_id":"cebpf4jnsgd1na2vs0mg"},{"bike_id":"89950f51-a9fe-472f-bc44-0625d71c7d3b","system_id":"levelo_inurba_marseille","lat":43.30269,"lon":5.40085,"is_reserved":false,"is_disabled":false,"rental_uris":{"android":"levelo://app?vid=89950f51-a9fe-472f-bc44-0625d71c7d3b","ios":"levelo://app?vid=89950f51-a9fe-472f-bc44-0625d71c7d3b"},"vehicle_type_id":"4","last_reported":1735888107,"current_range_meters":38000,"station_id":"ce4bgvh2rcd13ifvqcs0","pricing_plan_id":"cebpf4jnsgd1na2vs0mg"},{"bike_id":"326d1ee8-1ac7-4dc0-85ba-8fe9654229af","system_id":"levelo_inurba_marseille","lat":43.30599,"lon":5.39348,"is_reserved":false,"is_disabled":false,"rental_uris":{"android":"levelo://app?vid=326d1ee8-1ac7-4dc0-85ba-8fe9654229af","ios":"levelo://app?vid=326d1ee8-1ac7-4dc0-85ba-8fe9654229af"},"vehicle_type_id":"4","last_reported":1735888107,"current_range_meters":38800,"station_id":"ce4bh0p2rcd13ifvqd80","pricing_plan_id":"cebpf4jnsgd1na2vs0mg"},{"bike_id":"a9e62202-e3d5-494c-9cca-7476998a7982","system_id":"levelo_inurba_marseille","lat":43.28723,"lon":5.3792,"is_reserved":false,"is_disabled":false,"rental_uris":{"android":"levelo://app?vid=a9e62202-e3d5-494c-9cca-7476998a7982","ios":"levelo://app?vid=a9e62202-e3d5-494c-9cca-7476998a7982"},"vehicle_type_id":"4","last_reported":1735888107,"current_range_meters":38800,"station_id":"ce4bh9p2rcd13ifvqec0","pricing_plan_id":"cebpf4jnsgd1na2vs0mg"},{"bike_id":"d314a452-06d8-48cf-b60b-8067d30248e4","system_id":"levelo_inurba_marseille","lat":43.28136,"lon":5.42643,"is_reserved":false,"is_disabled":false,"rental_uris":{"android":"levelo://app?vid=d314a452-06d8-48cf-b60b-8067d30248e4","ios":"levelo://app?vid=d314a452-06d8-48cf-b60b-8067d30248e4"},"vehicle_type_id":"4","last_reported":1735888107,"current_range_meters":15200,"station_id":"ce4bhnh2rcd13ifvqgug","pricing_plan_id":"cebpf4jnsgd1na2vs0mg"},{"bike_id":"898ebcfa-1a27-4789-af7e-27b090bbcc03","system_id":"levelo_inurba_marseille","lat":43.28863,"lon":5.39333,"is_reserved":false,"is_disabled":true,"rental_uris":{"android":"levelo://app?vid=898ebcfa-1a27-4789-af7e-27b090bbcc03","ios":"levelo://app?vid=898ebcfa-1a27-4789-af7e-27b090bbcc03"},"vehicle_type_id":"4","last_reported":1735888107,"current_range_meters":16000,"station_id":"ce4bh2p2rcd13ifvqdi0","pricing_plan_id":"cebpf4jnsgd1na2vs0mg"},{"bike_id":"c14d1989-a72f-4241-a582-39661d0bcfcf","system_id":"levelo_inurba_marseille","lat":43.2319,"lon":5.35543,"is_reserved":false,"is_disabled":false,"rental_uris":{"android":"levelo://app?vid=c14d1989-a72f-4241-a582-39661d0bcfcf","ios":"levelo://app?vid=c14d1989-a72f-4241-a582-39661d0bcfcf"},"vehicle_type_id":"4","last_reported":1735888107,"current_range_meters":38800,"station_id":"ce4bhu92rcd13ifvqi70","pricing_plan_id":"cebpf4jnsgd1na2vs0mg"},{"bike_id":"ef72cdb4-465d-4178-b952-49906f159c48","system_id":"levelo_inurba_marseille","lat":43.28155,"lon":5.42652,"is_reserved":false,"is_disabled":false,"rental_uris":{"android":"levelo://app?vid=ef72cdb4-465d-4178-b952-49906f159c48","ios":"levelo://app?vid=ef72cdb4-465d-4178-b952-49906f159c48"},"vehicle_type_id":"4","last_reported":1735888107,"current_range_meters":24000,"station_id":"ce4bhnh2rcd13ifvqgug","pricing_plan_id":"cebpf4jnsgd1na2vs0mg"},{"bike_id":"7dfe26ce-d7ef-4cb2-a642-50e9fb8770b0","system_id":"levelo_inurba_marseille","lat":43.26195,"lon":5.37928,"is_reserved":false,"is_disabled":false,"rental_uris":{"android":"levelo://app?vid=7dfe26ce-d7ef-4cb2-a642-50e9fb8770b0","ios":"levelo://app?vid=7dfe26ce-d7ef-4cb2-a642-50e9fb8770b0"},"vehicle_type_id":"4","last_reported":1735888107,"current_range_meters":37600,"station_id":"ce4bhjp2rcd13ifvqg90","pricing_plan_id":"cebpf4jnsgd1na2vs0mg"},