{"last_updated":1757787097,"ttl":60,"version":"2.2","data":{"bikes":[{"bike_id":"738a1141-4bff-4bed-ab58-9f74036b33ab","system_id":"levelo_inurba_marseille","lat":43.29282,"lon":5.38739,"is_reserved":false,"is_disabled":false,"rental_uris":{"android":"levelo://app?vid=738a1141-4bff-4bed-ab58-9f74036b33ab","ios":"levelo://app?vid=738a1141-4bff-4bed-ab58-9f74036b33ab"},"vehicle_type_id":"4","last_reported":1757787097,"current_range_meters":2800,"station_id":"","pricing_plan_id":"cebpf4jnsgd1na2vs0mg"},{"bike_id":"5a211279-3c76-4c19-95dc-5deecad85b0f","system_id":"levelo_inurba_marseille","lat":43.25121,"lon":5.4032,"is_reserved":false,"is_disabled":false,"rental_uris":{"android":"levelo://app?vid=5a211279-3c76-4c19-95dc-5deecad85b0f","ios":"levelo://app?vid=5a211279-3c76-4c19-95dc-5deecad85b0f"},"vehicle_type_id":"4","last_reported":1757787097,"current_range_meters":2800,"station_id":"ce4bhlh2rcd13ifvqgig","pricing_plan_id":"cebpf4jnsgd1na2vs0mg"},{"bike_id":"9ef26e0c-6f01-4b10-90fe-cec11146e852","system_id":"levelo_inurba_marseille","lat":43.31041,"lon":5.37278,"is_reserved":false,"is_disabled":false,"rental_uris":{"android":"levelo://app?vid=9ef26e0c-6f01-4b10-90fe-cec11146e852","ios":"levelo://app?vid=9ef26e0c-6f01-4b10-90fe-cec11146e852"},"vehicle_type_id":"4","last_reported":1757787097,"current_range_meters":2800,"station_id":"","pricing_plan_id":"cebpf4jnsgd1na2vs0mg"},{"bike_id":"c5d74327-fc3a-44d5-8dca-ada28896fc57","system_id":"levelo_inurba_marseille","lat":43.28874,"lon":5.42512,"is_reserved":false,"is_disabled":false,"rental_uris":{"android":"levelo://app?vid=c5d74327-fc3a-44d5-8dca-ada28896fc57","ios":"levelo://app?vid=c5d74327-fc3a-44d5-8dca-ada28896fc57"},"vehicle_type_id":"4","last_reported":1757787097,"current_range_meters":2800,"station_id":"","pricing_plan_id":"cebpf4jnsgd1na2vs0mg"},{"bike_id":"13bd9ea4-7ceb-4ab8-b959-da07d20b6910","system_id":"levelo_inurba_marseille","lat":43.29214,"lon":5.36057,"is_reserved":false,"is_disabled":false,"rental_uris":{"android":"levelo://app?vid=13bd9ea4-7ceb-4ab8-b959-da07d20b6910","ios":"levelo://app?vid=13bd9ea4-7ceb-4ab8-b959-da07d20b6910"},"vehicle_type_id":"4","last_reported":1757787097,"current_range_meters":2800,"station_id":"ce4bhbh2rcd13ifvqeqg","pricing_plan_id":"cebpf4jnsgd1na2vs0mg"},{"bike_id":"c7c7be81-9de6-4d64-ba46-633826f18304","system_id":"levelo_inurba_marseille","lat":43.29091,"lon":5.38125,"is_reserved":false,"is_disabled":false,"rental_uris":{"android":"levelo://app?vid=c7c7be81-9de6-4d64-ba46-633826f18304","ios":"levelo://app?vid=c7c7be81-9de6-4d64-ba46-633826f18304"},"vehicle_type_id":"4","last_reported":1757787097,"current_range_meters":3200,"station_id":"ce4bh512rcd13ifvqe2g","pricing_plan_id":"cebpf4jnsgd1na2vs0mg"},{"bike_id":"c04807da-1d84-4df7-b750-f3fc750ae279","system_id":"levelo_inurba_marseille","lat":43.28078,"lon":5.39664,"is_reserved":false,"is_disabled":false,"rental_uris":{"android":"levelo://app?vid=c04807da-1d84-4df7-b750-f3fc750ae279","ios":"levelo://app?vid=c04807da-1d84-4df7-b750-f3fc750ae279"},"vehicle_type_id":"4","last_reported":1757787097,"current_range_meters":2800,"station_id":"ce4bho12rcd13ifvqh2g","pricing_plan_id":"cebpf4jnsgd1na2vs0mg"},{"bike_id":"829e3d43-b7fd-4fdb-a348-26986d341284","system_id":"levelo_inurba_marseille","lat":43.217458,"lon":5.346024,"is_reserved":false,"is_disabled":false,"rental_uris":{"android":"levelo://app?vid=829e3d43-b7fd-4fdb-a348-26986d341284","ios":"levelo://app?vid=829e3d43-b7fd-4fdb-a348-26986d341284"},"vehicle_type_id":"4","last_reported":1757787097,"current_range_meters":3200,"station_id":"st_cvj6r9ubvosntc0bgbag","pricing_plan_id":"cebpf4jnsgd1na2vs0mg"},{"bike_id":"3258e62d-d54e-423a-82f8-b3e66399dbec","system_id":"levelo_inurba_marseille","lat":43.29786,"lon":5.38115,"is_reserved":false,"is_disabled":true,"rental_uris":{"android":"levelo://app?vid=3258e62d-d54e-423a-82f8-b3e66399dbec","ios":"levelo://app?vid=3258e62d-d54e-423a-82f8-b3e66399dbec"},"vehicle_type_id":"4","last_reported":1757787097,"current_range_meters":3600,"station_id":"ce4bgip2rcd13ifvqbb0","pricing_plan_id":"cebpf4jnsgd1na2vs0mg"},{"bike_id":"ff74af27-7f09-48d7-9b6d-b4000afb5f40","system_id":"levelo_inurba_marseille","lat":43.29595,"lon":5.38104,"is_reserved":false,"is_disabled":false,"rental_uris":{"android":"levelo://app?vid=ff74af27-7f09-48d7-9b6d-b4000afb5f40","ios":"levelo://app?vid=ff74af27-7f09-48d7-9b6d-b4000afb5f40"},"vehicle_type_id":"4","last_reported":1757787097,"current_range_meters":3600,"station_id":"ce4bgl12rcd13ifvqbo0","pricing_plan_id":"cebpf4jnsgd1na2vs0mg"},{"bike_id":"11171903-6935-4cba-a416-7e62ec603ec2","system_id":"levelo_inurba_marseille","lat":43.292823,"lon":5.406797,"is_reserved":false,"is_disabled":false,"rental_uris":{"android":"levelo://app?vid=11171903-6935-4cba-a416-7e62ec603ec2","ios":"levelo://app?vid=11171903-6935-4cba-a416-7e62ec603ec2"},"vehicle_type_id":"4","last_reported":1757787097,"current_range_meters":3600,"station_id":"ce4bh192rcd13ifvqdc0","pricing_plan_id":"cebpf4jnsgd1na2vs0mg"},{"bike_id":"53554954-4092-48b0-bc91-1df4ef132f87","system_id":"levelo_inurba_marseille","lat":43.27608,"lon":5.36126,"is_reserved":false,"is_disabled":false,"rental_uris":{"android":"levelo://app?vid=53554954-4092-48b0-bc91-1df4ef132f87","ios":"levelo://app?vid=53554954-4092-48b0-bc91-1df4ef132f87"},"vehicle_type_id":"4","last_reported":1757787097,"current_range_meters":4000,"station_id":"ce4bgj92rcd13ifvqbe0","pricing_plan_id":"cebpf4jnsgd1na2vs0mg"},{"bike_id":"fd9d6ec5-39f5-4137-80f8-504a6e10b664","system_id":"levelo_inurba_marseille","lat":43.27197,"lon":5.3917,"is_reserved":false,"is_disabled":false,"rental_uris":{"android":"levelo://app?vid=fd9d6ec5-39f5-4137-80f8-504a6e10b664","ios":"levelo://app?vid=fd9d6ec5-39f5-4137-80f8-504a6e10b664"},"vehicle_type_id":"4","last_reported":1757787097,"current_range_meters":4000,"station_id":"ce4bhhp2rcd13ifvqfm0","pricing_plan_id":"cebpf4jnsgd1na2vs0mg"},{"bike_id":"d1de2b7d-3583-4df3-8bfa-43eda5116068","system_id":"levelo_inurba_marseille","lat":43.3374,"lon":5.37468,"is_reserved":false,"is_disabled":false,"rental_uris":{"android":"levelo://app?vid=d1de2b7d-3583-4df3-8bfa-43eda5116068","ios":"levelo://app?vid=d1de2b7d-3583-4df3-8bfa-43eda5116068"},"vehicle_type_id":"4","last_reported":1757787097,"current_range_meters":4000,"station_id":"","pricing_plan_id":"cebpf4jnsgd1na2vs0mg"},{"bike_id":"8e823669-a05c-4f14-a05f-6373bb94f16b","system_id":"levelo_inurba_marseille","lat":43.307288,"lon":5.372792,"is_reserved":false,"is_disabled":false,"rental_uris":{"android":"levelo://app?vid=8e823669-a05c-4f14-a05f-6373bb94f16b","ios":"levelo://app?vid=8e823669-a05c-4f14-a05f-6373bb94f16b"},"vehicle_type_id":"4","last_reported":1757787097,"current_range_meters":4400,"station_id":"","pricing_plan_id":"cebpf4jnsgd1na2vs0mg"},{"bike_id":"fe8d88d6-81c3-42a8-85bb-3d0aa4841db3","system_id":"levelo_inurba_marseille","lat":43.337444,"lon":5.374475,"is_reserved":false,"is_disabled":false,"rental_uris":{"android":"levelo://app?vid=fe8d88d6-81c3-42a8-85bb-3d0aa4841db3","ios":"levelo://app?vid=fe8d88d6-81c3-42a8-85bb-3d0aa4841db3"},"vehicle_type_id":"4","last_reported":1757787097,"current_range_meters":4400,"station_id":"","pricing_plan_id":"cebpf4jnsgd1na2vs0mg"},{"bike_id":"d1208639-5703-4ac3-a303-6e72a5788218","system_id":"levelo_inurba_marseille","lat":43.33753,"lon":5.37475,"is_reserved":false,"is_disabled":false,"rental_uris":{"android":"levelo://app?vid=d1208639-5703-4ac3-a303-6e72a5788218","ios":"levelo://app?vid=d1208639-5703-4ac3-a303-6e72a5788218"},"vehicle_type_id":"4","last_reported":1757787097,"current_range_meters":4400,"station_id":"","pricing_plan_id":"cebpf4jnsgd1na2vs0mg"},{"bike_id":"99b9bda8-69ca-4cf4-8b30-9208eb34fd4e","system_id":"levelo_inurba_marseille","lat":43.286709,"lon":5.386632,"is_reserved":false,"is_disabled":false,"rental_uris":{"android":"levelo://app?vid=99b9bda8-69ca-4cf4-8b30-9208eb34fd4e","ios":"levelo://app?vid=99b9bda8-69ca-4cf4-8b30-9208eb34fd4e"},"vehicle_type_id":"4","last_reported":1757787097,"current_range_meters":4800,"station_id":"ce4bh492rcd13ifvqdug","pricing_plan_id":"cebpf4jnsgd1na2vs0mg"},{"bike_id":"999df056-799c-417e-807e-52608d0b797e","system_id":"levelo_inurba_marseille","lat":43.297101,"lon":5.377007,"is_reserved":false,"is_disabled":false,"rental_uris":{"android":"levelo://app?vid=999df056-799c-417e-807e-52608d0b797e","ios":"levelo://app?vid=999df056-799c-417e-807e-52608d0b797e"},"vehicle_type_id":"4","last_reported":1757787097,"current_range_meters":4800,"station_id":"","pricing_plan_id":"cebpf4jnsgd1na2vs0mg"},{"bike_id":"aa1ba943-d9e5-46be-8ab9-89725622b1b8","system_id":"levelo_inurba_marseille","lat":43.29909,"lon":5.38148,"is_reserved":false,"is_disabled":false,"rental_uris":{"android":"levelo://app?vid=aa1ba943-d9e5-46be-8ab9-89725622b1b8","ios":"levelo://app?vid=aa1ba943-d9e5-46be-8ab9-89725622b1b8"},"vehicle_type_id":"4","last_reported":1757787097,"current_range_meters":4800,"station_id":"ce4bgj12rcd13ifvqbc0","pricing_plan_id":"cebpf4jnsgd1na2vs0mg"},{"bike_id":"fad6ce92-8dd1-4ce3-9de3-6ae5f1b74cf2","system_id":"levelo_inurba_marseille","lat":43.30616,"lon":5.40072,"is_reserved":false,"is_disabled":false,"rental_uris":{"android":"levelo://app?vid=fad6ce92-8dd1-4ce3-9de3-6ae5f1b74cf2","ios":"levelo://app?vid=fad6ce92-8dd1-4ce3-9de3-6ae5f1b74cf2"},"vehicle_type_id":"4","last_reported":1757787097,"current_range_meters":4800,"station_id":"ce4bh112rcd13ifvqda0","pricing_plan_id":"cebpf4jnsgd1na2vs0mg"},{"bike_id":"e313b345-ef08-4d16-85af-9ecb95c2b843","system_id":"levelo_inurba_marseille","lat":43.30662,"lon":5.36617,"is_reserved":false,"is_disabled":false,"rental_uris":{"android":"levelo://app?vid=e313b345-ef08-4d16-85af-9ecb95c2b843","ios":"levelo://app?vid=e313b345-ef08-4d16-85af-9ecb95c2b843"},"vehicle_type_id":"4","last_reported":1757787097,"current_range_meters":5600,"station_id":"","pricing_plan_id":"cebpf4jnsgd1na2vs0mg"},{"bike_id":"fe8ea19a-9452-430b-9391-4bd937dd3622","system_id":"levelo_inurba_marseille","lat":43.28364,"lon":5.3903,"is_reserved":false,"is_disabled":false,"rental_uris":{"android":"levelo://app?vid=fe8ea19a-9452-430b-9391-4bd937dd3622","ios":"levelo://app?vid=fe8ea19a-9452-430b-9391-4bd937dd3622"},"vehicle_type_id":"4","last_reported":1757787097,"current_range_meters":5600,"station_id":"","pricing_plan_id":"cebpf4jnsgd1na2vs0mg"},{"bike_id":"8eaa800d-071a-4461-aace-e7f43324aaac","system_id":"levelo_inurba_marseille","lat":43.27843,"lon":5.39211,"is_reserved":false,"is_disabled":false,"rental_uris":{"android":"levelo://app?vid=8eaa800d-071a-4461-aace-e7f43324aaac","ios":"levelo://app?vid=8eaa800d-071a-4461-aace-e7f43324aaac"},"vehicle_type_id":"4","last_reported":1757787097,"current_range_meters":5600,"station_id":"ce4bhjp2rcd13ifvqga0","pricing_plan_id":"cebpf4jnsgd1na2vs0mg"},{"bike_id":"435e3edc-92a0-438d-a95c-fc5a6c8bddaa","system_id":"levelo_inurba_marseille","lat":43.30092,"lon":5.39089,"is_reserved":false,"is_disabled":false,"rental_uris":{"android":"levelo://app?vid=435e3edc-92a0-438d-a95c-fc5a6c8bddaa","ios":"levelo://app?vid=435e3edc-92a0-438d-a95c-fc5a6c8bddaa"},"vehicle_type_id":"4","last_reported":1757787097,"current_range_meters":5600,"station_id":"ce4bh192rcd13ifvqdb0","pricing_plan_id":"cebpf4jnsgd1na2vs0mg"},{"bike_id":"305493e7-b20e-4286-8b8b-de84cfe382ca","system_id":"levelo_inurba_marseille","lat":43.26212,"lon":5.37442,"is_reserved":false,"is_disabled":false,"rental_uris":{"android":"levelo://app?vid=305493e7-b20e-4286-8b8b-de84cfe382ca","ios":"levelo://app?vid=305493e7-b20e-4286-8b8b-de84cfe382ca"},"vehicle_type_id":"4","last_reported":1757787097,"current_range_meters":6000,"station_id":"ce4bhgp2rcd13ifvqfc0","pricing_plan_id":"cebpf4jnsgd1na2vs0mg"},{"bike_id":"32ab3a85-dc1d-42d3-b9a4-7723bf271305","system_id":"levelo_inurba_marseille","lat":43.299048,"lon":5.381411,"is_reserved":false,"is_disabled":false,"rental_uris":{"android":"levelo://app?vid=32ab3a85-dc1d-42d3-b9a4-7723bf271305","ios":"levelo://app?vid=32ab3a85-dc1d-42d3-b9a4-7723bf271305"},"vehicle_type_id":"4","last_reported":1757787097,"current_range_meters":6000,"station_id":"ce4bgj12rcd13ifvqbc0","pricing_plan_id":"cebpf4jnsgd1na2vs0mg"},{"bike_id":"b5555032-2904-41d4-8aa7-e18a69645828","system_id":"levelo_inurba_marseille","lat":43.272,"lon":5.39175,"is_reserved":false,"is_disabled":false,"rental_uris":{"android":"levelo://app?vid=b5555032-2904-41d4-8aa7-e18a69645828","ios":"levelo://app?vid=b5555032-2904-41d4-8aa7-e18a69645828"},"vehicle_type_id":"4","last_reported":1757787097,"current_range_meters":6000,"station_id":"ce4bhhp2rcd13ifvqfm0","pricing_plan_id":"cebpf4jnsgd1na2vs0mg"},{"bike_id":"c6cc9404-4117-449a-91ff-795d9be52b29","system_id":"levelo_inurba_marseille","lat":43.26951,"lon":5.38637,"is_reserved":false,"is_disabled":false,"rental_uris":{"android":"levelo://app?vid=c6cc9404-4117-449a-91ff-795d9be52b29","ios":"levelo://app?vid=c6cc9404-4117-449a-91ff-795d9be52b29"},"vehicle_type_id":"4","last_reported":1757787097,"current_range_meters":6400,"station_id":"ce4bhh92rcd13ifvqfh0","pricing_plan_id":"cebpf4jnsgd1na2vs0mg"},{"bike_id":"e7b57c99-b225-4a11-bb07-a15c96cd8971","system_id":"levelo_inurba_marseille","lat":43.27919,"lon":5.41074,"is_reserved":false,"is_disabled":false,"rental_uris":{"android":"levelo://app?vid=e7b57c99-b225-4a11-bb07-a15c96cd8971","ios":"levelo://app?vid=e7b57c99-b225-4a11-bb07-a15c96cd8971"},"vehicle_type_id":"4","last_reported":1757787097,"current_range_meters":6400,"station_id":"ce4bhnp2rcd13ifvqh0g","pricing_plan_id":"cebpf4jnsgd1na2vs0mg"},{"bike_id":"6a452781-ab43-4e85-9765-4277383297ee","system_id":"levelo_inurba_marseille","lat":43.25335,"lon":5.4217,"is_reserved":false,"is_disabled":false,"rental_uris":{"android":"levelo://app?vid=6a452781-ab43-4e85-9765-4277383297ee","ios":"levelo://app?vid=6a452781-ab43-4e85-9765-4277383297ee"},"vehicle_type_id":"4","last_reported":1757787097,"current_range_meters":6400,"station_id":"st_d2m65c5bi1j21697t3ng","pricing_plan_id":"cebpf4jnsgd1na2vs0mg"},{"bike_id":"4e338c38-b162-4738-85ec-718dbe9b4e97","system_id":"levelo_inurba_marseille","lat":43.27896,"lon":5.38019,"is_reserved":false,"is_disabled":false,"rental_uris":{"android":"levelo://app?vid=4e338c38-b162-4738-85ec-718dbe9b4e97","ios":"levelo://app?vid=4e338c38-b162-4738-85ec-718dbe9b4e97"},"vehicle_type_id":"4","last_reported":1757787097,"current_range_meters":6000,"station_id":"ce4bhf92rcd13ifvqf50","pricing_plan_id":"cebpf4jnsgd1na2vs0mg"},{"bike_id":"7a2e3d95-83cc-4943-b5fa-479e0674d9d9","system_id":"levelo_inurba_marseille","lat":43.292588,"lon":5.384417,"is_reserved":false,"is_disabled":false,"rental_uris":{"android":"levelo://app?vid=7a2e3d95-83cc-4943-b5fa-479e0674d9d9","ios":"levelo://app?vid=7a2e3d95-83cc-4943-b5fa-479e0674d9d9"},"vehicle_type_id":"4","last_reported":1757787097,"current_range_meters":6800,"station_id":"","pricing_plan_id":"cebpf4jnsgd1na2vs0mg"},{"bike_id":"24665070-43d5-48f1-934c-c4e1453fbc65","system_id":"levelo_inurba_marseille","lat":43.26697,"lon":5.38265,"is_reserved":false,"is_disabled":true,"rental_uris":{"android":"levelo://app?vid=24665070-43d5-48f1-934c-c4e1453fbc65","ios":"levelo://app?vid=24665070-43d5-48f1-934c-c4e1453fbc65"},"vehicle_type_id":"4","last_reported":1757787097,"current_range_meters":6800,"station_id":"ce4bhg92rcd13ifvqf90","pricing_plan_id":"cebpf4jnsgd1na2vs0mg"},{"bike_id":"ce4e4faf-9b58-47b7-8bed-12e0550b1123","system_id":"levelo_inurba_marseille","lat":43.27659,"lon":5.3888,"is_reserved":false,"is_disabled":false,"rental_uris":{"android":"levelo://app?vid=ce4e4faf-9b58-47b7-8bed-12e0550b1123","ios":"levelo://app?vid=ce4e4faf-9b58-47b7-8bed-12e0550b1123"},"vehicle_type_id":"4","last_reported":1757787097,"current_range_meters":6800,"station_id":"ce4bhi12rcd13ifvqfo0","pricing_plan_id":"cebpf4jnsgd1na2vs0mg"},{"bike_id":"e64418f0-c5c3-4d54-aaeb-53cab3e7187c","system_id":"levelo_inurba_marseille","lat":43.26198,"lon":5.37935,"is_reserved":false,"is_disabled":false,"rental_uris":{"android":"levelo://app?vid=e64418f0-c5c3-4d54-aaeb-53cab3e7187c","ios":"levelo://app?vid=e64418f0-c5c3-4d54-aaeb-53cab3e7187c"},"vehicle_type_id":"4","last_reported":1757787097,"current_range_meters":6800,"station_id":"ce4bhjp2rcd13ifvqg90","pricing_plan_id":"cebpf4jnsgd1na2vs0mg"},{"bike_id":"bd0fba8d-570d-4d8a-88cf-f11fb00501af","system_id":"levelo_inurba_marseille","lat":43.29189,"lon":5.39324,"is_reserved":false,"is_disabled":false,"rental_uris":{"android":"levelo://app?vid=bd0fba8d-570d-4d8a-88cf-f11fb00501af","ios":"levelo://app?vid=bd0fba8d-570d-4d8a-88cf-f11fb00501af"},"vehicle_type_id":"4","last_reported":1757787097,"current_range_meters":7200,"station_id":"ce4bh192rcd13ifvqdd0","pricing_plan_id":"cebpf4jnsgd1na2vs0mg"},{"bike_id":"323700b1-2181-4657-abc0-a39354d1e237","system_id":"levelo_inurba_marseille","lat":43.33718,"lon":5.39184,"is_reserved":false,"is_disabled":false,"rental_uris":{"android":"levelo://app?vid=323700b1-2181-4657-abc0-a39354d1e237","ios":"levelo://app?vid=323700b1-2181-4657-abc0-a39354d1e237"},"vehicle_type_id":"4","last_reported":1757787097,"current_range_meters":7200,"station_id":"ce4bhr92rcd13ifvqhsg","pricing_plan_id":"cebpf4jnsgd1na2vs0mg"},{"bike_id":"90518989-4ad5-48a0-816c-a31f1bd702d3","system_id":"levelo_inurba_marseille","lat":43.24387,"lon":5.37059,"is_reserved":false,"is_disabled":false,"rental_uris":{"android":"levelo://app?vid=90518989-4ad5-48a0-816c-a31f1bd702d3","ios":"levelo://app?vid=90518989-4ad5-48a0-816c-a31f1bd702d3"},"vehicle_type_id":"4","last_reported":1757787097,"current_range_meters":7200,"station_id":"ce4bhhh2rcd13ifvqfk0","pricing_plan_id":"cebpf4jnsgd1na2vs0mg"},{"bike_id":"f8a53ea1-975f-4ab2-b72f-f5ad4e567a91","system_id":"levelo_inurba_marseille","lat":43.25811,"lon":5.39416,"is_reserved":false,"is_disabled":false,"rental_uris":{"android":"levelo://app?vid=f8a53ea1-975f-4ab2-b72f-f5ad4e567a91","ios":"levelo://app?vid=f8a53ea1-975f-4ab2-b72f-f5ad4e567a91"},"vehicle_type_id":"4","last_reported":1757787097,"current_range_meters":7200,"station_id":"ce4bhip2rcd13ifvqft0","pricing_plan_id":"cebpf4jnsgd1na2vs0mg"},{"bike_id":"68422fda-945c-402d-b886-a4fecef0c346","system_id":"levelo_inurba_marseille","lat":43.2917,"lon":5.371416,"is_reserved":false,"is_disabled":true,"rental_uris":{"android":"levelo://app?vid=68422fda-945c-402d-b886-a4fecef0c346","ios":"levelo://app?vid=68422fda-945c-402d-b886-a4fecef0c346"},"vehicle_type_id":"4","last_reported":1757787097,"current_range_meters":7200,"station_id":"ce4bha92rcd13ifvqeh0","pricing_plan_id":"cebpf4jnsgd1na2vs0mg"},{"bike_id":"9fcbd726-debf-4344-99a6-0a735a4a790c","system_id":"levelo_inurba_marseille","lat":43.29534,"lon":5.39398,"is_reserved":false,"is_disabled":false,"rental_uris":{"android":"levelo://app?vid=9fcbd726-debf-4344-99a6-0a735a4a790c","ios":"levelo://app?vid=9fcbd726-debf-4344-99a6-0a735a4a790c"},"vehicle_type_id":"4","last_reported":1757787097,"current_range_meters":7200,"station_id":"ce4bh292rcd13ifvqdf0","pricing_plan_id":"cebpf4jnsgd1na2vs0mg"},{"bike_id":"b37d21d9-2cea-4209-9cd1-8c6dacc037d6","system_id":"levelo_inurba_marseille","lat":43.31999,"lon":5.38158,"is_reserved":false,"is_disabled":false,"rental_uris":{"android":"levelo://app?vid=b37d21d9-2cea-4209-9cd1-8c6dacc037d6","ios":"levelo://app?vid=b37d21d9-2cea-4209-9cd1-8c6dacc037d6"},"vehicle_type_id":"4","last_reported":1757787097,"current_range_meters":7200,"station_id":"ce4bhr12rcd13ifvqhpg","pricing_plan_id":"cebpf4jnsgd1na2vs0mg"},{"bike_id":"d027d9f2-538e-49c3-a5da-e37c5a36f1c7","system_id":"levelo_inurba_marseille","lat":43.28617,"lon":5.35115,"is_reserved":false,"is_disabled":false,"rental_uris":{"android":"levelo://app?vid=d027d9f2-538e-49c3-a5da-e37c5a36f1c7","ios":"levelo://app?vid=d027d9f2-538e-49c3-a5da-e37c5a36f1c7"},"vehicle_type_id":"4","last_reported":1757787097,"current_range_meters":8000,"station_id":"ce4bhch2rcd13ifvqeug","pricing_plan_id":"cebpf4jnsgd1na2vs0mg"},{"bike_id":"daf69396-a964-48b9-b2f2-13d3534d7ce4","system_id":"levelo_inurba_marseille","lat":43.24805,"lon":5.37457,"is_reserved":false,"is_disabled":false,"rental_uris":{"android":"levelo://app?vid=daf69396-a964-48b9-b2f2-13d3534d7ce4","ios":"levelo://app?vid=daf69396-a964-48b9-b2f2-13d3534d7ce4"},"vehicle_type_id":"4","last_reported":1757787097,"current_range_meters":8000,"station_id":"ce4bhgh2rcd13ifvqfb0","pricing_plan_id":"cebpf4jnsgd1na2vs0mg"},{"bike_id":"f5af038c-d20d-4363-a1a2-619a6c397173","system_id":"levelo_inurba_marseille","lat":43.239645,"lon":5.366295,"is_reserved":false,"is_disabled":false,"rental_uris":{"android":"levelo://app?vid=f5af038c-d20d-4363-a1a2-619a6c397173","ios":"levelo://app?vid=f5af038c-d20d-4363-a1a2-619a6c397173"},"vehicle_type_id":"4","last_reported":1757787097,"current_range_meters":8000,"station_id":"","pricing_plan_id":"cebpf4jnsgd1na2vs0mg"},{"bike_id":"059b6b47-050d-433b-be33-398fe12effb9","system_id":"levelo_inurba_marseille","lat":43.23119,"lon":5.43762,"is_reserved":false,"is_disabled":false,"rental_uris":{"android":"levelo://app?vid=059b6b47-050d-433b-be33-398fe12effb9","ios":"levelo://app?vid=059b6b47-050d-433b-be33-398fe12effb9"},"vehicle_type_id":"4","last_reported":1757787097,"current_range_meters":8400,"station_id":"ce4bhmp2rcd13ifvqgog","pricing_plan_id":"cebpf4jnsgd1na2vs0mg"},{"bike_id":"542226aa-2248-4e44-9b2a-b814e11589b1","system_id":"levelo_inurba_marseille","lat":43.3094,"lon":5.40148,"is_reserved":false,"is_disabled":false,"rental_uris":{"android":"levelo://app?vid=542226aa-2248-4e44-9b2a-b814e11589b1","ios":"levelo://app?vid=542226aa-2248-4e44-9b2a-b814e11589b1"},"vehicle_type_id":"4","last_reported":1757787097,"current_range_meters":8400,"station_id":"ce4bgvp2rcd13ifvqct0","pricing_plan_id":"cebpf4jnsgd1na2vs0mg"},{"bike_id":"784a9a37-2ed4-485f-a7aa-1c57eda37a9b","system_id":"levelo_inurba_marseille","lat":43.31329,"lon":5.39696,"is_reserved":false,"is_disabled":false,"rental_uris":{"android":"levelo://app?vid=784a9a37-2ed4-485f-a7aa-1c57eda37a9b","ios":"levelo://app?vid=784a9a37-2ed4-485f-a7aa-1c57eda37a9b"},"vehicle_type_id":"4","last_reported":1757787097,"current_range_meters":8400,"station_id":"ce4bgvp2rcd13ifvqcu0","pricing_plan_id":"cebpf4jnsgd1na2vs0mg"},{"bike_id":"5deac27c-98f0-4653-aaea-4436b45536af","system_id":"levelo_inurba_marseille","lat":43.297802,"lon":5.393369,"is_reserved":false,"is_disabled":false,"rental_uris":{"android":"levelo://app?vid=5deac27c-98f0-4653-aaea-4436b45536af","ios":"levelo://app?vid=5deac27c-98f0-4653-aaea-4436b45536af"},"vehicle_type_id":"4","last_reported":1757787097,"current_range_meters":8400,"station_id":"chh1huq6cuj3fo74tm60","pricing_plan_id":"cebpf4jnsgd1na2vs0mg"},{"bike_id":"972b4c5f-3a00-4bb2-9116-b81f2cecc9f2","system_id":"levelo_inurba_marseille","lat":43.33764,"lon":5.37483,"is_reserved":false,"is_disabled":false,"rental_uris":{"android":"levelo://app?vid=972b4c5f-3a00-4bb2-9116-b81f2cecc9f2","ios":"levelo://app?vid=972b4c5f-3a00-4bb2-9116-b81f2cecc9f2"},"vehicle_type_id":"4","last_reported":1757787097,"current_range_meters":8400,"station_id":"","pricing_plan_id":"cebpf4jnsgd1na2vs0mg"},{"bike_id":"0ac62b20-efd1-4d6e-9b70-bf9abfc12010","system_id":"levelo_inurba_marseille","lat":43.27835,"lon":5.39206,"is_reserved":false,"is_disabled":false,"rental_uris":{"android":"levelo://app?vid=0ac62b20-efd1-4d6e-9b70-bf9abfc12010","ios":"levelo://app?vid=0ac62b20-efd1-4d6e-9b70-bf9abfc12010"},"vehicle_type_id":"4","last_reported":1757787097,"current_range_meters":8400,"station_id":"ce4bhjp2rcd13ifvqga0","pricing_plan_id":"cebpf4jnsgd1na2vs0mg"},{"bike_id":"aabc45e2-f07b-4b0b-a5db-f3757a168868","system_id":"levelo_inurba_marseille","lat":43.22929,"lon":5.35376,"is_reserved":false,"is_disabled":false,"rental_uris":{"android":"levelo://app?vid=aabc45e2-f07b-4b0b-a5db-f3757a168868","ios":"levelo://app?vid=aabc45e2-f07b-4b0b-a5db-f3757a168868"},"vehicle_type_id":"4","last_reported":1757787097,"current_range_meters":8400,"station_id":"cpo3532slgdg3j2ikp40","pricing_plan_id":"cebpf4jnsgd1na2vs0mg"},{"bike_id":"a3977072-5f91-4a68-b0d6-dc3cb909a337","system_id":"levelo_inurba_marseille","lat":43.33765,"lon":5.3748,"is_reserved":false,"is_disabled":false,"rental_uris":{"android":"levelo://app?vid=a3977072-5f91-4a68-b0d6-dc3cb909a337","ios":"levelo://app?vid=a3977072-5f91-4a68-b0d6-dc3cb909a337"},"vehicle_type_id":"4","last_reported":1757787097,"current_range_meters":8800,"station_id":"","pricing_plan_id":"cebpf4jnsgd1na2vs0mg"},{"bike_id":"c59df02f-5883-4086-a684-8a92e2c0c74a","system_id":"levelo_inurba_marseille","lat":43.29567,"lon":5.37508,"is_reserved":false,"is_disabled":false,"rental_uris":{"android":"levelo://app?vid=c59df02f-5883-4086-a684-8a92e2c0c74a","ios":"levelo://app?vid=c59df02f-5883-4086-a684-8a92e2c0c74a"},"vehicle_type_id":"4","last_reported":1757787097,"current_range_meters":8800,"station_id":"ce4bgh92rcd13ifvqb50","pricing_plan_id":"cebpf4jnsgd1na2vs0mg"},{"bike_id":"202633c1-4070-4798-8b68-51f4eaee5281","system_id":"levelo_inurba_marseille","lat":43.29218,"lon":5.38388,"is_reserved":false,"is_disabled":false,"rental_uris":{"android":"levelo://app?vid=202633c1-4070-4798-8b68-51f4eaee5281","ios":"levelo://app?vid=202633c1-4070-4798-8b68-51f4eaee5281"},"vehicle_type_id":"4","last_reported":1757787097,"current_range_meters":8800,"station_id":"","pricing_plan_id":"cebpf4jnsgd1na2vs0mg"},{"bike_id":"596cd808-c11b-47ed-9228-ec06480e81bd","system_id":"levelo_inurba_marseille","lat":43.29575,"lon":5.37496,"is_reserved":false,"is_disabled":false,"rental_uris":{"android":"levelo://app?vid=596cd808-c11b-47ed-9228-ec06480e81bd","ios":"levelo://app?vid=596cd808-c11b-47ed-9228-ec06480e81bd"},"vehicle_type_id":"4","last_reported":1757787097,"current_range_meters":8800,"station_id":"ce4bgh92rcd13ifvqb50","pricing_plan_id":"cebpf4jnsgd1na2vs0mg"},{"bike_id":"b7994c63-2cf8-4652-be6c-a22dba63ad23","system_id":"levelo_inurba_marseille","lat":43.29792,"lon":5.3934,"is_reserved":false,"is_disabled":false,"rental_uris":{"android":"levelo://app?vid=b7994c63-2cf8-4652-be6c-a22dba63ad23","ios":"levelo://app?vid=b7994c63-2cf8-4652-be6c-a22dba63ad23"},"vehicle_type_id":"4","last_reported":1757787097,"current_range_meters":8400,"station_id":"chh1huq6cuj3fo74tm60","pricing_plan_id":"cebpf4jnsgd1na2vs0mg"},{"bike_id":"3bd595b7-af3b-43b1-8697-1bcb2a61af6f","system_id":"levelo_inurba_marseille","lat":43.27999,"lon":5.39991,"is_reserved":false,"is_disabled":true,"rental_uris":{"android":"levelo://app?vid=3bd595b7-af3b-43b1-8697-1bcb2a61af6f","ios":"levelo://app?vid=3bd595b7-af3b-43b1-8697-1bcb2a61af6f"},"vehicle_type_id":"4","last_reported":1757787097,"current_range_meters":8800,"station_id":"ce4bho92rcd13ifvqh4g","pricing_plan_id":"cebpf4jnsgd1na2vs0mg"},{"bike_id":"a0cc4626-439e-4195-856b-241596527a68","system_id":"levelo_inurba_marseille","lat":43.30535,"lon":5.36719,"is_reserved":false,"is_disabled":false,"rental_uris":{"android":"levelo://app?vid=a0cc4626-439e-4195-856b-241596527a68","ios":"levelo://app?vid=a0cc4626-439e-4195-856b-241596527a68"},"vehicle_type_id":"4","last_reported":1757787097,"current_range_meters":8400,"station_id":"ce4bgrp2rcd13ifvqc9g","pricing_plan_id":"cebpf4jnsgd1na2vs0mg"},{"bike_id":"967925c1-5801-48e0-8106-c1c094d60ec3","system_id":"levelo_inurba_marseille","lat":43.27989,"lon":5.41666,"is_reserved":false,"is_disabled":false,"rental_uris":{"android":"levelo://app?vid=967925c1-5801-48e0-8106-c1c094d60ec3","ios":"levelo://app?vid=967925c1-5801-48e0-8106-c1c094d60ec3"},"vehicle_type_id":"4","last_reported":1757787097,"current_range_meters":8800,"station_id":"ce4bho12rcd13ifvqh1g","pricing_plan_id":"cebpf4jnsgd1na2vs0mg"},{"bike_id":"9b1ce088-9a36-4a36-9a04-34738b401003","system_id":"levelo_inurba_marseille","lat":43.28725,"lon":5.3608,"is_reserved":false,"is_disabled":false,"rental_uris":{"android":"levelo://app?vid=9b1ce088-9a36-4a36-9a04-34738b401003","ios":"levelo://app?vid=9b1ce088-9a36-4a36-9a04-34738b401003"},"vehicle_type_id":"4","last_reported":1757787097,"current_range_meters":9200,"station_id":"cki0cbj6b192h4jlfktg","pricing_plan_id":"cebpf4jnsgd1na2vs0mg"},{"bike_id":"fc2358cb-77df-48c6-a9ee-d849afbea9a3","system_id":"levelo_inurba_marseille","lat":43.28958,"lon":5.3785,"is_reserved":false,"is_disabled":false,"rental_uris":{"android":"levelo://app?vid=fc2358cb-77df-48c6-a9ee-d849afbea9a3","ios":"levelo://app?vid=fc2358cb-77df-48c6-a9ee-d849afbea9a3"},"vehicle_type_id":"4","last_reported":1757787097,"current_range_meters":9200,"station_id":"ce4bh9p2rcd13ifvqed0","pricing_plan_id":"cebpf4jnsgd1na2vs0mg"},{"bike_id":"d67b217f-b439-4d8f-ad29-2c6d71ef768c","system_id":"levelo_inurba_marseille","lat":43.27955,"lon":5.38724,"is_reserved":false,"is_disabled":false,"rental_uris":{"android":"levelo://app?vid=d67b217f-b439-4d8f-ad29-2c6d71ef768c","ios":"levelo://app?vid=d67b217f-b439-4d8f-ad29-2c6d71ef768c"},"vehicle_type_id":"4","last_reported":1757787097,"current_range_meters":9200,"station_id":"ce4bhg12rcd13ifvqf80","pricing_plan_id":"cebpf4jnsgd1na2vs0mg"},{"bike_id":"43f5a029-d88d-4b6a-a21b-74ff16a34ae7","system_id":"levelo_inurba_marseille","lat":43.32039,"lon":5.41545,"is_reserved":false,"is_disabled":false,"rental_uris":{"android":"levelo://app?vid=43f5a029-d88d-4b6a-a21b-74ff16a34ae7","ios":"levelo://app?vid=43f5a029-d88d-4b6a-a21b-74ff16a34ae7"},"vehicle_type_id":"4","last_reported":1757787097,"current_range_meters":8800,"station_id":"ce4bhq92rcd13ifvqhkg","pricing_plan_id":"cebpf4jnsgd1na2vs0mg"},{"bike_id":"f0e5a48d-dcca-4ab9-8c2a-a9ec07b39fac","system_id":"levelo_inurba_marseille","lat":43.231893,"lon":5.355499,"is_reserved":false,"is_disabled":false,"rental_uris":{"android":"levelo://app?vid=f0e5a48d-dcca-4ab9-8c2a-a9ec07b39fac","ios":"levelo://app?vid=f0e5a48d-dcca-4ab9-8c2a-a9ec07b39fac"},"vehicle_type_id":"4","last_reported":1757787097,"current_range_meters":9200,"station_id":"ce4bhu92rcd13ifvqi70","pricing_plan_id":"cebpf4jnsgd1na2vs0mg"},{"bike_id":"eaa220fb-5349-44c0-849a-e1e199bab0e0","system_id":"levelo_inurba_marseille","lat":43.312032,"lon":5.367326,"is_reserved":false,"is_disabled":true,"rental_uris":{"android":"levelo://app?vid=eaa220fb-5349-44c0-849a-e1e199bab0e0","ios":"levelo://app?vid=eaa220fb-5349-44c0-849a-e1e199bab0e0"},"vehicle_type_id":"4","last_reported":1757787097,"current_range_meters":9600,"station_id":"","pricing_plan_id":"cebpf4jnsgd1na2vs0mg"},{"bike_id":"775af279-8ac9-4585-9121-809be9b13265","system_id":"levelo_inurba_marseille","lat":43.337775,"lon":5.374412,"is_reserved":false,"is_disabled":false,"rental_uris":{"android":"levelo://app?vid=775af279-8ac9-4585-9121-809be9b13265","ios":"levelo://app?vid=775af279-8ac9-4585-9121-809be9b13265"},"vehicle_type_id":"4","last_reported":1757787097,"current_range_meters":9600,"station_id":"","pricing_plan_id":"cebpf4jnsgd1na2vs0mg"},{"bike_id":"4266b374-d4bf-4fd2-bb94-51b2d7d40946","system_id":"levelo_inurba_marseille","lat":43.22561,"lon":5.41635,"is_reserved":false,"is_disabled":false,"rental_uris":{"android":"levelo://app?vid=4266b374-d4bf-4fd2-bb94-51b2d7d40946","ios":"levelo://app?vid=4266b374-d4bf-4fd2-bb94-51b2d7d40946"},"vehicle_type_id":"4","last_reported":1757787097,"current_range_meters":9600,"station_id":"st_d2o4gvlbi1j2169b742g","pricing_plan_id":"cebpf4jnsgd1na2vs0mg"},{"bike_id":"4e6c27da-2cc0-496b-ab26-06319f7e4b61","system_id":"levelo_inurba_marseille","lat":43.28606,"lon":5.35125,"is_reserved":false,"is_disabled":false,"rental_uris":{"android":"levelo://app?vid=4e6c27da-2cc0-496b-ab26-06319f7e4b61","ios":"levelo://app?vid=4e6c27da-2cc0-496b-ab26-06319f7e4b61"},"vehicle_type_id":"4","last_reported":1757787097,"current_range_meters":9600,"station_id":"ce4bhch2rcd13ifvqeug","pricing_plan_id":"cebpf4jnsgd1na2vs0mg"},{"bike_id":"e7fcf438-9d82-4343-a4fb-25dc0513ade6","system_id":"levelo_inurba_marseille","lat":43.28355,"lon":5.38106,"is_reserved":false,"is_disabled":false,"rental_uris":{"android":"levelo://app?vid=e7fcf438-9d82-4343-a4fb-25dc0513ade6","ios":"levelo://app?vid=e7fcf438-9d82-4343-a4fb-25dc0513ade6"},"vehicle_type_id":"4","last_reported":1757787097,"current_range_meters":9600,"station_id":"ce4bh412rcd13ifvqdr0","pricing_plan_id":"cebpf4jnsgd1na2vs0mg"},{"bike_id":"1f5337e1-0da6-4170-9317-908b45981a29","system_id":"levelo_inurba_marseille","lat":43.23097,"lon":5.40495,"is_reserved":false,"is_disabled":false,"rental_uris":{"android":"levelo://app?vid=1f5337e1-0da6-4170-9317-908b45981a29","ios":"levelo://app?vid=1f5337e1-0da6-4170-9317-908b45981a29"},"vehicle_type_id":"4","last_reported":1757787097,"current_range_meters":9600,"station_id":"","pricing_plan_id":"cebpf4jnsgd1na2vs0mg"},{"bike_id":"b8af3130-ab5f-482e-ba00-f101e94f7587","system_id":"levelo_inurba_marseille","lat":43.27934,"lon":5.41061,"is_reserved":false,"is_disabled":false,"rental_uris":{"android":"levelo://app?vid=b8af3130-ab5f-482e-ba00-f101e94f7587","ios":"levelo://app?vid=b8af3130-ab5f-482e-ba00-f101e94f7587"},"vehicle_type_id":"4","last_reported":1757787097,"current_range_meters":9600,"station_id":"ce4bhnp2rcd13ifvqh0g","pricing_plan_id":"cebpf4jnsgd1na2vs0mg"},{"bike_id":"1d6e3c36-1908-4673-8296-04b13bcdf521","system_id":"levelo_inurba_marseille","lat":43.25337,"lon":5.42188,"is_reserved":false,"is_disabled":false,"rental_uris":{"android":"levelo://app?vid=1d6e3c36-1908-4673-8296-04b13bcdf521","ios":"levelo://app?vid=1d6e3c36-1908-4673-8296-04b13bcdf521"},"vehicle_type_id":"4","last_reported":1757787097,"current_range_meters":10000,"station_id":"st_d2m65c5bi1j21697t3ng","pricing_plan_id":"cebpf4jnsgd1na2vs0mg"},{"bike_id":"ed351064-9ef2-4ee3-9871-3d419bfffe5e","system_id":"levelo_inurba_marseille","lat":43.28462,"lon":5.38434,"is_reserved":false,"is_disabled":false,"rental_uris":{"android":"levelo://app?vid=ed351064-9ef2-4ee3-9871-3d419bfffe5e","ios":"levelo://app?vid=ed351064-9ef2-4ee3-9871-3d419bfffe5e"},"vehicle_type_id":"4","last_reported":1757787097,"current_range_meters":10000,"station_id":"ce4bh512rcd13ifvqe3g","pricing_plan_id":"cebpf4jnsgd1na2vs0mg"},{"bike_id":"a24c4696-920b-4645-847f-87e0b46915a6","system_id":"levelo_inurba_marseille","lat":43.32443,"lon":5.4248,"is_reserved":false,"is_disabled":false,"rental_uris":{"android":"levelo://app?vid=a24c4696-920b-4645-847f-87e0b46915a6","ios":"levelo://app?vid=a24c4696-920b-4645-847f-87e0b46915a6"},"vehicle_type_id":"4","last_reported":1757787097,"current_range_meters":10000,"station_id":"","pricing_plan_id":"cebpf4jnsgd1na2vs0mg"},{"bike_id":"c5d0a267-63b8-45b1-8db4-f64d80554eb4","system_id":"levelo_inurba_marseille","lat":43.286082,"lon":5.370754,"is_reserved":false,"is_disabled":true,"rental_uris":{"android":"levelo://app?vid=c5d0a267-63b8-45b1-8db4-f64d80554eb4","ios":"levelo://app?vid=c5d0a267-63b8-45b1-8db4-f64d80554eb4"},"vehicle_type_id":"4","last_reported":1757787097,"current_range_meters":10000,"station_id":"ce4bht12rcd13ifvqi60","pricing_plan_id":"cebpf4jnsgd1na2vs0mg"},{"bike_id":"a65c4a2e-8cbe-4472-a963-5a6194b4c6f1","system_id":"levelo_inurba_marseille","lat":43.29451,"lon":5.39738,"is_reserved":false,"is_disabled":false,"rental_uris":{"android":"levelo://app?vid=a65c4a2e-8cbe-4472-a963-5a6194b4c6f1","ios":"levelo://app?vid=a65c4a2e-8cbe-4472-a963-5a6194b4c6f1"},"vehicle_type_id":"4","last_reported":1757787097,"current_range_meters":10000,"station_id":"ce4bh3h2rcd13ifvqdo0","pricing_plan_id":"cebpf4jnsgd1na2vs0mg"},{"bike_id":"064a1e0e-3bc7-46f2-a93f-f27f3e063c3c","system_id":"levelo_inurba_marseille","lat":43.25721,"lon":5.41112,"is_reserved":false,"is_disabled":false,"rental_uris":{"android":"levelo://app?vid=064a1e0e-3bc7-46f2-a93f-f27f3e063c3c","ios":"levelo://app?vid=064a1e0e-3bc7-46f2-a93f-f27f3e063c3c"},"vehicle_type_id":"4","last_reported":1757787097,"current_range_meters":10000,"station_id":"ce4bhkp2rcd13ifvqgd0","pricing_plan_id":"cebpf4jnsgd1na2vs0mg"},{"bike_id":"49e7d884-318c-424e-9367-7c0e4f8950b0","system_id":"levelo_inurba_marseille","lat":43.304371,"lon":5.388875,"is_reserved":false,"is_disabled":false,"rental_uris":{"android":"levelo://app?vid=49e7d884-318c-424e-9367-7c0e4f8950b0","ios":"levelo://app?vid=49e7d884-318c-424e-9367-7c0e4f8950b0"},"vehicle_type_id":"4","last_reported":1757787097,"current_range_meters":10000,"station_id":"ce4bgk12rcd13ifvqbi0","pricing_plan_id":"cebpf4jnsgd1na2vs0mg"},{"bike_id":"89724e0f-d6a6-4e81-9dc8-40ed9db09b04","system_id":"levelo_inurba_marseille","lat":43.286013,"lon":5.370639,"is_reserved":false,"is_disabled":false,"rental_uris":{"android":"levelo://app?vid=89724e0f-d6a6-4e81-9dc8-40ed9db09b04","ios":"levelo://app?vid=89724e0f-d6a6-4e81-9dc8-40ed9db09b04"},"vehicle_type_id":"4","last_reported":1757787097,"current_range_meters":10000,"station_id":"ce4bht12rcd13ifvqi60","pricing_plan_id":"cebpf4jnsgd1na2vs0mg"},{"bike_id":"464d33d8-8808-4028-b1a6-9dce43fe248c","system_id":"levelo_inurba_marseille","lat":43.28711,"lon":5.37944,"is_reserved":false,"is_disabled":false,"rental_uris":{"android":"levelo://app?vid=464d33d8-8808-4028-b1a6-9dce43fe248c","ios":"levelo://app?vid=464d33d8-8808-4028-b1a6-9dce43fe248c"},"vehicle_type_id":"4","last_reported":1757787097,"current_range_meters":10000,"station_id":"ce4bh9p2rcd13ifvqec0","pricing_plan_id":"cebpf4jnsgd1na2vs0mg"},{"bike_id":"6537226d-039c-4e1f-a5fb-c53304edd158","system_id":"levelo_inurba_marseille","lat":43.28959,"lon":5.37839,"is_reserved":false,"is_disabled":false,"rental_uris":{"android":"levelo://app?vid=6537226d-039c-4e1f-a5fb-c53304edd158","ios":"levelo://app?vid=6537226d-039c-4e1f-a5fb-c53304edd158"},"vehicle_type_id":"4","last_reported":1757787097,"current_range_meters":10000,"station_id":"ce4bh9p2rcd13ifvqed0","pricing_plan_id":"cebpf4jnsgd1na2vs0mg"},{"bike_id":"0fe12bd0-f5b6-4bec-b455-99467a1adb53","system_id":"levelo_inurba_marseille","lat":43.33146,"lon":5.38182,"is_reserved":false,"is_disabled":false,"rental_uris":{"android":"levelo://app?vid=0fe12bd0-f5b6-4bec-b455-99467a1adb53","ios":"levelo://app?vid=0fe12bd0-f5b6-4bec-b455-99467a1adb53"},"vehicle_type_id":"4","last_reported":1757787097,"current_range_meters":10800,"station_id":"","pricing_plan_id":"cebpf4jnsgd1na2vs0mg"},{"bike_id":"afa5b270-1b82-4b90-8fe4-7ae439ce006b","system_id":"levelo_inurba_marseille","lat":43.27981,"lon":5.41665,"is_reserved":false,"is_disabled":false,"rental_uris":{"android":"levelo://app?vid=afa5b270-1b82-4b90-8fe4-7ae439ce006b","ios":"levelo://app?vid=afa5b270-1b82-4b90-8fe4-7ae439ce006b"},"vehicle_type_id":"4","last_reported":1757787097,"current_range_meters":10800,"station_id":"ce4bho12rcd13ifvqh1g","pricing_plan_id":"cebpf4jnsgd1na2vs0mg"},{"bike_id":"b1fae7f5-f5c1-4232-88f8-9776066be04b","system_id":"levelo_inurba_marseille","lat":43.29304,"lon":5.37172,"is_reserved":false,"is_disabled":false,"rental_uris":{"android":"levelo://app?vid=b1fae7f5-f5c1-4232-88f8-9776066be04b","ios":"levelo://app?vid=b1fae7f5-f5c1-4232-88f8-9776066be04b"},"vehicle_type_id":"4","last_reported":1757787097,"current_range_meters":10800,"station_id":"ce4bgh92rcd13ifvqb40","pricing_plan_id":"cebpf4jnsgd1na2vs0mg"},{"bike_id":"01ff4586-29c8-4333-b677-9a78ad9ba062","system_id":"levelo_inurba_marseille","lat":43.24814,"lon":5.3746,"is_reserved":false,"is_disabled":false,"rental_uris":{"android":"levelo://app?vid=01ff4586-29c8-4333-b677-9a78ad9ba062","ios":"levelo://app?vid=01ff4586-29c8-4333-b677-9a78ad9ba062"},"vehicle_type_id":"4","last_reported":1757787097,"current_range_meters":10800,"station_id":"ce4bhgh2rcd13ifvqfb0","pricing_plan_id":"cebpf4jnsgd1na2vs0mg"},{"bike_id":"0c78ed8a-2af8-4f2c-895d-0de884f1c9f2","system_id":"levelo_inurba_marseille","lat":43.298969,"lon":5.436738,"is_reserved":false,"is_disabled":false,"rental_uris":{"android":"levelo://app?vid=0c78ed8a-2af8-4f2c-895d-0de884f1c9f2","ios":"levelo://app?vid=0c78ed8a-2af8-4f2c-895d-0de884f1c9f2"},"vehicle_type_id":"4","last_reported":1757787097,"current_range_meters":10800,"station_id":"ce4bhpp2rcd13ifvqhfg","pricing_plan_id":"cebpf4jnsgd1na2vs0mg"},{"bike_id":"765e589a-02a5-4664-894a-44868f19d35b","system_id":"levelo_inurba_marseille","lat":43.29533,"lon":5.38547,"is_reserved":false,"is_disabled":false,"rental_uris":{"android":"levelo://app?vid=765e589a-02a5-4664-894a-44868f19d35b","ios":"levelo://app?vid=765e589a-02a5-4664-894a-44868f19d35b"},"vehicle_type_id":"4","last_reported":1757787097,"current_range_meters":10800,"station_id":"ce4bgih2rcd13ifvqba0","pricing_plan_id":"cebpf4jnsgd1na2vs0mg"},{"bike_id":"9ad57701-092b-4987-844d-5371986cdaba","system_id":"levelo_inurba_marseille","lat":43.23144,"lon":5.4372,"is_reserved":false,"is_disabled":false,"rental_uris":{"android":"levelo://app?vid=9ad57701-092b-4987-844d-5371986cdaba","ios":"levelo://app?vid=9ad57701-092b-4987-844d-5371986cdaba"},"vehicle_type_id":"4","last_reported":1757787097,"current_range_meters":10800,"station_id":"ce4bhmp2rcd13ifvqgog","pricing_plan_id":"cebpf4jnsgd1na2vs0mg"},{"bike_id":"c08c4cbe-0292-4bc5-b107-71485da09d62","system_id":"levelo_inurba_marseille","lat":43.251182,"lon":5.40334,"is_reserved":false,"is_disabled":false,"rental_uris":{"android":"levelo://app?vid=c08c4cbe-0292-4bc5-b107-71485da09d62","ios":"levelo://app?vid=c08c4cbe-0292-4bc5-b107-71485da09d62"},"vehicle_type_id":"4","last_reported":1757787097,"current_range_meters":10800,"station_id":"ce4bhlh2rcd13ifvqgig","pricing_plan_id":"cebpf4jnsgd1na2vs0mg"},{"bike_id":"70b1aadb-401e-4f2c-8909-c928c2e9d4c2","system_id":"levelo_inurba_marseille","lat":43.29919,"lon":5.36552,"is_reserved":false,"is_disabled":false,"rental_uris":{"android":"levelo://app?vid=70b1aadb-401e-4f2c-8909-c928c2e9d4c2","ios":"levelo://app?vid=70b1aadb-401e-4f2c-8909-c928c2e9d4c2"},"vehicle_type_id":"4","last_reported":1757787097,"current_range_meters":10800,"station_id":"ce4bgm92rcd13ifvqbr0","pricing_plan_id":"cebpf4jnsgd1na2vs0mg"},{"bike_id":"38a85a48-757d-4839-abb7-cc48afb9d684","system_id":"levelo_inurba_marseille","lat":43.28926,"lon":5.38391,"is_reserved":false,"is_disabled":false,"rental_uris":{"android":"levelo://app?vid=38a85a48-757d-4839-abb7-cc48afb9d684","ios":"levelo://app?vid=38a85a48-757d-4839-abb7-cc48afb9d684"},"vehicle_type_id":"4","last_reported":1757787097,"current_range_meters":10800,"station_id":"ce4bh612rcd13ifvqe6g","pricing_plan_id":"cebpf4jnsgd1na2vs0mg"},{"bike_id":"ece861ab-bff0-4000-ae86-abc89439d20b","system_id":"levelo_inurba_marseille","lat":43.29301,"lon":5.37456,"is_reserved":false,"is_disabled":false,"rental_uris":{"android":"levelo://app?vid=ece861ab-bff0-4000-ae86-abc89439d20b","ios":"levelo://app?vid=ece861ab-bff0-4000-ae86-abc89439d20b"},"vehicle_type_id":"4","last_reported":1757787097,"current_range_meters":11200,"station_id":"ce4bgi12rcd13ifvqb70","pricing_plan_id":"cebpf4jnsgd1na2vs0mg"},{"bike_id":"140f33b8-1102-4f7e-b0ef-d83c5cd8bb96","system_id":"levelo_inurba_marseille","lat":43.23199,"lon":5.35567,"is_reserved":false,"is_disabled":false,"rental_uris":{"android":"levelo://app?vid=140f33b8-1102-4f7e-b0ef-d83c5cd8bb96","ios":"levelo://app?vid=140f33b8-1102-4f7e-b0ef-d83c5cd8bb96"},"vehicle_type_id":"4","last_reported":1757787097,"current_range_meters":11200,"station_id":"ce4bhu92rcd13ifvqi70","pricing_plan_id":"cebpf4jnsgd1na2vs0mg"},{"bike_id":"8a4d2a94-6dcc-48a7-bce6-1f6f98746be6","system_id":"levelo_inurba_marseille","lat":43.27477,"lon":5.42473,"is_reserved":false,"is_disabled":false,"rental_uris":{"android":"levelo://app?vid=8a4d2a94-6dcc-48a7-bce6-1f6f98746be6","ios":"levelo://app?vid=8a4d2a94-6dcc-48a7-bce6-1f6f98746be6"},"vehicle_type_id":"4","last_reported":1757787097,"current_range_meters":11200,"station_id":"ce4bhn92rcd13ifvqgrg","pricing_plan_id":"cebpf4jnsgd1na2vs0mg"},{"bike_id":"f6bb7a76-1d2f-4493-8f3f-a4eec7f4df47","system_id":"levelo_inurba_marseille","lat":43.30898,"lon":5.37233,"is_reserved":false,"is_disabled":false,"rental_uris":{"android":"levelo://app?vid=f6bb7a76-1d2f-4493-8f3f-a4eec7f4df47","ios":"levelo://app?vid=f6bb7a76-1d2f-4493-8f3f-a4eec7f4df47"},"vehicle_type_id":"4","last_reported":1757787097,"current_range_meters":11200,"station_id":"ce4bguh2rcd13ifvqckg","pricing_plan_id":"cebpf4jnsgd1na2vs0mg"},{"bike_id":"6888e1c8-05a2-41c9-8e7f-39034f4c8383","system_id":"levelo_inurba_marseille","lat":43.24999,"lon":5.38922,"is_reserved":false,"is_disabled":false,"rental_uris":{"android":"levelo://app?vid=6888e1c8-05a2-41c9-8e7f-39034f4c8383","ios":"levelo://app?vid=6888e1c8-05a2-41c9-8e7f-39034f4c8383"},"vehicle_type_id":"4","last_reported":1757787097,"current_range_meters":11200,"station_id":"ce4bhgp2rcd13ifvqfd0","pricing_plan_id":"cebpf4jnsgd1na2vs0mg"},{"bike_id":"024da74a-f117-4870-a1d2-8f070e172742","system_id":"levelo_inurba_marseille","lat":43.30133,"lon":5.3878,"is_reserved":false,"is_disabled":false,"rental_uris":{"android":"levelo://app?vid=024da74a-f117-4870-a1d2-8f070e172742","ios":"levelo://app?vid=024da74a-f117-4870-a1d2-8f070e172742"},"vehicle_type_id":"4","last_reported":1757787097,"current_range_meters":11600,"station_id":"ce4bghh2rcd13ifvqb60","pricing_plan_id":"cebpf4jnsgd1na2vs0mg"},{"bike_id":"259d9ad4-ac3c-4fbd-a0ca-7750460b7926","system_id":"levelo_inurba_marseille","lat":43.29537,"lon":5.38536,"is_reserved":false,"is_disabled":false,"rental_uris":{"android":"levelo://app?vid=259d9ad4-ac3c-4fbd-a0ca-7750460b7926","ios":"levelo://app?vid=259d9ad4-ac3c-4fbd-a0ca-7750460b7926"},"vehicle_type_id":"4","last_reported":1757787097,"current_range_meters":11600,"station_id":"ce4bgih2rcd13ifvqba0","pricing_plan_id":"cebpf4jnsgd1na2vs0mg"},{"bike_id":"8dc0915b-968e-4b4a-8ccf-fe2436df38a8","system_id":"levelo_inurba_marseille","lat":43.29018,"lon":5.38147,"is_reserved":false,"is_disabled":false,"rental_uris":{"android":"levelo://app?vid=8dc0915b-968e-4b4a-8ccf-fe2436df38a8","ios":"levelo://app?vid=8dc0915b-968e-4b4a-8ccf-fe2436df38a8"},"vehicle_type_id":"4","last_reported":1757787097,"current_range_meters":11600,"station_id":"ce4bh4p2rcd13ifvqe1g","pricing_plan_id":"cebpf4jnsgd1na2vs0mg"},{"bike_id":"d5c98035-fc72-4062-a3ec-13203f68e8ed","system_id":"levelo_inurba_marseille","lat":43.288612,"lon":5.425127,"is_reserved":false,"is_disabled":false,"rental_uris":{"android":"levelo://app?vid=d5c98035-fc72-4062-a3ec-13203f68e8ed","ios":"levelo://app?vid=d5c98035-fc72-4062-a3ec-13203f68e8ed"},"vehicle_type_id":"4","last_reported":1757787097,"current_range_meters":11600,"station_id":"","pricing_plan_id":"cebpf4jnsgd1na2vs0mg"},{"bike_id":"dcae514d-9200-43c1-9267-dee91427cf46","system_id":"levelo_inurba_marseille","lat":43.250859,"lon":5.395165,"is_reserved":false,"is_disabled":false,"rental_uris":{"android":"levelo://app?vid=dcae514d-9200-43c1-9267-dee91427cf46","ios":"levelo://app?vid=dcae514d-9200-43c1-9267-dee91427cf46"},"vehicle_type_id":"4","last_reported":1757787097,"current_range_meters":11600,"station_id":"ce4bhm12rcd13ifvqgkg","pricing_plan_id":"cebpf4jnsgd1na2vs0mg"},{"bike_id":"4512c2c7-f6ea-48a6-8a48-abb3bc17e447","system_id":"levelo_inurba_marseille","lat":43.25568,"lon":5.38244,"is_reserved":false,"is_disabled":false,"rental_uris":{"android":"levelo://app?vid=4512c2c7-f6ea-48a6-8a48-abb3bc17e447","ios":"levelo://app?vid=4512c2c7-f6ea-48a6-8a48-abb3bc17e447"},"vehicle_type_id":"4","last_reported":1757787097,"current_range_meters":11600,"station_id":"ce4bhih2rcd13ifvqfs0","pricing_plan_id":"cebpf4jnsgd1na2vs0mg"},{"bike_id":"3bef69fe-5b53-4b5c-bb48-170285c21d79","system_id":"levelo_inurba_marseille","lat":43.25825,"lon":5.39431,"is_reserved":false,"is_disabled":false,"rental_uris":{"android":"levelo://app?vid=3bef69fe-5b53-4b5c-bb48-170285c21d79","ios":"levelo://app?vid=3bef69fe-5b53-4b5c-bb48-170285c21d79"},"vehicle_type_id":"4","last_reported":1757787097,"current_range_meters":12000,"station_id":"ce4bhip2rcd13ifvqft0","pricing_plan_id":"cebpf4jnsgd1na2vs0mg"},{"bike_id":"defa39d1-7605-4753-bd83-2b2376a35679","system_id":"levelo_inurba_marseille","lat":43.30252,"lon":5.40087,"is_reserved":false,"is_disabled":false,"rental_uris":{"android":"levelo://app?vid=defa39d1-7605-4753-bd83-2b2376a35679","ios":"levelo://app?vid=defa39d1-7605-4753-bd83-2b2376a35679"},"vehicle_type_id":"4","last_reported":1757787097,"current_range_meters":12000,"station_id":"ce4bgvh2rcd13ifvqcs0","pricing_plan_id":"cebpf4jnsgd1na2vs0mg"},{"bike_id":"7dc00165-e583-4bd0-bbf8-f77743c96ba8","system_id":"levelo_inurba_marseille","lat":43.3233,"lon":5.36714,"is_reserved":false,"is_disabled":false,"rental_uris":{"android":"levelo://app?vid=7dc00165-e583-4bd0-bbf8-f77743c96ba8","ios":"levelo://app?vid=7dc00165-e583-4bd0-bbf8-f77743c96ba8"},"vehicle_type_id":"4","last_reported":1757787097,"current_range_meters":12000,"station_id":"ce4bhsh2rcd13ifvqi2g","pricing_plan_id":"cebpf4jnsgd1na2vs0mg"},{"bike_id":"647fbd3c-54f6-4c31-be0e-47077d785246","system_id":"levelo_inurba_marseille","lat":43.27419,"lon":5.39421,"is_reserved":false,"is_disabled":false,"rental_uris":{"android":"levelo://app?vid=647fbd3c-54f6-4c31-be0e-47077d785246","ios":"levelo://app?vid=647fbd3c-54f6-4c31-be0e-47077d785246"},"vehicle_type_id":"4","last_reported":1757787097,"current_range_meters":12000,"station_id":"ce4bhdp2rcd13ifvqf20","pricing_plan_id":"cebpf4jnsgd1na2vs0mg"},{"bike_id":"ace73bae-1ff6-4f00-8d1a-c7c365be17aa","system_id":"levelo_inurba_marseille","lat":43.29,"lon":5.35616,"is_reserved":false,"is_disabled":false,"rental_uris":{"android":"levelo://app?vid=ace73bae-1ff6-4f00-8d1a-c7c365be17aa","ios":"levelo://app?vid=ace73bae-1ff6-4f00-8d1a-c7c365be17aa"},"vehicle_type_id":"4","last_reported":1757787097,"current_range_meters":12400,"station_id":"ce4bhb92rcd13ifvqen0","pricing_plan_id":"cebpf4jnsgd1na2vs0mg"},{"bike_id":"84be000e-b186-4e60-8aaa-b7a0f42a7175","system_id":"levelo_inurba_marseille","lat":43.337616,"lon":5.374353,"is_reserved":false,"is_disabled":false,"rental_uris":{"android":"levelo://app?vid=84be000e-b186-4e60-8aaa-b7a0f42a7175","ios":"levelo://app?vid=84be000e-b186-4e60-8aaa-b7a0f42a7175"},"vehicle_type_id":"4","last_reported":1757787097,"current_range_meters":12400,"station_id":"","pricing_plan_id":"cebpf4jnsgd1na2vs0mg"},{"bike_id":"beb6189c-c21e-4836-b631-6b5c31a632d8","system_id":"levelo_inurba_marseille","lat":43.22556,"lon":5.41636,"is_reserved":false,"is_disabled":false,"rental_uris":{"android":"levelo://app?vid=beb6189c-c21e-4836-b631-6b5c31a632d8","ios":"levelo://app?vid=beb6189c-c21e-4836-b631-6b5c31a632d8"},"vehicle_type_id":"4","last_reported":1757787097,"current_range_meters":12800,"station_id":"st_d2o4gvlbi1j2169b742g","pricing_plan_id":"cebpf4jnsgd1na2vs0mg"},{"bike_id":"d5fe8587-d577-4927-9f03-bf5f1fa338f3","system_id":"levelo_inurba_marseille","lat":43.32576,"lon":5.37577,"is_reserved":false,"is_disabled":false,"rental_uris":{"android":"levelo://app?vid=d5fe8587-d577-4927-9f03-bf5f1fa338f3","ios":"levelo://app?vid=d5fe8587-d577-4927-9f03-bf5f1fa338f3"},"vehicle_type_id":"4","last_reported":1757787097,"current_range_meters":12800,"station_id":"","pricing_plan_id":"cebpf4jnsgd1na2vs0mg"},{"bike_id":"6df84557-e2cc-45e5-9c49-89c56e9cd796","system_id":"levelo_inurba_marseille","lat":43.2862,"lon":5.3511,"is_reserved":false,"is_disabled":false,"rental_uris":{"android":"levelo://app?vid=6df84557-e2cc-45e5-9c49-89c56e9cd796","ios":"levelo://app?vid=6df84557-e2cc-45e5-9c49-89c56e9cd796"},"vehicle_type_id":"4","last_reported":1757787097,"current_range_meters":12800,"station_id":"ce4bhch2rcd13ifvqeug","pricing_plan_id":"cebpf4jnsgd1na2vs0mg"},{"bike_id":"7551b6ea-c220-4ab0-ae49-87a7d4947d7b","system_id":"levelo_inurba_marseille","lat":43.29226,"lon":5.36059,"is_reserved":false,"is_disabled":false,"rental_uris":{"android":"levelo://app?vid=7551b6ea-c220-4ab0-ae49-87a7d4947d7b","ios":"levelo://app?vid=7551b6ea-c220-4ab0-ae49-87a7d4947d7b"},"vehicle_type_id":"4","last_reported":1757787097,"current_range_meters":12800,"station_id":"ce4bhbh2rcd13ifvqeqg","pricing_plan_id":"cebpf4jnsgd1na2vs0mg"},{"bike_id":"3b8a3c49-c42d-40b0-af1d-a9d2dd52c354","system_id":"levelo_inurba_marseille","lat":43.27423,"lon":5.39422,"is_reserved":false,"is_disabled":false,"rental_uris":{"android":"levelo://app?vid=3b8a3c49-c42d-40b0-af1d-a9d2dd52c354","ios":"levelo://app?vid=3b8a3c49-c42d-40b0-af1d-a9d2dd52c354"},"vehicle_type_id":"4","last_reported":1757787097,"current_range_meters":12800,"station_id":"ce4bhdp2rcd13ifvqf20","pricing_plan_id":"cebpf4jnsgd1na2vs0mg"},{"bike_id":"02dbb44c-70e3-4a7a-b86e-6159cc35ba47","system_id":"levelo_inurba_marseille","lat":43.29587,"lon":5.38689,"is_reserved":false,"is_disabled":false,"rental_uris":{"android":"levelo://app?vid=02dbb44c-70e3-4a7a-b86e-6159cc35ba47","ios":"levelo://app?vid=02dbb44c-70e3-4a7a-b86e-6159cc35ba47"},"vehicle_type_id":"4","last_reported":1757787097,"current_range_meters":12800,"station_id":"ce4bgih2rcd13ifvqba0","pricing_plan_id":"cebpf4jnsgd1na2vs0mg"},{"bike_id":"cbe6f866-1357-45a4-afbd-44c3352c1a8a","system_id":"levelo_inurba_marseille","lat":43.28097,"lon":5.37865,"is_reserved":false,"is_disabled":false,"rental_uris":{"android":"levelo://app?vid=cbe6f866-1357-45a4-afbd-44c3352c1a8a","ios":"levelo://app?vid=cbe6f866-1357-45a4-afbd-44c3352c1a8a"},"vehicle_type_id":"4","last_reported":1757787097,"current_range_meters":13600,"station_id":"ce4bha12rcd13ifvqee0","pricing_plan_id":"cebpf4jnsgd1na2vs0mg"},{"bike_id":"f8ffd399-b74b-428b-b8c5-652d37f4b22c","system_id":"levelo_inurba_marseille","lat":43.24944,"lon":5.40514,"is_reserved":false,"is_disabled":false,"rental_uris":{"android":"levelo://app?vid=f8ffd399-b74b-428b-b8c5-652d37f4b22c","ios":"levelo://app?vid=f8ffd399-b74b-428b-b8c5-652d37f4b22c"},"vehicle_type_id":"4","last_reported":1757787097,"current_range_meters":13600,"station_id":"st_d2ngiaodas8pm72gd1h0","pricing_plan_id":"cebpf4jnsgd1na2vs0mg"},{"bike_id":"d9c66413-fc0c-4d58-b9df-c55859e73212","system_id":"levelo_inurba_marseille","lat":43.28463,"lon":5.35891,"is_reserved":false,"is_disabled":false,"rental_uris":{"android":"levelo://app?vid=d9c66413-fc0c-4d58-b9df-c55859e73212","ios":"levelo://app?vid=d9c66413-fc0c-4d58-b9df-c55859e73212"},"vehicle_type_id":"4","last_reported":1757787097,"current_range_meters":13600,"station_id":"ce4bhah2rcd13ifvqei0","pricing_plan_id":"cebpf4jnsgd1na2vs0mg"},{"bike_id":"6515536f-56de-4109-b7a1-24c742aed225","system_id":"levelo_inurba_marseille","lat":43.31997,"lon":5.37234,"is_reserved":false,"is_disabled":false,"rental_uris":{"android":"levelo://app?vid=6515536f-56de-4109-b7a1-24c742aed225","ios":"levelo://app?vid=6515536f-56de-4109-b7a1-24c742aed225"},"vehicle_type_id":"4","last_reported":1757787097,"current_range_meters":13600,"station_id":"","pricing_plan_id":"cebpf4jnsgd1na2vs0mg"},{"bike_id":"55d59e02-f5a5-4e1a-9360-556e842fa2a4","system_id":"levelo_inurba_marseille","lat":43.33764,"lon":5.37496,"is_reserved":false,"is_disabled":false,"rental_uris":{"android":"levelo://app?vid=55d59e02-f5a5-4e1a-9360-556e842fa2a4","ios":"levelo://app?vid=55d59e02-f5a5-4e1a-9360-556e842fa2a4"},"vehicle_type_id":"4","last_reported":1757787097,"current_range_meters":13600,"station_id":"","pricing_plan_id":"cebpf4jnsgd1na2vs0mg"},{"bike_id":"3468c865-c807-4985-979a-c0257f0de401","system_id":"levelo_inurba_marseille","lat":43.29881,"lon":5.38905,"is_reserved":false,"is_disabled":false,"rental_uris":{"android":"levelo://app?vid=3468c865-c807-4985-979a-c0257f0de401","ios":"levelo://app?vid=3468c865-c807-4985-979a-c0257f0de401"},"vehicle_type_id":"4","last_reported":1757787097,"current_range_meters":13600,"station_id":"ce4bh392rcd13ifvqdl0","pricing_plan_id":"cebpf4jnsgd1na2vs0mg"},{"bike_id":"d9c11a94-d122-4240-b95b-24fdee8810ac","system_id":"levelo_inurba_marseille","lat":43.28265,"lon":5.39937,"is_reserved":false,"is_disabled":false,"rental_uris":{"android":"levelo://app?vid=d9c11a94-d122-4240-b95b-24fdee8810ac","ios":"levelo://app?vid=d9c11a94-d122-4240-b95b-24fdee8810ac"},"vehicle_type_id":"4","last_reported":1757787097,"current_range_meters":13600,"station_id":"","pricing_plan_id":"cebpf4jnsgd1na2vs0mg"},{"bike_id":"48e0574a-3085-425d-8093-604412e9e43f","system_id":"levelo_inurba_marseille","lat":43.28348,"lon":5.38116,"is_reserved":false,"is_disabled":false,"rental_uris":{"android":"levelo://app?vid=48e0574a-3085-425d-8093-604412e9e43f","ios":"levelo://app?vid=48e0574a-3085-425d-8093-604412e9e43f"},"vehicle_type_id":"4","last_reported":1757787097,"current_range_meters":13600,"station_id":"ce4bh412rcd13ifvqdr0","pricing_plan_id":"cebpf4jnsgd1na2vs0mg"},{"bike_id":"e0cfc87a-17f0-496d-bfbe-cd56f1cd8db9","system_id":"levelo_inurba_marseille","lat":43.29271,"lon":5.38441,"is_reserved":false,"is_disabled":false,"rental_uris":{"android":"levelo://app?vid=e0cfc87a-17f0-496d-bfbe-cd56f1cd8db9","ios":"levelo://app?vid=e0cfc87a-17f0-496d-bfbe-cd56f1cd8db9"},"vehicle_type_id":"4","last_reported":1757787097,"current_range_meters":14000,"station_id":"ce4bh692rcd13ifvqea0","pricing_plan_id":"cebpf4jnsgd1na2vs0mg"},{"bike_id":"88b59777-b827-4fbe-a454-3bc8e3ab2e70","system_id":"levelo_inurba_marseille","lat":43.23184,"lon":5.3998,"is_reserved":false,"is_disabled":false,"rental_uris":{"android":"levelo://app?vid=88b59777-b827-4fbe-a454-3bc8e3ab2e70","ios":"levelo://app?vid=88b59777-b827-4fbe-a454-3bc8e3ab2e70"},"vehicle_type_id":"4","last_reported":1757787097,"current_range_meters":14000,"station_id":"ce4bhn12rcd13ifvqgqg","pricing_plan_id":"cebpf4jnsgd1na2vs0mg"},{"bike_id":"7204e771-8fd6-4942-bb90-5071ff5e7241","system_id":"levelo_inurba_marseille","lat":43.29916,"lon":5.37493,"is_reserved":false,"is_disabled":false,"rental_uris":{"android":"levelo://app?vid=7204e771-8fd6-4942-bb90-5071ff5e7241","ios":"levelo://app?vid=7204e771-8fd6-4942-bb90-5071ff5e7241"},"vehicle_type_id":"4","last_reported":1757787097,"current_range_meters":14000,"station_id":"ce4bgjh2rcd13ifvqbg0","pricing_plan_id":"cebpf4jnsgd1na2vs0mg"},{"bike_id":"dec1c8d8-80e5-4b6c-987f-806e2c0084cf","system_id":"levelo_inurba_marseille","lat":43.29277,"lon":5.40115,"is_reserved":false,"is_disabled":false,"rental_uris":{"android":"levelo://app?vid=dec1c8d8-80e5-4b6c-987f-806e2c0084cf","ios":"levelo://app?vid=dec1c8d8-80e5-4b6c-987f-806e2c0084cf"},"vehicle_type_id":"4","last_reported":1757787097,"current_range_meters":14000,"station_id":"ce4bh312rcd13ifvqdk0","pricing_plan_id":"cebpf4jnsgd1na2vs0mg"},{"bike_id":"eeffc4a6-e273-4072-88b7-2549d0d2e834","system_id":"levelo_inurba_marseille","lat":43.28607,"lon":5.37072,"is_reserved":false,"is_disabled":false,"rental_uris":{"android":"levelo://app?vid=eeffc4a6-e273-4072-88b7-2549d0d2e834","ios":"levelo://app?vid=eeffc4a6-e273-4072-88b7-2549d0d2e834"},"vehicle_type_id":"4","last_reported":1757787097,"current_range_meters":14000,"station_id":"ce4bht12rcd13ifvqi60","pricing_plan_id":"cebpf4jnsgd1na2vs0mg"},{"bike_id":"f07d1a34-6972-4c1d-8ed8-100dd0fc1e78","system_id":"levelo_inurba_marseille","lat":43.32985,"lon":5.39052,"is_reserved":false,"is_disabled":false,"rental_uris":{"android":"levelo://app?vid=f07d1a34-6972-4c1d-8ed8-100dd0fc1e78","ios":"levelo://app?vid=f07d1a34-6972-4c1d-8ed8-100dd0fc1e78"},"vehicle_type_id":"4","last_reported":1757787097,"current_range_meters":14000,"station_id":"ce4bhr92rcd13ifvqhrg","pricing_plan_id":"cebpf4jnsgd1na2vs0mg"},{"bike_id":"5b4ca8b7-8422-40e7-a18b-fbaafe0e9da9","system_id":"levelo_inurba_marseille","lat":43.29266,"lon":5.3844,"is_reserved":false,"is_disabled":false,"rental_uris":{"android":"levelo://app?vid=5b4ca8b7-8422-40e7-a18b-fbaafe0e9da9","ios":"levelo://app?vid=5b4ca8b7-8422-40e7-a18b-fbaafe0e9da9"},"vehicle_type_id":"4","last_reported":1757787097,"current_range_meters":14000,"station_id":"ce4bh692rcd13ifvqea0","pricing_plan_id":"cebpf4jnsgd1na2vs0mg"},{"bike_id":"31195751-bbc1-4ea5-8068-c21d8881b649","system_id":"levelo_inurba_marseille","lat":43.2408,"lon":5.377417,"is_reserved":false,"is_disabled":false,"rental_uris":{"android":"levelo://app?vid=31195751-bbc1-4ea5-8068-c21d8881b649","ios":"levelo://app?vid=31195751-bbc1-4ea5-8068-c21d8881b649"},"vehicle_type_id":"4","last_reported":1757787097,"current_range_meters":14400,"station_id":"ce4bhnp2rcd13ifvqgvg","pricing_plan_id":"cebpf4jnsgd1na2vs0mg"},{"bike_id":"41a149fb-c05e-48eb-9854-f7b91d00f1b8","system_id":"levelo_inurba_marseille","lat":43.29032,"lon":5.37562,"is_reserved":false,"is_disabled":false,"rental_uris":{"android":"levelo://app?vid=41a149fb-c05e-48eb-9854-f7b91d00f1b8","ios":"levelo://app?vid=41a149fb-c05e-48eb-9854-f7b91d00f1b8"},"vehicle_type_id":"4","last_reported":1757787097,"current_range_meters":14400,"station_id":"ce4bh692rcd13ifvqe90","pricing_plan_id":"cebpf4jnsgd1na2vs0mg"},{"bike_id":"cd104b68-7370-4e88-ba9c-1edeee0f6c77","system_id":"levelo_inurba_marseille","lat":43.25212,"lon":5.425,"is_reserved":false,"is_disabled":false,"rental_uris":{"android":"levelo://app?vid=cd104b68-7370-4e88-ba9c-1edeee0f6c77","ios":"levelo://app?vid=cd104b68-7370-4e88-ba9c-1edeee0f6c77"},"vehicle_type_id":"4","last_reported":1757787097,"current_range_meters":14400,"station_id":"","pricing_plan_id":"cebpf4jnsgd1na2vs0mg"},{"bike_id":"e9ee13b6-cdb7-464a-b41c-3f407be862de","system_id":"levelo_inurba_marseille","lat":43.21758,"lon":5.34598,"is_reserved":false,"is_disabled":false,"rental_uris":{"android":"levelo://app?vid=e9ee13b6-cdb7-464a-b41c-3f407be862de","ios":"levelo://app?vid=e9ee13b6-cdb7-464a-b41c-3f407be862de"},"vehicle_type_id":"4","last_reported":1757787097,"current_range_meters":14400,"station_id":"st_cvj6r9ubvosntc0bgbag","pricing_plan_id":"cebpf4jnsgd1na2vs0mg"},{"bike_id":"95464104-b555-4f3a-9f2b-be40ab9c70d0","system_id":"levelo_inurba_marseille","lat":43.29279,"lon":5.38427,"is_reserved":false,"is_disabled":false,"rental_uris":{"android":"levelo://app?vid=95464104-b555-4f3a-9f2b-be40ab9c70d0","ios":"levelo://app?vid=95464104-b555-4f3a-9f2b-be40ab9c70d0"},"vehicle_type_id":"4","last_reported":1757787097,"current_range_meters":14400,"station_id":"ce4bh692rcd13ifvqea0","pricing_plan_id":"cebpf4jnsgd1na2vs0mg"},{"bike_id":"03b9d09a-c59f-4d87-bbdc-79c56c154328","system_id":"levelo_inurba_marseille","lat":43.24804,"lon":5.37455,"is_reserved":false,"is_disabled":false,"rental_uris":{"android":"levelo://app?vid=03b9d09a-c59f-4d87-bbdc-79c56c154328","ios":"levelo://app?vid=03b9d09a-c59f-4d87-bbdc-79c56c154328"},"vehicle_type_id":"4","last_reported":1757787097,"current_range_meters":14400,"station_id":"ce4bhgh2rcd13ifvqfb0","pricing_plan_id":"cebpf4jnsgd1na2vs0mg"},{"bike_id":"1eaf7d24-f23e-4e79-b6f5-17176bccc028","system_id":"levelo_inurba_marseille","lat":43.27948,"lon":5.38767,"is_reserved":false,"is_disabled":false,"rental_uris":{"android":"levelo://app?vid=1eaf7d24-f23e-4e79-b6f5-17176bccc028","ios":"levelo://app?vid=1eaf7d24-f23e-4e79-b6f5-17176bccc028"},"vehicle_type_id":"4","last_reported":1757787097,"current_range_meters":14400,"station_id":"ce4bhg12rcd13ifvqf80","pricing_plan_id":"cebpf4jnsgd1na2vs0mg"},{"bike_id":"ee42c31a-b74b-4b2d-917a-cd50dc10c6ce","system_id":"levelo_inurba_marseille","lat":43.33051,"lon":5.39044,"is_reserved":false,"is_disabled":false,"rental_uris":{"android":"levelo://app?vid=ee42c31a-b74b-4b2d-917a-cd50dc10c6ce","ios":"levelo://app?vid=ee42c31a-b74b-4b2d-917a-cd50dc10c6ce"},"vehicle_type_id":"4","last_reported":1757787097,"current_range_meters":14400,"station_id":"ce4bhr92rcd13ifvqhrg","pricing_plan_id":"cebpf4jnsgd1na2vs0mg"},{"bike_id":"d1ce8a43-b57d-4d8f-ba38-cd00f52ea5c9","system_id":"levelo_inurba_marseille","lat":43.27206,"lon":5.39194,"is_reserved":false,"is_disabled":false,"rental_uris":{"android":"levelo://app?vid=d1ce8a43-b57d-4d8f-ba38-cd00f52ea5c9","ios":"levelo://app?vid=d1ce8a43-b57d-4d8f-ba38-cd00f52ea5c9"},"vehicle_type_id":"4","last_reported":1757787097,"current_range_meters":14400,"station_id":"ce4bhhp2rcd13ifvqfm0","pricing_plan_id":"cebpf4jnsgd1na2vs0mg"},{"bike_id":"c5cba6d7-e282-4417-a818-5fc0802dcb08","system_id":"levelo_inurba_marseille","lat":43.33761,"lon":5.3745,"is_reserved":false,"is_disabled":false,"rental_uris":{"android":"levelo://app?vid=c5cba6d7-e282-4417-a818-5fc0802dcb08","ios":"levelo://app?vid=c5cba6d7-e282-4417-a818-5fc0802dcb08"},"vehicle_type_id":"4","last_reported":1757787097,"current_range_meters":14400,"station_id":"","pricing_plan_id":"cebpf4jnsgd1na2vs0mg"},{"bike_id":"621bbf6a-f694-4903-8a75-f64f638e2180","system_id":"levelo_inurba_marseille","lat":43.2953,"lon":5.38547,"is_reserved":false,"is_disabled":false,"rental_uris":{"android":"levelo://app?vid=621bbf6a-f694-4903-8a75-f64f638e2180","ios":"levelo://app?vid=621bbf6a-f694-4903-8a75-f64f638e2180"},"vehicle_type_id":"4","last_reported":1757787097,"current_range_meters":14400,"station_id":"ce4bgih2rcd13ifvqba0","pricing_plan_id":"cebpf4jnsgd1na2vs0mg"},{"bike_id":"40207740-3997-48f7-a3a9-b19ccf0a0c3b","system_id":"levelo_inurba_marseille","lat":43.304157,"lon":5.412828,"is_reserved":false,"is_disabled":false,"rental_uris":{"android":"levelo://app?vid=40207740-3997-48f7-a3a9-b19ccf0a0c3b","ios":"levelo://app?vid=40207740-3997-48f7-a3a9-b19ccf0a0c3b"},"vehicle_type_id":"4","last_reported":1757787097,"current_range_meters":14400,"station_id":"ce4bhop2rcd13ifvqh8g","pricing_plan_id":"cebpf4jnsgd1na2vs0mg"},{"bike_id":"ab3bb88c-1e6b-4fd8-89da-9b8f094a434d","system_id":"levelo_inurba_marseille","lat":43.2872,"lon":5.36102,"is_reserved":false,"is_disabled":false,"rental_uris":{"android":"levelo://app?vid=ab3bb88c-1e6b-4fd8-89da-9b8f094a434d","ios":"levelo://app?vid=ab3bb88c-1e6b-4fd8-89da-9b8f094a434d"},"vehicle_type_id":"4","last_reported":1757787097,"current_range_meters":14800,"station_id":"cki0cbj6b192h4jlfktg","pricing_plan_id":"cebpf4jnsgd1na2vs0mg"},{"bike_id":"2b08352e-2e44-4a3d-95ea-cc7cc88c6b74","system_id":"levelo_inurba_marseille","lat":43.30433,"lon":5.38883,"is_reserved":false,"is_disabled":false,"rental_uris":{"android":"levelo://app?vid=2b08352e-2e44-4a3d-95ea-cc7cc88c6b74","ios":"levelo://app?vid=2b08352e-2e44-4a3d-95ea-cc7cc88c6b74"},"vehicle_type_id":"4","last_reported":1757787097,"current_range_meters":14800,"station_id":"ce4bgk12rcd13ifvqbi0","pricing_plan_id":"cebpf4jnsgd1na2vs0mg"},{"bike_id":"8f5e6a93-b0a5-4a78-93e1-a128b217bc89","system_id":"levelo_inurba_marseille","lat":43.25108,"lon":5.40326,"is_reserved":false,"is_disabled":false,"rental_uris":{"android":"levelo://app?vid=8f5e6a93-b0a5-4a78-93e1-a128b217bc89","ios":"levelo://app?vid=8f5e6a93-b0a5-4a78-93e1-a128b217bc89"},"vehicle_type_id":"4","last_reported":1757787097,"current_range_meters":14800,"station_id":"ce4bhlh2rcd13ifvqgig","pricing_plan_id":"cebpf4jnsgd1na2vs0mg"},{"bike_id":"36c71099-4777-4317-896f-fceb50fd2118","system_id":"levelo_inurba_marseille","lat":43.30416,"lon":5.41282,"is_reserved":false,"is_disabled":false,"rental_uris":{"android":"levelo://app?vid=36c71099-4777-4317-896f-fceb50fd2118","ios":"levelo://app?vid=36c71099-4777-4317-896f-fceb50fd2118"},"vehicle_type_id":"4","last_reported":1757787097,"current_range_meters":14800,"station_id":"ce4bhop2rcd13ifvqh8g","pricing_plan_id":"cebpf4jnsgd1na2vs0mg"},{"bike_id":"2f6d459f-559c-4519-b0e0-0d25bc65e60f","system_id":"levelo_inurba_marseille","lat":43.253367,"lon":5.4217,"is_reserved":false,"is_disabled":false,"rental_uris":{"android":"levelo://app?vid=2f6d459f-559c-4519-b0e0-0d25bc65e60f","ios":"levelo://app?vid=2f6d459f-559c-4519-b0e0-0d25bc65e60f"},"vehicle_type_id":"4","last_reported":1757787097,"current_range_meters":15200,"station_id":"st_d2m65c5bi1j21697t3ng","pricing_plan_id":"cebpf4jnsgd1na2vs0mg"},{"bike_id":"e7a329bd-ed66-4ac7-aaba-63f2810ddd86","system_id":"levelo_inurba_marseille","lat":43.3192,"lon":5.37157,"is_reserved":false,"is_disabled":false,"rental_uris":{"android":"levelo://app?vid=e7a329bd-ed66-4ac7-aaba-63f2810ddd86","ios":"levelo://app?vid=e7a329bd-ed66-4ac7-aaba-63f2810ddd86"},"vehicle_type_id":"4","last_reported":1757787097,"current_range_meters":15200,"station_id":"","pricing_plan_id":"cebpf4jnsgd1na2vs0mg"},{"bike_id":"1790fb09-8d00-4799-86ce-87444c65a322","system_id":"levelo_inurba_marseille","lat":43.26213,"lon":5.37439,"is_reserved":false,"is_disabled":false,"rental_uris":{"android":"levelo://app?vid=1790fb09-8d00-4799-86ce-87444c65a322","ios":"levelo://app?vid=1790fb09-8d00-4799-86ce-87444c65a322"},"vehicle_type_id":"4","last_reported":1757787097,"current_range_meters":15200,"station_id":"ce4bhgp2rcd13ifvqfc0","pricing_plan_id":"cebpf4jnsgd1na2vs0mg"},{"bike_id":"12b9c958-ee1d-4a7e-b063-6648532a7910","system_id":"levelo_inurba_marseille","lat":43.30406,"lon":5.4131,"is_reserved":false,"is_disabled":false,"rental_uris":{"android":"levelo://app?vid=12b9c958-ee1d-4a7e-b063-6648532a7910","ios":"levelo://app?vid=12b9c958-ee1d-4a7e-b063-6648532a7910"},"vehicle_type_id":"4","last_reported":1757787097,"current_range_meters":15200,"station_id":"ce4bhop2rcd13ifvqh8g","pricing_plan_id":"cebpf4jnsgd1na2vs0mg"},{"bike_id":"c682ef70-00bc-4415-9b10-9a35bd5ddcc1","system_id":"levelo_inurba_marseille","lat":43.27495,"lon":5.42459,"is_reserved":false,"is_disabled":false,"rental_uris":{"android":"levelo://app?vid=c682ef70-00bc-4415-9b10-9a35bd5ddcc1","ios":"levelo://app?vid=c682ef70-00bc-4415-9b10-9a35bd5ddcc1"},"vehicle_type_id":"4","last_reported":1757787097,"current_range_meters":16000,"station_id":"ce4bhn92rcd13ifvqgrg","pricing_plan_id":"cebpf4jnsgd1na2vs0mg"},{"bike_id":"fd023a40-d69c-4361-9109-4126162693f0","system_id":"levelo_inurba_marseille","lat":43.27774,"lon":5.37825,"is_reserved":false,"is_disabled":false,"rental_uris":{"android":"levelo://app?vid=fd023a40-d69c-4361-9109-4126162693f0","ios":"levelo://app?vid=fd023a40-d69c-4361-9109-4126162693f0"},"vehicle_type_id":"4","last_reported":1757787097,"current_range_meters":16000,"station_id":"","pricing_plan_id":"cebpf4jnsgd1na2vs0mg"},{"bike_id":"0418ed23-d4c6-49db-b310-d4f985bd3bc3","system_id":"levelo_inurba_marseille","lat":43.321224,"lon":5.367645,"is_reserved":false,"is_disabled":false,"rental_uris":{"android":"levelo://app?vid=0418ed23-d4c6-49db-b310-d4f985bd3bc3","ios":"levelo://app?vid=0418ed23-d4c6-49db-b310-d4f985bd3bc3"},"vehicle_type_id":"4","last_reported":1757787097,"current_range_meters":16000,"station_id":"ce4bhrh2rcd13ifvqhug","pricing_plan_id":"cebpf4jnsgd1na2vs0mg"},{"bike_id":"b9954c01-234e-4061-8f52-73c2e9a7abcc","system_id":"levelo_inurba_marseille","lat":43.25724,"lon":5.41114,"is_reserved":false,"is_disabled":false,"rental_uris":{"android":"levelo://app?vid=b9954c01-234e-4061-8f52-73c2e9a7abcc","ios":"levelo://app?vid=b9954c01-234e-4061-8f52-73c2e9a7abcc"},"vehicle_type_id":"4","last_reported":1757787097,"current_range_meters":16000,"station_id":"ce4bhkp2rcd13ifvqgd0","pricing_plan_id":"cebpf4jnsgd1na2vs0mg"},{"bike_id":"986d5aa2-f4df-4631-b089-ccb3d6dae626","system_id":"levelo_inurba_marseille","lat":43.31391,"lon":5.38583,"is_reserved":false,"is_disabled":false,"rental_uris":{"android":"levelo://app?vid=986d5aa2-f4df-4631-b089-ccb3d6dae626","ios":"levelo://app?vid=986d5aa2-f4df-4631-b089-ccb3d6dae626"},"vehicle_type_id":"4","last_reported":1757787097,"current_range_meters":16000,"station_id":"","pricing_plan_id":"cebpf4jnsgd1na2vs0mg"},{"bike_id":"e001a3ee-d0c8-485d-9e6d-d2350c8d0bb9","system_id":"levelo_inurba_marseille","lat":43.29295,"lon":5.40117,"is_reserved":false,"is_disabled":false,"rental_uris":{"android":"levelo://app?vid=e001a3ee-d0c8-485d-9e6d-d2350c8d0bb9","ios":"levelo://app?vid=e001a3ee-d0c8-485d-9e6d-d2350c8d0bb9"},"vehicle_type_id":"4","last_reported":1757787097,"current_range_meters":16000,"station_id":"","pricing_plan_id":"cebpf4jnsgd1na2vs0mg"},{"bike_id":"cad5e5ec-ce8a-4b4b-97ba-cba39d741f97","system_id":"levelo_inurba_marseille","lat":43.30546,"lon":5.38423,"is_reserved":false,"is_disabled":false,"rental_uris":{"android":"levelo://app?vid=cad5e5ec-ce8a-4b4b-97ba-cba39d741f97","ios":"levelo://app?vid=cad5e5ec-ce8a-4b4b-97ba-cba39d741f97"},"vehicle_type_id":"4","last_reported":1757787097,"current_range_meters":16000,"station_id":"ce4bgg92rcd13ifvqb30","pricing_plan_id":"cebpf4jnsgd1na2vs0mg"},{"bike_id":"08dd149f-234d-4257-9742-8ea8a2f2658d","system_id":"levelo_inurba_marseille","lat":43.28407,"lon":5.37532,"is_reserved":false,"is_disabled":true,"rental_uris":{"android":"levelo://app?vid=08dd149f-234d-4257-9742-8ea8a2f2658d","ios":"levelo://app?vid=08dd149f-234d-4257-9742-8ea8a2f2658d"},"vehicle_type_id":"4","last_reported":1757787097,"current_range_meters":16000,"station_id":"ce4bh412rcd13ifvqds0","pricing_plan_id":"cebpf4jnsgd1na2vs0mg"},{"bike_id":"3edab8b5-08ab-4bd7-a8e3-46e14fec2b69","system_id":"levelo_inurba_marseille","lat":43.22552,"lon":5.41647,"is_reserved":false,"is_disabled":false,"rental_uris":{"android":"levelo://app?vid=3edab8b5-08ab-4bd7-a8e3-46e14fec2b69","ios":"levelo://app?vid=3edab8b5-08ab-4bd7-a8e3-46e14fec2b69"},"vehicle_type_id":"4","last_reported":1757787097,"current_range_meters":16000,"station_id":"st_d2o4gvlbi1j2169b742g","pricing_plan_id":"cebpf4jnsgd1na2vs0mg"},{"bike_id":"9613ee4d-bd84-40ec-a183-9abb4af6a1b6","system_id":"levelo_inurba_marseille","lat":43.32348,"lon":5.36736,"is_reserved":false,"is_disabled":false,"rental_uris":{"android":"levelo://app?vid=9613ee4d-bd84-40ec-a183-9abb4af6a1b6","ios":"levelo://app?vid=9613ee4d-bd84-40ec-a183-9abb4af6a1b6"},"vehicle_type_id":"4","last_reported":1757787097,"current_range_meters":16000,"station_id":"ce4bhsh2rcd13ifvqi2g","pricing_plan_id":"cebpf4jnsgd1na2vs0mg"},{"bike_id":"431c6cb6-668f-4a57-ad0c-d9770f1e96ab","system_id":"levelo_inurba_marseille","lat":43.29608,"lon":5.37715,"is_reserved":false,"is_disabled":false,"rental_uris":{"android":"levelo://app?vid=431c6cb6-668f-4a57-ad0c-d9770f1e96ab","ios":"levelo://app?vid=431c6cb6-668f-4a57-ad0c-d9770f1e96ab"},"vehicle_type_id":"4","last_reported":1757787097,"current_range_meters":16000,"station_id":"ce4bgi92rcd13ifvqb90","pricing_plan_id":"cebpf4jnsgd1na2vs0mg"},{"bike_id":"a895e916-64cd-46f9-b81a-4f1d71584814","system_id":"levelo_inurba_marseille","lat":43.25816,"lon":5.39433,"is_reserved":false,"is_disabled":false,"rental_uris":{"android":"levelo://app?vid=a895e916-64cd-46f9-b81a-4f1d71584814","ios":"levelo://app?vid=a895e916-64cd-46f9-b81a-4f1d71584814"},"vehicle_type_id":"4","last_reported":1757787097,"current_range_meters":16000,"station_id":"ce4bhip2rcd13ifvqft0","pricing_plan_id":"cebpf4jnsgd1na2vs0mg"},{"bike_id":"3bc338fd-b3c5-4caa-b6e6-3c70a52689ba","system_id":"levelo_inurba_marseille","lat":43.3153,"lon":5.38833,"is_reserved":false,"is_disabled":false,"rental_uris":{"android":"levelo://app?vid=3bc338fd-b3c5-4caa-b6e6-3c70a52689ba","ios":"levelo://app?vid=3bc338fd-b3c5-4caa-b6e6-3c70a52689ba"},"vehicle_type_id":"4","last_reported":1757787097,"current_range_meters":16000,"station_id":"","pricing_plan_id":"cebpf4jnsgd1na2vs0mg"},{"bike_id":"9bb781c2-229b-4952-8baa-10e344edd4bb","system_id":"levelo_inurba_marseille","lat":43.28268,"lon":5.35064,"is_reserved":false,"is_disabled":false,"rental_uris":{"android":"levelo://app?vid=9bb781c2-229b-4952-8baa-10e344edd4bb","ios":"levelo://app?vid=9bb781c2-229b-4952-8baa-10e344edd4bb"},"vehicle_type_id":"4","last_reported":1757787097,"current_range_meters":16400,"station_id":"ce4bhbp2rcd13ifvqerg","pricing_plan_id":"cebpf4jnsgd1na2vs0mg"},{"bike_id":"2c9fd684-e0b3-4349-9c8e-5e53063a69b6","system_id":"levelo_inurba_marseille","lat":43.26933,"lon":5.4027,"is_reserved":false,"is_disabled":false,"rental_uris":{"android":"levelo://app?vid=2c9fd684-e0b3-4349-9c8e-5e53063a69b6","ios":"levelo://app?vid=2c9fd684-e0b3-4349-9c8e-5e53063a69b6"},"vehicle_type_id":"4","last_reported":1757787097,"current_range_meters":16400,"station_id":"cjm6bp8fraef2m0cb0m0","pricing_plan_id":"cebpf4jnsgd1na2vs0mg"},{"bike_id":"099dc754-cf09-4145-b6fa-59b333ab25e3","system_id":"levelo_inurba_marseille","lat":43.246302,"lon":5.431468,"is_reserved":false,"is_disabled":false,"rental_uris":{"android":"levelo://app?vid=099dc754-cf09-4145-b6fa-59b333ab25e3","ios":"levelo://app?vid=099dc754-cf09-4145-b6fa-59b333ab25e3"},"vehicle_type_id":"4","last_reported":1757787097,"current_range_meters":16400,"station_id":"st_d2m6c4gdas8pm72e190g","pricing_plan_id":"cebpf4jnsgd1na2vs0mg"},{"bike_id":"693d973c-6a5a-45eb-81c5-a58e01c78b74","system_id":"levelo_inurba_marseille","lat":43.23206,"lon":5.39957,"is_reserved":false,"is_disabled":false,"rental_uris":{"android":"levelo://app?vid=693d973c-6a5a-45eb-81c5-a58e01c78b74","ios":"levelo://app?vid=693d973c-6a5a-45eb-81c5-a58e01c78b74"},"vehicle_type_id":"4","last_reported":1757787097,"current_range_meters":16400,"station_id":"ce4bhn12rcd13ifvqgqg","pricing_plan_id":"cebpf4jnsgd1na2vs0mg"},{"bike_id":"637214f7-bbda-4a9f-a53f-b17c22832605","system_id":"levelo_inurba_marseille","lat":43.28691,"lon":5.3739,"is_reserved":false,"is_disabled":false,"rental_uris":{"android":"levelo://app?vid=637214f7-bbda-4a9f-a53f-b17c22832605","ios":"levelo://app?vid=637214f7-bbda-4a9f-a53f-b17c22832605"},"vehicle_type_id":"4","last_reported":1757787097,"current_range_meters":16800,"station_id":"ce4bh3p2rcd13ifvqdq0","pricing_plan_id":"cebpf4jnsgd1na2vs0mg"},{"bike_id":"1fa9cf8a-cbc2-4f66-a5af-49139eedcffa","system_id":"levelo_inurba_marseille","lat":43.31688,"lon":5.40485,"is_reserved":false,"is_disabled":false,"rental_uris":{"android":"levelo://app?vid=1fa9cf8a-cbc2-4f66-a5af-49139eedcffa","ios":"levelo://app?vid=1fa9cf8a-cbc2-4f66-a5af-49139eedcffa"},"vehicle_type_id":"4","last_reported":1757787097,"current_range_meters":16800,"station_id":"ce4bh012rcd13ifvqd00","pricing_plan_id":"cebpf4jnsgd1na2vs0mg"},{"bike_id":"ffab450d-4c81-4d44-8256-678a72cf8297","system_id":"levelo_inurba_marseille","lat":43.317,"lon":5.40467,"is_reserved":false,"is_disabled":false,"rental_uris":{"android":"levelo://app?vid=ffab450d-4c81-4d44-8256-678a72cf8297","ios":"levelo://app?vid=ffab450d-4c81-4d44-8256-678a72cf8297"},"vehicle_type_id":"4","last_reported":1757787097,"current_range_meters":16800,"station_id":"ce4bh012rcd13ifvqd00","pricing_plan_id":"cebpf4jnsgd1na2vs0mg"},{"bike_id":"1a57f425-2d22-41df-9ff6-5021f062a7e6","system_id":"levelo_inurba_marseille","lat":43.33014,"lon":5.39043,"is_reserved":false,"is_disabled":false,"rental_uris":{"android":"levelo://app?vid=1a57f425-2d22-41df-9ff6-5021f062a7e6","ios":"levelo://app?vid=1a57f425-2d22-41df-9ff6-5021f062a7e6"},"vehicle_type_id":"4","last_reported":1757787097,"current_range_meters":16800,"station_id":"ce4bhr92rcd13ifvqhrg","pricing_plan_id":"cebpf4jnsgd1na2vs0mg"},{"bike_id":"695bc73c-02f9-4c78-a8d4-70d9461761ac","system_id":"levelo_inurba_marseille","lat":43.28151,"lon":5.42654,"is_reserved":false,"is_disabled":false,"rental_uris":{"android":"levelo://app?vid=695bc73c-02f9-4c78-a8d4-70d9461761ac","ios":"levelo://app?vid=695bc73c-02f9-4c78-a8d4-70d9461761ac"},"vehicle_type_id":"4","last_reported":1757787097,"current_range_meters":16800,"station_id":"ce4bhnh2rcd13ifvqgug","pricing_plan_id":"cebpf4jnsgd1na2vs0mg"},{"bike_id":"7b745801-5774-40e8-8c0c-f1518cce3ac7","system_id":"levelo_inurba_marseille","lat":43.29609,"lon":5.38105,"is_reserved":false,"is_disabled":false,"rental_uris":{"android":"levelo://app?vid=7b745801-5774-40e8-8c0c-f1518cce3ac7","ios":"levelo://app?vid=7b745801-5774-40e8-8c0c-f1518cce3ac7"},"vehicle_type_id":"4","last_reported":1757787097,"current_range_meters":16800,"station_id":"ce4bgl12rcd13ifvqbo0","pricing_plan_id":"cebpf4jnsgd1na2vs0mg"},{"bike_id":"c75bfa20-483b-42f7-8a25-5f10e08a57b0","system_id":"levelo_inurba_marseille","lat":43.321192,"lon":5.367968,"is_reserved":false,"is_disabled":false,"rental_uris":{"android":"levelo://app?vid=c75bfa20-483b-42f7-8a25-5f10e08a57b0","ios":"levelo://app?vid=c75bfa20-483b-42f7-8a25-5f10e08a57b0"},"vehicle_type_id":"4","last_reported":1757787097,"current_range_meters":16800,"station_id":"ce4bhrh2rcd13ifvqhug","pricing_plan_id":"cebpf4jnsgd1na2vs0mg"},{"bike_id":"fdce0e26-0023-4de2-92da-9c2fd8e5a625","system_id":"levelo_inurba_marseille","lat":43.32278,"lon":5.38306,"is_reserved":false,"is_disabled":false,"rental_uris":{"android":"levelo://app?vid=fdce0e26-0023-4de2-92da-9c2fd8e5a625","ios":"levelo://app?vid=fdce0e26-0023-4de2-92da-9c2fd8e5a625"},"vehicle_type_id":"4","last_reported":1757787097,"current_range_meters":16800,"station_id":"ce4bhr12rcd13ifvqhqg","pricing_plan_id":"cebpf4jnsgd1na2vs0mg"},{"bike_id":"2500752c-16d5-4447-b628-690ad7fdd253","system_id":"levelo_inurba_marseille","lat":43.21738,"lon":5.34613,"is_reserved":false,"is_disabled":false,"rental_uris":{"android":"levelo://app?vid=2500752c-16d5-4447-b628-690ad7fdd253","ios":"levelo://app?vid=2500752c-16d5-4447-b628-690ad7fdd253"},"vehicle_type_id":"4","last_reported":1757787097,"current_range_meters":17200,"station_id":"st_cvj6r9ubvosntc0bgbag","pricing_plan_id":"cebpf4jnsgd1na2vs0mg"},{"bike_id":"e2e4f612-cea7-473f-8581-0936e5ea494b","system_id":"levelo_inurba_marseille","lat":43.29253,"lon":5.38471,"is_reserved":false,"is_disabled":false,"rental_uris":{"android":"levelo://app?vid=e2e4f612-cea7-473f-8581-0936e5ea494b","ios":"levelo://app?vid=e2e4f612-cea7-473f-8581-0936e5ea494b"},"vehicle_type_id":"4","last_reported":1757787097,"current_range_meters":17200,"station_id":"ce4bh692rcd13ifvqea0","pricing_plan_id":"cebpf4jnsgd1na2vs0mg"},{"bike_id":"5476d906-b0c2-4d37-81e0-6fc56d7abe48","system_id":"levelo_inurba_marseille","lat":43.31698,"lon":5.37678,"is_reserved":false,"is_disabled":false,"rental_uris":{"android":"levelo://app?vid=5476d906-b0c2-4d37-81e0-6fc56d7abe48","ios":"levelo://app?vid=5476d906-b0c2-4d37-81e0-6fc56d7abe48"},"vehicle_type_id":"4","last_reported":1757787097,"current_range_meters":17200,"station_id":"ce4bgth2rcd13ifvqch0","pricing_plan_id":"cebpf4jnsgd1na2vs0mg"},{"bike_id":"25bda010-d0ef-4549-a1a1-a6f6aecc4cda","system_id":"levelo_inurba_marseille","lat":43.28283,"lon":5.43181,"is_reserved":false,"is_disabled":false,"rental_uris":{"android":"levelo://app?vid=25bda010-d0ef-4549-a1a1-a6f6aecc4cda","ios":"levelo://app?vid=25bda010-d0ef-4549-a1a1-a6f6aecc4cda"},"vehicle_type_id":"4","last_reported":1757787097,"current_range_meters":17200,"station_id":"","pricing_plan_id":"cebpf4jnsgd1na2vs0mg"},{"bike_id":"c013e820-1fe7-438e-ac59-42571c463b8b","system_id":"levelo_inurba_marseille","lat":43.28611,"lon":5.35103,"is_reserved":false,"is_disabled":false,"rental_uris":{"android":"levelo://app?vid=c013e820-1fe7-438e-ac59-42571c463b8b","ios":"levelo://app?vid=c013e820-1fe7-438e-ac59-42571c463b8b"},"vehicle_type_id":"4","last_reported":1757787097,"current_range_meters":17200,"station_id":"ce4bhch2rcd13ifvqeug","pricing_plan_id":"cebpf4jnsgd1na2vs0mg"},{"bike_id":"12cb70d5-bde4-41a5-9c35-2af4e7c22eaf","system_id":"levelo_inurba_marseille","lat":43.240823,"lon":5.377368,"is_reserved":false,"is_disabled":false,"rental_uris":{"android":"levelo://app?vid=12cb70d5-bde4-41a5-9c35-2af4e7c22eaf","ios":"levelo://app?vid=12cb70d5-bde4-41a5-9c35-2af4e7c22eaf"},"vehicle_type_id":"4","last_reported":1757787097,"current_range_meters":17200,"station_id":"ce4bhnp2rcd13ifvqgvg","pricing_plan_id":"cebpf4jnsgd1na2vs0mg"},{"bike_id":"f32ca1b8-d058-46f1-abfb-bdc2e9eb3a61","system_id":"levelo_inurba_marseille","lat":43.28456,"lon":5.38437,"is_reserved":false,"is_disabled":false,"rental_uris":{"android":"levelo://app?vid=f32ca1b8-d058-46f1-abfb-bdc2e9eb3a61","ios":"levelo://app?vid=f32ca1b8-d058-46f1-abfb-bdc2e9eb3a61"},"vehicle_type_id":"4","last_reported":1757787097,"current_range_meters":17200,"station_id":"ce4bh512rcd13ifvqe3g","pricing_plan_id":"cebpf4jnsgd1na2vs0mg"},{"bike_id":"d475b3fd-a76b-4fb1-b457-54c1785b8aca","system_id":"levelo_inurba_marseille","lat":43.30581,"lon":5.39349,"is_reserved":false,"is_disabled":false,"rental_uris":{"android":"levelo://app?vid=d475b3fd-a76b-4fb1-b457-54c1785b8aca","ios":"levelo://app?vid=d475b3fd-a76b-4fb1-b457-54c1785b8aca"},"vehicle_type_id":"4","last_reported":1757787097,"current_range_meters":17200,"station_id":"ce4bh0p2rcd13ifvqd80","pricing_plan_id":"cebpf4jnsgd1na2vs0mg"},{"bike_id":"b3167c7f-8116-4aeb-9f2d-6ae80b6826fb","system_id":"levelo_inurba_marseille","lat":43.29178,"lon":5.3715,"is_reserved":false,"is_disabled":false,"rental_uris":{"android":"levelo://app?vid=b3167c7f-8116-4aeb-9f2d-6ae80b6826fb","ios":"levelo://app?vid=b3167c7f-8116-4aeb-9f2d-6ae80b6826fb"},"vehicle_type_id":"4","last_reported":1757787097,"current_range_meters":16800,"station_id":"ce4bha92rcd13ifvqeh0","pricing_plan_id":"cebpf4jnsgd1na2vs0mg"},{"bike_id":"41c647e6-b0a2-4724-9170-a11bf4beba86","system_id":"levelo_inurba_marseille","lat":43.260453,"lon":5.394063,"is_reserved":false,"is_disabled":false,"rental_uris":{"android":"levelo://app?vid=41c647e6-b0a2-4724-9170-a11bf4beba86","ios":"levelo://app?vid=41c647e6-b0a2-4724-9170-a11bf4beba86"},"vehicle_type_id":"4","last_reported":1757787097,"current_range_meters":17200,"station_id":"ce4bhh92rcd13ifvqfj0","pricing_plan_id":"cebpf4jnsgd1na2vs0mg"},{"bike_id":"8531afdb-32d4-4c53-8b7d-1730982d0eec","system_id":"levelo_inurba_marseille","lat":43.21751,"lon":5.34603,"is_reserved":false,"is_disabled":false,"rental_uris":{"android":"levelo://app?vid=8531afdb-32d4-4c53-8b7d-1730982d0eec","ios":"levelo://app?vid=8531afdb-32d4-4c53-8b7d-1730982d0eec"},"vehicle_type_id":"4","last_reported":1757787097,"current_range_meters":17600,"station_id":"st_cvj6r9ubvosntc0bgbag","pricing_plan_id":"cebpf4jnsgd1na2vs0mg"},{"bike_id":"e289eb03-93b4-4bf7-b3f6-308d7533d833","system_id":"levelo_inurba_marseille","lat":43.29349,"lon":5.367294,"is_reserved":false,"is_disabled":false,"rental_uris":{"android":"levelo://app?vid=e289eb03-93b4-4bf7-b3f6-308d7533d833","ios":"levelo://app?vid=e289eb03-93b4-4bf7-b3f6-308d7533d833"},"vehicle_type_id":"4","last_reported":1757787097,"current_range_meters":17600,"station_id":"ce4bhbp2rcd13ifvqesg","pricing_plan_id":"cebpf4jnsgd1na2vs0mg"},{"bike_id":"8e3a9e83-812e-4b5d-8c7b-5119699e81be","system_id":"levelo_inurba_marseille","lat":43.31582,"lon":5.40554,"is_reserved":false,"is_disabled":false,"rental_uris":{"android":"levelo://app?vid=8e3a9e83-812e-4b5d-8c7b-5119699e81be","ios":"levelo://app?vid=8e3a9e83-812e-4b5d-8c7b-5119699e81be"},"vehicle_type_id":"4","last_reported":1757787097,"current_range_meters":17600,"station_id":"","pricing_plan_id":"cebpf4jnsgd1na2vs0mg"},{"bike_id":"14e2496b-54f5-4a71-8a7b-f668d23f2674","system_id":"levelo_inurba_marseille","lat":43.25731,"lon":5.41106,"is_reserved":false,"is_disabled":false,"rental_uris":{"android":"levelo://app?vid=14e2496b-54f5-4a71-8a7b-f668d23f2674","ios":"levelo://app?vid=14e2496b-54f5-4a71-8a7b-f668d23f2674"},"vehicle_type_id":"4","last_reported":1757787097,"current_range_meters":17600,"station_id":"ce4bhkp2rcd13ifvqgd0","pricing_plan_id":"cebpf4jnsgd1na2vs0mg"},{"bike_id":"8ab60a89-bd14-40d7-b359-020ea126cfef","system_id":"levelo_inurba_marseille","lat":43.32349,"lon":5.36757,"is_reserved":false,"is_disabled":false,"rental_uris":{"android":"levelo://app?vid=8ab60a89-bd14-40d7-b359-020ea126cfef","ios":"levelo://app?vid=8ab60a89-bd14-40d7-b359-020ea126cfef"},"vehicle_type_id":"4","last_reported":1757787097,"current_range_meters":17600,"station_id":"ce4bhsh2rcd13ifvqi2g","pricing_plan_id":"cebpf4jnsgd1na2vs0mg"},{"bike_id":"eacced4b-f165-4b59-b26c-659ec1e68e4f","system_id":"levelo_inurba_marseille","lat":43.29272,"lon":5.36841,"is_reserved":false,"is_disabled":false,"rental_uris":{"android":"levelo://app?vid=eacced4b-f165-4b59-b26c-659ec1e68e4f","ios":"levelo://app?vid=eacced4b-f165-4b59-b26c-659ec1e68e4f"},"vehicle_type_id":"4","last_reported":1757787097,"current_range_meters":17600,"station_id":"ce4bhbp2rcd13ifvqesg","pricing_plan_id":"cebpf4jnsgd1na2vs0mg"},{"bike_id":"5c5320b4-41ee-4bdc-b4d4-228344d69242","system_id":"levelo_inurba_marseille","lat":43.30866,"lon":5.36889,"is_reserved":false,"is_disabled":false,"rental_uris":{"android":"levelo://app?vid=5c5320b4-41ee-4bdc-b4d4-228344d69242","ios":"levelo://app?vid=5c5320b4-41ee-4bdc-b4d4-228344d69242"},"vehicle_type_id":"4","last_reported":1757787097,"current_range_meters":18000,"station_id":"","pricing_plan_id":"cebpf4jnsgd1na2vs0mg"},{"bike_id":"085d1fc3-832e-4bb8-9dab-596c869e48fd","system_id":"levelo_inurba_marseille","lat":43.28211,"lon":5.39056,"is_reserved":false,"is_disabled":false,"rental_uris":{"android":"levelo://app?vid=085d1fc3-832e-4bb8-9dab-596c869e48fd","ios":"levelo://app?vid=085d1fc3-832e-4bb8-9dab-596c869e48fd"},"vehicle_type_id":"4","last_reported":1757787097,"current_range_meters":18000,"station_id":"ce4bhn92rcd13ifvqgsg","pricing_plan_id":"cebpf4jnsgd1na2vs0mg"},{"bike_id":"03847163-3998-449e-b38c-961cfd63973d","system_id":"levelo_inurba_marseille","lat":43.25108,"lon":5.40324,"is_reserved":false,"is_disabled":false,"rental_uris":{"android":"levelo://app?vid=03847163-3998-449e-b38c-961cfd63973d","ios":"levelo://app?vid=03847163-3998-449e-b38c-961cfd63973d"},"vehicle_type_id":"4","last_reported":1757787097,"current_range_meters":18000,"station_id":"ce4bhlh2rcd13ifvqgig","pricing_plan_id":"cebpf4jnsgd1na2vs0mg"},{"bike_id":"8b2bfa01-0c5e-4b80-9f05-ec28b2c0bc7d","system_id":"levelo_inurba_marseille","lat":43.24658,"lon":5.3817,"is_reserved":false,"is_disabled":false,"rental_uris":{"android":"levelo://app?vid=8b2bfa01-0c5e-4b80-9f05-ec28b2c0bc7d","ios":"levelo://app?vid=8b2bfa01-0c5e-4b80-9f05-ec28b2c0bc7d"},"vehicle_type_id":"4","last_reported":1757787097,"current_range_meters":18000,"station_id":"ce4bhih2rcd13ifvqfr0","pricing_plan_id":"cebpf4jnsgd1na2vs0mg"},{"bike_id":"d9c4202c-de13-4428-8c40-40d90faf1618","system_id":"levelo_inurba_marseille","lat":43.31356,"lon":5.3707,"is_reserved":false,"is_disabled":false,"rental_uris":{"android":"levelo://app?vid=d9c4202c-de13-4428-8c40-40d90faf1618","ios":"levelo://app?vid=d9c4202c-de13-4428-8c40-40d90faf1618"},"vehicle_type_id":"4","last_reported":1757787097,"current_range_meters":18000,"station_id":"","pricing_plan_id":"cebpf4jnsgd1na2vs0mg"},{"bike_id":"4d6e6605-7f16-44fa-a19a-c138ee7cb360","system_id":"levelo_inurba_marseille","lat":43.33799,"lon":5.37446,"is_reserved":false,"is_disabled":false,"rental_uris":{"android":"levelo://app?vid=4d6e6605-7f16-44fa-a19a-c138ee7cb360","ios":"levelo://app?vid=4d6e6605-7f16-44fa-a19a-c138ee7cb360"},"vehicle_type_id":"4","last_reported":1757787097,"current_range_meters":18000,"station_id":"","pricing_plan_id":"cebpf4jnsgd1na2vs0mg"},{"bike_id":"b138807a-ffe0-44f2-82e8-15e2f868d5ec","system_id":"levelo_inurba_marseille","lat":43.29789,"lon":5.40397,"is_reserved":false,"is_disabled":false,"rental_uris":{"android":"levelo://app?vid=b138807a-ffe0-44f2-82e8-15e2f868d5ec","ios":"levelo://app?vid=b138807a-ffe0-44f2-82e8-15e2f868d5ec"},"vehicle_type_id":"4","last_reported":1757787097,"current_range_meters":18000,"station_id":"ce4bh112rcd13ifvqd90","pricing_plan_id":"cebpf4jnsgd1na2vs0mg"},{"bike_id":"ef94e107-b5fd-44f7-a023-fb0854a2be56","system_id":"levelo_inurba_marseille","lat":43.2861,"lon":5.35113,"is_reserved":false,"is_disabled":false,"rental_uris":{"android":"levelo://app?vid=ef94e107-b5fd-44f7-a023-fb0854a2be56","ios":"levelo://app?vid=ef94e107-b5fd-44f7-a023-fb0854a2be56"},"vehicle_type_id":"4","last_reported":1757787097,"current_range_meters":18000,"station_id":"ce4bhch2rcd13ifvqeug","pricing_plan_id":"cebpf4jnsgd1na2vs0mg"},{"bike_id":"654df5a8-46fd-4bb1-a78c-219e858dd01e","system_id":"levelo_inurba_marseille","lat":43.288371,"lon":5.366439,"is_reserved":false,"is_disabled":false,"rental_uris":{"android":"levelo://app?vid=654df5a8-46fd-4bb1-a78c-219e858dd01e","ios":"levelo://app?vid=654df5a8-46fd-4bb1-a78c-219e858dd01e"},"vehicle_type_id":"4","last_reported":1757787097,"current_range_meters":18000,"station_id":"","pricing_plan_id":"cebpf4jnsgd1na2vs0mg"},{"bike_id":"8580934d-af2c-4996-ba74-cf500ee0f1ad","system_id":"levelo_inurba_marseille","lat":43.28466,"lon":5.35886,"is_reserved":false,"is_disabled":false,"rental_uris":{"android":"levelo://app?vid=8580934d-af2c-4996-ba74-cf500ee0f1ad","ios":"levelo://app?vid=8580934d-af2c-4996-ba74-cf500ee0f1ad"},"vehicle_type_id":"4","last_reported":1757787097,"current_range_meters":18000,"station_id":"ce4bhah2rcd13ifvqei0","pricing_plan_id":"cebpf4jnsgd1na2vs0mg"},{"bike_id":"9a5c870a-6b89-42ca-96da-ab53783f1af8","system_id":"levelo_inurba_marseille","lat":43.28723,"lon":5.36091,"is_reserved":false,"is_disabled":false,"rental_uris":{"android":"levelo://app?vid=9a5c870a-6b89-42ca-96da-ab53783f1af8","ios":"levelo://app?vid=9a5c870a-6b89-42ca-96da-ab53783f1af8"},"vehicle_type_id":"4","last_reported":1757787097,"current_range_meters":18800,"station_id":"cki0cbj6b192h4jlfktg","pricing_plan_id":"cebpf4jnsgd1na2vs0mg"},{"bike_id":"33b97eb8-df7b-4edc-a41c-7d7d307a89be","system_id":"levelo_inurba_marseille","lat":43.28463,"lon":5.38421,"is_reserved":false,"is_disabled":false,"rental_uris":{"android":"levelo://app?vid=33b97eb8-df7b-4edc-a41c-7d7d307a89be","ios":"levelo://app?vid=33b97eb8-df7b-4edc-a41c-7d7d307a89be"},"vehicle_type_id":"4","last_reported":1757787097,"current_range_meters":18000,"station_id":"ce4bh512rcd13ifvqe3g","pricing_plan_id":"cebpf4jnsgd1na2vs0mg"},{"bike_id":"d1835cb7-e899-4398-9f30-62c2e5129cec","system_id":"levelo_inurba_marseille","lat":43.337653,"lon":5.374705,"is_reserved":false,"is_disabled":false,"rental_uris":{"android":"levelo://app?vid=d1835cb7-e899-4398-9f30-62c2e5129cec","ios":"levelo://app?vid=d1835cb7-e899-4398-9f30-62c2e5129cec"},"vehicle_type_id":"4","last_reported":1757787097,"current_range_meters":18800,"station_id":"","pricing_plan_id":"cebpf4jnsgd1na2vs0mg"},{"bike_id":"974946ae-ecf9-4d17-a134-971d6f7a0b85","system_id":"levelo_inurba_marseille","lat":43.26781,"lon":5.39418,"is_reserved":false,"is_disabled":false,"rental_uris":{"android":"levelo://app?vid=974946ae-ecf9-4d17-a134-971d6f7a0b85","ios":"levelo://app?vid=974946ae-ecf9-4d17-a134-971d6f7a0b85"},"vehicle_type_id":"4","last_reported":1757787097,"current_range_meters":18800,"station_id":"ce4bhh12rcd13ifvqfg0","pricing_plan_id":"cebpf4jnsgd1na2vs0mg"},{"bike_id":"2946653f-1cbf-4784-8e4f-75f68a4666e3","system_id":"levelo_inurba_marseille","lat":43.28614,"lon":5.35103,"is_reserved":false,"is_disabled":false,"rental_uris":{"android":"levelo://app?vid=2946653f-1cbf-4784-8e4f-75f68a4666e3","ios":"levelo://app?vid=2946653f-1cbf-4784-8e4f-75f68a4666e3"},"vehicle_type_id":"4","last_reported":1757787097,"current_range_meters":18800,"station_id":"ce4bhch2rcd13ifvqeug","pricing_plan_id":"cebpf4jnsgd1na2vs0mg"},{"bike_id":"55414d4f-a967-4551-85fc-42e6a9362a7a","system_id":"levelo_inurba_marseille","lat":43.26055,"lon":5.39402,"is_reserved":false,"is_disabled":false,"rental_uris":{"android":"levelo://app?vid=55414d4f-a967-4551-85fc-42e6a9362a7a","ios":"levelo://app?vid=55414d4f-a967-4551-85fc-42e6a9362a7a"},"vehicle_type_id":"4","last_reported":1757787097,"current_range_meters":18800,"station_id":"ce4bhh92rcd13ifvqfj0","pricing_plan_id":"cebpf4jnsgd1na2vs0mg"},{"bike_id":"e06d2e94-3ae2-4b4b-9d7e-05d3f806365a","system_id":"levelo_inurba_marseille","lat":43.2582,"lon":5.39441,"is_reserved":false,"is_disabled":false,"rental_uris":{"android":"levelo://app?vid=e06d2e94-3ae2-4b4b-9d7e-05d3f806365a","ios":"levelo://app?vid=e06d2e94-3ae2-4b4b-9d7e-05d3f806365a"},"vehicle_type_id":"4","last_reported":1757787097,"current_range_meters":18800,"station_id":"ce4bhip2rcd13ifvqft0","pricing_plan_id":"cebpf4jnsgd1na2vs0mg"},{"bike_id":"fabf5c9d-db9b-4631-bf6e-9606219c9e0e","system_id":"levelo_inurba_marseille","lat":43.29303,"lon":5.37171,"is_reserved":false,"is_disabled":false,"rental_uris":{"android":"levelo://app?vid=fabf5c9d-db9b-4631-bf6e-9606219c9e0e","ios":"levelo://app?vid=fabf5c9d-db9b-4631-bf6e-9606219c9e0e"},"vehicle_type_id":"4","last_reported":1757787097,"current_range_meters":18800,"station_id":"ce4bgh92rcd13ifvqb40","pricing_plan_id":"cebpf4jnsgd1na2vs0mg"},{"bike_id":"c7deeaf2-80fb-4769-91c9-932e6bc745a3","system_id":"levelo_inurba_marseille","lat":43.30779,"lon":5.37642,"is_reserved":false,"is_disabled":false,"rental_uris":{"android":"levelo://app?vid=c7deeaf2-80fb-4769-91c9-932e6bc745a3","ios":"levelo://app?vid=c7deeaf2-80fb-4769-91c9-932e6bc745a3"},"vehicle_type_id":"4","last_reported":1757787097,"current_range_meters":18800,"station_id":"ce4bgv92rcd13ifvqcq0","pricing_plan_id":"cebpf4jnsgd1na2vs0mg"},{"bike_id":"81e9490c-c427-4bbf-b31b-c1a11ff4e539","system_id":"levelo_inurba_marseille","lat":43.28153,"lon":5.42644,"is_reserved":false,"is_disabled":false,"rental_uris":{"android":"levelo://app?vid=81e9490c-c427-4bbf-b31b-c1a11ff4e539","ios":"levelo://app?vid=81e9490c-c427-4bbf-b31b-c1a11ff4e539"},"vehicle_type_id":"4","last_reported":1757787097,"current_range_meters":19200,"station_id":"ce4bhnh2rcd13ifvqgug","pricing_plan_id":"cebpf4jnsgd1na2vs0mg"},{"bike_id":"e94ff352-9506-4c46-9051-f0be57ac060c","system_id":"levelo_inurba_marseille","lat":43.281478,"lon":5.426574,"is_reserved":false,"is_disabled":false,"rental_uris":{"android":"levelo://app?vid=e94ff352-9506-4c46-9051-f0be57ac060c","ios":"levelo://app?vid=e94ff352-9506-4c46-9051-f0be57ac060c"},"vehicle_type_id":"4","last_reported":1757787097,"current_range_meters":19200,"station_id":"ce4bhnh2rcd13ifvqgug","pricing_plan_id":"cebpf4jnsgd1na2vs0mg"},{"bike_id":"8b8aef01-1237-4f30-8555-fb937562b8f3","system_id":"levelo_inurba_marseille","lat":43.26496,"lon":5.39545,"is_reserved":false,"is_disabled":false,"rental_uris":{"android":"levelo://app?vid=8b8aef01-1237-4f30-8555-fb937562b8f3","ios":"levelo://app?vid=8b8aef01-1237-4f30-8555-fb937562b8f3"},"vehicle_type_id":"4","last_reported":1757787097,"current_range_meters":19200,"station_id":"ce4bhi12rcd13ifvqfq0","pricing_plan_id":"cebpf4jnsgd1na2vs0mg"},{"bike_id":"8a6ba380-46ae-4edc-b14d-6d666f15ca3a","system_id":"levelo_inurba_marseille","lat":43.25103,"lon":5.40351,"is_reserved":false,"is_disabled":false,"rental_uris":{"android":"levelo://app?vid=8a6ba380-46ae-4edc-b14d-6d666f15ca3a","ios":"levelo://app?vid=8a6ba380-46ae-4edc-b14d-6d666f15ca3a"},"vehicle_type_id":"4","last_reported":1757787097,"current_range_meters":19200,"station_id":"ce4bhlh2rcd13ifvqgig","pricing_plan_id":"cebpf4jnsgd1na2vs0mg"},{"bike_id":"c79f98a5-b132-4d8b-b050-5e48074dc6fe","system_id":"levelo_inurba_marseille","lat":43.316872,"lon":5.404702,"is_reserved":false,"is_disabled":false,"rental_uris":{"android":"levelo://app?vid=c79f98a5-b132-4d8b-b050-5e48074dc6fe","ios":"levelo://app?vid=c79f98a5-b132-4d8b-b050-5e48074dc6fe"},"vehicle_type_id":"4","last_reported":1757787097,"current_range_meters":19200,"station_id":"ce4bh012rcd13ifvqd00","pricing_plan_id":"cebpf4jnsgd1na2vs0mg"},{"bike_id":"8a277dba-1d09-4881-9496-bae8760bcbd1","system_id":"levelo_inurba_marseille","lat":43.30731,"lon":5.42437,"is_reserved":false,"is_disabled":false,"rental_uris":{"android":"levelo://app?vid=8a277dba-1d09-4881-9496-bae8760bcbd1","ios":"levelo://app?vid=8a277dba-1d09-4881-9496-bae8760bcbd1"},"vehicle_type_id":"4","last_reported":1757787097,"current_range_meters":19200,"station_id":"st_cvj6ca6bvosntc0bfgr0","pricing_plan_id":"cebpf4jnsgd1na2vs0mg"},{"bike_id":"db07b381-d7db-4099-84d7-36984a62196e","system_id":"levelo_inurba_marseille","lat":43.292932,"lon":5.369255,"is_reserved":false,"is_disabled":false,"rental_uris":{"android":"levelo://app?vid=db07b381-d7db-4099-84d7-36984a62196e","ios":"levelo://app?vid=db07b381-d7db-4099-84d7-36984a62196e"},"vehicle_type_id":"4","last_reported":1757787097,"current_range_meters":20000,"station_id":"ce4bgi92rcd13ifvqb90","pricing_plan_id":"cebpf4jnsgd1na2vs0mg"},{"bike_id":"b002a392-08fa-4b2e-b212-3e002cd96c5d","system_id":"levelo_inurba_marseille","lat":43.23962,"lon":5.36631,"is_reserved":false,"is_disabled":false,"rental_uris":{"android":"levelo://app?vid=b002a392-08fa-4b2e-b212-3e002cd96c5d","ios":"levelo://app?vid=b002a392-08fa-4b2e-b212-3e002cd96c5d"},"vehicle_type_id":"4","last_reported":1757787097,"current_range_meters":19600,"station_id":"ce4bhi12rcd13ifvqfp0","pricing_plan_id":"cebpf4jnsgd1na2vs0mg"},{"bike_id":"f9cc771c-1029-419a-a7cd-137056bd7f77","system_id":"levelo_inurba_marseille","lat":43.25821,"lon":5.39428,"is_reserved":false,"is_disabled":false,"rental_uris":{"android":"levelo://app?vid=f9cc771c-1029-419a-a7cd-137056bd7f77","ios":"levelo://app?vid=f9cc771c-1029-419a-a7cd-137056bd7f77"},"vehicle_type_id":"4","last_reported":1757787097,"current_range_meters":19600,"station_id":"ce4bhip2rcd13ifvqft0","pricing_plan_id":"cebpf4jnsgd1na2vs0mg"},