{"last_updated":1746857571,"ttl":60,"version":"2.2","data":{"bikes":[{"bike_id":"1e3c7f59-fcfc-433c-8689-9dfe9bf305d6","system_id":"levelo_inurba_marseille","lat":43.29519,"lon":5.40544,"is_reserved":false,"is_disabled":false,"rental_uris":{"android":"levelo://app?vid=1e3c7f59-fcfc-433c-8689-9dfe9bf305d6","ios":"levelo://app?vid=1e3c7f59-fcfc-433c-8689-9dfe9bf305d6"},"vehicle_type_id":"4","last_reported":1746857571,"current_range_meters":2800,"station_id":"","pricing_plan_id":"cebpf4jnsgd1na2vs0mg"},{"bike_id":"6e3610db-fdf0-40f8-9ef2-37e7547c1ad0","system_id":"levelo_inurba_marseille","lat":43.27495,"lon":5.42453,"is_reserved":false,"is_disabled":false,"rental_uris":{"android":"levelo://app?vid=6e3610db-fdf0-40f8-9ef2-37e7547c1ad0","ios":"levelo://app?vid=6e3610db-fdf0-40f8-9ef2-37e7547c1ad0"},"vehicle_type_id":"4","last_reported":1746857571,"current_range_meters":2800,"station_id":"ce4bhn92rcd13ifvqgrg","pricing_plan_id":"cebpf4jnsgd1na2vs0mg"},{"bike_id":"928bed07-e827-40ef-897c-7ba52991ba55","system_id":"levelo_inurba_marseille","lat":43.28663,"lon":5.3635,"is_reserved":false,"is_disabled":false,"rental_uris":{"android":"levelo://app?vid=928bed07-e827-40ef-897c-7ba52991ba55","ios":"levelo://app?vid=928bed07-e827-40ef-897c-7ba52991ba55"},"vehicle_type_id":"4","last_reported":1746857571,"current_range_meters":3200,"station_id":"ce4bhah2rcd13ifvqej0","pricing_plan_id":"cebpf4jnsgd1na2vs0mg"},{"bike_id":"8a0eb219-0825-4873-8042-7ddafae48f5b","system_id":"levelo_inurba_marseille","lat":43.25866,"lon":5.39923,"is_reserved":false,"is_disabled":false,"rental_uris":{"android":"levelo://app?vid=8a0eb219-0825-4873-8042-7ddafae48f5b","ios":"levelo://app?vid=8a0eb219-0825-4873-8042-7ddafae48f5b"},"vehicle_type_id":"4","last_reported":1746857571,"current_range_meters":3600,"station_id":"ce4bhl92rcd13ifvqghg","pricing_plan_id":"cebpf4jnsgd1na2vs0mg"},{"bike_id":"dce24418-2aec-47dd-9bc8-5d7f1d3bf6af","system_id":"levelo_inurba_marseille","lat":43.24542,"lon":5.39529,"is_reserved":false,"is_disabled":false,"rental_uris":{"android":"levelo://app?vid=dce24418-2aec-47dd-9bc8-5d7f1d3bf6af","ios":"levelo://app?vid=dce24418-2aec-47dd-9bc8-5d7f1d3bf6af"},"vehicle_type_id":"4","last_reported":1746857571,"current_range_meters":3600,"station_id":"ce4bhlp2rcd13ifvqgjg","pricing_plan_id":"cebpf4jnsgd1na2vs0mg"},{"bike_id":"51f6f0a0-c583-4863-8aa8-b01fe2bf21ad","system_id":"levelo_inurba_marseille","lat":43.305567,"lon":5.36757,"is_reserved":false,"is_disabled":true,"rental_uris":{"android":"levelo://app?vid=51f6f0a0-c583-4863-8aa8-b01fe2bf21ad","ios":"levelo://app?vid=51f6f0a0-c583-4863-8aa8-b01fe2bf21ad"},"vehicle_type_id":"4","last_reported":1746857571,"current_range_meters":3600,"station_id":"ce4bgrp2rcd13ifvqc9g","pricing_plan_id":"cebpf4jnsgd1na2vs0mg"},{"bike_id":"078071de-0978-4f13-bd6e-a3e0bc30f4a2","system_id":"levelo_inurba_marseille","lat":43.250007,"lon":5.389337,"is_reserved":false,"is_disabled":false,"rental_uris":{"android":"levelo://app?vid=078071de-0978-4f13-bd6e-a3e0bc30f4a2","ios":"levelo://app?vid=078071de-0978-4f13-bd6e-a3e0bc30f4a2"},"vehicle_type_id":"4","last_reported":1746857571,"current_range_meters":4400,"station_id":"ce4bhgp2rcd13ifvqfd0","pricing_plan_id":"cebpf4jnsgd1na2vs0mg"},{"bike_id":"6af985b2-9ee0-4c28-a9d8-b238a0c7330e","system_id":"levelo_inurba_marseille","lat":43.25114,"lon":5.40315,"is_reserved":false,"is_disabled":false,"rental_uris":{"android":"levelo://app?vid=6af985b2-9ee0-4c28-a9d8-b238a0c7330e","ios":"levelo://app?vid=6af985b2-9ee0-4c28-a9d8-b238a0c7330e"},"vehicle_type_id":"4","last_reported":1746857571,"current_range_meters":4400,"station_id":"ce4bhlh2rcd13ifvqgig","pricing_plan_id":"cebpf4jnsgd1na2vs0mg"},{"bike_id":"f76d0e06-a922-41bb-9df5-d0a5c7d3f9fc","system_id":"levelo_inurba_marseille","lat":43.28892,"lon":5.38421,"is_reserved":false,"is_disabled":true,"rental_uris":{"android":"levelo://app?vid=f76d0e06-a922-41bb-9df5-d0a5c7d3f9fc","ios":"levelo://app?vid=f76d0e06-a922-41bb-9df5-d0a5c7d3f9fc"},"vehicle_type_id":"4","last_reported":1746857571,"current_range_meters":5600,"station_id":"ce4bh612rcd13ifvqe6g","pricing_plan_id":"cebpf4jnsgd1na2vs0mg"},{"bike_id":"f673a50d-776a-4d4f-8bc2-0f75017ffb52","system_id":"levelo_inurba_marseille","lat":43.284499,"lon":5.358347,"is_reserved":false,"is_disabled":true,"rental_uris":{"android":"levelo://app?vid=f673a50d-776a-4d4f-8bc2-0f75017ffb52","ios":"levelo://app?vid=f673a50d-776a-4d4f-8bc2-0f75017ffb52"},"vehicle_type_id":"4","last_reported":1746857571,"current_range_meters":5600,"station_id":"ce4bhah2rcd13ifvqei0","pricing_plan_id":"cebpf4jnsgd1na2vs0mg"},{"bike_id":"283c096d-9775-40df-9ef5-3ff56b9146cb","system_id":"levelo_inurba_marseille","lat":43.22919,"lon":5.35374,"is_reserved":false,"is_disabled":true,"rental_uris":{"android":"levelo://app?vid=283c096d-9775-40df-9ef5-3ff56b9146cb","ios":"levelo://app?vid=283c096d-9775-40df-9ef5-3ff56b9146cb"},"vehicle_type_id":"4","last_reported":1746857571,"current_range_meters":6000,"station_id":"cpo3532slgdg3j2ikp40","pricing_plan_id":"cebpf4jnsgd1na2vs0mg"},{"bike_id":"33d77f94-822a-4b96-be68-071337f0e7ad","system_id":"levelo_inurba_marseille","lat":43.30603,"lon":5.37227,"is_reserved":false,"is_disabled":false,"rental_uris":{"android":"levelo://app?vid=33d77f94-822a-4b96-be68-071337f0e7ad","ios":"levelo://app?vid=33d77f94-822a-4b96-be68-071337f0e7ad"},"vehicle_type_id":"4","last_reported":1746857571,"current_range_meters":6000,"station_id":"ce4bgqh2rcd13ifvqc4g","pricing_plan_id":"cebpf4jnsgd1na2vs0mg"},{"bike_id":"ba32ee3a-6a49-437c-90fb-7756461a61f4","system_id":"levelo_inurba_marseille","lat":43.24163,"lon":5.36412,"is_reserved":false,"is_disabled":false,"rental_uris":{"android":"levelo://app?vid=ba32ee3a-6a49-437c-90fb-7756461a61f4","ios":"levelo://app?vid=ba32ee3a-6a49-437c-90fb-7756461a61f4"},"vehicle_type_id":"4","last_reported":1746857571,"current_range_meters":6400,"station_id":"cpo36qri1sfpv3e86is0","pricing_plan_id":"cebpf4jnsgd1na2vs0mg"},{"bike_id":"18c8fa99-b086-4e1d-a1b0-301f523c38e6","system_id":"levelo_inurba_marseille","lat":43.30449,"lon":5.37924,"is_reserved":false,"is_disabled":false,"rental_uris":{"android":"levelo://app?vid=18c8fa99-b086-4e1d-a1b0-301f523c38e6","ios":"levelo://app?vid=18c8fa99-b086-4e1d-a1b0-301f523c38e6"},"vehicle_type_id":"4","last_reported":1746857571,"current_range_meters":6400,"station_id":"ce4bgup2rcd13ifvqcn0","pricing_plan_id":"cebpf4jnsgd1na2vs0mg"},{"bike_id":"caf9033d-5f00-49c3-b1ee-1328b62008dc","system_id":"levelo_inurba_marseille","lat":43.33588,"lon":5.42815,"is_reserved":false,"is_disabled":false,"rental_uris":{"android":"levelo://app?vid=caf9033d-5f00-49c3-b1ee-1328b62008dc","ios":"levelo://app?vid=caf9033d-5f00-49c3-b1ee-1328b62008dc"},"vehicle_type_id":"4","last_reported":1746857571,"current_range_meters":6400,"station_id":"","pricing_plan_id":"cebpf4jnsgd1na2vs0mg"},{"bike_id":"d264c0b4-5571-4ec4-9c89-3a128be4e59f","system_id":"levelo_inurba_marseille","lat":43.25852,"lon":5.39912,"is_reserved":false,"is_disabled":true,"rental_uris":{"android":"levelo://app?vid=d264c0b4-5571-4ec4-9c89-3a128be4e59f","ios":"levelo://app?vid=d264c0b4-5571-4ec4-9c89-3a128be4e59f"},"vehicle_type_id":"4","last_reported":1746857571,"current_range_meters":6800,"station_id":"ce4bhl92rcd13ifvqghg","pricing_plan_id":"cebpf4jnsgd1na2vs0mg"},{"bike_id":"6c0bdbfd-6b23-41da-944b-ac98633dca52","system_id":"levelo_inurba_marseille","lat":43.25116,"lon":5.40331,"is_reserved":false,"is_disabled":false,"rental_uris":{"android":"levelo://app?vid=6c0bdbfd-6b23-41da-944b-ac98633dca52","ios":"levelo://app?vid=6c0bdbfd-6b23-41da-944b-ac98633dca52"},"vehicle_type_id":"4","last_reported":1746857571,"current_range_meters":6800,"station_id":"ce4bhlh2rcd13ifvqgig","pricing_plan_id":"cebpf4jnsgd1na2vs0mg"},{"bike_id":"b82963c6-7115-421c-ac2c-c76730ff375e","system_id":"levelo_inurba_marseille","lat":43.237621,"lon":5.36182,"is_reserved":false,"is_disabled":false,"rental_uris":{"android":"levelo://app?vid=b82963c6-7115-421c-ac2c-c76730ff375e","ios":"levelo://app?vid=b82963c6-7115-421c-ac2c-c76730ff375e"},"vehicle_type_id":"4","last_reported":1746857571,"current_range_meters":6800,"station_id":"","pricing_plan_id":"cebpf4jnsgd1na2vs0mg"},{"bike_id":"41b1a32b-2cab-4ffc-b477-33d19a4dd033","system_id":"levelo_inurba_marseille","lat":43.24545,"lon":5.39536,"is_reserved":false,"is_disabled":false,"rental_uris":{"android":"levelo://app?vid=41b1a32b-2cab-4ffc-b477-33d19a4dd033","ios":"levelo://app?vid=41b1a32b-2cab-4ffc-b477-33d19a4dd033"},"vehicle_type_id":"4","last_reported":1746857571,"current_range_meters":7200,"station_id":"ce4bhlp2rcd13ifvqgjg","pricing_plan_id":"cebpf4jnsgd1na2vs0mg"},{"bike_id":"5ef9c87e-d345-4f11-b0b5-68191ebd1ab6","system_id":"levelo_inurba_marseille","lat":43.2454,"lon":5.39556,"is_reserved":false,"is_disabled":false,"rental_uris":{"android":"levelo://app?vid=5ef9c87e-d345-4f11-b0b5-68191ebd1ab6","ios":"levelo://app?vid=5ef9c87e-d345-4f11-b0b5-68191ebd1ab6"},"vehicle_type_id":"4","last_reported":1746857571,"current_range_meters":7200,"station_id":"ce4bhlp2rcd13ifvqgjg","pricing_plan_id":"cebpf4jnsgd1na2vs0mg"},{"bike_id":"404bdf06-19a0-42dd-8b2a-4b557457ac84","system_id":"levelo_inurba_marseille","lat":43.25145,"lon":5.40427,"is_reserved":false,"is_disabled":false,"rental_uris":{"android":"levelo://app?vid=404bdf06-19a0-42dd-8b2a-4b557457ac84","ios":"levelo://app?vid=404bdf06-19a0-42dd-8b2a-4b557457ac84"},"vehicle_type_id":"4","last_reported":1746857571,"current_range_meters":7200,"station_id":"ce4bhlh2rcd13ifvqgig","pricing_plan_id":"cebpf4jnsgd1na2vs0mg"},{"bike_id":"730113d7-e72b-4423-a22e-1832e56b04d0","system_id":"levelo_inurba_marseille","lat":43.29439,"lon":5.38713,"is_reserved":false,"is_disabled":true,"rental_uris":{"android":"levelo://app?vid=730113d7-e72b-4423-a22e-1832e56b04d0","ios":"levelo://app?vid=730113d7-e72b-4423-a22e-1832e56b04d0"},"vehicle_type_id":"4","last_reported":1746857571,"current_range_meters":8000,"station_id":"","pricing_plan_id":"cebpf4jnsgd1na2vs0mg"},{"bike_id":"dd1b1ff0-ba6c-4744-a9f2-7be34f5a933e","system_id":"levelo_inurba_marseille","lat":43.27928,"lon":5.4106,"is_reserved":false,"is_disabled":false,"rental_uris":{"android":"levelo://app?vid=dd1b1ff0-ba6c-4744-a9f2-7be34f5a933e","ios":"levelo://app?vid=dd1b1ff0-ba6c-4744-a9f2-7be34f5a933e"},"vehicle_type_id":"4","last_reported":1746857571,"current_range_meters":8000,"station_id":"ce4bhnp2rcd13ifvqh0g","pricing_plan_id":"cebpf4jnsgd1na2vs0mg"},{"bike_id":"a5035683-e922-4659-b77f-9b07031bc84e","system_id":"levelo_inurba_marseille","lat":43.21767,"lon":5.34596,"is_reserved":false,"is_disabled":true,"rental_uris":{"android":"levelo://app?vid=a5035683-e922-4659-b77f-9b07031bc84e","ios":"levelo://app?vid=a5035683-e922-4659-b77f-9b07031bc84e"},"vehicle_type_id":"4","last_reported":1746857571,"current_range_meters":8000,"station_id":"st_cvj6r9ubvosntc0bgbag","pricing_plan_id":"cebpf4jnsgd1na2vs0mg"},{"bike_id":"a69bf4b4-8717-4a1f-8e67-26cd7acf32eb","system_id":"levelo_inurba_marseille","lat":43.24168,"lon":5.3969,"is_reserved":false,"is_disabled":false,"rental_uris":{"android":"levelo://app?vid=a69bf4b4-8717-4a1f-8e67-26cd7acf32eb","ios":"levelo://app?vid=a69bf4b4-8717-4a1f-8e67-26cd7acf32eb"},"vehicle_type_id":"4","last_reported":1746857571,"current_range_meters":8000,"station_id":"ce4bhn12rcd13ifvqgpg","pricing_plan_id":"cebpf4jnsgd1na2vs0mg"},{"bike_id":"ce972654-4647-4640-9be3-f6d267f881ec","system_id":"levelo_inurba_marseille","lat":43.27591,"lon":5.36073,"is_reserved":false,"is_disabled":false,"rental_uris":{"android":"levelo://app?vid=ce972654-4647-4640-9be3-f6d267f881ec","ios":"levelo://app?vid=ce972654-4647-4640-9be3-f6d267f881ec"},"vehicle_type_id":"4","last_reported":1746857571,"current_range_meters":8000,"station_id":"ce4bgj92rcd13ifvqbe0","pricing_plan_id":"cebpf4jnsgd1na2vs0mg"},{"bike_id":"6af774d7-2c64-48a1-ae08-54f823e2517c","system_id":"levelo_inurba_marseille","lat":43.31491,"lon":5.37284,"is_reserved":false,"is_disabled":false,"rental_uris":{"android":"levelo://app?vid=6af774d7-2c64-48a1-ae08-54f823e2517c","ios":"levelo://app?vid=6af774d7-2c64-48a1-ae08-54f823e2517c"},"vehicle_type_id":"4","last_reported":1746857571,"current_range_meters":8000,"station_id":"ce4bgt12rcd13ifvqcd0","pricing_plan_id":"cebpf4jnsgd1na2vs0mg"},{"bike_id":"791cf852-cc2a-4381-a46c-d7afe4ceb6de","system_id":"levelo_inurba_marseille","lat":43.28993,"lon":5.356177,"is_reserved":false,"is_disabled":true,"rental_uris":{"android":"levelo://app?vid=791cf852-cc2a-4381-a46c-d7afe4ceb6de","ios":"levelo://app?vid=791cf852-cc2a-4381-a46c-d7afe4ceb6de"},"vehicle_type_id":"4","last_reported":1746857571,"current_range_meters":8000,"station_id":"ce4bhb92rcd13ifvqen0","pricing_plan_id":"cebpf4jnsgd1na2vs0mg"},{"bike_id":"f8bd5ba1-0844-4c6d-9b78-f958f1313745","system_id":"levelo_inurba_marseille","lat":43.293528,"lon":5.428446,"is_reserved":false,"is_disabled":false,"rental_uris":{"android":"levelo://app?vid=f8bd5ba1-0844-4c6d-9b78-f958f1313745","ios":"levelo://app?vid=f8bd5ba1-0844-4c6d-9b78-f958f1313745"},"vehicle_type_id":"4","last_reported":1746857571,"current_range_meters":8400,"station_id":"","pricing_plan_id":"cebpf4jnsgd1na2vs0mg"},{"bike_id":"b0c54ead-2c9a-4d45-904a-5e1b9abf7338","system_id":"levelo_inurba_marseille","lat":43.279135,"lon":5.440879,"is_reserved":false,"is_disabled":false,"rental_uris":{"android":"levelo://app?vid=b0c54ead-2c9a-4d45-904a-5e1b9abf7338","ios":"levelo://app?vid=b0c54ead-2c9a-4d45-904a-5e1b9abf7338"},"vehicle_type_id":"4","last_reported":1746857571,"current_range_meters":8400,"station_id":"","pricing_plan_id":"cebpf4jnsgd1na2vs0mg"},{"bike_id":"3c7670ff-3628-42b4-8ea8-664d4fa357dd","system_id":"levelo_inurba_marseille","lat":43.27992,"lon":5.4169,"is_reserved":false,"is_disabled":false,"rental_uris":{"android":"levelo://app?vid=3c7670ff-3628-42b4-8ea8-664d4fa357dd","ios":"levelo://app?vid=3c7670ff-3628-42b4-8ea8-664d4fa357dd"},"vehicle_type_id":"4","last_reported":1746857571,"current_range_meters":8400,"station_id":"ce4bho12rcd13ifvqh1g","pricing_plan_id":"cebpf4jnsgd1na2vs0mg"},{"bike_id":"750853c3-5c7a-41ac-b4b9-21d83e878f6f","system_id":"levelo_inurba_marseille","lat":43.27703,"lon":5.41966,"is_reserved":false,"is_disabled":false,"rental_uris":{"android":"levelo://app?vid=750853c3-5c7a-41ac-b4b9-21d83e878f6f","ios":"levelo://app?vid=750853c3-5c7a-41ac-b4b9-21d83e878f6f"},"vehicle_type_id":"4","last_reported":1746857571,"current_range_meters":8800,"station_id":"","pricing_plan_id":"cebpf4jnsgd1na2vs0mg"},{"bike_id":"bdca530c-bd0d-472f-a06b-e690e9f2d295","system_id":"levelo_inurba_marseille","lat":43.308059,"lon":5.381657,"is_reserved":false,"is_disabled":false,"rental_uris":{"android":"levelo://app?vid=bdca530c-bd0d-472f-a06b-e690e9f2d295","ios":"levelo://app?vid=bdca530c-bd0d-472f-a06b-e690e9f2d295"},"vehicle_type_id":"4","last_reported":1746857571,"current_range_meters":8800,"station_id":"ce4bgt12rcd13ifvqce0","pricing_plan_id":"cebpf4jnsgd1na2vs0mg"},{"bike_id":"1409fe3f-76d5-45a1-8873-c5294f522bb1","system_id":"levelo_inurba_marseille","lat":43.30456,"lon":5.37904,"is_reserved":false,"is_disabled":false,"rental_uris":{"android":"levelo://app?vid=1409fe3f-76d5-45a1-8873-c5294f522bb1","ios":"levelo://app?vid=1409fe3f-76d5-45a1-8873-c5294f522bb1"},"vehicle_type_id":"4","last_reported":1746857571,"current_range_meters":8800,"station_id":"ce4bgup2rcd13ifvqcn0","pricing_plan_id":"cebpf4jnsgd1na2vs0mg"},{"bike_id":"3ee8e499-f845-4c6b-aa75-107b3891d613","system_id":"levelo_inurba_marseille","lat":43.28046,"lon":5.36943,"is_reserved":false,"is_disabled":false,"rental_uris":{"android":"levelo://app?vid=3ee8e499-f845-4c6b-aa75-107b3891d613","ios":"levelo://app?vid=3ee8e499-f845-4c6b-aa75-107b3891d613"},"vehicle_type_id":"4","last_reported":1746857571,"current_range_meters":8800,"station_id":"ce4bha12rcd13ifvqef0","pricing_plan_id":"cebpf4jnsgd1na2vs0mg"},{"bike_id":"88e65bbf-8be6-4c3d-aa2e-445c3d526d08","system_id":"levelo_inurba_marseille","lat":43.27212,"lon":5.409843,"is_reserved":false,"is_disabled":true,"rental_uris":{"android":"levelo://app?vid=88e65bbf-8be6-4c3d-aa2e-445c3d526d08","ios":"levelo://app?vid=88e65bbf-8be6-4c3d-aa2e-445c3d526d08"},"vehicle_type_id":"4","last_reported":1746857571,"current_range_meters":8800,"station_id":"ce4bhl12rcd13ifvqgf0","pricing_plan_id":"cebpf4jnsgd1na2vs0mg"},{"bike_id":"8cb987f9-049d-46ae-9b26-cc9ab0572bed","system_id":"levelo_inurba_marseille","lat":43.27833,"lon":5.40721,"is_reserved":false,"is_disabled":true,"rental_uris":{"android":"levelo://app?vid=8cb987f9-049d-46ae-9b26-cc9ab0572bed","ios":"levelo://app?vid=8cb987f9-049d-46ae-9b26-cc9ab0572bed"},"vehicle_type_id":"4","last_reported":1746857571,"current_range_meters":9200,"station_id":"ce4bhnh2rcd13ifvqgtg","pricing_plan_id":"cebpf4jnsgd1na2vs0mg"},{"bike_id":"22dfbe01-9157-43ce-a9ac-7077e5980f60","system_id":"levelo_inurba_marseille","lat":43.234664,"lon":5.360458,"is_reserved":false,"is_disabled":false,"rental_uris":{"android":"levelo://app?vid=22dfbe01-9157-43ce-a9ac-7077e5980f60","ios":"levelo://app?vid=22dfbe01-9157-43ce-a9ac-7077e5980f60"},"vehicle_type_id":"4","last_reported":1746857571,"current_range_meters":9200,"station_id":"","pricing_plan_id":"cebpf4jnsgd1na2vs0mg"},{"bike_id":"1771c0e2-1fe6-49ff-8a23-2166fe76f883","system_id":"levelo_inurba_marseille","lat":43.23174,"lon":5.39988,"is_reserved":false,"is_disabled":false,"rental_uris":{"android":"levelo://app?vid=1771c0e2-1fe6-49ff-8a23-2166fe76f883","ios":"levelo://app?vid=1771c0e2-1fe6-49ff-8a23-2166fe76f883"},"vehicle_type_id":"4","last_reported":1746857571,"current_range_meters":9600,"station_id":"ce4bhn12rcd13ifvqgqg","pricing_plan_id":"cebpf4jnsgd1na2vs0mg"},{"bike_id":"42091268-e1c5-49fa-92ef-af1096d6f585","system_id":"levelo_inurba_marseille","lat":43.30932,"lon":5.40136,"is_reserved":false,"is_disabled":false,"rental_uris":{"android":"levelo://app?vid=42091268-e1c5-49fa-92ef-af1096d6f585","ios":"levelo://app?vid=42091268-e1c5-49fa-92ef-af1096d6f585"},"vehicle_type_id":"4","last_reported":1746857571,"current_range_meters":9600,"station_id":"ce4bgvp2rcd13ifvqct0","pricing_plan_id":"cebpf4jnsgd1na2vs0mg"},{"bike_id":"02b78847-8c19-4c59-93ac-0179dd6fb8a4","system_id":"levelo_inurba_marseille","lat":43.28665,"lon":5.36355,"is_reserved":false,"is_disabled":false,"rental_uris":{"android":"levelo://app?vid=02b78847-8c19-4c59-93ac-0179dd6fb8a4","ios":"levelo://app?vid=02b78847-8c19-4c59-93ac-0179dd6fb8a4"},"vehicle_type_id":"4","last_reported":1746857571,"current_range_meters":9600,"station_id":"ce4bhah2rcd13ifvqej0","pricing_plan_id":"cebpf4jnsgd1na2vs0mg"},{"bike_id":"2d9cf84f-80e6-4273-bdb7-a817d129565a","system_id":"levelo_inurba_marseille","lat":43.28074,"lon":5.39651,"is_reserved":false,"is_disabled":false,"rental_uris":{"android":"levelo://app?vid=2d9cf84f-80e6-4273-bdb7-a817d129565a","ios":"levelo://app?vid=2d9cf84f-80e6-4273-bdb7-a817d129565a"},"vehicle_type_id":"4","last_reported":1746857571,"current_range_meters":10000,"station_id":"ce4bho12rcd13ifvqh2g","pricing_plan_id":"cebpf4jnsgd1na2vs0mg"},{"bike_id":"4355e743-7da9-4460-887f-7163ed4c9a9b","system_id":"levelo_inurba_marseille","lat":43.284803,"lon":5.385392,"is_reserved":false,"is_disabled":false,"rental_uris":{"android":"levelo://app?vid=4355e743-7da9-4460-887f-7163ed4c9a9b","ios":"levelo://app?vid=4355e743-7da9-4460-887f-7163ed4c9a9b"},"vehicle_type_id":"4","last_reported":1746857571,"current_range_meters":10000,"station_id":"ce4bh8p2rcd13ifvqeb0","pricing_plan_id":"cebpf4jnsgd1na2vs0mg"},{"bike_id":"0eae1664-e62c-4400-8041-d7f3bc1da788","system_id":"levelo_inurba_marseille","lat":43.28772,"lon":5.35913,"is_reserved":false,"is_disabled":false,"rental_uris":{"android":"levelo://app?vid=0eae1664-e62c-4400-8041-d7f3bc1da788","ios":"levelo://app?vid=0eae1664-e62c-4400-8041-d7f3bc1da788"},"vehicle_type_id":"4","last_reported":1746857571,"current_range_meters":10000,"station_id":"","pricing_plan_id":"cebpf4jnsgd1na2vs0mg"},{"bike_id":"c23795ea-7683-4dec-afd8-7fe5848041e3","system_id":"levelo_inurba_marseille","lat":43.24164,"lon":5.3974,"is_reserved":false,"is_disabled":false,"rental_uris":{"android":"levelo://app?vid=c23795ea-7683-4dec-afd8-7fe5848041e3","ios":"levelo://app?vid=c23795ea-7683-4dec-afd8-7fe5848041e3"},"vehicle_type_id":"4","last_reported":1746857571,"current_range_meters":10000,"station_id":"ce4bhn12rcd13ifvqgpg","pricing_plan_id":"cebpf4jnsgd1na2vs0mg"},{"bike_id":"a50985a0-3f26-48e5-b65a-c25bac0f8023","system_id":"levelo_inurba_marseille","lat":43.286208,"lon":5.351073,"is_reserved":false,"is_disabled":false,"rental_uris":{"android":"levelo://app?vid=a50985a0-3f26-48e5-b65a-c25bac0f8023","ios":"levelo://app?vid=a50985a0-3f26-48e5-b65a-c25bac0f8023"},"vehicle_type_id":"4","last_reported":1746857571,"current_range_meters":10800,"station_id":"ce4bhch2rcd13ifvqeug","pricing_plan_id":"cebpf4jnsgd1na2vs0mg"},{"bike_id":"86b478b2-1cf2-4e07-8a5c-76710e912a41","system_id":"levelo_inurba_marseille","lat":43.291238,"lon":5.366913,"is_reserved":false,"is_disabled":false,"rental_uris":{"android":"levelo://app?vid=86b478b2-1cf2-4e07-8a5c-76710e912a41","ios":"levelo://app?vid=86b478b2-1cf2-4e07-8a5c-76710e912a41"},"vehicle_type_id":"4","last_reported":1746857571,"current_range_meters":10800,"station_id":"","pricing_plan_id":"cebpf4jnsgd1na2vs0mg"},{"bike_id":"044478cb-8194-4092-b984-4fc9c042ef68","system_id":"levelo_inurba_marseille","lat":43.28752,"lon":5.46505,"is_reserved":false,"is_disabled":false,"rental_uris":{"android":"levelo://app?vid=044478cb-8194-4092-b984-4fc9c042ef68","ios":"levelo://app?vid=044478cb-8194-4092-b984-4fc9c042ef68"},"vehicle_type_id":"4","last_reported":1746857571,"current_range_meters":10800,"station_id":"","pricing_plan_id":"cebpf4jnsgd1na2vs0mg"},{"bike_id":"597beefa-8311-4d68-b0f3-88cd0a14dd08","system_id":"levelo_inurba_marseille","lat":43.27551,"lon":5.39556,"is_reserved":false,"is_disabled":false,"rental_uris":{"android":"levelo://app?vid=597beefa-8311-4d68-b0f3-88cd0a14dd08","ios":"levelo://app?vid=597beefa-8311-4d68-b0f3-88cd0a14dd08"},"vehicle_type_id":"4","last_reported":1746857571,"current_range_meters":10800,"station_id":"","pricing_plan_id":"cebpf4jnsgd1na2vs0mg"},{"bike_id":"dabc5299-686c-437f-b1fe-4c4dcec4a3bc","system_id":"levelo_inurba_marseille","lat":43.24063,"lon":5.37765,"is_reserved":false,"is_disabled":false,"rental_uris":{"android":"levelo://app?vid=dabc5299-686c-437f-b1fe-4c4dcec4a3bc","ios":"levelo://app?vid=dabc5299-686c-437f-b1fe-4c4dcec4a3bc"},"vehicle_type_id":"4","last_reported":1746857571,"current_range_meters":11200,"station_id":"ce4bhnp2rcd13ifvqgvg","pricing_plan_id":"cebpf4jnsgd1na2vs0mg"},{"bike_id":"9319b99d-2325-4f39-8ac2-f7bd744620e2","system_id":"levelo_inurba_marseille","lat":43.27614,"lon":5.36097,"is_reserved":false,"is_disabled":false,"rental_uris":{"android":"levelo://app?vid=9319b99d-2325-4f39-8ac2-f7bd744620e2","ios":"levelo://app?vid=9319b99d-2325-4f39-8ac2-f7bd744620e2"},"vehicle_type_id":"4","last_reported":1746857571,"current_range_meters":11200,"station_id":"ce4bgj92rcd13ifvqbe0","pricing_plan_id":"cebpf4jnsgd1na2vs0mg"},{"bike_id":"d388abd5-c0e6-48dd-a7fc-1d6206199050","system_id":"levelo_inurba_marseille","lat":43.34134,"lon":5.36054,"is_reserved":false,"is_disabled":false,"rental_uris":{"android":"levelo://app?vid=d388abd5-c0e6-48dd-a7fc-1d6206199050","ios":"levelo://app?vid=d388abd5-c0e6-48dd-a7fc-1d6206199050"},"vehicle_type_id":"4","last_reported":1746857571,"current_range_meters":11200,"station_id":"","pricing_plan_id":"cebpf4jnsgd1na2vs0mg"},{"bike_id":"cfb33b76-ff38-465f-96b4-8908aeb6f4a0","system_id":"levelo_inurba_marseille","lat":43.27372,"lon":5.36256,"is_reserved":false,"is_disabled":false,"rental_uris":{"android":"levelo://app?vid=cfb33b76-ff38-465f-96b4-8908aeb6f4a0","ios":"levelo://app?vid=cfb33b76-ff38-465f-96b4-8908aeb6f4a0"},"vehicle_type_id":"4","last_reported":1746857571,"current_range_meters":11200,"station_id":"ce4bhbh2rcd13ifvqeo0","pricing_plan_id":"cebpf4jnsgd1na2vs0mg"},{"bike_id":"5936f16c-b2a3-47d9-a067-399829148751","system_id":"levelo_inurba_marseille","lat":43.279461,"lon":5.410425,"is_reserved":false,"is_disabled":false,"rental_uris":{"android":"levelo://app?vid=5936f16c-b2a3-47d9-a067-399829148751","ios":"levelo://app?vid=5936f16c-b2a3-47d9-a067-399829148751"},"vehicle_type_id":"4","last_reported":1746857571,"current_range_meters":11600,"station_id":"ce4bhnp2rcd13ifvqh0g","pricing_plan_id":"cebpf4jnsgd1na2vs0mg"},{"bike_id":"2bcd659a-611c-43e2-89ef-f7e699246180","system_id":"levelo_inurba_marseille","lat":43.302423,"lon":5.400393,"is_reserved":false,"is_disabled":true,"rental_uris":{"android":"levelo://app?vid=2bcd659a-611c-43e2-89ef-f7e699246180","ios":"levelo://app?vid=2bcd659a-611c-43e2-89ef-f7e699246180"},"vehicle_type_id":"4","last_reported":1746857571,"current_range_meters":11600,"station_id":"ce4bgvh2rcd13ifvqcs0","pricing_plan_id":"cebpf4jnsgd1na2vs0mg"},{"bike_id":"425a71c2-3497-48ea-abb4-541b2f2a7c98","system_id":"levelo_inurba_marseille","lat":43.24663,"lon":5.38153,"is_reserved":false,"is_disabled":false,"rental_uris":{"android":"levelo://app?vid=425a71c2-3497-48ea-abb4-541b2f2a7c98","ios":"levelo://app?vid=425a71c2-3497-48ea-abb4-541b2f2a7c98"},"vehicle_type_id":"4","last_reported":1746857571,"current_range_meters":11600,"station_id":"ce4bhih2rcd13ifvqfr0","pricing_plan_id":"cebpf4jnsgd1na2vs0mg"},{"bike_id":"5a2b9265-1c21-4240-ae2e-6b025866f1b4","system_id":"levelo_inurba_marseille","lat":43.30923,"lon":5.40143,"is_reserved":false,"is_disabled":false,"rental_uris":{"android":"levelo://app?vid=5a2b9265-1c21-4240-ae2e-6b025866f1b4","ios":"levelo://app?vid=5a2b9265-1c21-4240-ae2e-6b025866f1b4"},"vehicle_type_id":"4","last_reported":1746857571,"current_range_meters":11600,"station_id":"ce4bgvp2rcd13ifvqct0","pricing_plan_id":"cebpf4jnsgd1na2vs0mg"},{"bike_id":"28e494a4-7abf-47b8-8bf7-2b800b51ea0a","system_id":"levelo_inurba_marseille","lat":43.33727,"lon":5.37488,"is_reserved":false,"is_disabled":false,"rental_uris":{"android":"levelo://app?vid=28e494a4-7abf-47b8-8bf7-2b800b51ea0a","ios":"levelo://app?vid=28e494a4-7abf-47b8-8bf7-2b800b51ea0a"},"vehicle_type_id":"4","last_reported":1746857571,"current_range_meters":12000,"station_id":"","pricing_plan_id":"cebpf4jnsgd1na2vs0mg"},{"bike_id":"29b99ee3-82b0-4cb0-a9d6-8993ba8fcb2f","system_id":"levelo_inurba_marseille","lat":43.24648,"lon":5.38906,"is_reserved":false,"is_disabled":false,"rental_uris":{"android":"levelo://app?vid=29b99ee3-82b0-4cb0-a9d6-8993ba8fcb2f","ios":"levelo://app?vid=29b99ee3-82b0-4cb0-a9d6-8993ba8fcb2f"},"vehicle_type_id":"4","last_reported":1746857571,"current_range_meters":12000,"station_id":"ce4bhg12rcd13ifvqf60","pricing_plan_id":"cebpf4jnsgd1na2vs0mg"},{"bike_id":"09e1dc14-26ac-446e-add0-27edb09cfb56","system_id":"levelo_inurba_marseille","lat":43.29277,"lon":5.36848,"is_reserved":false,"is_disabled":true,"rental_uris":{"android":"levelo://app?vid=09e1dc14-26ac-446e-add0-27edb09cfb56","ios":"levelo://app?vid=09e1dc14-26ac-446e-add0-27edb09cfb56"},"vehicle_type_id":"4","last_reported":1746857571,"current_range_meters":12000,"station_id":"","pricing_plan_id":"cebpf4jnsgd1na2vs0mg"},{"bike_id":"c5bf6457-7a00-4d62-9165-cd5ce63d9661","system_id":"levelo_inurba_marseille","lat":43.24389,"lon":5.3706,"is_reserved":false,"is_disabled":false,"rental_uris":{"android":"levelo://app?vid=c5bf6457-7a00-4d62-9165-cd5ce63d9661","ios":"levelo://app?vid=c5bf6457-7a00-4d62-9165-cd5ce63d9661"},"vehicle_type_id":"4","last_reported":1746857571,"current_range_meters":12400,"station_id":"ce4bhhh2rcd13ifvqfk0","pricing_plan_id":"cebpf4jnsgd1na2vs0mg"},{"bike_id":"35a8516b-240a-4df8-a3a1-35d4da354b60","system_id":"levelo_inurba_marseille","lat":43.23962,"lon":5.36648,"is_reserved":false,"is_disabled":false,"rental_uris":{"android":"levelo://app?vid=35a8516b-240a-4df8-a3a1-35d4da354b60","ios":"levelo://app?vid=35a8516b-240a-4df8-a3a1-35d4da354b60"},"vehicle_type_id":"4","last_reported":1746857571,"current_range_meters":12400,"station_id":"ce4bhi12rcd13ifvqfp0","pricing_plan_id":"cebpf4jnsgd1na2vs0mg"},{"bike_id":"e25f881c-6bcc-4e52-867a-fe02b2cd5d45","system_id":"levelo_inurba_marseille","lat":43.27825,"lon":5.40729,"is_reserved":false,"is_disabled":false,"rental_uris":{"android":"levelo://app?vid=e25f881c-6bcc-4e52-867a-fe02b2cd5d45","ios":"levelo://app?vid=e25f881c-6bcc-4e52-867a-fe02b2cd5d45"},"vehicle_type_id":"4","last_reported":1746857571,"current_range_meters":12400,"station_id":"ce4bhnh2rcd13ifvqgtg","pricing_plan_id":"cebpf4jnsgd1na2vs0mg"},{"bike_id":"df56ef2d-718a-45a6-8a7e-282a60e1aaaf","system_id":"levelo_inurba_marseille","lat":43.31718,"lon":5.424,"is_reserved":false,"is_disabled":true,"rental_uris":{"android":"levelo://app?vid=df56ef2d-718a-45a6-8a7e-282a60e1aaaf","ios":"levelo://app?vid=df56ef2d-718a-45a6-8a7e-282a60e1aaaf"},"vehicle_type_id":"4","last_reported":1746857571,"current_range_meters":12400,"station_id":"ce4bhp92rcd13ifvqhbg","pricing_plan_id":"cebpf4jnsgd1na2vs0mg"},{"bike_id":"f1c7a456-d705-477a-b1e6-88d53834d2f1","system_id":"levelo_inurba_marseille","lat":43.31723,"lon":5.43697,"is_reserved":false,"is_disabled":true,"rental_uris":{"android":"levelo://app?vid=f1c7a456-d705-477a-b1e6-88d53834d2f1","ios":"levelo://app?vid=f1c7a456-d705-477a-b1e6-88d53834d2f1"},"vehicle_type_id":"4","last_reported":1746857571,"current_range_meters":12800,"station_id":"ce4bhp92rcd13ifvqhcg","pricing_plan_id":"cebpf4jnsgd1na2vs0mg"},{"bike_id":"6a592c79-90d3-4c3a-8d32-667e71e7b710","system_id":"levelo_inurba_marseille","lat":43.31681,"lon":5.40472,"is_reserved":false,"is_disabled":false,"rental_uris":{"android":"levelo://app?vid=6a592c79-90d3-4c3a-8d32-667e71e7b710","ios":"levelo://app?vid=6a592c79-90d3-4c3a-8d32-667e71e7b710"},"vehicle_type_id":"4","last_reported":1746857571,"current_range_meters":12800,"station_id":"ce4bh012rcd13ifvqd00","pricing_plan_id":"cebpf4jnsgd1na2vs0mg"},{"bike_id":"a34bfce8-44ea-45a5-887b-d15f36896976","system_id":"levelo_inurba_marseille","lat":43.29258,"lon":5.40917,"is_reserved":false,"is_disabled":false,"rental_uris":{"android":"levelo://app?vid=a34bfce8-44ea-45a5-887b-d15f36896976","ios":"levelo://app?vid=a34bfce8-44ea-45a5-887b-d15f36896976"},"vehicle_type_id":"4","last_reported":1746857571,"current_range_meters":12800,"station_id":"ce4bh192rcd13ifvqdc0","pricing_plan_id":"cebpf4jnsgd1na2vs0mg"},{"bike_id":"08c04ff9-e615-4d87-ba3e-6b0e2342cce5","system_id":"levelo_inurba_marseille","lat":43.2959,"lon":5.36754,"is_reserved":false,"is_disabled":true,"rental_uris":{"android":"levelo://app?vid=08c04ff9-e615-4d87-ba3e-6b0e2342cce5","ios":"levelo://app?vid=08c04ff9-e615-4d87-ba3e-6b0e2342cce5"},"vehicle_type_id":"4","last_reported":1746857571,"current_range_meters":12800,"station_id":"ce4bgph2rcd13ifvqc2g","pricing_plan_id":"cebpf4jnsgd1na2vs0mg"},{"bike_id":"d58e2bca-9cc6-4497-82e6-997f2f8b2940","system_id":"levelo_inurba_marseille","lat":43.24664,"lon":5.38163,"is_reserved":false,"is_disabled":false,"rental_uris":{"android":"levelo://app?vid=d58e2bca-9cc6-4497-82e6-997f2f8b2940","ios":"levelo://app?vid=d58e2bca-9cc6-4497-82e6-997f2f8b2940"},"vehicle_type_id":"4","last_reported":1746857571,"current_range_meters":13600,"station_id":"ce4bhih2rcd13ifvqfr0","pricing_plan_id":"cebpf4jnsgd1na2vs0mg"},{"bike_id":"575346d1-8dea-4228-8b9c-4d5ea0a89925","system_id":"levelo_inurba_marseille","lat":43.25114,"lon":5.40332,"is_reserved":false,"is_disabled":false,"rental_uris":{"android":"levelo://app?vid=575346d1-8dea-4228-8b9c-4d5ea0a89925","ios":"levelo://app?vid=575346d1-8dea-4228-8b9c-4d5ea0a89925"},"vehicle_type_id":"4","last_reported":1746857571,"current_range_meters":13600,"station_id":"ce4bhlh2rcd13ifvqgig","pricing_plan_id":"cebpf4jnsgd1na2vs0mg"},{"bike_id":"18bf9a03-0968-4b71-9ea2-2b9b783b50b0","system_id":"levelo_inurba_marseille","lat":43.28335,"lon":5.38118,"is_reserved":false,"is_disabled":false,"rental_uris":{"android":"levelo://app?vid=18bf9a03-0968-4b71-9ea2-2b9b783b50b0","ios":"levelo://app?vid=18bf9a03-0968-4b71-9ea2-2b9b783b50b0"},"vehicle_type_id":"4","last_reported":1746857571,"current_range_meters":13600,"station_id":"ce4bh412rcd13ifvqdr0","pricing_plan_id":"cebpf4jnsgd1na2vs0mg"},{"bike_id":"4dac548a-0e49-4a36-a3d2-5091efe06cbf","system_id":"levelo_inurba_marseille","lat":43.27808,"lon":5.40727,"is_reserved":false,"is_disabled":true,"rental_uris":{"android":"levelo://app?vid=4dac548a-0e49-4a36-a3d2-5091efe06cbf","ios":"levelo://app?vid=4dac548a-0e49-4a36-a3d2-5091efe06cbf"},"vehicle_type_id":"4","last_reported":1746857571,"current_range_meters":14000,"station_id":"","pricing_plan_id":"cebpf4jnsgd1na2vs0mg"},{"bike_id":"bd1b6c30-dc01-40e7-8e75-a81aed6c1a76","system_id":"levelo_inurba_marseille","lat":43.30263,"lon":5.40078,"is_reserved":false,"is_disabled":false,"rental_uris":{"android":"levelo://app?vid=bd1b6c30-dc01-40e7-8e75-a81aed6c1a76","ios":"levelo://app?vid=bd1b6c30-dc01-40e7-8e75-a81aed6c1a76"},"vehicle_type_id":"4","last_reported":1746857571,"current_range_meters":14000,"station_id":"ce4bgvh2rcd13ifvqcs0","pricing_plan_id":"cebpf4jnsgd1na2vs0mg"},{"bike_id":"bb9dd4d9-ef7c-411c-9ce2-6f0d8890189a","system_id":"levelo_inurba_marseille","lat":43.24173,"lon":5.36416,"is_reserved":false,"is_disabled":false,"rental_uris":{"android":"levelo://app?vid=bb9dd4d9-ef7c-411c-9ce2-6f0d8890189a","ios":"levelo://app?vid=bb9dd4d9-ef7c-411c-9ce2-6f0d8890189a"},"vehicle_type_id":"4","last_reported":1746857571,"current_range_meters":14400,"station_id":"cpo36qri1sfpv3e86is0","pricing_plan_id":"cebpf4jnsgd1na2vs0mg"},{"bike_id":"9a919805-a5a4-497f-a929-c9e08814771d","system_id":"levelo_inurba_marseille","lat":43.27987,"lon":5.41665,"is_reserved":false,"is_disabled":true,"rental_uris":{"android":"levelo://app?vid=9a919805-a5a4-497f-a929-c9e08814771d","ios":"levelo://app?vid=9a919805-a5a4-497f-a929-c9e08814771d"},"vehicle_type_id":"4","last_reported":1746857571,"current_range_meters":14400,"station_id":"ce4bho12rcd13ifvqh1g","pricing_plan_id":"cebpf4jnsgd1na2vs0mg"},{"bike_id":"168f826e-1c62-47a9-a8b5-8c2228dbddb8","system_id":"levelo_inurba_marseille","lat":43.30261,"lon":5.38986,"is_reserved":false,"is_disabled":true,"rental_uris":{"android":"levelo://app?vid=168f826e-1c62-47a9-a8b5-8c2228dbddb8","ios":"levelo://app?vid=168f826e-1c62-47a9-a8b5-8c2228dbddb8"},"vehicle_type_id":"4","last_reported":1746857571,"current_range_meters":14400,"station_id":"","pricing_plan_id":"cebpf4jnsgd1na2vs0mg"},{"bike_id":"3cd77577-8cb3-4614-a6d8-4f08f07e2c60","system_id":"levelo_inurba_marseille","lat":43.25111,"lon":5.40338,"is_reserved":false,"is_disabled":false,"rental_uris":{"android":"levelo://app?vid=3cd77577-8cb3-4614-a6d8-4f08f07e2c60","ios":"levelo://app?vid=3cd77577-8cb3-4614-a6d8-4f08f07e2c60"},"vehicle_type_id":"4","last_reported":1746857571,"current_range_meters":14400,"station_id":"ce4bhlh2rcd13ifvqgig","pricing_plan_id":"cebpf4jnsgd1na2vs0mg"},{"bike_id":"db8e9453-3d9e-43c6-9459-be7e83be27dd","system_id":"levelo_inurba_marseille","lat":43.258665,"lon":5.399033,"is_reserved":false,"is_disabled":false,"rental_uris":{"android":"levelo://app?vid=db8e9453-3d9e-43c6-9459-be7e83be27dd","ios":"levelo://app?vid=db8e9453-3d9e-43c6-9459-be7e83be27dd"},"vehicle_type_id":"4","last_reported":1746857571,"current_range_meters":14400,"station_id":"ce4bhl92rcd13ifvqghg","pricing_plan_id":"cebpf4jnsgd1na2vs0mg"},{"bike_id":"cb6e829e-08a2-4265-8b55-6bb7beaff204","system_id":"levelo_inurba_marseille","lat":43.22931,"lon":5.3538,"is_reserved":false,"is_disabled":false,"rental_uris":{"android":"levelo://app?vid=cb6e829e-08a2-4265-8b55-6bb7beaff204","ios":"levelo://app?vid=cb6e829e-08a2-4265-8b55-6bb7beaff204"},"vehicle_type_id":"4","last_reported":1746857571,"current_range_meters":14800,"station_id":"cpo3532slgdg3j2ikp40","pricing_plan_id":"cebpf4jnsgd1na2vs0mg"},{"bike_id":"35ba52e9-c7ae-413b-8d83-e2df1c82d628","system_id":"levelo_inurba_marseille","lat":43.29291,"lon":5.3746,"is_reserved":false,"is_disabled":false,"rental_uris":{"android":"levelo://app?vid=35ba52e9-c7ae-413b-8d83-e2df1c82d628","ios":"levelo://app?vid=35ba52e9-c7ae-413b-8d83-e2df1c82d628"},"vehicle_type_id":"4","last_reported":1746857571,"current_range_meters":14400,"station_id":"ce4bgi12rcd13ifvqb70","pricing_plan_id":"cebpf4jnsgd1na2vs0mg"},{"bike_id":"55fada9f-9015-4dd1-bfb4-be767a27b242","system_id":"levelo_inurba_marseille","lat":43.27924,"lon":5.39588,"is_reserved":false,"is_disabled":true,"rental_uris":{"android":"levelo://app?vid=55fada9f-9015-4dd1-bfb4-be767a27b242","ios":"levelo://app?vid=55fada9f-9015-4dd1-bfb4-be767a27b242"},"vehicle_type_id":"4","last_reported":1746857571,"current_range_meters":14800,"station_id":"ce4bhf92rcd13ifvqf40","pricing_plan_id":"cebpf4jnsgd1na2vs0mg"},{"bike_id":"98cfe22b-40e2-47d9-9417-af992af33c88","system_id":"levelo_inurba_marseille","lat":43.28448,"lon":5.35896,"is_reserved":false,"is_disabled":true,"rental_uris":{"android":"levelo://app?vid=98cfe22b-40e2-47d9-9417-af992af33c88","ios":"levelo://app?vid=98cfe22b-40e2-47d9-9417-af992af33c88"},"vehicle_type_id":"4","last_reported":1746857571,"current_range_meters":15200,"station_id":"ce4bhah2rcd13ifvqei0","pricing_plan_id":"cebpf4jnsgd1na2vs0mg"},{"bike_id":"79cb0f51-44ad-4e47-a077-3b67f2063870","system_id":"levelo_inurba_marseille","lat":43.32337,"lon":5.40623,"is_reserved":false,"is_disabled":false,"rental_uris":{"android":"levelo://app?vid=79cb0f51-44ad-4e47-a077-3b67f2063870","ios":"levelo://app?vid=79cb0f51-44ad-4e47-a077-3b67f2063870"},"vehicle_type_id":"4","last_reported":1746857571,"current_range_meters":15200,"station_id":"ce4bhq92rcd13ifvqhjg","pricing_plan_id":"cebpf4jnsgd1na2vs0mg"},{"bike_id":"7ecc12d3-6f37-4307-a7ab-aee9bdf517f5","system_id":"levelo_inurba_marseille","lat":43.26653,"lon":5.38281,"is_reserved":false,"is_disabled":false,"rental_uris":{"android":"levelo://app?vid=7ecc12d3-6f37-4307-a7ab-aee9bdf517f5","ios":"levelo://app?vid=7ecc12d3-6f37-4307-a7ab-aee9bdf517f5"},"vehicle_type_id":"4","last_reported":1746857571,"current_range_meters":15200,"station_id":"ce4bhg92rcd13ifvqf90","pricing_plan_id":"cebpf4jnsgd1na2vs0mg"},{"bike_id":"8dfe763f-2b56-4348-b766-788076babf15","system_id":"levelo_inurba_marseille","lat":43.30787,"lon":5.37669,"is_reserved":false,"is_disabled":false,"rental_uris":{"android":"levelo://app?vid=8dfe763f-2b56-4348-b766-788076babf15","ios":"levelo://app?vid=8dfe763f-2b56-4348-b766-788076babf15"},"vehicle_type_id":"4","last_reported":1746857571,"current_range_meters":16000,"station_id":"ce4bgv92rcd13ifvqcq0","pricing_plan_id":"cebpf4jnsgd1na2vs0mg"},{"bike_id":"fc2577e7-1497-425b-9d4f-ab8d7dc843c6","system_id":"levelo_inurba_marseille","lat":43.33771,"lon":5.37485,"is_reserved":false,"is_disabled":false,"rental_uris":{"android":"levelo://app?vid=fc2577e7-1497-425b-9d4f-ab8d7dc843c6","ios":"levelo://app?vid=fc2577e7-1497-425b-9d4f-ab8d7dc843c6"},"vehicle_type_id":"4","last_reported":1746857571,"current_range_meters":16000,"station_id":"","pricing_plan_id":"cebpf4jnsgd1na2vs0mg"},{"bike_id":"988217a7-40cc-4175-99a8-3abc98dd942c","system_id":"levelo_inurba_marseille","lat":43.240743,"lon":5.377636,"is_reserved":false,"is_disabled":false,"rental_uris":{"android":"levelo://app?vid=988217a7-40cc-4175-99a8-3abc98dd942c","ios":"levelo://app?vid=988217a7-40cc-4175-99a8-3abc98dd942c"},"vehicle_type_id":"4","last_reported":1746857571,"current_range_meters":16000,"station_id":"ce4bhnp2rcd13ifvqgvg","pricing_plan_id":"cebpf4jnsgd1na2vs0mg"},{"bike_id":"5bee1775-528f-49e6-9c3e-19f7744c053e","system_id":"levelo_inurba_marseille","lat":43.28013,"lon":5.41653,"is_reserved":false,"is_disabled":false,"rental_uris":{"android":"levelo://app?vid=5bee1775-528f-49e6-9c3e-19f7744c053e","ios":"levelo://app?vid=5bee1775-528f-49e6-9c3e-19f7744c053e"},"vehicle_type_id":"4","last_reported":1746857571,"current_range_meters":16000,"station_id":"ce4bho12rcd13ifvqh1g","pricing_plan_id":"cebpf4jnsgd1na2vs0mg"},{"bike_id":"ab9bbdf3-7344-4622-b758-35c51c0b9e40","system_id":"levelo_inurba_marseille","lat":43.279797,"lon":5.416827,"is_reserved":false,"is_disabled":false,"rental_uris":{"android":"levelo://app?vid=ab9bbdf3-7344-4622-b758-35c51c0b9e40","ios":"levelo://app?vid=ab9bbdf3-7344-4622-b758-35c51c0b9e40"},"vehicle_type_id":"4","last_reported":1746857571,"current_range_meters":16000,"station_id":"ce4bho12rcd13ifvqh1g","pricing_plan_id":"cebpf4jnsgd1na2vs0mg"},{"bike_id":"ece07e30-e520-4b99-bf83-e9b15b3a6b3f","system_id":"levelo_inurba_marseille","lat":43.2871,"lon":5.36106,"is_reserved":false,"is_disabled":false,"rental_uris":{"android":"levelo://app?vid=ece07e30-e520-4b99-bf83-e9b15b3a6b3f","ios":"levelo://app?vid=ece07e30-e520-4b99-bf83-e9b15b3a6b3f"},"vehicle_type_id":"4","last_reported":1746857571,"current_range_meters":16000,"station_id":"cki0cbj6b192h4jlfktg","pricing_plan_id":"cebpf4jnsgd1na2vs0mg"},{"bike_id":"545e5687-b7df-4883-81be-75a8925d5f91","system_id":"levelo_inurba_marseille","lat":43.337444,"lon":5.374475,"is_reserved":false,"is_disabled":true,"rental_uris":{"android":"levelo://app?vid=545e5687-b7df-4883-81be-75a8925d5f91","ios":"levelo://app?vid=545e5687-b7df-4883-81be-75a8925d5f91"},"vehicle_type_id":"4","last_reported":1746857571,"current_range_meters":16000,"station_id":"","pricing_plan_id":"cebpf4jnsgd1na2vs0mg"},{"bike_id":"94cd8564-a06e-4cc5-88d9-996fbf8639fe","system_id":"levelo_inurba_marseille","lat":43.21788,"lon":5.34565,"is_reserved":false,"is_disabled":true,"rental_uris":{"android":"levelo://app?vid=94cd8564-a06e-4cc5-88d9-996fbf8639fe","ios":"levelo://app?vid=94cd8564-a06e-4cc5-88d9-996fbf8639fe"},"vehicle_type_id":"4","last_reported":1746857571,"current_range_meters":16400,"station_id":"","pricing_plan_id":"cebpf4jnsgd1na2vs0mg"},{"bike_id":"38e610a7-656d-4ba9-b1f2-edbf5644bb20","system_id":"levelo_inurba_marseille","lat":43.24645,"lon":5.38916,"is_reserved":false,"is_disabled":false,"rental_uris":{"android":"levelo://app?vid=38e610a7-656d-4ba9-b1f2-edbf5644bb20","ios":"levelo://app?vid=38e610a7-656d-4ba9-b1f2-edbf5644bb20"},"vehicle_type_id":"4","last_reported":1746857571,"current_range_meters":16400,"station_id":"ce4bhg12rcd13ifvqf60","pricing_plan_id":"cebpf4jnsgd1na2vs0mg"},{"bike_id":"fce1d58d-c8c5-4965-9df0-f61c625d348f","system_id":"levelo_inurba_marseille","lat":43.30419,"lon":5.3975,"is_reserved":false,"is_disabled":true,"rental_uris":{"android":"levelo://app?vid=fce1d58d-c8c5-4965-9df0-f61c625d348f","ios":"levelo://app?vid=fce1d58d-c8c5-4965-9df0-f61c625d348f"},"vehicle_type_id":"4","last_reported":1746857571,"current_range_meters":16400,"station_id":"ce4bh092rcd13ifvqd20","pricing_plan_id":"cebpf4jnsgd1na2vs0mg"},{"bike_id":"8b922ca6-4c4c-4cce-b120-dfd10f864eda","system_id":"levelo_inurba_marseille","lat":43.29616,"lon":5.381,"is_reserved":false,"is_disabled":true,"rental_uris":{"android":"levelo://app?vid=8b922ca6-4c4c-4cce-b120-dfd10f864eda","ios":"levelo://app?vid=8b922ca6-4c4c-4cce-b120-dfd10f864eda"},"vehicle_type_id":"4","last_reported":1746857571,"current_range_meters":16400,"station_id":"ce4bgl12rcd13ifvqbo0","pricing_plan_id":"cebpf4jnsgd1na2vs0mg"},{"bike_id":"11806c3e-8031-4fac-a6fb-0aa38e290417","system_id":"levelo_inurba_marseille","lat":43.25702,"lon":5.41124,"is_reserved":false,"is_disabled":false,"rental_uris":{"android":"levelo://app?vid=11806c3e-8031-4fac-a6fb-0aa38e290417","ios":"levelo://app?vid=11806c3e-8031-4fac-a6fb-0aa38e290417"},"vehicle_type_id":"4","last_reported":1746857571,"current_range_meters":16400,"station_id":"ce4bhkp2rcd13ifvqgd0","pricing_plan_id":"cebpf4jnsgd1na2vs0mg"},{"bike_id":"66d39f5f-1aac-423b-9ea7-bf9c1b0e5079","system_id":"levelo_inurba_marseille","lat":43.27524,"lon":5.41148,"is_reserved":false,"is_disabled":false,"rental_uris":{"android":"levelo://app?vid=66d39f5f-1aac-423b-9ea7-bf9c1b0e5079","ios":"levelo://app?vid=66d39f5f-1aac-423b-9ea7-bf9c1b0e5079"},"vehicle_type_id":"4","last_reported":1746857571,"current_range_meters":16400,"station_id":"","pricing_plan_id":"cebpf4jnsgd1na2vs0mg"},{"bike_id":"32b96bd4-7617-4aa8-a6cf-1b9e247a6ce6","system_id":"levelo_inurba_marseille","lat":43.310725,"lon":5.424398,"is_reserved":false,"is_disabled":false,"rental_uris":{"android":"levelo://app?vid=32b96bd4-7617-4aa8-a6cf-1b9e247a6ce6","ios":"levelo://app?vid=32b96bd4-7617-4aa8-a6cf-1b9e247a6ce6"},"vehicle_type_id":"4","last_reported":1746857571,"current_range_meters":16800,"station_id":"ce4bhp92rcd13ifvqhag","pricing_plan_id":"cebpf4jnsgd1na2vs0mg"},{"bike_id":"88b4ef2c-f4ed-48f7-a133-cbb2044cda79","system_id":"levelo_inurba_marseille","lat":43.27927,"lon":5.39591,"is_reserved":false,"is_disabled":false,"rental_uris":{"android":"levelo://app?vid=88b4ef2c-f4ed-48f7-a133-cbb2044cda79","ios":"levelo://app?vid=88b4ef2c-f4ed-48f7-a133-cbb2044cda79"},"vehicle_type_id":"4","last_reported":1746857571,"current_range_meters":16800,"station_id":"ce4bhf92rcd13ifvqf40","pricing_plan_id":"cebpf4jnsgd1na2vs0mg"},{"bike_id":"25bd9db4-b151-496c-ba5d-8dcff47fadbf","system_id":"levelo_inurba_marseille","lat":43.3198,"lon":5.37089,"is_reserved":false,"is_disabled":false,"rental_uris":{"android":"levelo://app?vid=25bd9db4-b151-496c-ba5d-8dcff47fadbf","ios":"levelo://app?vid=25bd9db4-b151-496c-ba5d-8dcff47fadbf"},"vehicle_type_id":"4","last_reported":1746857571,"current_range_meters":16800,"station_id":"","pricing_plan_id":"cebpf4jnsgd1na2vs0mg"},{"bike_id":"796ef36e-55a7-4cb9-844d-596a7e2f3fa6","system_id":"levelo_inurba_marseille","lat":43.28373,"lon":5.36476,"is_reserved":false,"is_disabled":false,"rental_uris":{"android":"levelo://app?vid=796ef36e-55a7-4cb9-844d-596a7e2f3fa6","ios":"levelo://app?vid=796ef36e-55a7-4cb9-844d-596a7e2f3fa6"},"vehicle_type_id":"4","last_reported":1746857571,"current_range_meters":16800,"station_id":"","pricing_plan_id":"cebpf4jnsgd1na2vs0mg"},{"bike_id":"8af4b88d-091f-4883-a950-3e14de86d879","system_id":"levelo_inurba_marseille","lat":43.31684,"lon":5.40462,"is_reserved":false,"is_disabled":false,"rental_uris":{"android":"levelo://app?vid=8af4b88d-091f-4883-a950-3e14de86d879","ios":"levelo://app?vid=8af4b88d-091f-4883-a950-3e14de86d879"},"vehicle_type_id":"4","last_reported":1746857571,"current_range_meters":16800,"station_id":"ce4bh012rcd13ifvqd00","pricing_plan_id":"cebpf4jnsgd1na2vs0mg"},{"bike_id":"aef97715-af99-4ed3-8753-b55758a3b7d2","system_id":"levelo_inurba_marseille","lat":43.32293,"lon":5.38271,"is_reserved":false,"is_disabled":false,"rental_uris":{"android":"levelo://app?vid=aef97715-af99-4ed3-8753-b55758a3b7d2","ios":"levelo://app?vid=aef97715-af99-4ed3-8753-b55758a3b7d2"},"vehicle_type_id":"4","last_reported":1746857571,"current_range_meters":16800,"station_id":"ce4bhr12rcd13ifvqhqg","pricing_plan_id":"cebpf4jnsgd1na2vs0mg"},{"bike_id":"34fb3a5b-cc5c-48bc-9ccd-5e13c4a43395","system_id":"levelo_inurba_marseille","lat":43.32548,"lon":5.39115,"is_reserved":false,"is_disabled":false,"rental_uris":{"android":"levelo://app?vid=34fb3a5b-cc5c-48bc-9ccd-5e13c4a43395","ios":"levelo://app?vid=34fb3a5b-cc5c-48bc-9ccd-5e13c4a43395"},"vehicle_type_id":"4","last_reported":1746857571,"current_range_meters":17200,"station_id":"","pricing_plan_id":"cebpf4jnsgd1na2vs0mg"},{"bike_id":"2e617df6-98b1-4452-8219-22123525f805","system_id":"levelo_inurba_marseille","lat":43.265,"lon":5.39529,"is_reserved":false,"is_disabled":false,"rental_uris":{"android":"levelo://app?vid=2e617df6-98b1-4452-8219-22123525f805","ios":"levelo://app?vid=2e617df6-98b1-4452-8219-22123525f805"},"vehicle_type_id":"4","last_reported":1746857571,"current_range_meters":17600,"station_id":"ce4bhi12rcd13ifvqfq0","pricing_plan_id":"cebpf4jnsgd1na2vs0mg"},{"bike_id":"a1121b36-b5cd-4dda-96ef-13a3dfaa55e1","system_id":"levelo_inurba_marseille","lat":43.301401,"lon":5.387791,"is_reserved":false,"is_disabled":false,"rental_uris":{"android":"levelo://app?vid=a1121b36-b5cd-4dda-96ef-13a3dfaa55e1","ios":"levelo://app?vid=a1121b36-b5cd-4dda-96ef-13a3dfaa55e1"},"vehicle_type_id":"4","last_reported":1746857571,"current_range_meters":17600,"station_id":"","pricing_plan_id":"cebpf4jnsgd1na2vs0mg"},{"bike_id":"611984cb-882a-46b7-8fab-e6350303c611","system_id":"levelo_inurba_marseille","lat":43.24161,"lon":5.36414,"is_reserved":false,"is_disabled":false,"rental_uris":{"android":"levelo://app?vid=611984cb-882a-46b7-8fab-e6350303c611","ios":"levelo://app?vid=611984cb-882a-46b7-8fab-e6350303c611"},"vehicle_type_id":"4","last_reported":1746857571,"current_range_meters":17600,"station_id":"cpo36qri1sfpv3e86is0","pricing_plan_id":"cebpf4jnsgd1na2vs0mg"},{"bike_id":"50f5e02d-7e3d-4bd6-8a5e-360e84f51370","system_id":"levelo_inurba_marseille","lat":43.25129,"lon":5.40338,"is_reserved":false,"is_disabled":false,"rental_uris":{"android":"levelo://app?vid=50f5e02d-7e3d-4bd6-8a5e-360e84f51370","ios":"levelo://app?vid=50f5e02d-7e3d-4bd6-8a5e-360e84f51370"},"vehicle_type_id":"4","last_reported":1746857571,"current_range_meters":17600,"station_id":"ce4bhlh2rcd13ifvqgig","pricing_plan_id":"cebpf4jnsgd1na2vs0mg"},{"bike_id":"971e8964-f5fa-4560-932b-c14bfa11569b","system_id":"levelo_inurba_marseille","lat":43.241833,"lon":5.397604,"is_reserved":false,"is_disabled":false,"rental_uris":{"android":"levelo://app?vid=971e8964-f5fa-4560-932b-c14bfa11569b","ios":"levelo://app?vid=971e8964-f5fa-4560-932b-c14bfa11569b"},"vehicle_type_id":"4","last_reported":1746857571,"current_range_meters":17600,"station_id":"ce4bhlp2rcd13ifvqgjg","pricing_plan_id":"cebpf4jnsgd1na2vs0mg"},{"bike_id":"f34a79fb-9a2a-4d46-9bae-b3621d640434","system_id":"levelo_inurba_marseille","lat":43.31081,"lon":5.42432,"is_reserved":false,"is_disabled":true,"rental_uris":{"android":"levelo://app?vid=f34a79fb-9a2a-4d46-9bae-b3621d640434","ios":"levelo://app?vid=f34a79fb-9a2a-4d46-9bae-b3621d640434"},"vehicle_type_id":"4","last_reported":1746857571,"current_range_meters":17600,"station_id":"ce4bhp92rcd13ifvqhag","pricing_plan_id":"cebpf4jnsgd1na2vs0mg"},{"bike_id":"6add2d36-61c6-46c1-a56e-696306c1bd19","system_id":"levelo_inurba_marseille","lat":43.2335,"lon":5.36082,"is_reserved":false,"is_disabled":false,"rental_uris":{"android":"levelo://app?vid=6add2d36-61c6-46c1-a56e-696306c1bd19","ios":"levelo://app?vid=6add2d36-61c6-46c1-a56e-696306c1bd19"},"vehicle_type_id":"4","last_reported":1746857571,"current_range_meters":17600,"station_id":"","pricing_plan_id":"cebpf4jnsgd1na2vs0mg"},{"bike_id":"11bac9a6-0e04-4c68-9615-f13539342864","system_id":"levelo_inurba_marseille","lat":43.21222,"lon":5.35076,"is_reserved":false,"is_disabled":false,"rental_uris":{"android":"levelo://app?vid=11bac9a6-0e04-4c68-9615-f13539342864","ios":"levelo://app?vid=11bac9a6-0e04-4c68-9615-f13539342864"},"vehicle_type_id":"4","last_reported":1746857571,"current_range_meters":18000,"station_id":"st_cvj6sg6p6f1abm77japg","pricing_plan_id":"cebpf4jnsgd1na2vs0mg"},{"bike_id":"462336e2-a4e8-4882-be35-4ed6969a7cd6","system_id":"levelo_inurba_marseille","lat":43.29941,"lon":5.386347,"is_reserved":false,"is_disabled":true,"rental_uris":{"android":"levelo://app?vid=462336e2-a4e8-4882-be35-4ed6969a7cd6","ios":"levelo://app?vid=462336e2-a4e8-4882-be35-4ed6969a7cd6"},"vehicle_type_id":"4","last_reported":1746857571,"current_range_meters":18000,"station_id":"","pricing_plan_id":"cebpf4jnsgd1na2vs0mg"},{"bike_id":"0c27b168-2cea-4587-9946-d868040ddb30","system_id":"levelo_inurba_marseille","lat":43.307865,"lon":5.376495,"is_reserved":false,"is_disabled":false,"rental_uris":{"android":"levelo://app?vid=0c27b168-2cea-4587-9946-d868040ddb30","ios":"levelo://app?vid=0c27b168-2cea-4587-9946-d868040ddb30"},"vehicle_type_id":"4","last_reported":1746857571,"current_range_meters":18000,"station_id":"ce4bgv92rcd13ifvqcq0","pricing_plan_id":"cebpf4jnsgd1na2vs0mg"},{"bike_id":"0fb6b147-e9a8-4345-a220-93d47a47a517","system_id":"levelo_inurba_marseille","lat":43.22944,"lon":5.35391,"is_reserved":false,"is_disabled":false,"rental_uris":{"android":"levelo://app?vid=0fb6b147-e9a8-4345-a220-93d47a47a517","ios":"levelo://app?vid=0fb6b147-e9a8-4345-a220-93d47a47a517"},"vehicle_type_id":"4","last_reported":1746857571,"current_range_meters":18000,"station_id":"cpo3532slgdg3j2ikp40","pricing_plan_id":"cebpf4jnsgd1na2vs0mg"},{"bike_id":"adad1c39-0cfd-4e36-9a00-8017416df03c","system_id":"levelo_inurba_marseille","lat":43.34034,"lon":5.37515,"is_reserved":false,"is_disabled":false,"rental_uris":{"android":"levelo://app?vid=adad1c39-0cfd-4e36-9a00-8017416df03c","ios":"levelo://app?vid=adad1c39-0cfd-4e36-9a00-8017416df03c"},"vehicle_type_id":"4","last_reported":1746857571,"current_range_meters":18000,"station_id":"","pricing_plan_id":"cebpf4jnsgd1na2vs0mg"},{"bike_id":"e5f9e08b-c7e4-484f-8cb5-f829be2d4c56","system_id":"levelo_inurba_marseille","lat":43.29709,"lon":5.382,"is_reserved":false,"is_disabled":false,"rental_uris":{"android":"levelo://app?vid=e5f9e08b-c7e4-484f-8cb5-f829be2d4c56","ios":"levelo://app?vid=e5f9e08b-c7e4-484f-8cb5-f829be2d4c56"},"vehicle_type_id":"4","last_reported":1746857571,"current_range_meters":18000,"station_id":"","pricing_plan_id":"cebpf4jnsgd1na2vs0mg"},{"bike_id":"7b0b7ba7-66fa-4536-8d2a-ed7181614079","system_id":"levelo_inurba_marseille","lat":43.30379,"lon":5.42498,"is_reserved":false,"is_disabled":false,"rental_uris":{"android":"levelo://app?vid=7b0b7ba7-66fa-4536-8d2a-ed7181614079","ios":"levelo://app?vid=7b0b7ba7-66fa-4536-8d2a-ed7181614079"},"vehicle_type_id":"4","last_reported":1746857571,"current_range_meters":18000,"station_id":"ce4bhoh2rcd13ifvqh6g","pricing_plan_id":"cebpf4jnsgd1na2vs0mg"},{"bike_id":"f44042ec-2f55-46a8-ac37-47677a64d341","system_id":"levelo_inurba_marseille","lat":43.3004,"lon":5.38496,"is_reserved":false,"is_disabled":false,"rental_uris":{"android":"levelo://app?vid=f44042ec-2f55-46a8-ac37-47677a64d341","ios":"levelo://app?vid=f44042ec-2f55-46a8-ac37-47677a64d341"},"vehicle_type_id":"4","last_reported":1746857571,"current_range_meters":18800,"station_id":"","pricing_plan_id":"cebpf4jnsgd1na2vs0mg"},{"bike_id":"d415e7e2-f909-4c4f-94d7-56d33e682e41","system_id":"levelo_inurba_marseille","lat":43.24372,"lon":5.37097,"is_reserved":false,"is_disabled":true,"rental_uris":{"android":"levelo://app?vid=d415e7e2-f909-4c4f-94d7-56d33e682e41","ios":"levelo://app?vid=d415e7e2-f909-4c4f-94d7-56d33e682e41"},"vehicle_type_id":"4","last_reported":1746857571,"current_range_meters":18800,"station_id":"ce4bhhh2rcd13ifvqfk0","pricing_plan_id":"cebpf4jnsgd1na2vs0mg"},{"bike_id":"81230072-1366-4a6c-a593-e76d887facbc","system_id":"levelo_inurba_marseille","lat":43.22934,"lon":5.35396,"is_reserved":false,"is_disabled":false,"rental_uris":{"android":"levelo://app?vid=81230072-1366-4a6c-a593-e76d887facbc","ios":"levelo://app?vid=81230072-1366-4a6c-a593-e76d887facbc"},"vehicle_type_id":"4","last_reported":1746857571,"current_range_meters":19200,"station_id":"cpo3532slgdg3j2ikp40","pricing_plan_id":"cebpf4jnsgd1na2vs0mg"},{"bike_id":"a8a81951-2304-4e7e-87e4-5691c10c5a39","system_id":"levelo_inurba_marseille","lat":43.24667,"lon":5.38163,"is_reserved":false,"is_disabled":false,"rental_uris":{"android":"levelo://app?vid=a8a81951-2304-4e7e-87e4-5691c10c5a39","ios":"levelo://app?vid=a8a81951-2304-4e7e-87e4-5691c10c5a39"},"vehicle_type_id":"4","last_reported":1746857571,"current_range_meters":19200,"station_id":"ce4bhih2rcd13ifvqfr0","pricing_plan_id":"cebpf4jnsgd1na2vs0mg"},{"bike_id":"eeae9a2f-bc9a-4394-bca2-cff4e58e46b3","system_id":"levelo_inurba_marseille","lat":43.29596,"lon":5.38108,"is_reserved":false,"is_disabled":true,"rental_uris":{"android":"levelo://app?vid=eeae9a2f-bc9a-4394-bca2-cff4e58e46b3","ios":"levelo://app?vid=eeae9a2f-bc9a-4394-bca2-cff4e58e46b3"},"vehicle_type_id":"4","last_reported":1746857571,"current_range_meters":19200,"station_id":"ce4bgl12rcd13ifvqbo0","pricing_plan_id":"cebpf4jnsgd1na2vs0mg"},{"bike_id":"3c26790a-9be3-4895-82e4-70cc0f28ea60","system_id":"levelo_inurba_marseille","lat":43.241577,"lon":5.397223,"is_reserved":false,"is_disabled":true,"rental_uris":{"android":"levelo://app?vid=3c26790a-9be3-4895-82e4-70cc0f28ea60","ios":"levelo://app?vid=3c26790a-9be3-4895-82e4-70cc0f28ea60"},"vehicle_type_id":"4","last_reported":1746857571,"current_range_meters":19600,"station_id":"ce4bhn12rcd13ifvqgpg","pricing_plan_id":"cebpf4jnsgd1na2vs0mg"},{"bike_id":"bb1c07e6-4866-4bad-a06f-306ce6882d9f","system_id":"levelo_inurba_marseille","lat":43.307846,"lon":5.376547,"is_reserved":false,"is_disabled":false,"rental_uris":{"android":"levelo://app?vid=bb1c07e6-4866-4bad-a06f-306ce6882d9f","ios":"levelo://app?vid=bb1c07e6-4866-4bad-a06f-306ce6882d9f"},"vehicle_type_id":"4","last_reported":1746857571,"current_range_meters":19600,"station_id":"ce4bgv92rcd13ifvqcq0","pricing_plan_id":"cebpf4jnsgd1na2vs0mg"},{"bike_id":"2749bb64-72b4-4cf5-9c98-1862ddd63e55","system_id":"levelo_inurba_marseille","lat":43.2903,"lon":5.39966,"is_reserved":false,"is_disabled":false,"rental_uris":{"android":"levelo://app?vid=2749bb64-72b4-4cf5-9c98-1862ddd63e55","ios":"levelo://app?vid=2749bb64-72b4-4cf5-9c98-1862ddd63e55"},"vehicle_type_id":"4","last_reported":1746857571,"current_range_meters":20000,"station_id":"ce4bh392rcd13ifvqdm0","pricing_plan_id":"cebpf4jnsgd1na2vs0mg"},{"bike_id":"f0c1a107-9442-4216-902f-1e51cc714f9f","system_id":"levelo_inurba_marseille","lat":43.25108,"lon":5.40324,"is_reserved":false,"is_disabled":false,"rental_uris":{"android":"levelo://app?vid=f0c1a107-9442-4216-902f-1e51cc714f9f","ios":"levelo://app?vid=f0c1a107-9442-4216-902f-1e51cc714f9f"},"vehicle_type_id":"4","last_reported":1746857571,"current_range_meters":20000,"station_id":"ce4bhlh2rcd13ifvqgig","pricing_plan_id":"cebpf4jnsgd1na2vs0mg"},{"bike_id":"bec06455-6dee-416c-b480-532d3476f6f8","system_id":"levelo_inurba_marseille","lat":43.30592,"lon":5.37225,"is_reserved":false,"is_disabled":false,"rental_uris":{"android":"levelo://app?vid=bec06455-6dee-416c-b480-532d3476f6f8","ios":"levelo://app?vid=bec06455-6dee-416c-b480-532d3476f6f8"},"vehicle_type_id":"4","last_reported":1746857571,"current_range_meters":20000,"station_id":"ce4bgqh2rcd13ifvqc4g","pricing_plan_id":"cebpf4jnsgd1na2vs0mg"},{"bike_id":"5d3c2dcf-f5b4-447b-a1c0-575a964ec8c5","system_id":"levelo_inurba_marseille","lat":43.23144,"lon":5.43712,"is_reserved":false,"is_disabled":false,"rental_uris":{"android":"levelo://app?vid=5d3c2dcf-f5b4-447b-a1c0-575a964ec8c5","ios":"levelo://app?vid=5d3c2dcf-f5b4-447b-a1c0-575a964ec8c5"},"vehicle_type_id":"4","last_reported":1746857571,"current_range_meters":20000,"station_id":"ce4bhmp2rcd13ifvqgog","pricing_plan_id":"cebpf4jnsgd1na2vs0mg"},{"bike_id":"24ef580c-edb6-4f11-9d94-100ebb23751f","system_id":"levelo_inurba_marseille","lat":43.27941,"lon":5.4105,"is_reserved":false,"is_disabled":false,"rental_uris":{"android":"levelo://app?vid=24ef580c-edb6-4f11-9d94-100ebb23751f","ios":"levelo://app?vid=24ef580c-edb6-4f11-9d94-100ebb23751f"},"vehicle_type_id":"4","last_reported":1746857571,"current_range_meters":20400,"station_id":"ce4bhnp2rcd13ifvqh0g","pricing_plan_id":"cebpf4jnsgd1na2vs0mg"},{"bike_id":"3d019bfa-bdc5-4a87-abe1-6fc0d32116d5","system_id":"levelo_inurba_marseille","lat":43.28356,"lon":5.38633,"is_reserved":false,"is_disabled":false,"rental_uris":{"android":"levelo://app?vid=3d019bfa-bdc5-4a87-abe1-6fc0d32116d5","ios":"levelo://app?vid=3d019bfa-bdc5-4a87-abe1-6fc0d32116d5"},"vehicle_type_id":"4","last_reported":1746857571,"current_range_meters":20000,"station_id":"ce4bh492rcd13ifvqdvg","pricing_plan_id":"cebpf4jnsgd1na2vs0mg"},{"bike_id":"f52c819d-ca4b-4640-b458-b877db1bf990","system_id":"levelo_inurba_marseille","lat":43.2988,"lon":5.41013,"is_reserved":false,"is_disabled":false,"rental_uris":{"android":"levelo://app?vid=f52c819d-ca4b-4640-b458-b877db1bf990","ios":"levelo://app?vid=f52c819d-ca4b-4640-b458-b877db1bf990"},"vehicle_type_id":"4","last_reported":1746857571,"current_range_meters":20800,"station_id":"","pricing_plan_id":"cebpf4jnsgd1na2vs0mg"},{"bike_id":"fdc83f31-3c68-47e3-81c2-8e2befc46029","system_id":"levelo_inurba_marseille","lat":43.28276,"lon":5.35076,"is_reserved":false,"is_disabled":false,"rental_uris":{"android":"levelo://app?vid=fdc83f31-3c68-47e3-81c2-8e2befc46029","ios":"levelo://app?vid=fdc83f31-3c68-47e3-81c2-8e2befc46029"},"vehicle_type_id":"4","last_reported":1746857571,"current_range_meters":20800,"station_id":"ce4bhbp2rcd13ifvqerg","pricing_plan_id":"cebpf4jnsgd1na2vs0mg"},{"bike_id":"e45369ab-7966-474b-b1bd-31fe9872728e","system_id":"levelo_inurba_marseille","lat":43.305677,"lon":5.365343,"is_reserved":false,"is_disabled":true,"rental_uris":{"android":"levelo://app?vid=e45369ab-7966-474b-b1bd-31fe9872728e","ios":"levelo://app?vid=e45369ab-7966-474b-b1bd-31fe9872728e"},"vehicle_type_id":"4","last_reported":1746857571,"current_range_meters":20800,"station_id":"ce4bgs12rcd13ifvqcag","pricing_plan_id":"cebpf4jnsgd1na2vs0mg"},{"bike_id":"8739a945-c04c-4fe3-9291-0e5954d52ff6","system_id":"levelo_inurba_marseille","lat":43.32281,"lon":5.3829,"is_reserved":false,"is_disabled":false,"rental_uris":{"android":"levelo://app?vid=8739a945-c04c-4fe3-9291-0e5954d52ff6","ios":"levelo://app?vid=8739a945-c04c-4fe3-9291-0e5954d52ff6"},"vehicle_type_id":"4","last_reported":1746857571,"current_range_meters":20800,"station_id":"ce4bhr12rcd13ifvqhqg","pricing_plan_id":"cebpf4jnsgd1na2vs0mg"},{"bike_id":"a1fd51ca-b321-49a1-823c-2b1617c9714f","system_id":"levelo_inurba_marseille","lat":43.26228,"lon":5.40452,"is_reserved":false,"is_disabled":false,"rental_uris":{"android":"levelo://app?vid=a1fd51ca-b321-49a1-823c-2b1617c9714f","ios":"levelo://app?vid=a1fd51ca-b321-49a1-823c-2b1617c9714f"},"vehicle_type_id":"4","last_reported":1746857571,"current_range_meters":21600,"station_id":"ce4bhmh2rcd13ifvqgmg","pricing_plan_id":"cebpf4jnsgd1na2vs0mg"},{"bike_id":"73ded412-1ade-4c78-acbe-a9afd038932d","system_id":"levelo_inurba_marseille","lat":43.241656,"lon":5.363966,"is_reserved":false,"is_disabled":false,"rental_uris":{"android":"levelo://app?vid=73ded412-1ade-4c78-acbe-a9afd038932d","ios":"levelo://app?vid=73ded412-1ade-4c78-acbe-a9afd038932d"},"vehicle_type_id":"4","last_reported":1746857571,"current_range_meters":21600,"station_id":"cpo36qri1sfpv3e86is0","pricing_plan_id":"cebpf4jnsgd1na2vs0mg"},{"bike_id":"e1b5311f-cf22-4cc5-b4f8-5ad6b6de273b","system_id":"levelo_inurba_marseille","lat":43.32107,"lon":5.36777,"is_reserved":false,"is_disabled":false,"rental_uris":{"android":"levelo://app?vid=e1b5311f-cf22-4cc5-b4f8-5ad6b6de273b","ios":"levelo://app?vid=e1b5311f-cf22-4cc5-b4f8-5ad6b6de273b"},"vehicle_type_id":"4","last_reported":1746857571,"current_range_meters":21600,"station_id":"ce4bhrh2rcd13ifvqhug","pricing_plan_id":"cebpf4jnsgd1na2vs0mg"},{"bike_id":"c791530f-7eca-4123-ae98-b4f7b7d59c51","system_id":"levelo_inurba_marseille","lat":43.29852,"lon":5.36286,"is_reserved":false,"is_disabled":false,"rental_uris":{"android":"levelo://app?vid=c791530f-7eca-4123-ae98-b4f7b7d59c51","ios":"levelo://app?vid=c791530f-7eca-4123-ae98-b4f7b7d59c51"},"vehicle_type_id":"4","last_reported":1746857571,"current_range_meters":22000,"station_id":"ce4bgpp2rcd13ifvqc3g","pricing_plan_id":"cebpf4jnsgd1na2vs0mg"},{"bike_id":"acc9e613-f3ab-462c-94c6-a13f35416d65","system_id":"levelo_inurba_marseille","lat":43.287259,"lon":5.360794,"is_reserved":false,"is_disabled":false,"rental_uris":{"android":"levelo://app?vid=acc9e613-f3ab-462c-94c6-a13f35416d65","ios":"levelo://app?vid=acc9e613-f3ab-462c-94c6-a13f35416d65"},"vehicle_type_id":"4","last_reported":1746857571,"current_range_meters":22000,"station_id":"cki0cbj6b192h4jlfktg","pricing_plan_id":"cebpf4jnsgd1na2vs0mg"},{"bike_id":"7ef9c380-74be-455d-a6e8-d8f5bf01ceee","system_id":"levelo_inurba_marseille","lat":43.31055,"lon":5.38352,"is_reserved":false,"is_disabled":false,"rental_uris":{"android":"levelo://app?vid=7ef9c380-74be-455d-a6e8-d8f5bf01ceee","ios":"levelo://app?vid=7ef9c380-74be-455d-a6e8-d8f5bf01ceee"},"vehicle_type_id":"4","last_reported":1746857571,"current_range_meters":22000,"station_id":"ce4bgv92rcd13ifvqcr0","pricing_plan_id":"cebpf4jnsgd1na2vs0mg"},{"bike_id":"5ea6bced-8df0-4364-8dd2-3d1fdcc8c821","system_id":"levelo_inurba_marseille","lat":43.30278,"lon":5.37695,"is_reserved":false,"is_disabled":true,"rental_uris":{"android":"levelo://app?vid=5ea6bced-8df0-4364-8dd2-3d1fdcc8c821","ios":"levelo://app?vid=5ea6bced-8df0-4364-8dd2-3d1fdcc8c821"},"vehicle_type_id":"4","last_reported":1746857571,"current_range_meters":22000,"station_id":"ce4bguh2rcd13ifvqcj0","pricing_plan_id":"cebpf4jnsgd1na2vs0mg"},{"bike_id":"8fda7305-5141-4f84-92bd-428484e39574","system_id":"levelo_inurba_marseille","lat":43.243963,"lon":5.370533,"is_reserved":false,"is_disabled":false,"rental_uris":{"android":"levelo://app?vid=8fda7305-5141-4f84-92bd-428484e39574","ios":"levelo://app?vid=8fda7305-5141-4f84-92bd-428484e39574"},"vehicle_type_id":"4","last_reported":1746857571,"current_range_meters":22000,"station_id":"ce4bhhh2rcd13ifvqfk0","pricing_plan_id":"cebpf4jnsgd1na2vs0mg"},{"bike_id":"48ed43fb-4ad0-4001-acee-f6ea4523cfc5","system_id":"levelo_inurba_marseille","lat":43.286221,"lon":5.476929,"is_reserved":false,"is_disabled":false,"rental_uris":{"android":"levelo://app?vid=48ed43fb-4ad0-4001-acee-f6ea4523cfc5","ios":"levelo://app?vid=48ed43fb-4ad0-4001-acee-f6ea4523cfc5"},"vehicle_type_id":"4","last_reported":1746857571,"current_range_meters":22400,"station_id":"","pricing_plan_id":"cebpf4jnsgd1na2vs0mg"},{"bike_id":"0813c0dc-da81-42eb-81e6-ca2b80bdae4b","system_id":"levelo_inurba_marseille","lat":43.250885,"lon":5.403345,"is_reserved":false,"is_disabled":false,"rental_uris":{"android":"levelo://app?vid=0813c0dc-da81-42eb-81e6-ca2b80bdae4b","ios":"levelo://app?vid=0813c0dc-da81-42eb-81e6-ca2b80bdae4b"},"vehicle_type_id":"4","last_reported":1746857571,"current_range_meters":22400,"station_id":"ce4bhlh2rcd13ifvqgig","pricing_plan_id":"cebpf4jnsgd1na2vs0mg"},{"bike_id":"c11f40f8-d4e2-4484-ad32-dee96c4d6e16","system_id":"levelo_inurba_marseille","lat":43.30376,"lon":5.42481,"is_reserved":false,"is_disabled":false,"rental_uris":{"android":"levelo://app?vid=c11f40f8-d4e2-4484-ad32-dee96c4d6e16","ios":"levelo://app?vid=c11f40f8-d4e2-4484-ad32-dee96c4d6e16"},"vehicle_type_id":"4","last_reported":1746857571,"current_range_meters":22400,"station_id":"ce4bhoh2rcd13ifvqh6g","pricing_plan_id":"cebpf4jnsgd1na2vs0mg"},{"bike_id":"61928b70-e592-46f6-aa86-e6130fbaa2cc","system_id":"levelo_inurba_marseille","lat":43.26769,"lon":5.39452,"is_reserved":false,"is_disabled":false,"rental_uris":{"android":"levelo://app?vid=61928b70-e592-46f6-aa86-e6130fbaa2cc","ios":"levelo://app?vid=61928b70-e592-46f6-aa86-e6130fbaa2cc"},"vehicle_type_id":"4","last_reported":1746857571,"current_range_meters":22400,"station_id":"ce4bhh12rcd13ifvqfg0","pricing_plan_id":"cebpf4jnsgd1na2vs0mg"},{"bike_id":"612e447e-8642-4d08-9eed-865a2c20ffe1","system_id":"levelo_inurba_marseille","lat":43.2571,"lon":5.41122,"is_reserved":false,"is_disabled":false,"rental_uris":{"android":"levelo://app?vid=612e447e-8642-4d08-9eed-865a2c20ffe1","ios":"levelo://app?vid=612e447e-8642-4d08-9eed-865a2c20ffe1"},"vehicle_type_id":"4","last_reported":1746857571,"current_range_meters":22400,"station_id":"ce4bhkp2rcd13ifvqgd0","pricing_plan_id":"cebpf4jnsgd1na2vs0mg"},{"bike_id":"830ca2f3-14a2-40d4-b14d-f14634d8ac66","system_id":"levelo_inurba_marseille","lat":43.31716,"lon":5.43694,"is_reserved":false,"is_disabled":true,"rental_uris":{"android":"levelo://app?vid=830ca2f3-14a2-40d4-b14d-f14634d8ac66","ios":"levelo://app?vid=830ca2f3-14a2-40d4-b14d-f14634d8ac66"},"vehicle_type_id":"4","last_reported":1746857571,"current_range_meters":22800,"station_id":"ce4bhp92rcd13ifvqhcg","pricing_plan_id":"cebpf4jnsgd1na2vs0mg"},{"bike_id":"068c0e95-3218-4701-8587-8a243dee5838","system_id":"levelo_inurba_marseille","lat":43.312706,"lon":5.40172,"is_reserved":false,"is_disabled":false,"rental_uris":{"android":"levelo://app?vid=068c0e95-3218-4701-8587-8a243dee5838","ios":"levelo://app?vid=068c0e95-3218-4701-8587-8a243dee5838"},"vehicle_type_id":"4","last_reported":1746857571,"current_range_meters":22800,"station_id":"ce4bh092rcd13ifvqd30","pricing_plan_id":"cebpf4jnsgd1na2vs0mg"},{"bike_id":"a472cb2c-8563-493f-920e-c1c554fe1c25","system_id":"levelo_inurba_marseille","lat":43.2928,"lon":5.37441,"is_reserved":false,"is_disabled":true,"rental_uris":{"android":"levelo://app?vid=a472cb2c-8563-493f-920e-c1c554fe1c25","ios":"levelo://app?vid=a472cb2c-8563-493f-920e-c1c554fe1c25"},"vehicle_type_id":"4","last_reported":1746857571,"current_range_meters":22800,"station_id":"ce4bgi12rcd13ifvqb70","pricing_plan_id":"cebpf4jnsgd1na2vs0mg"},{"bike_id":"ce808109-3a33-42b9-94bd-9d2185c0cbf5","system_id":"levelo_inurba_marseille","lat":43.284188,"lon":5.375166,"is_reserved":false,"is_disabled":false,"rental_uris":{"android":"levelo://app?vid=ce808109-3a33-42b9-94bd-9d2185c0cbf5","ios":"levelo://app?vid=ce808109-3a33-42b9-94bd-9d2185c0cbf5"},"vehicle_type_id":"4","last_reported":1746857571,"current_range_meters":23200,"station_id":"ce4bh412rcd13ifvqds0","pricing_plan_id":"cebpf4jnsgd1na2vs0mg"},{"bike_id":"628c9361-3d68-4678-b48b-1aeec419f7df","system_id":"levelo_inurba_marseille","lat":43.31364,"lon":5.38498,"is_reserved":false,"is_disabled":false,"rental_uris":{"android":"levelo://app?vid=628c9361-3d68-4678-b48b-1aeec419f7df","ios":"levelo://app?vid=628c9361-3d68-4678-b48b-1aeec419f7df"},"vehicle_type_id":"4","last_reported":1746857571,"current_range_meters":23200,"station_id":"ce4bgt92rcd13ifvqcf0","pricing_plan_id":"cebpf4jnsgd1na2vs0mg"},{"bike_id":"55056822-625c-40fe-9622-9b2e0a22798a","system_id":"levelo_inurba_marseille","lat":43.30785,"lon":5.38126,"is_reserved":false,"is_disabled":false,"rental_uris":{"android":"levelo://app?vid=55056822-625c-40fe-9622-9b2e0a22798a","ios":"levelo://app?vid=55056822-625c-40fe-9622-9b2e0a22798a"},"vehicle_type_id":"4","last_reported":1746857571,"current_range_meters":23200,"station_id":"ce4bgt12rcd13ifvqce0","pricing_plan_id":"cebpf4jnsgd1na2vs0mg"},{"bike_id":"e0455d18-2803-4267-ad75-873503d2c977","system_id":"levelo_inurba_marseille","lat":43.27821,"lon":5.37451,"is_reserved":false,"is_disabled":false,"rental_uris":{"android":"levelo://app?vid=e0455d18-2803-4267-ad75-873503d2c977","ios":"levelo://app?vid=e0455d18-2803-4267-ad75-873503d2c977"},"vehicle_type_id":"4","last_reported":1746857571,"current_range_meters":23200,"station_id":"","pricing_plan_id":"cebpf4jnsgd1na2vs0mg"},{"bike_id":"01bb24e5-e3bb-4c0f-94bb-9f03c61dae9a","system_id":"levelo_inurba_marseille","lat":43.2407,"lon":5.377653,"is_reserved":false,"is_disabled":false,"rental_uris":{"android":"levelo://app?vid=01bb24e5-e3bb-4c0f-94bb-9f03c61dae9a","ios":"levelo://app?vid=01bb24e5-e3bb-4c0f-94bb-9f03c61dae9a"},"vehicle_type_id":"4","last_reported":1746857571,"current_range_meters":23200,"station_id":"ce4bhnp2rcd13ifvqgvg","pricing_plan_id":"cebpf4jnsgd1na2vs0mg"},{"bike_id":"4847d81f-d50e-4609-8983-6082c307ddc0","system_id":"levelo_inurba_marseille","lat":43.31693,"lon":5.43697,"is_reserved":false,"is_disabled":false,"rental_uris":{"android":"levelo://app?vid=4847d81f-d50e-4609-8983-6082c307ddc0","ios":"levelo://app?vid=4847d81f-d50e-4609-8983-6082c307ddc0"},"vehicle_type_id":"4","last_reported":1746857571,"current_range_meters":23200,"station_id":"ce4bhp92rcd13ifvqhcg","pricing_plan_id":"cebpf4jnsgd1na2vs0mg"},{"bike_id":"fafc54e7-80d4-4bec-ab8a-c43ff95a1fa5","system_id":"levelo_inurba_marseille","lat":43.31479,"lon":5.37253,"is_reserved":false,"is_disabled":false,"rental_uris":{"android":"levelo://app?vid=fafc54e7-80d4-4bec-ab8a-c43ff95a1fa5","ios":"levelo://app?vid=fafc54e7-80d4-4bec-ab8a-c43ff95a1fa5"},"vehicle_type_id":"4","last_reported":1746857571,"current_range_meters":23200,"station_id":"ce4bgt12rcd13ifvqcd0","pricing_plan_id":"cebpf4jnsgd1na2vs0mg"},{"bike_id":"02bac07a-9186-49eb-a666-f70d86d99978","system_id":"levelo_inurba_marseille","lat":43.211976,"lon":5.350767,"is_reserved":false,"is_disabled":false,"rental_uris":{"android":"levelo://app?vid=02bac07a-9186-49eb-a666-f70d86d99978","ios":"levelo://app?vid=02bac07a-9186-49eb-a666-f70d86d99978"},"vehicle_type_id":"4","last_reported":1746857571,"current_range_meters":23200,"station_id":"st_cvj6sg6p6f1abm77japg","pricing_plan_id":"cebpf4jnsgd1na2vs0mg"},{"bike_id":"d747c0f2-a1c0-480b-bdc4-4cda643364df","system_id":"levelo_inurba_marseille","lat":43.28698,"lon":5.36107,"is_reserved":false,"is_disabled":false,"rental_uris":{"android":"levelo://app?vid=d747c0f2-a1c0-480b-bdc4-4cda643364df","ios":"levelo://app?vid=d747c0f2-a1c0-480b-bdc4-4cda643364df"},"vehicle_type_id":"4","last_reported":1746857571,"current_range_meters":23200,"station_id":"cki0cbj6b192h4jlfktg","pricing_plan_id":"cebpf4jnsgd1na2vs0mg"},{"bike_id":"cae020d5-76c8-4e18-ad03-279e0886f377","system_id":"levelo_inurba_marseille","lat":43.291943,"lon":5.357812,"is_reserved":false,"is_disabled":false,"rental_uris":{"android":"levelo://app?vid=cae020d5-76c8-4e18-ad03-279e0886f377","ios":"levelo://app?vid=cae020d5-76c8-4e18-ad03-279e0886f377"},"vehicle_type_id":"4","last_reported":1746857571,"current_range_meters":23200,"station_id":"ce4bhbp2rcd13ifvqerg","pricing_plan_id":"cebpf4jnsgd1na2vs0mg"},{"bike_id":"e26005ab-6c21-4c09-9eea-86ba07a41d85","system_id":"levelo_inurba_marseille","lat":43.2467,"lon":5.38132,"is_reserved":false,"is_disabled":true,"rental_uris":{"android":"levelo://app?vid=e26005ab-6c21-4c09-9eea-86ba07a41d85","ios":"levelo://app?vid=e26005ab-6c21-4c09-9eea-86ba07a41d85"},"vehicle_type_id":"4","last_reported":1746857571,"current_range_meters":23200,"station_id":"ce4bhih2rcd13ifvqfr0","pricing_plan_id":"cebpf4jnsgd1na2vs0mg"},{"bike_id":"5ee6c3e3-5c35-4884-80c1-71cd7d0fa4fd","system_id":"levelo_inurba_marseille","lat":43.330555,"lon":5.40673,"is_reserved":false,"is_disabled":false,"rental_uris":{"android":"levelo://app?vid=5ee6c3e3-5c35-4884-80c1-71cd7d0fa4fd","ios":"levelo://app?vid=5ee6c3e3-5c35-4884-80c1-71cd7d0fa4fd"},"vehicle_type_id":"4","last_reported":1746857571,"current_range_meters":23200,"station_id":"","pricing_plan_id":"cebpf4jnsgd1na2vs0mg"},{"bike_id":"4429745d-95a9-41ef-aac9-95f42e91bbb9","system_id":"levelo_inurba_marseille","lat":43.33772,"lon":5.37454,"is_reserved":false,"is_disabled":false,"rental_uris":{"android":"levelo://app?vid=4429745d-95a9-41ef-aac9-95f42e91bbb9","ios":"levelo://app?vid=4429745d-95a9-41ef-aac9-95f42e91bbb9"},"vehicle_type_id":"4","last_reported":1746857571,"current_range_meters":24000,"station_id":"","pricing_plan_id":"cebpf4jnsgd1na2vs0mg"},{"bike_id":"1eee94a5-e10d-4f9f-8262-b514c57aa896","system_id":"levelo_inurba_marseille","lat":43.28066,"lon":5.39626,"is_reserved":false,"is_disabled":false,"rental_uris":{"android":"levelo://app?vid=1eee94a5-e10d-4f9f-8262-b514c57aa896","ios":"levelo://app?vid=1eee94a5-e10d-4f9f-8262-b514c57aa896"},"vehicle_type_id":"4","last_reported":1746857571,"current_range_meters":24000,"station_id":"ce4bho12rcd13ifvqh2g","pricing_plan_id":"cebpf4jnsgd1na2vs0mg"},{"bike_id":"7fc85542-413b-47cb-90f3-fc9a0d501d7e","system_id":"levelo_inurba_marseille","lat":43.24667,"lon":5.38162,"is_reserved":false,"is_disabled":false,"rental_uris":{"android":"levelo://app?vid=7fc85542-413b-47cb-90f3-fc9a0d501d7e","ios":"levelo://app?vid=7fc85542-413b-47cb-90f3-fc9a0d501d7e"},"vehicle_type_id":"4","last_reported":1746857571,"current_range_meters":24000,"station_id":"ce4bhih2rcd13ifvqfr0","pricing_plan_id":"cebpf4jnsgd1na2vs0mg"},{"bike_id":"7714198e-3829-4f40-bc45-13d5ca323b6e","system_id":"levelo_inurba_marseille","lat":43.30931,"lon":5.401524,"is_reserved":false,"is_disabled":false,"rental_uris":{"android":"levelo://app?vid=7714198e-3829-4f40-bc45-13d5ca323b6e","ios":"levelo://app?vid=7714198e-3829-4f40-bc45-13d5ca323b6e"},"vehicle_type_id":"4","last_reported":1746857571,"current_range_meters":24000,"station_id":"ce4bgvp2rcd13ifvqct0","pricing_plan_id":"cebpf4jnsgd1na2vs0mg"},{"bike_id":"556291a2-d16d-468b-8d7b-196f30f8f859","system_id":"levelo_inurba_marseille","lat":43.29769,"lon":5.37104,"is_reserved":false,"is_disabled":false,"rental_uris":{"android":"levelo://app?vid=556291a2-d16d-468b-8d7b-196f30f8f859","ios":"levelo://app?vid=556291a2-d16d-468b-8d7b-196f30f8f859"},"vehicle_type_id":"4","last_reported":1746857571,"current_range_meters":24000,"station_id":"ce4bgop2rcd13ifvqc1g","pricing_plan_id":"cebpf4jnsgd1na2vs0mg"},{"bike_id":"351ef218-24e5-4670-825d-fc1ac5cd3c19","system_id":"levelo_inurba_marseille","lat":43.314867,"lon":5.372895,"is_reserved":false,"is_disabled":false,"rental_uris":{"android":"levelo://app?vid=351ef218-24e5-4670-825d-fc1ac5cd3c19","ios":"levelo://app?vid=351ef218-24e5-4670-825d-fc1ac5cd3c19"},"vehicle_type_id":"4","last_reported":1746857571,"current_range_meters":24000,"station_id":"ce4bgt12rcd13ifvqcd0","pricing_plan_id":"cebpf4jnsgd1na2vs0mg"},{"bike_id":"37733380-909a-4cd2-9eb0-0b16569a89f4","system_id":"levelo_inurba_marseille","lat":43.29443,"lon":5.39758,"is_reserved":false,"is_disabled":true,"rental_uris":{"android":"levelo://app?vid=37733380-909a-4cd2-9eb0-0b16569a89f4","ios":"levelo://app?vid=37733380-909a-4cd2-9eb0-0b16569a89f4"},"vehicle_type_id":"4","last_reported":1746857571,"current_range_meters":24000,"station_id":"ce4bh3h2rcd13ifvqdo0","pricing_plan_id":"cebpf4jnsgd1na2vs0mg"},{"bike_id":"da1c5ec3-22aa-41b9-908c-4d323560536d","system_id":"levelo_inurba_marseille","lat":43.31084,"lon":5.38362,"is_reserved":false,"is_disabled":false,"rental_uris":{"android":"levelo://app?vid=da1c5ec3-22aa-41b9-908c-4d323560536d","ios":"levelo://app?vid=da1c5ec3-22aa-41b9-908c-4d323560536d"},"vehicle_type_id":"4","last_reported":1746857571,"current_range_meters":24000,"station_id":"ce4bgv92rcd13ifvqcr0","pricing_plan_id":"cebpf4jnsgd1na2vs0mg"},{"bike_id":"66114e87-3102-4b6e-b735-c1b9abde13c5","system_id":"levelo_inurba_marseille","lat":43.30934,"lon":5.40153,"is_reserved":false,"is_disabled":false,"rental_uris":{"android":"levelo://app?vid=66114e87-3102-4b6e-b735-c1b9abde13c5","ios":"levelo://app?vid=66114e87-3102-4b6e-b735-c1b9abde13c5"},"vehicle_type_id":"4","last_reported":1746857571,"current_range_meters":24000,"station_id":"ce4bgvp2rcd13ifvqct0","pricing_plan_id":"cebpf4jnsgd1na2vs0mg"},{"bike_id":"a60c8945-e450-45ab-ba18-b0e8254cff17","system_id":"levelo_inurba_marseille","lat":43.28613,"lon":5.35101,"is_reserved":false,"is_disabled":false,"rental_uris":{"android":"levelo://app?vid=a60c8945-e450-45ab-ba18-b0e8254cff17","ios":"levelo://app?vid=a60c8945-e450-45ab-ba18-b0e8254cff17"},"vehicle_type_id":"4","last_reported":1746857571,"current_range_meters":24400,"station_id":"ce4bhch2rcd13ifvqeug","pricing_plan_id":"cebpf4jnsgd1na2vs0mg"},{"bike_id":"76641dd9-c233-4b12-9f62-bc33d48bec5c","system_id":"levelo_inurba_marseille","lat":43.3078,"lon":5.37655,"is_reserved":false,"is_disabled":false,"rental_uris":{"android":"levelo://app?vid=76641dd9-c233-4b12-9f62-bc33d48bec5c","ios":"levelo://app?vid=76641dd9-c233-4b12-9f62-bc33d48bec5c"},"vehicle_type_id":"4","last_reported":1746857571,"current_range_meters":24400,"station_id":"ce4bgv92rcd13ifvqcq0","pricing_plan_id":"cebpf4jnsgd1na2vs0mg"},{"bike_id":"5a0c3b4c-491c-446d-bb75-c17d5dcb9ca3","system_id":"levelo_inurba_marseille","lat":43.2835,"lon":5.38093,"is_reserved":false,"is_disabled":false,"rental_uris":{"android":"levelo://app?vid=5a0c3b4c-491c-446d-bb75-c17d5dcb9ca3","ios":"levelo://app?vid=5a0c3b4c-491c-446d-bb75-c17d5dcb9ca3"},"vehicle_type_id":"4","last_reported":1746857571,"current_range_meters":24400,"station_id":"ce4bh412rcd13ifvqdr0","pricing_plan_id":"cebpf4jnsgd1na2vs0mg"},{"bike_id":"30f161e5-1563-4277-b384-7c3a05224630","system_id":"levelo_inurba_marseille","lat":43.30773,"lon":5.37654,"is_reserved":false,"is_disabled":false,"rental_uris":{"android":"levelo://app?vid=30f161e5-1563-4277-b384-7c3a05224630","ios":"levelo://app?vid=30f161e5-1563-4277-b384-7c3a05224630"},"vehicle_type_id":"4","last_reported":1746857571,"current_range_meters":24400,"station_id":"ce4bgv92rcd13ifvqcq0","pricing_plan_id":"cebpf4jnsgd1na2vs0mg"},{"bike_id":"3be46743-fbf4-486d-8a10-8265a7e6a6f1","system_id":"levelo_inurba_marseille","lat":43.30799,"lon":5.37664,"is_reserved":false,"is_disabled":false,"rental_uris":{"android":"levelo://app?vid=3be46743-fbf4-486d-8a10-8265a7e6a6f1","ios":"levelo://app?vid=3be46743-fbf4-486d-8a10-8265a7e6a6f1"},"vehicle_type_id":"4","last_reported":1746857571,"current_range_meters":24800,"station_id":"ce4bgv92rcd13ifvqcq0","pricing_plan_id":"cebpf4jnsgd1na2vs0mg"},{"bike_id":"ec2b92c5-71f9-4182-9122-e616fb7594ad","system_id":"levelo_inurba_marseille","lat":43.3103,"lon":5.38261,"is_reserved":false,"is_disabled":false,"rental_uris":{"android":"levelo://app?vid=ec2b92c5-71f9-4182-9122-e616fb7594ad","ios":"levelo://app?vid=ec2b92c5-71f9-4182-9122-e616fb7594ad"},"vehicle_type_id":"4","last_reported":1746857571,"current_range_meters":24800,"station_id":"ce4bgv92rcd13ifvqcr0","pricing_plan_id":"cebpf4jnsgd1na2vs0mg"},{"bike_id":"a8c3e555-d0a1-4687-9add-b2f9678be02e","system_id":"levelo_inurba_marseille","lat":43.31178,"lon":5.40777,"is_reserved":false,"is_disabled":true,"rental_uris":{"android":"levelo://app?vid=a8c3e555-d0a1-4687-9add-b2f9678be02e","ios":"levelo://app?vid=a8c3e555-d0a1-4687-9add-b2f9678be02e"},"vehicle_type_id":"4","last_reported":1746857571,"current_range_meters":24800,"station_id":"","pricing_plan_id":"cebpf4jnsgd1na2vs0mg"},{"bike_id":"40b29dc7-38e1-4f66-85b2-7a146d1d8e20","system_id":"levelo_inurba_marseille","lat":43.30646,"lon":5.40068,"is_reserved":false,"is_disabled":false,"rental_uris":{"android":"levelo://app?vid=40b29dc7-38e1-4f66-85b2-7a146d1d8e20","ios":"levelo://app?vid=40b29dc7-38e1-4f66-85b2-7a146d1d8e20"},"vehicle_type_id":"4","last_reported":1746857571,"current_range_meters":24800,"station_id":"ce4bh112rcd13ifvqda0","pricing_plan_id":"cebpf4jnsgd1na2vs0mg"},{"bike_id":"28cdeca5-6903-4c91-bce2-491f70daf2d0","system_id":"levelo_inurba_marseille","lat":43.2295,"lon":5.35382,"is_reserved":false,"is_disabled":false,"rental_uris":{"android":"levelo://app?vid=28cdeca5-6903-4c91-bce2-491f70daf2d0","ios":"levelo://app?vid=28cdeca5-6903-4c91-bce2-491f70daf2d0"},"vehicle_type_id":"4","last_reported":1746857571,"current_range_meters":24800,"station_id":"cpo3532slgdg3j2ikp40","pricing_plan_id":"cebpf4jnsgd1na2vs0mg"},{"bike_id":"5c255a92-12e7-40dc-8e68-3872ef25e50b","system_id":"levelo_inurba_marseille","lat":43.27587,"lon":5.36131,"is_reserved":false,"is_disabled":false,"rental_uris":{"android":"levelo://app?vid=5c255a92-12e7-40dc-8e68-3872ef25e50b","ios":"levelo://app?vid=5c255a92-12e7-40dc-8e68-3872ef25e50b"},"vehicle_type_id":"4","last_reported":1746857571,"current_range_meters":24800,"station_id":"ce4bgj92rcd13ifvqbe0","pricing_plan_id":"cebpf4jnsgd1na2vs0mg"},{"bike_id":"648fb792-696b-48d4-8bf9-ef3e06c468d1","system_id":"levelo_inurba_marseille","lat":43.27094,"lon":5.42285,"is_reserved":false,"is_disabled":false,"rental_uris":{"android":"levelo://app?vid=648fb792-696b-48d4-8bf9-ef3e06c468d1","ios":"levelo://app?vid=648fb792-696b-48d4-8bf9-ef3e06c468d1"},"vehicle_type_id":"4","last_reported":1746857571,"current_range_meters":24800,"station_id":"ce4bhk92rcd13ifvqgb0","pricing_plan_id":"cebpf4jnsgd1na2vs0mg"},{"bike_id":"313b14bb-532c-4ca8-a7a8-8588d2d40b5b","system_id":"levelo_inurba_marseille","lat":43.256398,"lon":5.385858,"is_reserved":false,"is_disabled":false,"rental_uris":{"android":"levelo://app?vid=313b14bb-532c-4ca8-a7a8-8588d2d40b5b","ios":"levelo://app?vid=313b14bb-532c-4ca8-a7a8-8588d2d40b5b"},"vehicle_type_id":"4","last_reported":1746857571,"current_range_meters":25200,"station_id":"","pricing_plan_id":"cebpf4jnsgd1na2vs0mg"},{"bike_id":"dfc0af20-7a08-4167-843b-e9a0f9c0b51b","system_id":"levelo_inurba_marseille","lat":43.30936,"lon":5.40154,"is_reserved":false,"is_disabled":false,"rental_uris":{"android":"levelo://app?vid=dfc0af20-7a08-4167-843b-e9a0f9c0b51b","ios":"levelo://app?vid=dfc0af20-7a08-4167-843b-e9a0f9c0b51b"},"vehicle_type_id":"4","last_reported":1746857571,"current_range_meters":25200,"station_id":"ce4bgvp2rcd13ifvqct0","pricing_plan_id":"cebpf4jnsgd1na2vs0mg"},{"bike_id":"a8d95478-bbd7-4008-a3b6-8463c0d21171","system_id":"levelo_inurba_marseille","lat":43.30378,"lon":5.4249,"is_reserved":false,"is_disabled":false,"rental_uris":{"android":"levelo://app?vid=a8d95478-bbd7-4008-a3b6-8463c0d21171","ios":"levelo://app?vid=a8d95478-bbd7-4008-a3b6-8463c0d21171"},"vehicle_type_id":"4","last_reported":1746857571,"current_range_meters":25200,"station_id":"ce4bhoh2rcd13ifvqh6g","pricing_plan_id":"cebpf4jnsgd1na2vs0mg"},{"bike_id":"f7b17b6c-c8fc-4cba-b0db-8cb329d922d1","system_id":"levelo_inurba_marseille","lat":43.24559,"lon":5.39558,"is_reserved":false,"is_disabled":false,"rental_uris":{"android":"levelo://app?vid=f7b17b6c-c8fc-4cba-b0db-8cb329d922d1","ios":"levelo://app?vid=f7b17b6c-c8fc-4cba-b0db-8cb329d922d1"},"vehicle_type_id":"4","last_reported":1746857571,"current_range_meters":25200,"station_id":"ce4bhlp2rcd13ifvqgjg","pricing_plan_id":"cebpf4jnsgd1na2vs0mg"},{"bike_id":"38407856-213e-4cb7-bfa8-b47143909afc","system_id":"levelo_inurba_marseille","lat":43.27495,"lon":5.42448,"is_reserved":false,"is_disabled":false,"rental_uris":{"android":"levelo://app?vid=38407856-213e-4cb7-bfa8-b47143909afc","ios":"levelo://app?vid=38407856-213e-4cb7-bfa8-b47143909afc"},"vehicle_type_id":"4","last_reported":1746857571,"current_range_meters":25200,"station_id":"ce4bhn92rcd13ifvqgrg","pricing_plan_id":"cebpf4jnsgd1na2vs0mg"},{"bike_id":"1b94e25d-5fe1-4022-bcb3-6d5c90170443","system_id":"levelo_inurba_marseille","lat":43.30592,"lon":5.39355,"is_reserved":false,"is_disabled":false,"rental_uris":{"android":"levelo://app?vid=1b94e25d-5fe1-4022-bcb3-6d5c90170443","ios":"levelo://app?vid=1b94e25d-5fe1-4022-bcb3-6d5c90170443"},"vehicle_type_id":"4","last_reported":1746857571,"current_range_meters":25200,"station_id":"ce4bh0p2rcd13ifvqd80","pricing_plan_id":"cebpf4jnsgd1na2vs0mg"},{"bike_id":"a45ee51e-44d8-438b-9671-f759bb105218","system_id":"levelo_inurba_marseille","lat":43.282068,"lon":5.368313,"is_reserved":false,"is_disabled":false,"rental_uris":{"android":"levelo://app?vid=a45ee51e-44d8-438b-9671-f759bb105218","ios":"levelo://app?vid=a45ee51e-44d8-438b-9671-f759bb105218"},"vehicle_type_id":"4","last_reported":1746857571,"current_range_meters":25200,"station_id":"","pricing_plan_id":"cebpf4jnsgd1na2vs0mg"},{"bike_id":"65186f2c-05ea-42d1-a74f-2cb8aac64ca5","system_id":"levelo_inurba_marseille","lat":43.30591,"lon":5.39357,"is_reserved":false,"is_disabled":false,"rental_uris":{"android":"levelo://app?vid=65186f2c-05ea-42d1-a74f-2cb8aac64ca5","ios":"levelo://app?vid=65186f2c-05ea-42d1-a74f-2cb8aac64ca5"},"vehicle_type_id":"4","last_reported":1746857571,"current_range_meters":25200,"station_id":"ce4bh0p2rcd13ifvqd80","pricing_plan_id":"cebpf4jnsgd1na2vs0mg"},{"bike_id":"bb2ad7a5-ab66-426b-9177-69d7f22de484","system_id":"levelo_inurba_marseille","lat":43.27496,"lon":5.4245,"is_reserved":false,"is_disabled":false,"rental_uris":{"android":"levelo://app?vid=bb2ad7a5-ab66-426b-9177-69d7f22de484","ios":"levelo://app?vid=bb2ad7a5-ab66-426b-9177-69d7f22de484"},"vehicle_type_id":"4","last_reported":1746857571,"current_range_meters":25600,"station_id":"ce4bhn92rcd13ifvqgrg","pricing_plan_id":"cebpf4jnsgd1na2vs0mg"},{"bike_id":"38394442-2887-4763-8a9c-8c4481b5ef67","system_id":"levelo_inurba_marseille","lat":43.2866,"lon":5.36341,"is_reserved":false,"is_disabled":true,"rental_uris":{"android":"levelo://app?vid=38394442-2887-4763-8a9c-8c4481b5ef67","ios":"levelo://app?vid=38394442-2887-4763-8a9c-8c4481b5ef67"},"vehicle_type_id":"4","last_reported":1746857571,"current_range_meters":25600,"station_id":"ce4bhah2rcd13ifvqej0","pricing_plan_id":"cebpf4jnsgd1na2vs0mg"},{"bike_id":"e8d87c3a-8e63-4494-879e-6d10d56c9c58","system_id":"levelo_inurba_marseille","lat":43.30648,"lon":5.40084,"is_reserved":false,"is_disabled":false,"rental_uris":{"android":"levelo://app?vid=e8d87c3a-8e63-4494-879e-6d10d56c9c58","ios":"levelo://app?vid=e8d87c3a-8e63-4494-879e-6d10d56c9c58"},"vehicle_type_id":"4","last_reported":1746857571,"current_range_meters":25600,"station_id":"ce4bh112rcd13ifvqda0","pricing_plan_id":"cebpf4jnsgd1na2vs0mg"},{"bike_id":"0a3b5554-5a08-4507-af14-6bdaaace9118","system_id":"levelo_inurba_marseille","lat":43.28658,"lon":5.36356,"is_reserved":false,"is_disabled":false,"rental_uris":{"android":"levelo://app?vid=0a3b5554-5a08-4507-af14-6bdaaace9118","ios":"levelo://app?vid=0a3b5554-5a08-4507-af14-6bdaaace9118"},"vehicle_type_id":"4","last_reported":1746857571,"current_range_meters":25600,"station_id":"ce4bhah2rcd13ifvqej0","pricing_plan_id":"cebpf4jnsgd1na2vs0mg"},{"bike_id":"cd6af959-442d-4853-a09c-b600b354cbb9","system_id":"levelo_inurba_marseille","lat":43.31347,"lon":5.3851,"is_reserved":false,"is_disabled":false,"rental_uris":{"android":"levelo://app?vid=cd6af959-442d-4853-a09c-b600b354cbb9","ios":"levelo://app?vid=cd6af959-442d-4853-a09c-b600b354cbb9"},"vehicle_type_id":"4","last_reported":1746857571,"current_range_meters":26000,"station_id":"ce4bgt92rcd13ifvqcf0","pricing_plan_id":"cebpf4jnsgd1na2vs0mg"},{"bike_id":"ed269f08-24c0-40fa-95b0-29c6d4701fde","system_id":"levelo_inurba_marseille","lat":43.2708,"lon":5.42224,"is_reserved":false,"is_disabled":false,"rental_uris":{"android":"levelo://app?vid=ed269f08-24c0-40fa-95b0-29c6d4701fde","ios":"levelo://app?vid=ed269f08-24c0-40fa-95b0-29c6d4701fde"},"vehicle_type_id":"4","last_reported":1746857571,"current_range_meters":26000,"station_id":"ce4bhk92rcd13ifvqgb0","pricing_plan_id":"cebpf4jnsgd1na2vs0mg"},{"bike_id":"25d5fb39-c033-45fa-86d9-8d5306ba3326","system_id":"levelo_inurba_marseille","lat":43.31274,"lon":5.40165,"is_reserved":false,"is_disabled":false,"rental_uris":{"android":"levelo://app?vid=25d5fb39-c033-45fa-86d9-8d5306ba3326","ios":"levelo://app?vid=25d5fb39-c033-45fa-86d9-8d5306ba3326"},"vehicle_type_id":"4","last_reported":1746857571,"current_range_meters":26000,"station_id":"ce4bh092rcd13ifvqd30","pricing_plan_id":"cebpf4jnsgd1na2vs0mg"},{"bike_id":"ab90e9a9-2105-46d9-ad7c-f0b4aa67724b","system_id":"levelo_inurba_marseille","lat":43.23584,"lon":5.40352,"is_reserved":false,"is_disabled":false,"rental_uris":{"android":"levelo://app?vid=ab90e9a9-2105-46d9-ad7c-f0b4aa67724b","ios":"levelo://app?vid=ab90e9a9-2105-46d9-ad7c-f0b4aa67724b"},"vehicle_type_id":"4","last_reported":1746857571,"current_range_meters":26000,"station_id":"","pricing_plan_id":"cebpf4jnsgd1na2vs0mg"},{"bike_id":"249bee7e-ac80-4952-8bc8-4457e79d9025","system_id":"levelo_inurba_marseille","lat":43.2978,"lon":5.39367,"is_reserved":false,"is_disabled":false,"rental_uris":{"android":"levelo://app?vid=249bee7e-ac80-4952-8bc8-4457e79d9025","ios":"levelo://app?vid=249bee7e-ac80-4952-8bc8-4457e79d9025"},"vehicle_type_id":"4","last_reported":1746857571,"current_range_meters":26000,"station_id":"chh1huq6cuj3fo74tm60","pricing_plan_id":"cebpf4jnsgd1na2vs0mg"},{"bike_id":"68ad7e24-2dce-4d73-b037-12418412c991","system_id":"levelo_inurba_marseille","lat":43.310712,"lon":5.383471,"is_reserved":false,"is_disabled":false,"rental_uris":{"android":"levelo://app?vid=68ad7e24-2dce-4d73-b037-12418412c991","ios":"levelo://app?vid=68ad7e24-2dce-4d73-b037-12418412c991"},"vehicle_type_id":"4","last_reported":1746857571,"current_range_meters":26800,"station_id":"ce4bgv92rcd13ifvqcr0","pricing_plan_id":"cebpf4jnsgd1na2vs0mg"},{"bike_id":"0dc5b190-193e-47b7-aaf5-c7a4024cc863","system_id":"levelo_inurba_marseille","lat":43.32462,"lon":5.36596,"is_reserved":false,"is_disabled":true,"rental_uris":{"android":"levelo://app?vid=0dc5b190-193e-47b7-aaf5-c7a4024cc863","ios":"levelo://app?vid=0dc5b190-193e-47b7-aaf5-c7a4024cc863"},"vehicle_type_id":"4","last_reported":1746857571,"current_range_meters":26800,"station_id":"ce4bhs12rcd13ifvqhvg","pricing_plan_id":"cebpf4jnsgd1na2vs0mg"},{"bike_id":"f28a5201-154f-4754-90da-7e4883b2b04b","system_id":"levelo_inurba_marseille","lat":43.33131,"lon":5.3899,"is_reserved":false,"is_disabled":false,"rental_uris":{"android":"levelo://app?vid=f28a5201-154f-4754-90da-7e4883b2b04b","ios":"levelo://app?vid=f28a5201-154f-4754-90da-7e4883b2b04b"},"vehicle_type_id":"4","last_reported":1746857571,"current_range_meters":26800,"station_id":"","pricing_plan_id":"cebpf4jnsgd1na2vs0mg"},{"bike_id":"6ba82fd6-a90a-49c3-9509-14fcdbdb328d","system_id":"levelo_inurba_marseille","lat":43.30579,"lon":5.39352,"is_reserved":false,"is_disabled":false,"rental_uris":{"android":"levelo://app?vid=6ba82fd6-a90a-49c3-9509-14fcdbdb328d","ios":"levelo://app?vid=6ba82fd6-a90a-49c3-9509-14fcdbdb328d"},"vehicle_type_id":"4","last_reported":1746857571,"current_range_meters":26800,"station_id":"ce4bh0p2rcd13ifvqd80","pricing_plan_id":"cebpf4jnsgd1na2vs0mg"},{"bike_id":"a35129c7-ae16-4589-b300-131c23bde060","system_id":"levelo_inurba_marseille","lat":43.28722,"lon":5.36083,"is_reserved":false,"is_disabled":false,"rental_uris":{"android":"levelo://app?vid=a35129c7-ae16-4589-b300-131c23bde060","ios":"levelo://app?vid=a35129c7-ae16-4589-b300-131c23bde060"},"vehicle_type_id":"4","last_reported":1746857571,"current_range_meters":27200,"station_id":"cki0cbj6b192h4jlfktg","pricing_plan_id":"cebpf4jnsgd1na2vs0mg"},{"bike_id":"d555a10e-d813-4be2-97dd-b6f86ceae7a3","system_id":"levelo_inurba_marseille","lat":43.304592,"lon":5.379154,"is_reserved":false,"is_disabled":false,"rental_uris":{"android":"levelo://app?vid=d555a10e-d813-4be2-97dd-b6f86ceae7a3","ios":"levelo://app?vid=d555a10e-d813-4be2-97dd-b6f86ceae7a3"},"vehicle_type_id":"4","last_reported":1746857571,"current_range_meters":26800,"station_id":"ce4bgk12rcd13ifvqbi0","pricing_plan_id":"cebpf4jnsgd1na2vs0mg"},{"bike_id":"ff8ceca6-3dc7-42be-b344-87c1bff339e9","system_id":"levelo_inurba_marseille","lat":43.30929,"lon":5.40137,"is_reserved":false,"is_disabled":false,"rental_uris":{"android":"levelo://app?vid=ff8ceca6-3dc7-42be-b344-87c1bff339e9","ios":"levelo://app?vid=ff8ceca6-3dc7-42be-b344-87c1bff339e9"},"vehicle_type_id":"4","last_reported":1746857571,"current_range_meters":26800,"station_id":"ce4bgvp2rcd13ifvqct0","pricing_plan_id":"cebpf4jnsgd1na2vs0mg"},{"bike_id":"259da1a6-5dc3-4e2e-9dd8-09fbbd8e4f6c","system_id":"levelo_inurba_marseille","lat":43.28715,"lon":5.36084,"is_reserved":false,"is_disabled":false,"rental_uris":{"android":"levelo://app?vid=259da1a6-5dc3-4e2e-9dd8-09fbbd8e4f6c","ios":"levelo://app?vid=259da1a6-5dc3-4e2e-9dd8-09fbbd8e4f6c"},"vehicle_type_id":"4","last_reported":1746857571,"current_range_meters":26800,"station_id":"cki0cbj6b192h4jlfktg","pricing_plan_id":"cebpf4jnsgd1na2vs0mg"},{"bike_id":"9dfb3f1f-0245-4f2c-9796-c4d542b7dfef","system_id":"levelo_inurba_marseille","lat":43.30592,"lon":5.39347,"is_reserved":false,"is_disabled":false,"rental_uris":{"android":"levelo://app?vid=9dfb3f1f-0245-4f2c-9796-c4d542b7dfef","ios":"levelo://app?vid=9dfb3f1f-0245-4f2c-9796-c4d542b7dfef"},"vehicle_type_id":"4","last_reported":1746857571,"current_range_meters":26800,"station_id":"ce4bh0p2rcd13ifvqd80","pricing_plan_id":"cebpf4jnsgd1na2vs0mg"},{"bike_id":"613b1c20-5ed1-4bcc-9f84-81d0f017bcd0","system_id":"levelo_inurba_marseille","lat":43.28501,"lon":5.3858,"is_reserved":false,"is_disabled":false,"rental_uris":{"android":"levelo://app?vid=613b1c20-5ed1-4bcc-9f84-81d0f017bcd0","ios":"levelo://app?vid=613b1c20-5ed1-4bcc-9f84-81d0f017bcd0"},"vehicle_type_id":"4","last_reported":1746857571,"current_range_meters":26800,"station_id":"ce4bh8p2rcd13ifvqeb0","pricing_plan_id":"cebpf4jnsgd1na2vs0mg"},{"bike_id":"5013b049-5182-4d34-b6d0-b1000aea3248","system_id":"levelo_inurba_marseille","lat":43.30937,"lon":5.40152,"is_reserved":false,"is_disabled":false,"rental_uris":{"android":"levelo://app?vid=5013b049-5182-4d34-b6d0-b1000aea3248","ios":"levelo://app?vid=5013b049-5182-4d34-b6d0-b1000aea3248"},"vehicle_type_id":"4","last_reported":1746857571,"current_range_meters":26800,"station_id":"ce4bgvp2rcd13ifvqct0","pricing_plan_id":"cebpf4jnsgd1na2vs0mg"},{"bike_id":"c2c543dc-0c90-4c40-a845-301b22538b43","system_id":"levelo_inurba_marseille","lat":43.25105,"lon":5.40324,"is_reserved":false,"is_disabled":false,"rental_uris":{"android":"levelo://app?vid=c2c543dc-0c90-4c40-a845-301b22538b43","ios":"levelo://app?vid=c2c543dc-0c90-4c40-a845-301b22538b43"},"vehicle_type_id":"4","last_reported":1746857571,"current_range_meters":26800,"station_id":"ce4bhlh2rcd13ifvqgig","pricing_plan_id":"cebpf4jnsgd1na2vs0mg"},{"bike_id":"9ee94416-a859-4e35-a4ba-39831e5ddf82","system_id":"levelo_inurba_marseille","lat":43.30544,"lon":5.38436,"is_reserved":false,"is_disabled":true,"rental_uris":{"android":"levelo://app?vid=9ee94416-a859-4e35-a4ba-39831e5ddf82","ios":"levelo://app?vid=9ee94416-a859-4e35-a4ba-39831e5ddf82"},"vehicle_type_id":"4","last_reported":1746857571,"current_range_meters":26800,"station_id":"ce4bgg92rcd13ifvqb30","pricing_plan_id":"cebpf4jnsgd1na2vs0mg"},{"bike_id":"9fcbd82b-263c-446f-84c0-d1318e435ebd","system_id":"levelo_inurba_marseille","lat":43.292007,"lon":5.379477,"is_reserved":false,"is_disabled":false,"rental_uris":{"android":"levelo://app?vid=9fcbd82b-263c-446f-84c0-d1318e435ebd","ios":"levelo://app?vid=9fcbd82b-263c-446f-84c0-d1318e435ebd"},"vehicle_type_id":"4","last_reported":1746857571,"current_range_meters":27200,"station_id":"","pricing_plan_id":"cebpf4jnsgd1na2vs0mg"},{"bike_id":"99a4b54a-e727-4a7a-9376-47e230828836","system_id":"levelo_inurba_marseille","lat":43.3136,"lon":5.38511,"is_reserved":false,"is_disabled":false,"rental_uris":{"android":"levelo://app?vid=99a4b54a-e727-4a7a-9376-47e230828836","ios":"levelo://app?vid=99a4b54a-e727-4a7a-9376-47e230828836"},"vehicle_type_id":"4","last_reported":1746857571,"current_range_meters":27200,"station_id":"ce4bgt92rcd13ifvqcf0","pricing_plan_id":"cebpf4jnsgd1na2vs0mg"},{"bike_id":"6a91840e-f1f6-4255-ad62-4074a6831037","system_id":"levelo_inurba_marseille","lat":43.25602,"lon":5.4052,"is_reserved":false,"is_disabled":false,"rental_uris":{"android":"levelo://app?vid=6a91840e-f1f6-4255-ad62-4074a6831037","ios":"levelo://app?vid=6a91840e-f1f6-4255-ad62-4074a6831037"},"vehicle_type_id":"4","last_reported":1746857571,"current_range_meters":27200,"station_id":"","pricing_plan_id":"cebpf4jnsgd1na2vs0mg"},{"bike_id":"b98c1bb6-4d0b-4831-8419-09aa97d0c1bd","system_id":"levelo_inurba_marseille","lat":43.30967,"lon":5.39043,"is_reserved":false,"is_disabled":true,"rental_uris":{"android":"levelo://app?vid=b98c1bb6-4d0b-4831-8419-09aa97d0c1bd","ios":"levelo://app?vid=b98c1bb6-4d0b-4831-8419-09aa97d0c1bd"},"vehicle_type_id":"4","last_reported":1746857571,"current_range_meters":27200,"station_id":"ce4bgup2rcd13ifvqco0","pricing_plan_id":"cebpf4jnsgd1na2vs0mg"},{"bike_id":"44c66f1b-95f5-476c-be0d-9482ec862b16","system_id":"levelo_inurba_marseille","lat":43.29793,"lon":5.39357,"is_reserved":false,"is_disabled":false,"rental_uris":{"android":"levelo://app?vid=44c66f1b-95f5-476c-be0d-9482ec862b16","ios":"levelo://app?vid=44c66f1b-95f5-476c-be0d-9482ec862b16"},"vehicle_type_id":"4","last_reported":1746857571,"current_range_meters":27200,"station_id":"chh1huq6cuj3fo74tm60","pricing_plan_id":"cebpf4jnsgd1na2vs0mg"},{"bike_id":"a32ae7c9-b4b8-496f-bbde-8955ae8e903d","system_id":"levelo_inurba_marseille","lat":43.27972,"lon":5.38713,"is_reserved":false,"is_disabled":false,"rental_uris":{"android":"levelo://app?vid=a32ae7c9-b4b8-496f-bbde-8955ae8e903d","ios":"levelo://app?vid=a32ae7c9-b4b8-496f-bbde-8955ae8e903d"},"vehicle_type_id":"4","last_reported":1746857571,"current_range_meters":27200,"station_id":"ce4bhg12rcd13ifvqf80","pricing_plan_id":"cebpf4jnsgd1na2vs0mg"},{"bike_id":"f90bbcc1-5cc4-4a91-8956-4d0dfca0f1ff","system_id":"levelo_inurba_marseille","lat":43.28395,"lon":5.38633,"is_reserved":false,"is_disabled":false,"rental_uris":{"android":"levelo://app?vid=f90bbcc1-5cc4-4a91-8956-4d0dfca0f1ff","ios":"levelo://app?vid=f90bbcc1-5cc4-4a91-8956-4d0dfca0f1ff"},"vehicle_type_id":"4","last_reported":1746857571,"current_range_meters":27200,"station_id":"","pricing_plan_id":"cebpf4jnsgd1na2vs0mg"},