{"last_updated":1746907799,"ttl":60,"version":"2.2","data":{"bikes":[{"bike_id":"694644d6-3067-4056-9bf4-60d87b37f907","system_id":"levelo_inurba_marseille","lat":43.29165,"lon":5.37153,"is_reserved":false,"is_disabled":false,"rental_uris":{"android":"levelo://app?vid=694644d6-3067-4056-9bf4-60d87b37f907","ios":"levelo://app?vid=694644d6-3067-4056-9bf4-60d87b37f907"},"vehicle_type_id":"4","last_reported":1746907799,"current_range_meters":2800,"station_id":"ce4bha92rcd13ifvqeh0","pricing_plan_id":"cebpf4jnsgd1na2vs0mg"},{"bike_id":"0fa6cbcb-8c2f-4447-9f00-f3ad3224d54d","system_id":"levelo_inurba_marseille","lat":43.24806,"lon":5.37458,"is_reserved":false,"is_disabled":false,"rental_uris":{"android":"levelo://app?vid=0fa6cbcb-8c2f-4447-9f00-f3ad3224d54d","ios":"levelo://app?vid=0fa6cbcb-8c2f-4447-9f00-f3ad3224d54d"},"vehicle_type_id":"4","last_reported":1746907799,"current_range_meters":3200,"station_id":"ce4bhgh2rcd13ifvqfb0","pricing_plan_id":"cebpf4jnsgd1na2vs0mg"},{"bike_id":"0a3eb716-b49e-4c2e-9e24-f3c936f60596","system_id":"levelo_inurba_marseille","lat":43.26053,"lon":5.39393,"is_reserved":false,"is_disabled":false,"rental_uris":{"android":"levelo://app?vid=0a3eb716-b49e-4c2e-9e24-f3c936f60596","ios":"levelo://app?vid=0a3eb716-b49e-4c2e-9e24-f3c936f60596"},"vehicle_type_id":"4","last_reported":1746907799,"current_range_meters":3200,"station_id":"ce4bhh92rcd13ifvqfj0","pricing_plan_id":"cebpf4jnsgd1na2vs0mg"},{"bike_id":"7d431ede-1310-4464-8f05-7abbbd376513","system_id":"levelo_inurba_marseille","lat":43.27962,"lon":5.38761,"is_reserved":false,"is_disabled":false,"rental_uris":{"android":"levelo://app?vid=7d431ede-1310-4464-8f05-7abbbd376513","ios":"levelo://app?vid=7d431ede-1310-4464-8f05-7abbbd376513"},"vehicle_type_id":"4","last_reported":1746907799,"current_range_meters":3200,"station_id":"ce4bhg12rcd13ifvqf80","pricing_plan_id":"cebpf4jnsgd1na2vs0mg"},{"bike_id":"1658af8d-bdcf-4bf9-b1ff-0581941e3b00","system_id":"levelo_inurba_marseille","lat":43.292511,"lon":5.384456,"is_reserved":false,"is_disabled":false,"rental_uris":{"android":"levelo://app?vid=1658af8d-bdcf-4bf9-b1ff-0581941e3b00","ios":"levelo://app?vid=1658af8d-bdcf-4bf9-b1ff-0581941e3b00"},"vehicle_type_id":"4","last_reported":1746907799,"current_range_meters":3600,"station_id":"ce4bh692rcd13ifvqea0","pricing_plan_id":"cebpf4jnsgd1na2vs0mg"},{"bike_id":"9e8d56d9-89c3-4273-9739-42d529f2c5c7","system_id":"levelo_inurba_marseille","lat":43.264935,"lon":5.39541,"is_reserved":false,"is_disabled":false,"rental_uris":{"android":"levelo://app?vid=9e8d56d9-89c3-4273-9739-42d529f2c5c7","ios":"levelo://app?vid=9e8d56d9-89c3-4273-9739-42d529f2c5c7"},"vehicle_type_id":"4","last_reported":1746907799,"current_range_meters":3600,"station_id":"ce4bhi12rcd13ifvqfq0","pricing_plan_id":"cebpf4jnsgd1na2vs0mg"},{"bike_id":"fb4fba30-dd71-423a-8db7-23241b4f91bc","system_id":"levelo_inurba_marseille","lat":43.25546,"lon":5.38255,"is_reserved":false,"is_disabled":false,"rental_uris":{"android":"levelo://app?vid=fb4fba30-dd71-423a-8db7-23241b4f91bc","ios":"levelo://app?vid=fb4fba30-dd71-423a-8db7-23241b4f91bc"},"vehicle_type_id":"4","last_reported":1746907799,"current_range_meters":3600,"station_id":"ce4bhih2rcd13ifvqfs0","pricing_plan_id":"cebpf4jnsgd1na2vs0mg"},{"bike_id":"caf9033d-5f00-49c3-b1ee-1328b62008dc","system_id":"levelo_inurba_marseille","lat":43.33591,"lon":5.42825,"is_reserved":false,"is_disabled":false,"rental_uris":{"android":"levelo://app?vid=caf9033d-5f00-49c3-b1ee-1328b62008dc","ios":"levelo://app?vid=caf9033d-5f00-49c3-b1ee-1328b62008dc"},"vehicle_type_id":"4","last_reported":1746907799,"current_range_meters":3600,"station_id":"","pricing_plan_id":"cebpf4jnsgd1na2vs0mg"},{"bike_id":"76b29fee-b1c4-4b61-9c44-cd13a8ebf64e","system_id":"levelo_inurba_marseille","lat":43.27975,"lon":5.38734,"is_reserved":false,"is_disabled":false,"rental_uris":{"android":"levelo://app?vid=76b29fee-b1c4-4b61-9c44-cd13a8ebf64e","ios":"levelo://app?vid=76b29fee-b1c4-4b61-9c44-cd13a8ebf64e"},"vehicle_type_id":"4","last_reported":1746907799,"current_range_meters":3600,"station_id":"ce4bhg12rcd13ifvqf80","pricing_plan_id":"cebpf4jnsgd1na2vs0mg"},{"bike_id":"fc51e9bb-46a3-4582-8ddc-ef55e24beb6a","system_id":"levelo_inurba_marseille","lat":43.28106,"lon":5.37841,"is_reserved":false,"is_disabled":false,"rental_uris":{"android":"levelo://app?vid=fc51e9bb-46a3-4582-8ddc-ef55e24beb6a","ios":"levelo://app?vid=fc51e9bb-46a3-4582-8ddc-ef55e24beb6a"},"vehicle_type_id":"4","last_reported":1746907799,"current_range_meters":3600,"station_id":"ce4bha12rcd13ifvqee0","pricing_plan_id":"cebpf4jnsgd1na2vs0mg"},{"bike_id":"655e55c9-b6f0-4af8-a767-280d44d0116a","system_id":"levelo_inurba_marseille","lat":43.31214,"lon":5.36846,"is_reserved":false,"is_disabled":false,"rental_uris":{"android":"levelo://app?vid=655e55c9-b6f0-4af8-a767-280d44d0116a","ios":"levelo://app?vid=655e55c9-b6f0-4af8-a767-280d44d0116a"},"vehicle_type_id":"4","last_reported":1746907799,"current_range_meters":4400,"station_id":"ce4bgl92rcd13ifvqbq0","pricing_plan_id":"cebpf4jnsgd1na2vs0mg"},{"bike_id":"cdb2c243-fbdb-4b62-a933-f403dfb8a580","system_id":"levelo_inurba_marseille","lat":43.27882,"lon":5.38778,"is_reserved":false,"is_disabled":false,"rental_uris":{"android":"levelo://app?vid=cdb2c243-fbdb-4b62-a933-f403dfb8a580","ios":"levelo://app?vid=cdb2c243-fbdb-4b62-a933-f403dfb8a580"},"vehicle_type_id":"4","last_reported":1746907799,"current_range_meters":4400,"station_id":"","pricing_plan_id":"cebpf4jnsgd1na2vs0mg"},{"bike_id":"44b6822a-3f74-4531-bc1a-e9caf355563c","system_id":"levelo_inurba_marseille","lat":43.25479,"lon":5.37612,"is_reserved":false,"is_disabled":false,"rental_uris":{"android":"levelo://app?vid=44b6822a-3f74-4531-bc1a-e9caf355563c","ios":"levelo://app?vid=44b6822a-3f74-4531-bc1a-e9caf355563c"},"vehicle_type_id":"4","last_reported":1746907799,"current_range_meters":4400,"station_id":"ce4bhh12rcd13ifvqff0","pricing_plan_id":"cebpf4jnsgd1na2vs0mg"},{"bike_id":"9f73027e-3071-434a-aa02-98f371ac344e","system_id":"levelo_inurba_marseille","lat":43.27915,"lon":5.38009,"is_reserved":false,"is_disabled":false,"rental_uris":{"android":"levelo://app?vid=9f73027e-3071-434a-aa02-98f371ac344e","ios":"levelo://app?vid=9f73027e-3071-434a-aa02-98f371ac344e"},"vehicle_type_id":"4","last_reported":1746907799,"current_range_meters":4000,"station_id":"ce4bhf92rcd13ifvqf50","pricing_plan_id":"cebpf4jnsgd1na2vs0mg"},{"bike_id":"2803b40b-f117-4c7e-b5ad-7b2249dc2448","system_id":"levelo_inurba_marseille","lat":43.27174,"lon":5.40986,"is_reserved":false,"is_disabled":false,"rental_uris":{"android":"levelo://app?vid=2803b40b-f117-4c7e-b5ad-7b2249dc2448","ios":"levelo://app?vid=2803b40b-f117-4c7e-b5ad-7b2249dc2448"},"vehicle_type_id":"4","last_reported":1746907799,"current_range_meters":4800,"station_id":"ce4bhl12rcd13ifvqgf0","pricing_plan_id":"cebpf4jnsgd1na2vs0mg"},{"bike_id":"315b4d0f-485d-4e46-b48b-39cb283acbfa","system_id":"levelo_inurba_marseille","lat":43.29298,"lon":5.3746,"is_reserved":false,"is_disabled":false,"rental_uris":{"android":"levelo://app?vid=315b4d0f-485d-4e46-b48b-39cb283acbfa","ios":"levelo://app?vid=315b4d0f-485d-4e46-b48b-39cb283acbfa"},"vehicle_type_id":"4","last_reported":1746907799,"current_range_meters":4400,"station_id":"ce4bgi12rcd13ifvqb70","pricing_plan_id":"cebpf4jnsgd1na2vs0mg"},{"bike_id":"fa47f1bf-d293-4bca-acd1-3ba62fe98139","system_id":"levelo_inurba_marseille","lat":43.26814,"lon":5.40255,"is_reserved":false,"is_disabled":false,"rental_uris":{"android":"levelo://app?vid=fa47f1bf-d293-4bca-acd1-3ba62fe98139","ios":"levelo://app?vid=fa47f1bf-d293-4bca-acd1-3ba62fe98139"},"vehicle_type_id":"4","last_reported":1746907799,"current_range_meters":4800,"station_id":"ce501612rcd8frsf0b60","pricing_plan_id":"cebpf4jnsgd1na2vs0mg"},{"bike_id":"6014b758-e63d-4f1b-8c0a-74b4f5ed9e0e","system_id":"levelo_inurba_marseille","lat":43.28086,"lon":5.39652,"is_reserved":false,"is_disabled":false,"rental_uris":{"android":"levelo://app?vid=6014b758-e63d-4f1b-8c0a-74b4f5ed9e0e","ios":"levelo://app?vid=6014b758-e63d-4f1b-8c0a-74b4f5ed9e0e"},"vehicle_type_id":"4","last_reported":1746907799,"current_range_meters":4800,"station_id":"ce4bho12rcd13ifvqh2g","pricing_plan_id":"cebpf4jnsgd1na2vs0mg"},{"bike_id":"0702c3b1-d42b-4aee-8838-5dfc77ec2bbb","system_id":"levelo_inurba_marseille","lat":43.27177,"lon":5.410001,"is_reserved":false,"is_disabled":false,"rental_uris":{"android":"levelo://app?vid=0702c3b1-d42b-4aee-8838-5dfc77ec2bbb","ios":"levelo://app?vid=0702c3b1-d42b-4aee-8838-5dfc77ec2bbb"},"vehicle_type_id":"4","last_reported":1746907799,"current_range_meters":5600,"station_id":"","pricing_plan_id":"cebpf4jnsgd1na2vs0mg"},{"bike_id":"3d112367-c7f0-4d89-b152-ab865872c375","system_id":"levelo_inurba_marseille","lat":43.251057,"lon":5.375663,"is_reserved":false,"is_disabled":false,"rental_uris":{"android":"levelo://app?vid=3d112367-c7f0-4d89-b152-ab865872c375","ios":"levelo://app?vid=3d112367-c7f0-4d89-b152-ab865872c375"},"vehicle_type_id":"4","last_reported":1746907799,"current_range_meters":5600,"station_id":"","pricing_plan_id":"cebpf4jnsgd1na2vs0mg"},{"bike_id":"1a008502-9d73-4ac6-8716-d548c9aa1f81","system_id":"levelo_inurba_marseille","lat":43.24167,"lon":5.39737,"is_reserved":false,"is_disabled":false,"rental_uris":{"android":"levelo://app?vid=1a008502-9d73-4ac6-8716-d548c9aa1f81","ios":"levelo://app?vid=1a008502-9d73-4ac6-8716-d548c9aa1f81"},"vehicle_type_id":"4","last_reported":1746907799,"current_range_meters":5600,"station_id":"ce4bhn12rcd13ifvqgpg","pricing_plan_id":"cebpf4jnsgd1na2vs0mg"},{"bike_id":"38f40749-e399-4983-9cbe-0a9d4c2f65ca","system_id":"levelo_inurba_marseille","lat":43.2466,"lon":5.38168,"is_reserved":false,"is_disabled":false,"rental_uris":{"android":"levelo://app?vid=38f40749-e399-4983-9cbe-0a9d4c2f65ca","ios":"levelo://app?vid=38f40749-e399-4983-9cbe-0a9d4c2f65ca"},"vehicle_type_id":"4","last_reported":1746907799,"current_range_meters":5600,"station_id":"ce4bhih2rcd13ifvqfr0","pricing_plan_id":"cebpf4jnsgd1na2vs0mg"},{"bike_id":"a05f106b-000d-4074-8f57-041369637749","system_id":"levelo_inurba_marseille","lat":43.28938,"lon":5.39636,"is_reserved":false,"is_disabled":false,"rental_uris":{"android":"levelo://app?vid=a05f106b-000d-4074-8f57-041369637749","ios":"levelo://app?vid=a05f106b-000d-4074-8f57-041369637749"},"vehicle_type_id":"4","last_reported":1746907799,"current_range_meters":5600,"station_id":"ce4bh3h2rcd13ifvqdn0","pricing_plan_id":"cebpf4jnsgd1na2vs0mg"},{"bike_id":"0a4b8fc4-dbe3-4afd-9215-f9fab731cba2","system_id":"levelo_inurba_marseille","lat":43.30429,"lon":5.389,"is_reserved":false,"is_disabled":false,"rental_uris":{"android":"levelo://app?vid=0a4b8fc4-dbe3-4afd-9215-f9fab731cba2","ios":"levelo://app?vid=0a4b8fc4-dbe3-4afd-9215-f9fab731cba2"},"vehicle_type_id":"4","last_reported":1746907799,"current_range_meters":6000,"station_id":"ce4bgk12rcd13ifvqbi0","pricing_plan_id":"cebpf4jnsgd1na2vs0mg"},{"bike_id":"e13739ec-79f5-43f0-8dbe-2f4d1674a3d7","system_id":"levelo_inurba_marseille","lat":43.31356,"lon":5.38495,"is_reserved":false,"is_disabled":false,"rental_uris":{"android":"levelo://app?vid=e13739ec-79f5-43f0-8dbe-2f4d1674a3d7","ios":"levelo://app?vid=e13739ec-79f5-43f0-8dbe-2f4d1674a3d7"},"vehicle_type_id":"4","last_reported":1746907799,"current_range_meters":6000,"station_id":"ce4bgt92rcd13ifvqcf0","pricing_plan_id":"cebpf4jnsgd1na2vs0mg"},{"bike_id":"b267e857-efb8-423a-86c1-709a2d8b7be7","system_id":"levelo_inurba_marseille","lat":43.29796,"lon":5.38107,"is_reserved":false,"is_disabled":false,"rental_uris":{"android":"levelo://app?vid=b267e857-efb8-423a-86c1-709a2d8b7be7","ios":"levelo://app?vid=b267e857-efb8-423a-86c1-709a2d8b7be7"},"vehicle_type_id":"4","last_reported":1746907799,"current_range_meters":6400,"station_id":"ce4bgip2rcd13ifvqbb0","pricing_plan_id":"cebpf4jnsgd1na2vs0mg"},{"bike_id":"d3f2d330-c729-470c-9b47-3a23281328e6","system_id":"levelo_inurba_marseille","lat":43.31361,"lon":5.38492,"is_reserved":false,"is_disabled":false,"rental_uris":{"android":"levelo://app?vid=d3f2d330-c729-470c-9b47-3a23281328e6","ios":"levelo://app?vid=d3f2d330-c729-470c-9b47-3a23281328e6"},"vehicle_type_id":"4","last_reported":1746907799,"current_range_meters":6000,"station_id":"ce4bgt92rcd13ifvqcf0","pricing_plan_id":"cebpf4jnsgd1na2vs0mg"},{"bike_id":"c832ec6f-1d9d-4c1b-89b3-820550f03458","system_id":"levelo_inurba_marseille","lat":43.2744,"lon":5.394,"is_reserved":false,"is_disabled":false,"rental_uris":{"android":"levelo://app?vid=c832ec6f-1d9d-4c1b-89b3-820550f03458","ios":"levelo://app?vid=c832ec6f-1d9d-4c1b-89b3-820550f03458"},"vehicle_type_id":"4","last_reported":1746907799,"current_range_meters":6000,"station_id":"ce4bhdp2rcd13ifvqf20","pricing_plan_id":"cebpf4jnsgd1na2vs0mg"},{"bike_id":"dc0502b6-4377-443f-9b93-797c6c9300bd","system_id":"levelo_inurba_marseille","lat":43.31336,"lon":5.39695,"is_reserved":false,"is_disabled":false,"rental_uris":{"android":"levelo://app?vid=dc0502b6-4377-443f-9b93-797c6c9300bd","ios":"levelo://app?vid=dc0502b6-4377-443f-9b93-797c6c9300bd"},"vehicle_type_id":"4","last_reported":1746907799,"current_range_meters":6400,"station_id":"ce4bgvp2rcd13ifvqcu0","pricing_plan_id":"cebpf4jnsgd1na2vs0mg"},{"bike_id":"d41fb181-2091-4cc6-ac45-c661cf719fbf","system_id":"levelo_inurba_marseille","lat":43.28025,"lon":5.36951,"is_reserved":false,"is_disabled":false,"rental_uris":{"android":"levelo://app?vid=d41fb181-2091-4cc6-ac45-c661cf719fbf","ios":"levelo://app?vid=d41fb181-2091-4cc6-ac45-c661cf719fbf"},"vehicle_type_id":"4","last_reported":1746907799,"current_range_meters":6400,"station_id":"ce4bha12rcd13ifvqef0","pricing_plan_id":"cebpf4jnsgd1na2vs0mg"},{"bike_id":"c5f46774-48ef-411b-94c7-4ae31d2d7309","system_id":"levelo_inurba_marseille","lat":43.27964,"lon":5.38759,"is_reserved":false,"is_disabled":false,"rental_uris":{"android":"levelo://app?vid=c5f46774-48ef-411b-94c7-4ae31d2d7309","ios":"levelo://app?vid=c5f46774-48ef-411b-94c7-4ae31d2d7309"},"vehicle_type_id":"4","last_reported":1746907799,"current_range_meters":6400,"station_id":"ce4bhg12rcd13ifvqf80","pricing_plan_id":"cebpf4jnsgd1na2vs0mg"},{"bike_id":"d69c80ad-b04f-4021-9556-16e53a21adda","system_id":"levelo_inurba_marseille","lat":43.2984,"lon":5.36261,"is_reserved":false,"is_disabled":false,"rental_uris":{"android":"levelo://app?vid=d69c80ad-b04f-4021-9556-16e53a21adda","ios":"levelo://app?vid=d69c80ad-b04f-4021-9556-16e53a21adda"},"vehicle_type_id":"4","last_reported":1746907799,"current_range_meters":6400,"station_id":"ce4bgpp2rcd13ifvqc3g","pricing_plan_id":"cebpf4jnsgd1na2vs0mg"},{"bike_id":"1b8c5301-40be-4e98-8d75-da3fbaf24075","system_id":"levelo_inurba_marseille","lat":43.28863,"lon":5.39308,"is_reserved":false,"is_disabled":false,"rental_uris":{"android":"levelo://app?vid=1b8c5301-40be-4e98-8d75-da3fbaf24075","ios":"levelo://app?vid=1b8c5301-40be-4e98-8d75-da3fbaf24075"},"vehicle_type_id":"4","last_reported":1746907799,"current_range_meters":6800,"station_id":"ce4bh2p2rcd13ifvqdi0","pricing_plan_id":"cebpf4jnsgd1na2vs0mg"},{"bike_id":"e6070e7a-9ce9-4093-b91b-ee4e1a856a5e","system_id":"levelo_inurba_marseille","lat":43.30209,"lon":5.39479,"is_reserved":false,"is_disabled":false,"rental_uris":{"android":"levelo://app?vid=e6070e7a-9ce9-4093-b91b-ee4e1a856a5e","ios":"levelo://app?vid=e6070e7a-9ce9-4093-b91b-ee4e1a856a5e"},"vehicle_type_id":"4","last_reported":1746907799,"current_range_meters":6800,"station_id":"ce4bh0p2rcd13ifvqd70","pricing_plan_id":"cebpf4jnsgd1na2vs0mg"},{"bike_id":"636ffb93-3665-4662-8f3f-61644e5691e2","system_id":"levelo_inurba_marseille","lat":43.27431,"lon":5.39417,"is_reserved":false,"is_disabled":false,"rental_uris":{"android":"levelo://app?vid=636ffb93-3665-4662-8f3f-61644e5691e2","ios":"levelo://app?vid=636ffb93-3665-4662-8f3f-61644e5691e2"},"vehicle_type_id":"4","last_reported":1746907799,"current_range_meters":6800,"station_id":"ce4bhdp2rcd13ifvqf20","pricing_plan_id":"cebpf4jnsgd1na2vs0mg"},{"bike_id":"0e13c746-d20c-4a89-a9b5-3c57ac302f8c","system_id":"levelo_inurba_marseille","lat":43.27918,"lon":5.39576,"is_reserved":false,"is_disabled":false,"rental_uris":{"android":"levelo://app?vid=0e13c746-d20c-4a89-a9b5-3c57ac302f8c","ios":"levelo://app?vid=0e13c746-d20c-4a89-a9b5-3c57ac302f8c"},"vehicle_type_id":"4","last_reported":1746907799,"current_range_meters":6800,"station_id":"ce4bhf92rcd13ifvqf40","pricing_plan_id":"cebpf4jnsgd1na2vs0mg"},{"bike_id":"7561ca81-18ff-4062-bd0d-4e3e5b796d0e","system_id":"levelo_inurba_marseille","lat":43.27775,"lon":5.43519,"is_reserved":false,"is_disabled":false,"rental_uris":{"android":"levelo://app?vid=7561ca81-18ff-4062-bd0d-4e3e5b796d0e","ios":"levelo://app?vid=7561ca81-18ff-4062-bd0d-4e3e5b796d0e"},"vehicle_type_id":"4","last_reported":1746907799,"current_range_meters":6800,"station_id":"","pricing_plan_id":"cebpf4jnsgd1na2vs0mg"},{"bike_id":"46a8f6bc-56bd-448a-8fa3-199cd5b5c2a4","system_id":"levelo_inurba_marseille","lat":43.27998,"lon":5.40016,"is_reserved":false,"is_disabled":false,"rental_uris":{"android":"levelo://app?vid=46a8f6bc-56bd-448a-8fa3-199cd5b5c2a4","ios":"levelo://app?vid=46a8f6bc-56bd-448a-8fa3-199cd5b5c2a4"},"vehicle_type_id":"4","last_reported":1746907799,"current_range_meters":6800,"station_id":"ce4bho92rcd13ifvqh4g","pricing_plan_id":"cebpf4jnsgd1na2vs0mg"},{"bike_id":"2169dd84-5751-4034-ba18-df23d8a8ee26","system_id":"levelo_inurba_marseille","lat":43.306033,"lon":5.372243,"is_reserved":false,"is_disabled":false,"rental_uris":{"android":"levelo://app?vid=2169dd84-5751-4034-ba18-df23d8a8ee26","ios":"levelo://app?vid=2169dd84-5751-4034-ba18-df23d8a8ee26"},"vehicle_type_id":"4","last_reported":1746907799,"current_range_meters":7200,"station_id":"ce4bgqh2rcd13ifvqc4g","pricing_plan_id":"cebpf4jnsgd1na2vs0mg"},{"bike_id":"904c7fc2-540f-4043-a405-5f5658266117","system_id":"levelo_inurba_marseille","lat":43.27591,"lon":5.37793,"is_reserved":false,"is_disabled":false,"rental_uris":{"android":"levelo://app?vid=904c7fc2-540f-4043-a405-5f5658266117","ios":"levelo://app?vid=904c7fc2-540f-4043-a405-5f5658266117"},"vehicle_type_id":"4","last_reported":1746907799,"current_range_meters":7200,"station_id":"","pricing_plan_id":"cebpf4jnsgd1na2vs0mg"},{"bike_id":"20d62d3a-f9ce-444c-ad20-a24efcb0537e","system_id":"levelo_inurba_marseille","lat":43.32012,"lon":5.38152,"is_reserved":false,"is_disabled":true,"rental_uris":{"android":"levelo://app?vid=20d62d3a-f9ce-444c-ad20-a24efcb0537e","ios":"levelo://app?vid=20d62d3a-f9ce-444c-ad20-a24efcb0537e"},"vehicle_type_id":"4","last_reported":1746907799,"current_range_meters":7200,"station_id":"ce4bhr12rcd13ifvqhpg","pricing_plan_id":"cebpf4jnsgd1na2vs0mg"},{"bike_id":"9626e91f-bc0e-4518-b924-08aeb4908196","system_id":"levelo_inurba_marseille","lat":43.28708,"lon":5.37369,"is_reserved":false,"is_disabled":false,"rental_uris":{"android":"levelo://app?vid=9626e91f-bc0e-4518-b924-08aeb4908196","ios":"levelo://app?vid=9626e91f-bc0e-4518-b924-08aeb4908196"},"vehicle_type_id":"4","last_reported":1746907799,"current_range_meters":8000,"station_id":"ce4bh3p2rcd13ifvqdq0","pricing_plan_id":"cebpf4jnsgd1na2vs0mg"},{"bike_id":"952a0315-940a-4121-87e2-79ede5b5f630","system_id":"levelo_inurba_marseille","lat":43.28439,"lon":5.39201,"is_reserved":false,"is_disabled":false,"rental_uris":{"android":"levelo://app?vid=952a0315-940a-4121-87e2-79ede5b5f630","ios":"levelo://app?vid=952a0315-940a-4121-87e2-79ede5b5f630"},"vehicle_type_id":"4","last_reported":1746907799,"current_range_meters":7200,"station_id":"ce4bhoh2rcd13ifvqh5g","pricing_plan_id":"cebpf4jnsgd1na2vs0mg"},{"bike_id":"97a0f559-bc2b-4566-abf6-22339ed2ce55","system_id":"levelo_inurba_marseille","lat":43.3053,"lon":5.36709,"is_reserved":false,"is_disabled":false,"rental_uris":{"android":"levelo://app?vid=97a0f559-bc2b-4566-abf6-22339ed2ce55","ios":"levelo://app?vid=97a0f559-bc2b-4566-abf6-22339ed2ce55"},"vehicle_type_id":"4","last_reported":1746907799,"current_range_meters":8000,"station_id":"ce4bgrp2rcd13ifvqc9g","pricing_plan_id":"cebpf4jnsgd1na2vs0mg"},{"bike_id":"901edb40-2e4b-432c-a7c3-b1b21aefccc6","system_id":"levelo_inurba_marseille","lat":43.293073,"lon":5.37158,"is_reserved":false,"is_disabled":false,"rental_uris":{"android":"levelo://app?vid=901edb40-2e4b-432c-a7c3-b1b21aefccc6","ios":"levelo://app?vid=901edb40-2e4b-432c-a7c3-b1b21aefccc6"},"vehicle_type_id":"4","last_reported":1746907799,"current_range_meters":8000,"station_id":"ce4bgh92rcd13ifvqb40","pricing_plan_id":"cebpf4jnsgd1na2vs0mg"},{"bike_id":"4d31fe6f-78de-417b-8483-84dcfbaa32d9","system_id":"levelo_inurba_marseille","lat":43.27365,"lon":5.3626,"is_reserved":false,"is_disabled":false,"rental_uris":{"android":"levelo://app?vid=4d31fe6f-78de-417b-8483-84dcfbaa32d9","ios":"levelo://app?vid=4d31fe6f-78de-417b-8483-84dcfbaa32d9"},"vehicle_type_id":"4","last_reported":1746907799,"current_range_meters":8000,"station_id":"ce4bhbh2rcd13ifvqeo0","pricing_plan_id":"cebpf4jnsgd1na2vs0mg"},{"bike_id":"c26bbc1e-385c-453e-962a-970224af53c5","system_id":"levelo_inurba_marseille","lat":43.28615,"lon":5.37062,"is_reserved":false,"is_disabled":false,"rental_uris":{"android":"levelo://app?vid=c26bbc1e-385c-453e-962a-970224af53c5","ios":"levelo://app?vid=c26bbc1e-385c-453e-962a-970224af53c5"},"vehicle_type_id":"4","last_reported":1746907799,"current_range_meters":8000,"station_id":"ce4bht12rcd13ifvqi60","pricing_plan_id":"cebpf4jnsgd1na2vs0mg"},{"bike_id":"69f963d8-13db-446b-bff0-8848d1e61200","system_id":"levelo_inurba_marseille","lat":43.29575,"lon":5.36745,"is_reserved":false,"is_disabled":false,"rental_uris":{"android":"levelo://app?vid=69f963d8-13db-446b-bff0-8848d1e61200","ios":"levelo://app?vid=69f963d8-13db-446b-bff0-8848d1e61200"},"vehicle_type_id":"4","last_reported":1746907799,"current_range_meters":8000,"station_id":"ce4bgph2rcd13ifvqc2g","pricing_plan_id":"cebpf4jnsgd1na2vs0mg"},{"bike_id":"db934911-44a6-4793-9c9a-b25ca32db974","system_id":"levelo_inurba_marseille","lat":43.28035,"lon":5.36946,"is_reserved":false,"is_disabled":false,"rental_uris":{"android":"levelo://app?vid=db934911-44a6-4793-9c9a-b25ca32db974","ios":"levelo://app?vid=db934911-44a6-4793-9c9a-b25ca32db974"},"vehicle_type_id":"4","last_reported":1746907799,"current_range_meters":8400,"station_id":"ce4bha12rcd13ifvqef0","pricing_plan_id":"cebpf4jnsgd1na2vs0mg"},{"bike_id":"f30700cd-2b15-4379-bae3-a617af060209","system_id":"levelo_inurba_marseille","lat":43.21748,"lon":5.34609,"is_reserved":false,"is_disabled":true,"rental_uris":{"android":"levelo://app?vid=f30700cd-2b15-4379-bae3-a617af060209","ios":"levelo://app?vid=f30700cd-2b15-4379-bae3-a617af060209"},"vehicle_type_id":"4","last_reported":1746907799,"current_range_meters":8400,"station_id":"st_cvj6r9ubvosntc0bgbag","pricing_plan_id":"cebpf4jnsgd1na2vs0mg"},{"bike_id":"c8871d60-de65-4dc9-8457-ca42730446e7","system_id":"levelo_inurba_marseille","lat":43.31747,"lon":5.387725,"is_reserved":false,"is_disabled":false,"rental_uris":{"android":"levelo://app?vid=c8871d60-de65-4dc9-8457-ca42730446e7","ios":"levelo://app?vid=c8871d60-de65-4dc9-8457-ca42730446e7"},"vehicle_type_id":"4","last_reported":1746907799,"current_range_meters":8400,"station_id":"","pricing_plan_id":"cebpf4jnsgd1na2vs0mg"},{"bike_id":"c13f6770-edfc-46b5-bb2d-9740a2cce6d4","system_id":"levelo_inurba_marseille","lat":43.255,"lon":5.37656,"is_reserved":false,"is_disabled":true,"rental_uris":{"android":"levelo://app?vid=c13f6770-edfc-46b5-bb2d-9740a2cce6d4","ios":"levelo://app?vid=c13f6770-edfc-46b5-bb2d-9740a2cce6d4"},"vehicle_type_id":"4","last_reported":1746907799,"current_range_meters":8400,"station_id":"ce4bhh12rcd13ifvqff0","pricing_plan_id":"cebpf4jnsgd1na2vs0mg"},{"bike_id":"f37fd579-ee4e-46a5-9128-3c50468ec629","system_id":"levelo_inurba_marseille","lat":43.2655,"lon":5.37292,"is_reserved":false,"is_disabled":true,"rental_uris":{"android":"levelo://app?vid=f37fd579-ee4e-46a5-9128-3c50468ec629","ios":"levelo://app?vid=f37fd579-ee4e-46a5-9128-3c50468ec629"},"vehicle_type_id":"4","last_reported":1746907799,"current_range_meters":8800,"station_id":"ce4bhg12rcd13ifvqf70","pricing_plan_id":"cebpf4jnsgd1na2vs0mg"},{"bike_id":"7d133824-1f9a-4c15-a32e-419ca57eeea8","system_id":"levelo_inurba_marseille","lat":43.295836,"lon":5.367557,"is_reserved":false,"is_disabled":true,"rental_uris":{"android":"levelo://app?vid=7d133824-1f9a-4c15-a32e-419ca57eeea8","ios":"levelo://app?vid=7d133824-1f9a-4c15-a32e-419ca57eeea8"},"vehicle_type_id":"4","last_reported":1746907799,"current_range_meters":8800,"station_id":"ce4bgph2rcd13ifvqc2g","pricing_plan_id":"cebpf4jnsgd1na2vs0mg"},{"bike_id":"e853834f-1da1-4382-b8ae-eca334bd6581","system_id":"levelo_inurba_marseille","lat":43.28072,"lon":5.3684,"is_reserved":false,"is_disabled":false,"rental_uris":{"android":"levelo://app?vid=e853834f-1da1-4382-b8ae-eca334bd6581","ios":"levelo://app?vid=e853834f-1da1-4382-b8ae-eca334bd6581"},"vehicle_type_id":"4","last_reported":1746907799,"current_range_meters":8800,"station_id":"","pricing_plan_id":"cebpf4jnsgd1na2vs0mg"},{"bike_id":"7c6623c6-a687-4cf3-bed7-445dbc4db3a6","system_id":"levelo_inurba_marseille","lat":43.29983,"lon":5.38482,"is_reserved":false,"is_disabled":true,"rental_uris":{"android":"levelo://app?vid=7c6623c6-a687-4cf3-bed7-445dbc4db3a6","ios":"levelo://app?vid=7c6623c6-a687-4cf3-bed7-445dbc4db3a6"},"vehicle_type_id":"4","last_reported":1746907799,"current_range_meters":8800,"station_id":"ce4bgj92rcd13ifvqbd0","pricing_plan_id":"cebpf4jnsgd1na2vs0mg"},{"bike_id":"aedac110-9a80-4055-b3bc-6fbbff4ed0bc","system_id":"levelo_inurba_marseille","lat":43.31752,"lon":5.37233,"is_reserved":false,"is_disabled":false,"rental_uris":{"android":"levelo://app?vid=aedac110-9a80-4055-b3bc-6fbbff4ed0bc","ios":"levelo://app?vid=aedac110-9a80-4055-b3bc-6fbbff4ed0bc"},"vehicle_type_id":"4","last_reported":1746907799,"current_range_meters":9200,"station_id":"","pricing_plan_id":"cebpf4jnsgd1na2vs0mg"},{"bike_id":"814c300d-d261-4866-b022-44e7c5159380","system_id":"levelo_inurba_marseille","lat":43.24159,"lon":5.36405,"is_reserved":false,"is_disabled":true,"rental_uris":{"android":"levelo://app?vid=814c300d-d261-4866-b022-44e7c5159380","ios":"levelo://app?vid=814c300d-d261-4866-b022-44e7c5159380"},"vehicle_type_id":"4","last_reported":1746907799,"current_range_meters":9200,"station_id":"cpo36qri1sfpv3e86is0","pricing_plan_id":"cebpf4jnsgd1na2vs0mg"},{"bike_id":"86b478b2-1cf2-4e07-8a5c-76710e912a41","system_id":"levelo_inurba_marseille","lat":43.291197,"lon":5.366899,"is_reserved":false,"is_disabled":false,"rental_uris":{"android":"levelo://app?vid=86b478b2-1cf2-4e07-8a5c-76710e912a41","ios":"levelo://app?vid=86b478b2-1cf2-4e07-8a5c-76710e912a41"},"vehicle_type_id":"4","last_reported":1746907799,"current_range_meters":9200,"station_id":"","pricing_plan_id":"cebpf4jnsgd1na2vs0mg"},{"bike_id":"44e88eeb-5d69-44d1-ad07-bcaf5276d14e","system_id":"levelo_inurba_marseille","lat":43.26208,"lon":5.40445,"is_reserved":false,"is_disabled":false,"rental_uris":{"android":"levelo://app?vid=44e88eeb-5d69-44d1-ad07-bcaf5276d14e","ios":"levelo://app?vid=44e88eeb-5d69-44d1-ad07-bcaf5276d14e"},"vehicle_type_id":"4","last_reported":1746907799,"current_range_meters":9200,"station_id":"ce4bhmh2rcd13ifvqgmg","pricing_plan_id":"cebpf4jnsgd1na2vs0mg"},{"bike_id":"99fb9985-2088-4a48-ae83-62aca3ba1639","system_id":"levelo_inurba_marseille","lat":43.315,"lon":5.37313,"is_reserved":false,"is_disabled":true,"rental_uris":{"android":"levelo://app?vid=99fb9985-2088-4a48-ae83-62aca3ba1639","ios":"levelo://app?vid=99fb9985-2088-4a48-ae83-62aca3ba1639"},"vehicle_type_id":"4","last_reported":1746907799,"current_range_meters":9200,"station_id":"ce4bgt12rcd13ifvqcd0","pricing_plan_id":"cebpf4jnsgd1na2vs0mg"},{"bike_id":"d4d13ad4-f369-44bf-ba73-5c30e81f725f","system_id":"levelo_inurba_marseille","lat":43.27427,"lon":5.39424,"is_reserved":false,"is_disabled":false,"rental_uris":{"android":"levelo://app?vid=d4d13ad4-f369-44bf-ba73-5c30e81f725f","ios":"levelo://app?vid=d4d13ad4-f369-44bf-ba73-5c30e81f725f"},"vehicle_type_id":"4","last_reported":1746907799,"current_range_meters":9200,"station_id":"ce4bhdp2rcd13ifvqf20","pricing_plan_id":"cebpf4jnsgd1na2vs0mg"},{"bike_id":"c0bc0ea6-4473-4e07-9f41-bf52820844f7","system_id":"levelo_inurba_marseille","lat":43.25109,"lon":5.40319,"is_reserved":false,"is_disabled":false,"rental_uris":{"android":"levelo://app?vid=c0bc0ea6-4473-4e07-9f41-bf52820844f7","ios":"levelo://app?vid=c0bc0ea6-4473-4e07-9f41-bf52820844f7"},"vehicle_type_id":"4","last_reported":1746907799,"current_range_meters":9200,"station_id":"ce4bhlh2rcd13ifvqgig","pricing_plan_id":"cebpf4jnsgd1na2vs0mg"},{"bike_id":"76ca1895-1301-4b7c-9421-3a96987a3153","system_id":"levelo_inurba_marseille","lat":43.29198,"lon":5.39322,"is_reserved":false,"is_disabled":false,"rental_uris":{"android":"levelo://app?vid=76ca1895-1301-4b7c-9421-3a96987a3153","ios":"levelo://app?vid=76ca1895-1301-4b7c-9421-3a96987a3153"},"vehicle_type_id":"4","last_reported":1746907799,"current_range_meters":9600,"station_id":"ce4bh192rcd13ifvqdd0","pricing_plan_id":"cebpf4jnsgd1na2vs0mg"},{"bike_id":"7b0d4e41-ae4e-4c3d-8709-ddefc68e0cee","system_id":"levelo_inurba_marseille","lat":43.29262,"lon":5.38444,"is_reserved":false,"is_disabled":false,"rental_uris":{"android":"levelo://app?vid=7b0d4e41-ae4e-4c3d-8709-ddefc68e0cee","ios":"levelo://app?vid=7b0d4e41-ae4e-4c3d-8709-ddefc68e0cee"},"vehicle_type_id":"4","last_reported":1746907799,"current_range_meters":9600,"station_id":"ce4bh692rcd13ifvqea0","pricing_plan_id":"cebpf4jnsgd1na2vs0mg"},{"bike_id":"a2d6bb5f-eafb-4f89-87fa-da3629870a05","system_id":"levelo_inurba_marseille","lat":43.29316,"lon":5.37437,"is_reserved":false,"is_disabled":false,"rental_uris":{"android":"levelo://app?vid=a2d6bb5f-eafb-4f89-87fa-da3629870a05","ios":"levelo://app?vid=a2d6bb5f-eafb-4f89-87fa-da3629870a05"},"vehicle_type_id":"4","last_reported":1746907799,"current_range_meters":9600,"station_id":"ce4bgi12rcd13ifvqb70","pricing_plan_id":"cebpf4jnsgd1na2vs0mg"},{"bike_id":"10ee2d0e-ca01-4e83-bbdf-6c08178a202f","system_id":"levelo_inurba_marseille","lat":43.28609,"lon":5.41297,"is_reserved":false,"is_disabled":false,"rental_uris":{"android":"levelo://app?vid=10ee2d0e-ca01-4e83-bbdf-6c08178a202f","ios":"levelo://app?vid=10ee2d0e-ca01-4e83-bbdf-6c08178a202f"},"vehicle_type_id":"4","last_reported":1746907799,"current_range_meters":9600,"station_id":"","pricing_plan_id":"cebpf4jnsgd1na2vs0mg"},{"bike_id":"8c4ec387-81c0-482b-b5d5-d1a206019cbd","system_id":"levelo_inurba_marseille","lat":43.30375,"lon":5.42489,"is_reserved":false,"is_disabled":false,"rental_uris":{"android":"levelo://app?vid=8c4ec387-81c0-482b-b5d5-d1a206019cbd","ios":"levelo://app?vid=8c4ec387-81c0-482b-b5d5-d1a206019cbd"},"vehicle_type_id":"4","last_reported":1746907799,"current_range_meters":9600,"station_id":"ce4bhoh2rcd13ifvqh6g","pricing_plan_id":"cebpf4jnsgd1na2vs0mg"},{"bike_id":"4f06fe77-36d3-4b35-b181-29f8e04116b1","system_id":"levelo_inurba_marseille","lat":43.3073,"lon":5.42444,"is_reserved":false,"is_disabled":false,"rental_uris":{"android":"levelo://app?vid=4f06fe77-36d3-4b35-b181-29f8e04116b1","ios":"levelo://app?vid=4f06fe77-36d3-4b35-b181-29f8e04116b1"},"vehicle_type_id":"4","last_reported":1746907799,"current_range_meters":9600,"station_id":"st_cvj6ca6bvosntc0bfgr0","pricing_plan_id":"cebpf4jnsgd1na2vs0mg"},{"bike_id":"effa2340-0dee-4a47-afc2-2e46006d1f7b","system_id":"levelo_inurba_marseille","lat":43.27951,"lon":5.41048,"is_reserved":false,"is_disabled":false,"rental_uris":{"android":"levelo://app?vid=effa2340-0dee-4a47-afc2-2e46006d1f7b","ios":"levelo://app?vid=effa2340-0dee-4a47-afc2-2e46006d1f7b"},"vehicle_type_id":"4","last_reported":1746907799,"current_range_meters":9600,"station_id":"ce4bhnp2rcd13ifvqh0g","pricing_plan_id":"cebpf4jnsgd1na2vs0mg"},{"bike_id":"d60dc882-9cfc-4a17-b34e-e4732c81cd3f","system_id":"levelo_inurba_marseille","lat":43.30094,"lon":5.39079,"is_reserved":false,"is_disabled":false,"rental_uris":{"android":"levelo://app?vid=d60dc882-9cfc-4a17-b34e-e4732c81cd3f","ios":"levelo://app?vid=d60dc882-9cfc-4a17-b34e-e4732c81cd3f"},"vehicle_type_id":"4","last_reported":1746907799,"current_range_meters":9600,"station_id":"ce4bh192rcd13ifvqdb0","pricing_plan_id":"cebpf4jnsgd1na2vs0mg"},{"bike_id":"9e8bcb96-f184-4785-9d0f-707ec4490feb","system_id":"levelo_inurba_marseille","lat":43.28419,"lon":5.3498,"is_reserved":false,"is_disabled":false,"rental_uris":{"android":"levelo://app?vid=9e8bcb96-f184-4785-9d0f-707ec4490feb","ios":"levelo://app?vid=9e8bcb96-f184-4785-9d0f-707ec4490feb"},"vehicle_type_id":"4","last_reported":1746907799,"current_range_meters":10000,"station_id":"","pricing_plan_id":"cebpf4jnsgd1na2vs0mg"},{"bike_id":"5c125012-517f-42ec-a36f-787c5e3d95fb","system_id":"levelo_inurba_marseille","lat":43.29426,"lon":5.38631,"is_reserved":false,"is_disabled":false,"rental_uris":{"android":"levelo://app?vid=5c125012-517f-42ec-a36f-787c5e3d95fb","ios":"levelo://app?vid=5c125012-517f-42ec-a36f-787c5e3d95fb"},"vehicle_type_id":"4","last_reported":1746907799,"current_range_meters":9600,"station_id":"ce4bh2h2rcd13ifvqdh0","pricing_plan_id":"cebpf4jnsgd1na2vs0mg"},{"bike_id":"97d2ba6f-fb48-47b1-b244-bc53d1a2dd9a","system_id":"levelo_inurba_marseille","lat":43.25861,"lon":5.39893,"is_reserved":false,"is_disabled":false,"rental_uris":{"android":"levelo://app?vid=97d2ba6f-fb48-47b1-b244-bc53d1a2dd9a","ios":"levelo://app?vid=97d2ba6f-fb48-47b1-b244-bc53d1a2dd9a"},"vehicle_type_id":"4","last_reported":1746907799,"current_range_meters":10000,"station_id":"ce4bhl92rcd13ifvqghg","pricing_plan_id":"cebpf4jnsgd1na2vs0mg"},{"bike_id":"ea4c3993-3038-44ac-9bbe-5e0739da0c2d","system_id":"levelo_inurba_marseille","lat":43.30786,"lon":5.37646,"is_reserved":false,"is_disabled":false,"rental_uris":{"android":"levelo://app?vid=ea4c3993-3038-44ac-9bbe-5e0739da0c2d","ios":"levelo://app?vid=ea4c3993-3038-44ac-9bbe-5e0739da0c2d"},"vehicle_type_id":"4","last_reported":1746907799,"current_range_meters":9600,"station_id":"ce4bgv92rcd13ifvqcq0","pricing_plan_id":"cebpf4jnsgd1na2vs0mg"},{"bike_id":"849bca3a-1c29-405d-807b-f4ebb31a1f2a","system_id":"levelo_inurba_marseille","lat":43.30251,"lon":5.38108,"is_reserved":false,"is_disabled":false,"rental_uris":{"android":"levelo://app?vid=849bca3a-1c29-405d-807b-f4ebb31a1f2a","ios":"levelo://app?vid=849bca3a-1c29-405d-807b-f4ebb31a1f2a"},"vehicle_type_id":"4","last_reported":1746907799,"current_range_meters":10000,"station_id":"","pricing_plan_id":"cebpf4jnsgd1na2vs0mg"},{"bike_id":"9dfb4339-222d-43ac-9b9b-ddc720552ccb","system_id":"levelo_inurba_marseille","lat":43.29592,"lon":5.38096,"is_reserved":false,"is_disabled":false,"rental_uris":{"android":"levelo://app?vid=9dfb4339-222d-43ac-9b9b-ddc720552ccb","ios":"levelo://app?vid=9dfb4339-222d-43ac-9b9b-ddc720552ccb"},"vehicle_type_id":"4","last_reported":1746907799,"current_range_meters":9600,"station_id":"ce4bgl12rcd13ifvqbo0","pricing_plan_id":"cebpf4jnsgd1na2vs0mg"},{"bike_id":"351ef218-24e5-4670-825d-fc1ac5cd3c19","system_id":"levelo_inurba_marseille","lat":43.31833,"lon":5.36809,"is_reserved":false,"is_disabled":false,"rental_uris":{"android":"levelo://app?vid=351ef218-24e5-4670-825d-fc1ac5cd3c19","ios":"levelo://app?vid=351ef218-24e5-4670-825d-fc1ac5cd3c19"},"vehicle_type_id":"4","last_reported":1746907799,"current_range_meters":10000,"station_id":"","pricing_plan_id":"cebpf4jnsgd1na2vs0mg"},{"bike_id":"2f6d0f28-ef51-4ad8-8f5f-cf81d01e4703","system_id":"levelo_inurba_marseille","lat":43.29585,"lon":5.375,"is_reserved":false,"is_disabled":false,"rental_uris":{"android":"levelo://app?vid=2f6d0f28-ef51-4ad8-8f5f-cf81d01e4703","ios":"levelo://app?vid=2f6d0f28-ef51-4ad8-8f5f-cf81d01e4703"},"vehicle_type_id":"4","last_reported":1746907799,"current_range_meters":13600,"station_id":"ce4bgh92rcd13ifvqb50","pricing_plan_id":"cebpf4jnsgd1na2vs0mg"},{"bike_id":"e551c910-f279-4345-983b-35636ebdf060","system_id":"levelo_inurba_marseille","lat":43.29097,"lon":5.38148,"is_reserved":false,"is_disabled":false,"rental_uris":{"android":"levelo://app?vid=e551c910-f279-4345-983b-35636ebdf060","ios":"levelo://app?vid=e551c910-f279-4345-983b-35636ebdf060"},"vehicle_type_id":"4","last_reported":1746907799,"current_range_meters":10800,"station_id":"ce4bh512rcd13ifvqe2g","pricing_plan_id":"cebpf4jnsgd1na2vs0mg"},{"bike_id":"d0958304-33d1-4b4f-81f9-03078b9d6ea8","system_id":"levelo_inurba_marseille","lat":43.28062,"lon":5.3695,"is_reserved":false,"is_disabled":false,"rental_uris":{"android":"levelo://app?vid=d0958304-33d1-4b4f-81f9-03078b9d6ea8","ios":"levelo://app?vid=d0958304-33d1-4b4f-81f9-03078b9d6ea8"},"vehicle_type_id":"4","last_reported":1746907799,"current_range_meters":10800,"station_id":"ce4bha12rcd13ifvqef0","pricing_plan_id":"cebpf4jnsgd1na2vs0mg"},{"bike_id":"bda6f32f-a573-478a-8858-f79b3073545f","system_id":"levelo_inurba_marseille","lat":43.27999,"lon":5.41663,"is_reserved":false,"is_disabled":false,"rental_uris":{"android":"levelo://app?vid=bda6f32f-a573-478a-8858-f79b3073545f","ios":"levelo://app?vid=bda6f32f-a573-478a-8858-f79b3073545f"},"vehicle_type_id":"4","last_reported":1746907799,"current_range_meters":10800,"station_id":"ce4bho12rcd13ifvqh1g","pricing_plan_id":"cebpf4jnsgd1na2vs0mg"},{"bike_id":"e6e84bb3-d57e-4698-8ac9-28f5daa18fa3","system_id":"levelo_inurba_marseille","lat":43.29414,"lon":5.38624,"is_reserved":false,"is_disabled":false,"rental_uris":{"android":"levelo://app?vid=e6e84bb3-d57e-4698-8ac9-28f5daa18fa3","ios":"levelo://app?vid=e6e84bb3-d57e-4698-8ac9-28f5daa18fa3"},"vehicle_type_id":"4","last_reported":1746907799,"current_range_meters":10800,"station_id":"ce4bh2h2rcd13ifvqdh0","pricing_plan_id":"cebpf4jnsgd1na2vs0mg"},{"bike_id":"0cc9e69f-6225-4ab0-9b05-5f73ef73c4b1","system_id":"levelo_inurba_marseille","lat":43.2783,"lon":5.39198,"is_reserved":false,"is_disabled":false,"rental_uris":{"android":"levelo://app?vid=0cc9e69f-6225-4ab0-9b05-5f73ef73c4b1","ios":"levelo://app?vid=0cc9e69f-6225-4ab0-9b05-5f73ef73c4b1"},"vehicle_type_id":"4","last_reported":1746907799,"current_range_meters":10800,"station_id":"ce4bhjp2rcd13ifvqga0","pricing_plan_id":"cebpf4jnsgd1na2vs0mg"},{"bike_id":"69b8f1c8-1ee4-4475-aaac-03e2756bdc26","system_id":"levelo_inurba_marseille","lat":43.295235,"lon":5.390295,"is_reserved":false,"is_disabled":false,"rental_uris":{"android":"levelo://app?vid=69b8f1c8-1ee4-4475-aaac-03e2756bdc26","ios":"levelo://app?vid=69b8f1c8-1ee4-4475-aaac-03e2756bdc26"},"vehicle_type_id":"4","last_reported":1746907799,"current_range_meters":10000,"station_id":"ce4bh3p2rcd13ifvqdp0","pricing_plan_id":"cebpf4jnsgd1na2vs0mg"},{"bike_id":"04c1226f-faa4-4a45-b805-4b9bcac57fa8","system_id":"levelo_inurba_marseille","lat":43.29268,"lon":5.39111,"is_reserved":false,"is_disabled":false,"rental_uris":{"android":"levelo://app?vid=04c1226f-faa4-4a45-b805-4b9bcac57fa8","ios":"levelo://app?vid=04c1226f-faa4-4a45-b805-4b9bcac57fa8"},"vehicle_type_id":"4","last_reported":1746907799,"current_range_meters":10800,"station_id":"","pricing_plan_id":"cebpf4jnsgd1na2vs0mg"},{"bike_id":"76eb38bb-f6fa-4460-ae23-f70420b766e9","system_id":"levelo_inurba_marseille","lat":43.25119,"lon":5.40311,"is_reserved":false,"is_disabled":false,"rental_uris":{"android":"levelo://app?vid=76eb38bb-f6fa-4460-ae23-f70420b766e9","ios":"levelo://app?vid=76eb38bb-f6fa-4460-ae23-f70420b766e9"},"vehicle_type_id":"4","last_reported":1746907799,"current_range_meters":11200,"station_id":"ce4bhlh2rcd13ifvqgig","pricing_plan_id":"cebpf4jnsgd1na2vs0mg"},{"bike_id":"cfbbb3b9-8f1e-4255-b683-9a76712cb306","system_id":"levelo_inurba_marseille","lat":43.28846,"lon":5.39303,"is_reserved":false,"is_disabled":false,"rental_uris":{"android":"levelo://app?vid=cfbbb3b9-8f1e-4255-b683-9a76712cb306","ios":"levelo://app?vid=cfbbb3b9-8f1e-4255-b683-9a76712cb306"},"vehicle_type_id":"4","last_reported":1746907799,"current_range_meters":11200,"station_id":"ce4bh2p2rcd13ifvqdi0","pricing_plan_id":"cebpf4jnsgd1na2vs0mg"},{"bike_id":"1b45ebf4-4f92-4720-99c3-372aef9e1934","system_id":"levelo_inurba_marseille","lat":43.2954,"lon":5.38538,"is_reserved":false,"is_disabled":false,"rental_uris":{"android":"levelo://app?vid=1b45ebf4-4f92-4720-99c3-372aef9e1934","ios":"levelo://app?vid=1b45ebf4-4f92-4720-99c3-372aef9e1934"},"vehicle_type_id":"4","last_reported":1746907799,"current_range_meters":11200,"station_id":"ce4bgih2rcd13ifvqba0","pricing_plan_id":"cebpf4jnsgd1na2vs0mg"},{"bike_id":"67a378e1-7e89-41ff-a0bc-e22ce5b10084","system_id":"levelo_inurba_marseille","lat":43.313787,"lon":5.384813,"is_reserved":false,"is_disabled":false,"rental_uris":{"android":"levelo://app?vid=67a378e1-7e89-41ff-a0bc-e22ce5b10084","ios":"levelo://app?vid=67a378e1-7e89-41ff-a0bc-e22ce5b10084"},"vehicle_type_id":"4","last_reported":1746907799,"current_range_meters":11200,"station_id":"ce4bgt92rcd13ifvqcf0","pricing_plan_id":"cebpf4jnsgd1na2vs0mg"},{"bike_id":"82dc608e-54a1-4183-bc19-16f0b4347912","system_id":"levelo_inurba_marseille","lat":43.31357,"lon":5.38494,"is_reserved":false,"is_disabled":false,"rental_uris":{"android":"levelo://app?vid=82dc608e-54a1-4183-bc19-16f0b4347912","ios":"levelo://app?vid=82dc608e-54a1-4183-bc19-16f0b4347912"},"vehicle_type_id":"4","last_reported":1746907799,"current_range_meters":11200,"station_id":"ce4bgt92rcd13ifvqcf0","pricing_plan_id":"cebpf4jnsgd1na2vs0mg"},{"bike_id":"4c02ce1d-6469-43b5-86fc-b5a592eb702f","system_id":"levelo_inurba_marseille","lat":43.29228,"lon":5.39331,"is_reserved":false,"is_disabled":false,"rental_uris":{"android":"levelo://app?vid=4c02ce1d-6469-43b5-86fc-b5a592eb702f","ios":"levelo://app?vid=4c02ce1d-6469-43b5-86fc-b5a592eb702f"},"vehicle_type_id":"4","last_reported":1746907799,"current_range_meters":11600,"station_id":"ce4bh192rcd13ifvqdd0","pricing_plan_id":"cebpf4jnsgd1na2vs0mg"},{"bike_id":"26f0e6e0-3b09-45d3-aa1a-a03b26c442a5","system_id":"levelo_inurba_marseille","lat":43.30314,"lon":5.36896,"is_reserved":false,"is_disabled":false,"rental_uris":{"android":"levelo://app?vid=26f0e6e0-3b09-45d3-aa1a-a03b26c442a5","ios":"levelo://app?vid=26f0e6e0-3b09-45d3-aa1a-a03b26c442a5"},"vehicle_type_id":"4","last_reported":1746907799,"current_range_meters":11600,"station_id":"ce4bgqh2rcd13ifvqc5g","pricing_plan_id":"cebpf4jnsgd1na2vs0mg"},{"bike_id":"7b1a19d4-5ed3-40d5-98f4-94cde2e26552","system_id":"levelo_inurba_marseille","lat":43.290248,"lon":5.386268,"is_reserved":false,"is_disabled":false,"rental_uris":{"android":"levelo://app?vid=7b1a19d4-5ed3-40d5-98f4-94cde2e26552","ios":"levelo://app?vid=7b1a19d4-5ed3-40d5-98f4-94cde2e26552"},"vehicle_type_id":"4","last_reported":1746907799,"current_range_meters":11600,"station_id":"ce4bh4p2rcd13ifvqe0g","pricing_plan_id":"cebpf4jnsgd1na2vs0mg"},{"bike_id":"733004fb-6040-48ee-a055-0030e2dc6ad0","system_id":"levelo_inurba_marseille","lat":43.27171,"lon":5.4099,"is_reserved":false,"is_disabled":false,"rental_uris":{"android":"levelo://app?vid=733004fb-6040-48ee-a055-0030e2dc6ad0","ios":"levelo://app?vid=733004fb-6040-48ee-a055-0030e2dc6ad0"},"vehicle_type_id":"4","last_reported":1746907799,"current_range_meters":12000,"station_id":"ce4bhl12rcd13ifvqgf0","pricing_plan_id":"cebpf4jnsgd1na2vs0mg"},{"bike_id":"0dc52e4a-27c8-46bc-ac74-d0914cdf2355","system_id":"levelo_inurba_marseille","lat":43.280385,"lon":5.36947,"is_reserved":false,"is_disabled":false,"rental_uris":{"android":"levelo://app?vid=0dc52e4a-27c8-46bc-ac74-d0914cdf2355","ios":"levelo://app?vid=0dc52e4a-27c8-46bc-ac74-d0914cdf2355"},"vehicle_type_id":"4","last_reported":1746907799,"current_range_meters":12000,"station_id":"ce4bha12rcd13ifvqef0","pricing_plan_id":"cebpf4jnsgd1na2vs0mg"},{"bike_id":"1d83476a-9395-4e91-90b3-3098d854b2b3","system_id":"levelo_inurba_marseille","lat":43.29259,"lon":5.38434,"is_reserved":false,"is_disabled":true,"rental_uris":{"android":"levelo://app?vid=1d83476a-9395-4e91-90b3-3098d854b2b3","ios":"levelo://app?vid=1d83476a-9395-4e91-90b3-3098d854b2b3"},"vehicle_type_id":"4","last_reported":1746907799,"current_range_meters":12000,"station_id":"ce4bh692rcd13ifvqea0","pricing_plan_id":"cebpf4jnsgd1na2vs0mg"},{"bike_id":"48f7a813-470b-434d-8825-9e00bb9e5657","system_id":"levelo_inurba_marseille","lat":43.28355,"lon":5.38102,"is_reserved":false,"is_disabled":false,"rental_uris":{"android":"levelo://app?vid=48f7a813-470b-434d-8825-9e00bb9e5657","ios":"levelo://app?vid=48f7a813-470b-434d-8825-9e00bb9e5657"},"vehicle_type_id":"4","last_reported":1746907799,"current_range_meters":12000,"station_id":"ce4bh412rcd13ifvqdr0","pricing_plan_id":"cebpf4jnsgd1na2vs0mg"},{"bike_id":"999dc095-015f-4c24-bd5e-a3faddcba911","system_id":"levelo_inurba_marseille","lat":43.31358,"lon":5.38497,"is_reserved":false,"is_disabled":true,"rental_uris":{"android":"levelo://app?vid=999dc095-015f-4c24-bd5e-a3faddcba911","ios":"levelo://app?vid=999dc095-015f-4c24-bd5e-a3faddcba911"},"vehicle_type_id":"4","last_reported":1746907799,"current_range_meters":12400,"station_id":"ce4bgt92rcd13ifvqcf0","pricing_plan_id":"cebpf4jnsgd1na2vs0mg"},{"bike_id":"7c3d1b28-af89-480f-a41f-57549ecf6666","system_id":"levelo_inurba_marseille","lat":43.29444,"lon":5.39759,"is_reserved":false,"is_disabled":false,"rental_uris":{"android":"levelo://app?vid=7c3d1b28-af89-480f-a41f-57549ecf6666","ios":"levelo://app?vid=7c3d1b28-af89-480f-a41f-57549ecf6666"},"vehicle_type_id":"4","last_reported":1746907799,"current_range_meters":12400,"station_id":"ce4bh3h2rcd13ifvqdo0","pricing_plan_id":"cebpf4jnsgd1na2vs0mg"},{"bike_id":"ceabc255-b8db-4e43-8e66-ba0a53e20a03","system_id":"levelo_inurba_marseille","lat":43.29529,"lon":5.38553,"is_reserved":false,"is_disabled":false,"rental_uris":{"android":"levelo://app?vid=ceabc255-b8db-4e43-8e66-ba0a53e20a03","ios":"levelo://app?vid=ceabc255-b8db-4e43-8e66-ba0a53e20a03"},"vehicle_type_id":"4","last_reported":1746907799,"current_range_meters":12400,"station_id":"ce4bgih2rcd13ifvqba0","pricing_plan_id":"cebpf4jnsgd1na2vs0mg"},{"bike_id":"00693c05-49a6-45cf-b898-3aad74c6b26b","system_id":"levelo_inurba_marseille","lat":43.29534,"lon":5.38545,"is_reserved":false,"is_disabled":false,"rental_uris":{"android":"levelo://app?vid=00693c05-49a6-45cf-b898-3aad74c6b26b","ios":"levelo://app?vid=00693c05-49a6-45cf-b898-3aad74c6b26b"},"vehicle_type_id":"4","last_reported":1746907799,"current_range_meters":12400,"station_id":"ce4bgih2rcd13ifvqba0","pricing_plan_id":"cebpf4jnsgd1na2vs0mg"},{"bike_id":"6ef17d4a-3acf-4136-a3aa-30df54bf330a","system_id":"levelo_inurba_marseille","lat":43.30707,"lon":5.36727,"is_reserved":false,"is_disabled":false,"rental_uris":{"android":"levelo://app?vid=6ef17d4a-3acf-4136-a3aa-30df54bf330a","ios":"levelo://app?vid=6ef17d4a-3acf-4136-a3aa-30df54bf330a"},"vehicle_type_id":"4","last_reported":1746907799,"current_range_meters":12400,"station_id":"","pricing_plan_id":"cebpf4jnsgd1na2vs0mg"},{"bike_id":"a4ea0e4d-64b0-45fa-b369-a440009e1bb9","system_id":"levelo_inurba_marseille","lat":43.29095,"lon":5.3816,"is_reserved":false,"is_disabled":false,"rental_uris":{"android":"levelo://app?vid=a4ea0e4d-64b0-45fa-b369-a440009e1bb9","ios":"levelo://app?vid=a4ea0e4d-64b0-45fa-b369-a440009e1bb9"},"vehicle_type_id":"4","last_reported":1746907799,"current_range_meters":12800,"station_id":"ce4bh512rcd13ifvqe2g","pricing_plan_id":"cebpf4jnsgd1na2vs0mg"},{"bike_id":"56fb2cca-a8b1-4b45-9327-212484e03c02","system_id":"levelo_inurba_marseille","lat":43.2991,"lon":5.37474,"is_reserved":false,"is_disabled":false,"rental_uris":{"android":"levelo://app?vid=56fb2cca-a8b1-4b45-9327-212484e03c02","ios":"levelo://app?vid=56fb2cca-a8b1-4b45-9327-212484e03c02"},"vehicle_type_id":"4","last_reported":1746907799,"current_range_meters":12800,"station_id":"ce4bgjh2rcd13ifvqbg0","pricing_plan_id":"cebpf4jnsgd1na2vs0mg"},{"bike_id":"2474e82c-629a-4b4e-ac77-604ceab2f3d3","system_id":"levelo_inurba_marseille","lat":43.31179,"lon":5.38717,"is_reserved":false,"is_disabled":false,"rental_uris":{"android":"levelo://app?vid=2474e82c-629a-4b4e-ac77-604ceab2f3d3","ios":"levelo://app?vid=2474e82c-629a-4b4e-ac77-604ceab2f3d3"},"vehicle_type_id":"4","last_reported":1746907799,"current_range_meters":12800,"station_id":"ce4bgv12rcd13ifvqcp0","pricing_plan_id":"cebpf4jnsgd1na2vs0mg"},{"bike_id":"cf06a58c-6b90-4ee6-b7ff-5b33ec523703","system_id":"levelo_inurba_marseille","lat":43.28592,"lon":5.41279,"is_reserved":false,"is_disabled":false,"rental_uris":{"android":"levelo://app?vid=cf06a58c-6b90-4ee6-b7ff-5b33ec523703","ios":"levelo://app?vid=cf06a58c-6b90-4ee6-b7ff-5b33ec523703"},"vehicle_type_id":"4","last_reported":1746907799,"current_range_meters":12800,"station_id":"","pricing_plan_id":"cebpf4jnsgd1na2vs0mg"},{"bike_id":"e6be88ab-5318-4631-933a-74c69ca8f743","system_id":"levelo_inurba_marseille","lat":43.29264,"lon":5.38448,"is_reserved":false,"is_disabled":false,"rental_uris":{"android":"levelo://app?vid=e6be88ab-5318-4631-933a-74c69ca8f743","ios":"levelo://app?vid=e6be88ab-5318-4631-933a-74c69ca8f743"},"vehicle_type_id":"4","last_reported":1746907799,"current_range_meters":12800,"station_id":"ce4bh692rcd13ifvqea0","pricing_plan_id":"cebpf4jnsgd1na2vs0mg"},{"bike_id":"f4e229fb-82a8-4fce-b096-7565f1baa1e2","system_id":"levelo_inurba_marseille","lat":43.3107,"lon":5.38354,"is_reserved":false,"is_disabled":false,"rental_uris":{"android":"levelo://app?vid=f4e229fb-82a8-4fce-b096-7565f1baa1e2","ios":"levelo://app?vid=f4e229fb-82a8-4fce-b096-7565f1baa1e2"},"vehicle_type_id":"4","last_reported":1746907799,"current_range_meters":12800,"station_id":"ce4bgv92rcd13ifvqcr0","pricing_plan_id":"cebpf4jnsgd1na2vs0mg"},{"bike_id":"5730214d-4f46-4c03-91a2-4a3cb261f72a","system_id":"levelo_inurba_marseille","lat":43.28929,"lon":5.38409,"is_reserved":false,"is_disabled":false,"rental_uris":{"android":"levelo://app?vid=5730214d-4f46-4c03-91a2-4a3cb261f72a","ios":"levelo://app?vid=5730214d-4f46-4c03-91a2-4a3cb261f72a"},"vehicle_type_id":"4","last_reported":1746907799,"current_range_meters":12800,"station_id":"ce4bh612rcd13ifvqe6g","pricing_plan_id":"cebpf4jnsgd1na2vs0mg"},{"bike_id":"fc2577e7-1497-425b-9d4f-ab8d7dc843c6","system_id":"levelo_inurba_marseille","lat":43.33771,"lon":5.37485,"is_reserved":false,"is_disabled":false,"rental_uris":{"android":"levelo://app?vid=fc2577e7-1497-425b-9d4f-ab8d7dc843c6","ios":"levelo://app?vid=fc2577e7-1497-425b-9d4f-ab8d7dc843c6"},"vehicle_type_id":"4","last_reported":1746907799,"current_range_meters":13600,"station_id":"","pricing_plan_id":"cebpf4jnsgd1na2vs0mg"},{"bike_id":"1f604cf9-be0c-4844-9e86-45854f188106","system_id":"levelo_inurba_marseille","lat":43.28663,"lon":5.38665,"is_reserved":false,"is_disabled":false,"rental_uris":{"android":"levelo://app?vid=1f604cf9-be0c-4844-9e86-45854f188106","ios":"levelo://app?vid=1f604cf9-be0c-4844-9e86-45854f188106"},"vehicle_type_id":"4","last_reported":1746907799,"current_range_meters":14000,"station_id":"ce4bh492rcd13ifvqdug","pricing_plan_id":"cebpf4jnsgd1na2vs0mg"},{"bike_id":"f1d0fb5d-400d-4efb-b985-f0e7805c2c06","system_id":"levelo_inurba_marseille","lat":43.29872,"lon":5.39739,"is_reserved":false,"is_disabled":false,"rental_uris":{"android":"levelo://app?vid=f1d0fb5d-400d-4efb-b985-f0e7805c2c06","ios":"levelo://app?vid=f1d0fb5d-400d-4efb-b985-f0e7805c2c06"},"vehicle_type_id":"4","last_reported":1746907799,"current_range_meters":14000,"station_id":"ce4bh0h2rcd13ifvqd50","pricing_plan_id":"cebpf4jnsgd1na2vs0mg"},{"bike_id":"09b56abc-7da4-4022-85af-b07d30b5e98f","system_id":"levelo_inurba_marseille","lat":43.31357,"lon":5.38495,"is_reserved":false,"is_disabled":false,"rental_uris":{"android":"levelo://app?vid=09b56abc-7da4-4022-85af-b07d30b5e98f","ios":"levelo://app?vid=09b56abc-7da4-4022-85af-b07d30b5e98f"},"vehicle_type_id":"4","last_reported":1746907799,"current_range_meters":14000,"station_id":"ce4bgt92rcd13ifvqcf0","pricing_plan_id":"cebpf4jnsgd1na2vs0mg"},{"bike_id":"9a83fb59-da31-4e0d-92d3-185f19609284","system_id":"levelo_inurba_marseille","lat":43.294405,"lon":5.386266,"is_reserved":false,"is_disabled":false,"rental_uris":{"android":"levelo://app?vid=9a83fb59-da31-4e0d-92d3-185f19609284","ios":"levelo://app?vid=9a83fb59-da31-4e0d-92d3-185f19609284"},"vehicle_type_id":"4","last_reported":1746907799,"current_range_meters":14000,"station_id":"ce4bh2h2rcd13ifvqdh0","pricing_plan_id":"cebpf4jnsgd1na2vs0mg"},{"bike_id":"075979de-4a30-43d9-9e11-c9183ef3a80b","system_id":"levelo_inurba_marseille","lat":43.29185,"lon":5.39317,"is_reserved":false,"is_disabled":false,"rental_uris":{"android":"levelo://app?vid=075979de-4a30-43d9-9e11-c9183ef3a80b","ios":"levelo://app?vid=075979de-4a30-43d9-9e11-c9183ef3a80b"},"vehicle_type_id":"4","last_reported":1746907799,"current_range_meters":14000,"station_id":"ce4bh192rcd13ifvqdd0","pricing_plan_id":"cebpf4jnsgd1na2vs0mg"},{"bike_id":"b222ace3-ab88-460b-b1d6-41e908211cad","system_id":"levelo_inurba_marseille","lat":43.21745,"lon":5.34596,"is_reserved":false,"is_disabled":true,"rental_uris":{"android":"levelo://app?vid=b222ace3-ab88-460b-b1d6-41e908211cad","ios":"levelo://app?vid=b222ace3-ab88-460b-b1d6-41e908211cad"},"vehicle_type_id":"4","last_reported":1746907799,"current_range_meters":14400,"station_id":"st_cvj6r9ubvosntc0bgbag","pricing_plan_id":"cebpf4jnsgd1na2vs0mg"},{"bike_id":"1e6a0a9b-a6ea-42cc-a0da-000dfd7b12a9","system_id":"levelo_inurba_marseille","lat":43.27981,"lon":5.41663,"is_reserved":false,"is_disabled":false,"rental_uris":{"android":"levelo://app?vid=1e6a0a9b-a6ea-42cc-a0da-000dfd7b12a9","ios":"levelo://app?vid=1e6a0a9b-a6ea-42cc-a0da-000dfd7b12a9"},"vehicle_type_id":"4","last_reported":1746907799,"current_range_meters":14400,"station_id":"ce4bho12rcd13ifvqh1g","pricing_plan_id":"cebpf4jnsgd1na2vs0mg"},{"bike_id":"380c5e52-d893-4dc2-a7de-15380d47c813","system_id":"levelo_inurba_marseille","lat":43.29451,"lon":5.39751,"is_reserved":false,"is_disabled":false,"rental_uris":{"android":"levelo://app?vid=380c5e52-d893-4dc2-a7de-15380d47c813","ios":"levelo://app?vid=380c5e52-d893-4dc2-a7de-15380d47c813"},"vehicle_type_id":"4","last_reported":1746907799,"current_range_meters":14000,"station_id":"ce4bh3h2rcd13ifvqdo0","pricing_plan_id":"cebpf4jnsgd1na2vs0mg"},{"bike_id":"be68f53e-c170-4eda-9631-1f3f7e04560c","system_id":"levelo_inurba_marseille","lat":43.29416,"lon":5.38627,"is_reserved":false,"is_disabled":false,"rental_uris":{"android":"levelo://app?vid=be68f53e-c170-4eda-9631-1f3f7e04560c","ios":"levelo://app?vid=be68f53e-c170-4eda-9631-1f3f7e04560c"},"vehicle_type_id":"4","last_reported":1746907799,"current_range_meters":14400,"station_id":"ce4bh2h2rcd13ifvqdh0","pricing_plan_id":"cebpf4jnsgd1na2vs0mg"},{"bike_id":"96ea79b2-16a0-4b5d-b5f8-65cc1f5ee5f1","system_id":"levelo_inurba_marseille","lat":43.29554,"lon":5.38526,"is_reserved":false,"is_disabled":false,"rental_uris":{"android":"levelo://app?vid=96ea79b2-16a0-4b5d-b5f8-65cc1f5ee5f1","ios":"levelo://app?vid=96ea79b2-16a0-4b5d-b5f8-65cc1f5ee5f1"},"vehicle_type_id":"4","last_reported":1746907799,"current_range_meters":14400,"station_id":"ce4bgih2rcd13ifvqba0","pricing_plan_id":"cebpf4jnsgd1na2vs0mg"},{"bike_id":"a39c6ff3-b666-448a-b73a-24eff35a774b","system_id":"levelo_inurba_marseille","lat":43.29533,"lon":5.38544,"is_reserved":false,"is_disabled":false,"rental_uris":{"android":"levelo://app?vid=a39c6ff3-b666-448a-b73a-24eff35a774b","ios":"levelo://app?vid=a39c6ff3-b666-448a-b73a-24eff35a774b"},"vehicle_type_id":"4","last_reported":1746907799,"current_range_meters":14400,"station_id":"ce4bgih2rcd13ifvqba0","pricing_plan_id":"cebpf4jnsgd1na2vs0mg"},{"bike_id":"6d705489-d3d5-4e12-a28e-5d7bb8b109f3","system_id":"levelo_inurba_marseille","lat":43.26846,"lon":5.42767,"is_reserved":false,"is_disabled":false,"rental_uris":{"android":"levelo://app?vid=6d705489-d3d5-4e12-a28e-5d7bb8b109f3","ios":"levelo://app?vid=6d705489-d3d5-4e12-a28e-5d7bb8b109f3"},"vehicle_type_id":"4","last_reported":1746907799,"current_range_meters":14800,"station_id":"","pricing_plan_id":"cebpf4jnsgd1na2vs0mg"},{"bike_id":"4de7fe50-aff9-4e5c-8538-47ad67a8d8cb","system_id":"levelo_inurba_marseille","lat":43.27465,"lon":5.39053,"is_reserved":false,"is_disabled":false,"rental_uris":{"android":"levelo://app?vid=4de7fe50-aff9-4e5c-8538-47ad67a8d8cb","ios":"levelo://app?vid=4de7fe50-aff9-4e5c-8538-47ad67a8d8cb"},"vehicle_type_id":"4","last_reported":1746907799,"current_range_meters":14800,"station_id":"","pricing_plan_id":"cebpf4jnsgd1na2vs0mg"},{"bike_id":"68db2cc3-aecf-4dda-abde-7b59ce0b03df","system_id":"levelo_inurba_marseille","lat":43.25829,"lon":5.39432,"is_reserved":false,"is_disabled":false,"rental_uris":{"android":"levelo://app?vid=68db2cc3-aecf-4dda-abde-7b59ce0b03df","ios":"levelo://app?vid=68db2cc3-aecf-4dda-abde-7b59ce0b03df"},"vehicle_type_id":"4","last_reported":1746907799,"current_range_meters":14800,"station_id":"ce4bhip2rcd13ifvqft0","pricing_plan_id":"cebpf4jnsgd1na2vs0mg"},{"bike_id":"b025fd6a-79bf-406c-868e-9db811cc5d86","system_id":"levelo_inurba_marseille","lat":43.2319,"lon":5.35552,"is_reserved":false,"is_disabled":false,"rental_uris":{"android":"levelo://app?vid=b025fd6a-79bf-406c-868e-9db811cc5d86","ios":"levelo://app?vid=b025fd6a-79bf-406c-868e-9db811cc5d86"},"vehicle_type_id":"4","last_reported":1746907799,"current_range_meters":14800,"station_id":"ce4bhu92rcd13ifvqi70","pricing_plan_id":"cebpf4jnsgd1na2vs0mg"},{"bike_id":"7296fb1e-1e1d-4930-ad3f-051dc55094b8","system_id":"levelo_inurba_marseille","lat":43.30241,"lon":5.40061,"is_reserved":false,"is_disabled":false,"rental_uris":{"android":"levelo://app?vid=7296fb1e-1e1d-4930-ad3f-051dc55094b8","ios":"levelo://app?vid=7296fb1e-1e1d-4930-ad3f-051dc55094b8"},"vehicle_type_id":"4","last_reported":1746907799,"current_range_meters":14400,"station_id":"ce4bgvh2rcd13ifvqcs0","pricing_plan_id":"cebpf4jnsgd1na2vs0mg"},{"bike_id":"832ec58b-d299-44b1-bd83-9db6983f07e3","system_id":"levelo_inurba_marseille","lat":43.29031,"lon":5.38642,"is_reserved":false,"is_disabled":false,"rental_uris":{"android":"levelo://app?vid=832ec58b-d299-44b1-bd83-9db6983f07e3","ios":"levelo://app?vid=832ec58b-d299-44b1-bd83-9db6983f07e3"},"vehicle_type_id":"4","last_reported":1746907799,"current_range_meters":14800,"station_id":"","pricing_plan_id":"cebpf4jnsgd1na2vs0mg"},{"bike_id":"39b3afe8-25dd-428a-ab78-509033f6377f","system_id":"levelo_inurba_marseille","lat":43.29548,"lon":5.42292,"is_reserved":false,"is_disabled":false,"rental_uris":{"android":"levelo://app?vid=39b3afe8-25dd-428a-ab78-509033f6377f","ios":"levelo://app?vid=39b3afe8-25dd-428a-ab78-509033f6377f"},"vehicle_type_id":"4","last_reported":1746907799,"current_range_meters":14800,"station_id":"ce4bhph2rcd13ifvqhdg","pricing_plan_id":"cebpf4jnsgd1na2vs0mg"},{"bike_id":"879b7959-78cb-42e7-8379-63e94920567e","system_id":"levelo_inurba_marseille","lat":43.30359,"lon":5.41866,"is_reserved":false,"is_disabled":false,"rental_uris":{"android":"levelo://app?vid=879b7959-78cb-42e7-8379-63e94920567e","ios":"levelo://app?vid=879b7959-78cb-42e7-8379-63e94920567e"},"vehicle_type_id":"4","last_reported":1746907799,"current_range_meters":14400,"station_id":"ce4bhop2rcd13ifvqh7g","pricing_plan_id":"cebpf4jnsgd1na2vs0mg"},{"bike_id":"3dbaedf2-3403-45e2-8a3c-9787af903680","system_id":"levelo_inurba_marseille","lat":43.29422,"lon":5.38634,"is_reserved":false,"is_disabled":false,"rental_uris":{"android":"levelo://app?vid=3dbaedf2-3403-45e2-8a3c-9787af903680","ios":"levelo://app?vid=3dbaedf2-3403-45e2-8a3c-9787af903680"},"vehicle_type_id":"4","last_reported":1746907799,"current_range_meters":14800,"station_id":"ce4bh2h2rcd13ifvqdh0","pricing_plan_id":"cebpf4jnsgd1na2vs0mg"},{"bike_id":"6add2d36-61c6-46c1-a56e-696306c1bd19","system_id":"levelo_inurba_marseille","lat":43.233651,"lon":5.360696,"is_reserved":false,"is_disabled":false,"rental_uris":{"android":"levelo://app?vid=6add2d36-61c6-46c1-a56e-696306c1bd19","ios":"levelo://app?vid=6add2d36-61c6-46c1-a56e-696306c1bd19"},"vehicle_type_id":"4","last_reported":1746907799,"current_range_meters":14800,"station_id":"","pricing_plan_id":"cebpf4jnsgd1na2vs0mg"},{"bike_id":"a1121b36-b5cd-4dda-96ef-13a3dfaa55e1","system_id":"levelo_inurba_marseille","lat":43.301401,"lon":5.387791,"is_reserved":false,"is_disabled":false,"rental_uris":{"android":"levelo://app?vid=a1121b36-b5cd-4dda-96ef-13a3dfaa55e1","ios":"levelo://app?vid=a1121b36-b5cd-4dda-96ef-13a3dfaa55e1"},"vehicle_type_id":"4","last_reported":1746907799,"current_range_meters":15200,"station_id":"","pricing_plan_id":"cebpf4jnsgd1na2vs0mg"},{"bike_id":"4dc0641a-f43f-4447-a214-3d2ea3d5b066","system_id":"levelo_inurba_marseille","lat":43.29969,"lon":5.3717,"is_reserved":false,"is_disabled":false,"rental_uris":{"android":"levelo://app?vid=4dc0641a-f43f-4447-a214-3d2ea3d5b066","ios":"levelo://app?vid=4dc0641a-f43f-4447-a214-3d2ea3d5b066"},"vehicle_type_id":"4","last_reported":1746907799,"current_range_meters":15200,"station_id":"ce4bgr92rcd13ifvqc7g","pricing_plan_id":"cebpf4jnsgd1na2vs0mg"},{"bike_id":"f887178a-0361-49d5-9818-3606b0630cef","system_id":"levelo_inurba_marseille","lat":43.31326,"lon":5.39692,"is_reserved":false,"is_disabled":false,"rental_uris":{"android":"levelo://app?vid=f887178a-0361-49d5-9818-3606b0630cef","ios":"levelo://app?vid=f887178a-0361-49d5-9818-3606b0630cef"},"vehicle_type_id":"4","last_reported":1746907799,"current_range_meters":15200,"station_id":"ce4bgvp2rcd13ifvqcu0","pricing_plan_id":"cebpf4jnsgd1na2vs0mg"},{"bike_id":"e2434f42-8ebb-4eed-a218-d21bf35b3735","system_id":"levelo_inurba_marseille","lat":43.2979,"lon":5.38113,"is_reserved":false,"is_disabled":true,"rental_uris":{"android":"levelo://app?vid=e2434f42-8ebb-4eed-a218-d21bf35b3735","ios":"levelo://app?vid=e2434f42-8ebb-4eed-a218-d21bf35b3735"},"vehicle_type_id":"4","last_reported":1746907799,"current_range_meters":16000,"station_id":"ce4bgip2rcd13ifvqbb0","pricing_plan_id":"cebpf4jnsgd1na2vs0mg"},{"bike_id":"6663a384-abed-48bd-861f-d563c5fcecd4","system_id":"levelo_inurba_marseille","lat":43.284151,"lon":5.350076,"is_reserved":false,"is_disabled":true,"rental_uris":{"android":"levelo://app?vid=6663a384-abed-48bd-861f-d563c5fcecd4","ios":"levelo://app?vid=6663a384-abed-48bd-861f-d563c5fcecd4"},"vehicle_type_id":"4","last_reported":1746907799,"current_range_meters":16000,"station_id":"ce4bhbh2rcd13ifvqepg","pricing_plan_id":"cebpf4jnsgd1na2vs0mg"},{"bike_id":"6287b388-2224-4c72-ad0b-aa276bf12f11","system_id":"levelo_inurba_marseille","lat":43.27173,"lon":5.40991,"is_reserved":false,"is_disabled":false,"rental_uris":{"android":"levelo://app?vid=6287b388-2224-4c72-ad0b-aa276bf12f11","ios":"levelo://app?vid=6287b388-2224-4c72-ad0b-aa276bf12f11"},"vehicle_type_id":"4","last_reported":1746907799,"current_range_meters":16000,"station_id":"ce4bhl12rcd13ifvqgf0","pricing_plan_id":"cebpf4jnsgd1na2vs0mg"},{"bike_id":"2dbdf915-d2fb-4c36-8994-b53e3db07015","system_id":"levelo_inurba_marseille","lat":43.21748,"lon":5.3462,"is_reserved":false,"is_disabled":true,"rental_uris":{"android":"levelo://app?vid=2dbdf915-d2fb-4c36-8994-b53e3db07015","ios":"levelo://app?vid=2dbdf915-d2fb-4c36-8994-b53e3db07015"},"vehicle_type_id":"4","last_reported":1746907799,"current_range_meters":16000,"station_id":"st_cvj6r9ubvosntc0bgbag","pricing_plan_id":"cebpf4jnsgd1na2vs0mg"},{"bike_id":"d9e56a99-77c6-4796-b062-b37be50b8d0d","system_id":"levelo_inurba_marseille","lat":43.27999,"lon":5.40019,"is_reserved":false,"is_disabled":false,"rental_uris":{"android":"levelo://app?vid=d9e56a99-77c6-4796-b062-b37be50b8d0d","ios":"levelo://app?vid=d9e56a99-77c6-4796-b062-b37be50b8d0d"},"vehicle_type_id":"4","last_reported":1746907799,"current_range_meters":16000,"station_id":"ce4bho92rcd13ifvqh4g","pricing_plan_id":"cebpf4jnsgd1na2vs0mg"},{"bike_id":"cb83ee90-3be1-421f-98c0-eca621f2a448","system_id":"levelo_inurba_marseille","lat":43.29257,"lon":5.40905,"is_reserved":false,"is_disabled":false,"rental_uris":{"android":"levelo://app?vid=cb83ee90-3be1-421f-98c0-eca621f2a448","ios":"levelo://app?vid=cb83ee90-3be1-421f-98c0-eca621f2a448"},"vehicle_type_id":"4","last_reported":1746907799,"current_range_meters":16000,"station_id":"ce4bh192rcd13ifvqdc0","pricing_plan_id":"cebpf4jnsgd1na2vs0mg"},{"bike_id":"78bdd65d-acd5-4212-b9ce-1f713fbfe66f","system_id":"levelo_inurba_marseille","lat":43.21184,"lon":5.35077,"is_reserved":false,"is_disabled":true,"rental_uris":{"android":"levelo://app?vid=78bdd65d-acd5-4212-b9ce-1f713fbfe66f","ios":"levelo://app?vid=78bdd65d-acd5-4212-b9ce-1f713fbfe66f"},"vehicle_type_id":"4","last_reported":1746907799,"current_range_meters":16000,"station_id":"st_cvj6sg6p6f1abm77japg","pricing_plan_id":"cebpf4jnsgd1na2vs0mg"},{"bike_id":"d83b7170-8eed-47c1-b0ec-1140d3a45dea","system_id":"levelo_inurba_marseille","lat":43.30827,"lon":5.43512,"is_reserved":false,"is_disabled":false,"rental_uris":{"android":"levelo://app?vid=d83b7170-8eed-47c1-b0ec-1140d3a45dea","ios":"levelo://app?vid=d83b7170-8eed-47c1-b0ec-1140d3a45dea"},"vehicle_type_id":"4","last_reported":1746907799,"current_range_meters":16000,"station_id":"ce4bhph2rcd13ifvqheg","pricing_plan_id":"cebpf4jnsgd1na2vs0mg"},{"bike_id":"30977f23-f1f6-4c4e-a317-e649cc3b240b","system_id":"levelo_inurba_marseille","lat":43.2733,"lon":5.3912,"is_reserved":false,"is_disabled":false,"rental_uris":{"android":"levelo://app?vid=30977f23-f1f6-4c4e-a317-e649cc3b240b","ios":"levelo://app?vid=30977f23-f1f6-4c4e-a317-e649cc3b240b"},"vehicle_type_id":"4","last_reported":1746907799,"current_range_meters":16400,"station_id":"ce4bhgp2rcd13ifvqfe0","pricing_plan_id":"cebpf4jnsgd1na2vs0mg"},{"bike_id":"2c7003c2-7e5f-4ad8-b333-67f775b40a86","system_id":"levelo_inurba_marseille","lat":43.246568,"lon":5.381695,"is_reserved":false,"is_disabled":false,"rental_uris":{"android":"levelo://app?vid=2c7003c2-7e5f-4ad8-b333-67f775b40a86","ios":"levelo://app?vid=2c7003c2-7e5f-4ad8-b333-67f775b40a86"},"vehicle_type_id":"4","last_reported":1746907799,"current_range_meters":16400,"station_id":"ce4bhih2rcd13ifvqfr0","pricing_plan_id":"cebpf4jnsgd1na2vs0mg"},{"bike_id":"deae26ae-24a0-4ed2-8779-ec4eaa519ae4","system_id":"levelo_inurba_marseille","lat":43.28477,"lon":5.38421,"is_reserved":false,"is_disabled":false,"rental_uris":{"android":"levelo://app?vid=deae26ae-24a0-4ed2-8779-ec4eaa519ae4","ios":"levelo://app?vid=deae26ae-24a0-4ed2-8779-ec4eaa519ae4"},"vehicle_type_id":"4","last_reported":1746907799,"current_range_meters":16400,"station_id":"ce4bh512rcd13ifvqe3g","pricing_plan_id":"cebpf4jnsgd1na2vs0mg"},{"bike_id":"13b0ccc3-423d-43b4-87ae-0d6ebc4ae8a4","system_id":"levelo_inurba_marseille","lat":43.28944,"lon":5.38391,"is_reserved":false,"is_disabled":false,"rental_uris":{"android":"levelo://app?vid=13b0ccc3-423d-43b4-87ae-0d6ebc4ae8a4","ios":"levelo://app?vid=13b0ccc3-423d-43b4-87ae-0d6ebc4ae8a4"},"vehicle_type_id":"4","last_reported":1746907799,"current_range_meters":16400,"station_id":"ce4bh612rcd13ifvqe6g","pricing_plan_id":"cebpf4jnsgd1na2vs0mg"},{"bike_id":"f5ca684c-953b-4dab-aeec-7beb4111c8e3","system_id":"levelo_inurba_marseille","lat":43.29417,"lon":5.38633,"is_reserved":false,"is_disabled":false,"rental_uris":{"android":"levelo://app?vid=f5ca684c-953b-4dab-aeec-7beb4111c8e3","ios":"levelo://app?vid=f5ca684c-953b-4dab-aeec-7beb4111c8e3"},"vehicle_type_id":"4","last_reported":1746907799,"current_range_meters":16400,"station_id":"ce4bh2h2rcd13ifvqdh0","pricing_plan_id":"cebpf4jnsgd1na2vs0mg"},{"bike_id":"414912d1-c40b-4b57-8860-d1b418c7cd47","system_id":"levelo_inurba_marseille","lat":43.28943,"lon":5.38397,"is_reserved":false,"is_disabled":false,"rental_uris":{"android":"levelo://app?vid=414912d1-c40b-4b57-8860-d1b418c7cd47","ios":"levelo://app?vid=414912d1-c40b-4b57-8860-d1b418c7cd47"},"vehicle_type_id":"4","last_reported":1746907799,"current_range_meters":16400,"station_id":"ce4bh612rcd13ifvqe6g","pricing_plan_id":"cebpf4jnsgd1na2vs0mg"},{"bike_id":"2e2a6b7e-46b2-4616-bd49-09d1ae249f84","system_id":"levelo_inurba_marseille","lat":43.29895,"lon":5.37224,"is_reserved":false,"is_disabled":false,"rental_uris":{"android":"levelo://app?vid=2e2a6b7e-46b2-4616-bd49-09d1ae249f84","ios":"levelo://app?vid=2e2a6b7e-46b2-4616-bd49-09d1ae249f84"},"vehicle_type_id":"4","last_reported":1746907799,"current_range_meters":16800,"station_id":"","pricing_plan_id":"cebpf4jnsgd1na2vs0mg"},{"bike_id":"190cd315-7e08-451e-bdbd-0ff6a448e967","system_id":"levelo_inurba_marseille","lat":43.23054,"lon":5.35493,"is_reserved":false,"is_disabled":false,"rental_uris":{"android":"levelo://app?vid=190cd315-7e08-451e-bdbd-0ff6a448e967","ios":"levelo://app?vid=190cd315-7e08-451e-bdbd-0ff6a448e967"},"vehicle_type_id":"4","last_reported":1746907799,"current_range_meters":16400,"station_id":"cpo3342slgdg3j2ifvpg","pricing_plan_id":"cebpf4jnsgd1na2vs0mg"},{"bike_id":"1931de6f-8332-4335-ac71-56e8f920f475","system_id":"levelo_inurba_marseille","lat":43.29264,"lon":5.38441,"is_reserved":false,"is_disabled":false,"rental_uris":{"android":"levelo://app?vid=1931de6f-8332-4335-ac71-56e8f920f475","ios":"levelo://app?vid=1931de6f-8332-4335-ac71-56e8f920f475"},"vehicle_type_id":"4","last_reported":1746907799,"current_range_meters":16400,"station_id":"ce4bh692rcd13ifvqea0","pricing_plan_id":"cebpf4jnsgd1na2vs0mg"},{"bike_id":"aedf6010-b688-4817-9327-68b401cb1f49","system_id":"levelo_inurba_marseille","lat":43.23193,"lon":5.39986,"is_reserved":false,"is_disabled":false,"rental_uris":{"android":"levelo://app?vid=aedf6010-b688-4817-9327-68b401cb1f49","ios":"levelo://app?vid=aedf6010-b688-4817-9327-68b401cb1f49"},"vehicle_type_id":"4","last_reported":1746907799,"current_range_meters":16400,"station_id":"ce4bhn12rcd13ifvqgqg","pricing_plan_id":"cebpf4jnsgd1na2vs0mg"},{"bike_id":"13fa2dba-5a58-4588-b4a1-7956487d21f6","system_id":"levelo_inurba_marseille","lat":43.32255,"lon":5.36759,"is_reserved":false,"is_disabled":false,"rental_uris":{"android":"levelo://app?vid=13fa2dba-5a58-4588-b4a1-7956487d21f6","ios":"levelo://app?vid=13fa2dba-5a58-4588-b4a1-7956487d21f6"},"vehicle_type_id":"4","last_reported":1746907799,"current_range_meters":16400,"station_id":"","pricing_plan_id":"cebpf4jnsgd1na2vs0mg"},{"bike_id":"14d693c5-ecb3-4074-a67c-588bec49507c","system_id":"levelo_inurba_marseille","lat":43.29072,"lon":5.38158,"is_reserved":false,"is_disabled":false,"rental_uris":{"android":"levelo://app?vid=14d693c5-ecb3-4074-a67c-588bec49507c","ios":"levelo://app?vid=14d693c5-ecb3-4074-a67c-588bec49507c"},"vehicle_type_id":"4","last_reported":1746907799,"current_range_meters":16800,"station_id":"ce4bh512rcd13ifvqe2g","pricing_plan_id":"cebpf4jnsgd1na2vs0mg"},{"bike_id":"21568e96-7644-401b-bdb9-45c0800a88c4","system_id":"levelo_inurba_marseille","lat":43.3079,"lon":5.43534,"is_reserved":false,"is_disabled":false,"rental_uris":{"android":"levelo://app?vid=21568e96-7644-401b-bdb9-45c0800a88c4","ios":"levelo://app?vid=21568e96-7644-401b-bdb9-45c0800a88c4"},"vehicle_type_id":"4","last_reported":1746907799,"current_range_meters":16800,"station_id":"ce4bhph2rcd13ifvqheg","pricing_plan_id":"cebpf4jnsgd1na2vs0mg"},{"bike_id":"bbffef6d-0200-41dd-b9dd-3f70eac97712","system_id":"levelo_inurba_marseille","lat":43.30945,"lon":5.39038,"is_reserved":false,"is_disabled":false,"rental_uris":{"android":"levelo://app?vid=bbffef6d-0200-41dd-b9dd-3f70eac97712","ios":"levelo://app?vid=bbffef6d-0200-41dd-b9dd-3f70eac97712"},"vehicle_type_id":"4","last_reported":1746907799,"current_range_meters":16400,"station_id":"ce4bgup2rcd13ifvqco0","pricing_plan_id":"cebpf4jnsgd1na2vs0mg"},{"bike_id":"7f4d5b6c-651a-4f89-b91f-abf16983ec8c","system_id":"levelo_inurba_marseille","lat":43.29712,"lon":5.36593,"is_reserved":false,"is_disabled":false,"rental_uris":{"android":"levelo://app?vid=7f4d5b6c-651a-4f89-b91f-abf16983ec8c","ios":"levelo://app?vid=7f4d5b6c-651a-4f89-b91f-abf16983ec8c"},"vehicle_type_id":"4","last_reported":1746907799,"current_range_meters":16800,"station_id":"ce4bgn12rcd13ifvqbt0","pricing_plan_id":"cebpf4jnsgd1na2vs0mg"},{"bike_id":"ca443fb5-188f-47e2-bf73-e29a43f89558","system_id":"levelo_inurba_marseille","lat":43.31889,"lon":5.40727,"is_reserved":false,"is_disabled":false,"rental_uris":{"android":"levelo://app?vid=ca443fb5-188f-47e2-bf73-e29a43f89558","ios":"levelo://app?vid=ca443fb5-188f-47e2-bf73-e29a43f89558"},"vehicle_type_id":"4","last_reported":1746907799,"current_range_meters":16400,"station_id":"ce4bhq12rcd13ifvqhig","pricing_plan_id":"cebpf4jnsgd1na2vs0mg"},{"bike_id":"defacece-ff27-4702-912d-3a52db62774a","system_id":"levelo_inurba_marseille","lat":43.2971,"lon":5.37702,"is_reserved":false,"is_disabled":false,"rental_uris":{"android":"levelo://app?vid=defacece-ff27-4702-912d-3a52db62774a","ios":"levelo://app?vid=defacece-ff27-4702-912d-3a52db62774a"},"vehicle_type_id":"4","last_reported":1746907799,"current_range_meters":16800,"station_id":"ce4bgkh2rcd13ifvqbl0","pricing_plan_id":"cebpf4jnsgd1na2vs0mg"},{"bike_id":"3d57b766-d342-4680-b3d2-73bb782a19be","system_id":"levelo_inurba_marseille","lat":43.26498,"lon":5.39549,"is_reserved":false,"is_disabled":false,"rental_uris":{"android":"levelo://app?vid=3d57b766-d342-4680-b3d2-73bb782a19be","ios":"levelo://app?vid=3d57b766-d342-4680-b3d2-73bb782a19be"},"vehicle_type_id":"4","last_reported":1746907799,"current_range_meters":16800,"station_id":"ce4bhi12rcd13ifvqfq0","pricing_plan_id":"cebpf4jnsgd1na2vs0mg"},{"bike_id":"18ab99fe-0f7f-4778-aa8b-3dcc6bbfe71b","system_id":"levelo_inurba_marseille","lat":43.23193,"lon":5.3998,"is_reserved":false,"is_disabled":false,"rental_uris":{"android":"levelo://app?vid=18ab99fe-0f7f-4778-aa8b-3dcc6bbfe71b","ios":"levelo://app?vid=18ab99fe-0f7f-4778-aa8b-3dcc6bbfe71b"},"vehicle_type_id":"4","last_reported":1746907799,"current_range_meters":16400,"station_id":"ce4bhn12rcd13ifvqgqg","pricing_plan_id":"cebpf4jnsgd1na2vs0mg"},{"bike_id":"f7387fde-a7d5-45ec-9b02-4766c798d384","system_id":"levelo_inurba_marseille","lat":43.29419,"lon":5.38628,"is_reserved":false,"is_disabled":false,"rental_uris":{"android":"levelo://app?vid=f7387fde-a7d5-45ec-9b02-4766c798d384","ios":"levelo://app?vid=f7387fde-a7d5-45ec-9b02-4766c798d384"},"vehicle_type_id":"4","last_reported":1746907799,"current_range_meters":17200,"station_id":"ce4bh2h2rcd13ifvqdh0","pricing_plan_id":"cebpf4jnsgd1na2vs0mg"},{"bike_id":"b6d8ded0-373b-4884-90d0-8d19964c3594","system_id":"levelo_inurba_marseille","lat":43.2903,"lon":5.35926,"is_reserved":false,"is_disabled":false,"rental_uris":{"android":"levelo://app?vid=b6d8ded0-373b-4884-90d0-8d19964c3594","ios":"levelo://app?vid=b6d8ded0-373b-4884-90d0-8d19964c3594"},"vehicle_type_id":"4","last_reported":1746907799,"current_range_meters":17200,"station_id":"ce4bha92rcd13ifvqeg0","pricing_plan_id":"cebpf4jnsgd1na2vs0mg"},{"bike_id":"b4ec15c7-8323-46db-8005-a9a94a643a4a","system_id":"levelo_inurba_marseille","lat":43.26495,"lon":5.39533,"is_reserved":false,"is_disabled":false,"rental_uris":{"android":"levelo://app?vid=b4ec15c7-8323-46db-8005-a9a94a643a4a","ios":"levelo://app?vid=b4ec15c7-8323-46db-8005-a9a94a643a4a"},"vehicle_type_id":"4","last_reported":1746907799,"current_range_meters":17200,"station_id":"ce4bhi12rcd13ifvqfq0","pricing_plan_id":"cebpf4jnsgd1na2vs0mg"},{"bike_id":"eabf14a0-7bd3-4e89-8bac-05906d0f4b2c","system_id":"levelo_inurba_marseille","lat":43.27972,"lon":5.38725,"is_reserved":false,"is_disabled":true,"rental_uris":{"android":"levelo://app?vid=eabf14a0-7bd3-4e89-8bac-05906d0f4b2c","ios":"levelo://app?vid=eabf14a0-7bd3-4e89-8bac-05906d0f4b2c"},"vehicle_type_id":"4","last_reported":1746907799,"current_range_meters":17200,"station_id":"ce4bhg12rcd13ifvqf80","pricing_plan_id":"cebpf4jnsgd1na2vs0mg"},{"bike_id":"f5908f57-88c8-4783-8f21-eeeae77b06f2","system_id":"levelo_inurba_marseille","lat":43.30357,"lon":5.39296,"is_reserved":false,"is_disabled":false,"rental_uris":{"android":"levelo://app?vid=f5908f57-88c8-4783-8f21-eeeae77b06f2","ios":"levelo://app?vid=f5908f57-88c8-4783-8f21-eeeae77b06f2"},"vehicle_type_id":"4","last_reported":1746907799,"current_range_meters":17200,"station_id":"ce4bgkh2rcd13ifvqbk0","pricing_plan_id":"cebpf4jnsgd1na2vs0mg"},{"bike_id":"555e06ff-fb18-49e1-a7d9-2cdad7bf0c5a","system_id":"levelo_inurba_marseille","lat":43.27346,"lon":5.39076,"is_reserved":false,"is_disabled":false,"rental_uris":{"android":"levelo://app?vid=555e06ff-fb18-49e1-a7d9-2cdad7bf0c5a","ios":"levelo://app?vid=555e06ff-fb18-49e1-a7d9-2cdad7bf0c5a"},"vehicle_type_id":"4","last_reported":1746907799,"current_range_meters":17600,"station_id":"ce4bhgp2rcd13ifvqfe0","pricing_plan_id":"cebpf4jnsgd1na2vs0mg"},{"bike_id":"a8df8823-c5b7-4a34-8664-161f44187ec5","system_id":"levelo_inurba_marseille","lat":43.30925,"lon":5.40147,"is_reserved":false,"is_disabled":false,"rental_uris":{"android":"levelo://app?vid=a8df8823-c5b7-4a34-8664-161f44187ec5","ios":"levelo://app?vid=a8df8823-c5b7-4a34-8664-161f44187ec5"},"vehicle_type_id":"4","last_reported":1746907799,"current_range_meters":17600,"station_id":"ce4bgvp2rcd13ifvqct0","pricing_plan_id":"cebpf4jnsgd1na2vs0mg"},{"bike_id":"cbaf1a79-5405-4036-9f76-593729ecff69","system_id":"levelo_inurba_marseille","lat":43.26783,"lon":5.39414,"is_reserved":false,"is_disabled":false,"rental_uris":{"android":"levelo://app?vid=cbaf1a79-5405-4036-9f76-593729ecff69","ios":"levelo://app?vid=cbaf1a79-5405-4036-9f76-593729ecff69"},"vehicle_type_id":"4","last_reported":1746907799,"current_range_meters":17600,"station_id":"ce4bhh12rcd13ifvqfg0","pricing_plan_id":"cebpf4jnsgd1na2vs0mg"},{"bike_id":"8981df74-b767-47c2-b9be-ab9fe1464fd8","system_id":"levelo_inurba_marseille","lat":43.30947,"lon":5.3903,"is_reserved":false,"is_disabled":false,"rental_uris":{"android":"levelo://app?vid=8981df74-b767-47c2-b9be-ab9fe1464fd8","ios":"levelo://app?vid=8981df74-b767-47c2-b9be-ab9fe1464fd8"},"vehicle_type_id":"4","last_reported":1746907799,"current_range_meters":17600,"station_id":"ce4bgup2rcd13ifvqco0","pricing_plan_id":"cebpf4jnsgd1na2vs0mg"},{"bike_id":"cc62d2da-5a20-4806-9c3f-389790a326f5","system_id":"levelo_inurba_marseille","lat":43.243977,"lon":5.37056,"is_reserved":false,"is_disabled":true,"rental_uris":{"android":"levelo://app?vid=cc62d2da-5a20-4806-9c3f-389790a326f5","ios":"levelo://app?vid=cc62d2da-5a20-4806-9c3f-389790a326f5"},"vehicle_type_id":"4","last_reported":1746907799,"current_range_meters":17600,"station_id":"ce4bhhh2rcd13ifvqfk0","pricing_plan_id":"cebpf4jnsgd1na2vs0mg"},{"bike_id":"29bcc0a3-f441-4905-b817-702918cd7f8e","system_id":"levelo_inurba_marseille","lat":43.28268,"lon":5.36153,"is_reserved":false,"is_disabled":false,"rental_uris":{"android":"levelo://app?vid=29bcc0a3-f441-4905-b817-702918cd7f8e","ios":"levelo://app?vid=29bcc0a3-f441-4905-b817-702918cd7f8e"},"vehicle_type_id":"4","last_reported":1746907799,"current_range_meters":17600,"station_id":"","pricing_plan_id":"cebpf4jnsgd1na2vs0mg"},{"bike_id":"6c14804d-e9d1-49c6-bf59-01a6e0300dce","system_id":"levelo_inurba_marseille","lat":43.2756,"lon":5.38418,"is_reserved":false,"is_disabled":false,"rental_uris":{"android":"levelo://app?vid=6c14804d-e9d1-49c6-bf59-01a6e0300dce","ios":"levelo://app?vid=6c14804d-e9d1-49c6-bf59-01a6e0300dce"},"vehicle_type_id":"4","last_reported":1746907799,"current_range_meters":17200,"station_id":"ce4bhh92rcd13ifvqfi0","pricing_plan_id":"cebpf4jnsgd1na2vs0mg"},{"bike_id":"f52c819d-ca4b-4640-b458-b877db1bf990","system_id":"levelo_inurba_marseille","lat":43.29859,"lon":5.40992,"is_reserved":false,"is_disabled":false,"rental_uris":{"android":"levelo://app?vid=f52c819d-ca4b-4640-b458-b877db1bf990","ios":"levelo://app?vid=f52c819d-ca4b-4640-b458-b877db1bf990"},"vehicle_type_id":"4","last_reported":1746907799,"current_range_meters":18000,"station_id":"","pricing_plan_id":"cebpf4jnsgd1na2vs0mg"},{"bike_id":"3a3a5a55-e9a4-4f49-a47c-53485b9831fe","system_id":"levelo_inurba_marseille","lat":43.3073,"lon":5.42433,"is_reserved":false,"is_disabled":false,"rental_uris":{"android":"levelo://app?vid=3a3a5a55-e9a4-4f49-a47c-53485b9831fe","ios":"levelo://app?vid=3a3a5a55-e9a4-4f49-a47c-53485b9831fe"},"vehicle_type_id":"4","last_reported":1746907799,"current_range_meters":18000,"station_id":"st_cvj6ca6bvosntc0bfgr0","pricing_plan_id":"cebpf4jnsgd1na2vs0mg"},{"bike_id":"96eb9d2c-8ecb-4cbf-afcc-1dcf04599344","system_id":"levelo_inurba_marseille","lat":43.2799,"lon":5.40012,"is_reserved":false,"is_disabled":false,"rental_uris":{"android":"levelo://app?vid=96eb9d2c-8ecb-4cbf-afcc-1dcf04599344","ios":"levelo://app?vid=96eb9d2c-8ecb-4cbf-afcc-1dcf04599344"},"vehicle_type_id":"4","last_reported":1746907799,"current_range_meters":18000,"station_id":"ce4bho92rcd13ifvqh4g","pricing_plan_id":"cebpf4jnsgd1na2vs0mg"},{"bike_id":"79d0102b-7ed4-463e-8ffb-1f9e7d4ca734","system_id":"levelo_inurba_marseille","lat":43.26803,"lon":5.40265,"is_reserved":false,"is_disabled":false,"rental_uris":{"android":"levelo://app?vid=79d0102b-7ed4-463e-8ffb-1f9e7d4ca734","ios":"levelo://app?vid=79d0102b-7ed4-463e-8ffb-1f9e7d4ca734"},"vehicle_type_id":"4","last_reported":1746907799,"current_range_meters":18000,"station_id":"ce501612rcd8frsf0b60","pricing_plan_id":"cebpf4jnsgd1na2vs0mg"},{"bike_id":"37152e47-b764-4818-9536-cb15f6beaf4c","system_id":"levelo_inurba_marseille","lat":43.25815,"lon":5.39439,"is_reserved":false,"is_disabled":false,"rental_uris":{"android":"levelo://app?vid=37152e47-b764-4818-9536-cb15f6beaf4c","ios":"levelo://app?vid=37152e47-b764-4818-9536-cb15f6beaf4c"},"vehicle_type_id":"4","last_reported":1746907799,"current_range_meters":18000,"station_id":"ce4bhip2rcd13ifvqft0","pricing_plan_id":"cebpf4jnsgd1na2vs0mg"},{"bike_id":"3bacbf6b-f09c-4233-a5b1-859d2ae4bee3","system_id":"levelo_inurba_marseille","lat":43.29262,"lon":5.3845,"is_reserved":false,"is_disabled":false,"rental_uris":{"android":"levelo://app?vid=3bacbf6b-f09c-4233-a5b1-859d2ae4bee3","ios":"levelo://app?vid=3bacbf6b-f09c-4233-a5b1-859d2ae4bee3"},"vehicle_type_id":"4","last_reported":1746907799,"current_range_meters":18000,"station_id":"ce4bh692rcd13ifvqea0","pricing_plan_id":"cebpf4jnsgd1na2vs0mg"},{"bike_id":"3fb35412-1921-4ca0-bd11-8ee9421b6672","system_id":"levelo_inurba_marseille","lat":43.29168,"lon":5.37151,"is_reserved":false,"is_disabled":false,"rental_uris":{"android":"levelo://app?vid=3fb35412-1921-4ca0-bd11-8ee9421b6672","ios":"levelo://app?vid=3fb35412-1921-4ca0-bd11-8ee9421b6672"},"vehicle_type_id":"4","last_reported":1746907799,"current_range_meters":17600,"station_id":"ce4bha92rcd13ifvqeh0","pricing_plan_id":"cebpf4jnsgd1na2vs0mg"},{"bike_id":"036a3b4c-6c1f-4a43-af15-989e37d0370f","system_id":"levelo_inurba_marseille","lat":43.29258,"lon":5.38442,"is_reserved":false,"is_disabled":false,"rental_uris":{"android":"levelo://app?vid=036a3b4c-6c1f-4a43-af15-989e37d0370f","ios":"levelo://app?vid=036a3b4c-6c1f-4a43-af15-989e37d0370f"},"vehicle_type_id":"4","last_reported":1746907799,"current_range_meters":18000,"station_id":"ce4bh692rcd13ifvqea0","pricing_plan_id":"cebpf4jnsgd1na2vs0mg"},{"bike_id":"857594cc-b000-4239-813b-df7792ca7692","system_id":"levelo_inurba_marseille","lat":43.27055,"lon":5.40263,"is_reserved":false,"is_disabled":false,"rental_uris":{"android":"levelo://app?vid=857594cc-b000-4239-813b-df7792ca7692","ios":"levelo://app?vid=857594cc-b000-4239-813b-df7792ca7692"},"vehicle_type_id":"4","last_reported":1746907799,"current_range_meters":18000,"station_id":"ce4bhk92rcd13ifvqgc0","pricing_plan_id":"cebpf4jnsgd1na2vs0mg"},{"bike_id":"50193ae5-4456-41cd-8bcb-dec6cf61b153","system_id":"levelo_inurba_marseille","lat":43.27492,"lon":5.42452,"is_reserved":false,"is_disabled":false,"rental_uris":{"android":"levelo://app?vid=50193ae5-4456-41cd-8bcb-dec6cf61b153","ios":"levelo://app?vid=50193ae5-4456-41cd-8bcb-dec6cf61b153"},"vehicle_type_id":"4","last_reported":1746907799,"current_range_meters":18800,"station_id":"ce4bhn92rcd13ifvqgrg","pricing_plan_id":"cebpf4jnsgd1na2vs0mg"},{"bike_id":"69458333-e1a2-42ed-9c21-e5ae1dede817","system_id":"levelo_inurba_marseille","lat":43.274992,"lon":5.424512,"is_reserved":false,"is_disabled":false,"rental_uris":{"android":"levelo://app?vid=69458333-e1a2-42ed-9c21-e5ae1dede817","ios":"levelo://app?vid=69458333-e1a2-42ed-9c21-e5ae1dede817"},"vehicle_type_id":"4","last_reported":1746907799,"current_range_meters":18800,"station_id":"ce4bhn92rcd13ifvqgrg","pricing_plan_id":"cebpf4jnsgd1na2vs0mg"},{"bike_id":"1b0527fe-72f0-4159-b600-cbaace9a70d3","system_id":"levelo_inurba_marseille","lat":43.3117,"lon":5.38697,"is_reserved":false,"is_disabled":false,"rental_uris":{"android":"levelo://app?vid=1b0527fe-72f0-4159-b600-cbaace9a70d3","ios":"levelo://app?vid=1b0527fe-72f0-4159-b600-cbaace9a70d3"},"vehicle_type_id":"4","last_reported":1746907799,"current_range_meters":18800,"station_id":"ce4bgv12rcd13ifvqcp0","pricing_plan_id":"cebpf4jnsgd1na2vs0mg"},{"bike_id":"0781eac9-643b-4be6-884a-d7af7f3e9d1a","system_id":"levelo_inurba_marseille","lat":43.28836,"lon":5.39337,"is_reserved":false,"is_disabled":false,"rental_uris":{"android":"levelo://app?vid=0781eac9-643b-4be6-884a-d7af7f3e9d1a","ios":"levelo://app?vid=0781eac9-643b-4be6-884a-d7af7f3e9d1a"},"vehicle_type_id":"4","last_reported":1746907799,"current_range_meters":18800,"station_id":"ce4bh2p2rcd13ifvqdi0","pricing_plan_id":"cebpf4jnsgd1na2vs0mg"},{"bike_id":"082db1f0-99c6-4f93-a484-bdf136979352","system_id":"levelo_inurba_marseille","lat":43.294129,"lon":5.386272,"is_reserved":false,"is_disabled":false,"rental_uris":{"android":"levelo://app?vid=082db1f0-99c6-4f93-a484-bdf136979352","ios":"levelo://app?vid=082db1f0-99c6-4f93-a484-bdf136979352"},"vehicle_type_id":"4","last_reported":1746907799,"current_range_meters":18800,"station_id":"ce4bh2h2rcd13ifvqdh0","pricing_plan_id":"cebpf4jnsgd1na2vs0mg"},{"bike_id":"1ba2c5e0-3dc0-457d-8d4d-52cafc00b2d2","system_id":"levelo_inurba_marseille","lat":43.2942,"lon":5.38623,"is_reserved":false,"is_disabled":false,"rental_uris":{"android":"levelo://app?vid=1ba2c5e0-3dc0-457d-8d4d-52cafc00b2d2","ios":"levelo://app?vid=1ba2c5e0-3dc0-457d-8d4d-52cafc00b2d2"},"vehicle_type_id":"4","last_reported":1746907799,"current_range_meters":18800,"station_id":"ce4bh2h2rcd13ifvqdh0","pricing_plan_id":"cebpf4jnsgd1na2vs0mg"},{"bike_id":"62897e28-4d07-4502-9730-799bcce1f563","system_id":"levelo_inurba_marseille","lat":43.30425,"lon":5.389,"is_reserved":false,"is_disabled":false,"rental_uris":{"android":"levelo://app?vid=62897e28-4d07-4502-9730-799bcce1f563","ios":"levelo://app?vid=62897e28-4d07-4502-9730-799bcce1f563"},"vehicle_type_id":"4","last_reported":1746907799,"current_range_meters":18800,"station_id":"ce4bgk12rcd13ifvqbi0","pricing_plan_id":"cebpf4jnsgd1na2vs0mg"},{"bike_id":"7f5db29b-b65f-4785-a7e0-5fa600da4b18","system_id":"levelo_inurba_marseille","lat":43.26489,"lon":5.39551,"is_reserved":false,"is_disabled":false,"rental_uris":{"android":"levelo://app?vid=7f5db29b-b65f-4785-a7e0-5fa600da4b18","ios":"levelo://app?vid=7f5db29b-b65f-4785-a7e0-5fa600da4b18"},"vehicle_type_id":"4","last_reported":1746907799,"current_range_meters":18800,"station_id":"ce4bhi12rcd13ifvqfq0","pricing_plan_id":"cebpf4jnsgd1na2vs0mg"},{"bike_id":"53c9fcc7-564f-4648-b7b9-af4fc5cb9e4a","system_id":"levelo_inurba_marseille","lat":43.239557,"lon":5.3666,"is_reserved":false,"is_disabled":false,"rental_uris":{"android":"levelo://app?vid=53c9fcc7-564f-4648-b7b9-af4fc5cb9e4a","ios":"levelo://app?vid=53c9fcc7-564f-4648-b7b9-af4fc5cb9e4a"},"vehicle_type_id":"4","last_reported":1746907799,"current_range_meters":18800,"station_id":"ce4bhi12rcd13ifvqfp0","pricing_plan_id":"cebpf4jnsgd1na2vs0mg"},{"bike_id":"f2ef1eed-0e86-4671-b83b-a39cc34db6d9","system_id":"levelo_inurba_marseille","lat":43.29011,"lon":5.38139,"is_reserved":false,"is_disabled":false,"rental_uris":{"android":"levelo://app?vid=f2ef1eed-0e86-4671-b83b-a39cc34db6d9","ios":"levelo://app?vid=f2ef1eed-0e86-4671-b83b-a39cc34db6d9"},"vehicle_type_id":"4","last_reported":1746907799,"current_range_meters":18800,"station_id":"ce4bh4p2rcd13ifvqe1g","pricing_plan_id":"cebpf4jnsgd1na2vs0mg"},{"bike_id":"5352362b-808a-4a90-b2fa-c7734b5a6b26","system_id":"levelo_inurba_marseille","lat":43.27901,"lon":5.38021,"is_reserved":false,"is_disabled":false,"rental_uris":{"android":"levelo://app?vid=5352362b-808a-4a90-b2fa-c7734b5a6b26","ios":"levelo://app?vid=5352362b-808a-4a90-b2fa-c7734b5a6b26"},"vehicle_type_id":"4","last_reported":1746907799,"current_range_meters":18800,"station_id":"ce4bhf92rcd13ifvqf50","pricing_plan_id":"cebpf4jnsgd1na2vs0mg"},{"bike_id":"19cc8d4b-5def-4a7d-97de-278395d8453f","system_id":"levelo_inurba_marseille","lat":43.30419,"lon":5.41287,"is_reserved":false,"is_disabled":false,"rental_uris":{"android":"levelo://app?vid=19cc8d4b-5def-4a7d-97de-278395d8453f","ios":"levelo://app?vid=19cc8d4b-5def-4a7d-97de-278395d8453f"},"vehicle_type_id":"4","last_reported":1746907799,"current_range_meters":19200,"station_id":"ce4bhop2rcd13ifvqh8g","pricing_plan_id":"cebpf4jnsgd1na2vs0mg"},{"bike_id":"fa39bbb3-f357-4467-9b28-d9b8728dc46f","system_id":"levelo_inurba_marseille","lat":43.29076,"lon":5.38153,"is_reserved":false,"is_disabled":false,"rental_uris":{"android":"levelo://app?vid=fa39bbb3-f357-4467-9b28-d9b8728dc46f","ios":"levelo://app?vid=fa39bbb3-f357-4467-9b28-d9b8728dc46f"},"vehicle_type_id":"4","last_reported":1746907799,"current_range_meters":19200,"station_id":"ce4bh512rcd13ifvqe2g","pricing_plan_id":"cebpf4jnsgd1na2vs0mg"},{"bike_id":"736ac8af-785f-483e-b64f-e41d07111d8b","system_id":"levelo_inurba_marseille","lat":43.27903,"lon":5.37994,"is_reserved":false,"is_disabled":false,"rental_uris":{"android":"levelo://app?vid=736ac8af-785f-483e-b64f-e41d07111d8b","ios":"levelo://app?vid=736ac8af-785f-483e-b64f-e41d07111d8b"},"vehicle_type_id":"4","last_reported":1746907799,"current_range_meters":19200,"station_id":"ce4bhf92rcd13ifvqf50","pricing_plan_id":"cebpf4jnsgd1na2vs0mg"},{"bike_id":"986e3697-4c8c-4877-b16f-28f4d7f8c0bb","system_id":"levelo_inurba_marseille","lat":43.29721,"lon":5.37695,"is_reserved":false,"is_disabled":false,"rental_uris":{"android":"levelo://app?vid=986e3697-4c8c-4877-b16f-28f4d7f8c0bb","ios":"levelo://app?vid=986e3697-4c8c-4877-b16f-28f4d7f8c0bb"},"vehicle_type_id":"4","last_reported":1746907799,"current_range_meters":19200,"station_id":"ce4bgkh2rcd13ifvqbl0","pricing_plan_id":"cebpf4jnsgd1na2vs0mg"},{"bike_id":"e64b6efa-8ad8-4af7-8d4d-f16b57fe35e2","system_id":"levelo_inurba_marseille","lat":43.28606,"lon":5.3706,"is_reserved":false,"is_disabled":true,"rental_uris":{"android":"levelo://app?vid=e64b6efa-8ad8-4af7-8d4d-f16b57fe35e2","ios":"levelo://app?vid=e64b6efa-8ad8-4af7-8d4d-f16b57fe35e2"},"vehicle_type_id":"4","last_reported":1746907799,"current_range_meters":19200,"station_id":"ce4bht12rcd13ifvqi60","pricing_plan_id":"cebpf4jnsgd1na2vs0mg"},{"bike_id":"534c9c23-cdbf-4ba7-9a1a-17f5c93a4d5b","system_id":"levelo_inurba_marseille","lat":43.30345,"lon":5.36835,"is_reserved":false,"is_disabled":false,"rental_uris":{"android":"levelo://app?vid=534c9c23-cdbf-4ba7-9a1a-17f5c93a4d5b","ios":"levelo://app?vid=534c9c23-cdbf-4ba7-9a1a-17f5c93a4d5b"},"vehicle_type_id":"4","last_reported":1746907799,"current_range_meters":19200,"station_id":"","pricing_plan_id":"cebpf4jnsgd1na2vs0mg"},{"bike_id":"9c6e86bb-864b-4960-8972-b92f6da74ea1","system_id":"levelo_inurba_marseille","lat":43.31713,"lon":5.43708,"is_reserved":false,"is_disabled":false,"rental_uris":{"android":"levelo://app?vid=9c6e86bb-864b-4960-8972-b92f6da74ea1","ios":"levelo://app?vid=9c6e86bb-864b-4960-8972-b92f6da74ea1"},"vehicle_type_id":"4","last_reported":1746907799,"current_range_meters":18800,"station_id":"ce4bhp92rcd13ifvqhcg","pricing_plan_id":"cebpf4jnsgd1na2vs0mg"},{"bike_id":"09b930ac-fa66-4c06-a06b-581b7d957f5a","system_id":"levelo_inurba_marseille","lat":43.295715,"lon":5.36726,"is_reserved":false,"is_disabled":false,"rental_uris":{"android":"levelo://app?vid=09b930ac-fa66-4c06-a06b-581b7d957f5a","ios":"levelo://app?vid=09b930ac-fa66-4c06-a06b-581b7d957f5a"},"vehicle_type_id":"4","last_reported":1746907799,"current_range_meters":19600,"station_id":"ce4bgph2rcd13ifvqc2g","pricing_plan_id":"cebpf4jnsgd1na2vs0mg"},{"bike_id":"44201f94-ba5c-47c6-82e7-51e65dc45e0c","system_id":"levelo_inurba_marseille","lat":43.28662,"lon":5.38667,"is_reserved":false,"is_disabled":false,"rental_uris":{"android":"levelo://app?vid=44201f94-ba5c-47c6-82e7-51e65dc45e0c","ios":"levelo://app?vid=44201f94-ba5c-47c6-82e7-51e65dc45e0c"},"vehicle_type_id":"4","last_reported":1746907799,"current_range_meters":19600,"station_id":"ce4bh492rcd13ifvqdug","pricing_plan_id":"cebpf4jnsgd1na2vs0mg"},{"bike_id":"8542d010-6232-4818-a2fd-5bb8b1253e4f","system_id":"levelo_inurba_marseille","lat":43.293063,"lon":5.371833,"is_reserved":false,"is_disabled":false,"rental_uris":{"android":"levelo://app?vid=8542d010-6232-4818-a2fd-5bb8b1253e4f","ios":"levelo://app?vid=8542d010-6232-4818-a2fd-5bb8b1253e4f"},"vehicle_type_id":"4","last_reported":1746907799,"current_range_meters":19600,"station_id":"ce4bgh92rcd13ifvqb40","pricing_plan_id":"cebpf4jnsgd1na2vs0mg"},{"bike_id":"9eb45cff-0f92-440d-b5e4-f9f552e30ae0","system_id":"levelo_inurba_marseille","lat":43.28431,"lon":5.3499,"is_reserved":false,"is_disabled":true,"rental_uris":{"android":"levelo://app?vid=9eb45cff-0f92-440d-b5e4-f9f552e30ae0","ios":"levelo://app?vid=9eb45cff-0f92-440d-b5e4-f9f552e30ae0"},"vehicle_type_id":"4","last_reported":1746907799,"current_range_meters":19600,"station_id":"ce4bhbh2rcd13ifvqepg","pricing_plan_id":"cebpf4jnsgd1na2vs0mg"},{"bike_id":"6f33d593-b6b8-45ca-b839-ed5fd0e98215","system_id":"levelo_inurba_marseille","lat":43.21194,"lon":5.35084,"is_reserved":false,"is_disabled":true,"rental_uris":{"android":"levelo://app?vid=6f33d593-b6b8-45ca-b839-ed5fd0e98215","ios":"levelo://app?vid=6f33d593-b6b8-45ca-b839-ed5fd0e98215"},"vehicle_type_id":"4","last_reported":1746907799,"current_range_meters":19600,"station_id":"st_cvj6sg6p6f1abm77japg","pricing_plan_id":"cebpf4jnsgd1na2vs0mg"},{"bike_id":"79803a79-2416-42d7-a1b1-1597801de697","system_id":"levelo_inurba_marseille","lat":43.29306,"lon":5.37454,"is_reserved":false,"is_disabled":false,"rental_uris":{"android":"levelo://app?vid=79803a79-2416-42d7-a1b1-1597801de697","ios":"levelo://app?vid=79803a79-2416-42d7-a1b1-1597801de697"},"vehicle_type_id":"4","last_reported":1746907799,"current_range_meters":19600,"station_id":"ce4bgi12rcd13ifvqb70","pricing_plan_id":"cebpf4jnsgd1na2vs0mg"},{"bike_id":"b53114c1-22f3-4930-ab41-ddcaab4ff618","system_id":"levelo_inurba_marseille","lat":43.29914,"lon":5.38151,"is_reserved":false,"is_disabled":false,"rental_uris":{"android":"levelo://app?vid=b53114c1-22f3-4930-ab41-ddcaab4ff618","ios":"levelo://app?vid=b53114c1-22f3-4930-ab41-ddcaab4ff618"},"vehicle_type_id":"4","last_reported":1746907799,"current_range_meters":20000,"station_id":"ce4bgj12rcd13ifvqbc0","pricing_plan_id":"cebpf4jnsgd1na2vs0mg"},{"bike_id":"1679782c-f76d-4dcd-ab99-8d54f79dfd91","system_id":"levelo_inurba_marseille","lat":43.280737,"lon":5.396557,"is_reserved":false,"is_disabled":false,"rental_uris":{"android":"levelo://app?vid=1679782c-f76d-4dcd-ab99-8d54f79dfd91","ios":"levelo://app?vid=1679782c-f76d-4dcd-ab99-8d54f79dfd91"},"vehicle_type_id":"4","last_reported":1746907799,"current_range_meters":19600,"station_id":"ce4bho12rcd13ifvqh2g","pricing_plan_id":"cebpf4jnsgd1na2vs0mg"},{"bike_id":"0b334158-065c-437e-bf68-c4b9559cc8e2","system_id":"levelo_inurba_marseille","lat":43.30553,"lon":5.36547,"is_reserved":false,"is_disabled":false,"rental_uris":{"android":"levelo://app?vid=0b334158-065c-437e-bf68-c4b9559cc8e2","ios":"levelo://app?vid=0b334158-065c-437e-bf68-c4b9559cc8e2"},"vehicle_type_id":"4","last_reported":1746907799,"current_range_meters":20000,"station_id":"ce4bgs12rcd13ifvqcag","pricing_plan_id":"cebpf4jnsgd1na2vs0mg"},{"bike_id":"7c298afa-9a67-4bbb-bd53-03c23e889d1b","system_id":"levelo_inurba_marseille","lat":43.280784,"lon":5.396564,"is_reserved":false,"is_disabled":false,"rental_uris":{"android":"levelo://app?vid=7c298afa-9a67-4bbb-bd53-03c23e889d1b","ios":"levelo://app?vid=7c298afa-9a67-4bbb-bd53-03c23e889d1b"},"vehicle_type_id":"4","last_reported":1746907799,"current_range_meters":20000,"station_id":"ce4bho12rcd13ifvqh2g","pricing_plan_id":"cebpf4jnsgd1na2vs0mg"},{"bike_id":"1c7075a5-efce-4488-96bd-8e23566b7ed7","system_id":"levelo_inurba_marseille","lat":43.24665,"lon":5.3817,"is_reserved":false,"is_disabled":false,"rental_uris":{"android":"levelo://app?vid=1c7075a5-efce-4488-96bd-8e23566b7ed7","ios":"levelo://app?vid=1c7075a5-efce-4488-96bd-8e23566b7ed7"},"vehicle_type_id":"4","last_reported":1746907799,"current_range_meters":20000,"station_id":"ce4bhih2rcd13ifvqfr0","pricing_plan_id":"cebpf4jnsgd1na2vs0mg"},{"bike_id":"ea1862f6-7492-403f-99d4-9b69c5a5fea8","system_id":"levelo_inurba_marseille","lat":43.3132,"lon":5.39708,"is_reserved":false,"is_disabled":false,"rental_uris":{"android":"levelo://app?vid=ea1862f6-7492-403f-99d4-9b69c5a5fea8","ios":"levelo://app?vid=ea1862f6-7492-403f-99d4-9b69c5a5fea8"},"vehicle_type_id":"4","last_reported":1746907799,"current_range_meters":20000,"station_id":"ce4bgvp2rcd13ifvqcu0","pricing_plan_id":"cebpf4jnsgd1na2vs0mg"},{"bike_id":"c778c7ef-65ad-4a26-9aa3-85e212976a75","system_id":"levelo_inurba_marseille","lat":43.29568,"lon":5.39966,"is_reserved":false,"is_disabled":false,"rental_uris":{"android":"levelo://app?vid=c778c7ef-65ad-4a26-9aa3-85e212976a75","ios":"levelo://app?vid=c778c7ef-65ad-4a26-9aa3-85e212976a75"},"vehicle_type_id":"4","last_reported":1746907799,"current_range_meters":20000,"station_id":"ce4bh312rcd13ifvqdj0","pricing_plan_id":"cebpf4jnsgd1na2vs0mg"},{"bike_id":"02fd1162-e3c4-4444-a328-d7056c9d8c7d","system_id":"levelo_inurba_marseille","lat":43.24662,"lon":5.38167,"is_reserved":false,"is_disabled":false,"rental_uris":{"android":"levelo://app?vid=02fd1162-e3c4-4444-a328-d7056c9d8c7d","ios":"levelo://app?vid=02fd1162-e3c4-4444-a328-d7056c9d8c7d"},"vehicle_type_id":"4","last_reported":1746907799,"current_range_meters":20000,"station_id":"ce4bhih2rcd13ifvqfr0","pricing_plan_id":"cebpf4jnsgd1na2vs0mg"},{"bike_id":"4762718c-a376-420c-be5d-ae5208641990","system_id":"levelo_inurba_marseille","lat":43.28461,"lon":5.35896,"is_reserved":false,"is_disabled":true,"rental_uris":{"android":"levelo://app?vid=4762718c-a376-420c-be5d-ae5208641990","ios":"levelo://app?vid=4762718c-a376-420c-be5d-ae5208641990"},"vehicle_type_id":"4","last_reported":1746907799,"current_range_meters":20400,"station_id":"ce4bhah2rcd13ifvqei0","pricing_plan_id":"cebpf4jnsgd1na2vs0mg"},{"bike_id":"275fbe97-a7ed-4ff7-8913-e55e1d0c8880","system_id":"levelo_inurba_marseille","lat":43.285359,"lon":5.385185,"is_reserved":false,"is_disabled":false,"rental_uris":{"android":"levelo://app?vid=275fbe97-a7ed-4ff7-8913-e55e1d0c8880","ios":"levelo://app?vid=275fbe97-a7ed-4ff7-8913-e55e1d0c8880"},"vehicle_type_id":"4","last_reported":1746907799,"current_range_meters":20400,"station_id":"ce4bh8p2rcd13ifvqeb0","pricing_plan_id":"cebpf4jnsgd1na2vs0mg"},{"bike_id":"26bcda9b-55d6-4891-8259-dd53dad3f063","system_id":"levelo_inurba_marseille","lat":43.295257,"lon":5.38544,"is_reserved":false,"is_disabled":false,"rental_uris":{"android":"levelo://app?vid=26bcda9b-55d6-4891-8259-dd53dad3f063","ios":"levelo://app?vid=26bcda9b-55d6-4891-8259-dd53dad3f063"},"vehicle_type_id":"4","last_reported":1746907799,"current_range_meters":20400,"station_id":"ce4bgih2rcd13ifvqba0","pricing_plan_id":"cebpf4jnsgd1na2vs0mg"},{"bike_id":"3bbfc789-0f25-4850-a90b-6ed3bd12c054","system_id":"levelo_inurba_marseille","lat":43.29088,"lon":5.38134,"is_reserved":false,"is_disabled":false,"rental_uris":{"android":"levelo://app?vid=3bbfc789-0f25-4850-a90b-6ed3bd12c054","ios":"levelo://app?vid=3bbfc789-0f25-4850-a90b-6ed3bd12c054"},"vehicle_type_id":"4","last_reported":1746907799,"current_range_meters":20400,"station_id":"ce4bh512rcd13ifvqe2g","pricing_plan_id":"cebpf4jnsgd1na2vs0mg"},{"bike_id":"e2d24696-f2bb-49c8-8008-ab29d4335095","system_id":"levelo_inurba_marseille","lat":43.28604,"lon":5.35104,"is_reserved":false,"is_disabled":false,"rental_uris":{"android":"levelo://app?vid=e2d24696-f2bb-49c8-8008-ab29d4335095","ios":"levelo://app?vid=e2d24696-f2bb-49c8-8008-ab29d4335095"},"vehicle_type_id":"4","last_reported":1746907799,"current_range_meters":20800,"station_id":"ce4bhch2rcd13ifvqeug","pricing_plan_id":"cebpf4jnsgd1na2vs0mg"},