{"last_updated":1745651351,"ttl":60,"version":"2.2","data":{"bikes":[{"bike_id":"d9dfdbb7-3b56-4404-977a-51c336ac30b5","system_id":"levelo_inurba_marseille","lat":43.211902,"lon":5.350711,"is_reserved":false,"is_disabled":false,"rental_uris":{"android":"levelo://app?vid=d9dfdbb7-3b56-4404-977a-51c336ac30b5","ios":"levelo://app?vid=d9dfdbb7-3b56-4404-977a-51c336ac30b5"},"vehicle_type_id":"4","last_reported":1745651351,"current_range_meters":2800,"station_id":"st_cvj6sg6p6f1abm77japg","pricing_plan_id":"cebpf4jnsgd1na2vs0mg"},{"bike_id":"306a58c0-053c-4a47-8c40-1c362463c26f","system_id":"levelo_inurba_marseille","lat":43.31022,"lon":5.37151,"is_reserved":false,"is_disabled":false,"rental_uris":{"android":"levelo://app?vid=306a58c0-053c-4a47-8c40-1c362463c26f","ios":"levelo://app?vid=306a58c0-053c-4a47-8c40-1c362463c26f"},"vehicle_type_id":"4","last_reported":1745651351,"current_range_meters":2800,"station_id":"","pricing_plan_id":"cebpf4jnsgd1na2vs0mg"},{"bike_id":"c3eb58ef-ab71-43b6-a3a4-4aa3cab56d33","system_id":"levelo_inurba_marseille","lat":43.30886,"lon":5.39644,"is_reserved":false,"is_disabled":false,"rental_uris":{"android":"levelo://app?vid=c3eb58ef-ab71-43b6-a3a4-4aa3cab56d33","ios":"levelo://app?vid=c3eb58ef-ab71-43b6-a3a4-4aa3cab56d33"},"vehicle_type_id":"4","last_reported":1745651351,"current_range_meters":3200,"station_id":"ce4bh012rcd13ifvqcv0","pricing_plan_id":"cebpf4jnsgd1na2vs0mg"},{"bike_id":"8aff0d73-1664-47c7-8bf8-658126236a83","system_id":"levelo_inurba_marseille","lat":43.31297,"lon":5.40133,"is_reserved":false,"is_disabled":false,"rental_uris":{"android":"levelo://app?vid=8aff0d73-1664-47c7-8bf8-658126236a83","ios":"levelo://app?vid=8aff0d73-1664-47c7-8bf8-658126236a83"},"vehicle_type_id":"4","last_reported":1745651351,"current_range_meters":3200,"station_id":"ce4bh092rcd13ifvqd30","pricing_plan_id":"cebpf4jnsgd1na2vs0mg"},{"bike_id":"52cb41a7-5096-4f42-a09a-abce4785d5e2","system_id":"levelo_inurba_marseille","lat":43.27077,"lon":5.42258,"is_reserved":false,"is_disabled":true,"rental_uris":{"android":"levelo://app?vid=52cb41a7-5096-4f42-a09a-abce4785d5e2","ios":"levelo://app?vid=52cb41a7-5096-4f42-a09a-abce4785d5e2"},"vehicle_type_id":"4","last_reported":1745651351,"current_range_meters":3200,"station_id":"ce4bhk92rcd13ifvqgb0","pricing_plan_id":"cebpf4jnsgd1na2vs0mg"},{"bike_id":"46374c49-3adc-4c5a-8966-e00f056c0d57","system_id":"levelo_inurba_marseille","lat":43.27846,"lon":5.35442,"is_reserved":false,"is_disabled":false,"rental_uris":{"android":"levelo://app?vid=46374c49-3adc-4c5a-8966-e00f056c0d57","ios":"levelo://app?vid=46374c49-3adc-4c5a-8966-e00f056c0d57"},"vehicle_type_id":"4","last_reported":1745651351,"current_range_meters":3600,"station_id":"","pricing_plan_id":"cebpf4jnsgd1na2vs0mg"},{"bike_id":"886f774b-b172-4ee0-8af6-2a328933c394","system_id":"levelo_inurba_marseille","lat":43.243899,"lon":5.3706,"is_reserved":false,"is_disabled":false,"rental_uris":{"android":"levelo://app?vid=886f774b-b172-4ee0-8af6-2a328933c394","ios":"levelo://app?vid=886f774b-b172-4ee0-8af6-2a328933c394"},"vehicle_type_id":"4","last_reported":1745651351,"current_range_meters":3600,"station_id":"ce4bhhh2rcd13ifvqfk0","pricing_plan_id":"cebpf4jnsgd1na2vs0mg"},{"bike_id":"49f8eb64-a1e9-4ea3-b48f-042aa9e0a4f2","system_id":"levelo_inurba_marseille","lat":43.30246,"lon":5.40069,"is_reserved":false,"is_disabled":false,"rental_uris":{"android":"levelo://app?vid=49f8eb64-a1e9-4ea3-b48f-042aa9e0a4f2","ios":"levelo://app?vid=49f8eb64-a1e9-4ea3-b48f-042aa9e0a4f2"},"vehicle_type_id":"4","last_reported":1745651351,"current_range_meters":3600,"station_id":"ce4bgvh2rcd13ifvqcs0","pricing_plan_id":"cebpf4jnsgd1na2vs0mg"},{"bike_id":"261ed139-77cc-4e31-8526-09806692c5d3","system_id":"levelo_inurba_marseille","lat":43.314919,"lon":5.372948,"is_reserved":false,"is_disabled":false,"rental_uris":{"android":"levelo://app?vid=261ed139-77cc-4e31-8526-09806692c5d3","ios":"levelo://app?vid=261ed139-77cc-4e31-8526-09806692c5d3"},"vehicle_type_id":"4","last_reported":1745651351,"current_range_meters":3600,"station_id":"ce4bgt12rcd13ifvqcd0","pricing_plan_id":"cebpf4jnsgd1na2vs0mg"},{"bike_id":"3767ba54-0ee2-464a-8805-d28bad95405b","system_id":"levelo_inurba_marseille","lat":43.25956,"lon":5.37535,"is_reserved":false,"is_disabled":false,"rental_uris":{"android":"levelo://app?vid=3767ba54-0ee2-464a-8805-d28bad95405b","ios":"levelo://app?vid=3767ba54-0ee2-464a-8805-d28bad95405b"},"vehicle_type_id":"4","last_reported":1745651351,"current_range_meters":4000,"station_id":"","pricing_plan_id":"cebpf4jnsgd1na2vs0mg"},{"bike_id":"ecdd0875-7d56-4cd2-a14a-671f78e26c97","system_id":"levelo_inurba_marseille","lat":43.2308,"lon":5.35481,"is_reserved":false,"is_disabled":false,"rental_uris":{"android":"levelo://app?vid=ecdd0875-7d56-4cd2-a14a-671f78e26c97","ios":"levelo://app?vid=ecdd0875-7d56-4cd2-a14a-671f78e26c97"},"vehicle_type_id":"4","last_reported":1745651351,"current_range_meters":4400,"station_id":"cpo3342slgdg3j2ifvpg","pricing_plan_id":"cebpf4jnsgd1na2vs0mg"},{"bike_id":"4c89f1bc-d71d-4a92-af80-814e88833fb5","system_id":"levelo_inurba_marseille","lat":43.29256,"lon":5.37609,"is_reserved":false,"is_disabled":false,"rental_uris":{"android":"levelo://app?vid=4c89f1bc-d71d-4a92-af80-814e88833fb5","ios":"levelo://app?vid=4c89f1bc-d71d-4a92-af80-814e88833fb5"},"vehicle_type_id":"4","last_reported":1745651351,"current_range_meters":4400,"station_id":"ce4bgi12rcd13ifvqb80","pricing_plan_id":"cebpf4jnsgd1na2vs0mg"},{"bike_id":"e615b763-b9b6-4cb5-a1c0-003a03d00de1","system_id":"levelo_inurba_marseille","lat":43.29766,"lon":5.40957,"is_reserved":false,"is_disabled":false,"rental_uris":{"android":"levelo://app?vid=e615b763-b9b6-4cb5-a1c0-003a03d00de1","ios":"levelo://app?vid=e615b763-b9b6-4cb5-a1c0-003a03d00de1"},"vehicle_type_id":"4","last_reported":1745651351,"current_range_meters":4400,"station_id":"","pricing_plan_id":"cebpf4jnsgd1na2vs0mg"},{"bike_id":"4bf0cade-afa0-4731-b40e-ef3f8f4a4fe5","system_id":"levelo_inurba_marseille","lat":43.30108,"lon":5.39089,"is_reserved":false,"is_disabled":true,"rental_uris":{"android":"levelo://app?vid=4bf0cade-afa0-4731-b40e-ef3f8f4a4fe5","ios":"levelo://app?vid=4bf0cade-afa0-4731-b40e-ef3f8f4a4fe5"},"vehicle_type_id":"4","last_reported":1745651351,"current_range_meters":4800,"station_id":"ce4bh192rcd13ifvqdb0","pricing_plan_id":"cebpf4jnsgd1na2vs0mg"},{"bike_id":"518b4a70-7982-4a65-abc1-42f75574ca79","system_id":"levelo_inurba_marseille","lat":43.29189,"lon":5.35814,"is_reserved":false,"is_disabled":false,"rental_uris":{"android":"levelo://app?vid=518b4a70-7982-4a65-abc1-42f75574ca79","ios":"levelo://app?vid=518b4a70-7982-4a65-abc1-42f75574ca79"},"vehicle_type_id":"4","last_reported":1745651351,"current_range_meters":4800,"station_id":"ce4bhb12rcd13ifvqel0","pricing_plan_id":"cebpf4jnsgd1na2vs0mg"},{"bike_id":"218c94c5-e028-4aa3-81d2-276afc924773","system_id":"levelo_inurba_marseille","lat":43.27373,"lon":5.36261,"is_reserved":false,"is_disabled":false,"rental_uris":{"android":"levelo://app?vid=218c94c5-e028-4aa3-81d2-276afc924773","ios":"levelo://app?vid=218c94c5-e028-4aa3-81d2-276afc924773"},"vehicle_type_id":"4","last_reported":1745651351,"current_range_meters":4800,"station_id":"ce4bhbh2rcd13ifvqeo0","pricing_plan_id":"cebpf4jnsgd1na2vs0mg"},{"bike_id":"be33e066-23f3-4143-8e1c-3a816f88226b","system_id":"levelo_inurba_marseille","lat":43.30282,"lon":5.39985,"is_reserved":false,"is_disabled":false,"rental_uris":{"android":"levelo://app?vid=be33e066-23f3-4143-8e1c-3a816f88226b","ios":"levelo://app?vid=be33e066-23f3-4143-8e1c-3a816f88226b"},"vehicle_type_id":"4","last_reported":1745651351,"current_range_meters":4800,"station_id":"","pricing_plan_id":"cebpf4jnsgd1na2vs0mg"},{"bike_id":"f1a9f5db-d774-4f36-a0be-69b289d14fd1","system_id":"levelo_inurba_marseille","lat":43.2119,"lon":5.35091,"is_reserved":false,"is_disabled":false,"rental_uris":{"android":"levelo://app?vid=f1a9f5db-d774-4f36-a0be-69b289d14fd1","ios":"levelo://app?vid=f1a9f5db-d774-4f36-a0be-69b289d14fd1"},"vehicle_type_id":"4","last_reported":1745651351,"current_range_meters":5600,"station_id":"st_cvj6sg6p6f1abm77japg","pricing_plan_id":"cebpf4jnsgd1na2vs0mg"},{"bike_id":"a4f241e0-aaac-4872-a16e-4e04a72ff58c","system_id":"levelo_inurba_marseille","lat":43.23969,"lon":5.36646,"is_reserved":false,"is_disabled":true,"rental_uris":{"android":"levelo://app?vid=a4f241e0-aaac-4872-a16e-4e04a72ff58c","ios":"levelo://app?vid=a4f241e0-aaac-4872-a16e-4e04a72ff58c"},"vehicle_type_id":"4","last_reported":1745651351,"current_range_meters":5600,"station_id":"ce4bhi12rcd13ifvqfp0","pricing_plan_id":"cebpf4jnsgd1na2vs0mg"},{"bike_id":"49362cd8-0cc1-428e-bd69-89f1745293ce","system_id":"levelo_inurba_marseille","lat":43.25148,"lon":5.40269,"is_reserved":false,"is_disabled":false,"rental_uris":{"android":"levelo://app?vid=49362cd8-0cc1-428e-bd69-89f1745293ce","ios":"levelo://app?vid=49362cd8-0cc1-428e-bd69-89f1745293ce"},"vehicle_type_id":"4","last_reported":1745651351,"current_range_meters":6000,"station_id":"","pricing_plan_id":"cebpf4jnsgd1na2vs0mg"},{"bike_id":"a9cb4393-9e04-4072-8721-8bef25ac8fb3","system_id":"levelo_inurba_marseille","lat":43.29806,"lon":5.4041,"is_reserved":false,"is_disabled":false,"rental_uris":{"android":"levelo://app?vid=a9cb4393-9e04-4072-8721-8bef25ac8fb3","ios":"levelo://app?vid=a9cb4393-9e04-4072-8721-8bef25ac8fb3"},"vehicle_type_id":"4","last_reported":1745651351,"current_range_meters":6000,"station_id":"ce4bh112rcd13ifvqd90","pricing_plan_id":"cebpf4jnsgd1na2vs0mg"},{"bike_id":"9896ad9c-4ced-4d17-8f43-56cf674ad5d2","system_id":"levelo_inurba_marseille","lat":43.279636,"lon":5.387385,"is_reserved":false,"is_disabled":false,"rental_uris":{"android":"levelo://app?vid=9896ad9c-4ced-4d17-8f43-56cf674ad5d2","ios":"levelo://app?vid=9896ad9c-4ced-4d17-8f43-56cf674ad5d2"},"vehicle_type_id":"4","last_reported":1745651351,"current_range_meters":6400,"station_id":"ce4bhg12rcd13ifvqf80","pricing_plan_id":"cebpf4jnsgd1na2vs0mg"},{"bike_id":"e34f328c-a9b2-4484-b302-58552f89a3c4","system_id":"levelo_inurba_marseille","lat":43.31488,"lon":5.37279,"is_reserved":false,"is_disabled":false,"rental_uris":{"android":"levelo://app?vid=e34f328c-a9b2-4484-b302-58552f89a3c4","ios":"levelo://app?vid=e34f328c-a9b2-4484-b302-58552f89a3c4"},"vehicle_type_id":"4","last_reported":1745651351,"current_range_meters":6400,"station_id":"ce4bgt12rcd13ifvqcd0","pricing_plan_id":"cebpf4jnsgd1na2vs0mg"},{"bike_id":"a3b200f4-5746-46ec-a71b-7de246dcb8a2","system_id":"levelo_inurba_marseille","lat":43.3117,"lon":5.38651,"is_reserved":false,"is_disabled":true,"rental_uris":{"android":"levelo://app?vid=a3b200f4-5746-46ec-a71b-7de246dcb8a2","ios":"levelo://app?vid=a3b200f4-5746-46ec-a71b-7de246dcb8a2"},"vehicle_type_id":"4","last_reported":1745651351,"current_range_meters":6400,"station_id":"","pricing_plan_id":"cebpf4jnsgd1na2vs0mg"},{"bike_id":"e9ab448f-ff65-4aac-a5a6-febcb20f7369","system_id":"levelo_inurba_marseille","lat":43.27074,"lon":5.42265,"is_reserved":false,"is_disabled":false,"rental_uris":{"android":"levelo://app?vid=e9ab448f-ff65-4aac-a5a6-febcb20f7369","ios":"levelo://app?vid=e9ab448f-ff65-4aac-a5a6-febcb20f7369"},"vehicle_type_id":"4","last_reported":1745651351,"current_range_meters":6400,"station_id":"ce4bhk92rcd13ifvqgb0","pricing_plan_id":"cebpf4jnsgd1na2vs0mg"},{"bike_id":"1746265e-27ad-4913-8a06-b6dc5372d844","system_id":"levelo_inurba_marseille","lat":43.26023,"lon":5.37477,"is_reserved":false,"is_disabled":false,"rental_uris":{"android":"levelo://app?vid=1746265e-27ad-4913-8a06-b6dc5372d844","ios":"levelo://app?vid=1746265e-27ad-4913-8a06-b6dc5372d844"},"vehicle_type_id":"4","last_reported":1745651351,"current_range_meters":6800,"station_id":"","pricing_plan_id":"cebpf4jnsgd1na2vs0mg"},{"bike_id":"185ea38f-9f5e-4f80-9a28-ea11ae3260c6","system_id":"levelo_inurba_marseille","lat":43.306369,"lon":5.400725,"is_reserved":false,"is_disabled":false,"rental_uris":{"android":"levelo://app?vid=185ea38f-9f5e-4f80-9a28-ea11ae3260c6","ios":"levelo://app?vid=185ea38f-9f5e-4f80-9a28-ea11ae3260c6"},"vehicle_type_id":"4","last_reported":1745651351,"current_range_meters":6800,"station_id":"ce4bh112rcd13ifvqda0","pricing_plan_id":"cebpf4jnsgd1na2vs0mg"},{"bike_id":"bc02b2cd-309c-46e8-bc50-da250fe57b26","system_id":"levelo_inurba_marseille","lat":43.33606,"lon":5.41035,"is_reserved":false,"is_disabled":false,"rental_uris":{"android":"levelo://app?vid=bc02b2cd-309c-46e8-bc50-da250fe57b26","ios":"levelo://app?vid=bc02b2cd-309c-46e8-bc50-da250fe57b26"},"vehicle_type_id":"4","last_reported":1745651351,"current_range_meters":6800,"station_id":"ce4bhqh2rcd13ifvqhmg","pricing_plan_id":"cebpf4jnsgd1na2vs0mg"},{"bike_id":"59435061-5e1b-4910-b226-2025dd87e457","system_id":"levelo_inurba_marseille","lat":43.289078,"lon":5.397064,"is_reserved":false,"is_disabled":false,"rental_uris":{"android":"levelo://app?vid=59435061-5e1b-4910-b226-2025dd87e457","ios":"levelo://app?vid=59435061-5e1b-4910-b226-2025dd87e457"},"vehicle_type_id":"4","last_reported":1745651351,"current_range_meters":7200,"station_id":"ce4bhhh2rcd13ifvqfk0","pricing_plan_id":"cebpf4jnsgd1na2vs0mg"},{"bike_id":"99fd88d3-6d6a-463d-98bc-bf23bc534171","system_id":"levelo_inurba_marseille","lat":43.309325,"lon":5.401496,"is_reserved":false,"is_disabled":false,"rental_uris":{"android":"levelo://app?vid=99fd88d3-6d6a-463d-98bc-bf23bc534171","ios":"levelo://app?vid=99fd88d3-6d6a-463d-98bc-bf23bc534171"},"vehicle_type_id":"4","last_reported":1745651351,"current_range_meters":7200,"station_id":"ce4bgvp2rcd13ifvqct0","pricing_plan_id":"cebpf4jnsgd1na2vs0mg"},{"bike_id":"5331df3e-477f-4c99-8e8b-ec43d72ee232","system_id":"levelo_inurba_marseille","lat":43.24189,"lon":5.39722,"is_reserved":false,"is_disabled":false,"rental_uris":{"android":"levelo://app?vid=5331df3e-477f-4c99-8e8b-ec43d72ee232","ios":"levelo://app?vid=5331df3e-477f-4c99-8e8b-ec43d72ee232"},"vehicle_type_id":"4","last_reported":1745651351,"current_range_meters":7200,"station_id":"ce4bhn12rcd13ifvqgpg","pricing_plan_id":"cebpf4jnsgd1na2vs0mg"},{"bike_id":"2c2e5bcc-b9ff-41a6-be9a-7733528f3bfa","system_id":"levelo_inurba_marseille","lat":43.27498,"lon":5.42448,"is_reserved":false,"is_disabled":false,"rental_uris":{"android":"levelo://app?vid=2c2e5bcc-b9ff-41a6-be9a-7733528f3bfa","ios":"levelo://app?vid=2c2e5bcc-b9ff-41a6-be9a-7733528f3bfa"},"vehicle_type_id":"4","last_reported":1745651351,"current_range_meters":7200,"station_id":"ce4bhn92rcd13ifvqgrg","pricing_plan_id":"cebpf4jnsgd1na2vs0mg"},{"bike_id":"3b154790-3924-40d2-8858-c506203b6522","system_id":"levelo_inurba_marseille","lat":43.31089,"lon":5.37779,"is_reserved":false,"is_disabled":false,"rental_uris":{"android":"levelo://app?vid=3b154790-3924-40d2-8858-c506203b6522","ios":"levelo://app?vid=3b154790-3924-40d2-8858-c506203b6522"},"vehicle_type_id":"4","last_reported":1745651351,"current_range_meters":7200,"station_id":"ce4bgt92rcd13ifvqcg0","pricing_plan_id":"cebpf4jnsgd1na2vs0mg"},{"bike_id":"80ca7186-6be3-49d7-98b9-518be2f29b22","system_id":"levelo_inurba_marseille","lat":43.336023,"lon":5.410181,"is_reserved":false,"is_disabled":false,"rental_uris":{"android":"levelo://app?vid=80ca7186-6be3-49d7-98b9-518be2f29b22","ios":"levelo://app?vid=80ca7186-6be3-49d7-98b9-518be2f29b22"},"vehicle_type_id":"4","last_reported":1745651351,"current_range_meters":7200,"station_id":"ce4bhqh2rcd13ifvqhmg","pricing_plan_id":"cebpf4jnsgd1na2vs0mg"},{"bike_id":"772da492-2177-4e24-a2c3-b5c3eb8d2c16","system_id":"levelo_inurba_marseille","lat":43.29571,"lon":5.39983,"is_reserved":false,"is_disabled":false,"rental_uris":{"android":"levelo://app?vid=772da492-2177-4e24-a2c3-b5c3eb8d2c16","ios":"levelo://app?vid=772da492-2177-4e24-a2c3-b5c3eb8d2c16"},"vehicle_type_id":"4","last_reported":1745651351,"current_range_meters":8000,"station_id":"ce4bh312rcd13ifvqdj0","pricing_plan_id":"cebpf4jnsgd1na2vs0mg"},{"bike_id":"422b5989-c8b6-43aa-b2b9-3bfeb2e1ddc0","system_id":"levelo_inurba_marseille","lat":43.24721,"lon":5.41177,"is_reserved":false,"is_disabled":false,"rental_uris":{"android":"levelo://app?vid=422b5989-c8b6-43aa-b2b9-3bfeb2e1ddc0","ios":"levelo://app?vid=422b5989-c8b6-43aa-b2b9-3bfeb2e1ddc0"},"vehicle_type_id":"4","last_reported":1745651351,"current_range_meters":8400,"station_id":"","pricing_plan_id":"cebpf4jnsgd1na2vs0mg"},{"bike_id":"fa72b649-3018-4187-96fe-d31c0b11e0f8","system_id":"levelo_inurba_marseille","lat":43.29711,"lon":5.37122,"is_reserved":false,"is_disabled":false,"rental_uris":{"android":"levelo://app?vid=fa72b649-3018-4187-96fe-d31c0b11e0f8","ios":"levelo://app?vid=fa72b649-3018-4187-96fe-d31c0b11e0f8"},"vehicle_type_id":"4","last_reported":1745651351,"current_range_meters":8400,"station_id":"","pricing_plan_id":"cebpf4jnsgd1na2vs0mg"},{"bike_id":"7410bca4-dc06-4c61-a6c1-1417f60c6640","system_id":"levelo_inurba_marseille","lat":43.31484,"lon":5.37303,"is_reserved":false,"is_disabled":false,"rental_uris":{"android":"levelo://app?vid=7410bca4-dc06-4c61-a6c1-1417f60c6640","ios":"levelo://app?vid=7410bca4-dc06-4c61-a6c1-1417f60c6640"},"vehicle_type_id":"4","last_reported":1745651351,"current_range_meters":8400,"station_id":"ce4bgt12rcd13ifvqcd0","pricing_plan_id":"cebpf4jnsgd1na2vs0mg"},{"bike_id":"3c6918da-f5b4-47ed-af1b-5f4122b9d878","system_id":"levelo_inurba_marseille","lat":43.26082,"lon":5.39382,"is_reserved":false,"is_disabled":false,"rental_uris":{"android":"levelo://app?vid=3c6918da-f5b4-47ed-af1b-5f4122b9d878","ios":"levelo://app?vid=3c6918da-f5b4-47ed-af1b-5f4122b9d878"},"vehicle_type_id":"4","last_reported":1745651351,"current_range_meters":8400,"station_id":"ce4bhh92rcd13ifvqfj0","pricing_plan_id":"cebpf4jnsgd1na2vs0mg"},{"bike_id":"ca7b7d84-2631-4232-bbf1-fa44212248d9","system_id":"levelo_inurba_marseille","lat":43.30938,"lon":5.40169,"is_reserved":false,"is_disabled":false,"rental_uris":{"android":"levelo://app?vid=ca7b7d84-2631-4232-bbf1-fa44212248d9","ios":"levelo://app?vid=ca7b7d84-2631-4232-bbf1-fa44212248d9"},"vehicle_type_id":"4","last_reported":1745651351,"current_range_meters":8400,"station_id":"ce4bgvp2rcd13ifvqct0","pricing_plan_id":"cebpf4jnsgd1na2vs0mg"},{"bike_id":"f87fae0d-0072-4c55-b225-5abd633d9e77","system_id":"levelo_inurba_marseille","lat":43.21743,"lon":5.34607,"is_reserved":false,"is_disabled":false,"rental_uris":{"android":"levelo://app?vid=f87fae0d-0072-4c55-b225-5abd633d9e77","ios":"levelo://app?vid=f87fae0d-0072-4c55-b225-5abd633d9e77"},"vehicle_type_id":"4","last_reported":1745651351,"current_range_meters":8400,"station_id":"ce4bh512rcd13ifvqe3g","pricing_plan_id":"cebpf4jnsgd1na2vs0mg"},{"bike_id":"5c8dde23-03af-4ec7-8c64-b6a7b95cfa5a","system_id":"levelo_inurba_marseille","lat":43.337266,"lon":5.391911,"is_reserved":false,"is_disabled":false,"rental_uris":{"android":"levelo://app?vid=5c8dde23-03af-4ec7-8c64-b6a7b95cfa5a","ios":"levelo://app?vid=5c8dde23-03af-4ec7-8c64-b6a7b95cfa5a"},"vehicle_type_id":"4","last_reported":1745651351,"current_range_meters":8400,"station_id":"ce4bhr92rcd13ifvqhsg","pricing_plan_id":"cebpf4jnsgd1na2vs0mg"},{"bike_id":"18ae1d78-8d9e-4697-bc48-a39d36035c1d","system_id":"levelo_inurba_marseille","lat":43.23965,"lon":5.36629,"is_reserved":false,"is_disabled":false,"rental_uris":{"android":"levelo://app?vid=18ae1d78-8d9e-4697-bc48-a39d36035c1d","ios":"levelo://app?vid=18ae1d78-8d9e-4697-bc48-a39d36035c1d"},"vehicle_type_id":"4","last_reported":1745651351,"current_range_meters":8400,"station_id":"ce4bhi12rcd13ifvqfp0","pricing_plan_id":"cebpf4jnsgd1na2vs0mg"},{"bike_id":"f997f3a2-6ef7-4d7a-931e-8083cf2fa70c","system_id":"levelo_inurba_marseille","lat":43.26794,"lon":5.40267,"is_reserved":false,"is_disabled":false,"rental_uris":{"android":"levelo://app?vid=f997f3a2-6ef7-4d7a-931e-8083cf2fa70c","ios":"levelo://app?vid=f997f3a2-6ef7-4d7a-931e-8083cf2fa70c"},"vehicle_type_id":"4","last_reported":1745651351,"current_range_meters":8400,"station_id":"ce501612rcd8frsf0b60","pricing_plan_id":"cebpf4jnsgd1na2vs0mg"},{"bike_id":"8080ad06-3a57-48b6-8ca4-5455098496b8","system_id":"levelo_inurba_marseille","lat":43.29884,"lon":5.37467,"is_reserved":false,"is_disabled":false,"rental_uris":{"android":"levelo://app?vid=8080ad06-3a57-48b6-8ca4-5455098496b8","ios":"levelo://app?vid=8080ad06-3a57-48b6-8ca4-5455098496b8"},"vehicle_type_id":"4","last_reported":1745651351,"current_range_meters":8400,"station_id":"ce4bgjh2rcd13ifvqbg0","pricing_plan_id":"cebpf4jnsgd1na2vs0mg"},{"bike_id":"e55b7fd1-db0d-4417-a85a-eee1595f4095","system_id":"levelo_inurba_marseille","lat":43.27944,"lon":5.41046,"is_reserved":false,"is_disabled":false,"rental_uris":{"android":"levelo://app?vid=e55b7fd1-db0d-4417-a85a-eee1595f4095","ios":"levelo://app?vid=e55b7fd1-db0d-4417-a85a-eee1595f4095"},"vehicle_type_id":"4","last_reported":1745651351,"current_range_meters":8400,"station_id":"ce4bhnp2rcd13ifvqh0g","pricing_plan_id":"cebpf4jnsgd1na2vs0mg"},{"bike_id":"c3377b8f-007f-40f4-941a-437fea66d7c3","system_id":"levelo_inurba_marseille","lat":43.27196,"lon":5.40984,"is_reserved":false,"is_disabled":false,"rental_uris":{"android":"levelo://app?vid=c3377b8f-007f-40f4-941a-437fea66d7c3","ios":"levelo://app?vid=c3377b8f-007f-40f4-941a-437fea66d7c3"},"vehicle_type_id":"4","last_reported":1745651351,"current_range_meters":8800,"station_id":"ce4bhl12rcd13ifvqgf0","pricing_plan_id":"cebpf4jnsgd1na2vs0mg"},{"bike_id":"1079c254-2598-4178-bcad-9f660c87e9b1","system_id":"levelo_inurba_marseille","lat":43.31271,"lon":5.40179,"is_reserved":false,"is_disabled":false,"rental_uris":{"android":"levelo://app?vid=1079c254-2598-4178-bcad-9f660c87e9b1","ios":"levelo://app?vid=1079c254-2598-4178-bcad-9f660c87e9b1"},"vehicle_type_id":"4","last_reported":1745651351,"current_range_meters":8800,"station_id":"ce4bh092rcd13ifvqd30","pricing_plan_id":"cebpf4jnsgd1na2vs0mg"},{"bike_id":"bb374ee1-28dd-4668-ac64-feeba238b50f","system_id":"levelo_inurba_marseille","lat":43.29569,"lon":5.37505,"is_reserved":false,"is_disabled":false,"rental_uris":{"android":"levelo://app?vid=bb374ee1-28dd-4668-ac64-feeba238b50f","ios":"levelo://app?vid=bb374ee1-28dd-4668-ac64-feeba238b50f"},"vehicle_type_id":"4","last_reported":1745651351,"current_range_meters":8800,"station_id":"ce4bgh92rcd13ifvqb50","pricing_plan_id":"cebpf4jnsgd1na2vs0mg"},{"bike_id":"edbc9bff-8242-42ee-887f-3b5d28f3a582","system_id":"levelo_inurba_marseille","lat":43.29388,"lon":5.37857,"is_reserved":false,"is_disabled":false,"rental_uris":{"android":"levelo://app?vid=edbc9bff-8242-42ee-887f-3b5d28f3a582","ios":"levelo://app?vid=edbc9bff-8242-42ee-887f-3b5d28f3a582"},"vehicle_type_id":"4","last_reported":1745651351,"current_range_meters":8800,"station_id":"ce4bgjh2rcd13ifvqbf0","pricing_plan_id":"cebpf4jnsgd1na2vs0mg"},{"bike_id":"dc01f0b5-b1ff-492a-9187-c2aa24895f43","system_id":"levelo_inurba_marseille","lat":43.23192,"lon":5.39991,"is_reserved":false,"is_disabled":false,"rental_uris":{"android":"levelo://app?vid=dc01f0b5-b1ff-492a-9187-c2aa24895f43","ios":"levelo://app?vid=dc01f0b5-b1ff-492a-9187-c2aa24895f43"},"vehicle_type_id":"4","last_reported":1745651351,"current_range_meters":8800,"station_id":"ce4bhn12rcd13ifvqgqg","pricing_plan_id":"cebpf4jnsgd1na2vs0mg"},{"bike_id":"16d6482a-eff2-41b1-a83c-bc881756a6e2","system_id":"levelo_inurba_marseille","lat":43.30801,"lon":5.381547,"is_reserved":false,"is_disabled":false,"rental_uris":{"android":"levelo://app?vid=16d6482a-eff2-41b1-a83c-bc881756a6e2","ios":"levelo://app?vid=16d6482a-eff2-41b1-a83c-bc881756a6e2"},"vehicle_type_id":"4","last_reported":1745651351,"current_range_meters":9200,"station_id":"ce4bgt12rcd13ifvqce0","pricing_plan_id":"cebpf4jnsgd1na2vs0mg"},{"bike_id":"3060a98f-4723-4c0c-a5f3-8d302c950512","system_id":"levelo_inurba_marseille","lat":43.28574,"lon":5.39493,"is_reserved":false,"is_disabled":false,"rental_uris":{"android":"levelo://app?vid=3060a98f-4723-4c0c-a5f3-8d302c950512","ios":"levelo://app?vid=3060a98f-4723-4c0c-a5f3-8d302c950512"},"vehicle_type_id":"4","last_reported":1745651351,"current_range_meters":9200,"station_id":"ce4bh292rcd13ifvqdg0","pricing_plan_id":"cebpf4jnsgd1na2vs0mg"},{"bike_id":"eba80cac-49a3-43c0-b27f-65d7a86f1a53","system_id":"levelo_inurba_marseille","lat":43.31124,"lon":5.3776,"is_reserved":false,"is_disabled":false,"rental_uris":{"android":"levelo://app?vid=eba80cac-49a3-43c0-b27f-65d7a86f1a53","ios":"levelo://app?vid=eba80cac-49a3-43c0-b27f-65d7a86f1a53"},"vehicle_type_id":"4","last_reported":1745651351,"current_range_meters":9200,"station_id":"ce4bgt92rcd13ifvqcg0","pricing_plan_id":"cebpf4jnsgd1na2vs0mg"},{"bike_id":"51376682-930e-45ed-90e0-b53d931ddc33","system_id":"levelo_inurba_marseille","lat":43.27499,"lon":5.42466,"is_reserved":false,"is_disabled":false,"rental_uris":{"android":"levelo://app?vid=51376682-930e-45ed-90e0-b53d931ddc33","ios":"levelo://app?vid=51376682-930e-45ed-90e0-b53d931ddc33"},"vehicle_type_id":"4","last_reported":1745651351,"current_range_meters":9200,"station_id":"ce4bhn92rcd13ifvqgrg","pricing_plan_id":"cebpf4jnsgd1na2vs0mg"},{"bike_id":"860ecedf-9e5e-49e6-a334-de39c73317e7","system_id":"levelo_inurba_marseille","lat":43.27917,"lon":5.39582,"is_reserved":false,"is_disabled":false,"rental_uris":{"android":"levelo://app?vid=860ecedf-9e5e-49e6-a334-de39c73317e7","ios":"levelo://app?vid=860ecedf-9e5e-49e6-a334-de39c73317e7"},"vehicle_type_id":"4","last_reported":1745651351,"current_range_meters":9200,"station_id":"ce4bhf92rcd13ifvqf40","pricing_plan_id":"cebpf4jnsgd1na2vs0mg"},{"bike_id":"3c976c1b-644c-4432-ad5a-b823ebcbcc9c","system_id":"levelo_inurba_marseille","lat":43.30164,"lon":5.37458,"is_reserved":false,"is_disabled":false,"rental_uris":{"android":"levelo://app?vid=3c976c1b-644c-4432-ad5a-b823ebcbcc9c","ios":"levelo://app?vid=3c976c1b-644c-4432-ad5a-b823ebcbcc9c"},"vehicle_type_id":"4","last_reported":1745651351,"current_range_meters":9200,"station_id":"ce4bgs92rcd13ifvqcc0","pricing_plan_id":"cebpf4jnsgd1na2vs0mg"},{"bike_id":"b0ee9a1d-7b8a-4efb-bf61-ca32e693e2f5","system_id":"levelo_inurba_marseille","lat":43.27497,"lon":5.42445,"is_reserved":false,"is_disabled":false,"rental_uris":{"android":"levelo://app?vid=b0ee9a1d-7b8a-4efb-bf61-ca32e693e2f5","ios":"levelo://app?vid=b0ee9a1d-7b8a-4efb-bf61-ca32e693e2f5"},"vehicle_type_id":"4","last_reported":1745651351,"current_range_meters":9200,"station_id":"ce4bhn92rcd13ifvqgrg","pricing_plan_id":"cebpf4jnsgd1na2vs0mg"},{"bike_id":"2640a8a7-846e-4c3c-96c7-d82e53bdfcfe","system_id":"levelo_inurba_marseille","lat":43.28486,"lon":5.38395,"is_reserved":false,"is_disabled":false,"rental_uris":{"android":"levelo://app?vid=2640a8a7-846e-4c3c-96c7-d82e53bdfcfe","ios":"levelo://app?vid=2640a8a7-846e-4c3c-96c7-d82e53bdfcfe"},"vehicle_type_id":"4","last_reported":1745651351,"current_range_meters":9200,"station_id":"ce4bh512rcd13ifvqe3g","pricing_plan_id":"cebpf4jnsgd1na2vs0mg"},{"bike_id":"7d8d69b2-0147-4031-958f-236ac2917414","system_id":"levelo_inurba_marseille","lat":43.2924,"lon":5.36859,"is_reserved":false,"is_disabled":true,"rental_uris":{"android":"levelo://app?vid=7d8d69b2-0147-4031-958f-236ac2917414","ios":"levelo://app?vid=7d8d69b2-0147-4031-958f-236ac2917414"},"vehicle_type_id":"4","last_reported":1745651351,"current_range_meters":9600,"station_id":"ce4bhbp2rcd13ifvqesg","pricing_plan_id":"cebpf4jnsgd1na2vs0mg"},{"bike_id":"90b40d80-097e-4cb4-bb2d-dd354db10e59","system_id":"levelo_inurba_marseille","lat":43.30478,"lon":5.37902,"is_reserved":false,"is_disabled":false,"rental_uris":{"android":"levelo://app?vid=90b40d80-097e-4cb4-bb2d-dd354db10e59","ios":"levelo://app?vid=90b40d80-097e-4cb4-bb2d-dd354db10e59"},"vehicle_type_id":"4","last_reported":1745651351,"current_range_meters":9600,"station_id":"ce4bgup2rcd13ifvqcn0","pricing_plan_id":"cebpf4jnsgd1na2vs0mg"},{"bike_id":"890d8b58-5f95-47c5-8125-c5ad39b55532","system_id":"levelo_inurba_marseille","lat":43.31297,"lon":5.40156,"is_reserved":false,"is_disabled":false,"rental_uris":{"android":"levelo://app?vid=890d8b58-5f95-47c5-8125-c5ad39b55532","ios":"levelo://app?vid=890d8b58-5f95-47c5-8125-c5ad39b55532"},"vehicle_type_id":"4","last_reported":1745651351,"current_range_meters":9600,"station_id":"ce4bh092rcd13ifvqd30","pricing_plan_id":"cebpf4jnsgd1na2vs0mg"},{"bike_id":"4c11ff0f-a579-4f78-9960-a443174b0bdd","system_id":"levelo_inurba_marseille","lat":43.211856,"lon":5.350748,"is_reserved":false,"is_disabled":false,"rental_uris":{"android":"levelo://app?vid=4c11ff0f-a579-4f78-9960-a443174b0bdd","ios":"levelo://app?vid=4c11ff0f-a579-4f78-9960-a443174b0bdd"},"vehicle_type_id":"4","last_reported":1745651351,"current_range_meters":9600,"station_id":"st_cvj6sg6p6f1abm77japg","pricing_plan_id":"cebpf4jnsgd1na2vs0mg"},{"bike_id":"58f9dab2-fdd9-4903-99d6-4847b2770a37","system_id":"levelo_inurba_marseille","lat":43.27496,"lon":5.42454,"is_reserved":false,"is_disabled":true,"rental_uris":{"android":"levelo://app?vid=58f9dab2-fdd9-4903-99d6-4847b2770a37","ios":"levelo://app?vid=58f9dab2-fdd9-4903-99d6-4847b2770a37"},"vehicle_type_id":"4","last_reported":1745651351,"current_range_meters":9600,"station_id":"ce4bhn92rcd13ifvqgrg","pricing_plan_id":"cebpf4jnsgd1na2vs0mg"},{"bike_id":"8ee8ddcf-b329-40ae-aad8-a703f60c6f36","system_id":"levelo_inurba_marseille","lat":43.2735,"lon":5.36233,"is_reserved":false,"is_disabled":false,"rental_uris":{"android":"levelo://app?vid=8ee8ddcf-b329-40ae-aad8-a703f60c6f36","ios":"levelo://app?vid=8ee8ddcf-b329-40ae-aad8-a703f60c6f36"},"vehicle_type_id":"4","last_reported":1745651351,"current_range_meters":9600,"station_id":"ce4bhbh2rcd13ifvqeo0","pricing_plan_id":"cebpf4jnsgd1na2vs0mg"},{"bike_id":"0bfff189-ec6a-4439-b345-e9dd168ab867","system_id":"levelo_inurba_marseille","lat":43.33751,"lon":5.39188,"is_reserved":false,"is_disabled":false,"rental_uris":{"android":"levelo://app?vid=0bfff189-ec6a-4439-b345-e9dd168ab867","ios":"levelo://app?vid=0bfff189-ec6a-4439-b345-e9dd168ab867"},"vehicle_type_id":"4","last_reported":1745651351,"current_range_meters":9600,"station_id":"ce4bhr92rcd13ifvqhsg","pricing_plan_id":"cebpf4jnsgd1na2vs0mg"},{"bike_id":"76574561-9367-4b42-ae13-9d91dd615f6b","system_id":"levelo_inurba_marseille","lat":43.29613,"lon":5.38094,"is_reserved":false,"is_disabled":false,"rental_uris":{"android":"levelo://app?vid=76574561-9367-4b42-ae13-9d91dd615f6b","ios":"levelo://app?vid=76574561-9367-4b42-ae13-9d91dd615f6b"},"vehicle_type_id":"4","last_reported":1745651351,"current_range_meters":10000,"station_id":"ce4bgl12rcd13ifvqbo0","pricing_plan_id":"cebpf4jnsgd1na2vs0mg"},{"bike_id":"d1397928-9a3a-401a-a43b-f3319bd9142e","system_id":"levelo_inurba_marseille","lat":43.29599,"lon":5.38086,"is_reserved":false,"is_disabled":false,"rental_uris":{"android":"levelo://app?vid=d1397928-9a3a-401a-a43b-f3319bd9142e","ios":"levelo://app?vid=d1397928-9a3a-401a-a43b-f3319bd9142e"},"vehicle_type_id":"4","last_reported":1745651351,"current_range_meters":10000,"station_id":"ce4bgl12rcd13ifvqbo0","pricing_plan_id":"cebpf4jnsgd1na2vs0mg"},{"bike_id":"e2dcabcf-64d8-4394-bb9a-ff877bee611a","system_id":"levelo_inurba_marseille","lat":43.320433,"lon":5.41529,"is_reserved":false,"is_disabled":false,"rental_uris":{"android":"levelo://app?vid=e2dcabcf-64d8-4394-bb9a-ff877bee611a","ios":"levelo://app?vid=e2dcabcf-64d8-4394-bb9a-ff877bee611a"},"vehicle_type_id":"4","last_reported":1745651351,"current_range_meters":10000,"station_id":"ce4bhq92rcd13ifvqhkg","pricing_plan_id":"cebpf4jnsgd1na2vs0mg"},{"bike_id":"78a0a8b0-519f-47ad-a7a8-aa518cde87b6","system_id":"levelo_inurba_marseille","lat":43.30463,"lon":5.37905,"is_reserved":false,"is_disabled":false,"rental_uris":{"android":"levelo://app?vid=78a0a8b0-519f-47ad-a7a8-aa518cde87b6","ios":"levelo://app?vid=78a0a8b0-519f-47ad-a7a8-aa518cde87b6"},"vehicle_type_id":"4","last_reported":1745651351,"current_range_meters":10000,"station_id":"ce4bgup2rcd13ifvqcn0","pricing_plan_id":"cebpf4jnsgd1na2vs0mg"},{"bike_id":"1c34b467-aa8f-499c-8094-34a6b8d35e87","system_id":"levelo_inurba_marseille","lat":43.3015,"lon":5.38081,"is_reserved":false,"is_disabled":false,"rental_uris":{"android":"levelo://app?vid=1c34b467-aa8f-499c-8094-34a6b8d35e87","ios":"levelo://app?vid=1c34b467-aa8f-499c-8094-34a6b8d35e87"},"vehicle_type_id":"4","last_reported":1745651351,"current_range_meters":10000,"station_id":"ce4bgjp2rcd13ifvqbh0","pricing_plan_id":"cebpf4jnsgd1na2vs0mg"},{"bike_id":"c39614a5-07de-4530-aba8-6df7a38d52ce","system_id":"levelo_inurba_marseille","lat":43.31283,"lon":5.40159,"is_reserved":false,"is_disabled":false,"rental_uris":{"android":"levelo://app?vid=c39614a5-07de-4530-aba8-6df7a38d52ce","ios":"levelo://app?vid=c39614a5-07de-4530-aba8-6df7a38d52ce"},"vehicle_type_id":"4","last_reported":1745651351,"current_range_meters":10000,"station_id":"ce4bh092rcd13ifvqd30","pricing_plan_id":"cebpf4jnsgd1na2vs0mg"},{"bike_id":"4406da3b-d473-4d63-87bf-fa2b430a3908","system_id":"levelo_inurba_marseille","lat":43.28564,"lon":5.39493,"is_reserved":false,"is_disabled":false,"rental_uris":{"android":"levelo://app?vid=4406da3b-d473-4d63-87bf-fa2b430a3908","ios":"levelo://app?vid=4406da3b-d473-4d63-87bf-fa2b430a3908"},"vehicle_type_id":"4","last_reported":1745651351,"current_range_meters":10800,"station_id":"ce4bh292rcd13ifvqdg0","pricing_plan_id":"cebpf4jnsgd1na2vs0mg"},{"bike_id":"18be3b25-7248-451f-8d39-63f6a4960b11","system_id":"levelo_inurba_marseille","lat":43.29603,"lon":5.37722,"is_reserved":false,"is_disabled":false,"rental_uris":{"android":"levelo://app?vid=18be3b25-7248-451f-8d39-63f6a4960b11","ios":"levelo://app?vid=18be3b25-7248-451f-8d39-63f6a4960b11"},"vehicle_type_id":"4","last_reported":1745651351,"current_range_meters":10800,"station_id":"ce4bgi92rcd13ifvqb90","pricing_plan_id":"cebpf4jnsgd1na2vs0mg"},{"bike_id":"d29d99d2-8c34-447d-9ac5-9ffd1b17febf","system_id":"levelo_inurba_marseille","lat":43.23212,"lon":5.39968,"is_reserved":false,"is_disabled":false,"rental_uris":{"android":"levelo://app?vid=d29d99d2-8c34-447d-9ac5-9ffd1b17febf","ios":"levelo://app?vid=d29d99d2-8c34-447d-9ac5-9ffd1b17febf"},"vehicle_type_id":"4","last_reported":1745651351,"current_range_meters":10800,"station_id":"ce4bhn12rcd13ifvqgqg","pricing_plan_id":"cebpf4jnsgd1na2vs0mg"},{"bike_id":"9fd6aae8-ad49-4272-b84d-abdd3adfc8bb","system_id":"levelo_inurba_marseille","lat":43.3169,"lon":5.40474,"is_reserved":false,"is_disabled":false,"rental_uris":{"android":"levelo://app?vid=9fd6aae8-ad49-4272-b84d-abdd3adfc8bb","ios":"levelo://app?vid=9fd6aae8-ad49-4272-b84d-abdd3adfc8bb"},"vehicle_type_id":"4","last_reported":1745651351,"current_range_meters":10800,"station_id":"ce4bh012rcd13ifvqd00","pricing_plan_id":"cebpf4jnsgd1na2vs0mg"},{"bike_id":"f77a929f-13ce-4ad3-b37b-030e100178ba","system_id":"levelo_inurba_marseille","lat":43.25961,"lon":5.40893,"is_reserved":false,"is_disabled":false,"rental_uris":{"android":"levelo://app?vid=f77a929f-13ce-4ad3-b37b-030e100178ba","ios":"levelo://app?vid=f77a929f-13ce-4ad3-b37b-030e100178ba"},"vehicle_type_id":"4","last_reported":1745651351,"current_range_meters":10800,"station_id":"ce4bhm92rcd13ifvqglg","pricing_plan_id":"cebpf4jnsgd1na2vs0mg"},{"bike_id":"d64e31d2-f53d-45ee-8bbf-113947529cc7","system_id":"levelo_inurba_marseille","lat":43.30129,"lon":5.38779,"is_reserved":false,"is_disabled":false,"rental_uris":{"android":"levelo://app?vid=d64e31d2-f53d-45ee-8bbf-113947529cc7","ios":"levelo://app?vid=d64e31d2-f53d-45ee-8bbf-113947529cc7"},"vehicle_type_id":"4","last_reported":1745651351,"current_range_meters":10800,"station_id":"ce4bghh2rcd13ifvqb60","pricing_plan_id":"cebpf4jnsgd1na2vs0mg"},{"bike_id":"3f9c3cd7-5c19-493a-8404-1db86da8fcc7","system_id":"levelo_inurba_marseille","lat":43.33599,"lon":5.41016,"is_reserved":false,"is_disabled":false,"rental_uris":{"android":"levelo://app?vid=3f9c3cd7-5c19-493a-8404-1db86da8fcc7","ios":"levelo://app?vid=3f9c3cd7-5c19-493a-8404-1db86da8fcc7"},"vehicle_type_id":"4","last_reported":1745651351,"current_range_meters":11200,"station_id":"ce4bhqh2rcd13ifvqhmg","pricing_plan_id":"cebpf4jnsgd1na2vs0mg"},{"bike_id":"568053e1-9183-4cee-acca-959027493876","system_id":"levelo_inurba_marseille","lat":43.30909,"lon":5.36842,"is_reserved":false,"is_disabled":false,"rental_uris":{"android":"levelo://app?vid=568053e1-9183-4cee-acca-959027493876","ios":"levelo://app?vid=568053e1-9183-4cee-acca-959027493876"},"vehicle_type_id":"4","last_reported":1745651351,"current_range_meters":11200,"station_id":"ce4bgn92rcd13ifvqbvg","pricing_plan_id":"cebpf4jnsgd1na2vs0mg"},{"bike_id":"04dabfd5-0bdb-409c-ba0c-fe9ea23093bc","system_id":"levelo_inurba_marseille","lat":43.29036,"lon":5.39968,"is_reserved":false,"is_disabled":false,"rental_uris":{"android":"levelo://app?vid=04dabfd5-0bdb-409c-ba0c-fe9ea23093bc","ios":"levelo://app?vid=04dabfd5-0bdb-409c-ba0c-fe9ea23093bc"},"vehicle_type_id":"4","last_reported":1745651351,"current_range_meters":11200,"station_id":"ce4bh392rcd13ifvqdm0","pricing_plan_id":"cebpf4jnsgd1na2vs0mg"},{"bike_id":"f173bdc3-6bbf-4e9a-b18f-6134c30f147a","system_id":"levelo_inurba_marseille","lat":43.304044,"lon":5.412982,"is_reserved":false,"is_disabled":false,"rental_uris":{"android":"levelo://app?vid=f173bdc3-6bbf-4e9a-b18f-6134c30f147a","ios":"levelo://app?vid=f173bdc3-6bbf-4e9a-b18f-6134c30f147a"},"vehicle_type_id":"4","last_reported":1745651351,"current_range_meters":11600,"station_id":"ce4bhop2rcd13ifvqh8g","pricing_plan_id":"cebpf4jnsgd1na2vs0mg"},{"bike_id":"0d5723ba-564d-4baf-af4b-da0596d940ef","system_id":"levelo_inurba_marseille","lat":43.26564,"lon":5.38997,"is_reserved":false,"is_disabled":false,"rental_uris":{"android":"levelo://app?vid=0d5723ba-564d-4baf-af4b-da0596d940ef","ios":"levelo://app?vid=0d5723ba-564d-4baf-af4b-da0596d940ef"},"vehicle_type_id":"4","last_reported":1745651351,"current_range_meters":11600,"station_id":"ce4bhe12rcd13ifvqf30","pricing_plan_id":"cebpf4jnsgd1na2vs0mg"},{"bike_id":"3a12d3fa-faf5-47a8-83c5-8424737613c2","system_id":"levelo_inurba_marseille","lat":43.26194,"lon":5.37449,"is_reserved":false,"is_disabled":false,"rental_uris":{"android":"levelo://app?vid=3a12d3fa-faf5-47a8-83c5-8424737613c2","ios":"levelo://app?vid=3a12d3fa-faf5-47a8-83c5-8424737613c2"},"vehicle_type_id":"4","last_reported":1745651351,"current_range_meters":11600,"station_id":"ce4bhgp2rcd13ifvqfc0","pricing_plan_id":"cebpf4jnsgd1na2vs0mg"},{"bike_id":"49a5be0b-2b23-4d57-a2bd-3a5d802fab0b","system_id":"levelo_inurba_marseille","lat":43.2899,"lon":5.35575,"is_reserved":false,"is_disabled":true,"rental_uris":{"android":"levelo://app?vid=49a5be0b-2b23-4d57-a2bd-3a5d802fab0b","ios":"levelo://app?vid=49a5be0b-2b23-4d57-a2bd-3a5d802fab0b"},"vehicle_type_id":"4","last_reported":1745651351,"current_range_meters":11600,"station_id":"ce4bhb92rcd13ifvqen0","pricing_plan_id":"cebpf4jnsgd1na2vs0mg"},{"bike_id":"2b17aaba-bf63-4e33-b1a9-21de098185b2","system_id":"levelo_inurba_marseille","lat":43.26233,"lon":5.40433,"is_reserved":false,"is_disabled":false,"rental_uris":{"android":"levelo://app?vid=2b17aaba-bf63-4e33-b1a9-21de098185b2","ios":"levelo://app?vid=2b17aaba-bf63-4e33-b1a9-21de098185b2"},"vehicle_type_id":"4","last_reported":1745651351,"current_range_meters":12000,"station_id":"ce4bhmh2rcd13ifvqgmg","pricing_plan_id":"cebpf4jnsgd1na2vs0mg"},{"bike_id":"b337b47e-e0c0-40c3-878a-37e58bb44305","system_id":"levelo_inurba_marseille","lat":43.31174,"lon":5.4078,"is_reserved":false,"is_disabled":false,"rental_uris":{"android":"levelo://app?vid=b337b47e-e0c0-40c3-878a-37e58bb44305","ios":"levelo://app?vid=b337b47e-e0c0-40c3-878a-37e58bb44305"},"vehicle_type_id":"4","last_reported":1745651351,"current_range_meters":12000,"station_id":"","pricing_plan_id":"cebpf4jnsgd1na2vs0mg"},{"bike_id":"21437a5a-65f0-4308-a086-6a61c1a2bd7e","system_id":"levelo_inurba_marseille","lat":43.30929,"lon":5.37155,"is_reserved":false,"is_disabled":false,"rental_uris":{"android":"levelo://app?vid=21437a5a-65f0-4308-a086-6a61c1a2bd7e","ios":"levelo://app?vid=21437a5a-65f0-4308-a086-6a61c1a2bd7e"},"vehicle_type_id":"4","last_reported":1745651351,"current_range_meters":12000,"station_id":"ce4bguh2rcd13ifvqckg","pricing_plan_id":"cebpf4jnsgd1na2vs0mg"},{"bike_id":"b4fbbd83-1dbc-4edd-b531-ebdb78c6626d","system_id":"levelo_inurba_marseille","lat":43.32674,"lon":5.40995,"is_reserved":false,"is_disabled":false,"rental_uris":{"android":"levelo://app?vid=b4fbbd83-1dbc-4edd-b531-ebdb78c6626d","ios":"levelo://app?vid=b4fbbd83-1dbc-4edd-b531-ebdb78c6626d"},"vehicle_type_id":"4","last_reported":1745651351,"current_range_meters":12000,"station_id":"ce4bhpp2rcd13ifvqhgg","pricing_plan_id":"cebpf4jnsgd1na2vs0mg"},{"bike_id":"f7a81306-c9fd-4e90-860b-34de9ab879f7","system_id":"levelo_inurba_marseille","lat":43.30152,"lon":5.38077,"is_reserved":false,"is_disabled":false,"rental_uris":{"android":"levelo://app?vid=f7a81306-c9fd-4e90-860b-34de9ab879f7","ios":"levelo://app?vid=f7a81306-c9fd-4e90-860b-34de9ab879f7"},"vehicle_type_id":"4","last_reported":1745651351,"current_range_meters":12000,"station_id":"ce4bgjp2rcd13ifvqbh0","pricing_plan_id":"cebpf4jnsgd1na2vs0mg"},{"bike_id":"7d0ba233-86ba-44c3-9826-d15ee909987f","system_id":"levelo_inurba_marseille","lat":43.25107,"lon":5.4035,"is_reserved":false,"is_disabled":false,"rental_uris":{"android":"levelo://app?vid=7d0ba233-86ba-44c3-9826-d15ee909987f","ios":"levelo://app?vid=7d0ba233-86ba-44c3-9826-d15ee909987f"},"vehicle_type_id":"4","last_reported":1745651351,"current_range_meters":12000,"station_id":"ce4bhlh2rcd13ifvqgig","pricing_plan_id":"cebpf4jnsgd1na2vs0mg"},{"bike_id":"7c799cf1-9919-4f59-bde2-ea860bf8d95f","system_id":"levelo_inurba_marseille","lat":43.23192,"lon":5.35554,"is_reserved":false,"is_disabled":true,"rental_uris":{"android":"levelo://app?vid=7c799cf1-9919-4f59-bde2-ea860bf8d95f","ios":"levelo://app?vid=7c799cf1-9919-4f59-bde2-ea860bf8d95f"},"vehicle_type_id":"4","last_reported":1745651351,"current_range_meters":12000,"station_id":"ce4bhu92rcd13ifvqi70","pricing_plan_id":"cebpf4jnsgd1na2vs0mg"},{"bike_id":"880b8e43-29db-40db-be6a-773bd218bade","system_id":"levelo_inurba_marseille","lat":43.306513,"lon":5.400711,"is_reserved":false,"is_disabled":false,"rental_uris":{"android":"levelo://app?vid=880b8e43-29db-40db-be6a-773bd218bade","ios":"levelo://app?vid=880b8e43-29db-40db-be6a-773bd218bade"},"vehicle_type_id":"4","last_reported":1745651351,"current_range_meters":12400,"station_id":"ce4bh112rcd13ifvqda0","pricing_plan_id":"cebpf4jnsgd1na2vs0mg"},{"bike_id":"af6af1ea-83a0-4448-a6b9-d143557f7290","system_id":"levelo_inurba_marseille","lat":43.27059,"lon":5.402102,"is_reserved":false,"is_disabled":false,"rental_uris":{"android":"levelo://app?vid=af6af1ea-83a0-4448-a6b9-d143557f7290","ios":"levelo://app?vid=af6af1ea-83a0-4448-a6b9-d143557f7290"},"vehicle_type_id":"4","last_reported":1745651351,"current_range_meters":12400,"station_id":"ce4bhk92rcd13ifvqgc0","pricing_plan_id":"cebpf4jnsgd1na2vs0mg"},{"bike_id":"262de007-d0f9-4b5c-9db4-1c829c9329a9","system_id":"levelo_inurba_marseille","lat":43.27946,"lon":5.410415,"is_reserved":false,"is_disabled":false,"rental_uris":{"android":"levelo://app?vid=262de007-d0f9-4b5c-9db4-1c829c9329a9","ios":"levelo://app?vid=262de007-d0f9-4b5c-9db4-1c829c9329a9"},"vehicle_type_id":"4","last_reported":1745651351,"current_range_meters":12400,"station_id":"ce4bhnp2rcd13ifvqh0g","pricing_plan_id":"cebpf4jnsgd1na2vs0mg"},{"bike_id":"1e3e828f-1678-459e-98d0-aef0ab4cc768","system_id":"levelo_inurba_marseille","lat":43.29603,"lon":5.38104,"is_reserved":false,"is_disabled":false,"rental_uris":{"android":"levelo://app?vid=1e3e828f-1678-459e-98d0-aef0ab4cc768","ios":"levelo://app?vid=1e3e828f-1678-459e-98d0-aef0ab4cc768"},"vehicle_type_id":"4","last_reported":1745651351,"current_range_meters":12400,"station_id":"ce4bgl12rcd13ifvqbo0","pricing_plan_id":"cebpf4jnsgd1na2vs0mg"},{"bike_id":"ff7503c7-e600-4fe8-bf44-48f05e59da45","system_id":"levelo_inurba_marseille","lat":43.3237,"lon":5.38888,"is_reserved":false,"is_disabled":false,"rental_uris":{"android":"levelo://app?vid=ff7503c7-e600-4fe8-bf44-48f05e59da45","ios":"levelo://app?vid=ff7503c7-e600-4fe8-bf44-48f05e59da45"},"vehicle_type_id":"4","last_reported":1745651351,"current_range_meters":12400,"station_id":"ce4bhqp2rcd13ifvqhog","pricing_plan_id":"cebpf4jnsgd1na2vs0mg"},{"bike_id":"987d7900-bb2a-45cb-bed7-6d69f6fd4fa3","system_id":"levelo_inurba_marseille","lat":43.28515,"lon":5.38449,"is_reserved":false,"is_disabled":false,"rental_uris":{"android":"levelo://app?vid=987d7900-bb2a-45cb-bed7-6d69f6fd4fa3","ios":"levelo://app?vid=987d7900-bb2a-45cb-bed7-6d69f6fd4fa3"},"vehicle_type_id":"4","last_reported":1745651351,"current_range_meters":12400,"station_id":"ce4bh512rcd13ifvqe3g","pricing_plan_id":"cebpf4jnsgd1na2vs0mg"},{"bike_id":"f85fe752-f922-407c-9833-c0851c5df29e","system_id":"levelo_inurba_marseille","lat":43.28484,"lon":5.38424,"is_reserved":false,"is_disabled":false,"rental_uris":{"android":"levelo://app?vid=f85fe752-f922-407c-9833-c0851c5df29e","ios":"levelo://app?vid=f85fe752-f922-407c-9833-c0851c5df29e"},"vehicle_type_id":"4","last_reported":1745651351,"current_range_meters":12400,"station_id":"ce4bh512rcd13ifvqe3g","pricing_plan_id":"cebpf4jnsgd1na2vs0mg"},{"bike_id":"10cb4603-35bc-4192-85dc-931c7e07fbc4","system_id":"levelo_inurba_marseille","lat":43.32364,"lon":5.38886,"is_reserved":false,"is_disabled":false,"rental_uris":{"android":"levelo://app?vid=10cb4603-35bc-4192-85dc-931c7e07fbc4","ios":"levelo://app?vid=10cb4603-35bc-4192-85dc-931c7e07fbc4"},"vehicle_type_id":"4","last_reported":1745651351,"current_range_meters":12800,"station_id":"ce4bhqp2rcd13ifvqhog","pricing_plan_id":"cebpf4jnsgd1na2vs0mg"},{"bike_id":"6818aaf0-2b55-4f44-b250-fb969efe00e7","system_id":"levelo_inurba_marseille","lat":43.28383,"lon":5.38615,"is_reserved":false,"is_disabled":false,"rental_uris":{"android":"levelo://app?vid=6818aaf0-2b55-4f44-b250-fb969efe00e7","ios":"levelo://app?vid=6818aaf0-2b55-4f44-b250-fb969efe00e7"},"vehicle_type_id":"4","last_reported":1745651351,"current_range_meters":12800,"station_id":"ce4bh492rcd13ifvqdvg","pricing_plan_id":"cebpf4jnsgd1na2vs0mg"},{"bike_id":"fdbe3e4c-6069-4e16-9ae7-cb790fcbdb9e","system_id":"levelo_inurba_marseille","lat":43.24664,"lon":5.38159,"is_reserved":false,"is_disabled":false,"rental_uris":{"android":"levelo://app?vid=fdbe3e4c-6069-4e16-9ae7-cb790fcbdb9e","ios":"levelo://app?vid=fdbe3e4c-6069-4e16-9ae7-cb790fcbdb9e"},"vehicle_type_id":"4","last_reported":1745651351,"current_range_meters":13600,"station_id":"ce4bhih2rcd13ifvqfr0","pricing_plan_id":"cebpf4jnsgd1na2vs0mg"},{"bike_id":"ab157b9a-f413-4283-9896-461bb1b27942","system_id":"levelo_inurba_marseille","lat":43.33006,"lon":5.39017,"is_reserved":false,"is_disabled":false,"rental_uris":{"android":"levelo://app?vid=ab157b9a-f413-4283-9896-461bb1b27942","ios":"levelo://app?vid=ab157b9a-f413-4283-9896-461bb1b27942"},"vehicle_type_id":"4","last_reported":1745651351,"current_range_meters":13600,"station_id":"ce4bhr92rcd13ifvqhrg","pricing_plan_id":"cebpf4jnsgd1na2vs0mg"},{"bike_id":"8aa5bde6-741b-4e1d-bede-e6106635c2d9","system_id":"levelo_inurba_marseille","lat":43.33597,"lon":5.41033,"is_reserved":false,"is_disabled":false,"rental_uris":{"android":"levelo://app?vid=8aa5bde6-741b-4e1d-bede-e6106635c2d9","ios":"levelo://app?vid=8aa5bde6-741b-4e1d-bede-e6106635c2d9"},"vehicle_type_id":"4","last_reported":1745651351,"current_range_meters":13600,"station_id":"ce4bhqh2rcd13ifvqhmg","pricing_plan_id":"cebpf4jnsgd1na2vs0mg"},{"bike_id":"97fbe862-3dc4-4ded-9569-7540ceeeffb5","system_id":"levelo_inurba_marseille","lat":43.3361,"lon":5.41014,"is_reserved":false,"is_disabled":false,"rental_uris":{"android":"levelo://app?vid=97fbe862-3dc4-4ded-9569-7540ceeeffb5","ios":"levelo://app?vid=97fbe862-3dc4-4ded-9569-7540ceeeffb5"},"vehicle_type_id":"4","last_reported":1745651351,"current_range_meters":13600,"station_id":"ce4bhqh2rcd13ifvqhmg","pricing_plan_id":"cebpf4jnsgd1na2vs0mg"},{"bike_id":"d08334af-0288-4980-ba3f-5e13619388fa","system_id":"levelo_inurba_marseille","lat":43.3041,"lon":5.41275,"is_reserved":false,"is_disabled":false,"rental_uris":{"android":"levelo://app?vid=d08334af-0288-4980-ba3f-5e13619388fa","ios":"levelo://app?vid=d08334af-0288-4980-ba3f-5e13619388fa"},"vehicle_type_id":"4","last_reported":1745651351,"current_range_meters":13600,"station_id":"ce4bhop2rcd13ifvqh8g","pricing_plan_id":"cebpf4jnsgd1na2vs0mg"},{"bike_id":"53ee7972-7064-4321-8512-ae59c5929bdb","system_id":"levelo_inurba_marseille","lat":43.2956,"lon":5.37527,"is_reserved":false,"is_disabled":false,"rental_uris":{"android":"levelo://app?vid=53ee7972-7064-4321-8512-ae59c5929bdb","ios":"levelo://app?vid=53ee7972-7064-4321-8512-ae59c5929bdb"},"vehicle_type_id":"4","last_reported":1745651351,"current_range_meters":14000,"station_id":"ce4bgh92rcd13ifvqb50","pricing_plan_id":"cebpf4jnsgd1na2vs0mg"},{"bike_id":"86082c5a-74ec-45ee-9bbd-681fdfc8da73","system_id":"levelo_inurba_marseille","lat":43.23966,"lon":5.36639,"is_reserved":false,"is_disabled":false,"rental_uris":{"android":"levelo://app?vid=86082c5a-74ec-45ee-9bbd-681fdfc8da73","ios":"levelo://app?vid=86082c5a-74ec-45ee-9bbd-681fdfc8da73"},"vehicle_type_id":"4","last_reported":1745651351,"current_range_meters":14000,"station_id":"ce4bhi12rcd13ifvqfp0","pricing_plan_id":"cebpf4jnsgd1na2vs0mg"},{"bike_id":"eb794dce-31f8-4489-81b8-5abd352618f5","system_id":"levelo_inurba_marseille","lat":43.24388,"lon":5.37063,"is_reserved":false,"is_disabled":false,"rental_uris":{"android":"levelo://app?vid=eb794dce-31f8-4489-81b8-5abd352618f5","ios":"levelo://app?vid=eb794dce-31f8-4489-81b8-5abd352618f5"},"vehicle_type_id":"4","last_reported":1745651351,"current_range_meters":14000,"station_id":"ce4bhhh2rcd13ifvqfk0","pricing_plan_id":"cebpf4jnsgd1na2vs0mg"},{"bike_id":"fe2049cb-9356-4b81-af41-aad0fb7a05d9","system_id":"levelo_inurba_marseille","lat":43.24061,"lon":5.37723,"is_reserved":false,"is_disabled":false,"rental_uris":{"android":"levelo://app?vid=fe2049cb-9356-4b81-af41-aad0fb7a05d9","ios":"levelo://app?vid=fe2049cb-9356-4b81-af41-aad0fb7a05d9"},"vehicle_type_id":"4","last_reported":1745651351,"current_range_meters":14000,"station_id":"ce4bhnp2rcd13ifvqgvg","pricing_plan_id":"cebpf4jnsgd1na2vs0mg"},{"bike_id":"51a4b1f4-4cfb-4b9e-b7e6-50254ee4c796","system_id":"levelo_inurba_marseille","lat":43.28598,"lon":5.3707,"is_reserved":false,"is_disabled":false,"rental_uris":{"android":"levelo://app?vid=51a4b1f4-4cfb-4b9e-b7e6-50254ee4c796","ios":"levelo://app?vid=51a4b1f4-4cfb-4b9e-b7e6-50254ee4c796"},"vehicle_type_id":"4","last_reported":1745651351,"current_range_meters":14000,"station_id":"ce4bht12rcd13ifvqi60","pricing_plan_id":"cebpf4jnsgd1na2vs0mg"},{"bike_id":"3226391f-905a-4ad7-a0a4-910529847fc9","system_id":"levelo_inurba_marseille","lat":43.29571,"lon":5.37509,"is_reserved":false,"is_disabled":false,"rental_uris":{"android":"levelo://app?vid=3226391f-905a-4ad7-a0a4-910529847fc9","ios":"levelo://app?vid=3226391f-905a-4ad7-a0a4-910529847fc9"},"vehicle_type_id":"4","last_reported":1745651351,"current_range_meters":14400,"station_id":"ce4bgh92rcd13ifvqb50","pricing_plan_id":"cebpf4jnsgd1na2vs0mg"},{"bike_id":"0ec508c1-e9ac-4b5b-b8d1-19675c98bb05","system_id":"levelo_inurba_marseille","lat":43.32986,"lon":5.39046,"is_reserved":false,"is_disabled":false,"rental_uris":{"android":"levelo://app?vid=0ec508c1-e9ac-4b5b-b8d1-19675c98bb05","ios":"levelo://app?vid=0ec508c1-e9ac-4b5b-b8d1-19675c98bb05"},"vehicle_type_id":"4","last_reported":1745651351,"current_range_meters":14400,"station_id":"ce4bhr92rcd13ifvqhrg","pricing_plan_id":"cebpf4jnsgd1na2vs0mg"},{"bike_id":"83bcfcc1-ca59-49ee-8154-6ad0c05bcedf","system_id":"levelo_inurba_marseille","lat":43.29818,"lon":5.38115,"is_reserved":false,"is_disabled":false,"rental_uris":{"android":"levelo://app?vid=83bcfcc1-ca59-49ee-8154-6ad0c05bcedf","ios":"levelo://app?vid=83bcfcc1-ca59-49ee-8154-6ad0c05bcedf"},"vehicle_type_id":"4","last_reported":1745651351,"current_range_meters":14400,"station_id":"ce4bgip2rcd13ifvqbb0","pricing_plan_id":"cebpf4jnsgd1na2vs0mg"},{"bike_id":"defd398a-1f39-4b34-a3ca-7a950179063c","system_id":"levelo_inurba_marseille","lat":43.31493,"lon":5.373,"is_reserved":false,"is_disabled":false,"rental_uris":{"android":"levelo://app?vid=defd398a-1f39-4b34-a3ca-7a950179063c","ios":"levelo://app?vid=defd398a-1f39-4b34-a3ca-7a950179063c"},"vehicle_type_id":"4","last_reported":1745651351,"current_range_meters":14400,"station_id":"ce4bgt12rcd13ifvqcd0","pricing_plan_id":"cebpf4jnsgd1na2vs0mg"},{"bike_id":"075e238f-f6a0-4429-85db-f8ba79344280","system_id":"levelo_inurba_marseille","lat":43.29575,"lon":5.38113,"is_reserved":false,"is_disabled":true,"rental_uris":{"android":"levelo://app?vid=075e238f-f6a0-4429-85db-f8ba79344280","ios":"levelo://app?vid=075e238f-f6a0-4429-85db-f8ba79344280"},"vehicle_type_id":"4","last_reported":1745651351,"current_range_meters":14400,"station_id":"ce4bgl12rcd13ifvqbo0","pricing_plan_id":"cebpf4jnsgd1na2vs0mg"},{"bike_id":"f0ff19c2-cbf5-4852-bfe8-1207ae67f84f","system_id":"levelo_inurba_marseille","lat":43.24159,"lon":5.36416,"is_reserved":false,"is_disabled":false,"rental_uris":{"android":"levelo://app?vid=f0ff19c2-cbf5-4852-bfe8-1207ae67f84f","ios":"levelo://app?vid=f0ff19c2-cbf5-4852-bfe8-1207ae67f84f"},"vehicle_type_id":"4","last_reported":1745651351,"current_range_meters":14800,"station_id":"cpo36qri1sfpv3e86is0","pricing_plan_id":"cebpf4jnsgd1na2vs0mg"},{"bike_id":"74d6e45f-4a95-4ae0-9142-706b3469a431","system_id":"levelo_inurba_marseille","lat":43.3057,"lon":5.3672,"is_reserved":false,"is_disabled":true,"rental_uris":{"android":"levelo://app?vid=74d6e45f-4a95-4ae0-9142-706b3469a431","ios":"levelo://app?vid=74d6e45f-4a95-4ae0-9142-706b3469a431"},"vehicle_type_id":"4","last_reported":1745651351,"current_range_meters":14800,"station_id":"ce4bgrp2rcd13ifvqc9g","pricing_plan_id":"cebpf4jnsgd1na2vs0mg"},{"bike_id":"540e73f3-f5fe-4af6-8cf8-7c93cbc816e3","system_id":"levelo_inurba_marseille","lat":43.30071,"lon":5.39056,"is_reserved":false,"is_disabled":true,"rental_uris":{"android":"levelo://app?vid=540e73f3-f5fe-4af6-8cf8-7c93cbc816e3","ios":"levelo://app?vid=540e73f3-f5fe-4af6-8cf8-7c93cbc816e3"},"vehicle_type_id":"4","last_reported":1745651351,"current_range_meters":14800,"station_id":"ce4bh192rcd13ifvqdb0","pricing_plan_id":"cebpf4jnsgd1na2vs0mg"},{"bike_id":"3390b5bf-aae0-42c0-8b96-3b4cdfeab343","system_id":"levelo_inurba_marseille","lat":43.23177,"lon":5.39976,"is_reserved":false,"is_disabled":false,"rental_uris":{"android":"levelo://app?vid=3390b5bf-aae0-42c0-8b96-3b4cdfeab343","ios":"levelo://app?vid=3390b5bf-aae0-42c0-8b96-3b4cdfeab343"},"vehicle_type_id":"4","last_reported":1745651351,"current_range_meters":14800,"station_id":"ce4bhn12rcd13ifvqgqg","pricing_plan_id":"cebpf4jnsgd1na2vs0mg"},{"bike_id":"c7a35c55-5775-4667-8808-b1d6cad1a542","system_id":"levelo_inurba_marseille","lat":43.2916,"lon":5.37159,"is_reserved":false,"is_disabled":false,"rental_uris":{"android":"levelo://app?vid=c7a35c55-5775-4667-8808-b1d6cad1a542","ios":"levelo://app?vid=c7a35c55-5775-4667-8808-b1d6cad1a542"},"vehicle_type_id":"4","last_reported":1745651351,"current_range_meters":14400,"station_id":"ce4bha92rcd13ifvqeh0","pricing_plan_id":"cebpf4jnsgd1na2vs0mg"},{"bike_id":"96733886-38eb-4a8b-9470-0c4bf645e97a","system_id":"levelo_inurba_marseille","lat":43.27946,"lon":5.41051,"is_reserved":false,"is_disabled":false,"rental_uris":{"android":"levelo://app?vid=96733886-38eb-4a8b-9470-0c4bf645e97a","ios":"levelo://app?vid=96733886-38eb-4a8b-9470-0c4bf645e97a"},"vehicle_type_id":"4","last_reported":1745651351,"current_range_meters":15200,"station_id":"ce4bhnp2rcd13ifvqh0g","pricing_plan_id":"cebpf4jnsgd1na2vs0mg"},{"bike_id":"d28bf9af-5868-40cf-bc78-dd7cb5c022b5","system_id":"levelo_inurba_marseille","lat":43.29965,"lon":5.38496,"is_reserved":false,"is_disabled":false,"rental_uris":{"android":"levelo://app?vid=d28bf9af-5868-40cf-bc78-dd7cb5c022b5","ios":"levelo://app?vid=d28bf9af-5868-40cf-bc78-dd7cb5c022b5"},"vehicle_type_id":"4","last_reported":1745651351,"current_range_meters":15200,"station_id":"ce4bgj92rcd13ifvqbd0","pricing_plan_id":"cebpf4jnsgd1na2vs0mg"},{"bike_id":"ca376395-5bab-49ac-a88b-03ed7986b1fc","system_id":"levelo_inurba_marseille","lat":43.25916,"lon":5.40886,"is_reserved":false,"is_disabled":false,"rental_uris":{"android":"levelo://app?vid=ca376395-5bab-49ac-a88b-03ed7986b1fc","ios":"levelo://app?vid=ca376395-5bab-49ac-a88b-03ed7986b1fc"},"vehicle_type_id":"4","last_reported":1745651351,"current_range_meters":15200,"station_id":"ce4bhm92rcd13ifvqglg","pricing_plan_id":"cebpf4jnsgd1na2vs0mg"},{"bike_id":"4046a82f-66e8-4b55-bd0a-356edea772d8","system_id":"levelo_inurba_marseille","lat":43.30746,"lon":5.3741,"is_reserved":false,"is_disabled":false,"rental_uris":{"android":"levelo://app?vid=4046a82f-66e8-4b55-bd0a-356edea772d8","ios":"levelo://app?vid=4046a82f-66e8-4b55-bd0a-356edea772d8"},"vehicle_type_id":"4","last_reported":1745651351,"current_range_meters":16000,"station_id":"","pricing_plan_id":"cebpf4jnsgd1na2vs0mg"},{"bike_id":"76d051a0-70d0-4b83-a696-0389d8a23079","system_id":"levelo_inurba_marseille","lat":43.25692,"lon":5.41135,"is_reserved":false,"is_disabled":false,"rental_uris":{"android":"levelo://app?vid=76d051a0-70d0-4b83-a696-0389d8a23079","ios":"levelo://app?vid=76d051a0-70d0-4b83-a696-0389d8a23079"},"vehicle_type_id":"4","last_reported":1745651351,"current_range_meters":16000,"station_id":"ce4bhkp2rcd13ifvqgd0","pricing_plan_id":"cebpf4jnsgd1na2vs0mg"},{"bike_id":"8681189a-c5a2-4458-b6c1-95a6506a132e","system_id":"levelo_inurba_marseille","lat":43.27938,"lon":5.410568,"is_reserved":false,"is_disabled":false,"rental_uris":{"android":"levelo://app?vid=8681189a-c5a2-4458-b6c1-95a6506a132e","ios":"levelo://app?vid=8681189a-c5a2-4458-b6c1-95a6506a132e"},"vehicle_type_id":"4","last_reported":1745651351,"current_range_meters":16000,"station_id":"ce4bhnp2rcd13ifvqh0g","pricing_plan_id":"cebpf4jnsgd1na2vs0mg"},{"bike_id":"3e1ad8a3-a958-4d00-9a56-262625ea8d0f","system_id":"levelo_inurba_marseille","lat":43.28026,"lon":5.36942,"is_reserved":false,"is_disabled":false,"rental_uris":{"android":"levelo://app?vid=3e1ad8a3-a958-4d00-9a56-262625ea8d0f","ios":"levelo://app?vid=3e1ad8a3-a958-4d00-9a56-262625ea8d0f"},"vehicle_type_id":"4","last_reported":1745651351,"current_range_meters":16000,"station_id":"ce4bha12rcd13ifvqef0","pricing_plan_id":"cebpf4jnsgd1na2vs0mg"},{"bike_id":"def74e89-babc-4048-adcb-7b2d20699087","system_id":"levelo_inurba_marseille","lat":43.29901,"lon":5.43662,"is_reserved":false,"is_disabled":true,"rental_uris":{"android":"levelo://app?vid=def74e89-babc-4048-adcb-7b2d20699087","ios":"levelo://app?vid=def74e89-babc-4048-adcb-7b2d20699087"},"vehicle_type_id":"4","last_reported":1745651351,"current_range_meters":16000,"station_id":"ce4bhpp2rcd13ifvqhfg","pricing_plan_id":"cebpf4jnsgd1na2vs0mg"},{"bike_id":"c06fdd9a-4182-46e7-ab89-462edfb86425","system_id":"levelo_inurba_marseille","lat":43.3175,"lon":5.40393,"is_reserved":false,"is_disabled":false,"rental_uris":{"android":"levelo://app?vid=c06fdd9a-4182-46e7-ab89-462edfb86425","ios":"levelo://app?vid=c06fdd9a-4182-46e7-ab89-462edfb86425"},"vehicle_type_id":"4","last_reported":1745651351,"current_range_meters":16000,"station_id":"ce4bh012rcd13ifvqd00","pricing_plan_id":"cebpf4jnsgd1na2vs0mg"},{"bike_id":"13d452e5-1cae-4c4a-9e20-732e3eed22e9","system_id":"levelo_inurba_marseille","lat":43.23589,"lon":5.40348,"is_reserved":false,"is_disabled":false,"rental_uris":{"android":"levelo://app?vid=13d452e5-1cae-4c4a-9e20-732e3eed22e9","ios":"levelo://app?vid=13d452e5-1cae-4c4a-9e20-732e3eed22e9"},"vehicle_type_id":"4","last_reported":1745651351,"current_range_meters":16000,"station_id":"","pricing_plan_id":"cebpf4jnsgd1na2vs0mg"},{"bike_id":"5fdc0623-6c76-4064-a69a-27e877e94ecd","system_id":"levelo_inurba_marseille","lat":43.307915,"lon":5.37632,"is_reserved":false,"is_disabled":false,"rental_uris":{"android":"levelo://app?vid=5fdc0623-6c76-4064-a69a-27e877e94ecd","ios":"levelo://app?vid=5fdc0623-6c76-4064-a69a-27e877e94ecd"},"vehicle_type_id":"4","last_reported":1745651351,"current_range_meters":16000,"station_id":"","pricing_plan_id":"cebpf4jnsgd1na2vs0mg"},{"bike_id":"08361f15-a042-435d-b65b-7568cb2fed56","system_id":"levelo_inurba_marseille","lat":43.2596,"lon":5.40906,"is_reserved":false,"is_disabled":false,"rental_uris":{"android":"levelo://app?vid=08361f15-a042-435d-b65b-7568cb2fed56","ios":"levelo://app?vid=08361f15-a042-435d-b65b-7568cb2fed56"},"vehicle_type_id":"4","last_reported":1745651351,"current_range_meters":16400,"station_id":"ce4bhm92rcd13ifvqglg","pricing_plan_id":"cebpf4jnsgd1na2vs0mg"},{"bike_id":"a18b32af-837e-4f1b-a9b1-f47fdb463774","system_id":"levelo_inurba_marseille","lat":43.33595,"lon":5.409856,"is_reserved":false,"is_disabled":false,"rental_uris":{"android":"levelo://app?vid=a18b32af-837e-4f1b-a9b1-f47fdb463774","ios":"levelo://app?vid=a18b32af-837e-4f1b-a9b1-f47fdb463774"},"vehicle_type_id":"4","last_reported":1745651351,"current_range_meters":16400,"station_id":"ce4bhqh2rcd13ifvqhmg","pricing_plan_id":"cebpf4jnsgd1na2vs0mg"},{"bike_id":"817017a8-06d7-4168-a9c7-63b6ced6925a","system_id":"levelo_inurba_marseille","lat":43.314916,"lon":5.372995,"is_reserved":false,"is_disabled":false,"rental_uris":{"android":"levelo://app?vid=817017a8-06d7-4168-a9c7-63b6ced6925a","ios":"levelo://app?vid=817017a8-06d7-4168-a9c7-63b6ced6925a"},"vehicle_type_id":"4","last_reported":1745651351,"current_range_meters":16400,"station_id":"ce4bgt12rcd13ifvqcd0","pricing_plan_id":"cebpf4jnsgd1na2vs0mg"},{"bike_id":"bc2652db-32ee-450e-8cc0-005a02c1f054","system_id":"levelo_inurba_marseille","lat":43.21184,"lon":5.35085,"is_reserved":false,"is_disabled":false,"rental_uris":{"android":"levelo://app?vid=bc2652db-32ee-450e-8cc0-005a02c1f054","ios":"levelo://app?vid=bc2652db-32ee-450e-8cc0-005a02c1f054"},"vehicle_type_id":"4","last_reported":1745651351,"current_range_meters":16400,"station_id":"st_cvj6sg6p6f1abm77japg","pricing_plan_id":"cebpf4jnsgd1na2vs0mg"},{"bike_id":"399b8dc2-e8ce-4bee-a950-36ebf662eb4b","system_id":"levelo_inurba_marseille","lat":43.309372,"lon":5.401461,"is_reserved":false,"is_disabled":false,"rental_uris":{"android":"levelo://app?vid=399b8dc2-e8ce-4bee-a950-36ebf662eb4b","ios":"levelo://app?vid=399b8dc2-e8ce-4bee-a950-36ebf662eb4b"},"vehicle_type_id":"4","last_reported":1745651351,"current_range_meters":16400,"station_id":"ce4bgi12rcd13ifvqb70","pricing_plan_id":"cebpf4jnsgd1na2vs0mg"},{"bike_id":"dddc405f-b2d2-447f-8255-f175193c2de5","system_id":"levelo_inurba_marseille","lat":43.32104,"lon":5.3679,"is_reserved":false,"is_disabled":false,"rental_uris":{"android":"levelo://app?vid=dddc405f-b2d2-447f-8255-f175193c2de5","ios":"levelo://app?vid=dddc405f-b2d2-447f-8255-f175193c2de5"},"vehicle_type_id":"4","last_reported":1745651351,"current_range_meters":16400,"station_id":"ce4bhrh2rcd13ifvqhug","pricing_plan_id":"cebpf4jnsgd1na2vs0mg"},{"bike_id":"7dd260a0-acb7-4e68-ac47-8bfb485254c2","system_id":"levelo_inurba_marseille","lat":43.30642,"lon":5.40057,"is_reserved":false,"is_disabled":false,"rental_uris":{"android":"levelo://app?vid=7dd260a0-acb7-4e68-ac47-8bfb485254c2","ios":"levelo://app?vid=7dd260a0-acb7-4e68-ac47-8bfb485254c2"},"vehicle_type_id":"4","last_reported":1745651351,"current_range_meters":16400,"station_id":"ce4bh112rcd13ifvqda0","pricing_plan_id":"cebpf4jnsgd1na2vs0mg"},{"bike_id":"707fb32d-84a9-449e-a266-fdc2e0db2d87","system_id":"levelo_inurba_marseille","lat":43.31495,"lon":5.37307,"is_reserved":false,"is_disabled":false,"rental_uris":{"android":"levelo://app?vid=707fb32d-84a9-449e-a266-fdc2e0db2d87","ios":"levelo://app?vid=707fb32d-84a9-449e-a266-fdc2e0db2d87"},"vehicle_type_id":"4","last_reported":1745651351,"current_range_meters":16000,"station_id":"ce4bgt12rcd13ifvqcd0","pricing_plan_id":"cebpf4jnsgd1na2vs0mg"},{"bike_id":"5cb5fa24-52ea-420d-ba8f-f3e9de6bfd03","system_id":"levelo_inurba_marseille","lat":43.26694,"lon":5.38265,"is_reserved":false,"is_disabled":false,"rental_uris":{"android":"levelo://app?vid=5cb5fa24-52ea-420d-ba8f-f3e9de6bfd03","ios":"levelo://app?vid=5cb5fa24-52ea-420d-ba8f-f3e9de6bfd03"},"vehicle_type_id":"4","last_reported":1745651351,"current_range_meters":16800,"station_id":"ce4bhg92rcd13ifvqf90","pricing_plan_id":"cebpf4jnsgd1na2vs0mg"},{"bike_id":"cafd22c7-7677-4d40-a503-8cc2a23a898b","system_id":"levelo_inurba_marseille","lat":43.24681,"lon":5.38168,"is_reserved":false,"is_disabled":false,"rental_uris":{"android":"levelo://app?vid=cafd22c7-7677-4d40-a503-8cc2a23a898b","ios":"levelo://app?vid=cafd22c7-7677-4d40-a503-8cc2a23a898b"},"vehicle_type_id":"4","last_reported":1745651351,"current_range_meters":16800,"station_id":"ce4bhih2rcd13ifvqfr0","pricing_plan_id":"cebpf4jnsgd1na2vs0mg"},{"bike_id":"10a4d51a-09e6-4904-9a8d-6ed4fda8fa36","system_id":"levelo_inurba_marseille","lat":43.297093,"lon":5.376811,"is_reserved":false,"is_disabled":false,"rental_uris":{"android":"levelo://app?vid=10a4d51a-09e6-4904-9a8d-6ed4fda8fa36","ios":"levelo://app?vid=10a4d51a-09e6-4904-9a8d-6ed4fda8fa36"},"vehicle_type_id":"4","last_reported":1745651351,"current_range_meters":16800,"station_id":"ce4bgkh2rcd13ifvqbl0","pricing_plan_id":"cebpf4jnsgd1na2vs0mg"},{"bike_id":"4741e6af-20c0-42f4-b950-4d85a1b8cba0","system_id":"levelo_inurba_marseille","lat":43.308365,"lon":5.3791,"is_reserved":false,"is_disabled":false,"rental_uris":{"android":"levelo://app?vid=4741e6af-20c0-42f4-b950-4d85a1b8cba0","ios":"levelo://app?vid=4741e6af-20c0-42f4-b950-4d85a1b8cba0"},"vehicle_type_id":"4","last_reported":1745651351,"current_range_meters":16800,"station_id":"","pricing_plan_id":"cebpf4jnsgd1na2vs0mg"},{"bike_id":"a532dd2c-fcc6-478c-b327-adc7001484eb","system_id":"levelo_inurba_marseille","lat":43.26555,"lon":5.37294,"is_reserved":false,"is_disabled":false,"rental_uris":{"android":"levelo://app?vid=a532dd2c-fcc6-478c-b327-adc7001484eb","ios":"levelo://app?vid=a532dd2c-fcc6-478c-b327-adc7001484eb"},"vehicle_type_id":"4","last_reported":1745651351,"current_range_meters":16800,"station_id":"ce4bhg12rcd13ifvqf70","pricing_plan_id":"cebpf4jnsgd1na2vs0mg"},{"bike_id":"29f9e921-698d-4054-bde4-c87fb4a9fbbf","system_id":"levelo_inurba_marseille","lat":43.30875,"lon":5.3963,"is_reserved":false,"is_disabled":false,"rental_uris":{"android":"levelo://app?vid=29f9e921-698d-4054-bde4-c87fb4a9fbbf","ios":"levelo://app?vid=29f9e921-698d-4054-bde4-c87fb4a9fbbf"},"vehicle_type_id":"4","last_reported":1745651351,"current_range_meters":16800,"station_id":"ce4bh012rcd13ifvqcv0","pricing_plan_id":"cebpf4jnsgd1na2vs0mg"},{"bike_id":"6bf3389c-c442-43f0-8237-e0034e6366e5","system_id":"levelo_inurba_marseille","lat":43.30451,"lon":5.37913,"is_reserved":false,"is_disabled":false,"rental_uris":{"android":"levelo://app?vid=6bf3389c-c442-43f0-8237-e0034e6366e5","ios":"levelo://app?vid=6bf3389c-c442-43f0-8237-e0034e6366e5"},"vehicle_type_id":"4","last_reported":1745651351,"current_range_meters":17200,"station_id":"ce4bgup2rcd13ifvqcn0","pricing_plan_id":"cebpf4jnsgd1na2vs0mg"},{"bike_id":"55e463c2-e9b2-4adf-8e24-41c0314c1879","system_id":"levelo_inurba_marseille","lat":43.24066,"lon":5.37763,"is_reserved":false,"is_disabled":false,"rental_uris":{"android":"levelo://app?vid=55e463c2-e9b2-4adf-8e24-41c0314c1879","ios":"levelo://app?vid=55e463c2-e9b2-4adf-8e24-41c0314c1879"},"vehicle_type_id":"4","last_reported":1745651351,"current_range_meters":17200,"station_id":"ce4bhnp2rcd13ifvqgvg","pricing_plan_id":"cebpf4jnsgd1na2vs0mg"},{"bike_id":"b63b8150-9e3c-4501-805d-b0a0f71251f1","system_id":"levelo_inurba_marseille","lat":43.33604,"lon":5.41027,"is_reserved":false,"is_disabled":false,"rental_uris":{"android":"levelo://app?vid=b63b8150-9e3c-4501-805d-b0a0f71251f1","ios":"levelo://app?vid=b63b8150-9e3c-4501-805d-b0a0f71251f1"},"vehicle_type_id":"4","last_reported":1745651351,"current_range_meters":17200,"station_id":"ce4bhqh2rcd13ifvqhmg","pricing_plan_id":"cebpf4jnsgd1na2vs0mg"},{"bike_id":"1153cc30-939c-4389-a9ca-ceff2d9a97ee","system_id":"levelo_inurba_marseille","lat":43.30149,"lon":5.38075,"is_reserved":false,"is_disabled":false,"rental_uris":{"android":"levelo://app?vid=1153cc30-939c-4389-a9ca-ceff2d9a97ee","ios":"levelo://app?vid=1153cc30-939c-4389-a9ca-ceff2d9a97ee"},"vehicle_type_id":"4","last_reported":1745651351,"current_range_meters":17200,"station_id":"ce4bgjp2rcd13ifvqbh0","pricing_plan_id":"cebpf4jnsgd1na2vs0mg"},{"bike_id":"2bd20dc1-c64e-48a5-854d-83ccf4b9b583","system_id":"levelo_inurba_marseille","lat":43.290165,"lon":5.381245,"is_reserved":false,"is_disabled":false,"rental_uris":{"android":"levelo://app?vid=2bd20dc1-c64e-48a5-854d-83ccf4b9b583","ios":"levelo://app?vid=2bd20dc1-c64e-48a5-854d-83ccf4b9b583"},"vehicle_type_id":"4","last_reported":1745651351,"current_range_meters":17200,"station_id":"ce4bh4p2rcd13ifvqe1g","pricing_plan_id":"cebpf4jnsgd1na2vs0mg"},{"bike_id":"f7e7dd1e-a9a3-4fc8-b744-bd7f9bee40f4","system_id":"levelo_inurba_marseille","lat":43.30953,"lon":5.39031,"is_reserved":false,"is_disabled":false,"rental_uris":{"android":"levelo://app?vid=f7e7dd1e-a9a3-4fc8-b744-bd7f9bee40f4","ios":"levelo://app?vid=f7e7dd1e-a9a3-4fc8-b744-bd7f9bee40f4"},"vehicle_type_id":"4","last_reported":1745651351,"current_range_meters":17200,"station_id":"ce4bgup2rcd13ifvqco0","pricing_plan_id":"cebpf4jnsgd1na2vs0mg"},{"bike_id":"b1c9db00-e3b6-4644-a6ed-281db3cb6a30","system_id":"levelo_inurba_marseille","lat":43.30189,"lon":5.43779,"is_reserved":false,"is_disabled":false,"rental_uris":{"android":"levelo://app?vid=b1c9db00-e3b6-4644-a6ed-281db3cb6a30","ios":"levelo://app?vid=b1c9db00-e3b6-4644-a6ed-281db3cb6a30"},"vehicle_type_id":"4","last_reported":1745651351,"current_range_meters":17200,"station_id":"","pricing_plan_id":"cebpf4jnsgd1na2vs0mg"},{"bike_id":"f415d2f2-0682-467a-80ca-9aa7e2bfd0fa","system_id":"levelo_inurba_marseille","lat":43.29231,"lon":5.35755,"is_reserved":false,"is_disabled":true,"rental_uris":{"android":"levelo://app?vid=f415d2f2-0682-467a-80ca-9aa7e2bfd0fa","ios":"levelo://app?vid=f415d2f2-0682-467a-80ca-9aa7e2bfd0fa"},"vehicle_type_id":"4","last_reported":1745651351,"current_range_meters":17200,"station_id":"ce4bhb12rcd13ifvqel0","pricing_plan_id":"cebpf4jnsgd1na2vs0mg"},{"bike_id":"faa8334f-d698-4b2b-8f65-d27f28dd59cc","system_id":"levelo_inurba_marseille","lat":43.33738,"lon":5.39166,"is_reserved":false,"is_disabled":false,"rental_uris":{"android":"levelo://app?vid=faa8334f-d698-4b2b-8f65-d27f28dd59cc","ios":"levelo://app?vid=faa8334f-d698-4b2b-8f65-d27f28dd59cc"},"vehicle_type_id":"4","last_reported":1745651351,"current_range_meters":17200,"station_id":"ce4bhr92rcd13ifvqhsg","pricing_plan_id":"cebpf4jnsgd1na2vs0mg"},{"bike_id":"d340a0d5-c438-44d0-a4fa-e44cef258d1c","system_id":"levelo_inurba_marseille","lat":43.29978,"lon":5.37166,"is_reserved":false,"is_disabled":false,"rental_uris":{"android":"levelo://app?vid=d340a0d5-c438-44d0-a4fa-e44cef258d1c","ios":"levelo://app?vid=d340a0d5-c438-44d0-a4fa-e44cef258d1c"},"vehicle_type_id":"4","last_reported":1745651351,"current_range_meters":17200,"station_id":"ce4bgr92rcd13ifvqc7g","pricing_plan_id":"cebpf4jnsgd1na2vs0mg"},{"bike_id":"95f09d82-77cb-4638-80aa-d277595bd174","system_id":"levelo_inurba_marseille","lat":43.29225,"lon":5.40918,"is_reserved":false,"is_disabled":false,"rental_uris":{"android":"levelo://app?vid=95f09d82-77cb-4638-80aa-d277595bd174","ios":"levelo://app?vid=95f09d82-77cb-4638-80aa-d277595bd174"},"vehicle_type_id":"4","last_reported":1745651351,"current_range_meters":17600,"station_id":"ce4bh192rcd13ifvqdc0","pricing_plan_id":"cebpf4jnsgd1na2vs0mg"},{"bike_id":"3cc68647-b5c1-4b95-8e96-0cc2b3dc0c57","system_id":"levelo_inurba_marseille","lat":43.30375,"lon":5.42459,"is_reserved":false,"is_disabled":false,"rental_uris":{"android":"levelo://app?vid=3cc68647-b5c1-4b95-8e96-0cc2b3dc0c57","ios":"levelo://app?vid=3cc68647-b5c1-4b95-8e96-0cc2b3dc0c57"},"vehicle_type_id":"4","last_reported":1745651351,"current_range_meters":17600,"station_id":"ce4bhoh2rcd13ifvqh6g","pricing_plan_id":"cebpf4jnsgd1na2vs0mg"},{"bike_id":"1504a7b4-3c2b-41cd-85cd-57aa88641e7e","system_id":"levelo_inurba_marseille","lat":43.29668,"lon":5.36639,"is_reserved":false,"is_disabled":false,"rental_uris":{"android":"levelo://app?vid=1504a7b4-3c2b-41cd-85cd-57aa88641e7e","ios":"levelo://app?vid=1504a7b4-3c2b-41cd-85cd-57aa88641e7e"},"vehicle_type_id":"4","last_reported":1745651351,"current_range_meters":17600,"station_id":"ce4bgn12rcd13ifvqbt0","pricing_plan_id":"cebpf4jnsgd1na2vs0mg"},{"bike_id":"cf38f4d4-af02-4094-a3c8-697a59ea556d","system_id":"levelo_inurba_marseille","lat":43.231879,"lon":5.399923,"is_reserved":false,"is_disabled":false,"rental_uris":{"android":"levelo://app?vid=cf38f4d4-af02-4094-a3c8-697a59ea556d","ios":"levelo://app?vid=cf38f4d4-af02-4094-a3c8-697a59ea556d"},"vehicle_type_id":"4","last_reported":1745651351,"current_range_meters":17600,"station_id":"ce4bhn12rcd13ifvqgqg","pricing_plan_id":"cebpf4jnsgd1na2vs0mg"},{"bike_id":"496dc0aa-283a-4b10-ba02-c4df56458b34","system_id":"levelo_inurba_marseille","lat":43.30158,"lon":5.38072,"is_reserved":false,"is_disabled":false,"rental_uris":{"android":"levelo://app?vid=496dc0aa-283a-4b10-ba02-c4df56458b34","ios":"levelo://app?vid=496dc0aa-283a-4b10-ba02-c4df56458b34"},"vehicle_type_id":"4","last_reported":1745651351,"current_range_meters":17600,"station_id":"ce4bgjp2rcd13ifvqbh0","pricing_plan_id":"cebpf4jnsgd1na2vs0mg"},{"bike_id":"20ea6a76-0cae-4365-a9ed-ae76ff53ff94","system_id":"levelo_inurba_marseille","lat":43.297175,"lon":5.370301,"is_reserved":false,"is_disabled":false,"rental_uris":{"android":"levelo://app?vid=20ea6a76-0cae-4365-a9ed-ae76ff53ff94","ios":"levelo://app?vid=20ea6a76-0cae-4365-a9ed-ae76ff53ff94"},"vehicle_type_id":"4","last_reported":1745651351,"current_range_meters":17600,"station_id":"","pricing_plan_id":"cebpf4jnsgd1na2vs0mg"},{"bike_id":"b2178132-9584-493f-8ef8-d3dc384e9c80","system_id":"levelo_inurba_marseille","lat":43.31116,"lon":5.37756,"is_reserved":false,"is_disabled":false,"rental_uris":{"android":"levelo://app?vid=b2178132-9584-493f-8ef8-d3dc384e9c80","ios":"levelo://app?vid=b2178132-9584-493f-8ef8-d3dc384e9c80"},"vehicle_type_id":"4","last_reported":1745651351,"current_range_meters":18000,"station_id":"ce4bgt92rcd13ifvqcg0","pricing_plan_id":"cebpf4jnsgd1na2vs0mg"},{"bike_id":"436fb7fb-1d2f-495e-a297-1479f0aa23e8","system_id":"levelo_inurba_marseille","lat":43.33018,"lon":5.39016,"is_reserved":false,"is_disabled":false,"rental_uris":{"android":"levelo://app?vid=436fb7fb-1d2f-495e-a297-1479f0aa23e8","ios":"levelo://app?vid=436fb7fb-1d2f-495e-a297-1479f0aa23e8"},"vehicle_type_id":"4","last_reported":1745651351,"current_range_meters":18000,"station_id":"ce4bhr92rcd13ifvqhrg","pricing_plan_id":"cebpf4jnsgd1na2vs0mg"},{"bike_id":"d1843314-daa0-4a5c-bb88-aa76cdaf17fc","system_id":"levelo_inurba_marseille","lat":43.26946,"lon":5.38624,"is_reserved":false,"is_disabled":false,"rental_uris":{"android":"levelo://app?vid=d1843314-daa0-4a5c-bb88-aa76cdaf17fc","ios":"levelo://app?vid=d1843314-daa0-4a5c-bb88-aa76cdaf17fc"},"vehicle_type_id":"4","last_reported":1745651351,"current_range_meters":18000,"station_id":"ce4bhh92rcd13ifvqfh0","pricing_plan_id":"cebpf4jnsgd1na2vs0mg"},{"bike_id":"1b5d43df-2ec5-49af-a0ae-f46fb50a4822","system_id":"levelo_inurba_marseille","lat":43.317136,"lon":5.437087,"is_reserved":false,"is_disabled":false,"rental_uris":{"android":"levelo://app?vid=1b5d43df-2ec5-49af-a0ae-f46fb50a4822","ios":"levelo://app?vid=1b5d43df-2ec5-49af-a0ae-f46fb50a4822"},"vehicle_type_id":"4","last_reported":1745651351,"current_range_meters":18000,"station_id":"ce4bhp92rcd13ifvqhcg","pricing_plan_id":"cebpf4jnsgd1na2vs0mg"},{"bike_id":"3c8dc355-6f2d-43ac-a424-3315ca690958","system_id":"levelo_inurba_marseille","lat":43.312777,"lon":5.401667,"is_reserved":false,"is_disabled":false,"rental_uris":{"android":"levelo://app?vid=3c8dc355-6f2d-43ac-a424-3315ca690958","ios":"levelo://app?vid=3c8dc355-6f2d-43ac-a424-3315ca690958"},"vehicle_type_id":"4","last_reported":1745651351,"current_range_meters":18000,"station_id":"ce4bh092rcd13ifvqd30","pricing_plan_id":"cebpf4jnsgd1na2vs0mg"},{"bike_id":"9b34557f-da6e-4d65-b605-f460ac4b4f8d","system_id":"levelo_inurba_marseille","lat":43.27912,"lon":5.39579,"is_reserved":false,"is_disabled":false,"rental_uris":{"android":"levelo://app?vid=9b34557f-da6e-4d65-b605-f460ac4b4f8d","ios":"levelo://app?vid=9b34557f-da6e-4d65-b605-f460ac4b4f8d"},"vehicle_type_id":"4","last_reported":1745651351,"current_range_meters":18000,"station_id":"ce4bhf92rcd13ifvqf40","pricing_plan_id":"cebpf4jnsgd1na2vs0mg"},{"bike_id":"e10849ab-f14c-42eb-bf35-8ad4ea47ec28","system_id":"levelo_inurba_marseille","lat":43.30339,"lon":5.40439,"is_reserved":false,"is_disabled":false,"rental_uris":{"android":"levelo://app?vid=e10849ab-f14c-42eb-bf35-8ad4ea47ec28","ios":"levelo://app?vid=e10849ab-f14c-42eb-bf35-8ad4ea47ec28"},"vehicle_type_id":"4","last_reported":1745651351,"current_range_meters":18800,"station_id":"ce4bh012rcd13ifvqd10","pricing_plan_id":"cebpf4jnsgd1na2vs0mg"},{"bike_id":"933e1eb2-0819-4cea-b5b0-00ea65c4538c","system_id":"levelo_inurba_marseille","lat":43.27917,"lon":5.39577,"is_reserved":false,"is_disabled":false,"rental_uris":{"android":"levelo://app?vid=933e1eb2-0819-4cea-b5b0-00ea65c4538c","ios":"levelo://app?vid=933e1eb2-0819-4cea-b5b0-00ea65c4538c"},"vehicle_type_id":"4","last_reported":1745651351,"current_range_meters":18800,"station_id":"ce4bhf92rcd13ifvqf40","pricing_plan_id":"cebpf4jnsgd1na2vs0mg"},{"bike_id":"a5503a6e-d507-4f52-b892-2dcf00324761","system_id":"levelo_inurba_marseille","lat":43.31348,"lon":5.3971,"is_reserved":false,"is_disabled":false,"rental_uris":{"android":"levelo://app?vid=a5503a6e-d507-4f52-b892-2dcf00324761","ios":"levelo://app?vid=a5503a6e-d507-4f52-b892-2dcf00324761"},"vehicle_type_id":"4","last_reported":1745651351,"current_range_meters":19200,"station_id":"ce4bgvp2rcd13ifvqcu0","pricing_plan_id":"cebpf4jnsgd1na2vs0mg"},{"bike_id":"41528498-d76f-4998-934c-429ad804d4cc","system_id":"levelo_inurba_marseille","lat":43.29031,"lon":5.38138,"is_reserved":false,"is_disabled":false,"rental_uris":{"android":"levelo://app?vid=41528498-d76f-4998-934c-429ad804d4cc","ios":"levelo://app?vid=41528498-d76f-4998-934c-429ad804d4cc"},"vehicle_type_id":"4","last_reported":1745651351,"current_range_meters":19200,"station_id":"ce4bh4p2rcd13ifvqe1g","pricing_plan_id":"cebpf4jnsgd1na2vs0mg"},{"bike_id":"1e0ac60b-e244-4f1a-948d-7791c5fa98da","system_id":"levelo_inurba_marseille","lat":43.21205,"lon":5.35088,"is_reserved":false,"is_disabled":true,"rental_uris":{"android":"levelo://app?vid=1e0ac60b-e244-4f1a-948d-7791c5fa98da","ios":"levelo://app?vid=1e0ac60b-e244-4f1a-948d-7791c5fa98da"},"vehicle_type_id":"4","last_reported":1745651351,"current_range_meters":19200,"station_id":"st_cvj6sg6p6f1abm77japg","pricing_plan_id":"cebpf4jnsgd1na2vs0mg"},{"bike_id":"6b6b84b3-e3fb-4e8a-832e-41ecf6ccd7ea","system_id":"levelo_inurba_marseille","lat":43.33022,"lon":5.39033,"is_reserved":false,"is_disabled":false,"rental_uris":{"android":"levelo://app?vid=6b6b84b3-e3fb-4e8a-832e-41ecf6ccd7ea","ios":"levelo://app?vid=6b6b84b3-e3fb-4e8a-832e-41ecf6ccd7ea"},"vehicle_type_id":"4","last_reported":1745651351,"current_range_meters":19200,"station_id":"ce4bhr92rcd13ifvqhrg","pricing_plan_id":"cebpf4jnsgd1na2vs0mg"},{"bike_id":"b74f2a4a-3182-4a63-a4fe-f3bb753dc904","system_id":"levelo_inurba_marseille","lat":43.2953,"lon":5.38552,"is_reserved":false,"is_disabled":false,"rental_uris":{"android":"levelo://app?vid=b74f2a4a-3182-4a63-a4fe-f3bb753dc904","ios":"levelo://app?vid=b74f2a4a-3182-4a63-a4fe-f3bb753dc904"},"vehicle_type_id":"4","last_reported":1745651351,"current_range_meters":19200,"station_id":"ce4bgih2rcd13ifvqba0","pricing_plan_id":"cebpf4jnsgd1na2vs0mg"},{"bike_id":"83a81c6e-e77d-46ae-bcb5-222e3e197ed3","system_id":"levelo_inurba_marseille","lat":43.30447,"lon":5.37912,"is_reserved":false,"is_disabled":false,"rental_uris":{"android":"levelo://app?vid=83a81c6e-e77d-46ae-bcb5-222e3e197ed3","ios":"levelo://app?vid=83a81c6e-e77d-46ae-bcb5-222e3e197ed3"},"vehicle_type_id":"4","last_reported":1745651351,"current_range_meters":19200,"station_id":"ce4bgup2rcd13ifvqcn0","pricing_plan_id":"cebpf4jnsgd1na2vs0mg"},{"bike_id":"45bba92a-c5f4-4efd-92b8-f5fee4f76a0b","system_id":"levelo_inurba_marseille","lat":43.284094,"lon":5.375254,"is_reserved":false,"is_disabled":false,"rental_uris":{"android":"levelo://app?vid=45bba92a-c5f4-4efd-92b8-f5fee4f76a0b","ios":"levelo://app?vid=45bba92a-c5f4-4efd-92b8-f5fee4f76a0b"},"vehicle_type_id":"4","last_reported":1745651351,"current_range_meters":19200,"station_id":"ce4bh412rcd13ifvqds0","pricing_plan_id":"cebpf4jnsgd1na2vs0mg"},{"bike_id":"58529d90-0e99-4233-8c4d-b814a9ffba81","system_id":"levelo_inurba_marseille","lat":43.298018,"lon":5.404208,"is_reserved":false,"is_disabled":false,"rental_uris":{"android":"levelo://app?vid=58529d90-0e99-4233-8c4d-b814a9ffba81","ios":"levelo://app?vid=58529d90-0e99-4233-8c4d-b814a9ffba81"},"vehicle_type_id":"4","last_reported":1745651351,"current_range_meters":19200,"station_id":"ce4bh112rcd13ifvqd90","pricing_plan_id":"cebpf4jnsgd1na2vs0mg"},{"bike_id":"9fdb2c97-b8ee-4021-9db9-16498043e130","system_id":"levelo_inurba_marseille","lat":43.2782,"lon":5.39211,"is_reserved":false,"is_disabled":false,"rental_uris":{"android":"levelo://app?vid=9fdb2c97-b8ee-4021-9db9-16498043e130","ios":"levelo://app?vid=9fdb2c97-b8ee-4021-9db9-16498043e130"},"vehicle_type_id":"4","last_reported":1745651351,"current_range_meters":19200,"station_id":"ce4bhjp2rcd13ifvqga0","pricing_plan_id":"cebpf4jnsgd1na2vs0mg"},{"bike_id":"89bd255a-4c99-4347-a446-5521edc07582","system_id":"levelo_inurba_marseille","lat":43.27835,"lon":5.39207,"is_reserved":false,"is_disabled":false,"rental_uris":{"android":"levelo://app?vid=89bd255a-4c99-4347-a446-5521edc07582","ios":"levelo://app?vid=89bd255a-4c99-4347-a446-5521edc07582"},"vehicle_type_id":"4","last_reported":1745651351,"current_range_meters":19600,"station_id":"ce4bhjp2rcd13ifvqga0","pricing_plan_id":"cebpf4jnsgd1na2vs0mg"},{"bike_id":"9f5fa8d3-1eb6-4f28-afb0-1b39d1d37382","system_id":"levelo_inurba_marseille","lat":43.28676,"lon":5.38665,"is_reserved":false,"is_disabled":false,"rental_uris":{"android":"levelo://app?vid=9f5fa8d3-1eb6-4f28-afb0-1b39d1d37382","ios":"levelo://app?vid=9f5fa8d3-1eb6-4f28-afb0-1b39d1d37382"},"vehicle_type_id":"4","last_reported":1745651351,"current_range_meters":19600,"station_id":"ce4bh492rcd13ifvqdug","pricing_plan_id":"cebpf4jnsgd1na2vs0mg"},{"bike_id":"a3381eee-e486-4bb3-9820-880c30db6661","system_id":"levelo_inurba_marseille","lat":43.3373,"lon":5.39179,"is_reserved":false,"is_disabled":false,"rental_uris":{"android":"levelo://app?vid=a3381eee-e486-4bb3-9820-880c30db6661","ios":"levelo://app?vid=a3381eee-e486-4bb3-9820-880c30db6661"},"vehicle_type_id":"4","last_reported":1745651351,"current_range_meters":19600,"station_id":"ce4bhr92rcd13ifvqhsg","pricing_plan_id":"cebpf4jnsgd1na2vs0mg"},{"bike_id":"6259223d-2381-4c78-bd28-50016887a16e","system_id":"levelo_inurba_marseille","lat":43.31672,"lon":5.40385,"is_reserved":false,"is_disabled":false,"rental_uris":{"android":"levelo://app?vid=6259223d-2381-4c78-bd28-50016887a16e","ios":"levelo://app?vid=6259223d-2381-4c78-bd28-50016887a16e"},"vehicle_type_id":"4","last_reported":1745651351,"current_range_meters":19600,"station_id":"ce4bgjh2rcd13ifvqbf0","pricing_plan_id":"cebpf4jnsgd1na2vs0mg"},{"bike_id":"746bae85-4858-430c-a66c-3e9dae83241e","system_id":"levelo_inurba_marseille","lat":43.309336,"lon":5.401423,"is_reserved":false,"is_disabled":false,"rental_uris":{"android":"levelo://app?vid=746bae85-4858-430c-a66c-3e9dae83241e","ios":"levelo://app?vid=746bae85-4858-430c-a66c-3e9dae83241e"},"vehicle_type_id":"4","last_reported":1745651351,"current_range_meters":19600,"station_id":"ce4bgvp2rcd13ifvqct0","pricing_plan_id":"cebpf4jnsgd1na2vs0mg"},{"bike_id":"93f5cc7b-361a-44a4-bb01-09b55687fccc","system_id":"levelo_inurba_marseille","lat":43.281579,"lon":5.426467,"is_reserved":false,"is_disabled":false,"rental_uris":{"android":"levelo://app?vid=93f5cc7b-361a-44a4-bb01-09b55687fccc","ios":"levelo://app?vid=93f5cc7b-361a-44a4-bb01-09b55687fccc"},"vehicle_type_id":"4","last_reported":1745651351,"current_range_meters":19600,"station_id":"ce4bhkp2rcd13ifvqgd0","pricing_plan_id":"cebpf4jnsgd1na2vs0mg"},{"bike_id":"d97bb0ae-a0a6-4b7c-b011-3e43d9fd9f55","system_id":"levelo_inurba_marseille","lat":43.26557,"lon":5.37288,"is_reserved":false,"is_disabled":false,"rental_uris":{"android":"levelo://app?vid=d97bb0ae-a0a6-4b7c-b011-3e43d9fd9f55","ios":"levelo://app?vid=d97bb0ae-a0a6-4b7c-b011-3e43d9fd9f55"},"vehicle_type_id":"4","last_reported":1745651351,"current_range_meters":20000,"station_id":"ce4bhg12rcd13ifvqf70","pricing_plan_id":"cebpf4jnsgd1na2vs0mg"},{"bike_id":"b70d43a7-048b-410b-8611-71c63b81dcdc","system_id":"levelo_inurba_marseille","lat":43.29927,"lon":5.36549,"is_reserved":false,"is_disabled":false,"rental_uris":{"android":"levelo://app?vid=b70d43a7-048b-410b-8611-71c63b81dcdc","ios":"levelo://app?vid=b70d43a7-048b-410b-8611-71c63b81dcdc"},"vehicle_type_id":"4","last_reported":1745651351,"current_range_meters":20000,"station_id":"ce4bgm92rcd13ifvqbr0","pricing_plan_id":"cebpf4jnsgd1na2vs0mg"},{"bike_id":"ceaf7cf9-6b79-40e4-b50b-c0f7cf539812","system_id":"levelo_inurba_marseille","lat":43.298967,"lon":5.375811,"is_reserved":false,"is_disabled":true,"rental_uris":{"android":"levelo://app?vid=ceaf7cf9-6b79-40e4-b50b-c0f7cf539812","ios":"levelo://app?vid=ceaf7cf9-6b79-40e4-b50b-c0f7cf539812"},"vehicle_type_id":"4","last_reported":1745651351,"current_range_meters":20000,"station_id":"","pricing_plan_id":"cebpf4jnsgd1na2vs0mg"},{"bike_id":"9d0dac49-5c04-496e-8765-981e0fe8896f","system_id":"levelo_inurba_marseille","lat":43.28473,"lon":5.3842,"is_reserved":false,"is_disabled":false,"rental_uris":{"android":"levelo://app?vid=9d0dac49-5c04-496e-8765-981e0fe8896f","ios":"levelo://app?vid=9d0dac49-5c04-496e-8765-981e0fe8896f"},"vehicle_type_id":"4","last_reported":1745651351,"current_range_meters":20000,"station_id":"ce4bh512rcd13ifvqe3g","pricing_plan_id":"cebpf4jnsgd1na2vs0mg"},{"bike_id":"7b8c4796-915d-4680-b575-b93813513659","system_id":"levelo_inurba_marseille","lat":43.32132,"lon":5.36761,"is_reserved":false,"is_disabled":false,"rental_uris":{"android":"levelo://app?vid=7b8c4796-915d-4680-b575-b93813513659","ios":"levelo://app?vid=7b8c4796-915d-4680-b575-b93813513659"},"vehicle_type_id":"4","last_reported":1745651351,"current_range_meters":20000,"station_id":"ce4bhrh2rcd13ifvqhug","pricing_plan_id":"cebpf4jnsgd1na2vs0mg"},{"bike_id":"44606796-dd3f-42a4-a4a5-6753563573ff","system_id":"levelo_inurba_marseille","lat":43.24054,"lon":5.3771,"is_reserved":false,"is_disabled":false,"rental_uris":{"android":"levelo://app?vid=44606796-dd3f-42a4-a4a5-6753563573ff","ios":"levelo://app?vid=44606796-dd3f-42a4-a4a5-6753563573ff"},"vehicle_type_id":"4","last_reported":1745651351,"current_range_meters":20400,"station_id":"ce4bhnp2rcd13ifvqgvg","pricing_plan_id":"cebpf4jnsgd1na2vs0mg"},{"bike_id":"01db406d-6dae-4fd3-96c3-6d0f32cb219f","system_id":"levelo_inurba_marseille","lat":43.32128,"lon":5.368,"is_reserved":false,"is_disabled":false,"rental_uris":{"android":"levelo://app?vid=01db406d-6dae-4fd3-96c3-6d0f32cb219f","ios":"levelo://app?vid=01db406d-6dae-4fd3-96c3-6d0f32cb219f"},"vehicle_type_id":"4","last_reported":1745651351,"current_range_meters":20400,"station_id":"ce4bhrh2rcd13ifvqhug","pricing_plan_id":"cebpf4jnsgd1na2vs0mg"},{"bike_id":"c2afd97f-df2b-4bbd-a07b-2b7b9d12cbfb","system_id":"levelo_inurba_marseille","lat":43.294168,"lon":5.386178,"is_reserved":false,"is_disabled":false,"rental_uris":{"android":"levelo://app?vid=c2afd97f-df2b-4bbd-a07b-2b7b9d12cbfb","ios":"levelo://app?vid=c2afd97f-df2b-4bbd-a07b-2b7b9d12cbfb"},"vehicle_type_id":"4","last_reported":1745651351,"current_range_meters":20400,"station_id":"ce4bh0p2rcd13ifvqd80","pricing_plan_id":"cebpf4jnsgd1na2vs0mg"},{"bike_id":"15ef8d70-14f0-4dc5-869a-954d6f40815d","system_id":"levelo_inurba_marseille","lat":43.30151,"lon":5.38081,"is_reserved":false,"is_disabled":false,"rental_uris":{"android":"levelo://app?vid=15ef8d70-14f0-4dc5-869a-954d6f40815d","ios":"levelo://app?vid=15ef8d70-14f0-4dc5-869a-954d6f40815d"},"vehicle_type_id":"4","last_reported":1745651351,"current_range_meters":20400,"station_id":"ce4bgjp2rcd13ifvqbh0","pricing_plan_id":"cebpf4jnsgd1na2vs0mg"},{"bike_id":"ca226576-a3e0-4b7f-a208-8c8bcdb5874e","system_id":"levelo_inurba_marseille","lat":43.25937,"lon":5.40905,"is_reserved":false,"is_disabled":false,"rental_uris":{"android":"levelo://app?vid=ca226576-a3e0-4b7f-a208-8c8bcdb5874e","ios":"levelo://app?vid=ca226576-a3e0-4b7f-a208-8c8bcdb5874e"},"vehicle_type_id":"4","last_reported":1745651351,"current_range_meters":20400,"station_id":"ce4bhm92rcd13ifvqglg","pricing_plan_id":"cebpf4jnsgd1na2vs0mg"},{"bike_id":"934ffd01-3e2c-499b-a596-c8a1099d89fe","system_id":"levelo_inurba_marseille","lat":43.319947,"lon":5.381448,"is_reserved":false,"is_disabled":false,"rental_uris":{"android":"levelo://app?vid=934ffd01-3e2c-499b-a596-c8a1099d89fe","ios":"levelo://app?vid=934ffd01-3e2c-499b-a596-c8a1099d89fe"},"vehicle_type_id":"4","last_reported":1745651351,"current_range_meters":20400,"station_id":"ce4bhr12rcd13ifvqhpg","pricing_plan_id":"cebpf4jnsgd1na2vs0mg"},{"bike_id":"6cf5ff2a-2985-4032-9bff-888552fc602b","system_id":"levelo_inurba_marseille","lat":43.30663,"lon":5.4005,"is_reserved":false,"is_disabled":true,"rental_uris":{"android":"levelo://app?vid=6cf5ff2a-2985-4032-9bff-888552fc602b","ios":"levelo://app?vid=6cf5ff2a-2985-4032-9bff-888552fc602b"},"vehicle_type_id":"4","last_reported":1745651351,"current_range_meters":20800,"station_id":"ce4bh112rcd13ifvqda0","pricing_plan_id":"cebpf4jnsgd1na2vs0mg"},{"bike_id":"bc356e07-c6ac-43e7-a3c5-5552446665e5","system_id":"levelo_inurba_marseille","lat":43.30982,"lon":5.4173,"is_reserved":false,"is_disabled":false,"rental_uris":{"android":"levelo://app?vid=bc356e07-c6ac-43e7-a3c5-5552446665e5","ios":"levelo://app?vid=bc356e07-c6ac-43e7-a3c5-5552446665e5"},"vehicle_type_id":"4","last_reported":1745651351,"current_range_meters":20800,"station_id":"","pricing_plan_id":"cebpf4jnsgd1na2vs0mg"},{"bike_id":"e5ce5eac-a09c-42ed-b277-156ae210e8ee","system_id":"levelo_inurba_marseille","lat":43.33736,"lon":5.39192,"is_reserved":false,"is_disabled":false,"rental_uris":{"android":"levelo://app?vid=e5ce5eac-a09c-42ed-b277-156ae210e8ee","ios":"levelo://app?vid=e5ce5eac-a09c-42ed-b277-156ae210e8ee"},"vehicle_type_id":"4","last_reported":1745651351,"current_range_meters":20800,"station_id":"ce4bhr92rcd13ifvqhsg","pricing_plan_id":"cebpf4jnsgd1na2vs0mg"},{"bike_id":"903d0868-c0fa-4fa5-8b6d-fbbeedc2353f","system_id":"levelo_inurba_marseille","lat":43.30473,"lon":5.37907,"is_reserved":false,"is_disabled":false,"rental_uris":{"android":"levelo://app?vid=903d0868-c0fa-4fa5-8b6d-fbbeedc2353f","ios":"levelo://app?vid=903d0868-c0fa-4fa5-8b6d-fbbeedc2353f"},"vehicle_type_id":"4","last_reported":1745651351,"current_range_meters":20800,"station_id":"ce4bgup2rcd13ifvqcn0","pricing_plan_id":"cebpf4jnsgd1na2vs0mg"},{"bike_id":"826873e9-0019-4cb6-8b57-98cc07b73119","system_id":"levelo_inurba_marseille","lat":43.29006,"lon":5.38641,"is_reserved":false,"is_disabled":false,"rental_uris":{"android":"levelo://app?vid=826873e9-0019-4cb6-8b57-98cc07b73119","ios":"levelo://app?vid=826873e9-0019-4cb6-8b57-98cc07b73119"},"vehicle_type_id":"4","last_reported":1745651351,"current_range_meters":20800,"station_id":"ce4bh4p2rcd13ifvqe0g","pricing_plan_id":"cebpf4jnsgd1na2vs0mg"},{"bike_id":"ea0ad940-c82f-4dc0-8533-e353190d30ef","system_id":"levelo_inurba_marseille","lat":43.30463,"lon":5.37916,"is_reserved":false,"is_disabled":false,"rental_uris":{"android":"levelo://app?vid=ea0ad940-c82f-4dc0-8533-e353190d30ef","ios":"levelo://app?vid=ea0ad940-c82f-4dc0-8533-e353190d30ef"},"vehicle_type_id":"4","last_reported":1745651351,"current_range_meters":20800,"station_id":"ce4bgup2rcd13ifvqcn0","pricing_plan_id":"cebpf4jnsgd1na2vs0mg"},{"bike_id":"d3d78dec-36c3-4aa3-aa9d-db01525dc110","system_id":"levelo_inurba_marseille","lat":43.30529,"lon":5.38435,"is_reserved":false,"is_disabled":true,"rental_uris":{"android":"levelo://app?vid=d3d78dec-36c3-4aa3-aa9d-db01525dc110","ios":"levelo://app?vid=d3d78dec-36c3-4aa3-aa9d-db01525dc110"},"vehicle_type_id":"4","last_reported":1745651351,"current_range_meters":20800,"station_id":"ce4bgg92rcd13ifvqb30","pricing_plan_id":"cebpf4jnsgd1na2vs0mg"},{"bike_id":"0d777af5-4166-475a-a6b9-6a0197032592","system_id":"levelo_inurba_marseille","lat":43.23243,"lon":5.35221,"is_reserved":false,"is_disabled":false,"rental_uris":{"android":"levelo://app?vid=0d777af5-4166-475a-a6b9-6a0197032592","ios":"levelo://app?vid=0d777af5-4166-475a-a6b9-6a0197032592"},"vehicle_type_id":"4","last_reported":1745651351,"current_range_meters":21600,"station_id":"","pricing_plan_id":"cebpf4jnsgd1na2vs0mg"},{"bike_id":"32a07387-a46a-4108-8870-6755d09b57f9","system_id":"levelo_inurba_marseille","lat":43.292304,"lon":5.360692,"is_reserved":false,"is_disabled":false,"rental_uris":{"android":"levelo://app?vid=32a07387-a46a-4108-8870-6755d09b57f9","ios":"levelo://app?vid=32a07387-a46a-4108-8870-6755d09b57f9"},"vehicle_type_id":"4","last_reported":1745651351,"current_range_meters":21600,"station_id":"","pricing_plan_id":"cebpf4jnsgd1na2vs0mg"},{"bike_id":"429a2824-25d3-4e87-8865-ec398d90ebca","system_id":"levelo_inurba_marseille","lat":43.21197,"lon":5.35074,"is_reserved":false,"is_disabled":false,"rental_uris":{"android":"levelo://app?vid=429a2824-25d3-4e87-8865-ec398d90ebca","ios":"levelo://app?vid=429a2824-25d3-4e87-8865-ec398d90ebca"},"vehicle_type_id":"4","last_reported":1745651351,"current_range_meters":21600,"station_id":"st_cvj6sg6p6f1abm77japg","pricing_plan_id":"cebpf4jnsgd1na2vs0mg"},{"bike_id":"8a2d7bbe-93d4-4a6b-aa68-b428d521e2b1","system_id":"levelo_inurba_marseille","lat":43.24803,"lon":5.37451,"is_reserved":false,"is_disabled":false,"rental_uris":{"android":"levelo://app?vid=8a2d7bbe-93d4-4a6b-aa68-b428d521e2b1","ios":"levelo://app?vid=8a2d7bbe-93d4-4a6b-aa68-b428d521e2b1"},"vehicle_type_id":"4","last_reported":1745651351,"current_range_meters":21600,"station_id":"ce4bhgh2rcd13ifvqfb0","pricing_plan_id":"cebpf4jnsgd1na2vs0mg"},{"bike_id":"3ad35c25-d89f-4ea6-848b-393a00786d79","system_id":"levelo_inurba_marseille","lat":43.298568,"lon":5.42074,"is_reserved":false,"is_disabled":false,"rental_uris":{"android":"levelo://app?vid=3ad35c25-d89f-4ea6-848b-393a00786d79","ios":"levelo://app?vid=3ad35c25-d89f-4ea6-848b-393a00786d79"},"vehicle_type_id":"4","last_reported":1745651351,"current_range_meters":21600,"station_id":"","pricing_plan_id":"cebpf4jnsgd1na2vs0mg"},{"bike_id":"5e3a603b-847b-4ed9-8615-d67b8709fd37","system_id":"levelo_inurba_marseille","lat":43.27188,"lon":5.40997,"is_reserved":false,"is_disabled":false,"rental_uris":{"android":"levelo://app?vid=5e3a603b-847b-4ed9-8615-d67b8709fd37","ios":"levelo://app?vid=5e3a603b-847b-4ed9-8615-d67b8709fd37"},"vehicle_type_id":"4","last_reported":1745651351,"current_range_meters":21600,"station_id":"ce4bhl12rcd13ifvqgf0","pricing_plan_id":"cebpf4jnsgd1na2vs0mg"},{"bike_id":"0e16040e-c3d0-4dd7-950a-0c1ebfa7f9f7","system_id":"levelo_inurba_marseille","lat":43.28003,"lon":5.40005,"is_reserved":false,"is_disabled":true,"rental_uris":{"android":"levelo://app?vid=0e16040e-c3d0-4dd7-950a-0c1ebfa7f9f7","ios":"levelo://app?vid=0e16040e-c3d0-4dd7-950a-0c1ebfa7f9f7"},"vehicle_type_id":"4","last_reported":1745651351,"current_range_meters":22000,"station_id":"ce4bho92rcd13ifvqh4g","pricing_plan_id":"cebpf4jnsgd1na2vs0mg"},{"bike_id":"e21d7a16-f116-45a3-8a7e-a0b9a65f4fb5","system_id":"levelo_inurba_marseille","lat":43.30969,"lon":5.40163,"is_reserved":false,"is_disabled":false,"rental_uris":{"android":"levelo://app?vid=e21d7a16-f116-45a3-8a7e-a0b9a65f4fb5","ios":"levelo://app?vid=e21d7a16-f116-45a3-8a7e-a0b9a65f4fb5"},"vehicle_type_id":"4","last_reported":1745651351,"current_range_meters":22000,"station_id":"ce4bgvp2rcd13ifvqct0","pricing_plan_id":"cebpf4jnsgd1na2vs0mg"},{"bike_id":"389fa13e-9fb8-4551-94cc-3437e858ed36","system_id":"levelo_inurba_marseille","lat":43.24183,"lon":5.36392,"is_reserved":false,"is_disabled":false,"rental_uris":{"android":"levelo://app?vid=389fa13e-9fb8-4551-94cc-3437e858ed36","ios":"levelo://app?vid=389fa13e-9fb8-4551-94cc-3437e858ed36"},"vehicle_type_id":"4","last_reported":1745651351,"current_range_meters":22000,"station_id":"cpo36qri1sfpv3e86is0","pricing_plan_id":"cebpf4jnsgd1na2vs0mg"},{"bike_id":"59dc8cb1-5a24-4b44-9fac-1398893ccd6c","system_id":"levelo_inurba_marseille","lat":43.26558,"lon":5.37283,"is_reserved":false,"is_disabled":false,"rental_uris":{"android":"levelo://app?vid=59dc8cb1-5a24-4b44-9fac-1398893ccd6c","ios":"levelo://app?vid=59dc8cb1-5a24-4b44-9fac-1398893ccd6c"},"vehicle_type_id":"4","last_reported":1745651351,"current_range_meters":22000,"station_id":"ce4bhg12rcd13ifvqf70","pricing_plan_id":"cebpf4jnsgd1na2vs0mg"},{"bike_id":"3c55fdf5-253b-4c06-94ae-ac9b886ca737","system_id":"levelo_inurba_marseille","lat":43.295421,"lon":5.375028,"is_reserved":false,"is_disabled":true,"rental_uris":{"android":"levelo://app?vid=3c55fdf5-253b-4c06-94ae-ac9b886ca737","ios":"levelo://app?vid=3c55fdf5-253b-4c06-94ae-ac9b886ca737"},"vehicle_type_id":"4","last_reported":1745651351,"current_range_meters":22000,"station_id":"","pricing_plan_id":"cebpf4jnsgd1na2vs0mg"},{"bike_id":"588217eb-80a6-423e-b138-35c0ab521a91","system_id":"levelo_inurba_marseille","lat":43.30198,"lon":5.39467,"is_reserved":false,"is_disabled":true,"rental_uris":{"android":"levelo://app?vid=588217eb-80a6-423e-b138-35c0ab521a91","ios":"levelo://app?vid=588217eb-80a6-423e-b138-35c0ab521a91"},"vehicle_type_id":"4","last_reported":1745651351,"current_range_meters":22000,"station_id":"ce4bh0p2rcd13ifvqd70","pricing_plan_id":"cebpf4jnsgd1na2vs0mg"},{"bike_id":"8877945e-f469-4dd6-85c2-c9c2267e5ca4","system_id":"levelo_inurba_marseille","lat":43.2319,"lon":5.39995,"is_reserved":false,"is_disabled":true,"rental_uris":{"android":"levelo://app?vid=8877945e-f469-4dd6-85c2-c9c2267e5ca4","ios":"levelo://app?vid=8877945e-f469-4dd6-85c2-c9c2267e5ca4"},"vehicle_type_id":"4","last_reported":1745651351,"current_range_meters":22400,"station_id":"ce4bhn12rcd13ifvqgqg","pricing_plan_id":"cebpf4jnsgd1na2vs0mg"},{"bike_id":"a910b9b1-f6b0-4f1e-a680-b73ced460329","system_id":"levelo_inurba_marseille","lat":43.26764,"lon":5.39435,"is_reserved":false,"is_disabled":false,"rental_uris":{"android":"levelo://app?vid=a910b9b1-f6b0-4f1e-a680-b73ced460329","ios":"levelo://app?vid=a910b9b1-f6b0-4f1e-a680-b73ced460329"},"vehicle_type_id":"4","last_reported":1745651351,"current_range_meters":22400,"station_id":"ce4bhh12rcd13ifvqfg0","pricing_plan_id":"cebpf4jnsgd1na2vs0mg"},{"bike_id":"9b94fe14-c2cb-4f8e-b6d1-e77b37e69efb","system_id":"levelo_inurba_marseille","lat":43.302289,"lon":5.400448,"is_reserved":false,"is_disabled":false,"rental_uris":{"android":"levelo://app?vid=9b94fe14-c2cb-4f8e-b6d1-e77b37e69efb","ios":"levelo://app?vid=9b94fe14-c2cb-4f8e-b6d1-e77b37e69efb"},"vehicle_type_id":"4","last_reported":1745651351,"current_range_meters":22400,"station_id":"ce4bgvh2rcd13ifvqcs0","pricing_plan_id":"cebpf4jnsgd1na2vs0mg"},{"bike_id":"f8a0a276-291a-40b1-b56a-fedd3a8252a1","system_id":"levelo_inurba_marseille","lat":43.30869,"lon":5.37193,"is_reserved":false,"is_disabled":false,"rental_uris":{"android":"levelo://app?vid=f8a0a276-291a-40b1-b56a-fedd3a8252a1","ios":"levelo://app?vid=f8a0a276-291a-40b1-b56a-fedd3a8252a1"},"vehicle_type_id":"4","last_reported":1745651351,"current_range_meters":22400,"station_id":"ce4bguh2rcd13ifvqckg","pricing_plan_id":"cebpf4jnsgd1na2vs0mg"},{"bike_id":"bb00cf37-7c82-4eed-a53f-e826c05ca28a","system_id":"levelo_inurba_marseille","lat":43.23178,"lon":5.39991,"is_reserved":false,"is_disabled":false,"rental_uris":{"android":"levelo://app?vid=bb00cf37-7c82-4eed-a53f-e826c05ca28a","ios":"levelo://app?vid=bb00cf37-7c82-4eed-a53f-e826c05ca28a"},