{"last_updated":1766959845,"ttl":60,"version":"2.2","data":{"bikes":[{"bike_id":"7889c44c-66c5-491e-bce1-ab4755d90e40","system_id":"levelo_inurba_marseille","lat":43.25332,"lon":5.39353,"is_reserved":false,"is_disabled":false,"rental_uris":{"android":"levelo://app?vid=7889c44c-66c5-491e-bce1-ab4755d90e40","ios":"levelo://app?vid=7889c44c-66c5-491e-bce1-ab4755d90e40"},"vehicle_type_id":"4","last_reported":1766959846,"current_range_meters":2800,"station_id":"","pricing_plan_id":"cebpf4jnsgd1na2vs0mg"},{"bike_id":"1f45b2b1-d2e0-4187-926d-9979c716f8a5","system_id":"levelo_inurba_marseille","lat":43.25069,"lon":5.40462,"is_reserved":false,"is_disabled":false,"rental_uris":{"android":"levelo://app?vid=1f45b2b1-d2e0-4187-926d-9979c716f8a5","ios":"levelo://app?vid=1f45b2b1-d2e0-4187-926d-9979c716f8a5"},"vehicle_type_id":"4","last_reported":1766959846,"current_range_meters":2800,"station_id":"","pricing_plan_id":"cebpf4jnsgd1na2vs0mg"},{"bike_id":"77c08b73-25a9-48f8-8988-7cdc7ed709fc","system_id":"levelo_inurba_marseille","lat":43.3068,"lon":5.38028,"is_reserved":false,"is_disabled":false,"rental_uris":{"android":"levelo://app?vid=77c08b73-25a9-48f8-8988-7cdc7ed709fc","ios":"levelo://app?vid=77c08b73-25a9-48f8-8988-7cdc7ed709fc"},"vehicle_type_id":"4","last_reported":1766959846,"current_range_meters":3200,"station_id":"","pricing_plan_id":"cebpf4jnsgd1na2vs0mg"},{"bike_id":"cbcf9aeb-9cf5-45dd-a730-0df1796d7f8d","system_id":"levelo_inurba_marseille","lat":43.30881,"lon":5.37202,"is_reserved":false,"is_disabled":false,"rental_uris":{"android":"levelo://app?vid=cbcf9aeb-9cf5-45dd-a730-0df1796d7f8d","ios":"levelo://app?vid=cbcf9aeb-9cf5-45dd-a730-0df1796d7f8d"},"vehicle_type_id":"4","last_reported":1766959846,"current_range_meters":3600,"station_id":"ce4bguh2rcd13ifvqckg","pricing_plan_id":"cebpf4jnsgd1na2vs0mg"},{"bike_id":"339a0c71-2a9a-4cfb-a54e-2a5557b4296a","system_id":"levelo_inurba_marseille","lat":43.24175,"lon":5.36398,"is_reserved":false,"is_disabled":false,"rental_uris":{"android":"levelo://app?vid=339a0c71-2a9a-4cfb-a54e-2a5557b4296a","ios":"levelo://app?vid=339a0c71-2a9a-4cfb-a54e-2a5557b4296a"},"vehicle_type_id":"4","last_reported":1766959846,"current_range_meters":3600,"station_id":"cpo36qri1sfpv3e86is0","pricing_plan_id":"cebpf4jnsgd1na2vs0mg"},{"bike_id":"dac24c5c-9a42-4fdf-bf17-c0729a4a9a2a","system_id":"levelo_inurba_marseille","lat":43.32511,"lon":5.41219,"is_reserved":false,"is_disabled":false,"rental_uris":{"android":"levelo://app?vid=dac24c5c-9a42-4fdf-bf17-c0729a4a9a2a","ios":"levelo://app?vid=dac24c5c-9a42-4fdf-bf17-c0729a4a9a2a"},"vehicle_type_id":"4","last_reported":1766959846,"current_range_meters":4000,"station_id":"","pricing_plan_id":"cebpf4jnsgd1na2vs0mg"},{"bike_id":"3220d8bf-7c2c-429d-a83e-4482c24b2c09","system_id":"levelo_inurba_marseille","lat":43.308909,"lon":5.396575,"is_reserved":false,"is_disabled":false,"rental_uris":{"android":"levelo://app?vid=3220d8bf-7c2c-429d-a83e-4482c24b2c09","ios":"levelo://app?vid=3220d8bf-7c2c-429d-a83e-4482c24b2c09"},"vehicle_type_id":"4","last_reported":1766959846,"current_range_meters":4000,"station_id":"ce4bh012rcd13ifvqcv0","pricing_plan_id":"cebpf4jnsgd1na2vs0mg"},{"bike_id":"c6b2a5c8-f050-482a-8a18-96cf20632294","system_id":"levelo_inurba_marseille","lat":43.30379,"lon":5.42473,"is_reserved":false,"is_disabled":false,"rental_uris":{"android":"levelo://app?vid=c6b2a5c8-f050-482a-8a18-96cf20632294","ios":"levelo://app?vid=c6b2a5c8-f050-482a-8a18-96cf20632294"},"vehicle_type_id":"4","last_reported":1766959846,"current_range_meters":4000,"station_id":"ce4bhoh2rcd13ifvqh6g","pricing_plan_id":"cebpf4jnsgd1na2vs0mg"},{"bike_id":"8f1fbae4-9ae2-42cf-94dd-daad6d586514","system_id":"levelo_inurba_marseille","lat":43.22568,"lon":5.41635,"is_reserved":false,"is_disabled":false,"rental_uris":{"android":"levelo://app?vid=8f1fbae4-9ae2-42cf-94dd-daad6d586514","ios":"levelo://app?vid=8f1fbae4-9ae2-42cf-94dd-daad6d586514"},"vehicle_type_id":"4","last_reported":1766959846,"current_range_meters":4800,"station_id":"st_d2o4gvlbi1j2169b742g","pricing_plan_id":"cebpf4jnsgd1na2vs0mg"},{"bike_id":"9c494ab4-6064-41cc-867f-94d1d4b9902e","system_id":"levelo_inurba_marseille","lat":43.29064,"lon":5.36574,"is_reserved":false,"is_disabled":false,"rental_uris":{"android":"levelo://app?vid=9c494ab4-6064-41cc-867f-94d1d4b9902e","ios":"levelo://app?vid=9c494ab4-6064-41cc-867f-94d1d4b9902e"},"vehicle_type_id":"4","last_reported":1766959846,"current_range_meters":4800,"station_id":"","pricing_plan_id":"cebpf4jnsgd1na2vs0mg"},{"bike_id":"9946c4ed-7a05-42ed-9877-9de77083527d","system_id":"levelo_inurba_marseille","lat":43.337444,"lon":5.374475,"is_reserved":false,"is_disabled":false,"rental_uris":{"android":"levelo://app?vid=9946c4ed-7a05-42ed-9877-9de77083527d","ios":"levelo://app?vid=9946c4ed-7a05-42ed-9877-9de77083527d"},"vehicle_type_id":"4","last_reported":1766959846,"current_range_meters":4800,"station_id":"ce4bgqh2rcd13ifvqc4g","pricing_plan_id":"cebpf4jnsgd1na2vs0mg"},{"bike_id":"17b19a44-ef73-4948-b866-b33a136af908","system_id":"levelo_inurba_marseille","lat":43.2318,"lon":5.39985,"is_reserved":false,"is_disabled":false,"rental_uris":{"android":"levelo://app?vid=17b19a44-ef73-4948-b866-b33a136af908","ios":"levelo://app?vid=17b19a44-ef73-4948-b866-b33a136af908"},"vehicle_type_id":"4","last_reported":1766959846,"current_range_meters":4800,"station_id":"ce4bhn12rcd13ifvqgqg","pricing_plan_id":"cebpf4jnsgd1na2vs0mg"},{"bike_id":"8526cb13-c70f-4134-9aed-80c4c9d31e4e","system_id":"levelo_inurba_marseille","lat":43.27895,"lon":5.39157,"is_reserved":false,"is_disabled":false,"rental_uris":{"android":"levelo://app?vid=8526cb13-c70f-4134-9aed-80c4c9d31e4e","ios":"levelo://app?vid=8526cb13-c70f-4134-9aed-80c4c9d31e4e"},"vehicle_type_id":"4","last_reported":1766959846,"current_range_meters":6000,"station_id":"","pricing_plan_id":"cebpf4jnsgd1na2vs0mg"},{"bike_id":"ceff65ce-d147-470b-833e-b84215f38640","system_id":"levelo_inurba_marseille","lat":43.25497,"lon":5.37674,"is_reserved":false,"is_disabled":false,"rental_uris":{"android":"levelo://app?vid=ceff65ce-d147-470b-833e-b84215f38640","ios":"levelo://app?vid=ceff65ce-d147-470b-833e-b84215f38640"},"vehicle_type_id":"4","last_reported":1766959846,"current_range_meters":6000,"station_id":"ce4bhh12rcd13ifvqff0","pricing_plan_id":"cebpf4jnsgd1na2vs0mg"},{"bike_id":"8785cfcf-a71a-4321-a255-d1b3c97ffd7a","system_id":"levelo_inurba_marseille","lat":43.30875,"lon":5.40191,"is_reserved":false,"is_disabled":false,"rental_uris":{"android":"levelo://app?vid=8785cfcf-a71a-4321-a255-d1b3c97ffd7a","ios":"levelo://app?vid=8785cfcf-a71a-4321-a255-d1b3c97ffd7a"},"vehicle_type_id":"4","last_reported":1766959846,"current_range_meters":6000,"station_id":"ce4bgvp2rcd13ifvqct0","pricing_plan_id":"cebpf4jnsgd1na2vs0mg"},{"bike_id":"cbd9a5d3-c860-4f7a-ad37-169754c8f453","system_id":"levelo_inurba_marseille","lat":43.28766,"lon":5.38408,"is_reserved":false,"is_disabled":false,"rental_uris":{"android":"levelo://app?vid=cbd9a5d3-c860-4f7a-ad37-169754c8f453","ios":"levelo://app?vid=cbd9a5d3-c860-4f7a-ad37-169754c8f453"},"vehicle_type_id":"4","last_reported":1766959846,"current_range_meters":6000,"station_id":"","pricing_plan_id":"cebpf4jnsgd1na2vs0mg"},{"bike_id":"d197e840-b9de-42db-8b70-d386e49010fd","system_id":"levelo_inurba_marseille","lat":43.29002,"lon":5.35604,"is_reserved":false,"is_disabled":false,"rental_uris":{"android":"levelo://app?vid=d197e840-b9de-42db-8b70-d386e49010fd","ios":"levelo://app?vid=d197e840-b9de-42db-8b70-d386e49010fd"},"vehicle_type_id":"4","last_reported":1766959846,"current_range_meters":6000,"station_id":"ce4bhb92rcd13ifvqen0","pricing_plan_id":"cebpf4jnsgd1na2vs0mg"},{"bike_id":"7ef0cae7-d0ce-42f4-8945-1ef1b36c8fff","system_id":"levelo_inurba_marseille","lat":43.29053,"lon":5.39939,"is_reserved":false,"is_disabled":false,"rental_uris":{"android":"levelo://app?vid=7ef0cae7-d0ce-42f4-8945-1ef1b36c8fff","ios":"levelo://app?vid=7ef0cae7-d0ce-42f4-8945-1ef1b36c8fff"},"vehicle_type_id":"4","last_reported":1766959846,"current_range_meters":6000,"station_id":"ce4bh392rcd13ifvqdm0","pricing_plan_id":"cebpf4jnsgd1na2vs0mg"},{"bike_id":"bc568f99-2d83-4e5a-8b80-4c8ab7d8ad1f","system_id":"levelo_inurba_marseille","lat":43.24155,"lon":5.37651,"is_reserved":false,"is_disabled":false,"rental_uris":{"android":"levelo://app?vid=bc568f99-2d83-4e5a-8b80-4c8ab7d8ad1f","ios":"levelo://app?vid=bc568f99-2d83-4e5a-8b80-4c8ab7d8ad1f"},"vehicle_type_id":"4","last_reported":1766959846,"current_range_meters":6000,"station_id":"","pricing_plan_id":"cebpf4jnsgd1na2vs0mg"},{"bike_id":"80e5704f-ad4a-47fa-8434-b81adbddb3a7","system_id":"levelo_inurba_marseille","lat":43.28005,"lon":5.4102,"is_reserved":false,"is_disabled":true,"rental_uris":{"android":"levelo://app?vid=80e5704f-ad4a-47fa-8434-b81adbddb3a7","ios":"levelo://app?vid=80e5704f-ad4a-47fa-8434-b81adbddb3a7"},"vehicle_type_id":"4","last_reported":1766959846,"current_range_meters":6400,"station_id":"","pricing_plan_id":"cebpf4jnsgd1na2vs0mg"},{"bike_id":"50f2d474-ee9b-4c75-ad2b-2a2a28d29ffb","system_id":"levelo_inurba_marseille","lat":43.29677,"lon":5.38557,"is_reserved":false,"is_disabled":false,"rental_uris":{"android":"levelo://app?vid=50f2d474-ee9b-4c75-ad2b-2a2a28d29ffb","ios":"levelo://app?vid=50f2d474-ee9b-4c75-ad2b-2a2a28d29ffb"},"vehicle_type_id":"4","last_reported":1766959846,"current_range_meters":6400,"station_id":"","pricing_plan_id":"cebpf4jnsgd1na2vs0mg"},{"bike_id":"23b41dcd-6504-4ca8-b10e-7491ac303dd3","system_id":"levelo_inurba_marseille","lat":43.32682,"lon":5.39272,"is_reserved":false,"is_disabled":false,"rental_uris":{"android":"levelo://app?vid=23b41dcd-6504-4ca8-b10e-7491ac303dd3","ios":"levelo://app?vid=23b41dcd-6504-4ca8-b10e-7491ac303dd3"},"vehicle_type_id":"4","last_reported":1766959846,"current_range_meters":6400,"station_id":"","pricing_plan_id":"cebpf4jnsgd1na2vs0mg"},{"bike_id":"9d21dcb0-ce26-48db-a303-317550439f40","system_id":"levelo_inurba_marseille","lat":43.28474,"lon":5.4838,"is_reserved":false,"is_disabled":false,"rental_uris":{"android":"levelo://app?vid=9d21dcb0-ce26-48db-a303-317550439f40","ios":"levelo://app?vid=9d21dcb0-ce26-48db-a303-317550439f40"},"vehicle_type_id":"4","last_reported":1766959846,"current_range_meters":6400,"station_id":"","pricing_plan_id":"cebpf4jnsgd1na2vs0mg"},{"bike_id":"ea74451c-d3e0-43e8-9107-fd785080e25f","system_id":"levelo_inurba_marseille","lat":43.31885,"lon":5.40739,"is_reserved":false,"is_disabled":false,"rental_uris":{"android":"levelo://app?vid=ea74451c-d3e0-43e8-9107-fd785080e25f","ios":"levelo://app?vid=ea74451c-d3e0-43e8-9107-fd785080e25f"},"vehicle_type_id":"4","last_reported":1766959846,"current_range_meters":6800,"station_id":"ce4bhq12rcd13ifvqhig","pricing_plan_id":"cebpf4jnsgd1na2vs0mg"},{"bike_id":"ae6f5036-1aa0-4a83-abdc-77ced3fab898","system_id":"levelo_inurba_marseille","lat":43.30933,"lon":5.38027,"is_reserved":false,"is_disabled":false,"rental_uris":{"android":"levelo://app?vid=ae6f5036-1aa0-4a83-abdc-77ced3fab898","ios":"levelo://app?vid=ae6f5036-1aa0-4a83-abdc-77ced3fab898"},"vehicle_type_id":"4","last_reported":1766959846,"current_range_meters":6800,"station_id":"","pricing_plan_id":"cebpf4jnsgd1na2vs0mg"},{"bike_id":"7451e2f1-97cc-4a6a-824e-1c725c74e9d6","system_id":"levelo_inurba_marseille","lat":43.32351,"lon":5.38415,"is_reserved":false,"is_disabled":false,"rental_uris":{"android":"levelo://app?vid=7451e2f1-97cc-4a6a-824e-1c725c74e9d6","ios":"levelo://app?vid=7451e2f1-97cc-4a6a-824e-1c725c74e9d6"},"vehicle_type_id":"4","last_reported":1766959846,"current_range_meters":6800,"station_id":"","pricing_plan_id":"cebpf4jnsgd1na2vs0mg"},{"bike_id":"c0723a55-d0d0-493e-a4c5-9479bcaeff93","system_id":"levelo_inurba_marseille","lat":43.28464,"lon":5.48399,"is_reserved":false,"is_disabled":false,"rental_uris":{"android":"levelo://app?vid=c0723a55-d0d0-493e-a4c5-9479bcaeff93","ios":"levelo://app?vid=c0723a55-d0d0-493e-a4c5-9479bcaeff93"},"vehicle_type_id":"4","last_reported":1766959846,"current_range_meters":6800,"station_id":"","pricing_plan_id":"cebpf4jnsgd1na2vs0mg"},{"bike_id":"bafbac57-f95d-474f-9ab8-4089c3a4d706","system_id":"levelo_inurba_marseille","lat":43.28672,"lon":5.43348,"is_reserved":false,"is_disabled":false,"rental_uris":{"android":"levelo://app?vid=bafbac57-f95d-474f-9ab8-4089c3a4d706","ios":"levelo://app?vid=bafbac57-f95d-474f-9ab8-4089c3a4d706"},"vehicle_type_id":"4","last_reported":1766959846,"current_range_meters":6800,"station_id":"st_d3j3df2ikq2c7380ej80","pricing_plan_id":"cebpf4jnsgd1na2vs0mg"},{"bike_id":"e9674906-b546-49b2-b7fb-89e6268d7d6f","system_id":"levelo_inurba_marseille","lat":43.30933,"lon":5.40152,"is_reserved":false,"is_disabled":false,"rental_uris":{"android":"levelo://app?vid=e9674906-b546-49b2-b7fb-89e6268d7d6f","ios":"levelo://app?vid=e9674906-b546-49b2-b7fb-89e6268d7d6f"},"vehicle_type_id":"4","last_reported":1766959846,"current_range_meters":6800,"station_id":"ce4bgvp2rcd13ifvqct0","pricing_plan_id":"cebpf4jnsgd1na2vs0mg"},{"bike_id":"08f4624a-a23d-4738-b794-a8bd53bfd7e8","system_id":"levelo_inurba_marseille","lat":43.2984,"lon":5.37653,"is_reserved":false,"is_disabled":false,"rental_uris":{"android":"levelo://app?vid=08f4624a-a23d-4738-b794-a8bd53bfd7e8","ios":"levelo://app?vid=08f4624a-a23d-4738-b794-a8bd53bfd7e8"},"vehicle_type_id":"4","last_reported":1766959846,"current_range_meters":7200,"station_id":"","pricing_plan_id":"cebpf4jnsgd1na2vs0mg"},{"bike_id":"bc30f488-7026-4ace-83c7-00d1f4902064","system_id":"levelo_inurba_marseille","lat":43.2294,"lon":5.35386,"is_reserved":false,"is_disabled":false,"rental_uris":{"android":"levelo://app?vid=bc30f488-7026-4ace-83c7-00d1f4902064","ios":"levelo://app?vid=bc30f488-7026-4ace-83c7-00d1f4902064"},"vehicle_type_id":"4","last_reported":1766959846,"current_range_meters":7200,"station_id":"cpo3532slgdg3j2ikp40","pricing_plan_id":"cebpf4jnsgd1na2vs0mg"},{"bike_id":"7c5ef131-acab-4659-999a-8e7261371087","system_id":"levelo_inurba_marseille","lat":43.29998,"lon":5.38638,"is_reserved":false,"is_disabled":true,"rental_uris":{"android":"levelo://app?vid=7c5ef131-acab-4659-999a-8e7261371087","ios":"levelo://app?vid=7c5ef131-acab-4659-999a-8e7261371087"},"vehicle_type_id":"4","last_reported":1766959846,"current_range_meters":7200,"station_id":"","pricing_plan_id":"cebpf4jnsgd1na2vs0mg"},{"bike_id":"e44fdb7f-8720-46ac-981c-054c6ce20310","system_id":"levelo_inurba_marseille","lat":43.28474,"lon":5.48411,"is_reserved":false,"is_disabled":true,"rental_uris":{"android":"levelo://app?vid=e44fdb7f-8720-46ac-981c-054c6ce20310","ios":"levelo://app?vid=e44fdb7f-8720-46ac-981c-054c6ce20310"},"vehicle_type_id":"4","last_reported":1766959846,"current_range_meters":8000,"station_id":"st_d3svhcjqgbts73a3dn0g","pricing_plan_id":"cebpf4jnsgd1na2vs0mg"},{"bike_id":"97848435-e4dc-4eee-ab50-f0d1b0b6b0f3","system_id":"levelo_inurba_marseille","lat":43.25859,"lon":5.39932,"is_reserved":false,"is_disabled":true,"rental_uris":{"android":"levelo://app?vid=97848435-e4dc-4eee-ab50-f0d1b0b6b0f3","ios":"levelo://app?vid=97848435-e4dc-4eee-ab50-f0d1b0b6b0f3"},"vehicle_type_id":"4","last_reported":1766959846,"current_range_meters":8000,"station_id":"ce4bhl92rcd13ifvqghg","pricing_plan_id":"cebpf4jnsgd1na2vs0mg"},{"bike_id":"2774eca9-c878-4033-8514-2330fd47f167","system_id":"levelo_inurba_marseille","lat":43.2848,"lon":5.48398,"is_reserved":false,"is_disabled":false,"rental_uris":{"android":"levelo://app?vid=2774eca9-c878-4033-8514-2330fd47f167","ios":"levelo://app?vid=2774eca9-c878-4033-8514-2330fd47f167"},"vehicle_type_id":"4","last_reported":1766959846,"current_range_meters":8000,"station_id":"st_d3svhcjqgbts73a3dn0g","pricing_plan_id":"cebpf4jnsgd1na2vs0mg"},{"bike_id":"17d4a844-0ec1-468b-8f77-0544cac858d7","system_id":"levelo_inurba_marseille","lat":43.30095,"lon":5.39102,"is_reserved":false,"is_disabled":false,"rental_uris":{"android":"levelo://app?vid=17d4a844-0ec1-468b-8f77-0544cac858d7","ios":"levelo://app?vid=17d4a844-0ec1-468b-8f77-0544cac858d7"},"vehicle_type_id":"4","last_reported":1766959846,"current_range_meters":8000,"station_id":"ce4bh192rcd13ifvqdb0","pricing_plan_id":"cebpf4jnsgd1na2vs0mg"},{"bike_id":"56781db9-1973-4f3f-85d1-fdb9ae4c36a8","system_id":"levelo_inurba_marseille","lat":43.301,"lon":5.3909,"is_reserved":false,"is_disabled":false,"rental_uris":{"android":"levelo://app?vid=56781db9-1973-4f3f-85d1-fdb9ae4c36a8","ios":"levelo://app?vid=56781db9-1973-4f3f-85d1-fdb9ae4c36a8"},"vehicle_type_id":"4","last_reported":1766959846,"current_range_meters":8000,"station_id":"ce4bh192rcd13ifvqdb0","pricing_plan_id":"cebpf4jnsgd1na2vs0mg"},{"bike_id":"d7ee54e6-2519-4ac6-8f67-c3a659f7d88b","system_id":"levelo_inurba_marseille","lat":43.28542,"lon":5.44084,"is_reserved":false,"is_disabled":false,"rental_uris":{"android":"levelo://app?vid=d7ee54e6-2519-4ac6-8f67-c3a659f7d88b","ios":"levelo://app?vid=d7ee54e6-2519-4ac6-8f67-c3a659f7d88b"},"vehicle_type_id":"4","last_reported":1766959846,"current_range_meters":8000,"station_id":"st_d3j3df2ikq2c7380ej80","pricing_plan_id":"cebpf4jnsgd1na2vs0mg"},{"bike_id":"942ebd73-296e-419b-b1a3-08e0c2700002","system_id":"levelo_inurba_marseille","lat":43.310738,"lon":5.38352,"is_reserved":false,"is_disabled":false,"rental_uris":{"android":"levelo://app?vid=942ebd73-296e-419b-b1a3-08e0c2700002","ios":"levelo://app?vid=942ebd73-296e-419b-b1a3-08e0c2700002"},"vehicle_type_id":"4","last_reported":1766959846,"current_range_meters":8400,"station_id":"ce4bgv92rcd13ifvqcr0","pricing_plan_id":"cebpf4jnsgd1na2vs0mg"},{"bike_id":"5c6e3ec7-cc1e-4910-93fe-8737f63c13e6","system_id":"levelo_inurba_marseille","lat":43.34145,"lon":5.40899,"is_reserved":false,"is_disabled":false,"rental_uris":{"android":"levelo://app?vid=5c6e3ec7-cc1e-4910-93fe-8737f63c13e6","ios":"levelo://app?vid=5c6e3ec7-cc1e-4910-93fe-8737f63c13e6"},"vehicle_type_id":"4","last_reported":1766959846,"current_range_meters":8400,"station_id":"ce4bhqh2rcd13ifvqhlg","pricing_plan_id":"cebpf4jnsgd1na2vs0mg"},{"bike_id":"347f2bbf-7c0c-4332-9900-d0bc750b6ab9","system_id":"levelo_inurba_marseille","lat":43.29604,"lon":5.38089,"is_reserved":false,"is_disabled":false,"rental_uris":{"android":"levelo://app?vid=347f2bbf-7c0c-4332-9900-d0bc750b6ab9","ios":"levelo://app?vid=347f2bbf-7c0c-4332-9900-d0bc750b6ab9"},"vehicle_type_id":"4","last_reported":1766959846,"current_range_meters":8400,"station_id":"ce4bgl12rcd13ifvqbo0","pricing_plan_id":"cebpf4jnsgd1na2vs0mg"},{"bike_id":"364a48f3-8473-4e00-9d33-2eb0fe242911","system_id":"levelo_inurba_marseille","lat":43.27668,"lon":5.38883,"is_reserved":false,"is_disabled":true,"rental_uris":{"android":"levelo://app?vid=364a48f3-8473-4e00-9d33-2eb0fe242911","ios":"levelo://app?vid=364a48f3-8473-4e00-9d33-2eb0fe242911"},"vehicle_type_id":"4","last_reported":1766959846,"current_range_meters":8400,"station_id":"ce4bhi12rcd13ifvqfo0","pricing_plan_id":"cebpf4jnsgd1na2vs0mg"},{"bike_id":"17a49efb-d179-4b85-b20c-4afe87c0613f","system_id":"levelo_inurba_marseille","lat":43.31039,"lon":5.37168,"is_reserved":false,"is_disabled":true,"rental_uris":{"android":"levelo://app?vid=17a49efb-d179-4b85-b20c-4afe87c0613f","ios":"levelo://app?vid=17a49efb-d179-4b85-b20c-4afe87c0613f"},"vehicle_type_id":"4","last_reported":1766959846,"current_range_meters":8400,"station_id":"st_d4kl2rp97mjs73e7tdfg","pricing_plan_id":"cebpf4jnsgd1na2vs0mg"},{"bike_id":"898113a0-4857-44ff-94de-b1b7a47646b6","system_id":"levelo_inurba_marseille","lat":43.30298,"lon":5.38474,"is_reserved":false,"is_disabled":false,"rental_uris":{"android":"levelo://app?vid=898113a0-4857-44ff-94de-b1b7a47646b6","ios":"levelo://app?vid=898113a0-4857-44ff-94de-b1b7a47646b6"},"vehicle_type_id":"4","last_reported":1766959846,"current_range_meters":8400,"station_id":"","pricing_plan_id":"cebpf4jnsgd1na2vs0mg"},{"bike_id":"548a8254-9ba6-4ee7-b9b1-a8034a41e939","system_id":"levelo_inurba_marseille","lat":43.30774,"lon":5.42499,"is_reserved":false,"is_disabled":false,"rental_uris":{"android":"levelo://app?vid=548a8254-9ba6-4ee7-b9b1-a8034a41e939","ios":"levelo://app?vid=548a8254-9ba6-4ee7-b9b1-a8034a41e939"},"vehicle_type_id":"4","last_reported":1766959846,"current_range_meters":8800,"station_id":"st_cvj6ca6bvosntc0bfgr0","pricing_plan_id":"cebpf4jnsgd1na2vs0mg"},{"bike_id":"f21fe9bf-f3b6-40e2-a040-797febd6921f","system_id":"levelo_inurba_marseille","lat":43.24176,"lon":5.39731,"is_reserved":false,"is_disabled":false,"rental_uris":{"android":"levelo://app?vid=f21fe9bf-f3b6-40e2-a040-797febd6921f","ios":"levelo://app?vid=f21fe9bf-f3b6-40e2-a040-797febd6921f"},"vehicle_type_id":"4","last_reported":1766959846,"current_range_meters":8800,"station_id":"ce4bhn12rcd13ifvqgpg","pricing_plan_id":"cebpf4jnsgd1na2vs0mg"},{"bike_id":"68a7cbeb-48ce-4ffe-be71-8479b2e1e91e","system_id":"levelo_inurba_marseille","lat":43.28029,"lon":5.36941,"is_reserved":false,"is_disabled":false,"rental_uris":{"android":"levelo://app?vid=68a7cbeb-48ce-4ffe-be71-8479b2e1e91e","ios":"levelo://app?vid=68a7cbeb-48ce-4ffe-be71-8479b2e1e91e"},"vehicle_type_id":"4","last_reported":1766959846,"current_range_meters":8800,"station_id":"ce4bha12rcd13ifvqef0","pricing_plan_id":"cebpf4jnsgd1na2vs0mg"},{"bike_id":"b7166de2-1d61-4c79-9744-9f412287c996","system_id":"levelo_inurba_marseille","lat":43.31231,"lon":5.38085,"is_reserved":false,"is_disabled":false,"rental_uris":{"android":"levelo://app?vid=b7166de2-1d61-4c79-9744-9f412287c996","ios":"levelo://app?vid=b7166de2-1d61-4c79-9744-9f412287c996"},"vehicle_type_id":"4","last_reported":1766959846,"current_range_meters":9200,"station_id":"","pricing_plan_id":"cebpf4jnsgd1na2vs0mg"},{"bike_id":"13510b18-4a9b-47d0-a954-6d7cdc2c118c","system_id":"levelo_inurba_marseille","lat":43.28489,"lon":5.48396,"is_reserved":false,"is_disabled":false,"rental_uris":{"android":"levelo://app?vid=13510b18-4a9b-47d0-a954-6d7cdc2c118c","ios":"levelo://app?vid=13510b18-4a9b-47d0-a954-6d7cdc2c118c"},"vehicle_type_id":"4","last_reported":1766959846,"current_range_meters":9200,"station_id":"st_d3svhcjqgbts73a3dn0g","pricing_plan_id":"cebpf4jnsgd1na2vs0mg"},{"bike_id":"bbf79c3d-08ca-4c87-b5f9-8b31cf1aef88","system_id":"levelo_inurba_marseille","lat":43.320576,"lon":5.415416,"is_reserved":false,"is_disabled":false,"rental_uris":{"android":"levelo://app?vid=bbf79c3d-08ca-4c87-b5f9-8b31cf1aef88","ios":"levelo://app?vid=bbf79c3d-08ca-4c87-b5f9-8b31cf1aef88"},"vehicle_type_id":"4","last_reported":1766959846,"current_range_meters":9200,"station_id":"ce4bhq92rcd13ifvqhkg","pricing_plan_id":"cebpf4jnsgd1na2vs0mg"},{"bike_id":"339f7fad-0b1b-4a48-b72c-b5526abdec50","system_id":"levelo_inurba_marseille","lat":43.284753,"lon":5.484005,"is_reserved":false,"is_disabled":false,"rental_uris":{"android":"levelo://app?vid=339f7fad-0b1b-4a48-b72c-b5526abdec50","ios":"levelo://app?vid=339f7fad-0b1b-4a48-b72c-b5526abdec50"},"vehicle_type_id":"4","last_reported":1766959846,"current_range_meters":9200,"station_id":"","pricing_plan_id":"cebpf4jnsgd1na2vs0mg"},{"bike_id":"4db2dd6f-8183-4e90-af8a-d7adac78a5ac","system_id":"levelo_inurba_marseille","lat":43.27207,"lon":5.39181,"is_reserved":false,"is_disabled":true,"rental_uris":{"android":"levelo://app?vid=4db2dd6f-8183-4e90-af8a-d7adac78a5ac","ios":"levelo://app?vid=4db2dd6f-8183-4e90-af8a-d7adac78a5ac"},"vehicle_type_id":"4","last_reported":1766959846,"current_range_meters":9200,"station_id":"ce4bhhp2rcd13ifvqfm0","pricing_plan_id":"cebpf4jnsgd1na2vs0mg"},{"bike_id":"96cff8a2-c8e3-4b17-8132-2de8c70febcb","system_id":"levelo_inurba_marseille","lat":43.28537,"lon":5.44086,"is_reserved":false,"is_disabled":false,"rental_uris":{"android":"levelo://app?vid=96cff8a2-c8e3-4b17-8132-2de8c70febcb","ios":"levelo://app?vid=96cff8a2-c8e3-4b17-8132-2de8c70febcb"},"vehicle_type_id":"4","last_reported":1766959846,"current_range_meters":9600,"station_id":"st_d3j3df2ikq2c7380ej80","pricing_plan_id":"cebpf4jnsgd1na2vs0mg"},{"bike_id":"8219a7e0-26be-492b-bfe0-b26fb4fbe056","system_id":"levelo_inurba_marseille","lat":43.29733,"lon":5.37732,"is_reserved":false,"is_disabled":false,"rental_uris":{"android":"levelo://app?vid=8219a7e0-26be-492b-bfe0-b26fb4fbe056","ios":"levelo://app?vid=8219a7e0-26be-492b-bfe0-b26fb4fbe056"},"vehicle_type_id":"4","last_reported":1766959846,"current_range_meters":9600,"station_id":"ce4bhr92rcd13ifvqhrg","pricing_plan_id":"cebpf4jnsgd1na2vs0mg"},{"bike_id":"cf0e2dfe-8751-4251-bbd3-3ad00be9f3ad","system_id":"levelo_inurba_marseille","lat":43.28473,"lon":5.48406,"is_reserved":false,"is_disabled":false,"rental_uris":{"android":"levelo://app?vid=cf0e2dfe-8751-4251-bbd3-3ad00be9f3ad","ios":"levelo://app?vid=cf0e2dfe-8751-4251-bbd3-3ad00be9f3ad"},"vehicle_type_id":"4","last_reported":1766959846,"current_range_meters":9600,"station_id":"st_d3svhcjqgbts73a3dn0g","pricing_plan_id":"cebpf4jnsgd1na2vs0mg"},{"bike_id":"044f2553-9a18-4af6-b3e3-64cf1ce0a08f","system_id":"levelo_inurba_marseille","lat":43.27946,"lon":5.41051,"is_reserved":false,"is_disabled":false,"rental_uris":{"android":"levelo://app?vid=044f2553-9a18-4af6-b3e3-64cf1ce0a08f","ios":"levelo://app?vid=044f2553-9a18-4af6-b3e3-64cf1ce0a08f"},"vehicle_type_id":"4","last_reported":1766959846,"current_range_meters":9600,"station_id":"ce4bhnp2rcd13ifvqh0g","pricing_plan_id":"cebpf4jnsgd1na2vs0mg"},{"bike_id":"d930ea5f-6b91-4dbe-9c42-e83ff7245067","system_id":"levelo_inurba_marseille","lat":43.28617,"lon":5.37068,"is_reserved":false,"is_disabled":false,"rental_uris":{"android":"levelo://app?vid=d930ea5f-6b91-4dbe-9c42-e83ff7245067","ios":"levelo://app?vid=d930ea5f-6b91-4dbe-9c42-e83ff7245067"},"vehicle_type_id":"4","last_reported":1766959846,"current_range_meters":9600,"station_id":"ce4bht12rcd13ifvqi60","pricing_plan_id":"cebpf4jnsgd1na2vs0mg"},{"bike_id":"beea6f64-d836-4f73-bff2-5b3beaa59d80","system_id":"levelo_inurba_marseille","lat":43.22931,"lon":5.35377,"is_reserved":false,"is_disabled":false,"rental_uris":{"android":"levelo://app?vid=beea6f64-d836-4f73-bff2-5b3beaa59d80","ios":"levelo://app?vid=beea6f64-d836-4f73-bff2-5b3beaa59d80"},"vehicle_type_id":"4","last_reported":1766959846,"current_range_meters":9600,"station_id":"cpo3532slgdg3j2ikp40","pricing_plan_id":"cebpf4jnsgd1na2vs0mg"},{"bike_id":"ca52e022-567b-45ef-be8d-c03ddb38c606","system_id":"levelo_inurba_marseille","lat":43.27478,"lon":5.42462,"is_reserved":false,"is_disabled":false,"rental_uris":{"android":"levelo://app?vid=ca52e022-567b-45ef-be8d-c03ddb38c606","ios":"levelo://app?vid=ca52e022-567b-45ef-be8d-c03ddb38c606"},"vehicle_type_id":"4","last_reported":1766959846,"current_range_meters":10000,"station_id":"ce4bhn92rcd13ifvqgrg","pricing_plan_id":"cebpf4jnsgd1na2vs0mg"},{"bike_id":"e77a2825-2f18-453f-84dc-7cda1b3d469d","system_id":"levelo_inurba_marseille","lat":43.2901,"lon":5.3813,"is_reserved":false,"is_disabled":true,"rental_uris":{"android":"levelo://app?vid=e77a2825-2f18-453f-84dc-7cda1b3d469d","ios":"levelo://app?vid=e77a2825-2f18-453f-84dc-7cda1b3d469d"},"vehicle_type_id":"4","last_reported":1766959846,"current_range_meters":10000,"station_id":"ce4bh4p2rcd13ifvqe1g","pricing_plan_id":"cebpf4jnsgd1na2vs0mg"},{"bike_id":"36e3ab74-d85b-46de-9904-53928a1da310","system_id":"levelo_inurba_marseille","lat":43.25673,"lon":5.40018,"is_reserved":false,"is_disabled":false,"rental_uris":{"android":"levelo://app?vid=36e3ab74-d85b-46de-9904-53928a1da310","ios":"levelo://app?vid=36e3ab74-d85b-46de-9904-53928a1da310"},"vehicle_type_id":"4","last_reported":1766959846,"current_range_meters":10000,"station_id":"","pricing_plan_id":"cebpf4jnsgd1na2vs0mg"},{"bike_id":"377b837c-cb5e-4605-a80d-c2525a769f4a","system_id":"levelo_inurba_marseille","lat":43.29278,"lon":5.38457,"is_reserved":false,"is_disabled":false,"rental_uris":{"android":"levelo://app?vid=377b837c-cb5e-4605-a80d-c2525a769f4a","ios":"levelo://app?vid=377b837c-cb5e-4605-a80d-c2525a769f4a"},"vehicle_type_id":"4","last_reported":1766959846,"current_range_meters":10000,"station_id":"ce4bh692rcd13ifvqea0","pricing_plan_id":"cebpf4jnsgd1na2vs0mg"},{"bike_id":"379f1d1d-6573-425c-930f-d9fd2250f71a","system_id":"levelo_inurba_marseille","lat":43.29265,"lon":5.38433,"is_reserved":false,"is_disabled":false,"rental_uris":{"android":"levelo://app?vid=379f1d1d-6573-425c-930f-d9fd2250f71a","ios":"levelo://app?vid=379f1d1d-6573-425c-930f-d9fd2250f71a"},"vehicle_type_id":"4","last_reported":1766959846,"current_range_meters":10000,"station_id":"ce4bh692rcd13ifvqea0","pricing_plan_id":"cebpf4jnsgd1na2vs0mg"},{"bike_id":"b8359eb8-309f-4919-a9d8-14bc8a289068","system_id":"levelo_inurba_marseille","lat":43.29845,"lon":5.381046,"is_reserved":false,"is_disabled":false,"rental_uris":{"android":"levelo://app?vid=b8359eb8-309f-4919-a9d8-14bc8a289068","ios":"levelo://app?vid=b8359eb8-309f-4919-a9d8-14bc8a289068"},"vehicle_type_id":"4","last_reported":1766959846,"current_range_meters":10000,"station_id":"","pricing_plan_id":"cebpf4jnsgd1na2vs0mg"},{"bike_id":"6f43cfcd-5b7c-4880-b513-fb31e9502d04","system_id":"levelo_inurba_marseille","lat":43.28027,"lon":5.44031,"is_reserved":false,"is_disabled":false,"rental_uris":{"android":"levelo://app?vid=6f43cfcd-5b7c-4880-b513-fb31e9502d04","ios":"levelo://app?vid=6f43cfcd-5b7c-4880-b513-fb31e9502d04"},"vehicle_type_id":"4","last_reported":1766959846,"current_range_meters":10000,"station_id":"","pricing_plan_id":"cebpf4jnsgd1na2vs0mg"},{"bike_id":"417386cf-4059-4a1f-ab41-a9b62b453096","system_id":"levelo_inurba_marseille","lat":43.33782,"lon":5.37414,"is_reserved":false,"is_disabled":false,"rental_uris":{"android":"levelo://app?vid=417386cf-4059-4a1f-ab41-a9b62b453096","ios":"levelo://app?vid=417386cf-4059-4a1f-ab41-a9b62b453096"},"vehicle_type_id":"4","last_reported":1766959846,"current_range_meters":10000,"station_id":"","pricing_plan_id":"cebpf4jnsgd1na2vs0mg"},{"bike_id":"81062f73-91d6-4254-837a-3a79f2f3a1d9","system_id":"levelo_inurba_marseille","lat":43.28147,"lon":5.38916,"is_reserved":false,"is_disabled":false,"rental_uris":{"android":"levelo://app?vid=81062f73-91d6-4254-837a-3a79f2f3a1d9","ios":"levelo://app?vid=81062f73-91d6-4254-837a-3a79f2f3a1d9"},"vehicle_type_id":"4","last_reported":1766959846,"current_range_meters":10000,"station_id":"","pricing_plan_id":"cebpf4jnsgd1na2vs0mg"},{"bike_id":"93668d68-d030-4a6b-8a18-92aae4171ebd","system_id":"levelo_inurba_marseille","lat":43.30522,"lon":5.36533,"is_reserved":false,"is_disabled":false,"rental_uris":{"android":"levelo://app?vid=93668d68-d030-4a6b-8a18-92aae4171ebd","ios":"levelo://app?vid=93668d68-d030-4a6b-8a18-92aae4171ebd"},"vehicle_type_id":"4","last_reported":1766959846,"current_range_meters":10800,"station_id":"","pricing_plan_id":"cebpf4jnsgd1na2vs0mg"},{"bike_id":"a4821bb1-a15b-42d7-b80c-382f45814acf","system_id":"levelo_inurba_marseille","lat":43.3189,"lon":5.4073,"is_reserved":false,"is_disabled":false,"rental_uris":{"android":"levelo://app?vid=a4821bb1-a15b-42d7-b80c-382f45814acf","ios":"levelo://app?vid=a4821bb1-a15b-42d7-b80c-382f45814acf"},"vehicle_type_id":"4","last_reported":1766959846,"current_range_meters":10800,"station_id":"ce4bhq12rcd13ifvqhig","pricing_plan_id":"cebpf4jnsgd1na2vs0mg"},{"bike_id":"ca54b8c2-a6c5-4699-8603-0ca8d9b98b82","system_id":"levelo_inurba_marseille","lat":43.3042,"lon":5.41279,"is_reserved":false,"is_disabled":false,"rental_uris":{"android":"levelo://app?vid=ca54b8c2-a6c5-4699-8603-0ca8d9b98b82","ios":"levelo://app?vid=ca54b8c2-a6c5-4699-8603-0ca8d9b98b82"},"vehicle_type_id":"4","last_reported":1766959846,"current_range_meters":10800,"station_id":"ce4bhop2rcd13ifvqh8g","pricing_plan_id":"cebpf4jnsgd1na2vs0mg"},{"bike_id":"d6e88a96-e819-42ed-ba47-0ad831dd2b72","system_id":"levelo_inurba_marseille","lat":43.29571,"lon":5.37497,"is_reserved":false,"is_disabled":false,"rental_uris":{"android":"levelo://app?vid=d6e88a96-e819-42ed-ba47-0ad831dd2b72","ios":"levelo://app?vid=d6e88a96-e819-42ed-ba47-0ad831dd2b72"},"vehicle_type_id":"4","last_reported":1766959846,"current_range_meters":10800,"station_id":"ce4bgh92rcd13ifvqb50","pricing_plan_id":"cebpf4jnsgd1na2vs0mg"},{"bike_id":"c5ceed16-6dfe-409f-82bf-89ae8b5810cf","system_id":"levelo_inurba_marseille","lat":43.28533,"lon":5.44107,"is_reserved":false,"is_disabled":false,"rental_uris":{"android":"levelo://app?vid=c5ceed16-6dfe-409f-82bf-89ae8b5810cf","ios":"levelo://app?vid=c5ceed16-6dfe-409f-82bf-89ae8b5810cf"},"vehicle_type_id":"4","last_reported":1766959846,"current_range_meters":10800,"station_id":"st_d3j3df2ikq2c7380ej80","pricing_plan_id":"cebpf4jnsgd1na2vs0mg"},{"bike_id":"d6a449d9-67ef-4444-ae17-bd1e29b48728","system_id":"levelo_inurba_marseille","lat":43.285767,"lon":5.429835,"is_reserved":false,"is_disabled":false,"rental_uris":{"android":"levelo://app?vid=d6a449d9-67ef-4444-ae17-bd1e29b48728","ios":"levelo://app?vid=d6a449d9-67ef-4444-ae17-bd1e29b48728"},"vehicle_type_id":"4","last_reported":1766959846,"current_range_meters":10800,"station_id":"","pricing_plan_id":"cebpf4jnsgd1na2vs0mg"},{"bike_id":"e9ffa096-acd4-4048-a7b2-1c444588a8ee","system_id":"levelo_inurba_marseille","lat":43.28531,"lon":5.44101,"is_reserved":false,"is_disabled":false,"rental_uris":{"android":"levelo://app?vid=e9ffa096-acd4-4048-a7b2-1c444588a8ee","ios":"levelo://app?vid=e9ffa096-acd4-4048-a7b2-1c444588a8ee"},"vehicle_type_id":"4","last_reported":1766959846,"current_range_meters":10800,"station_id":"st_d3j3df2ikq2c7380ej80","pricing_plan_id":"cebpf4jnsgd1na2vs0mg"},{"bike_id":"9b2d0712-3ac5-402d-bf31-0ee5331ac79b","system_id":"levelo_inurba_marseille","lat":43.299178,"lon":5.380152,"is_reserved":false,"is_disabled":false,"rental_uris":{"android":"levelo://app?vid=9b2d0712-3ac5-402d-bf31-0ee5331ac79b","ios":"levelo://app?vid=9b2d0712-3ac5-402d-bf31-0ee5331ac79b"},"vehicle_type_id":"4","last_reported":1766959846,"current_range_meters":10800,"station_id":"","pricing_plan_id":"cebpf4jnsgd1na2vs0mg"},{"bike_id":"3d8062de-4bd0-49c7-86a6-7bf3b5df4845","system_id":"levelo_inurba_marseille","lat":43.28481,"lon":5.48417,"is_reserved":false,"is_disabled":false,"rental_uris":{"android":"levelo://app?vid=3d8062de-4bd0-49c7-86a6-7bf3b5df4845","ios":"levelo://app?vid=3d8062de-4bd0-49c7-86a6-7bf3b5df4845"},"vehicle_type_id":"4","last_reported":1766959846,"current_range_meters":10800,"station_id":"","pricing_plan_id":"cebpf4jnsgd1na2vs0mg"},{"bike_id":"c93bbf3c-9650-44c3-9782-9bef181a9bed","system_id":"levelo_inurba_marseille","lat":43.24789,"lon":5.37503,"is_reserved":false,"is_disabled":false,"rental_uris":{"android":"levelo://app?vid=c93bbf3c-9650-44c3-9782-9bef181a9bed","ios":"levelo://app?vid=c93bbf3c-9650-44c3-9782-9bef181a9bed"},"vehicle_type_id":"4","last_reported":1766959846,"current_range_meters":10800,"station_id":"","pricing_plan_id":"cebpf4jnsgd1na2vs0mg"},{"bike_id":"5089722c-f7e0-4066-8ac8-35582342af82","system_id":"levelo_inurba_marseille","lat":43.29862,"lon":5.3766,"is_reserved":false,"is_disabled":false,"rental_uris":{"android":"levelo://app?vid=5089722c-f7e0-4066-8ac8-35582342af82","ios":"levelo://app?vid=5089722c-f7e0-4066-8ac8-35582342af82"},"vehicle_type_id":"4","last_reported":1766959846,"current_range_meters":11200,"station_id":"","pricing_plan_id":"cebpf4jnsgd1na2vs0mg"},{"bike_id":"5ea5c86d-cf72-4179-a6cb-8b7f67a19541","system_id":"levelo_inurba_marseille","lat":43.28482,"lon":5.38413,"is_reserved":false,"is_disabled":false,"rental_uris":{"android":"levelo://app?vid=5ea5c86d-cf72-4179-a6cb-8b7f67a19541","ios":"levelo://app?vid=5ea5c86d-cf72-4179-a6cb-8b7f67a19541"},"vehicle_type_id":"4","last_reported":1766959846,"current_range_meters":11200,"station_id":"ce4bh512rcd13ifvqe3g","pricing_plan_id":"cebpf4jnsgd1na2vs0mg"},{"bike_id":"945eb126-c9ee-4f01-8c11-f3e0bd3eb3ad","system_id":"levelo_inurba_marseille","lat":43.297058,"lon":5.376878,"is_reserved":false,"is_disabled":false,"rental_uris":{"android":"levelo://app?vid=945eb126-c9ee-4f01-8c11-f3e0bd3eb3ad","ios":"levelo://app?vid=945eb126-c9ee-4f01-8c11-f3e0bd3eb3ad"},"vehicle_type_id":"4","last_reported":1766959846,"current_range_meters":11200,"station_id":"ce4bgkh2rcd13ifvqbl0","pricing_plan_id":"cebpf4jnsgd1na2vs0mg"},{"bike_id":"f6e6dcdd-f74f-4d28-9f48-2ce11c11db83","system_id":"levelo_inurba_marseille","lat":43.29573,"lon":5.3751,"is_reserved":false,"is_disabled":false,"rental_uris":{"android":"levelo://app?vid=f6e6dcdd-f74f-4d28-9f48-2ce11c11db83","ios":"levelo://app?vid=f6e6dcdd-f74f-4d28-9f48-2ce11c11db83"},"vehicle_type_id":"4","last_reported":1766959846,"current_range_meters":11200,"station_id":"ce4bgh92rcd13ifvqb50","pricing_plan_id":"cebpf4jnsgd1na2vs0mg"},{"bike_id":"a62303ff-bb49-4dd5-ac58-5e4e023411d7","system_id":"levelo_inurba_marseille","lat":43.23965,"lon":5.36626,"is_reserved":false,"is_disabled":false,"rental_uris":{"android":"levelo://app?vid=a62303ff-bb49-4dd5-ac58-5e4e023411d7","ios":"levelo://app?vid=a62303ff-bb49-4dd5-ac58-5e4e023411d7"},"vehicle_type_id":"4","last_reported":1766959846,"current_range_meters":11200,"station_id":"ce4bhi12rcd13ifvqfp0","pricing_plan_id":"cebpf4jnsgd1na2vs0mg"},{"bike_id":"80dbd64a-bc91-4c6f-885a-5048f29c86df","system_id":"levelo_inurba_marseille","lat":43.26492,"lon":5.39543,"is_reserved":false,"is_disabled":false,"rental_uris":{"android":"levelo://app?vid=80dbd64a-bc91-4c6f-885a-5048f29c86df","ios":"levelo://app?vid=80dbd64a-bc91-4c6f-885a-5048f29c86df"},"vehicle_type_id":"4","last_reported":1766959846,"current_range_meters":11200,"station_id":"ce4bhi12rcd13ifvqfq0","pricing_plan_id":"cebpf4jnsgd1na2vs0mg"},{"bike_id":"29fe9c73-68f9-4808-81a4-ddd93340fcf1","system_id":"levelo_inurba_marseille","lat":43.29592,"lon":5.38102,"is_reserved":false,"is_disabled":false,"rental_uris":{"android":"levelo://app?vid=29fe9c73-68f9-4808-81a4-ddd93340fcf1","ios":"levelo://app?vid=29fe9c73-68f9-4808-81a4-ddd93340fcf1"},"vehicle_type_id":"4","last_reported":1766959846,"current_range_meters":11200,"station_id":"ce4bgl12rcd13ifvqbo0","pricing_plan_id":"cebpf4jnsgd1na2vs0mg"},{"bike_id":"eb087d7f-76f2-4f0e-ab86-400d39571005","system_id":"levelo_inurba_marseille","lat":43.28431,"lon":5.39169,"is_reserved":false,"is_disabled":true,"rental_uris":{"android":"levelo://app?vid=eb087d7f-76f2-4f0e-ab86-400d39571005","ios":"levelo://app?vid=eb087d7f-76f2-4f0e-ab86-400d39571005"},"vehicle_type_id":"4","last_reported":1766959846,"current_range_meters":11200,"station_id":"ce4bhoh2rcd13ifvqh5g","pricing_plan_id":"cebpf4jnsgd1na2vs0mg"},{"bike_id":"c84b8e47-5802-4c21-b1cc-1df47c4f26c2","system_id":"levelo_inurba_marseille","lat":43.28484,"lon":5.48396,"is_reserved":false,"is_disabled":false,"rental_uris":{"android":"levelo://app?vid=c84b8e47-5802-4c21-b1cc-1df47c4f26c2","ios":"levelo://app?vid=c84b8e47-5802-4c21-b1cc-1df47c4f26c2"},"vehicle_type_id":"4","last_reported":1766959846,"current_range_meters":11200,"station_id":"st_d3svhcjqgbts73a3dn0g","pricing_plan_id":"cebpf4jnsgd1na2vs0mg"},{"bike_id":"2503c23c-b59b-480d-8478-060870a7b3a7","system_id":"levelo_inurba_marseille","lat":43.29045,"lon":5.38647,"is_reserved":false,"is_disabled":false,"rental_uris":{"android":"levelo://app?vid=2503c23c-b59b-480d-8478-060870a7b3a7","ios":"levelo://app?vid=2503c23c-b59b-480d-8478-060870a7b3a7"},"vehicle_type_id":"4","last_reported":1766959846,"current_range_meters":11200,"station_id":"ce4bh4p2rcd13ifvqe0g","pricing_plan_id":"cebpf4jnsgd1na2vs0mg"},{"bike_id":"84edb561-7951-432d-ad1a-5c5c09f836c7","system_id":"levelo_inurba_marseille","lat":43.21198,"lon":5.35098,"is_reserved":false,"is_disabled":false,"rental_uris":{"android":"levelo://app?vid=84edb561-7951-432d-ad1a-5c5c09f836c7","ios":"levelo://app?vid=84edb561-7951-432d-ad1a-5c5c09f836c7"},"vehicle_type_id":"4","last_reported":1766959846,"current_range_meters":11600,"station_id":"st_cvj6sg6p6f1abm77japg","pricing_plan_id":"cebpf4jnsgd1na2vs0mg"},{"bike_id":"5e62b23f-3386-4337-a1a4-edfe3d7f3411","system_id":"levelo_inurba_marseille","lat":43.28153,"lon":5.42638,"is_reserved":false,"is_disabled":false,"rental_uris":{"android":"levelo://app?vid=5e62b23f-3386-4337-a1a4-edfe3d7f3411","ios":"levelo://app?vid=5e62b23f-3386-4337-a1a4-edfe3d7f3411"},"vehicle_type_id":"4","last_reported":1766959846,"current_range_meters":11600,"station_id":"ce4bhnh2rcd13ifvqgug","pricing_plan_id":"cebpf4jnsgd1na2vs0mg"},{"bike_id":"c03aa070-26a3-46a4-b104-b236ef7e32dd","system_id":"levelo_inurba_marseille","lat":43.2988,"lon":5.3627,"is_reserved":false,"is_disabled":false,"rental_uris":{"android":"levelo://app?vid=c03aa070-26a3-46a4-b104-b236ef7e32dd","ios":"levelo://app?vid=c03aa070-26a3-46a4-b104-b236ef7e32dd"},"vehicle_type_id":"4","last_reported":1766959846,"current_range_meters":11600,"station_id":"ce4bgpp2rcd13ifvqc3g","pricing_plan_id":"cebpf4jnsgd1na2vs0mg"},{"bike_id":"ef10592e-adff-49b5-8467-d9f686a1a24b","system_id":"levelo_inurba_marseille","lat":43.28147,"lon":5.42654,"is_reserved":false,"is_disabled":false,"rental_uris":{"android":"levelo://app?vid=ef10592e-adff-49b5-8467-d9f686a1a24b","ios":"levelo://app?vid=ef10592e-adff-49b5-8467-d9f686a1a24b"},"vehicle_type_id":"4","last_reported":1766959846,"current_range_meters":11600,"station_id":"ce4bhnh2rcd13ifvqgug","pricing_plan_id":"cebpf4jnsgd1na2vs0mg"},{"bike_id":"94b65cfe-edaf-4322-865d-06eff46e3ede","system_id":"levelo_inurba_marseille","lat":43.30039,"lon":5.3736,"is_reserved":false,"is_disabled":false,"rental_uris":{"android":"levelo://app?vid=94b65cfe-edaf-4322-865d-06eff46e3ede","ios":"levelo://app?vid=94b65cfe-edaf-4322-865d-06eff46e3ede"},"vehicle_type_id":"4","last_reported":1766959846,"current_range_meters":11600,"station_id":"","pricing_plan_id":"cebpf4jnsgd1na2vs0mg"},{"bike_id":"47552ee0-d854-4e17-8af3-88a0a30502ea","system_id":"levelo_inurba_marseille","lat":43.28862,"lon":5.42519,"is_reserved":false,"is_disabled":false,"rental_uris":{"android":"levelo://app?vid=47552ee0-d854-4e17-8af3-88a0a30502ea","ios":"levelo://app?vid=47552ee0-d854-4e17-8af3-88a0a30502ea"},"vehicle_type_id":"4","last_reported":1766959846,"current_range_meters":11600,"station_id":"st_d3b462108ojc7389ooeg","pricing_plan_id":"cebpf4jnsgd1na2vs0mg"},{"bike_id":"c342fbd5-df63-43d2-911d-bfa0fcc44689","system_id":"levelo_inurba_marseille","lat":43.33081,"lon":5.4105,"is_reserved":false,"is_disabled":false,"rental_uris":{"android":"levelo://app?vid=c342fbd5-df63-43d2-911d-bfa0fcc44689","ios":"levelo://app?vid=c342fbd5-df63-43d2-911d-bfa0fcc44689"},"vehicle_type_id":"4","last_reported":1766959846,"current_range_meters":11600,"station_id":"","pricing_plan_id":"cebpf4jnsgd1na2vs0mg"},{"bike_id":"7d85ebe3-0604-4ed6-86cf-fece632e3a88","system_id":"levelo_inurba_marseille","lat":43.32047,"lon":5.41558,"is_reserved":false,"is_disabled":false,"rental_uris":{"android":"levelo://app?vid=7d85ebe3-0604-4ed6-86cf-fece632e3a88","ios":"levelo://app?vid=7d85ebe3-0604-4ed6-86cf-fece632e3a88"},"vehicle_type_id":"4","last_reported":1766959846,"current_range_meters":11600,"station_id":"ce4bhq92rcd13ifvqhkg","pricing_plan_id":"cebpf4jnsgd1na2vs0mg"},{"bike_id":"2959011c-1ba7-48fe-a67a-5bbd5cd550a7","system_id":"levelo_inurba_marseille","lat":43.26383,"lon":5.41088,"is_reserved":false,"is_disabled":false,"rental_uris":{"android":"levelo://app?vid=2959011c-1ba7-48fe-a67a-5bbd5cd550a7","ios":"levelo://app?vid=2959011c-1ba7-48fe-a67a-5bbd5cd550a7"},"vehicle_type_id":"4","last_reported":1766959846,"current_range_meters":11600,"station_id":"st_d4e5ca6na9uc73bfl5fg","pricing_plan_id":"cebpf4jnsgd1na2vs0mg"},{"bike_id":"04b61149-510d-4bf6-81d6-a065cc99d735","system_id":"levelo_inurba_marseille","lat":43.23178,"lon":5.39973,"is_reserved":false,"is_disabled":false,"rental_uris":{"android":"levelo://app?vid=04b61149-510d-4bf6-81d6-a065cc99d735","ios":"levelo://app?vid=04b61149-510d-4bf6-81d6-a065cc99d735"},"vehicle_type_id":"4","last_reported":1766959846,"current_range_meters":11600,"station_id":"ce4bhn12rcd13ifvqgqg","pricing_plan_id":"cebpf4jnsgd1na2vs0mg"},{"bike_id":"4d26a3d3-9dfd-4a2f-9328-cc08376c9aa1","system_id":"levelo_inurba_marseille","lat":43.27841,"lon":5.39209,"is_reserved":false,"is_disabled":false,"rental_uris":{"android":"levelo://app?vid=4d26a3d3-9dfd-4a2f-9328-cc08376c9aa1","ios":"levelo://app?vid=4d26a3d3-9dfd-4a2f-9328-cc08376c9aa1"},"vehicle_type_id":"4","last_reported":1766959846,"current_range_meters":12000,"station_id":"ce4bhjp2rcd13ifvqga0","pricing_plan_id":"cebpf4jnsgd1na2vs0mg"},{"bike_id":"d07dc22c-a864-4104-81e7-c60339403064","system_id":"levelo_inurba_marseille","lat":43.29642,"lon":5.38127,"is_reserved":false,"is_disabled":false,"rental_uris":{"android":"levelo://app?vid=d07dc22c-a864-4104-81e7-c60339403064","ios":"levelo://app?vid=d07dc22c-a864-4104-81e7-c60339403064"},"vehicle_type_id":"4","last_reported":1766959846,"current_range_meters":12000,"station_id":"ce4bgl12rcd13ifvqbo0","pricing_plan_id":"cebpf4jnsgd1na2vs0mg"},{"bike_id":"dc47a473-6377-4424-adf4-6498be065ab5","system_id":"levelo_inurba_marseille","lat":43.26931,"lon":5.38906,"is_reserved":false,"is_disabled":false,"rental_uris":{"android":"levelo://app?vid=dc47a473-6377-4424-adf4-6498be065ab5","ios":"levelo://app?vid=dc47a473-6377-4424-adf4-6498be065ab5"},"vehicle_type_id":"4","last_reported":1766959846,"current_range_meters":12000,"station_id":"ce4bhhh2rcd13ifvqfl0","pricing_plan_id":"cebpf4jnsgd1na2vs0mg"},{"bike_id":"12c38b32-5974-4311-910a-572392b8079a","system_id":"levelo_inurba_marseille","lat":43.28041,"lon":5.35095,"is_reserved":false,"is_disabled":false,"rental_uris":{"android":"levelo://app?vid=12c38b32-5974-4311-910a-572392b8079a","ios":"levelo://app?vid=12c38b32-5974-4311-910a-572392b8079a"},"vehicle_type_id":"4","last_reported":1766959846,"current_range_meters":12000,"station_id":"","pricing_plan_id":"cebpf4jnsgd1na2vs0mg"},{"bike_id":"009a3abe-17db-45a4-962d-ccda5205be12","system_id":"levelo_inurba_marseille","lat":43.30564,"lon":5.36518,"is_reserved":false,"is_disabled":false,"rental_uris":{"android":"levelo://app?vid=009a3abe-17db-45a4-962d-ccda5205be12","ios":"levelo://app?vid=009a3abe-17db-45a4-962d-ccda5205be12"},"vehicle_type_id":"4","last_reported":1766959846,"current_range_meters":12000,"station_id":"ce4bgs12rcd13ifvqcag","pricing_plan_id":"cebpf4jnsgd1na2vs0mg"},{"bike_id":"f1e029ec-966a-4c18-90a6-6313298321ec","system_id":"levelo_inurba_marseille","lat":43.2425,"lon":5.39382,"is_reserved":false,"is_disabled":false,"rental_uris":{"android":"levelo://app?vid=f1e029ec-966a-4c18-90a6-6313298321ec","ios":"levelo://app?vid=f1e029ec-966a-4c18-90a6-6313298321ec"},"vehicle_type_id":"4","last_reported":1766959846,"current_range_meters":12000,"station_id":"","pricing_plan_id":"cebpf4jnsgd1na2vs0mg"},{"bike_id":"0324683c-4043-4512-bd18-614da6ff13bb","system_id":"levelo_inurba_marseille","lat":43.32378,"lon":5.41265,"is_reserved":false,"is_disabled":false,"rental_uris":{"android":"levelo://app?vid=0324683c-4043-4512-bd18-614da6ff13bb","ios":"levelo://app?vid=0324683c-4043-4512-bd18-614da6ff13bb"},"vehicle_type_id":"4","last_reported":1766959846,"current_range_meters":12000,"station_id":"","pricing_plan_id":"cebpf4jnsgd1na2vs0mg"},{"bike_id":"9f81db56-9f18-4d2c-a126-f0fd49630ab7","system_id":"levelo_inurba_marseille","lat":43.32039,"lon":5.41564,"is_reserved":false,"is_disabled":false,"rental_uris":{"android":"levelo://app?vid=9f81db56-9f18-4d2c-a126-f0fd49630ab7","ios":"levelo://app?vid=9f81db56-9f18-4d2c-a126-f0fd49630ab7"},"vehicle_type_id":"4","last_reported":1766959846,"current_range_meters":12000,"station_id":"ce4bhq92rcd13ifvqhkg","pricing_plan_id":"cebpf4jnsgd1na2vs0mg"},{"bike_id":"f7f9ac92-f877-4948-80c5-fe96b2cbe3c1","system_id":"levelo_inurba_marseille","lat":43.30191,"lon":5.39377,"is_reserved":false,"is_disabled":false,"rental_uris":{"android":"levelo://app?vid=f7f9ac92-f877-4948-80c5-fe96b2cbe3c1","ios":"levelo://app?vid=f7f9ac92-f877-4948-80c5-fe96b2cbe3c1"},"vehicle_type_id":"4","last_reported":1766959846,"current_range_meters":12000,"station_id":"","pricing_plan_id":"cebpf4jnsgd1na2vs0mg"},{"bike_id":"9e141b39-0e68-4f68-bcde-138c49258b29","system_id":"levelo_inurba_marseille","lat":43.311847,"lon":5.387217,"is_reserved":false,"is_disabled":false,"rental_uris":{"android":"levelo://app?vid=9e141b39-0e68-4f68-bcde-138c49258b29","ios":"levelo://app?vid=9e141b39-0e68-4f68-bcde-138c49258b29"},"vehicle_type_id":"4","last_reported":1766959846,"current_range_meters":12000,"station_id":"ce4bgv12rcd13ifvqcp0","pricing_plan_id":"cebpf4jnsgd1na2vs0mg"},{"bike_id":"5f26fd32-d57c-4a0b-a416-65f73ea2479e","system_id":"levelo_inurba_marseille","lat":43.32781,"lon":5.40667,"is_reserved":false,"is_disabled":false,"rental_uris":{"android":"levelo://app?vid=5f26fd32-d57c-4a0b-a416-65f73ea2479e","ios":"levelo://app?vid=5f26fd32-d57c-4a0b-a416-65f73ea2479e"},"vehicle_type_id":"4","last_reported":1766959846,"current_range_meters":12000,"station_id":"","pricing_plan_id":"cebpf4jnsgd1na2vs0mg"},{"bike_id":"31704bec-4f9a-49bc-bf97-b66633aba2e8","system_id":"levelo_inurba_marseille","lat":43.26019,"lon":5.41738,"is_reserved":false,"is_disabled":false,"rental_uris":{"android":"levelo://app?vid=31704bec-4f9a-49bc-bf97-b66633aba2e8","ios":"levelo://app?vid=31704bec-4f9a-49bc-bf97-b66633aba2e8"},"vehicle_type_id":"4","last_reported":1766959846,"current_range_meters":12000,"station_id":"","pricing_plan_id":"cebpf4jnsgd1na2vs0mg"},{"bike_id":"49166d3a-7d57-41ae-b5e6-9a6cbabce031","system_id":"levelo_inurba_marseille","lat":43.29686,"lon":5.36771,"is_reserved":false,"is_disabled":false,"rental_uris":{"android":"levelo://app?vid=49166d3a-7d57-41ae-b5e6-9a6cbabce031","ios":"levelo://app?vid=49166d3a-7d57-41ae-b5e6-9a6cbabce031"},"vehicle_type_id":"4","last_reported":1766959846,"current_range_meters":12400,"station_id":"","pricing_plan_id":"cebpf4jnsgd1na2vs0mg"},{"bike_id":"b672c522-aca1-4885-98f6-4e99eceec109","system_id":"levelo_inurba_marseille","lat":43.30091,"lon":5.38692,"is_reserved":false,"is_disabled":true,"rental_uris":{"android":"levelo://app?vid=b672c522-aca1-4885-98f6-4e99eceec109","ios":"levelo://app?vid=b672c522-aca1-4885-98f6-4e99eceec109"},"vehicle_type_id":"4","last_reported":1766959846,"current_range_meters":12400,"station_id":"","pricing_plan_id":"cebpf4jnsgd1na2vs0mg"},{"bike_id":"493c9b2b-690f-44f7-b58a-5b3121f87c13","system_id":"levelo_inurba_marseille","lat":43.3373,"lon":5.39183,"is_reserved":false,"is_disabled":false,"rental_uris":{"android":"levelo://app?vid=493c9b2b-690f-44f7-b58a-5b3121f87c13","ios":"levelo://app?vid=493c9b2b-690f-44f7-b58a-5b3121f87c13"},"vehicle_type_id":"4","last_reported":1766959846,"current_range_meters":12400,"station_id":"ce4bhr92rcd13ifvqhsg","pricing_plan_id":"cebpf4jnsgd1na2vs0mg"},{"bike_id":"1e272766-a56f-4d9a-8e53-3260e9459e92","system_id":"levelo_inurba_marseille","lat":43.290295,"lon":5.375778,"is_reserved":false,"is_disabled":false,"rental_uris":{"android":"levelo://app?vid=1e272766-a56f-4d9a-8e53-3260e9459e92","ios":"levelo://app?vid=1e272766-a56f-4d9a-8e53-3260e9459e92"},"vehicle_type_id":"4","last_reported":1766959846,"current_range_meters":12400,"station_id":"ce4bh692rcd13ifvqe90","pricing_plan_id":"cebpf4jnsgd1na2vs0mg"},{"bike_id":"11b98af3-c435-4c49-b9a3-6f66ee04ce85","system_id":"levelo_inurba_marseille","lat":43.30411,"lon":5.41312,"is_reserved":false,"is_disabled":false,"rental_uris":{"android":"levelo://app?vid=11b98af3-c435-4c49-b9a3-6f66ee04ce85","ios":"levelo://app?vid=11b98af3-c435-4c49-b9a3-6f66ee04ce85"},"vehicle_type_id":"4","last_reported":1766959846,"current_range_meters":12400,"station_id":"ce4bhop2rcd13ifvqh8g","pricing_plan_id":"cebpf4jnsgd1na2vs0mg"},{"bike_id":"59ce43fb-ff44-4d6d-a90f-61c10ba0732a","system_id":"levelo_inurba_marseille","lat":43.27498,"lon":5.42452,"is_reserved":false,"is_disabled":false,"rental_uris":{"android":"levelo://app?vid=59ce43fb-ff44-4d6d-a90f-61c10ba0732a","ios":"levelo://app?vid=59ce43fb-ff44-4d6d-a90f-61c10ba0732a"},"vehicle_type_id":"4","last_reported":1766959846,"current_range_meters":12400,"station_id":"ce4bhn92rcd13ifvqgrg","pricing_plan_id":"cebpf4jnsgd1na2vs0mg"},{"bike_id":"f0719800-ec59-4207-a9ac-9d4158658ade","system_id":"levelo_inurba_marseille","lat":43.29616,"lon":5.37163,"is_reserved":false,"is_disabled":false,"rental_uris":{"android":"levelo://app?vid=f0719800-ec59-4207-a9ac-9d4158658ade","ios":"levelo://app?vid=f0719800-ec59-4207-a9ac-9d4158658ade"},"vehicle_type_id":"4","last_reported":1766959846,"current_range_meters":12400,"station_id":"ce4bgnh2rcd13ifvqc0g","pricing_plan_id":"cebpf4jnsgd1na2vs0mg"},{"bike_id":"757122f6-080a-424e-8657-a7d9bec52449","system_id":"levelo_inurba_marseille","lat":43.31286,"lon":5.36743,"is_reserved":false,"is_disabled":false,"rental_uris":{"android":"levelo://app?vid=757122f6-080a-424e-8657-a7d9bec52449","ios":"levelo://app?vid=757122f6-080a-424e-8657-a7d9bec52449"},"vehicle_type_id":"4","last_reported":1766959846,"current_range_meters":12400,"station_id":"","pricing_plan_id":"cebpf4jnsgd1na2vs0mg"},{"bike_id":"8c27f8dd-49de-48cb-b4c0-2c146ce86148","system_id":"levelo_inurba_marseille","lat":43.29582,"lon":5.38173,"is_reserved":false,"is_disabled":false,"rental_uris":{"android":"levelo://app?vid=8c27f8dd-49de-48cb-b4c0-2c146ce86148","ios":"levelo://app?vid=8c27f8dd-49de-48cb-b4c0-2c146ce86148"},"vehicle_type_id":"4","last_reported":1766959846,"current_range_meters":12400,"station_id":"","pricing_plan_id":"cebpf4jnsgd1na2vs0mg"},{"bike_id":"289a46a8-0dd9-4aff-b071-0b3d2e84d33c","system_id":"levelo_inurba_marseille","lat":43.23155,"lon":5.43708,"is_reserved":false,"is_disabled":false,"rental_uris":{"android":"levelo://app?vid=289a46a8-0dd9-4aff-b071-0b3d2e84d33c","ios":"levelo://app?vid=289a46a8-0dd9-4aff-b071-0b3d2e84d33c"},"vehicle_type_id":"4","last_reported":1766959846,"current_range_meters":12400,"station_id":"ce4bhmp2rcd13ifvqgog","pricing_plan_id":"cebpf4jnsgd1na2vs0mg"},{"bike_id":"b01ea148-6d75-415a-a691-525a082b33cd","system_id":"levelo_inurba_marseille","lat":43.32487,"lon":5.36568,"is_reserved":false,"is_disabled":false,"rental_uris":{"android":"levelo://app?vid=b01ea148-6d75-415a-a691-525a082b33cd","ios":"levelo://app?vid=b01ea148-6d75-415a-a691-525a082b33cd"},"vehicle_type_id":"4","last_reported":1766959846,"current_range_meters":12400,"station_id":"ce4bhs12rcd13ifvqhvg","pricing_plan_id":"cebpf4jnsgd1na2vs0mg"},{"bike_id":"c58b5fbe-ad23-41d6-9e67-c61ddfb04479","system_id":"levelo_inurba_marseille","lat":43.24823,"lon":5.37456,"is_reserved":false,"is_disabled":false,"rental_uris":{"android":"levelo://app?vid=c58b5fbe-ad23-41d6-9e67-c61ddfb04479","ios":"levelo://app?vid=c58b5fbe-ad23-41d6-9e67-c61ddfb04479"},"vehicle_type_id":"4","last_reported":1766959846,"current_range_meters":12400,"station_id":"ce4bhgh2rcd13ifvqfb0","pricing_plan_id":"cebpf4jnsgd1na2vs0mg"},{"bike_id":"93238dbe-7e18-4ff9-acc5-cf08ef47ac5a","system_id":"levelo_inurba_marseille","lat":43.27426,"lon":5.41462,"is_reserved":false,"is_disabled":false,"rental_uris":{"android":"levelo://app?vid=93238dbe-7e18-4ff9-acc5-cf08ef47ac5a","ios":"levelo://app?vid=93238dbe-7e18-4ff9-acc5-cf08ef47ac5a"},"vehicle_type_id":"4","last_reported":1766959846,"current_range_meters":12800,"station_id":"","pricing_plan_id":"cebpf4jnsgd1na2vs0mg"},{"bike_id":"73a639c2-eb99-415c-8e85-b2a348b888e6","system_id":"levelo_inurba_marseille","lat":43.30129,"lon":5.38771,"is_reserved":false,"is_disabled":false,"rental_uris":{"android":"levelo://app?vid=73a639c2-eb99-415c-8e85-b2a348b888e6","ios":"levelo://app?vid=73a639c2-eb99-415c-8e85-b2a348b888e6"},"vehicle_type_id":"4","last_reported":1766959846,"current_range_meters":12800,"station_id":"ce4bghh2rcd13ifvqb60","pricing_plan_id":"cebpf4jnsgd1na2vs0mg"},{"bike_id":"409f22f5-c320-45ca-851d-1966d2bb3619","system_id":"levelo_inurba_marseille","lat":43.30762,"lon":5.3699,"is_reserved":false,"is_disabled":false,"rental_uris":{"android":"levelo://app?vid=409f22f5-c320-45ca-851d-1966d2bb3619","ios":"levelo://app?vid=409f22f5-c320-45ca-851d-1966d2bb3619"},"vehicle_type_id":"4","last_reported":1766959846,"current_range_meters":12800,"station_id":"","pricing_plan_id":"cebpf4jnsgd1na2vs0mg"},{"bike_id":"f9aefd96-ff9f-436b-9129-ecd99bd3e479","system_id":"levelo_inurba_marseille","lat":43.29573,"lon":5.39957,"is_reserved":false,"is_disabled":false,"rental_uris":{"android":"levelo://app?vid=f9aefd96-ff9f-436b-9129-ecd99bd3e479","ios":"levelo://app?vid=f9aefd96-ff9f-436b-9129-ecd99bd3e479"},"vehicle_type_id":"4","last_reported":1766959846,"current_range_meters":12800,"station_id":"ce4bh312rcd13ifvqdj0","pricing_plan_id":"cebpf4jnsgd1na2vs0mg"},{"bike_id":"d5157bc4-281e-4273-a854-3dd0ece413ba","system_id":"levelo_inurba_marseille","lat":43.30741,"lon":5.42439,"is_reserved":false,"is_disabled":false,"rental_uris":{"android":"levelo://app?vid=d5157bc4-281e-4273-a854-3dd0ece413ba","ios":"levelo://app?vid=d5157bc4-281e-4273-a854-3dd0ece413ba"},"vehicle_type_id":"4","last_reported":1766959846,"current_range_meters":12800,"station_id":"st_cvj6ca6bvosntc0bfgr0","pricing_plan_id":"cebpf4jnsgd1na2vs0mg"},{"bike_id":"a431f10d-1c1b-486a-93bf-1bf3d2057a18","system_id":"levelo_inurba_marseille","lat":43.27304,"lon":5.3913,"is_reserved":false,"is_disabled":false,"rental_uris":{"android":"levelo://app?vid=a431f10d-1c1b-486a-93bf-1bf3d2057a18","ios":"levelo://app?vid=a431f10d-1c1b-486a-93bf-1bf3d2057a18"},"vehicle_type_id":"4","last_reported":1766959846,"current_range_meters":12800,"station_id":"ce4bhgp2rcd13ifvqfe0","pricing_plan_id":"cebpf4jnsgd1na2vs0mg"},{"bike_id":"8f67289a-c445-41d3-a7c1-2b5874f96ec2","system_id":"levelo_inurba_marseille","lat":43.31333,"lon":5.40481,"is_reserved":false,"is_disabled":false,"rental_uris":{"android":"levelo://app?vid=8f67289a-c445-41d3-a7c1-2b5874f96ec2","ios":"levelo://app?vid=8f67289a-c445-41d3-a7c1-2b5874f96ec2"},"vehicle_type_id":"4","last_reported":1766959846,"current_range_meters":12800,"station_id":"","pricing_plan_id":"cebpf4jnsgd1na2vs0mg"},{"bike_id":"917b698b-6d07-4dcf-be03-698c150ee9f0","system_id":"levelo_inurba_marseille","lat":43.29045,"lon":5.36977,"is_reserved":false,"is_disabled":false,"rental_uris":{"android":"levelo://app?vid=917b698b-6d07-4dcf-be03-698c150ee9f0","ios":"levelo://app?vid=917b698b-6d07-4dcf-be03-698c150ee9f0"},"vehicle_type_id":"4","last_reported":1766959846,"current_range_meters":12800,"station_id":"","pricing_plan_id":"cebpf4jnsgd1na2vs0mg"},{"bike_id":"ed3b4c2f-5fb5-4cff-87fe-9d2684cdf8be","system_id":"levelo_inurba_marseille","lat":43.31359,"lon":5.38489,"is_reserved":false,"is_disabled":false,"rental_uris":{"android":"levelo://app?vid=ed3b4c2f-5fb5-4cff-87fe-9d2684cdf8be","ios":"levelo://app?vid=ed3b4c2f-5fb5-4cff-87fe-9d2684cdf8be"},"vehicle_type_id":"4","last_reported":1766959846,"current_range_meters":12800,"station_id":"ce4bgt92rcd13ifvqcf0","pricing_plan_id":"cebpf4jnsgd1na2vs0mg"},{"bike_id":"54928690-97c0-48f0-b287-763b4f8d51ba","system_id":"levelo_inurba_marseille","lat":43.28152,"lon":5.42651,"is_reserved":false,"is_disabled":false,"rental_uris":{"android":"levelo://app?vid=54928690-97c0-48f0-b287-763b4f8d51ba","ios":"levelo://app?vid=54928690-97c0-48f0-b287-763b4f8d51ba"},"vehicle_type_id":"4","last_reported":1766959846,"current_range_meters":12800,"station_id":"ce4bhnh2rcd13ifvqgug","pricing_plan_id":"cebpf4jnsgd1na2vs0mg"},{"bike_id":"a83a3443-ec63-44d5-bf25-4b1e64313409","system_id":"levelo_inurba_marseille","lat":43.297886,"lon":5.393447,"is_reserved":false,"is_disabled":false,"rental_uris":{"android":"levelo://app?vid=a83a3443-ec63-44d5-bf25-4b1e64313409","ios":"levelo://app?vid=a83a3443-ec63-44d5-bf25-4b1e64313409"},"vehicle_type_id":"4","last_reported":1766959846,"current_range_meters":12800,"station_id":"chh1huq6cuj3fo74tm60","pricing_plan_id":"cebpf4jnsgd1na2vs0mg"},{"bike_id":"a944d8b8-16d2-4f8f-ad76-bfa63a6f7554","system_id":"levelo_inurba_marseille","lat":43.26952,"lon":5.38616,"is_reserved":false,"is_disabled":false,"rental_uris":{"android":"levelo://app?vid=a944d8b8-16d2-4f8f-ad76-bfa63a6f7554","ios":"levelo://app?vid=a944d8b8-16d2-4f8f-ad76-bfa63a6f7554"},"vehicle_type_id":"4","last_reported":1766959846,"current_range_meters":12800,"station_id":"ce4bhh92rcd13ifvqfh0","pricing_plan_id":"cebpf4jnsgd1na2vs0mg"},{"bike_id":"9016c1de-520e-4429-85a2-2967a8b371c6","system_id":"levelo_inurba_marseille","lat":43.32063,"lon":5.41527,"is_reserved":false,"is_disabled":false,"rental_uris":{"android":"levelo://app?vid=9016c1de-520e-4429-85a2-2967a8b371c6","ios":"levelo://app?vid=9016c1de-520e-4429-85a2-2967a8b371c6"},"vehicle_type_id":"4","last_reported":1766959846,"current_range_meters":13600,"station_id":"ce4bhq92rcd13ifvqhkg","pricing_plan_id":"cebpf4jnsgd1na2vs0mg"},{"bike_id":"23fef27e-16b1-41b3-8527-38d1a2c1bd4c","system_id":"levelo_inurba_marseille","lat":43.305586,"lon":5.365391,"is_reserved":false,"is_disabled":false,"rental_uris":{"android":"levelo://app?vid=23fef27e-16b1-41b3-8527-38d1a2c1bd4c","ios":"levelo://app?vid=23fef27e-16b1-41b3-8527-38d1a2c1bd4c"},"vehicle_type_id":"4","last_reported":1766959846,"current_range_meters":13600,"station_id":"ce4bgs12rcd13ifvqcag","pricing_plan_id":"cebpf4jnsgd1na2vs0mg"},{"bike_id":"8e408ba0-2118-43f7-a8ba-d277410a9103","system_id":"levelo_inurba_marseille","lat":43.31239,"lon":5.3807,"is_reserved":false,"is_disabled":false,"rental_uris":{"android":"levelo://app?vid=8e408ba0-2118-43f7-a8ba-d277410a9103","ios":"levelo://app?vid=8e408ba0-2118-43f7-a8ba-d277410a9103"},"vehicle_type_id":"4","last_reported":1766959846,"current_range_meters":13600,"station_id":"","pricing_plan_id":"cebpf4jnsgd1na2vs0mg"},{"bike_id":"d1dc8efa-dd66-42cd-93bc-e2e6f65b4cd3","system_id":"levelo_inurba_marseille","lat":43.29932,"lon":5.38137,"is_reserved":false,"is_disabled":false,"rental_uris":{"android":"levelo://app?vid=d1dc8efa-dd66-42cd-93bc-e2e6f65b4cd3","ios":"levelo://app?vid=d1dc8efa-dd66-42cd-93bc-e2e6f65b4cd3"},"vehicle_type_id":"4","last_reported":1766959846,"current_range_meters":13600,"station_id":"ce4bgj12rcd13ifvqbc0","pricing_plan_id":"cebpf4jnsgd1na2vs0mg"},{"bike_id":"4466e4e7-7d9e-4691-9c78-17a073c9b554","system_id":"levelo_inurba_marseille","lat":43.32464,"lon":5.36541,"is_reserved":false,"is_disabled":false,"rental_uris":{"android":"levelo://app?vid=4466e4e7-7d9e-4691-9c78-17a073c9b554","ios":"levelo://app?vid=4466e4e7-7d9e-4691-9c78-17a073c9b554"},"vehicle_type_id":"4","last_reported":1766959846,"current_range_meters":13600,"station_id":"ce4bhs12rcd13ifvqhvg","pricing_plan_id":"cebpf4jnsgd1na2vs0mg"},{"bike_id":"e5c4b75a-10e6-457f-8ed0-8691eb2c382b","system_id":"levelo_inurba_marseille","lat":43.31285,"lon":5.37804,"is_reserved":false,"is_disabled":false,"rental_uris":{"android":"levelo://app?vid=e5c4b75a-10e6-457f-8ed0-8691eb2c382b","ios":"levelo://app?vid=e5c4b75a-10e6-457f-8ed0-8691eb2c382b"},"vehicle_type_id":"4","last_reported":1766959846,"current_range_meters":13600,"station_id":"","pricing_plan_id":"cebpf4jnsgd1na2vs0mg"},{"bike_id":"62cf4cee-7c0c-4908-8bd6-9190e5298cee","system_id":"levelo_inurba_marseille","lat":43.22569,"lon":5.41622,"is_reserved":false,"is_disabled":false,"rental_uris":{"android":"levelo://app?vid=62cf4cee-7c0c-4908-8bd6-9190e5298cee","ios":"levelo://app?vid=62cf4cee-7c0c-4908-8bd6-9190e5298cee"},"vehicle_type_id":"4","last_reported":1766959846,"current_range_meters":13600,"station_id":"st_d2o4gvlbi1j2169b742g","pricing_plan_id":"cebpf4jnsgd1na2vs0mg"},{"bike_id":"d72c4de3-c9e7-41ef-b6ae-a17d053a04e8","system_id":"levelo_inurba_marseille","lat":43.2657,"lon":5.39009,"is_reserved":false,"is_disabled":false,"rental_uris":{"android":"levelo://app?vid=d72c4de3-c9e7-41ef-b6ae-a17d053a04e8","ios":"levelo://app?vid=d72c4de3-c9e7-41ef-b6ae-a17d053a04e8"},"vehicle_type_id":"4","last_reported":1766959846,"current_range_meters":13600,"station_id":"ce4bhe12rcd13ifvqf30","pricing_plan_id":"cebpf4jnsgd1na2vs0mg"},{"bike_id":"0587f04e-e1d2-45f2-83bf-7bb7cf6afa1b","system_id":"levelo_inurba_marseille","lat":43.2314,"lon":5.43691,"is_reserved":false,"is_disabled":true,"rental_uris":{"android":"levelo://app?vid=0587f04e-e1d2-45f2-83bf-7bb7cf6afa1b","ios":"levelo://app?vid=0587f04e-e1d2-45f2-83bf-7bb7cf6afa1b"},"vehicle_type_id":"4","last_reported":1766959846,"current_range_meters":13600,"station_id":"ce4bhmp2rcd13ifvqgog","pricing_plan_id":"cebpf4jnsgd1na2vs0mg"},{"bike_id":"631b4917-b2c5-4925-86d4-958dd23950ab","system_id":"levelo_inurba_marseille","lat":43.30737,"lon":5.42451,"is_reserved":false,"is_disabled":false,"rental_uris":{"android":"levelo://app?vid=631b4917-b2c5-4925-86d4-958dd23950ab","ios":"levelo://app?vid=631b4917-b2c5-4925-86d4-958dd23950ab"},"vehicle_type_id":"4","last_reported":1766959846,"current_range_meters":13600,"station_id":"st_cvj6ca6bvosntc0bfgr0","pricing_plan_id":"cebpf4jnsgd1na2vs0mg"},{"bike_id":"4da4d4a4-6ba6-462c-b911-56889a9a05c2","system_id":"levelo_inurba_marseille","lat":43.29964,"lon":5.38514,"is_reserved":false,"is_disabled":false,"rental_uris":{"android":"levelo://app?vid=4da4d4a4-6ba6-462c-b911-56889a9a05c2","ios":"levelo://app?vid=4da4d4a4-6ba6-462c-b911-56889a9a05c2"},"vehicle_type_id":"4","last_reported":1766959846,"current_range_meters":13600,"station_id":"ce4bgip2rcd13ifvqbb0","pricing_plan_id":"cebpf4jnsgd1na2vs0mg"},{"bike_id":"693e74ec-09b8-47f6-83d7-d5e8d99e0141","system_id":"levelo_inurba_marseille","lat":43.31259,"lon":5.38933,"is_reserved":false,"is_disabled":false,"rental_uris":{"android":"levelo://app?vid=693e74ec-09b8-47f6-83d7-d5e8d99e0141","ios":"levelo://app?vid=693e74ec-09b8-47f6-83d7-d5e8d99e0141"},"vehicle_type_id":"4","last_reported":1766959846,"current_range_meters":13600,"station_id":"","pricing_plan_id":"cebpf4jnsgd1na2vs0mg"},{"bike_id":"af1f9193-90aa-4f34-b2c4-fb0bbaea183c","system_id":"levelo_inurba_marseille","lat":43.28483,"lon":5.48384,"is_reserved":false,"is_disabled":false,"rental_uris":{"android":"levelo://app?vid=af1f9193-90aa-4f34-b2c4-fb0bbaea183c","ios":"levelo://app?vid=af1f9193-90aa-4f34-b2c4-fb0bbaea183c"},"vehicle_type_id":"4","last_reported":1766959846,"current_range_meters":13600,"station_id":"","pricing_plan_id":"cebpf4jnsgd1na2vs0mg"},{"bike_id":"05529623-bee0-4fc7-8cb6-1ab1da084930","system_id":"levelo_inurba_marseille","lat":43.28228,"lon":5.39042,"is_reserved":false,"is_disabled":false,"rental_uris":{"android":"levelo://app?vid=05529623-bee0-4fc7-8cb6-1ab1da084930","ios":"levelo://app?vid=05529623-bee0-4fc7-8cb6-1ab1da084930"},"vehicle_type_id":"4","last_reported":1766959846,"current_range_meters":13600,"station_id":"ce4bh8p2rcd13ifvqeb0","pricing_plan_id":"cebpf4jnsgd1na2vs0mg"},{"bike_id":"8edc1ab8-c82c-4ca3-afef-ae2ed37ce96b","system_id":"levelo_inurba_marseille","lat":43.3124,"lon":5.36858,"is_reserved":false,"is_disabled":false,"rental_uris":{"android":"levelo://app?vid=8edc1ab8-c82c-4ca3-afef-ae2ed37ce96b","ios":"levelo://app?vid=8edc1ab8-c82c-4ca3-afef-ae2ed37ce96b"},"vehicle_type_id":"4","last_reported":1766959846,"current_range_meters":14000,"station_id":"ce4bgl92rcd13ifvqbq0","pricing_plan_id":"cebpf4jnsgd1na2vs0mg"},{"bike_id":"a875dbb3-0ecc-4340-a068-a391d54950ba","system_id":"levelo_inurba_marseille","lat":43.296878,"lon":5.37292,"is_reserved":false,"is_disabled":false,"rental_uris":{"android":"levelo://app?vid=a875dbb3-0ecc-4340-a068-a391d54950ba","ios":"levelo://app?vid=a875dbb3-0ecc-4340-a068-a391d54950ba"},"vehicle_type_id":"4","last_reported":1766959846,"current_range_meters":14000,"station_id":"ce4bgk12rcd13ifvqbj0","pricing_plan_id":"cebpf4jnsgd1na2vs0mg"},{"bike_id":"f03054fd-325c-4942-bb69-32004d79c98e","system_id":"levelo_inurba_marseille","lat":43.3043,"lon":5.39752,"is_reserved":false,"is_disabled":false,"rental_uris":{"android":"levelo://app?vid=f03054fd-325c-4942-bb69-32004d79c98e","ios":"levelo://app?vid=f03054fd-325c-4942-bb69-32004d79c98e"},"vehicle_type_id":"4","last_reported":1766959846,"current_range_meters":14000,"station_id":"ce4bh092rcd13ifvqd20","pricing_plan_id":"cebpf4jnsgd1na2vs0mg"},{"bike_id":"adaef4d2-0ba2-4f7f-80c1-63379e0b5fdc","system_id":"levelo_inurba_marseille","lat":43.2979,"lon":5.38091,"is_reserved":false,"is_disabled":false,"rental_uris":{"android":"levelo://app?vid=adaef4d2-0ba2-4f7f-80c1-63379e0b5fdc","ios":"levelo://app?vid=adaef4d2-0ba2-4f7f-80c1-63379e0b5fdc"},"vehicle_type_id":"4","last_reported":1766959846,"current_range_meters":14000,"station_id":"ce4bgip2rcd13ifvqbb0","pricing_plan_id":"cebpf4jnsgd1na2vs0mg"},{"bike_id":"0aa0e915-52e8-428b-a88a-3354f819b511","system_id":"levelo_inurba_marseille","lat":43.280736,"lon":5.396596,"is_reserved":false,"is_disabled":false,"rental_uris":{"android":"levelo://app?vid=0aa0e915-52e8-428b-a88a-3354f819b511","ios":"levelo://app?vid=0aa0e915-52e8-428b-a88a-3354f819b511"},"vehicle_type_id":"4","last_reported":1766959846,"current_range_meters":14400,"station_id":"ce4bho12rcd13ifvqh2g","pricing_plan_id":"cebpf4jnsgd1na2vs0mg"},{"bike_id":"fdd77af3-8e6b-4198-9033-45b5ff3a53e7","system_id":"levelo_inurba_marseille","lat":43.31235,"lon":5.36842,"is_reserved":false,"is_disabled":false,"rental_uris":{"android":"levelo://app?vid=fdd77af3-8e6b-4198-9033-45b5ff3a53e7","ios":"levelo://app?vid=fdd77af3-8e6b-4198-9033-45b5ff3a53e7"},"vehicle_type_id":"4","last_reported":1766959846,"current_range_meters":14400,"station_id":"ce4bgl92rcd13ifvqbq0","pricing_plan_id":"cebpf4jnsgd1na2vs0mg"},{"bike_id":"84886109-4483-4131-9b99-6aabd40c89aa","system_id":"levelo_inurba_marseille","lat":43.25937,"lon":5.40927,"is_reserved":false,"is_disabled":false,"rental_uris":{"android":"levelo://app?vid=84886109-4483-4131-9b99-6aabd40c89aa","ios":"levelo://app?vid=84886109-4483-4131-9b99-6aabd40c89aa"},"vehicle_type_id":"4","last_reported":1766959846,"current_range_meters":14400,"station_id":"ce4bhm92rcd13ifvqglg","pricing_plan_id":"cebpf4jnsgd1na2vs0mg"},{"bike_id":"dc72a47d-0da3-4605-b41c-5e0e4e708d67","system_id":"levelo_inurba_marseille","lat":43.26786,"lon":5.39438,"is_reserved":false,"is_disabled":false,"rental_uris":{"android":"levelo://app?vid=dc72a47d-0da3-4605-b41c-5e0e4e708d67","ios":"levelo://app?vid=dc72a47d-0da3-4605-b41c-5e0e4e708d67"},"vehicle_type_id":"4","last_reported":1766959846,"current_range_meters":14400,"station_id":"ce4bhh12rcd13ifvqfg0","pricing_plan_id":"cebpf4jnsgd1na2vs0mg"},{"bike_id":"9b83f865-8af6-453d-980e-50cbfb13843e","system_id":"levelo_inurba_marseille","lat":43.25516,"lon":5.37665,"is_reserved":false,"is_disabled":true,"rental_uris":{"android":"levelo://app?vid=9b83f865-8af6-453d-980e-50cbfb13843e","ios":"levelo://app?vid=9b83f865-8af6-453d-980e-50cbfb13843e"},"vehicle_type_id":"4","last_reported":1766959846,"current_range_meters":14400,"station_id":"ce4bhh12rcd13ifvqff0","pricing_plan_id":"cebpf4jnsgd1na2vs0mg"},{"bike_id":"14ae9959-6d18-4598-8253-e78df69f7308","system_id":"levelo_inurba_marseille","lat":43.303162,"lon":5.369192,"is_reserved":false,"is_disabled":false,"rental_uris":{"android":"levelo://app?vid=14ae9959-6d18-4598-8253-e78df69f7308","ios":"levelo://app?vid=14ae9959-6d18-4598-8253-e78df69f7308"},"vehicle_type_id":"4","last_reported":1766959846,"current_range_meters":14400,"station_id":"ce4bgqh2rcd13ifvqc5g","pricing_plan_id":"cebpf4jnsgd1na2vs0mg"},{"bike_id":"596c9b3b-bd08-4237-a80d-9ed209e66871","system_id":"levelo_inurba_marseille","lat":43.2886,"lon":5.42513,"is_reserved":false,"is_disabled":false,"rental_uris":{"android":"levelo://app?vid=596c9b3b-bd08-4237-a80d-9ed209e66871","ios":"levelo://app?vid=596c9b3b-bd08-4237-a80d-9ed209e66871"},"vehicle_type_id":"4","last_reported":1766959846,"current_range_meters":14400,"station_id":"st_d3b462108ojc7389ooeg","pricing_plan_id":"cebpf4jnsgd1na2vs0mg"},{"bike_id":"d478cff2-fcfa-4146-96ae-b08077f0d62b","system_id":"levelo_inurba_marseille","lat":43.2724,"lon":5.42821,"is_reserved":false,"is_disabled":false,"rental_uris":{"android":"levelo://app?vid=d478cff2-fcfa-4146-96ae-b08077f0d62b","ios":"levelo://app?vid=d478cff2-fcfa-4146-96ae-b08077f0d62b"},"vehicle_type_id":"4","last_reported":1766959846,"current_range_meters":14400,"station_id":"","pricing_plan_id":"cebpf4jnsgd1na2vs0mg"},{"bike_id":"0b6b7ef6-a186-43b2-9b05-002cedfa6175","system_id":"levelo_inurba_marseille","lat":43.26352,"lon":5.37846,"is_reserved":false,"is_disabled":false,"rental_uris":{"android":"levelo://app?vid=0b6b7ef6-a186-43b2-9b05-002cedfa6175","ios":"levelo://app?vid=0b6b7ef6-a186-43b2-9b05-002cedfa6175"},"vehicle_type_id":"4","last_reported":1766959846,"current_range_meters":14400,"station_id":"ce4bhb92rcd13ifvqen0","pricing_plan_id":"cebpf4jnsgd1na2vs0mg"},{"bike_id":"1b98c6d3-988a-40e8-a138-836b264a962b","system_id":"levelo_inurba_marseille","lat":43.32331,"lon":5.36678,"is_reserved":false,"is_disabled":false,"rental_uris":{"android":"levelo://app?vid=1b98c6d3-988a-40e8-a138-836b264a962b","ios":"levelo://app?vid=1b98c6d3-988a-40e8-a138-836b264a962b"},"vehicle_type_id":"4","last_reported":1766959846,"current_range_meters":14400,"station_id":"","pricing_plan_id":"cebpf4jnsgd1na2vs0mg"},{"bike_id":"9a2077a2-cebc-468c-82f9-fecda68a9ec3","system_id":"levelo_inurba_marseille","lat":43.29439,"lon":5.40981,"is_reserved":false,"is_disabled":false,"rental_uris":{"android":"levelo://app?vid=9a2077a2-cebc-468c-82f9-fecda68a9ec3","ios":"levelo://app?vid=9a2077a2-cebc-468c-82f9-fecda68a9ec3"},"vehicle_type_id":"4","last_reported":1766959846,"current_range_meters":14400,"station_id":"","pricing_plan_id":"cebpf4jnsgd1na2vs0mg"},{"bike_id":"22fccd6e-9bb2-4a65-af43-e7639be36436","system_id":"levelo_inurba_marseille","lat":43.26542,"lon":5.37285,"is_reserved":false,"is_disabled":false,"rental_uris":{"android":"levelo://app?vid=22fccd6e-9bb2-4a65-af43-e7639be36436","ios":"levelo://app?vid=22fccd6e-9bb2-4a65-af43-e7639be36436"},"vehicle_type_id":"4","last_reported":1766959846,"current_range_meters":14400,"station_id":"ce4bhg12rcd13ifvqf70","pricing_plan_id":"cebpf4jnsgd1na2vs0mg"},{"bike_id":"106b1859-7f56-4998-9be0-286467ccc804","system_id":"levelo_inurba_marseille","lat":43.28466,"lon":5.38391,"is_reserved":false,"is_disabled":false,"rental_uris":{"android":"levelo://app?vid=106b1859-7f56-4998-9be0-286467ccc804","ios":"levelo://app?vid=106b1859-7f56-4998-9be0-286467ccc804"},"vehicle_type_id":"4","last_reported":1766959846,"current_range_meters":14400,"station_id":"ce4bh512rcd13ifvqe3g","pricing_plan_id":"cebpf4jnsgd1na2vs0mg"},{"bike_id":"cfc68cfa-696a-4683-bc70-2f0af19ddd34","system_id":"levelo_inurba_marseille","lat":43.337598,"lon":5.374618,"is_reserved":false,"is_disabled":false,"rental_uris":{"android":"levelo://app?vid=cfc68cfa-696a-4683-bc70-2f0af19ddd34","ios":"levelo://app?vid=cfc68cfa-696a-4683-bc70-2f0af19ddd34"},"vehicle_type_id":"4","last_reported":1766959846,"current_range_meters":14400,"station_id":"","pricing_plan_id":"cebpf4jnsgd1na2vs0mg"},{"bike_id":"a47fcbd9-c583-4440-b071-7c4baac900f7","system_id":"levelo_inurba_marseille","lat":43.24068,"lon":5.37759,"is_reserved":false,"is_disabled":false,"rental_uris":{"android":"levelo://app?vid=a47fcbd9-c583-4440-b071-7c4baac900f7","ios":"levelo://app?vid=a47fcbd9-c583-4440-b071-7c4baac900f7"},"vehicle_type_id":"4","last_reported":1766959846,"current_range_meters":14400,"station_id":"ce4bhnp2rcd13ifvqgvg","pricing_plan_id":"cebpf4jnsgd1na2vs0mg"},{"bike_id":"d92812f8-5b57-4c59-8c7f-259f28af8665","system_id":"levelo_inurba_marseille","lat":43.28221,"lon":5.43095,"is_reserved":false,"is_disabled":false,"rental_uris":{"android":"levelo://app?vid=d92812f8-5b57-4c59-8c7f-259f28af8665","ios":"levelo://app?vid=d92812f8-5b57-4c59-8c7f-259f28af8665"},"vehicle_type_id":"4","last_reported":1766959846,"current_range_meters":14400,"station_id":"","pricing_plan_id":"cebpf4jnsgd1na2vs0mg"},{"bike_id":"c1cd2a68-9a25-4850-8c5a-a488ec89fa2b","system_id":"levelo_inurba_marseille","lat":43.29625,"lon":5.37151,"is_reserved":false,"is_disabled":true,"rental_uris":{"android":"levelo://app?vid=c1cd2a68-9a25-4850-8c5a-a488ec89fa2b","ios":"levelo://app?vid=c1cd2a68-9a25-4850-8c5a-a488ec89fa2b"},"vehicle_type_id":"4","last_reported":1766959846,"current_range_meters":14400,"station_id":"ce4bgnh2rcd13ifvqc0g","pricing_plan_id":"cebpf4jnsgd1na2vs0mg"},{"bike_id":"a5390c1b-8ddc-4e56-baf4-66b1fe2b384c","system_id":"levelo_inurba_marseille","lat":43.28873,"lon":5.42531,"is_reserved":false,"is_disabled":false,"rental_uris":{"android":"levelo://app?vid=a5390c1b-8ddc-4e56-baf4-66b1fe2b384c","ios":"levelo://app?vid=a5390c1b-8ddc-4e56-baf4-66b1fe2b384c"},"vehicle_type_id":"4","last_reported":1766959846,"current_range_meters":14800,"station_id":"st_d3b462108ojc7389ooeg","pricing_plan_id":"cebpf4jnsgd1na2vs0mg"},{"bike_id":"0c8752f9-67a9-4eee-998d-0a21d8c8f9f0","system_id":"levelo_inurba_marseille","lat":43.328827,"lon":5.405193,"is_reserved":false,"is_disabled":false,"rental_uris":{"android":"levelo://app?vid=0c8752f9-67a9-4eee-998d-0a21d8c8f9f0","ios":"levelo://app?vid=0c8752f9-67a9-4eee-998d-0a21d8c8f9f0"},"vehicle_type_id":"4","last_reported":1766959846,"current_range_meters":14800,"station_id":"ce4bhq92rcd13ifvqhkg","pricing_plan_id":"cebpf4jnsgd1na2vs0mg"},{"bike_id":"2bede430-4250-4bb5-9cc1-2011ee04070d","system_id":"levelo_inurba_marseille","lat":43.28486,"lon":5.48399,"is_reserved":false,"is_disabled":false,"rental_uris":{"android":"levelo://app?vid=2bede430-4250-4bb5-9cc1-2011ee04070d","ios":"levelo://app?vid=2bede430-4250-4bb5-9cc1-2011ee04070d"},"vehicle_type_id":"4","last_reported":1766959846,"current_range_meters":14800,"station_id":"st_d3svhcjqgbts73a3dn0g","pricing_plan_id":"cebpf4jnsgd1na2vs0mg"},{"bike_id":"60931b26-689a-488c-9bd9-5b895f45b3d8","system_id":"levelo_inurba_marseille","lat":43.30536,"lon":5.39911,"is_reserved":false,"is_disabled":false,"rental_uris":{"android":"levelo://app?vid=60931b26-689a-488c-9bd9-5b895f45b3d8","ios":"levelo://app?vid=60931b26-689a-488c-9bd9-5b895f45b3d8"},"vehicle_type_id":"4","last_reported":1766959846,"current_range_meters":14800,"station_id":"","pricing_plan_id":"cebpf4jnsgd1na2vs0mg"},{"bike_id":"ab07ab4d-8c00-4184-a952-35d08d673f0e","system_id":"levelo_inurba_marseille","lat":43.30767,"lon":5.43714,"is_reserved":false,"is_disabled":false,"rental_uris":{"android":"levelo://app?vid=ab07ab4d-8c00-4184-a952-35d08d673f0e","ios":"levelo://app?vid=ab07ab4d-8c00-4184-a952-35d08d673f0e"},"vehicle_type_id":"4","last_reported":1766959846,"current_range_meters":14800,"station_id":"","pricing_plan_id":"cebpf4jnsgd1na2vs0mg"},{"bike_id":"b388443f-e6d4-4125-a04a-5dae673a45a3","system_id":"levelo_inurba_marseille","lat":43.28469,"lon":5.38434,"is_reserved":false,"is_disabled":false,"rental_uris":{"android":"levelo://app?vid=b388443f-e6d4-4125-a04a-5dae673a45a3","ios":"levelo://app?vid=b388443f-e6d4-4125-a04a-5dae673a45a3"},"vehicle_type_id":"4","last_reported":1766959846,"current_range_meters":14800,"station_id":"ce4bh512rcd13ifvqe3g","pricing_plan_id":"cebpf4jnsgd1na2vs0mg"},{"bike_id":"cb4324a0-44b1-4079-90a1-e8c3c42b4e43","system_id":"levelo_inurba_marseille","lat":43.31486,"lon":5.37269,"is_reserved":false,"is_disabled":false,"rental_uris":{"android":"levelo://app?vid=cb4324a0-44b1-4079-90a1-e8c3c42b4e43","ios":"levelo://app?vid=cb4324a0-44b1-4079-90a1-e8c3c42b4e43"},"vehicle_type_id":"4","last_reported":1766959846,"current_range_meters":14800,"station_id":"ce4bgt12rcd13ifvqcd0","pricing_plan_id":"cebpf4jnsgd1na2vs0mg"},{"bike_id":"736fc97b-4bbd-4aff-9ae4-ba8cfc12233b","system_id":"levelo_inurba_marseille","lat":43.2637,"lon":5.41088,"is_reserved":false,"is_disabled":false,"rental_uris":{"android":"levelo://app?vid=736fc97b-4bbd-4aff-9ae4-ba8cfc12233b","ios":"levelo://app?vid=736fc97b-4bbd-4aff-9ae4-ba8cfc12233b"},"vehicle_type_id":"4","last_reported":1766959846,"current_range_meters":14800,"station_id":"st_d4e5ca6na9uc73bfl5fg","pricing_plan_id":"cebpf4jnsgd1na2vs0mg"},{"bike_id":"2fa43d22-f3a9-490d-ae6d-704c0d5a420c","system_id":"levelo_inurba_marseille","lat":43.29937,"lon":5.36541,"is_reserved":false,"is_disabled":false,"rental_uris":{"android":"levelo://app?vid=2fa43d22-f3a9-490d-ae6d-704c0d5a420c","ios":"levelo://app?vid=2fa43d22-f3a9-490d-ae6d-704c0d5a420c"},"vehicle_type_id":"4","last_reported":1766959846,"current_range_meters":14800,"station_id":"ce4bgm92rcd13ifvqbr0","pricing_plan_id":"cebpf4jnsgd1na2vs0mg"},{"bike_id":"22650f94-9fdb-4e8a-89db-d52c54e1f7d6","system_id":"levelo_inurba_marseille","lat":43.28455,"lon":5.3844,"is_reserved":false,"is_disabled":true,"rental_uris":{"android":"levelo://app?vid=22650f94-9fdb-4e8a-89db-d52c54e1f7d6","ios":"levelo://app?vid=22650f94-9fdb-4e8a-89db-d52c54e1f7d6"},"vehicle_type_id":"4","last_reported":1766959846,"current_range_meters":15200,"station_id":"ce4bh512rcd13ifvqe3g","pricing_plan_id":"cebpf4jnsgd1na2vs0mg"},{"bike_id":"0c473179-fb78-4e28-b75f-3d3d22a01e70","system_id":"levelo_inurba_marseille","lat":43.2919,"lon":5.3931,"is_reserved":false,"is_disabled":true,"rental_uris":{"android":"levelo://app?vid=0c473179-fb78-4e28-b75f-3d3d22a01e70","ios":"levelo://app?vid=0c473179-fb78-4e28-b75f-3d3d22a01e70"},"vehicle_type_id":"4","last_reported":1766959846,"current_range_meters":15200,"station_id":"ce4bh192rcd13ifvqdd0","pricing_plan_id":"cebpf4jnsgd1na2vs0mg"},{"bike_id":"a670ebcb-a6f0-45dc-95de-0aa0be581eab","system_id":"levelo_inurba_marseille","lat":43.24086,"lon":5.37731,"is_reserved":false,"is_disabled":false,"rental_uris":{"android":"levelo://app?vid=a670ebcb-a6f0-45dc-95de-0aa0be581eab","ios":"levelo://app?vid=a670ebcb-a6f0-45dc-95de-0aa0be581eab"},"vehicle_type_id":"4","last_reported":1766959846,"current_range_meters":15200,"station_id":"ce4bhnp2rcd13ifvqgvg","pricing_plan_id":"cebpf4jnsgd1na2vs0mg"},{"bike_id":"6100a49b-b7a6-4aa2-b731-6d812cff6227","system_id":"levelo_inurba_marseille","lat":43.24684,"lon":5.38164,"is_reserved":false,"is_disabled":false,"rental_uris":{"android":"levelo://app?vid=6100a49b-b7a6-4aa2-b731-6d812cff6227","ios":"levelo://app?vid=6100a49b-b7a6-4aa2-b731-6d812cff6227"},"vehicle_type_id":"4","last_reported":1766959846,"current_range_meters":15200,"station_id":"ce4bhih2rcd13ifvqfr0","pricing_plan_id":"cebpf4jnsgd1na2vs0mg"},{"bike_id":"2e6d8eb0-7624-44fb-bbe3-9a7e0963c5a2","system_id":"levelo_inurba_marseille","lat":43.295759,"lon":5.399769,"is_reserved":false,"is_disabled":false,"rental_uris":{"android":"levelo://app?vid=2e6d8eb0-7624-44fb-bbe3-9a7e0963c5a2","ios":"levelo://app?vid=2e6d8eb0-7624-44fb-bbe3-9a7e0963c5a2"},"vehicle_type_id":"4","last_reported":1766959846,"current_range_meters":15200,"station_id":"ce4bh312rcd13ifvqdj0","pricing_plan_id":"cebpf4jnsgd1na2vs0mg"},{"bike_id":"d74fe559-c41d-4192-9c57-60d0ae2597f8","system_id":"levelo_inurba_marseille","lat":43.27946,"lon":5.41043,"is_reserved":false,"is_disabled":false,"rental_uris":{"android":"levelo://app?vid=d74fe559-c41d-4192-9c57-60d0ae2597f8","ios":"levelo://app?vid=d74fe559-c41d-4192-9c57-60d0ae2597f8"},"vehicle_type_id":"4","last_reported":1766959846,"current_range_meters":15200,"station_id":"ce4bhnp2rcd13ifvqh0g","pricing_plan_id":"cebpf4jnsgd1na2vs0mg"},{"bike_id":"42bf4004-31a4-4f03-b714-07305d01267a","system_id":"levelo_inurba_marseille","lat":43.29245,"lon":5.38427,"is_reserved":false,"is_disabled":true,"rental_uris":{"android":"levelo://app?vid=42bf4004-31a4-4f03-b714-07305d01267a","ios":"levelo://app?vid=42bf4004-31a4-4f03-b714-07305d01267a"},"vehicle_type_id":"4","last_reported":1766959846,"current_range_meters":15200,"station_id":"ce4bh692rcd13ifvqea0","pricing_plan_id":"cebpf4jnsgd1na2vs0mg"},{"bike_id":"fd4467b5-dbcb-4ead-98d2-8d3da410caee","system_id":"levelo_inurba_marseille","lat":43.3208,"lon":5.41568,"is_reserved":false,"is_disabled":true,"rental_uris":{"android":"levelo://app?vid=fd4467b5-dbcb-4ead-98d2-8d3da410caee","ios":"levelo://app?vid=fd4467b5-dbcb-4ead-98d2-8d3da410caee"},"vehicle_type_id":"4","last_reported":1766959846,"current_range_meters":15200,"station_id":"ce4bhq92rcd13ifvqhkg","pricing_plan_id":"cebpf4jnsgd1na2vs0mg"},{"bike_id":"80444e06-d995-4c1c-8a85-4d36bd37b6e0","system_id":"levelo_inurba_marseille","lat":43.29202,"lon":5.35806,"is_reserved":false,"is_disabled":false,"rental_uris":{"android":"levelo://app?vid=80444e06-d995-4c1c-8a85-4d36bd37b6e0","ios":"levelo://app?vid=80444e06-d995-4c1c-8a85-4d36bd37b6e0"},"vehicle_type_id":"4","last_reported":1766959846,"current_range_meters":15200,"station_id":"ce4bhb12rcd13ifvqel0","pricing_plan_id":"cebpf4jnsgd1na2vs0mg"},{"bike_id":"6a694001-45e2-470a-bec0-e92f05ca1ece","system_id":"levelo_inurba_marseille","lat":43.24532,"lon":5.39544,"is_reserved":false,"is_disabled":false,"rental_uris":{"android":"levelo://app?vid=6a694001-45e2-470a-bec0-e92f05ca1ece","ios":"levelo://app?vid=6a694001-45e2-470a-bec0-e92f05ca1ece"},"vehicle_type_id":"4","last_reported":1766959846,"current_range_meters":15200,"station_id":"ce4bhlp2rcd13ifvqgjg","pricing_plan_id":"cebpf4jnsgd1na2vs0mg"},{"bike_id":"ecdbccf5-248d-463e-8827-d1aa577fbf49","system_id":"levelo_inurba_marseille","lat":43.26085,"lon":5.39386,"is_reserved":false,"is_disabled":true,"rental_uris":{"android":"levelo://app?vid=ecdbccf5-248d-463e-8827-d1aa577fbf49","ios":"levelo://app?vid=ecdbccf5-248d-463e-8827-d1aa577fbf49"},"vehicle_type_id":"4","last_reported":1766959846,"current_range_meters":15200,"station_id":"ce4bhh92rcd13ifvqfj0","pricing_plan_id":"cebpf4jnsgd1na2vs0mg"},{"bike_id":"ae1b9423-a5b0-4421-80f5-23134313aff2","system_id":"levelo_inurba_marseille","lat":43.25556,"lon":5.38257,"is_reserved":false,"is_disabled":false,"rental_uris":{"android":"levelo://app?vid=ae1b9423-a5b0-4421-80f5-23134313aff2","ios":"levelo://app?vid=ae1b9423-a5b0-4421-80f5-23134313aff2"},"vehicle_type_id":"4","last_reported":1766959846,"current_range_meters":15200,"station_id":"ce4bhih2rcd13ifvqfs0","pricing_plan_id":"cebpf4jnsgd1na2vs0mg"},{"bike_id":"85f80c36-b01d-4148-8a0f-5ed00798dda8","system_id":"levelo_inurba_marseille","lat":43.30104,"lon":5.36478,"is_reserved":false,"is_disabled":false,"rental_uris":{"android":"levelo://app?vid=85f80c36-b01d-4148-8a0f-5ed00798dda8","ios":"levelo://app?vid=85f80c36-b01d-4148-8a0f-5ed00798dda8"},"vehicle_type_id":"4","last_reported":1766959846,"current_range_meters":15200,"station_id":"","pricing_plan_id":"cebpf4jnsgd1na2vs0mg"},{"bike_id":"cda67109-7c4c-43d5-9cc0-162c364f6363","system_id":"levelo_inurba_marseille","lat":43.30447,"lon":5.38891,"is_reserved":false,"is_disabled":false,"rental_uris":{"android":"levelo://app?vid=cda67109-7c4c-43d5-9cc0-162c364f6363","ios":"levelo://app?vid=cda67109-7c4c-43d5-9cc0-162c364f6363"},"vehicle_type_id":"4","last_reported":1766959846,"current_range_meters":15200,"station_id":"ce4bgk12rcd13ifvqbi0","pricing_plan_id":"cebpf4jnsgd1na2vs0mg"},{"bike_id":"5432d52b-f0e9-4e1f-9938-18c825234442","system_id":"levelo_inurba_marseille","lat":43.29533,"lon":5.39072,"is_reserved":false,"is_disabled":false,"rental_uris":{"android":"levelo://app?vid=5432d52b-f0e9-4e1f-9938-18c825234442","ios":"levelo://app?vid=5432d52b-f0e9-4e1f-9938-18c825234442"},"vehicle_type_id":"4","last_reported":1766959846,"current_range_meters":15200,"station_id":"ce4bh3p2rcd13ifvqdp0","pricing_plan_id":"cebpf4jnsgd1na2vs0mg"},{"bike_id":"9b0af2ac-60ca-4e52-9919-d2a635c0aec6","system_id":"levelo_inurba_marseille","lat":43.24194,"lon":5.39724,"is_reserved":false,"is_disabled":false,"rental_uris":{"android":"levelo://app?vid=9b0af2ac-60ca-4e52-9919-d2a635c0aec6","ios":"levelo://app?vid=9b0af2ac-60ca-4e52-9919-d2a635c0aec6"},"vehicle_type_id":"4","last_reported":1766959846,"current_range_meters":15200,"station_id":"ce4bhn12rcd13ifvqgpg","pricing_plan_id":"cebpf4jnsgd1na2vs0mg"},{"bike_id":"859949e0-cdc1-41e4-a9ce-b687ed2c2cf8","system_id":"levelo_inurba_marseille","lat":43.29539,"lon":5.38548,"is_reserved":false,"is_disabled":false,"rental_uris":{"android":"levelo://app?vid=859949e0-cdc1-41e4-a9ce-b687ed2c2cf8","ios":"levelo://app?vid=859949e0-cdc1-41e4-a9ce-b687ed2c2cf8"},"vehicle_type_id":"4","last_reported":1766959846,"current_range_meters":15200,"station_id":"ce4bgih2rcd13ifvqba0","pricing_plan_id":"cebpf4jnsgd1na2vs0mg"},{"bike_id":"ca108dd5-43c0-433a-bcb7-55c9a2e6c037","system_id":"levelo_inurba_marseille","lat":43.32017,"lon":5.37437,"is_reserved":false,"is_disabled":false,"rental_uris":{"android":"levelo://app?vid=ca108dd5-43c0-433a-bcb7-55c9a2e6c037","ios":"levelo://app?vid=ca108dd5-43c0-433a-bcb7-55c9a2e6c037"},"vehicle_type_id":"4","last_reported":1766959846,"current_range_meters":16000,"station_id":"","pricing_plan_id":"cebpf4jnsgd1na2vs0mg"},{"bike_id":"433621e1-12cd-4d0c-b747-14612e74827b","system_id":"levelo_inurba_marseille","lat":43.217521,"lon":5.346045,"is_reserved":false,"is_disabled":false,"rental_uris":{"android":"levelo://app?vid=433621e1-12cd-4d0c-b747-14612e74827b","ios":"levelo://app?vid=433621e1-12cd-4d0c-b747-14612e74827b"},"vehicle_type_id":"4","last_reported":1766959846,"current_range_meters":16000,"station_id":"","pricing_plan_id":"cebpf4jnsgd1na2vs0mg"},{"bike_id":"5663c206-c4de-47ab-9767-8711dc76a6f9","system_id":"levelo_inurba_marseille","lat":43.30124,"lon":5.43108,"is_reserved":false,"is_disabled":false,"rental_uris":{"android":"levelo://app?vid=5663c206-c4de-47ab-9767-8711dc76a6f9","ios":"levelo://app?vid=5663c206-c4de-47ab-9767-8711dc76a6f9"},"vehicle_type_id":"4","last_reported":1766959846,"current_range_meters":16000,"station_id":"st_d3js3co5814s73ftftug","pricing_plan_id":"cebpf4jnsgd1na2vs0mg"},{"bike_id":"804ebdc9-e028-419a-9c99-36251c1f2396","system_id":"levelo_inurba_marseille","lat":43.29043,"lon":5.35923,"is_reserved":false,"is_disabled":false,"rental_uris":{"android":"levelo://app?vid=804ebdc9-e028-419a-9c99-36251c1f2396","ios":"levelo://app?vid=804ebdc9-e028-419a-9c99-36251c1f2396"},"vehicle_type_id":"4","last_reported":1766959846,"current_range_meters":16000,"station_id":"ce4bha92rcd13ifvqeg0","pricing_plan_id":"cebpf4jnsgd1na2vs0mg"},{"bike_id":"3981849e-f312-451e-a7c6-49908a23c833","system_id":"levelo_inurba_marseille","lat":43.30124,"lon":5.40222,"is_reserved":false,"is_disabled":false,"rental_uris":{"android":"levelo://app?vid=3981849e-f312-451e-a7c6-49908a23c833","ios":"levelo://app?vid=3981849e-f312-451e-a7c6-49908a23c833"},"vehicle_type_id":"4","last_reported":1766959846,"current_range_meters":16000,"station_id":"","pricing_plan_id":"cebpf4jnsgd1na2vs0mg"},{"bike_id":"54dd4bba-5ad9-446c-a3ff-e4b6dab3d047","system_id":"levelo_inurba_marseille","lat":43.265644,"lon":5.390116,"is_reserved":false,"is_disabled":false,"rental_uris":{"android":"levelo://app?vid=54dd4bba-5ad9-446c-a3ff-e4b6dab3d047","ios":"levelo://app?vid=54dd4bba-5ad9-446c-a3ff-e4b6dab3d047"},"vehicle_type_id":"4","last_reported":1766959846,"current_range_meters":16000,"station_id":"ce4bhe12rcd13ifvqf30","pricing_plan_id":"cebpf4jnsgd1na2vs0mg"},{"bike_id":"6430d914-0a21-4065-b1bd-22ff590b6d10","system_id":"levelo_inurba_marseille","lat":43.288636,"lon":5.425214,"is_reserved":false,"is_disabled":false,"rental_uris":{"android":"levelo://app?vid=6430d914-0a21-4065-b1bd-22ff590b6d10","ios":"levelo://app?vid=6430d914-0a21-4065-b1bd-22ff590b6d10"},"vehicle_type_id":"4","last_reported":1766959846,"current_range_meters":16000,"station_id":"st_d3b462108ojc7389ooeg","pricing_plan_id":"cebpf4jnsgd1na2vs0mg"},{"bike_id":"b732401a-be77-439c-b196-9e6064a16222","system_id":"levelo_inurba_marseille","lat":43.28457,"lon":5.35871,"is_reserved":false,"is_disabled":false,"rental_uris":{"android":"levelo://app?vid=b732401a-be77-439c-b196-9e6064a16222","ios":"levelo://app?vid=b732401a-be77-439c-b196-9e6064a16222"},"vehicle_type_id":"4","last_reported":1766959846,"current_range_meters":16000,"station_id":"ce4bhah2rcd13ifvqei0","pricing_plan_id":"cebpf4jnsgd1na2vs0mg"},{"bike_id":"5e55bf80-550f-403e-84fa-588bf4c49137","system_id":"levelo_inurba_marseille","lat":43.2445,"lon":5.42538,"is_reserved":false,"is_disabled":false,"rental_uris":{"android":"levelo://app?vid=5e55bf80-550f-403e-84fa-588bf4c49137","ios":"levelo://app?vid=5e55bf80-550f-403e-84fa-588bf4c49137"},"vehicle_type_id":"4","last_reported":1766959846,"current_range_meters":16000,"station_id":"st_d4a3vfp97mjs738cd8kg","pricing_plan_id":"cebpf4jnsgd1na2vs0mg"},{"bike_id":"e18128c5-b229-449a-bea4-1aae237739d0","system_id":"levelo_inurba_marseille","lat":43.28165,"lon":5.4266,"is_reserved":false,"is_disabled":false,"rental_uris":{"android":"levelo://app?vid=e18128c5-b229-449a-bea4-1aae237739d0","ios":"levelo://app?vid=e18128c5-b229-449a-bea4-1aae237739d0"},"vehicle_type_id":"4","last_reported":1766959846,"current_range_meters":16000,"station_id":"ce4bhnh2rcd13ifvqgug","pricing_plan_id":"cebpf4jnsgd1na2vs0mg"},{"bike_id":"f1411068-b09b-4667-92c7-1f093aee39a9","system_id":"levelo_inurba_marseille","lat":43.29527,"lon":5.4332,"is_reserved":false,"is_disabled":true,"rental_uris":{"android":"levelo://app?vid=f1411068-b09b-4667-92c7-1f093aee39a9","ios":"levelo://app?vid=f1411068-b09b-4667-92c7-1f093aee39a9"},"vehicle_type_id":"4","last_reported":1766959846,"current_range_meters":16000,"station_id":"st_d3j5ugp08ojc73fj9d10","pricing_plan_id":"cebpf4jnsgd1na2vs0mg"},{"bike_id":"cca2ddb1-404e-4449-aab2-dbdbcb941b87","system_id":"levelo_inurba_marseille","lat":43.26575,"lon":5.40346,"is_reserved":false,"is_disabled":false,"rental_uris":{"android":"levelo://app?vid=cca2ddb1-404e-4449-aab2-dbdbcb941b87","ios":"levelo://app?vid=cca2ddb1-404e-4449-aab2-dbdbcb941b87"},"vehicle_type_id":"4","last_reported":1766959846,"current_range_meters":16000,"station_id":"ce4bhmp2rcd13ifvqgng","pricing_plan_id":"cebpf4jnsgd1na2vs0mg"},{"bike_id":"9c1b57e1-addf-4919-93ed-023a6be78e08","system_id":"levelo_inurba_marseille","lat":43.26958,"lon":5.3863,"is_reserved":false,"is_disabled":false,"rental_uris":{"android":"levelo://app?vid=9c1b57e1-addf-4919-93ed-023a6be78e08","ios":"levelo://app?vid=9c1b57e1-addf-4919-93ed-023a6be78e08"},"vehicle_type_id":"4","last_reported":1766959846,"current_range_meters":16000,"station_id":"ce4bhh92rcd13ifvqfh0","pricing_plan_id":"cebpf4jnsgd1na2vs0mg"},{"bike_id":"0a62435e-a1a1-4faf-b848-03bd53df937d","system_id":"levelo_inurba_marseille","lat":43.29844,"lon":5.37899,"is_reserved":false,"is_disabled":false,"rental_uris":{"android":"levelo://app?vid=0a62435e-a1a1-4faf-b848-03bd53df937d","ios":"levelo://app?vid=0a62435e-a1a1-4faf-b848-03bd53df937d"},"vehicle_type_id":"4","last_reported":1766959846,"current_range_meters":16000,"station_id":"","pricing_plan_id":"cebpf4jnsgd1na2vs0mg"},{"bike_id":"cb1a5e72-739f-4783-8662-ea812a37dbb1","system_id":"levelo_inurba_marseille","lat":43.279484,"lon":5.410514,"is_reserved":false,"is_disabled":false,"rental_uris":{"android":"levelo://app?vid=cb1a5e72-739f-4783-8662-ea812a37dbb1","ios":"levelo://app?vid=cb1a5e72-739f-4783-8662-ea812a37dbb1"},"vehicle_type_id":"4","last_reported":1766959846,"current_range_meters":16000,"station_id":"","pricing_plan_id":"cebpf4jnsgd1na2vs0mg"},{"bike_id":"967f8ea0-853b-4dea-8794-7fee9acd0937","system_id":"levelo_inurba_marseille","lat":43.32659,"lon":5.40993,"is_reserved":false,"is_disabled":false,"rental_uris":{"android":"levelo://app?vid=967f8ea0-853b-4dea-8794-7fee9acd0937","ios":"levelo://app?vid=967f8ea0-853b-4dea-8794-7fee9acd0937"},"vehicle_type_id":"4","last_reported":1766959846,"current_range_meters":16000,"station_id":"ce4bhpp2rcd13ifvqhgg","pricing_plan_id":"cebpf4jnsgd1na2vs0mg"},{"bike_id":"5e2cb0ed-20bd-4c53-83cf-4e6fa8811de2","system_id":"levelo_inurba_marseille","lat":43.29266,"lon":5.38447,"is_reserved":false,"is_disabled":false,"rental_uris":{"android":"levelo://app?vid=5e2cb0ed-20bd-4c53-83cf-4e6fa8811de2","ios":"levelo://app?vid=5e2cb0ed-20bd-4c53-83cf-4e6fa8811de2"},"vehicle_type_id":"4","last_reported":1766959846,"current_range_meters":16400,"station_id":"ce4bh692rcd13ifvqea0","pricing_plan_id":"cebpf4jnsgd1na2vs0mg"},{"bike_id":"1ac4e350-66c1-44e9-8ae3-e6cd49644fba","system_id":"levelo_inurba_marseille","lat":43.28459,"lon":5.3843,"is_reserved":false,"is_disabled":false,"rental_uris":{"android":"levelo://app?vid=1ac4e350-66c1-44e9-8ae3-e6cd49644fba","ios":"levelo://app?vid=1ac4e350-66c1-44e9-8ae3-e6cd49644fba"},"vehicle_type_id":"4","last_reported":1766959846,"current_range_meters":16400,"station_id":"ce4bh512rcd13ifvqe3g","pricing_plan_id":"cebpf4jnsgd1na2vs0mg"},{"bike_id":"5e11ca88-8b90-4217-af67-804f92644fbb","system_id":"levelo_inurba_marseille","lat":43.31051,"lon":5.37161,"is_reserved":false,"is_disabled":false,"rental_uris":{"android":"levelo://app?vid=5e11ca88-8b90-4217-af67-804f92644fbb","ios":"levelo://app?vid=5e11ca88-8b90-4217-af67-804f92644fbb"},"vehicle_type_id":"4","last_reported":1766959846,"current_range_meters":16400,"station_id":"st_d4kl2rp97mjs73e7tdfg","pricing_plan_id":"cebpf4jnsgd1na2vs0mg"},{"bike_id":"8e2eafb7-76eb-46c2-a58c-eefb786ffe62","system_id":"levelo_inurba_marseille","lat":43.28928,"lon":5.36624,"is_reserved":false,"is_disabled":false,"rental_uris":{"android":"levelo://app?vid=8e2eafb7-76eb-46c2-a58c-eefb786ffe62","ios":"levelo://app?vid=8e2eafb7-76eb-46c2-a58c-eefb786ffe62"},"vehicle_type_id":"4","last_reported":1766959846,"current_range_meters":16400,"station_id":"ce4bhap2rcd13ifvqek0","pricing_plan_id":"cebpf4jnsgd1na2vs0mg"},{"bike_id":"f67e8e36-c24f-46d7-a9e8-5b0187dbf590","system_id":"levelo_inurba_marseille","lat":43.3088,"lon":5.3717,"is_reserved":false,"is_disabled":false,"rental_uris":{"android":"levelo://app?vid=f67e8e36-c24f-46d7-a9e8-5b0187dbf590","ios":"levelo://app?vid=f67e8e36-c24f-46d7-a9e8-5b0187dbf590"},"vehicle_type_id":"4","last_reported":1766959846,"current_range_meters":16400,"station_id":"ce4bguh2rcd13ifvqckg","pricing_plan_id":"cebpf4jnsgd1na2vs0mg"},{"bike_id":"5ec820fb-f47e-43b3-bc55-57a5ad8275a7","system_id":"levelo_inurba_marseille","lat":43.29252,"lon":5.36332,"is_reserved":false,"is_disabled":false,"rental_uris":{"android":"levelo://app?vid=5ec820fb-f47e-43b3-bc55-57a5ad8275a7","ios":"levelo://app?vid=5ec820fb-f47e-43b3-bc55-57a5ad8275a7"},"vehicle_type_id":"4","last_reported":1766959846,"current_range_meters":16400,"station_id":"","pricing_plan_id":"cebpf4jnsgd1na2vs0mg"},{"bike_id":"02e1c00e-e2e7-4ebf-8699-b756a818076c","system_id":"levelo_inurba_marseille","lat":43.30527,"lon":5.36493,"is_reserved":false,"is_disabled":false,"rental_uris":{"android":"levelo://app?vid=02e1c00e-e2e7-4ebf-8699-b756a818076c","ios":"levelo://app?vid=02e1c00e-e2e7-4ebf-8699-b756a818076c"},"vehicle_type_id":"4","last_reported":1766959846,"current_range_meters":16400,"station_id":"","pricing_plan_id":"cebpf4jnsgd1na2vs0mg"},{"bike_id":"8ed0aaee-94a4-4a16-a923-e8b24a7704a6","system_id":"levelo_inurba_marseille","lat":43.28879,"lon":5.42534,"is_reserved":false,"is_disabled":false,"rental_uris":{"android":"levelo://app?vid=8ed0aaee-94a4-4a16-a923-e8b24a7704a6","ios":"levelo://app?vid=8ed0aaee-94a4-4a16-a923-e8b24a7704a6"},"vehicle_type_id":"4","last_reported":1766959846,"current_range_meters":16400,"station_id":"st_d3b462108ojc7389ooeg","pricing_plan_id":"cebpf4jnsgd1na2vs0mg"},{"bike_id":"67922df5-d209-414d-a62b-32b7a70f20a8","system_id":"levelo_inurba_marseille","lat":43.28484,"lon":5.38416,"is_reserved":false,"is_disabled":false,"rental_uris":{"android":"levelo://app?vid=67922df5-d209-414d-a62b-32b7a70f20a8","ios":"levelo://app?vid=67922df5-d209-414d-a62b-32b7a70f20a8"},"vehicle_type_id":"4","last_reported":1766959846,"current_range_meters":16800,"station_id":"ce4bh512rcd13ifvqe3g","pricing_plan_id":"cebpf4jnsgd1na2vs0mg"},{"bike_id":"214e0a4e-d793-45aa-9e20-e5b6b5b0702a","system_id":"levelo_inurba_marseille","lat":43.27509,"lon":5.42477,"is_reserved":false,"is_disabled":false,"rental_uris":{"android":"levelo://app?vid=214e0a4e-d793-45aa-9e20-e5b6b5b0702a","ios":"levelo://app?vid=214e0a4e-d793-45aa-9e20-e5b6b5b0702a"},"vehicle_type_id":"4","last_reported":1766959846,"current_range_meters":16800,"station_id":"ce4bhn92rcd13ifvqgrg","pricing_plan_id":"cebpf4jnsgd1na2vs0mg"},{"bike_id":"9f035e6d-4716-4f35-9777-425cc5769f01","system_id":"levelo_inurba_marseille","lat":43.31355,"lon":5.36752,"is_reserved":false,"is_disabled":false,"rental_uris":{"android":"levelo://app?vid=9f035e6d-4716-4f35-9777-425cc5769f01","ios":"levelo://app?vid=9f035e6d-4716-4f35-9777-425cc5769f01"},"vehicle_type_id":"4","last_reported":1766959846,"current_range_meters":16800,"station_id":"ce4bgr92rcd13ifvqc6g","pricing_plan_id":"cebpf4jnsgd1na2vs0mg"},