{"last_updated":1781602953,"ttl":60,"version":"2.2","data":{"bikes":[{"bike_id":"aa997b49-7107-451c-9394-34a2015508bd","system_id":"levelo_inurba_marseille","lat":43.337444,"lon":5.374475,"is_reserved":false,"is_disabled":false,"rental_uris":{"android":"levelo://app?vid=aa997b49-7107-451c-9394-34a2015508bd","ios":"levelo://app?vid=aa997b49-7107-451c-9394-34a2015508bd"},"vehicle_type_id":"4","last_reported":1781602954,"current_range_meters":0,"station_id":"","pricing_plan_id":"cebpf4jnsgd1na2vs0mg"},{"bike_id":"b1a7b4e2-c4de-4929-b9de-8b1c38cd950b","system_id":"levelo_inurba_marseille","lat":43.30838,"lon":5.38278,"is_reserved":false,"is_disabled":false,"rental_uris":{"android":"levelo://app?vid=b1a7b4e2-c4de-4929-b9de-8b1c38cd950b","ios":"levelo://app?vid=b1a7b4e2-c4de-4929-b9de-8b1c38cd950b"},"vehicle_type_id":"4","last_reported":1781602954,"current_range_meters":2800,"station_id":"","pricing_plan_id":"cebpf4jnsgd1na2vs0mg"},{"bike_id":"ede501e1-ac6b-419f-91d8-52a9e484b3db","system_id":"levelo_inurba_marseille","lat":43.27067,"lon":5.4227,"is_reserved":false,"is_disabled":true,"rental_uris":{"android":"levelo://app?vid=ede501e1-ac6b-419f-91d8-52a9e484b3db","ios":"levelo://app?vid=ede501e1-ac6b-419f-91d8-52a9e484b3db"},"vehicle_type_id":"4","last_reported":1781602954,"current_range_meters":2800,"station_id":"ce4bhk92rcd13ifvqgb0","pricing_plan_id":"cebpf4jnsgd1na2vs0mg"},{"bike_id":"480c8d6a-9b5f-48ac-baa4-8f936a5cba2b","system_id":"levelo_inurba_marseille","lat":43.29018,"lon":5.38145,"is_reserved":false,"is_disabled":true,"rental_uris":{"android":"levelo://app?vid=480c8d6a-9b5f-48ac-baa4-8f936a5cba2b","ios":"levelo://app?vid=480c8d6a-9b5f-48ac-baa4-8f936a5cba2b"},"vehicle_type_id":"4","last_reported":1781602954,"current_range_meters":2800,"station_id":"ce4bh4p2rcd13ifvqe1g","pricing_plan_id":"cebpf4jnsgd1na2vs0mg"},{"bike_id":"9e52e5fc-e1d9-4df7-8d60-5ee633d3bd6b","system_id":"levelo_inurba_marseille","lat":43.31237,"lon":5.38491,"is_reserved":false,"is_disabled":false,"rental_uris":{"android":"levelo://app?vid=9e52e5fc-e1d9-4df7-8d60-5ee633d3bd6b","ios":"levelo://app?vid=9e52e5fc-e1d9-4df7-8d60-5ee633d3bd6b"},"vehicle_type_id":"4","last_reported":1781602954,"current_range_meters":2800,"station_id":"","pricing_plan_id":"cebpf4jnsgd1na2vs0mg"},{"bike_id":"8d84132a-1abe-44d0-89ec-a479c21ebcbb","system_id":"levelo_inurba_marseille","lat":43.29194,"lon":5.35801,"is_reserved":false,"is_disabled":false,"rental_uris":{"android":"levelo://app?vid=8d84132a-1abe-44d0-89ec-a479c21ebcbb","ios":"levelo://app?vid=8d84132a-1abe-44d0-89ec-a479c21ebcbb"},"vehicle_type_id":"4","last_reported":1781602954,"current_range_meters":2800,"station_id":"ce4bhb12rcd13ifvqel0","pricing_plan_id":"cebpf4jnsgd1na2vs0mg"},{"bike_id":"c4e86935-f22b-4dfa-b400-1ae556781040","system_id":"levelo_inurba_marseille","lat":43.28676,"lon":5.38658,"is_reserved":false,"is_disabled":false,"rental_uris":{"android":"levelo://app?vid=c4e86935-f22b-4dfa-b400-1ae556781040","ios":"levelo://app?vid=c4e86935-f22b-4dfa-b400-1ae556781040"},"vehicle_type_id":"4","last_reported":1781602954,"current_range_meters":2800,"station_id":"ce4bh492rcd13ifvqdug","pricing_plan_id":"cebpf4jnsgd1na2vs0mg"},{"bike_id":"2b0774fd-df4e-4faa-94e4-5ca52189b44e","system_id":"levelo_inurba_marseille","lat":43.29217,"lon":5.3604,"is_reserved":false,"is_disabled":true,"rental_uris":{"android":"levelo://app?vid=2b0774fd-df4e-4faa-94e4-5ca52189b44e","ios":"levelo://app?vid=2b0774fd-df4e-4faa-94e4-5ca52189b44e"},"vehicle_type_id":"4","last_reported":1781602954,"current_range_meters":3200,"station_id":"ce4bhbh2rcd13ifvqeqg","pricing_plan_id":"cebpf4jnsgd1na2vs0mg"},{"bike_id":"5bc84a42-041f-41bc-97a6-acdafa8686cf","system_id":"levelo_inurba_marseille","lat":43.31172,"lon":5.36818,"is_reserved":false,"is_disabled":false,"rental_uris":{"android":"levelo://app?vid=5bc84a42-041f-41bc-97a6-acdafa8686cf","ios":"levelo://app?vid=5bc84a42-041f-41bc-97a6-acdafa8686cf"},"vehicle_type_id":"4","last_reported":1781602954,"current_range_meters":3200,"station_id":"","pricing_plan_id":"cebpf4jnsgd1na2vs0mg"},{"bike_id":"a34f2957-86a7-4362-a6aa-2f5ed5a651f6","system_id":"levelo_inurba_marseille","lat":43.31372,"lon":5.36706,"is_reserved":false,"is_disabled":true,"rental_uris":{"android":"levelo://app?vid=a34f2957-86a7-4362-a6aa-2f5ed5a651f6","ios":"levelo://app?vid=a34f2957-86a7-4362-a6aa-2f5ed5a651f6"},"vehicle_type_id":"4","last_reported":1781602954,"current_range_meters":3200,"station_id":"ce4bgr92rcd13ifvqc6g","pricing_plan_id":"cebpf4jnsgd1na2vs0mg"},{"bike_id":"c44d6def-2121-4032-baa3-7d3e6d3ad670","system_id":"levelo_inurba_marseille","lat":43.29209,"lon":5.38383,"is_reserved":false,"is_disabled":false,"rental_uris":{"android":"levelo://app?vid=c44d6def-2121-4032-baa3-7d3e6d3ad670","ios":"levelo://app?vid=c44d6def-2121-4032-baa3-7d3e6d3ad670"},"vehicle_type_id":"4","last_reported":1781602954,"current_range_meters":3200,"station_id":"","pricing_plan_id":"cebpf4jnsgd1na2vs0mg"},{"bike_id":"9aabb9cd-8524-48e4-bf52-6dd774a8bb60","system_id":"levelo_inurba_marseille","lat":43.32355,"lon":5.3675,"is_reserved":false,"is_disabled":false,"rental_uris":{"android":"levelo://app?vid=9aabb9cd-8524-48e4-bf52-6dd774a8bb60","ios":"levelo://app?vid=9aabb9cd-8524-48e4-bf52-6dd774a8bb60"},"vehicle_type_id":"4","last_reported":1781602954,"current_range_meters":3200,"station_id":"ce4bhsh2rcd13ifvqi2g","pricing_plan_id":"cebpf4jnsgd1na2vs0mg"},{"bike_id":"fe17abf5-a8b7-44ea-a779-8c4eae17cc21","system_id":"levelo_inurba_marseille","lat":43.2668,"lon":5.38245,"is_reserved":false,"is_disabled":false,"rental_uris":{"android":"levelo://app?vid=fe17abf5-a8b7-44ea-a779-8c4eae17cc21","ios":"levelo://app?vid=fe17abf5-a8b7-44ea-a779-8c4eae17cc21"},"vehicle_type_id":"4","last_reported":1781602954,"current_range_meters":3200,"station_id":"ce4bhg92rcd13ifvqf90","pricing_plan_id":"cebpf4jnsgd1na2vs0mg"},{"bike_id":"5ff5bf73-eda2-471b-b651-43b5f50ff5f3","system_id":"levelo_inurba_marseille","lat":43.30892,"lon":5.36859,"is_reserved":false,"is_disabled":false,"rental_uris":{"android":"levelo://app?vid=5ff5bf73-eda2-471b-b651-43b5f50ff5f3","ios":"levelo://app?vid=5ff5bf73-eda2-471b-b651-43b5f50ff5f3"},"vehicle_type_id":"4","last_reported":1781602954,"current_range_meters":3200,"station_id":"ce4bgn92rcd13ifvqbvg","pricing_plan_id":"cebpf4jnsgd1na2vs0mg"},{"bike_id":"1c1e003d-d96e-41d2-8037-f2baed700164","system_id":"levelo_inurba_marseille","lat":43.30897,"lon":5.36812,"is_reserved":false,"is_disabled":false,"rental_uris":{"android":"levelo://app?vid=1c1e003d-d96e-41d2-8037-f2baed700164","ios":"levelo://app?vid=1c1e003d-d96e-41d2-8037-f2baed700164"},"vehicle_type_id":"4","last_reported":1781602954,"current_range_meters":3200,"station_id":"ce4bgn92rcd13ifvqbvg","pricing_plan_id":"cebpf4jnsgd1na2vs0mg"},{"bike_id":"7d52ecc5-6050-4293-9a52-e51342dbfe2a","system_id":"levelo_inurba_marseille","lat":43.31277,"lon":5.36836,"is_reserved":false,"is_disabled":false,"rental_uris":{"android":"levelo://app?vid=7d52ecc5-6050-4293-9a52-e51342dbfe2a","ios":"levelo://app?vid=7d52ecc5-6050-4293-9a52-e51342dbfe2a"},"vehicle_type_id":"4","last_reported":1781602954,"current_range_meters":3200,"station_id":"","pricing_plan_id":"cebpf4jnsgd1na2vs0mg"},{"bike_id":"0c4a3555-b59f-42b7-9b54-56a3fea5817f","system_id":"levelo_inurba_marseille","lat":43.30498,"lon":5.36692,"is_reserved":false,"is_disabled":false,"rental_uris":{"android":"levelo://app?vid=0c4a3555-b59f-42b7-9b54-56a3fea5817f","ios":"levelo://app?vid=0c4a3555-b59f-42b7-9b54-56a3fea5817f"},"vehicle_type_id":"4","last_reported":1781602954,"current_range_meters":3200,"station_id":"ce4bgrp2rcd13ifvqc9g","pricing_plan_id":"cebpf4jnsgd1na2vs0mg"},{"bike_id":"1f3f27c8-d8d1-4f39-8ef1-9165723bd20e","system_id":"levelo_inurba_marseille","lat":43.30336,"lon":5.40746,"is_reserved":false,"is_disabled":false,"rental_uris":{"android":"levelo://app?vid=1f3f27c8-d8d1-4f39-8ef1-9165723bd20e","ios":"levelo://app?vid=1f3f27c8-d8d1-4f39-8ef1-9165723bd20e"},"vehicle_type_id":"4","last_reported":1781602954,"current_range_meters":3200,"station_id":"","pricing_plan_id":"cebpf4jnsgd1na2vs0mg"},{"bike_id":"ad9fc3d6-18db-47eb-82f7-49728d600a2c","system_id":"levelo_inurba_marseille","lat":43.29119,"lon":5.38065,"is_reserved":false,"is_disabled":false,"rental_uris":{"android":"levelo://app?vid=ad9fc3d6-18db-47eb-82f7-49728d600a2c","ios":"levelo://app?vid=ad9fc3d6-18db-47eb-82f7-49728d600a2c"},"vehicle_type_id":"4","last_reported":1781602954,"current_range_meters":3600,"station_id":"","pricing_plan_id":"cebpf4jnsgd1na2vs0mg"},{"bike_id":"065b6009-2e7a-45cb-bd50-ea574925cd7f","system_id":"levelo_inurba_marseille","lat":43.25391,"lon":5.42766,"is_reserved":false,"is_disabled":false,"rental_uris":{"android":"levelo://app?vid=065b6009-2e7a-45cb-bd50-ea574925cd7f","ios":"levelo://app?vid=065b6009-2e7a-45cb-bd50-ea574925cd7f"},"vehicle_type_id":"4","last_reported":1781602954,"current_range_meters":3600,"station_id":"","pricing_plan_id":"cebpf4jnsgd1na2vs0mg"},{"bike_id":"a7423333-6c27-4dfa-8b68-5eb468877668","system_id":"levelo_inurba_marseille","lat":43.32495,"lon":5.38291,"is_reserved":false,"is_disabled":false,"rental_uris":{"android":"levelo://app?vid=a7423333-6c27-4dfa-8b68-5eb468877668","ios":"levelo://app?vid=a7423333-6c27-4dfa-8b68-5eb468877668"},"vehicle_type_id":"4","last_reported":1781602954,"current_range_meters":3600,"station_id":"st_d4asgbiv49dc73anf9m0","pricing_plan_id":"cebpf4jnsgd1na2vs0mg"},{"bike_id":"03aa53d6-2053-4dbc-8916-ed97492eb306","system_id":"levelo_inurba_marseille","lat":43.29604,"lon":5.38101,"is_reserved":false,"is_disabled":false,"rental_uris":{"android":"levelo://app?vid=03aa53d6-2053-4dbc-8916-ed97492eb306","ios":"levelo://app?vid=03aa53d6-2053-4dbc-8916-ed97492eb306"},"vehicle_type_id":"4","last_reported":1781602954,"current_range_meters":3600,"station_id":"ce4bgl12rcd13ifvqbo0","pricing_plan_id":"cebpf4jnsgd1na2vs0mg"},{"bike_id":"9743948b-c46e-4e8f-a6f3-84b573fce9b8","system_id":"levelo_inurba_marseille","lat":43.2805,"lon":5.3536,"is_reserved":false,"is_disabled":true,"rental_uris":{"android":"levelo://app?vid=9743948b-c46e-4e8f-a6f3-84b573fce9b8","ios":"levelo://app?vid=9743948b-c46e-4e8f-a6f3-84b573fce9b8"},"vehicle_type_id":"4","last_reported":1781602954,"current_range_meters":3600,"station_id":"","pricing_plan_id":"cebpf4jnsgd1na2vs0mg"},{"bike_id":"e0feb090-02e8-435b-988a-cbd276485185","system_id":"levelo_inurba_marseille","lat":43.284795,"lon":5.384239,"is_reserved":false,"is_disabled":true,"rental_uris":{"android":"levelo://app?vid=e0feb090-02e8-435b-988a-cbd276485185","ios":"levelo://app?vid=e0feb090-02e8-435b-988a-cbd276485185"},"vehicle_type_id":"4","last_reported":1781602954,"current_range_meters":3600,"station_id":"ce4bh512rcd13ifvqe3g","pricing_plan_id":"cebpf4jnsgd1na2vs0mg"},{"bike_id":"198213cd-6c32-46ac-9299-65cb1e70e364","system_id":"levelo_inurba_marseille","lat":43.29555,"lon":5.4227,"is_reserved":false,"is_disabled":false,"rental_uris":{"android":"levelo://app?vid=198213cd-6c32-46ac-9299-65cb1e70e364","ios":"levelo://app?vid=198213cd-6c32-46ac-9299-65cb1e70e364"},"vehicle_type_id":"4","last_reported":1781602954,"current_range_meters":3600,"station_id":"ce4bhph2rcd13ifvqhdg","pricing_plan_id":"cebpf4jnsgd1na2vs0mg"},{"bike_id":"4dda2717-19b7-4c1b-8217-0b2a9fae8a2e","system_id":"levelo_inurba_marseille","lat":43.31701,"lon":5.37777,"is_reserved":false,"is_disabled":false,"rental_uris":{"android":"levelo://app?vid=4dda2717-19b7-4c1b-8217-0b2a9fae8a2e","ios":"levelo://app?vid=4dda2717-19b7-4c1b-8217-0b2a9fae8a2e"},"vehicle_type_id":"4","last_reported":1781602954,"current_range_meters":3600,"station_id":"ce4bgth2rcd13ifvqch0","pricing_plan_id":"cebpf4jnsgd1na2vs0mg"},{"bike_id":"d932a5be-13d7-4c2c-8061-c002db7b6b3a","system_id":"levelo_inurba_marseille","lat":43.28381,"lon":5.4594,"is_reserved":false,"is_disabled":false,"rental_uris":{"android":"levelo://app?vid=d932a5be-13d7-4c2c-8061-c002db7b6b3a","ios":"levelo://app?vid=d932a5be-13d7-4c2c-8061-c002db7b6b3a"},"vehicle_type_id":"4","last_reported":1781602954,"current_range_meters":3600,"station_id":"","pricing_plan_id":"cebpf4jnsgd1na2vs0mg"},{"bike_id":"8e03a099-3603-4e3e-ae5e-b9e0742fdeae","system_id":"levelo_inurba_marseille","lat":43.28612,"lon":5.39882,"is_reserved":false,"is_disabled":true,"rental_uris":{"android":"levelo://app?vid=8e03a099-3603-4e3e-ae5e-b9e0742fdeae","ios":"levelo://app?vid=8e03a099-3603-4e3e-ae5e-b9e0742fdeae"},"vehicle_type_id":"4","last_reported":1781602954,"current_range_meters":3600,"station_id":"ce4bho92rcd13ifvqh3g","pricing_plan_id":"cebpf4jnsgd1na2vs0mg"},{"bike_id":"4abbd38b-a90d-4a66-9195-882e1426f7a6","system_id":"levelo_inurba_marseille","lat":43.33567,"lon":5.37466,"is_reserved":false,"is_disabled":false,"rental_uris":{"android":"levelo://app?vid=4abbd38b-a90d-4a66-9195-882e1426f7a6","ios":"levelo://app?vid=4abbd38b-a90d-4a66-9195-882e1426f7a6"},"vehicle_type_id":"4","last_reported":1781602954,"current_range_meters":3600,"station_id":"st_d46tts09ee8s73dlu43g","pricing_plan_id":"cebpf4jnsgd1na2vs0mg"},{"bike_id":"c48be7db-ce27-402f-8bb0-e615dac05ac2","system_id":"levelo_inurba_marseille","lat":43.269591,"lon":5.386357,"is_reserved":false,"is_disabled":false,"rental_uris":{"android":"levelo://app?vid=c48be7db-ce27-402f-8bb0-e615dac05ac2","ios":"levelo://app?vid=c48be7db-ce27-402f-8bb0-e615dac05ac2"},"vehicle_type_id":"4","last_reported":1781602954,"current_range_meters":3600,"station_id":"ce4bhh92rcd13ifvqfh0","pricing_plan_id":"cebpf4jnsgd1na2vs0mg"},{"bike_id":"c23fb373-7ad9-4348-a0f0-23ba5090a9b3","system_id":"levelo_inurba_marseille","lat":43.29239,"lon":5.38013,"is_reserved":false,"is_disabled":false,"rental_uris":{"android":"levelo://app?vid=c23fb373-7ad9-4348-a0f0-23ba5090a9b3","ios":"levelo://app?vid=c23fb373-7ad9-4348-a0f0-23ba5090a9b3"},"vehicle_type_id":"4","last_reported":1781602954,"current_range_meters":3600,"station_id":"","pricing_plan_id":"cebpf4jnsgd1na2vs0mg"},{"bike_id":"753dfbfd-a675-4934-bec5-3cf1458050df","system_id":"levelo_inurba_marseille","lat":43.29562,"lon":5.3751,"is_reserved":false,"is_disabled":false,"rental_uris":{"android":"levelo://app?vid=753dfbfd-a675-4934-bec5-3cf1458050df","ios":"levelo://app?vid=753dfbfd-a675-4934-bec5-3cf1458050df"},"vehicle_type_id":"4","last_reported":1781602954,"current_range_meters":3600,"station_id":"ce4bgh92rcd13ifvqb50","pricing_plan_id":"cebpf4jnsgd1na2vs0mg"},{"bike_id":"34624d46-65a4-4a75-9d5f-549007b8851f","system_id":"levelo_inurba_marseille","lat":43.337533,"lon":5.374474,"is_reserved":false,"is_disabled":false,"rental_uris":{"android":"levelo://app?vid=34624d46-65a4-4a75-9d5f-549007b8851f","ios":"levelo://app?vid=34624d46-65a4-4a75-9d5f-549007b8851f"},"vehicle_type_id":"4","last_reported":1781602954,"current_range_meters":4000,"station_id":"","pricing_plan_id":"cebpf4jnsgd1na2vs0mg"},{"bike_id":"17180ebe-55c3-43c4-baf2-f968c9e4fb21","system_id":"levelo_inurba_marseille","lat":43.24575,"lon":5.41654,"is_reserved":false,"is_disabled":false,"rental_uris":{"android":"levelo://app?vid=17180ebe-55c3-43c4-baf2-f968c9e4fb21","ios":"levelo://app?vid=17180ebe-55c3-43c4-baf2-f968c9e4fb21"},"vehicle_type_id":"4","last_reported":1781602954,"current_range_meters":4000,"station_id":"","pricing_plan_id":"cebpf4jnsgd1na2vs0mg"},{"bike_id":"e6e7c8fc-7a32-4d23-b263-ec3eec9fdffb","system_id":"levelo_inurba_marseille","lat":43.28497,"lon":5.48395,"is_reserved":false,"is_disabled":false,"rental_uris":{"android":"levelo://app?vid=e6e7c8fc-7a32-4d23-b263-ec3eec9fdffb","ios":"levelo://app?vid=e6e7c8fc-7a32-4d23-b263-ec3eec9fdffb"},"vehicle_type_id":"4","last_reported":1781602954,"current_range_meters":4000,"station_id":"st_d3svhcjqgbts73a3dn0g","pricing_plan_id":"cebpf4jnsgd1na2vs0mg"},{"bike_id":"59859869-1d08-4255-aed5-3178217b2d8d","system_id":"levelo_inurba_marseille","lat":43.25917,"lon":5.40878,"is_reserved":false,"is_disabled":false,"rental_uris":{"android":"levelo://app?vid=59859869-1d08-4255-aed5-3178217b2d8d","ios":"levelo://app?vid=59859869-1d08-4255-aed5-3178217b2d8d"},"vehicle_type_id":"4","last_reported":1781602954,"current_range_meters":4000,"station_id":"ce4bhm92rcd13ifvqglg","pricing_plan_id":"cebpf4jnsgd1na2vs0mg"},{"bike_id":"f861ac07-1d9c-4927-bdf2-59031fdef327","system_id":"levelo_inurba_marseille","lat":43.30174,"lon":5.40119,"is_reserved":false,"is_disabled":false,"rental_uris":{"android":"levelo://app?vid=f861ac07-1d9c-4927-bdf2-59031fdef327","ios":"levelo://app?vid=f861ac07-1d9c-4927-bdf2-59031fdef327"},"vehicle_type_id":"4","last_reported":1781602954,"current_range_meters":4000,"station_id":"","pricing_plan_id":"cebpf4jnsgd1na2vs0mg"},{"bike_id":"cf738518-8c8a-4295-9678-1a955c521a10","system_id":"levelo_inurba_marseille","lat":43.24459,"lon":5.4255,"is_reserved":false,"is_disabled":true,"rental_uris":{"android":"levelo://app?vid=cf738518-8c8a-4295-9678-1a955c521a10","ios":"levelo://app?vid=cf738518-8c8a-4295-9678-1a955c521a10"},"vehicle_type_id":"4","last_reported":1781602954,"current_range_meters":4000,"station_id":"st_d4a3vfp97mjs738cd8kg","pricing_plan_id":"cebpf4jnsgd1na2vs0mg"},{"bike_id":"0ed74b88-02bb-4e6a-bac8-0265efdf81e4","system_id":"levelo_inurba_marseille","lat":43.21753,"lon":5.34633,"is_reserved":false,"is_disabled":true,"rental_uris":{"android":"levelo://app?vid=0ed74b88-02bb-4e6a-bac8-0265efdf81e4","ios":"levelo://app?vid=0ed74b88-02bb-4e6a-bac8-0265efdf81e4"},"vehicle_type_id":"4","last_reported":1781602954,"current_range_meters":4000,"station_id":"st_cvj6r9ubvosntc0bgbag","pricing_plan_id":"cebpf4jnsgd1na2vs0mg"},{"bike_id":"d27f1b82-f6a1-46ff-8f2b-1d48ea3e4d67","system_id":"levelo_inurba_marseille","lat":43.23047,"lon":5.35488,"is_reserved":false,"is_disabled":false,"rental_uris":{"android":"levelo://app?vid=d27f1b82-f6a1-46ff-8f2b-1d48ea3e4d67","ios":"levelo://app?vid=d27f1b82-f6a1-46ff-8f2b-1d48ea3e4d67"},"vehicle_type_id":"4","last_reported":1781602954,"current_range_meters":4000,"station_id":"cpo3342slgdg3j2ifvpg","pricing_plan_id":"cebpf4jnsgd1na2vs0mg"},{"bike_id":"27c9adf0-5a2d-4b40-a0d2-7e33166d8640","system_id":"levelo_inurba_marseille","lat":43.27993,"lon":5.38758,"is_reserved":false,"is_disabled":true,"rental_uris":{"android":"levelo://app?vid=27c9adf0-5a2d-4b40-a0d2-7e33166d8640","ios":"levelo://app?vid=27c9adf0-5a2d-4b40-a0d2-7e33166d8640"},"vehicle_type_id":"4","last_reported":1781602954,"current_range_meters":4000,"station_id":"ce4bhg12rcd13ifvqf80","pricing_plan_id":"cebpf4jnsgd1na2vs0mg"},{"bike_id":"58792855-4930-457f-83a9-c8587ec25a69","system_id":"levelo_inurba_marseille","lat":43.29251,"lon":5.40904,"is_reserved":false,"is_disabled":false,"rental_uris":{"android":"levelo://app?vid=58792855-4930-457f-83a9-c8587ec25a69","ios":"levelo://app?vid=58792855-4930-457f-83a9-c8587ec25a69"},"vehicle_type_id":"4","last_reported":1781602954,"current_range_meters":4000,"station_id":"ce4bh192rcd13ifvqdc0","pricing_plan_id":"cebpf4jnsgd1na2vs0mg"},{"bike_id":"6edd77a1-681d-4a38-8b0b-415104a5228b","system_id":"levelo_inurba_marseille","lat":43.26564,"lon":5.40314,"is_reserved":false,"is_disabled":false,"rental_uris":{"android":"levelo://app?vid=6edd77a1-681d-4a38-8b0b-415104a5228b","ios":"levelo://app?vid=6edd77a1-681d-4a38-8b0b-415104a5228b"},"vehicle_type_id":"4","last_reported":1781602954,"current_range_meters":4000,"station_id":"ce4bhmp2rcd13ifvqgng","pricing_plan_id":"cebpf4jnsgd1na2vs0mg"},{"bike_id":"64a70af1-09eb-4ba9-b431-77cc40355826","system_id":"levelo_inurba_marseille","lat":43.30947,"lon":5.39054,"is_reserved":false,"is_disabled":false,"rental_uris":{"android":"levelo://app?vid=64a70af1-09eb-4ba9-b431-77cc40355826","ios":"levelo://app?vid=64a70af1-09eb-4ba9-b431-77cc40355826"},"vehicle_type_id":"4","last_reported":1781602954,"current_range_meters":4000,"station_id":"ce4bgup2rcd13ifvqco0","pricing_plan_id":"cebpf4jnsgd1na2vs0mg"},{"bike_id":"3ee94fc0-8fea-4372-9289-fdd37c039599","system_id":"levelo_inurba_marseille","lat":43.32078,"lon":5.36764,"is_reserved":false,"is_disabled":false,"rental_uris":{"android":"levelo://app?vid=3ee94fc0-8fea-4372-9289-fdd37c039599","ios":"levelo://app?vid=3ee94fc0-8fea-4372-9289-fdd37c039599"},"vehicle_type_id":"4","last_reported":1781602954,"current_range_meters":4000,"station_id":"ce4bhrh2rcd13ifvqhug","pricing_plan_id":"cebpf4jnsgd1na2vs0mg"},{"bike_id":"85966d85-f405-4b8d-8627-a33ebd9b258f","system_id":"levelo_inurba_marseille","lat":43.28682,"lon":5.46921,"is_reserved":false,"is_disabled":false,"rental_uris":{"android":"levelo://app?vid=85966d85-f405-4b8d-8627-a33ebd9b258f","ios":"levelo://app?vid=85966d85-f405-4b8d-8627-a33ebd9b258f"},"vehicle_type_id":"4","last_reported":1781602954,"current_range_meters":4000,"station_id":"","pricing_plan_id":"cebpf4jnsgd1na2vs0mg"},{"bike_id":"7ce944ef-d209-4270-9787-a75d4a5d0a8e","system_id":"levelo_inurba_marseille","lat":43.28906,"lon":5.3776,"is_reserved":false,"is_disabled":false,"rental_uris":{"android":"levelo://app?vid=7ce944ef-d209-4270-9787-a75d4a5d0a8e","ios":"levelo://app?vid=7ce944ef-d209-4270-9787-a75d4a5d0a8e"},"vehicle_type_id":"4","last_reported":1781602954,"current_range_meters":4000,"station_id":"","pricing_plan_id":"cebpf4jnsgd1na2vs0mg"},{"bike_id":"61192ebe-27e0-45e0-be33-ab2a7ff89581","system_id":"levelo_inurba_marseille","lat":43.31368,"lon":5.38477,"is_reserved":false,"is_disabled":false,"rental_uris":{"android":"levelo://app?vid=61192ebe-27e0-45e0-be33-ab2a7ff89581","ios":"levelo://app?vid=61192ebe-27e0-45e0-be33-ab2a7ff89581"},"vehicle_type_id":"4","last_reported":1781602954,"current_range_meters":4000,"station_id":"ce4bgt92rcd13ifvqcf0","pricing_plan_id":"cebpf4jnsgd1na2vs0mg"},{"bike_id":"2123c7ab-875f-4b38-8ccb-b36a19d2969c","system_id":"levelo_inurba_marseille","lat":43.3208,"lon":5.37481,"is_reserved":false,"is_disabled":false,"rental_uris":{"android":"levelo://app?vid=2123c7ab-875f-4b38-8ccb-b36a19d2969c","ios":"levelo://app?vid=2123c7ab-875f-4b38-8ccb-b36a19d2969c"},"vehicle_type_id":"4","last_reported":1781602954,"current_range_meters":4000,"station_id":"","pricing_plan_id":"cebpf4jnsgd1na2vs0mg"},{"bike_id":"faab199b-f195-4600-9ace-1813703a26b2","system_id":"levelo_inurba_marseille","lat":43.22416,"lon":5.34753,"is_reserved":false,"is_disabled":false,"rental_uris":{"android":"levelo://app?vid=faab199b-f195-4600-9ace-1813703a26b2","ios":"levelo://app?vid=faab199b-f195-4600-9ace-1813703a26b2"},"vehicle_type_id":"4","last_reported":1781602954,"current_range_meters":4000,"station_id":"","pricing_plan_id":"cebpf4jnsgd1na2vs0mg"},{"bike_id":"c324f0c1-2267-4771-8379-c897baca7ba6","system_id":"levelo_inurba_marseille","lat":43.29618,"lon":5.3811,"is_reserved":false,"is_disabled":true,"rental_uris":{"android":"levelo://app?vid=c324f0c1-2267-4771-8379-c897baca7ba6","ios":"levelo://app?vid=c324f0c1-2267-4771-8379-c897baca7ba6"},"vehicle_type_id":"4","last_reported":1781602954,"current_range_meters":4000,"station_id":"ce4bgl12rcd13ifvqbo0","pricing_plan_id":"cebpf4jnsgd1na2vs0mg"},{"bike_id":"7ad6749c-d621-468a-b3c9-10abd95885e0","system_id":"levelo_inurba_marseille","lat":43.22558,"lon":5.41625,"is_reserved":false,"is_disabled":false,"rental_uris":{"android":"levelo://app?vid=7ad6749c-d621-468a-b3c9-10abd95885e0","ios":"levelo://app?vid=7ad6749c-d621-468a-b3c9-10abd95885e0"},"vehicle_type_id":"4","last_reported":1781602954,"current_range_meters":4400,"station_id":"st_d2o4gvlbi1j2169b742g","pricing_plan_id":"cebpf4jnsgd1na2vs0mg"},{"bike_id":"f9f0444d-e71b-44cf-beb3-4e9ec180d7a0","system_id":"levelo_inurba_marseille","lat":43.26794,"lon":5.394,"is_reserved":false,"is_disabled":true,"rental_uris":{"android":"levelo://app?vid=f9f0444d-e71b-44cf-beb3-4e9ec180d7a0","ios":"levelo://app?vid=f9f0444d-e71b-44cf-beb3-4e9ec180d7a0"},"vehicle_type_id":"4","last_reported":1781602954,"current_range_meters":4400,"station_id":"ce4bhh12rcd13ifvqfg0","pricing_plan_id":"cebpf4jnsgd1na2vs0mg"},{"bike_id":"392b2074-e960-4754-9799-ad67be54bbc0","system_id":"levelo_inurba_marseille","lat":43.30474,"lon":5.37887,"is_reserved":false,"is_disabled":false,"rental_uris":{"android":"levelo://app?vid=392b2074-e960-4754-9799-ad67be54bbc0","ios":"levelo://app?vid=392b2074-e960-4754-9799-ad67be54bbc0"},"vehicle_type_id":"4","last_reported":1781602954,"current_range_meters":4400,"station_id":"ce4bgup2rcd13ifvqcn0","pricing_plan_id":"cebpf4jnsgd1na2vs0mg"},{"bike_id":"3b6818b8-9c82-4bd3-b2a4-d38a38b4db1b","system_id":"levelo_inurba_marseille","lat":43.28172,"lon":5.42608,"is_reserved":false,"is_disabled":false,"rental_uris":{"android":"levelo://app?vid=3b6818b8-9c82-4bd3-b2a4-d38a38b4db1b","ios":"levelo://app?vid=3b6818b8-9c82-4bd3-b2a4-d38a38b4db1b"},"vehicle_type_id":"4","last_reported":1781602954,"current_range_meters":4400,"station_id":"ce4bhnh2rcd13ifvqgug","pricing_plan_id":"cebpf4jnsgd1na2vs0mg"},{"bike_id":"6a196ced-67e3-4dab-8bd0-3a8d7db0d897","system_id":"levelo_inurba_marseille","lat":43.33602,"lon":5.40999,"is_reserved":false,"is_disabled":false,"rental_uris":{"android":"levelo://app?vid=6a196ced-67e3-4dab-8bd0-3a8d7db0d897","ios":"levelo://app?vid=6a196ced-67e3-4dab-8bd0-3a8d7db0d897"},"vehicle_type_id":"4","last_reported":1781602954,"current_range_meters":4400,"station_id":"ce4bhqh2rcd13ifvqhmg","pricing_plan_id":"cebpf4jnsgd1na2vs0mg"},{"bike_id":"dd75378f-bb7c-47cd-89f2-6eeb092130cb","system_id":"levelo_inurba_marseille","lat":43.31908,"lon":5.36783,"is_reserved":false,"is_disabled":false,"rental_uris":{"android":"levelo://app?vid=dd75378f-bb7c-47cd-89f2-6eeb092130cb","ios":"levelo://app?vid=dd75378f-bb7c-47cd-89f2-6eeb092130cb"},"vehicle_type_id":"4","last_reported":1781602954,"current_range_meters":4400,"station_id":"st_d6o2h0d0559c73evc1b0","pricing_plan_id":"cebpf4jnsgd1na2vs0mg"},{"bike_id":"830706e0-6a64-4a2c-bd4f-7d1d1ec60797","system_id":"levelo_inurba_marseille","lat":43.3018,"lon":5.36624,"is_reserved":false,"is_disabled":false,"rental_uris":{"android":"levelo://app?vid=830706e0-6a64-4a2c-bd4f-7d1d1ec60797","ios":"levelo://app?vid=830706e0-6a64-4a2c-bd4f-7d1d1ec60797"},"vehicle_type_id":"4","last_reported":1781602954,"current_range_meters":4400,"station_id":"ce4bgrh2rcd13ifvqc8g","pricing_plan_id":"cebpf4jnsgd1na2vs0mg"},{"bike_id":"db41b9eb-9acb-49cf-84cd-8f9e13edc202","system_id":"levelo_inurba_marseille","lat":43.30202,"lon":5.41765,"is_reserved":false,"is_disabled":false,"rental_uris":{"android":"levelo://app?vid=db41b9eb-9acb-49cf-84cd-8f9e13edc202","ios":"levelo://app?vid=db41b9eb-9acb-49cf-84cd-8f9e13edc202"},"vehicle_type_id":"4","last_reported":1781602954,"current_range_meters":4400,"station_id":"","pricing_plan_id":"cebpf4jnsgd1na2vs0mg"},{"bike_id":"bebe8c03-9684-4d05-b9e8-5857f587d6f6","system_id":"levelo_inurba_marseille","lat":43.29146,"lon":5.3848,"is_reserved":false,"is_disabled":false,"rental_uris":{"android":"levelo://app?vid=bebe8c03-9684-4d05-b9e8-5857f587d6f6","ios":"levelo://app?vid=bebe8c03-9684-4d05-b9e8-5857f587d6f6"},"vehicle_type_id":"4","last_reported":1781602954,"current_range_meters":4400,"station_id":"","pricing_plan_id":"cebpf4jnsgd1na2vs0mg"},{"bike_id":"6c71d98a-202a-4097-b5a5-5671215d6806","system_id":"levelo_inurba_marseille","lat":43.2743,"lon":5.38699,"is_reserved":false,"is_disabled":false,"rental_uris":{"android":"levelo://app?vid=6c71d98a-202a-4097-b5a5-5671215d6806","ios":"levelo://app?vid=6c71d98a-202a-4097-b5a5-5671215d6806"},"vehicle_type_id":"4","last_reported":1781602954,"current_range_meters":4400,"station_id":"","pricing_plan_id":"cebpf4jnsgd1na2vs0mg"},{"bike_id":"35cc2a94-d0cd-4829-9a80-dd7ac1fb2e92","system_id":"levelo_inurba_marseille","lat":43.29551,"lon":5.37514,"is_reserved":false,"is_disabled":false,"rental_uris":{"android":"levelo://app?vid=35cc2a94-d0cd-4829-9a80-dd7ac1fb2e92","ios":"levelo://app?vid=35cc2a94-d0cd-4829-9a80-dd7ac1fb2e92"},"vehicle_type_id":"4","last_reported":1781602954,"current_range_meters":4400,"station_id":"ce4bgkp2rcd13ifvqbmg","pricing_plan_id":"cebpf4jnsgd1na2vs0mg"},{"bike_id":"cd06302c-11e6-4b40-8f44-7b482b32d4dc","system_id":"levelo_inurba_marseille","lat":43.31216,"lon":5.36845,"is_reserved":false,"is_disabled":true,"rental_uris":{"android":"levelo://app?vid=cd06302c-11e6-4b40-8f44-7b482b32d4dc","ios":"levelo://app?vid=cd06302c-11e6-4b40-8f44-7b482b32d4dc"},"vehicle_type_id":"4","last_reported":1781602954,"current_range_meters":4400,"station_id":"ce4bgl92rcd13ifvqbq0","pricing_plan_id":"cebpf4jnsgd1na2vs0mg"},{"bike_id":"3787a117-f847-42bd-8bf9-f03f679fa20d","system_id":"levelo_inurba_marseille","lat":43.29264,"lon":5.38433,"is_reserved":false,"is_disabled":false,"rental_uris":{"android":"levelo://app?vid=3787a117-f847-42bd-8bf9-f03f679fa20d","ios":"levelo://app?vid=3787a117-f847-42bd-8bf9-f03f679fa20d"},"vehicle_type_id":"4","last_reported":1781602954,"current_range_meters":4400,"station_id":"ce4bh692rcd13ifvqea0","pricing_plan_id":"cebpf4jnsgd1na2vs0mg"},{"bike_id":"ccff0d65-a8f7-44be-b82a-69dbb09dcdb7","system_id":"levelo_inurba_marseille","lat":43.29543,"lon":5.39382,"is_reserved":false,"is_disabled":true,"rental_uris":{"android":"levelo://app?vid=ccff0d65-a8f7-44be-b82a-69dbb09dcdb7","ios":"levelo://app?vid=ccff0d65-a8f7-44be-b82a-69dbb09dcdb7"},"vehicle_type_id":"4","last_reported":1781602954,"current_range_meters":4800,"station_id":"ce4bh292rcd13ifvqdf0","pricing_plan_id":"cebpf4jnsgd1na2vs0mg"},{"bike_id":"4599021c-30ad-4517-b8f7-7f87fe21393f","system_id":"levelo_inurba_marseille","lat":43.31498,"lon":5.40097,"is_reserved":false,"is_disabled":false,"rental_uris":{"android":"levelo://app?vid=4599021c-30ad-4517-b8f7-7f87fe21393f","ios":"levelo://app?vid=4599021c-30ad-4517-b8f7-7f87fe21393f"},"vehicle_type_id":"4","last_reported":1781602954,"current_range_meters":4800,"station_id":"","pricing_plan_id":"cebpf4jnsgd1na2vs0mg"},{"bike_id":"c91dbe3c-f9ab-4aa2-8d6c-ffc25383acc9","system_id":"levelo_inurba_marseille","lat":43.3136,"lon":5.36724,"is_reserved":false,"is_disabled":false,"rental_uris":{"android":"levelo://app?vid=c91dbe3c-f9ab-4aa2-8d6c-ffc25383acc9","ios":"levelo://app?vid=c91dbe3c-f9ab-4aa2-8d6c-ffc25383acc9"},"vehicle_type_id":"4","last_reported":1781602954,"current_range_meters":4800,"station_id":"ce4bgr92rcd13ifvqc6g","pricing_plan_id":"cebpf4jnsgd1na2vs0mg"},{"bike_id":"e1fd6749-46d4-4377-b27b-6a5e393d16ac","system_id":"levelo_inurba_marseille","lat":43.30596,"lon":5.39344,"is_reserved":false,"is_disabled":false,"rental_uris":{"android":"levelo://app?vid=e1fd6749-46d4-4377-b27b-6a5e393d16ac","ios":"levelo://app?vid=e1fd6749-46d4-4377-b27b-6a5e393d16ac"},"vehicle_type_id":"4","last_reported":1781602954,"current_range_meters":4800,"station_id":"ce4bh0p2rcd13ifvqd80","pricing_plan_id":"cebpf4jnsgd1na2vs0mg"},{"bike_id":"d1fe4607-d904-483c-ab68-d6487b306366","system_id":"levelo_inurba_marseille","lat":43.27211,"lon":5.39179,"is_reserved":false,"is_disabled":true,"rental_uris":{"android":"levelo://app?vid=d1fe4607-d904-483c-ab68-d6487b306366","ios":"levelo://app?vid=d1fe4607-d904-483c-ab68-d6487b306366"},"vehicle_type_id":"4","last_reported":1781602954,"current_range_meters":4800,"station_id":"ce4bhhp2rcd13ifvqfm0","pricing_plan_id":"cebpf4jnsgd1na2vs0mg"},{"bike_id":"f9ad348e-581c-4bfe-ae5c-69a0be30be7f","system_id":"levelo_inurba_marseille","lat":43.28453,"lon":5.37187,"is_reserved":false,"is_disabled":true,"rental_uris":{"android":"levelo://app?vid=f9ad348e-581c-4bfe-ae5c-69a0be30be7f","ios":"levelo://app?vid=f9ad348e-581c-4bfe-ae5c-69a0be30be7f"},"vehicle_type_id":"4","last_reported":1781602954,"current_range_meters":4800,"station_id":"","pricing_plan_id":"cebpf4jnsgd1na2vs0mg"},{"bike_id":"9496ec08-9cde-4cd1-8f24-e5874ffafbfe","system_id":"levelo_inurba_marseille","lat":43.30951,"lon":5.39021,"is_reserved":false,"is_disabled":false,"rental_uris":{"android":"levelo://app?vid=9496ec08-9cde-4cd1-8f24-e5874ffafbfe","ios":"levelo://app?vid=9496ec08-9cde-4cd1-8f24-e5874ffafbfe"},"vehicle_type_id":"4","last_reported":1781602954,"current_range_meters":4800,"station_id":"ce4bgup2rcd13ifvqco0","pricing_plan_id":"cebpf4jnsgd1na2vs0mg"},{"bike_id":"4da64aaa-07c6-4e3f-a981-6e55ac68ca8b","system_id":"levelo_inurba_marseille","lat":43.28135,"lon":5.38912,"is_reserved":false,"is_disabled":false,"rental_uris":{"android":"levelo://app?vid=4da64aaa-07c6-4e3f-a981-6e55ac68ca8b","ios":"levelo://app?vid=4da64aaa-07c6-4e3f-a981-6e55ac68ca8b"},"vehicle_type_id":"4","last_reported":1781602954,"current_range_meters":4800,"station_id":"","pricing_plan_id":"cebpf4jnsgd1na2vs0mg"},{"bike_id":"be5704b1-e64f-4576-bbc5-c2fe2d2d07d5","system_id":"levelo_inurba_marseille","lat":43.31336,"lon":5.36693,"is_reserved":false,"is_disabled":false,"rental_uris":{"android":"levelo://app?vid=be5704b1-e64f-4576-bbc5-c2fe2d2d07d5","ios":"levelo://app?vid=be5704b1-e64f-4576-bbc5-c2fe2d2d07d5"},"vehicle_type_id":"4","last_reported":1781602954,"current_range_meters":4800,"station_id":"ce4bgr92rcd13ifvqc6g","pricing_plan_id":"cebpf4jnsgd1na2vs0mg"},{"bike_id":"125eb084-6dc8-4e25-978e-20865ee4b171","system_id":"levelo_inurba_marseille","lat":43.27964,"lon":5.38694,"is_reserved":false,"is_disabled":false,"rental_uris":{"android":"levelo://app?vid=125eb084-6dc8-4e25-978e-20865ee4b171","ios":"levelo://app?vid=125eb084-6dc8-4e25-978e-20865ee4b171"},"vehicle_type_id":"4","last_reported":1781602954,"current_range_meters":4800,"station_id":"ce4bhg12rcd13ifvqf80","pricing_plan_id":"cebpf4jnsgd1na2vs0mg"},{"bike_id":"b4730d5c-df75-42d5-84ec-3d7263fb3091","system_id":"levelo_inurba_marseille","lat":43.22673,"lon":5.34795,"is_reserved":false,"is_disabled":false,"rental_uris":{"android":"levelo://app?vid=b4730d5c-df75-42d5-84ec-3d7263fb3091","ios":"levelo://app?vid=b4730d5c-df75-42d5-84ec-3d7263fb3091"},"vehicle_type_id":"4","last_reported":1781602954,"current_range_meters":5600,"station_id":"","pricing_plan_id":"cebpf4jnsgd1na2vs0mg"},{"bike_id":"a1821697-2b4c-487e-8864-601e3fd2c0ca","system_id":"levelo_inurba_marseille","lat":43.31316,"lon":5.36653,"is_reserved":false,"is_disabled":false,"rental_uris":{"android":"levelo://app?vid=a1821697-2b4c-487e-8864-601e3fd2c0ca","ios":"levelo://app?vid=a1821697-2b4c-487e-8864-601e3fd2c0ca"},"vehicle_type_id":"4","last_reported":1781602954,"current_range_meters":5600,"station_id":"","pricing_plan_id":"cebpf4jnsgd1na2vs0mg"},{"bike_id":"92132944-91e0-4e0a-8448-3f1a1dc8d8c9","system_id":"levelo_inurba_marseille","lat":43.32518,"lon":5.38358,"is_reserved":false,"is_disabled":false,"rental_uris":{"android":"levelo://app?vid=92132944-91e0-4e0a-8448-3f1a1dc8d8c9","ios":"levelo://app?vid=92132944-91e0-4e0a-8448-3f1a1dc8d8c9"},"vehicle_type_id":"4","last_reported":1781602954,"current_range_meters":5600,"station_id":"","pricing_plan_id":"cebpf4jnsgd1na2vs0mg"},{"bike_id":"2b566560-50ab-4000-a53b-95e4a9144c82","system_id":"levelo_inurba_marseille","lat":43.316875,"lon":5.404754,"is_reserved":false,"is_disabled":false,"rental_uris":{"android":"levelo://app?vid=2b566560-50ab-4000-a53b-95e4a9144c82","ios":"levelo://app?vid=2b566560-50ab-4000-a53b-95e4a9144c82"},"vehicle_type_id":"4","last_reported":1781602954,"current_range_meters":5600,"station_id":"ce4bh012rcd13ifvqd00","pricing_plan_id":"cebpf4jnsgd1na2vs0mg"},{"bike_id":"a4bbebc0-9eaf-4b8d-85e0-6a168e141b9a","system_id":"levelo_inurba_marseille","lat":43.25939,"lon":5.4089,"is_reserved":false,"is_disabled":false,"rental_uris":{"android":"levelo://app?vid=a4bbebc0-9eaf-4b8d-85e0-6a168e141b9a","ios":"levelo://app?vid=a4bbebc0-9eaf-4b8d-85e0-6a168e141b9a"},"vehicle_type_id":"4","last_reported":1781602954,"current_range_meters":5600,"station_id":"ce4bhm92rcd13ifvqglg","pricing_plan_id":"cebpf4jnsgd1na2vs0mg"},{"bike_id":"8ac4c1f7-a708-4f96-b505-f368096cff26","system_id":"levelo_inurba_marseille","lat":43.24395,"lon":5.37049,"is_reserved":false,"is_disabled":false,"rental_uris":{"android":"levelo://app?vid=8ac4c1f7-a708-4f96-b505-f368096cff26","ios":"levelo://app?vid=8ac4c1f7-a708-4f96-b505-f368096cff26"},"vehicle_type_id":"4","last_reported":1781602954,"current_range_meters":5600,"station_id":"ce4bhhh2rcd13ifvqfk0","pricing_plan_id":"cebpf4jnsgd1na2vs0mg"},{"bike_id":"0ceb1a88-06f0-4e74-a9d4-f18c45323995","system_id":"levelo_inurba_marseille","lat":43.299,"lon":5.37461,"is_reserved":false,"is_disabled":false,"rental_uris":{"android":"levelo://app?vid=0ceb1a88-06f0-4e74-a9d4-f18c45323995","ios":"levelo://app?vid=0ceb1a88-06f0-4e74-a9d4-f18c45323995"},"vehicle_type_id":"4","last_reported":1781602954,"current_range_meters":5600,"station_id":"ce4bgjh2rcd13ifvqbg0","pricing_plan_id":"cebpf4jnsgd1na2vs0mg"},{"bike_id":"5ba5ca3b-373f-47a4-8ede-22d92aac3721","system_id":"levelo_inurba_marseille","lat":43.28941,"lon":5.36392,"is_reserved":false,"is_disabled":true,"rental_uris":{"android":"levelo://app?vid=5ba5ca3b-373f-47a4-8ede-22d92aac3721","ios":"levelo://app?vid=5ba5ca3b-373f-47a4-8ede-22d92aac3721"},"vehicle_type_id":"4","last_reported":1781602954,"current_range_meters":5600,"station_id":"ce4bhc92rcd13ifvqetg","pricing_plan_id":"cebpf4jnsgd1na2vs0mg"},{"bike_id":"58928b62-b7f2-45cf-b6f2-4dc4c39c7722","system_id":"levelo_inurba_marseille","lat":43.295897,"lon":5.385462,"is_reserved":false,"is_disabled":false,"rental_uris":{"android":"levelo://app?vid=58928b62-b7f2-45cf-b6f2-4dc4c39c7722","ios":"levelo://app?vid=58928b62-b7f2-45cf-b6f2-4dc4c39c7722"},"vehicle_type_id":"4","last_reported":1781602954,"current_range_meters":5600,"station_id":"","pricing_plan_id":"cebpf4jnsgd1na2vs0mg"},{"bike_id":"fc330720-30fd-4948-9971-1a95a83d03fc","system_id":"levelo_inurba_marseille","lat":43.27951,"lon":5.41038,"is_reserved":false,"is_disabled":false,"rental_uris":{"android":"levelo://app?vid=fc330720-30fd-4948-9971-1a95a83d03fc","ios":"levelo://app?vid=fc330720-30fd-4948-9971-1a95a83d03fc"},"vehicle_type_id":"4","last_reported":1781602954,"current_range_meters":5600,"station_id":"ce4bhnp2rcd13ifvqh0g","pricing_plan_id":"cebpf4jnsgd1na2vs0mg"},{"bike_id":"85c13243-7921-4bc5-aeeb-8615f18e1cbd","system_id":"levelo_inurba_marseille","lat":43.26395,"lon":5.4105,"is_reserved":false,"is_disabled":true,"rental_uris":{"android":"levelo://app?vid=85c13243-7921-4bc5-aeeb-8615f18e1cbd","ios":"levelo://app?vid=85c13243-7921-4bc5-aeeb-8615f18e1cbd"},"vehicle_type_id":"4","last_reported":1781602954,"current_range_meters":5600,"station_id":"st_d4e5ca6na9uc73bfl5fg","pricing_plan_id":"cebpf4jnsgd1na2vs0mg"},{"bike_id":"e19a2b9d-c42d-4230-8c63-3a57ee9f732d","system_id":"levelo_inurba_marseille","lat":43.28476,"lon":5.48388,"is_reserved":false,"is_disabled":false,"rental_uris":{"android":"levelo://app?vid=e19a2b9d-c42d-4230-8c63-3a57ee9f732d","ios":"levelo://app?vid=e19a2b9d-c42d-4230-8c63-3a57ee9f732d"},"vehicle_type_id":"4","last_reported":1781602954,"current_range_meters":5600,"station_id":"st_d3svhcjqgbts73a3dn0g","pricing_plan_id":"cebpf4jnsgd1na2vs0mg"},{"bike_id":"70b3318a-59c1-4a72-8c49-58fa39dd4268","system_id":"levelo_inurba_marseille","lat":43.30947,"lon":5.39022,"is_reserved":false,"is_disabled":false,"rental_uris":{"android":"levelo://app?vid=70b3318a-59c1-4a72-8c49-58fa39dd4268","ios":"levelo://app?vid=70b3318a-59c1-4a72-8c49-58fa39dd4268"},"vehicle_type_id":"4","last_reported":1781602954,"current_range_meters":5600,"station_id":"ce4bgup2rcd13ifvqco0","pricing_plan_id":"cebpf4jnsgd1na2vs0mg"},{"bike_id":"25320842-e1ee-4c5b-a31a-923fd511bc2c","system_id":"levelo_inurba_marseille","lat":43.28353,"lon":5.38625,"is_reserved":false,"is_disabled":false,"rental_uris":{"android":"levelo://app?vid=25320842-e1ee-4c5b-a31a-923fd511bc2c","ios":"levelo://app?vid=25320842-e1ee-4c5b-a31a-923fd511bc2c"},"vehicle_type_id":"4","last_reported":1781602954,"current_range_meters":5600,"station_id":"ce4bh492rcd13ifvqdvg","pricing_plan_id":"cebpf4jnsgd1na2vs0mg"},{"bike_id":"37086bdb-0b16-420e-a396-3a7db4249bc8","system_id":"levelo_inurba_marseille","lat":43.23357,"lon":5.43596,"is_reserved":false,"is_disabled":false,"rental_uris":{"android":"levelo://app?vid=37086bdb-0b16-420e-a396-3a7db4249bc8","ios":"levelo://app?vid=37086bdb-0b16-420e-a396-3a7db4249bc8"},"vehicle_type_id":"4","last_reported":1781602954,"current_range_meters":5600,"station_id":"","pricing_plan_id":"cebpf4jnsgd1na2vs0mg"},{"bike_id":"b036162c-184b-47b0-b9b2-a69688b907c3","system_id":"levelo_inurba_marseille","lat":43.29772,"lon":5.36743,"is_reserved":false,"is_disabled":false,"rental_uris":{"android":"levelo://app?vid=b036162c-184b-47b0-b9b2-a69688b907c3","ios":"levelo://app?vid=b036162c-184b-47b0-b9b2-a69688b907c3"},"vehicle_type_id":"4","last_reported":1781602954,"current_range_meters":5600,"station_id":"","pricing_plan_id":"cebpf4jnsgd1na2vs0mg"},{"bike_id":"240167fb-b755-4212-a8c1-7b594473940c","system_id":"levelo_inurba_marseille","lat":43.23769,"lon":5.36625,"is_reserved":false,"is_disabled":false,"rental_uris":{"android":"levelo://app?vid=240167fb-b755-4212-a8c1-7b594473940c","ios":"levelo://app?vid=240167fb-b755-4212-a8c1-7b594473940c"},"vehicle_type_id":"4","last_reported":1781602954,"current_range_meters":5600,"station_id":"st_d3nk18o9ro0c73en2l3g","pricing_plan_id":"cebpf4jnsgd1na2vs0mg"},{"bike_id":"79e5bca5-d693-456e-ba14-68440c5de768","system_id":"levelo_inurba_marseille","lat":43.28159,"lon":5.40079,"is_reserved":false,"is_disabled":false,"rental_uris":{"android":"levelo://app?vid=79e5bca5-d693-456e-ba14-68440c5de768","ios":"levelo://app?vid=79e5bca5-d693-456e-ba14-68440c5de768"},"vehicle_type_id":"4","last_reported":1781602954,"current_range_meters":5600,"station_id":"","pricing_plan_id":"cebpf4jnsgd1na2vs0mg"},{"bike_id":"86ee25b2-2f21-424f-9c42-98211711660b","system_id":"levelo_inurba_marseille","lat":43.23974,"lon":5.36612,"is_reserved":false,"is_disabled":false,"rental_uris":{"android":"levelo://app?vid=86ee25b2-2f21-424f-9c42-98211711660b","ios":"levelo://app?vid=86ee25b2-2f21-424f-9c42-98211711660b"},"vehicle_type_id":"4","last_reported":1781602954,"current_range_meters":6000,"station_id":"ce4bhi12rcd13ifvqfp0","pricing_plan_id":"cebpf4jnsgd1na2vs0mg"},{"bike_id":"6ece36cf-6929-4dff-95a4-0da954ae57c0","system_id":"levelo_inurba_marseille","lat":43.29678,"lon":5.37721,"is_reserved":false,"is_disabled":false,"rental_uris":{"android":"levelo://app?vid=6ece36cf-6929-4dff-95a4-0da954ae57c0","ios":"levelo://app?vid=6ece36cf-6929-4dff-95a4-0da954ae57c0"},"vehicle_type_id":"4","last_reported":1781602954,"current_range_meters":6000,"station_id":"ce4bgkh2rcd13ifvqbl0","pricing_plan_id":"cebpf4jnsgd1na2vs0mg"},{"bike_id":"cfd6030a-67d9-4620-83d0-1ab92a24ede3","system_id":"levelo_inurba_marseille","lat":43.27497,"lon":5.41576,"is_reserved":false,"is_disabled":false,"rental_uris":{"android":"levelo://app?vid=cfd6030a-67d9-4620-83d0-1ab92a24ede3","ios":"levelo://app?vid=cfd6030a-67d9-4620-83d0-1ab92a24ede3"},"vehicle_type_id":"4","last_reported":1781602954,"current_range_meters":6000,"station_id":"st_d6im8g6chgec73a5pndg","pricing_plan_id":"cebpf4jnsgd1na2vs0mg"},{"bike_id":"596ce3b1-87f7-408e-8d07-41f96804a7ec","system_id":"levelo_inurba_marseille","lat":43.24549,"lon":5.41163,"is_reserved":false,"is_disabled":true,"rental_uris":{"android":"levelo://app?vid=596ce3b1-87f7-408e-8d07-41f96804a7ec","ios":"levelo://app?vid=596ce3b1-87f7-408e-8d07-41f96804a7ec"},"vehicle_type_id":"4","last_reported":1781602954,"current_range_meters":6000,"station_id":"","pricing_plan_id":"cebpf4jnsgd1na2vs0mg"},{"bike_id":"652501cd-58a0-40ec-8409-d9ad72f51281","system_id":"levelo_inurba_marseille","lat":43.30793,"lon":5.37656,"is_reserved":false,"is_disabled":true,"rental_uris":{"android":"levelo://app?vid=652501cd-58a0-40ec-8409-d9ad72f51281","ios":"levelo://app?vid=652501cd-58a0-40ec-8409-d9ad72f51281"},"vehicle_type_id":"4","last_reported":1781602954,"current_range_meters":6000,"station_id":"ce4bgv92rcd13ifvqcq0","pricing_plan_id":"cebpf4jnsgd1na2vs0mg"},{"bike_id":"c8358c4f-314d-41c2-9d70-c9dd28e7c16d","system_id":"levelo_inurba_marseille","lat":43.33153,"lon":5.37936,"is_reserved":false,"is_disabled":false,"rental_uris":{"android":"levelo://app?vid=c8358c4f-314d-41c2-9d70-c9dd28e7c16d","ios":"levelo://app?vid=c8358c4f-314d-41c2-9d70-c9dd28e7c16d"},"vehicle_type_id":"4","last_reported":1781602954,"current_range_meters":6000,"station_id":"","pricing_plan_id":"cebpf4jnsgd1na2vs0mg"},{"bike_id":"0664e133-7b00-41bb-8bd6-5fd89c6bf821","system_id":"levelo_inurba_marseille","lat":43.27715,"lon":5.39567,"is_reserved":false,"is_disabled":false,"rental_uris":{"android":"levelo://app?vid=0664e133-7b00-41bb-8bd6-5fd89c6bf821","ios":"levelo://app?vid=0664e133-7b00-41bb-8bd6-5fd89c6bf821"},"vehicle_type_id":"4","last_reported":1781602954,"current_range_meters":6000,"station_id":"","pricing_plan_id":"cebpf4jnsgd1na2vs0mg"},{"bike_id":"8c986069-cdd5-410c-97d1-d4a610b76b92","system_id":"levelo_inurba_marseille","lat":43.26203,"lon":5.37447,"is_reserved":false,"is_disabled":false,"rental_uris":{"android":"levelo://app?vid=8c986069-cdd5-410c-97d1-d4a610b76b92","ios":"levelo://app?vid=8c986069-cdd5-410c-97d1-d4a610b76b92"},"vehicle_type_id":"4","last_reported":1781602954,"current_range_meters":6000,"station_id":"ce4bhgp2rcd13ifvqfc0","pricing_plan_id":"cebpf4jnsgd1na2vs0mg"},{"bike_id":"1e805f45-94b9-4d5c-8991-1a4dce4a5839","system_id":"levelo_inurba_marseille","lat":43.24713,"lon":5.39501,"is_reserved":false,"is_disabled":false,"rental_uris":{"android":"levelo://app?vid=1e805f45-94b9-4d5c-8991-1a4dce4a5839","ios":"levelo://app?vid=1e805f45-94b9-4d5c-8991-1a4dce4a5839"},"vehicle_type_id":"4","last_reported":1781602954,"current_range_meters":6000,"station_id":"","pricing_plan_id":"cebpf4jnsgd1na2vs0mg"},{"bike_id":"ba64b955-0d73-4058-8738-77a03cf2dc7a","system_id":"levelo_inurba_marseille","lat":43.22564,"lon":5.41623,"is_reserved":false,"is_disabled":false,"rental_uris":{"android":"levelo://app?vid=ba64b955-0d73-4058-8738-77a03cf2dc7a","ios":"levelo://app?vid=ba64b955-0d73-4058-8738-77a03cf2dc7a"},"vehicle_type_id":"4","last_reported":1781602954,"current_range_meters":6000,"station_id":"st_d2o4gvlbi1j2169b742g","pricing_plan_id":"cebpf4jnsgd1na2vs0mg"},{"bike_id":"bfa11232-ff3a-46db-9c7d-736ea0f00092","system_id":"levelo_inurba_marseille","lat":43.28615,"lon":5.35091,"is_reserved":false,"is_disabled":false,"rental_uris":{"android":"levelo://app?vid=bfa11232-ff3a-46db-9c7d-736ea0f00092","ios":"levelo://app?vid=bfa11232-ff3a-46db-9c7d-736ea0f00092"},"vehicle_type_id":"4","last_reported":1781602954,"current_range_meters":6000,"station_id":"ce4bhch2rcd13ifvqeug","pricing_plan_id":"cebpf4jnsgd1na2vs0mg"},{"bike_id":"552bd980-f5a7-4c04-b35c-da4d40bdd299","system_id":"levelo_inurba_marseille","lat":43.28695,"lon":5.46675,"is_reserved":false,"is_disabled":false,"rental_uris":{"android":"levelo://app?vid=552bd980-f5a7-4c04-b35c-da4d40bdd299","ios":"levelo://app?vid=552bd980-f5a7-4c04-b35c-da4d40bdd299"},"vehicle_type_id":"4","last_reported":1781602954,"current_range_meters":6000,"station_id":"st_d6tc3vkotcvc738tfjhg","pricing_plan_id":"cebpf4jnsgd1na2vs0mg"},{"bike_id":"d5508669-6646-45f6-9fa1-a09fb472fd0b","system_id":"levelo_inurba_marseille","lat":43.29183,"lon":5.39292,"is_reserved":false,"is_disabled":true,"rental_uris":{"android":"levelo://app?vid=d5508669-6646-45f6-9fa1-a09fb472fd0b","ios":"levelo://app?vid=d5508669-6646-45f6-9fa1-a09fb472fd0b"},"vehicle_type_id":"4","last_reported":1781602954,"current_range_meters":6000,"station_id":"ce4bh192rcd13ifvqdd0","pricing_plan_id":"cebpf4jnsgd1na2vs0mg"},{"bike_id":"db9f8069-11de-48e2-9bee-2dcfc7c1fc26","system_id":"levelo_inurba_marseille","lat":43.29238,"lon":5.40891,"is_reserved":false,"is_disabled":false,"rental_uris":{"android":"levelo://app?vid=db9f8069-11de-48e2-9bee-2dcfc7c1fc26","ios":"levelo://app?vid=db9f8069-11de-48e2-9bee-2dcfc7c1fc26"},"vehicle_type_id":"4","last_reported":1781602954,"current_range_meters":6000,"station_id":"ce4bh192rcd13ifvqdc0","pricing_plan_id":"cebpf4jnsgd1na2vs0mg"},{"bike_id":"0cca5a1f-7507-49f7-9791-cbaeb1832311","system_id":"levelo_inurba_marseille","lat":43.24476,"lon":5.43965,"is_reserved":false,"is_disabled":false,"rental_uris":{"android":"levelo://app?vid=0cca5a1f-7507-49f7-9791-cbaeb1832311","ios":"levelo://app?vid=0cca5a1f-7507-49f7-9791-cbaeb1832311"},"vehicle_type_id":"4","last_reported":1781602954,"current_range_meters":6000,"station_id":"","pricing_plan_id":"cebpf4jnsgd1na2vs0mg"},{"bike_id":"a35fbb15-8a44-413c-912d-979926691e55","system_id":"levelo_inurba_marseille","lat":43.31243,"lon":5.3684,"is_reserved":false,"is_disabled":false,"rental_uris":{"android":"levelo://app?vid=a35fbb15-8a44-413c-912d-979926691e55","ios":"levelo://app?vid=a35fbb15-8a44-413c-912d-979926691e55"},"vehicle_type_id":"4","last_reported":1781602954,"current_range_meters":6000,"station_id":"ce4bgl92rcd13ifvqbq0","pricing_plan_id":"cebpf4jnsgd1na2vs0mg"},{"bike_id":"df6a8f78-ee7d-4db1-9811-03e57c820235","system_id":"levelo_inurba_marseille","lat":43.31242,"lon":5.36855,"is_reserved":false,"is_disabled":true,"rental_uris":{"android":"levelo://app?vid=df6a8f78-ee7d-4db1-9811-03e57c820235","ios":"levelo://app?vid=df6a8f78-ee7d-4db1-9811-03e57c820235"},"vehicle_type_id":"4","last_reported":1781602954,"current_range_meters":6000,"station_id":"ce4bgl92rcd13ifvqbq0","pricing_plan_id":"cebpf4jnsgd1na2vs0mg"},{"bike_id":"ee17339f-9a50-4499-a870-3575b6ddb9df","system_id":"levelo_inurba_marseille","lat":43.28471,"lon":5.48391,"is_reserved":false,"is_disabled":false,"rental_uris":{"android":"levelo://app?vid=ee17339f-9a50-4499-a870-3575b6ddb9df","ios":"levelo://app?vid=ee17339f-9a50-4499-a870-3575b6ddb9df"},"vehicle_type_id":"4","last_reported":1781602954,"current_range_meters":6000,"station_id":"st_d3svhcjqgbts73a3dn0g","pricing_plan_id":"cebpf4jnsgd1na2vs0mg"},{"bike_id":"644eacd3-fcd1-49d3-9e60-c79490364449","system_id":"levelo_inurba_marseille","lat":43.32752,"lon":5.40129,"is_reserved":false,"is_disabled":false,"rental_uris":{"android":"levelo://app?vid=644eacd3-fcd1-49d3-9e60-c79490364449","ios":"levelo://app?vid=644eacd3-fcd1-49d3-9e60-c79490364449"},"vehicle_type_id":"4","last_reported":1781602954,"current_range_meters":6000,"station_id":"","pricing_plan_id":"cebpf4jnsgd1na2vs0mg"},{"bike_id":"942fed82-ab6c-4dad-9fbf-1cda3643ff2f","system_id":"levelo_inurba_marseille","lat":43.25078,"lon":5.39518,"is_reserved":false,"is_disabled":false,"rental_uris":{"android":"levelo://app?vid=942fed82-ab6c-4dad-9fbf-1cda3643ff2f","ios":"levelo://app?vid=942fed82-ab6c-4dad-9fbf-1cda3643ff2f"},"vehicle_type_id":"4","last_reported":1781602954,"current_range_meters":6000,"station_id":"ce4bhm12rcd13ifvqgkg","pricing_plan_id":"cebpf4jnsgd1na2vs0mg"},{"bike_id":"a54e977a-de8c-442b-9ae0-24b59a8df7c4","system_id":"levelo_inurba_marseille","lat":43.2732,"lon":5.39102,"is_reserved":false,"is_disabled":false,"rental_uris":{"android":"levelo://app?vid=a54e977a-de8c-442b-9ae0-24b59a8df7c4","ios":"levelo://app?vid=a54e977a-de8c-442b-9ae0-24b59a8df7c4"},"vehicle_type_id":"4","last_reported":1781602954,"current_range_meters":6000,"station_id":"ce4bhgp2rcd13ifvqfe0","pricing_plan_id":"cebpf4jnsgd1na2vs0mg"},{"bike_id":"51f745fa-3c53-461d-b870-31922a948693","system_id":"levelo_inurba_marseille","lat":43.23175,"lon":5.40482,"is_reserved":false,"is_disabled":false,"rental_uris":{"android":"levelo://app?vid=51f745fa-3c53-461d-b870-31922a948693","ios":"levelo://app?vid=51f745fa-3c53-461d-b870-31922a948693"},"vehicle_type_id":"4","last_reported":1781602954,"current_range_meters":6000,"station_id":"","pricing_plan_id":"cebpf4jnsgd1na2vs0mg"},{"bike_id":"46545e80-77f6-4a7e-b78d-8c58ea9fe0f9","system_id":"levelo_inurba_marseille","lat":43.32493,"lon":5.36553,"is_reserved":false,"is_disabled":false,"rental_uris":{"android":"levelo://app?vid=46545e80-77f6-4a7e-b78d-8c58ea9fe0f9","ios":"levelo://app?vid=46545e80-77f6-4a7e-b78d-8c58ea9fe0f9"},"vehicle_type_id":"4","last_reported":1781602954,"current_range_meters":6000,"station_id":"ce4bhs12rcd13ifvqhvg","pricing_plan_id":"cebpf4jnsgd1na2vs0mg"},{"bike_id":"cbebc6ee-f2ad-49d7-856d-25be310145af","system_id":"levelo_inurba_marseille","lat":43.29518,"lon":5.393994,"is_reserved":false,"is_disabled":true,"rental_uris":{"android":"levelo://app?vid=cbebc6ee-f2ad-49d7-856d-25be310145af","ios":"levelo://app?vid=cbebc6ee-f2ad-49d7-856d-25be310145af"},"vehicle_type_id":"4","last_reported":1781602954,"current_range_meters":6400,"station_id":"","pricing_plan_id":"cebpf4jnsgd1na2vs0mg"},{"bike_id":"3ab7283d-633d-42fc-b5ac-58fde1581d89","system_id":"levelo_inurba_marseille","lat":43.30951,"lon":5.39028,"is_reserved":false,"is_disabled":false,"rental_uris":{"android":"levelo://app?vid=3ab7283d-633d-42fc-b5ac-58fde1581d89","ios":"levelo://app?vid=3ab7283d-633d-42fc-b5ac-58fde1581d89"},"vehicle_type_id":"4","last_reported":1781602954,"current_range_meters":6400,"station_id":"ce4bgup2rcd13ifvqco0","pricing_plan_id":"cebpf4jnsgd1na2vs0mg"},{"bike_id":"e7f928ce-84e3-4468-ad33-6c5f64fcae6b","system_id":"levelo_inurba_marseille","lat":43.30153,"lon":5.3808,"is_reserved":false,"is_disabled":false,"rental_uris":{"android":"levelo://app?vid=e7f928ce-84e3-4468-ad33-6c5f64fcae6b","ios":"levelo://app?vid=e7f928ce-84e3-4468-ad33-6c5f64fcae6b"},"vehicle_type_id":"4","last_reported":1781602954,"current_range_meters":6400,"station_id":"ce4bgjp2rcd13ifvqbh0","pricing_plan_id":"cebpf4jnsgd1na2vs0mg"},{"bike_id":"667daf79-e1dd-4c3d-9a8e-d3556ed06539","system_id":"levelo_inurba_marseille","lat":43.25592,"lon":5.38208,"is_reserved":false,"is_disabled":false,"rental_uris":{"android":"levelo://app?vid=667daf79-e1dd-4c3d-9a8e-d3556ed06539","ios":"levelo://app?vid=667daf79-e1dd-4c3d-9a8e-d3556ed06539"},"vehicle_type_id":"4","last_reported":1781602954,"current_range_meters":6400,"station_id":"ce4bhih2rcd13ifvqfs0","pricing_plan_id":"cebpf4jnsgd1na2vs0mg"},{"bike_id":"568ce52c-f1df-4765-9ffa-409aa8f5d572","system_id":"levelo_inurba_marseille","lat":43.27313,"lon":5.39065,"is_reserved":false,"is_disabled":false,"rental_uris":{"android":"levelo://app?vid=568ce52c-f1df-4765-9ffa-409aa8f5d572","ios":"levelo://app?vid=568ce52c-f1df-4765-9ffa-409aa8f5d572"},"vehicle_type_id":"4","last_reported":1781602954,"current_range_meters":6400,"station_id":"ce4bhgp2rcd13ifvqfe0","pricing_plan_id":"cebpf4jnsgd1na2vs0mg"},{"bike_id":"57b07549-a96e-4ec6-b0fa-6b611c6ad420","system_id":"levelo_inurba_marseille","lat":43.32126,"lon":5.36787,"is_reserved":false,"is_disabled":false,"rental_uris":{"android":"levelo://app?vid=57b07549-a96e-4ec6-b0fa-6b611c6ad420","ios":"levelo://app?vid=57b07549-a96e-4ec6-b0fa-6b611c6ad420"},"vehicle_type_id":"4","last_reported":1781602954,"current_range_meters":6400,"station_id":"ce4bhrh2rcd13ifvqhug","pricing_plan_id":"cebpf4jnsgd1na2vs0mg"},{"bike_id":"50a4ac47-4426-4904-9e85-894204c1b3e6","system_id":"levelo_inurba_marseille","lat":43.26948,"lon":5.38921,"is_reserved":false,"is_disabled":false,"rental_uris":{"android":"levelo://app?vid=50a4ac47-4426-4904-9e85-894204c1b3e6","ios":"levelo://app?vid=50a4ac47-4426-4904-9e85-894204c1b3e6"},"vehicle_type_id":"4","last_reported":1781602954,"current_range_meters":6400,"station_id":"ce4bhhh2rcd13ifvqfl0","pricing_plan_id":"cebpf4jnsgd1na2vs0mg"},{"bike_id":"b59679c1-abb9-4906-99a7-ad663d81747b","system_id":"levelo_inurba_marseille","lat":43.29552,"lon":5.37493,"is_reserved":false,"is_disabled":false,"rental_uris":{"android":"levelo://app?vid=b59679c1-abb9-4906-99a7-ad663d81747b","ios":"levelo://app?vid=b59679c1-abb9-4906-99a7-ad663d81747b"},"vehicle_type_id":"4","last_reported":1781602954,"current_range_meters":6400,"station_id":"ce4bgkp2rcd13ifvqbmg","pricing_plan_id":"cebpf4jnsgd1na2vs0mg"},{"bike_id":"550ac519-8f9f-42df-9359-f24aa7253342","system_id":"levelo_inurba_marseille","lat":43.25052,"lon":5.39538,"is_reserved":false,"is_disabled":false,"rental_uris":{"android":"levelo://app?vid=550ac519-8f9f-42df-9359-f24aa7253342","ios":"levelo://app?vid=550ac519-8f9f-42df-9359-f24aa7253342"},"vehicle_type_id":"4","last_reported":1781602954,"current_range_meters":6400,"station_id":"","pricing_plan_id":"cebpf4jnsgd1na2vs0mg"},{"bike_id":"1176e056-508b-4f45-9139-b6c669b5ab65","system_id":"levelo_inurba_marseille","lat":43.28478,"lon":5.48386,"is_reserved":false,"is_disabled":false,"rental_uris":{"android":"levelo://app?vid=1176e056-508b-4f45-9139-b6c669b5ab65","ios":"levelo://app?vid=1176e056-508b-4f45-9139-b6c669b5ab65"},"vehicle_type_id":"4","last_reported":1781602954,"current_range_meters":6400,"station_id":"st_d3svhcjqgbts73a3dn0g","pricing_plan_id":"cebpf4jnsgd1na2vs0mg"},{"bike_id":"e31dd6f2-2785-4104-b252-718b5551c705","system_id":"levelo_inurba_marseille","lat":43.243911,"lon":5.370595,"is_reserved":false,"is_disabled":false,"rental_uris":{"android":"levelo://app?vid=e31dd6f2-2785-4104-b252-718b5551c705","ios":"levelo://app?vid=e31dd6f2-2785-4104-b252-718b5551c705"},"vehicle_type_id":"4","last_reported":1781602954,"current_range_meters":6400,"station_id":"ce4bhhh2rcd13ifvqfk0","pricing_plan_id":"cebpf4jnsgd1na2vs0mg"},{"bike_id":"e647adbe-f981-4425-8c94-31181ffb77ee","system_id":"levelo_inurba_marseille","lat":43.28682,"lon":5.40002,"is_reserved":false,"is_disabled":false,"rental_uris":{"android":"levelo://app?vid=e647adbe-f981-4425-8c94-31181ffb77ee","ios":"levelo://app?vid=e647adbe-f981-4425-8c94-31181ffb77ee"},"vehicle_type_id":"4","last_reported":1781602954,"current_range_meters":6400,"station_id":"ce4bho92rcd13ifvqh3g","pricing_plan_id":"cebpf4jnsgd1na2vs0mg"},{"bike_id":"7c03db94-6fe3-4182-abc9-1f74746d5fbd","system_id":"levelo_inurba_marseille","lat":43.30468,"lon":5.37894,"is_reserved":false,"is_disabled":true,"rental_uris":{"android":"levelo://app?vid=7c03db94-6fe3-4182-abc9-1f74746d5fbd","ios":"levelo://app?vid=7c03db94-6fe3-4182-abc9-1f74746d5fbd"},"vehicle_type_id":"4","last_reported":1781602954,"current_range_meters":6400,"station_id":"ce4bgup2rcd13ifvqcn0","pricing_plan_id":"cebpf4jnsgd1na2vs0mg"},{"bike_id":"ee0883a1-5dfb-42b3-9a96-0c329037fb17","system_id":"levelo_inurba_marseille","lat":43.26212,"lon":5.37438,"is_reserved":false,"is_disabled":false,"rental_uris":{"android":"levelo://app?vid=ee0883a1-5dfb-42b3-9a96-0c329037fb17","ios":"levelo://app?vid=ee0883a1-5dfb-42b3-9a96-0c329037fb17"},"vehicle_type_id":"4","last_reported":1781602954,"current_range_meters":6400,"station_id":"ce4bhgp2rcd13ifvqfc0","pricing_plan_id":"cebpf4jnsgd1na2vs0mg"},{"bike_id":"07b5b769-6460-4f1b-8bc5-605e5ec4fd02","system_id":"levelo_inurba_marseille","lat":43.30559,"lon":5.36524,"is_reserved":false,"is_disabled":false,"rental_uris":{"android":"levelo://app?vid=07b5b769-6460-4f1b-8bc5-605e5ec4fd02","ios":"levelo://app?vid=07b5b769-6460-4f1b-8bc5-605e5ec4fd02"},"vehicle_type_id":"4","last_reported":1781602954,"current_range_meters":6400,"station_id":"ce4bgs12rcd13ifvqcag","pricing_plan_id":"cebpf4jnsgd1na2vs0mg"},{"bike_id":"fbcae408-5e0b-477b-82b0-a7b83c0223a6","system_id":"levelo_inurba_marseille","lat":43.25583,"lon":5.38215,"is_reserved":false,"is_disabled":false,"rental_uris":{"android":"levelo://app?vid=fbcae408-5e0b-477b-82b0-a7b83c0223a6","ios":"levelo://app?vid=fbcae408-5e0b-477b-82b0-a7b83c0223a6"},"vehicle_type_id":"4","last_reported":1781602954,"current_range_meters":6800,"station_id":"ce4bhih2rcd13ifvqfs0","pricing_plan_id":"cebpf4jnsgd1na2vs0mg"},{"bike_id":"5c84af3f-18a3-4867-8dc3-b8e76a3c2346","system_id":"levelo_inurba_marseille","lat":43.26924,"lon":5.38658,"is_reserved":false,"is_disabled":true,"rental_uris":{"android":"levelo://app?vid=5c84af3f-18a3-4867-8dc3-b8e76a3c2346","ios":"levelo://app?vid=5c84af3f-18a3-4867-8dc3-b8e76a3c2346"},"vehicle_type_id":"4","last_reported":1781602954,"current_range_meters":6800,"station_id":"ce4bhh92rcd13ifvqfh0","pricing_plan_id":"cebpf4jnsgd1na2vs0mg"},{"bike_id":"652ad637-1471-4e30-b9a2-0525a87c5327","system_id":"levelo_inurba_marseille","lat":43.29263,"lon":5.37605,"is_reserved":false,"is_disabled":false,"rental_uris":{"android":"levelo://app?vid=652ad637-1471-4e30-b9a2-0525a87c5327","ios":"levelo://app?vid=652ad637-1471-4e30-b9a2-0525a87c5327"},"vehicle_type_id":"4","last_reported":1781602954,"current_range_meters":6800,"station_id":"ce4bgi12rcd13ifvqb80","pricing_plan_id":"cebpf4jnsgd1na2vs0mg"},{"bike_id":"3f1e297d-55bd-4cd9-bf63-bfc3f5a86811","system_id":"levelo_inurba_marseille","lat":43.29998,"lon":5.3787,"is_reserved":false,"is_disabled":false,"rental_uris":{"android":"levelo://app?vid=3f1e297d-55bd-4cd9-bf63-bfc3f5a86811","ios":"levelo://app?vid=3f1e297d-55bd-4cd9-bf63-bfc3f5a86811"},"vehicle_type_id":"4","last_reported":1781602954,"current_range_meters":6800,"station_id":"","pricing_plan_id":"cebpf4jnsgd1na2vs0mg"},{"bike_id":"31c504f7-a794-4699-a565-63192e74d9e8","system_id":"levelo_inurba_marseille","lat":43.299066,"lon":5.381389,"is_reserved":false,"is_disabled":false,"rental_uris":{"android":"levelo://app?vid=31c504f7-a794-4699-a565-63192e74d9e8","ios":"levelo://app?vid=31c504f7-a794-4699-a565-63192e74d9e8"},"vehicle_type_id":"4","last_reported":1781602954,"current_range_meters":6800,"station_id":"ce4bgj12rcd13ifvqbc0","pricing_plan_id":"cebpf4jnsgd1na2vs0mg"},{"bike_id":"d43ce9bb-e4a0-42c5-9ab9-67b57dd5e145","system_id":"levelo_inurba_marseille","lat":43.30433,"lon":5.38876,"is_reserved":false,"is_disabled":false,"rental_uris":{"android":"levelo://app?vid=d43ce9bb-e4a0-42c5-9ab9-67b57dd5e145","ios":"levelo://app?vid=d43ce9bb-e4a0-42c5-9ab9-67b57dd5e145"},"vehicle_type_id":"4","last_reported":1781602954,"current_range_meters":6800,"station_id":"ce4bgk12rcd13ifvqbi0","pricing_plan_id":"cebpf4jnsgd1na2vs0mg"},{"bike_id":"8975bbfe-7692-4d21-bfe6-ffb910e52416","system_id":"levelo_inurba_marseille","lat":43.32377,"lon":5.36735,"is_reserved":false,"is_disabled":false,"rental_uris":{"android":"levelo://app?vid=8975bbfe-7692-4d21-bfe6-ffb910e52416","ios":"levelo://app?vid=8975bbfe-7692-4d21-bfe6-ffb910e52416"},"vehicle_type_id":"4","last_reported":1781602954,"current_range_meters":6800,"station_id":"ce4bhsh2rcd13ifvqi2g","pricing_plan_id":"cebpf4jnsgd1na2vs0mg"},{"bike_id":"cddad825-ea1f-4531-a7f2-5ab6b54d16e8","system_id":"levelo_inurba_marseille","lat":43.2932,"lon":5.39507,"is_reserved":false,"is_disabled":false,"rental_uris":{"android":"levelo://app?vid=cddad825-ea1f-4531-a7f2-5ab6b54d16e8","ios":"levelo://app?vid=cddad825-ea1f-4531-a7f2-5ab6b54d16e8"},"vehicle_type_id":"4","last_reported":1781602954,"current_range_meters":6800,"station_id":"","pricing_plan_id":"cebpf4jnsgd1na2vs0mg"},{"bike_id":"4bde50df-6da3-4c75-b961-168af5e4d377","system_id":"levelo_inurba_marseille","lat":43.25085,"lon":5.39505,"is_reserved":false,"is_disabled":false,"rental_uris":{"android":"levelo://app?vid=4bde50df-6da3-4c75-b961-168af5e4d377","ios":"levelo://app?vid=4bde50df-6da3-4c75-b961-168af5e4d377"},"vehicle_type_id":"4","last_reported":1781602954,"current_range_meters":6800,"station_id":"ce4bhm12rcd13ifvqgkg","pricing_plan_id":"cebpf4jnsgd1na2vs0mg"},{"bike_id":"a75f7f80-a470-41cb-ac6f-6abc7358bddc","system_id":"levelo_inurba_marseille","lat":43.24695,"lon":5.3812,"is_reserved":false,"is_disabled":false,"rental_uris":{"android":"levelo://app?vid=a75f7f80-a470-41cb-ac6f-6abc7358bddc","ios":"levelo://app?vid=a75f7f80-a470-41cb-ac6f-6abc7358bddc"},"vehicle_type_id":"4","last_reported":1781602954,"current_range_meters":6800,"station_id":"ce4bhih2rcd13ifvqfr0","pricing_plan_id":"cebpf4jnsgd1na2vs0mg"},{"bike_id":"c30ae016-4834-496e-b8ac-bfe62c120025","system_id":"levelo_inurba_marseille","lat":43.24458,"lon":5.42512,"is_reserved":false,"is_disabled":false,"rental_uris":{"android":"levelo://app?vid=c30ae016-4834-496e-b8ac-bfe62c120025","ios":"levelo://app?vid=c30ae016-4834-496e-b8ac-bfe62c120025"},"vehicle_type_id":"4","last_reported":1781602954,"current_range_meters":6800,"station_id":"st_d4a3vfp97mjs738cd8kg","pricing_plan_id":"cebpf4jnsgd1na2vs0mg"},{"bike_id":"21242544-9e4c-461d-8c3c-60ea61faef13","system_id":"levelo_inurba_marseille","lat":43.31774,"lon":5.39009,"is_reserved":false,"is_disabled":false,"rental_uris":{"android":"levelo://app?vid=21242544-9e4c-461d-8c3c-60ea61faef13","ios":"levelo://app?vid=21242544-9e4c-461d-8c3c-60ea61faef13"},"vehicle_type_id":"4","last_reported":1781602954,"current_range_meters":6800,"station_id":"ce4bhqp2rcd13ifvqhng","pricing_plan_id":"cebpf4jnsgd1na2vs0mg"},{"bike_id":"9c866a69-4578-4890-bdf7-f63af74dc162","system_id":"levelo_inurba_marseille","lat":43.30851,"lon":5.36974,"is_reserved":false,"is_disabled":false,"rental_uris":{"android":"levelo://app?vid=9c866a69-4578-4890-bdf7-f63af74dc162","ios":"levelo://app?vid=9c866a69-4578-4890-bdf7-f63af74dc162"},"vehicle_type_id":"4","last_reported":1781602954,"current_range_meters":6800,"station_id":"","pricing_plan_id":"cebpf4jnsgd1na2vs0mg"},{"bike_id":"5786c557-9560-4a10-93e8-f8d4cebf391f","system_id":"levelo_inurba_marseille","lat":43.25081,"lon":5.39515,"is_reserved":false,"is_disabled":false,"rental_uris":{"android":"levelo://app?vid=5786c557-9560-4a10-93e8-f8d4cebf391f","ios":"levelo://app?vid=5786c557-9560-4a10-93e8-f8d4cebf391f"},"vehicle_type_id":"4","last_reported":1781602954,"current_range_meters":6800,"station_id":"ce4bhm12rcd13ifvqgkg","pricing_plan_id":"cebpf4jnsgd1na2vs0mg"},{"bike_id":"9a17ac7a-4779-4d8b-98a6-dcf5e41c6d29","system_id":"levelo_inurba_marseille","lat":43.23948,"lon":5.36656,"is_reserved":false,"is_disabled":false,"rental_uris":{"android":"levelo://app?vid=9a17ac7a-4779-4d8b-98a6-dcf5e41c6d29","ios":"levelo://app?vid=9a17ac7a-4779-4d8b-98a6-dcf5e41c6d29"},"vehicle_type_id":"4","last_reported":1781602954,"current_range_meters":6800,"station_id":"ce4bhi12rcd13ifvqfp0","pricing_plan_id":"cebpf4jnsgd1na2vs0mg"},{"bike_id":"080ae7f8-ebed-4d77-8980-50cc1035d758","system_id":"levelo_inurba_marseille","lat":43.29711,"lon":5.37656,"is_reserved":false,"is_disabled":true,"rental_uris":{"android":"levelo://app?vid=080ae7f8-ebed-4d77-8980-50cc1035d758","ios":"levelo://app?vid=080ae7f8-ebed-4d77-8980-50cc1035d758"},"vehicle_type_id":"4","last_reported":1781602954,"current_range_meters":6800,"station_id":"ce4bgkh2rcd13ifvqbl0","pricing_plan_id":"cebpf4jnsgd1na2vs0mg"},{"bike_id":"4b1184e8-72be-4f4a-85b1-5a6611344efb","system_id":"levelo_inurba_marseille","lat":43.27963,"lon":5.41042,"is_reserved":false,"is_disabled":false,"rental_uris":{"android":"levelo://app?vid=4b1184e8-72be-4f4a-85b1-5a6611344efb","ios":"levelo://app?vid=4b1184e8-72be-4f4a-85b1-5a6611344efb"},"vehicle_type_id":"4","last_reported":1781602954,"current_range_meters":6800,"station_id":"ce4bhnp2rcd13ifvqh0g","pricing_plan_id":"cebpf4jnsgd1na2vs0mg"},{"bike_id":"69ff9e27-e6f4-44f6-b66f-bd4f1371d05b","system_id":"levelo_inurba_marseille","lat":43.29483,"lon":5.43277,"is_reserved":false,"is_disabled":false,"rental_uris":{"android":"levelo://app?vid=69ff9e27-e6f4-44f6-b66f-bd4f1371d05b","ios":"levelo://app?vid=69ff9e27-e6f4-44f6-b66f-bd4f1371d05b"},"vehicle_type_id":"4","last_reported":1781602954,"current_range_meters":6800,"station_id":"st_d3j5ugp08ojc73fj9d10","pricing_plan_id":"cebpf4jnsgd1na2vs0mg"},{"bike_id":"dd33fe62-4196-4497-9c18-a047c29ff1fd","system_id":"levelo_inurba_marseille","lat":43.29882,"lon":5.38908,"is_reserved":false,"is_disabled":true,"rental_uris":{"android":"levelo://app?vid=dd33fe62-4196-4497-9c18-a047c29ff1fd","ios":"levelo://app?vid=dd33fe62-4196-4497-9c18-a047c29ff1fd"},"vehicle_type_id":"4","last_reported":1781602954,"current_range_meters":6800,"station_id":"ce4bh392rcd13ifvqdl0","pricing_plan_id":"cebpf4jnsgd1na2vs0mg"},{"bike_id":"a79a3a45-d4e6-4b4f-90ae-6f8b893bb08d","system_id":"levelo_inurba_marseille","lat":43.25819,"lon":5.39436,"is_reserved":false,"is_disabled":false,"rental_uris":{"android":"levelo://app?vid=a79a3a45-d4e6-4b4f-90ae-6f8b893bb08d","ios":"levelo://app?vid=a79a3a45-d4e6-4b4f-90ae-6f8b893bb08d"},"vehicle_type_id":"4","last_reported":1781602954,"current_range_meters":6800,"station_id":"ce4bhip2rcd13ifvqft0","pricing_plan_id":"cebpf4jnsgd1na2vs0mg"},{"bike_id":"55284478-6c38-4211-8eb3-3e942febd525","system_id":"levelo_inurba_marseille","lat":43.28696,"lon":5.46667,"is_reserved":false,"is_disabled":false,"rental_uris":{"android":"levelo://app?vid=55284478-6c38-4211-8eb3-3e942febd525","ios":"levelo://app?vid=55284478-6c38-4211-8eb3-3e942febd525"},"vehicle_type_id":"4","last_reported":1781602954,"current_range_meters":6800,"station_id":"st_d6tc3vkotcvc738tfjhg","pricing_plan_id":"cebpf4jnsgd1na2vs0mg"},{"bike_id":"1d011082-9273-4c58-adfb-ba884def830d","system_id":"levelo_inurba_marseille","lat":43.30577,"lon":5.3653,"is_reserved":false,"is_disabled":false,"rental_uris":{"android":"levelo://app?vid=1d011082-9273-4c58-adfb-ba884def830d","ios":"levelo://app?vid=1d011082-9273-4c58-adfb-ba884def830d"},"vehicle_type_id":"4","last_reported":1781602954,"current_range_meters":6800,"station_id":"ce4bgs12rcd13ifvqcag","pricing_plan_id":"cebpf4jnsgd1na2vs0mg"},{"bike_id":"ad5b71c3-fb0b-4d71-b993-54de9c295f55","system_id":"levelo_inurba_marseille","lat":43.26563,"lon":5.3729,"is_reserved":false,"is_disabled":false,"rental_uris":{"android":"levelo://app?vid=ad5b71c3-fb0b-4d71-b993-54de9c295f55","ios":"levelo://app?vid=ad5b71c3-fb0b-4d71-b993-54de9c295f55"},"vehicle_type_id":"4","last_reported":1781602954,"current_range_meters":6800,"station_id":"ce4bhg12rcd13ifvqf70","pricing_plan_id":"cebpf4jnsgd1na2vs0mg"},{"bike_id":"08fa2fe4-76a4-4e56-97b7-8d2e6cad8c69","system_id":"levelo_inurba_marseille","lat":43.28986,"lon":5.35606,"is_reserved":false,"is_disabled":true,"rental_uris":{"android":"levelo://app?vid=08fa2fe4-76a4-4e56-97b7-8d2e6cad8c69","ios":"levelo://app?vid=08fa2fe4-76a4-4e56-97b7-8d2e6cad8c69"},"vehicle_type_id":"4","last_reported":1781602954,"current_range_meters":7200,"station_id":"ce4bhb92rcd13ifvqen0","pricing_plan_id":"cebpf4jnsgd1na2vs0mg"},{"bike_id":"ae65af2d-3ed7-44e7-beff-ec27e709a048","system_id":"levelo_inurba_marseille","lat":43.31997,"lon":5.41565,"is_reserved":false,"is_disabled":false,"rental_uris":{"android":"levelo://app?vid=ae65af2d-3ed7-44e7-beff-ec27e709a048","ios":"levelo://app?vid=ae65af2d-3ed7-44e7-beff-ec27e709a048"},"vehicle_type_id":"4","last_reported":1781602954,"current_range_meters":7200,"station_id":"ce4bhq92rcd13ifvqhkg","pricing_plan_id":"cebpf4jnsgd1na2vs0mg"},{"bike_id":"bbacbbb1-2394-40bd-9832-5b78a6947353","system_id":"levelo_inurba_marseille","lat":43.29821,"lon":5.40398,"is_reserved":false,"is_disabled":true,"rental_uris":{"android":"levelo://app?vid=bbacbbb1-2394-40bd-9832-5b78a6947353","ios":"levelo://app?vid=bbacbbb1-2394-40bd-9832-5b78a6947353"},"vehicle_type_id":"4","last_reported":1781602954,"current_range_meters":7200,"station_id":"ce4bh112rcd13ifvqd90","pricing_plan_id":"cebpf4jnsgd1na2vs0mg"},{"bike_id":"87846115-8400-498e-8cf7-6c0620a731ea","system_id":"levelo_inurba_marseille","lat":43.28477,"lon":5.48385,"is_reserved":false,"is_disabled":false,"rental_uris":{"android":"levelo://app?vid=87846115-8400-498e-8cf7-6c0620a731ea","ios":"levelo://app?vid=87846115-8400-498e-8cf7-6c0620a731ea"},"vehicle_type_id":"4","last_reported":1781602954,"current_range_meters":7200,"station_id":"st_d3svhcjqgbts73a3dn0g","pricing_plan_id":"cebpf4jnsgd1na2vs0mg"},{"bike_id":"3e0db31d-6c43-49e6-9e36-c0830e3b11a1","system_id":"levelo_inurba_marseille","lat":43.3235,"lon":5.36739,"is_reserved":false,"is_disabled":false,"rental_uris":{"android":"levelo://app?vid=3e0db31d-6c43-49e6-9e36-c0830e3b11a1","ios":"levelo://app?vid=3e0db31d-6c43-49e6-9e36-c0830e3b11a1"},"vehicle_type_id":"4","last_reported":1781602954,"current_range_meters":7200,"station_id":"ce4bhsh2rcd13ifvqi2g","pricing_plan_id":"cebpf4jnsgd1na2vs0mg"},{"bike_id":"75b2f980-5634-434e-a8fc-14d3936fec3b","system_id":"levelo_inurba_marseille","lat":43.3025,"lon":5.37956,"is_reserved":false,"is_disabled":false,"rental_uris":{"android":"levelo://app?vid=75b2f980-5634-434e-a8fc-14d3936fec3b","ios":"levelo://app?vid=75b2f980-5634-434e-a8fc-14d3936fec3b"},"vehicle_type_id":"4","last_reported":1781602954,"current_range_meters":7200,"station_id":"","pricing_plan_id":"cebpf4jnsgd1na2vs0mg"},{"bike_id":"4d8c51f0-5780-4dc0-8aca-97fafb11355d","system_id":"levelo_inurba_marseille","lat":43.25936,"lon":5.40905,"is_reserved":false,"is_disabled":false,"rental_uris":{"android":"levelo://app?vid=4d8c51f0-5780-4dc0-8aca-97fafb11355d","ios":"levelo://app?vid=4d8c51f0-5780-4dc0-8aca-97fafb11355d"},"vehicle_type_id":"4","last_reported":1781602954,"current_range_meters":7200,"station_id":"ce4bhm92rcd13ifvqglg","pricing_plan_id":"cebpf4jnsgd1na2vs0mg"},{"bike_id":"63c1cc80-26eb-4316-ac5a-c4cbb05fbdb4","system_id":"levelo_inurba_marseille","lat":43.2848,"lon":5.48379,"is_reserved":false,"is_disabled":false,"rental_uris":{"android":"levelo://app?vid=63c1cc80-26eb-4316-ac5a-c4cbb05fbdb4","ios":"levelo://app?vid=63c1cc80-26eb-4316-ac5a-c4cbb05fbdb4"},"vehicle_type_id":"4","last_reported":1781602954,"current_range_meters":7200,"station_id":"st_d3svhcjqgbts73a3dn0g","pricing_plan_id":"cebpf4jnsgd1na2vs0mg"},{"bike_id":"574d1002-3801-4f0f-93f3-afd198211729","system_id":"levelo_inurba_marseille","lat":43.31116,"lon":5.42399,"is_reserved":false,"is_disabled":true,"rental_uris":{"android":"levelo://app?vid=574d1002-3801-4f0f-93f3-afd198211729","ios":"levelo://app?vid=574d1002-3801-4f0f-93f3-afd198211729"},"vehicle_type_id":"4","last_reported":1781602954,"current_range_meters":7200,"station_id":"ce4bhp92rcd13ifvqhag","pricing_plan_id":"cebpf4jnsgd1na2vs0mg"},{"bike_id":"1d66768f-2869-4826-adb3-e04e46e8f715","system_id":"levelo_inurba_marseille","lat":43.33558,"lon":5.37487,"is_reserved":false,"is_disabled":false,"rental_uris":{"android":"levelo://app?vid=1d66768f-2869-4826-adb3-e04e46e8f715","ios":"levelo://app?vid=1d66768f-2869-4826-adb3-e04e46e8f715"},"vehicle_type_id":"4","last_reported":1781602954,"current_range_meters":7200,"station_id":"st_d46tts09ee8s73dlu43g","pricing_plan_id":"cebpf4jnsgd1na2vs0mg"},{"bike_id":"c7debbd1-a125-4d5d-914c-68cc655d753a","system_id":"levelo_inurba_marseille","lat":43.30956,"lon":5.39029,"is_reserved":false,"is_disabled":false,"rental_uris":{"android":"levelo://app?vid=c7debbd1-a125-4d5d-914c-68cc655d753a","ios":"levelo://app?vid=c7debbd1-a125-4d5d-914c-68cc655d753a"},"vehicle_type_id":"4","last_reported":1781602954,"current_range_meters":7200,"station_id":"ce4bgup2rcd13ifvqco0","pricing_plan_id":"cebpf4jnsgd1na2vs0mg"},{"bike_id":"24ab2018-e47d-455c-a0b0-f6a54ae21bcc","system_id":"levelo_inurba_marseille","lat":43.27821,"lon":5.40714,"is_reserved":false,"is_disabled":true,"rental_uris":{"android":"levelo://app?vid=24ab2018-e47d-455c-a0b0-f6a54ae21bcc","ios":"levelo://app?vid=24ab2018-e47d-455c-a0b0-f6a54ae21bcc"},"vehicle_type_id":"4","last_reported":1781602954,"current_range_meters":7200,"station_id":"ce4bhnh2rcd13ifvqgtg","pricing_plan_id":"cebpf4jnsgd1na2vs0mg"},{"bike_id":"6620f03a-72ab-49a4-b58f-9374898a6d56","system_id":"levelo_inurba_marseille","lat":43.269486,"lon":5.386283,"is_reserved":false,"is_disabled":true,"rental_uris":{"android":"levelo://app?vid=6620f03a-72ab-49a4-b58f-9374898a6d56","ios":"levelo://app?vid=6620f03a-72ab-49a4-b58f-9374898a6d56"},"vehicle_type_id":"4","last_reported":1781602954,"current_range_meters":7200,"station_id":"ce4bhh92rcd13ifvqfh0","pricing_plan_id":"cebpf4jnsgd1na2vs0mg"},{"bike_id":"d405dd66-58bd-4376-a5c2-93e2248e5e05","system_id":"levelo_inurba_marseille","lat":43.30904,"lon":5.36843,"is_reserved":false,"is_disabled":false,"rental_uris":{"android":"levelo://app?vid=d405dd66-58bd-4376-a5c2-93e2248e5e05","ios":"levelo://app?vid=d405dd66-58bd-4376-a5c2-93e2248e5e05"},"vehicle_type_id":"4","last_reported":1781602954,"current_range_meters":7200,"station_id":"ce4bgn92rcd13ifvqbvg","pricing_plan_id":"cebpf4jnsgd1na2vs0mg"},{"bike_id":"280d03f8-d509-4ce9-a1b8-8667ebb7e127","system_id":"levelo_inurba_marseille","lat":43.25855,"lon":5.38876,"is_reserved":false,"is_disabled":false,"rental_uris":{"android":"levelo://app?vid=280d03f8-d509-4ce9-a1b8-8667ebb7e127","ios":"levelo://app?vid=280d03f8-d509-4ce9-a1b8-8667ebb7e127"},"vehicle_type_id":"4","last_reported":1781602954,"current_range_meters":7200,"station_id":"","pricing_plan_id":"cebpf4jnsgd1na2vs0mg"},{"bike_id":"78657639-19dd-49f6-870d-19629f31103e","system_id":"levelo_inurba_marseille","lat":43.31826,"lon":5.37974,"is_reserved":false,"is_disabled":false,"rental_uris":{"android":"levelo://app?vid=78657639-19dd-49f6-870d-19629f31103e","ios":"levelo://app?vid=78657639-19dd-49f6-870d-19629f31103e"},"vehicle_type_id":"4","last_reported":1781602954,"current_range_meters":7200,"station_id":"","pricing_plan_id":"cebpf4jnsgd1na2vs0mg"},{"bike_id":"be6a70b7-6594-448b-8779-f0c66f7a8eda","system_id":"levelo_inurba_marseille","lat":43.30465,"lon":5.37902,"is_reserved":false,"is_disabled":false,"rental_uris":{"android":"levelo://app?vid=be6a70b7-6594-448b-8779-f0c66f7a8eda","ios":"levelo://app?vid=be6a70b7-6594-448b-8779-f0c66f7a8eda"},"vehicle_type_id":"4","last_reported":1781602954,"current_range_meters":7200,"station_id":"ce4bgup2rcd13ifvqcn0","pricing_plan_id":"cebpf4jnsgd1na2vs0mg"},{"bike_id":"d62f7d6c-4ba2-434d-a26f-dd8c656d45b9","system_id":"levelo_inurba_marseille","lat":43.26555,"lon":5.37269,"is_reserved":false,"is_disabled":false,"rental_uris":{"android":"levelo://app?vid=d62f7d6c-4ba2-434d-a26f-dd8c656d45b9","ios":"levelo://app?vid=d62f7d6c-4ba2-434d-a26f-dd8c656d45b9"},"vehicle_type_id":"4","last_reported":1781602954,"current_range_meters":7200,"station_id":"ce4bhg12rcd13ifvqf70","pricing_plan_id":"cebpf4jnsgd1na2vs0mg"},{"bike_id":"3a46714c-439b-4ccd-bcaf-8bab07093116","system_id":"levelo_inurba_marseille","lat":43.28544,"lon":5.38503,"is_reserved":false,"is_disabled":false,"rental_uris":{"android":"levelo://app?vid=3a46714c-439b-4ccd-bcaf-8bab07093116","ios":"levelo://app?vid=3a46714c-439b-4ccd-bcaf-8bab07093116"},"vehicle_type_id":"4","last_reported":1781602954,"current_range_meters":7200,"station_id":"","pricing_plan_id":"cebpf4jnsgd1na2vs0mg"},{"bike_id":"57a964d9-4642-433e-a5ba-e93ac3d8b94c","system_id":"levelo_inurba_marseille","lat":43.29959,"lon":5.365,"is_reserved":false,"is_disabled":true,"rental_uris":{"android":"levelo://app?vid=57a964d9-4642-433e-a5ba-e93ac3d8b94c","ios":"levelo://app?vid=57a964d9-4642-433e-a5ba-e93ac3d8b94c"},"vehicle_type_id":"4","last_reported":1781602954,"current_range_meters":7200,"station_id":"","pricing_plan_id":"cebpf4jnsgd1na2vs0mg"},{"bike_id":"776edc5e-e6c9-4f13-b82b-72ee51053e26","system_id":"levelo_inurba_marseille","lat":43.3095,"lon":5.3901,"is_reserved":false,"is_disabled":false,"rental_uris":{"android":"levelo://app?vid=776edc5e-e6c9-4f13-b82b-72ee51053e26","ios":"levelo://app?vid=776edc5e-e6c9-4f13-b82b-72ee51053e26"},"vehicle_type_id":"4","last_reported":1781602954,"current_range_meters":7200,"station_id":"ce4bgup2rcd13ifvqco0","pricing_plan_id":"cebpf4jnsgd1na2vs0mg"},{"bike_id":"6dd7a66f-91da-44f0-bc59-3790f3629b34","system_id":"levelo_inurba_marseille","lat":43.2707,"lon":5.4228,"is_reserved":false,"is_disabled":false,"rental_uris":{"android":"levelo://app?vid=6dd7a66f-91da-44f0-bc59-3790f3629b34","ios":"levelo://app?vid=6dd7a66f-91da-44f0-bc59-3790f3629b34"},"vehicle_type_id":"4","last_reported":1781602954,"current_range_meters":7200,"station_id":"ce4bhk92rcd13ifvqgb0","pricing_plan_id":"cebpf4jnsgd1na2vs0mg"},{"bike_id":"07699c09-9266-436c-b69b-d120a8d87374","system_id":"levelo_inurba_marseille","lat":43.28966,"lon":5.37828,"is_reserved":false,"is_disabled":false,"rental_uris":{"android":"levelo://app?vid=07699c09-9266-436c-b69b-d120a8d87374","ios":"levelo://app?vid=07699c09-9266-436c-b69b-d120a8d87374"},"vehicle_type_id":"4","last_reported":1781602954,"current_range_meters":7200,"station_id":"ce4bh9p2rcd13ifvqed0","pricing_plan_id":"cebpf4jnsgd1na2vs0mg"},{"bike_id":"b74763e0-4cb6-49b1-9f1d-f654ab489391","system_id":"levelo_inurba_marseille","lat":43.22533,"lon":5.3483,"is_reserved":false,"is_disabled":false,"rental_uris":{"android":"levelo://app?vid=b74763e0-4cb6-49b1-9f1d-f654ab489391","ios":"levelo://app?vid=b74763e0-4cb6-49b1-9f1d-f654ab489391"},"vehicle_type_id":"4","last_reported":1781602954,"current_range_meters":7200,"station_id":"st_cvj5dfep6f1abm77gieg","pricing_plan_id":"cebpf4jnsgd1na2vs0mg"},{"bike_id":"b5d5cb64-a692-42c9-9314-64c187fe3c5d","system_id":"levelo_inurba_marseille","lat":43.31184,"lon":5.36823,"is_reserved":false,"is_disabled":false,"rental_uris":{"android":"levelo://app?vid=b5d5cb64-a692-42c9-9314-64c187fe3c5d","ios":"levelo://app?vid=b5d5cb64-a692-42c9-9314-64c187fe3c5d"},"vehicle_type_id":"4","last_reported":1781602954,"current_range_meters":7200,"station_id":"ce4bgl92rcd13ifvqbq0","pricing_plan_id":"cebpf4jnsgd1na2vs0mg"},{"bike_id":"9316c0ed-2cb5-4b2f-8ec0-932240104021","system_id":"levelo_inurba_marseille","lat":43.30562,"lon":5.38438,"is_reserved":false,"is_disabled":false,"rental_uris":{"android":"levelo://app?vid=9316c0ed-2cb5-4b2f-8ec0-932240104021","ios":"levelo://app?vid=9316c0ed-2cb5-4b2f-8ec0-932240104021"},"vehicle_type_id":"4","last_reported":1781602954,"current_range_meters":8000,"station_id":"ce4bgg92rcd13ifvqb30","pricing_plan_id":"cebpf4jnsgd1na2vs0mg"},{"bike_id":"d1a71da9-9b42-4e6c-825f-93adbdce2249","system_id":"levelo_inurba_marseille","lat":43.30868,"lon":5.37174,"is_reserved":false,"is_disabled":true,"rental_uris":{"android":"levelo://app?vid=d1a71da9-9b42-4e6c-825f-93adbdce2249","ios":"levelo://app?vid=d1a71da9-9b42-4e6c-825f-93adbdce2249"},"vehicle_type_id":"4","last_reported":1781602954,"current_range_meters":8000,"station_id":"ce4bguh2rcd13ifvqckg","pricing_plan_id":"cebpf4jnsgd1na2vs0mg"},{"bike_id":"eedfa3a8-b4a8-408b-9081-52bfc010c558","system_id":"levelo_inurba_marseille","lat":43.32534,"lon":5.41437,"is_reserved":false,"is_disabled":false,"rental_uris":{"android":"levelo://app?vid=eedfa3a8-b4a8-408b-9081-52bfc010c558","ios":"levelo://app?vid=eedfa3a8-b4a8-408b-9081-52bfc010c558"},"vehicle_type_id":"4","last_reported":1781602954,"current_range_meters":8000,"station_id":"ce4bhq12rcd13ifvqhhg","pricing_plan_id":"cebpf4jnsgd1na2vs0mg"},{"bike_id":"6c718aed-6d3c-4d14-ba53-4fa44112b663","system_id":"levelo_inurba_marseille","lat":43.22561,"lon":5.41613,"is_reserved":false,"is_disabled":false,"rental_uris":{"android":"levelo://app?vid=6c718aed-6d3c-4d14-ba53-4fa44112b663","ios":"levelo://app?vid=6c718aed-6d3c-4d14-ba53-4fa44112b663"},"vehicle_type_id":"4","last_reported":1781602954,"current_range_meters":8000,"station_id":"st_d2o4gvlbi1j2169b742g","pricing_plan_id":"cebpf4jnsgd1na2vs0mg"},{"bike_id":"779a3112-4608-475e-bcad-71e35d676d18","system_id":"levelo_inurba_marseille","lat":43.29909,"lon":5.38133,"is_reserved":false,"is_disabled":true,"rental_uris":{"android":"levelo://app?vid=779a3112-4608-475e-bcad-71e35d676d18","ios":"levelo://app?vid=779a3112-4608-475e-bcad-71e35d676d18"},"vehicle_type_id":"4","last_reported":1781602954,"current_range_meters":8000,"station_id":"ce4bgj12rcd13ifvqbc0","pricing_plan_id":"cebpf4jnsgd1na2vs0mg"},{"bike_id":"cc807d68-bd6b-4eaf-b572-b46a67b05fe0","system_id":"levelo_inurba_marseille","lat":43.30555,"lon":5.36668,"is_reserved":false,"is_disabled":false,"rental_uris":{"android":"levelo://app?vid=cc807d68-bd6b-4eaf-b572-b46a67b05fe0","ios":"levelo://app?vid=cc807d68-bd6b-4eaf-b572-b46a67b05fe0"},"vehicle_type_id":"4","last_reported":1781602954,"current_range_meters":8000,"station_id":"ce4bgrp2rcd13ifvqc9g","pricing_plan_id":"cebpf4jnsgd1na2vs0mg"},{"bike_id":"0560a502-2a60-4cee-addc-a009dbfdcf16","system_id":"levelo_inurba_marseille","lat":43.231966,"lon":5.355541,"is_reserved":false,"is_disabled":false,"rental_uris":{"android":"levelo://app?vid=0560a502-2a60-4cee-addc-a009dbfdcf16","ios":"levelo://app?vid=0560a502-2a60-4cee-addc-a009dbfdcf16"},"vehicle_type_id":"4","last_reported":1781602954,"current_range_meters":8000,"station_id":"ce4bhu92rcd13ifvqi70","pricing_plan_id":"cebpf4jnsgd1na2vs0mg"},{"bike_id":"f3082ca0-5181-415f-afac-2651221b3570","system_id":"levelo_inurba_marseille","lat":43.28959,"lon":5.37826,"is_reserved":false,"is_disabled":false,"rental_uris":{"android":"levelo://app?vid=f3082ca0-5181-415f-afac-2651221b3570","ios":"levelo://app?vid=f3082ca0-5181-415f-afac-2651221b3570"},"vehicle_type_id":"4","last_reported":1781602954,"current_range_meters":8000,"station_id":"ce4bh9p2rcd13ifvqed0","pricing_plan_id":"cebpf4jnsgd1na2vs0mg"},{"bike_id":"dd6cce44-1a24-4005-867b-68261fdc7fa7","system_id":"levelo_inurba_marseille","lat":43.23957,"lon":5.36643,"is_reserved":false,"is_disabled":false,"rental_uris":{"android":"levelo://app?vid=dd6cce44-1a24-4005-867b-68261fdc7fa7","ios":"levelo://app?vid=dd6cce44-1a24-4005-867b-68261fdc7fa7"},"vehicle_type_id":"4","last_reported":1781602954,"current_range_meters":8000,"station_id":"ce4bhi12rcd13ifvqfp0","pricing_plan_id":"cebpf4jnsgd1na2vs0mg"},{"bike_id":"30b0c986-9a38-4eaa-8e67-5bc71ee92d28","system_id":"levelo_inurba_marseille","lat":43.241,"lon":5.37747,"is_reserved":false,"is_disabled":false,"rental_uris":{"android":"levelo://app?vid=30b0c986-9a38-4eaa-8e67-5bc71ee92d28","ios":"levelo://app?vid=30b0c986-9a38-4eaa-8e67-5bc71ee92d28"},"vehicle_type_id":"4","last_reported":1781602954,"current_range_meters":8000,"station_id":"ce4bhnp2rcd13ifvqgvg","pricing_plan_id":"cebpf4jnsgd1na2vs0mg"},{"bike_id":"abc92aa8-b9f3-42af-a8f9-a92a8b068ce5","system_id":"levelo_inurba_marseille","lat":43.31353,"lon":5.38508,"is_reserved":false,"is_disabled":false,"rental_uris":{"android":"levelo://app?vid=abc92aa8-b9f3-42af-a8f9-a92a8b068ce5","ios":"levelo://app?vid=abc92aa8-b9f3-42af-a8f9-a92a8b068ce5"},"vehicle_type_id":"4","last_reported":1781602954,"current_range_meters":8000,"station_id":"ce4bgt92rcd13ifvqcf0","pricing_plan_id":"cebpf4jnsgd1na2vs0mg"},{"bike_id":"0fe2aa10-9e82-4407-931f-5a86fbaa0e3f","system_id":"levelo_inurba_marseille","lat":43.26366,"lon":5.41074,"is_reserved":false,"is_disabled":true,"rental_uris":{"android":"levelo://app?vid=0fe2aa10-9e82-4407-931f-5a86fbaa0e3f","ios":"levelo://app?vid=0fe2aa10-9e82-4407-931f-5a86fbaa0e3f"},"vehicle_type_id":"4","last_reported":1781602954,"current_range_meters":8000,"station_id":"st_d4e5ca6na9uc73bfl5fg","pricing_plan_id":"cebpf4jnsgd1na2vs0mg"},{"bike_id":"20d28c91-ba68-4575-a0fd-d55e19c32593","system_id":"levelo_inurba_marseille","lat":43.28464,"lon":5.48385,"is_reserved":false,"is_disabled":false,"rental_uris":{"android":"levelo://app?vid=20d28c91-ba68-4575-a0fd-d55e19c32593","ios":"levelo://app?vid=20d28c91-ba68-4575-a0fd-d55e19c32593"},"vehicle_type_id":"4","last_reported":1781602954,"current_range_meters":8000,"station_id":"st_d3svhcjqgbts73a3dn0g","pricing_plan_id":"cebpf4jnsgd1na2vs0mg"},{"bike_id":"e1b2170b-08b4-42fa-b2a2-076b040aa4a4","system_id":"levelo_inurba_marseille","lat":43.24544,"lon":5.39526,"is_reserved":false,"is_disabled":false,"rental_uris":{"android":"levelo://app?vid=e1b2170b-08b4-42fa-b2a2-076b040aa4a4","ios":"levelo://app?vid=e1b2170b-08b4-42fa-b2a2-076b040aa4a4"},"vehicle_type_id":"4","last_reported":1781602954,"current_range_meters":8000,"station_id":"ce4bhlp2rcd13ifvqgjg","pricing_plan_id":"cebpf4jnsgd1na2vs0mg"},{"bike_id":"a0168339-1cb4-4957-a25a-851c52e25a65","system_id":"levelo_inurba_marseille","lat":43.29781,"lon":5.38063,"is_reserved":false,"is_disabled":false,"rental_uris":{"android":"levelo://app?vid=a0168339-1cb4-4957-a25a-851c52e25a65","ios":"levelo://app?vid=a0168339-1cb4-4957-a25a-851c52e25a65"},"vehicle_type_id":"4","last_reported":1781602954,"current_range_meters":8000,"station_id":"ce4bgip2rcd13ifvqbb0","pricing_plan_id":"cebpf4jnsgd1na2vs0mg"},{"bike_id":"de4f2f9b-aa29-43b6-a9be-736f6ea632cd","system_id":"levelo_inurba_marseille","lat":43.29549,"lon":5.42287,"is_reserved":false,"is_disabled":false,"rental_uris":{"android":"levelo://app?vid=de4f2f9b-aa29-43b6-a9be-736f6ea632cd","ios":"levelo://app?vid=de4f2f9b-aa29-43b6-a9be-736f6ea632cd"},"vehicle_type_id":"4","last_reported":1781602954,"current_range_meters":8000,"station_id":"ce4bhph2rcd13ifvqhdg","pricing_plan_id":"cebpf4jnsgd1na2vs0mg"},{"bike_id":"e18f4c88-bd99-4150-b117-3bdadd746841","system_id":"levelo_inurba_marseille","lat":43.28692,"lon":5.46682,"is_reserved":false,"is_disabled":false,"rental_uris":{"android":"levelo://app?vid=e18f4c88-bd99-4150-b117-3bdadd746841","ios":"levelo://app?vid=e18f4c88-bd99-4150-b117-3bdadd746841"},"vehicle_type_id":"4","last_reported":1781602954,"current_range_meters":8000,"station_id":"st_d6tc3vkotcvc738tfjhg","pricing_plan_id":"cebpf4jnsgd1na2vs0mg"},{"bike_id":"944ef39d-c30f-4920-9dd0-23d9d9b12bb3","system_id":"levelo_inurba_marseille","lat":43.315327,"lon":5.380325,"is_reserved":false,"is_disabled":false,"rental_uris":{"android":"levelo://app?vid=944ef39d-c30f-4920-9dd0-23d9d9b12bb3","ios":"levelo://app?vid=944ef39d-c30f-4920-9dd0-23d9d9b12bb3"},"vehicle_type_id":"4","last_reported":1781602954,"current_range_meters":8000,"station_id":"ce4bhsp2rcd13ifvqi50","pricing_plan_id":"cebpf4jnsgd1na2vs0mg"},{"bike_id":"40ecdfdd-c953-451d-ad17-b10a2d91fb3c","system_id":"levelo_inurba_marseille","lat":43.2509,"lon":5.39525,"is_reserved":false,"is_disabled":false,"rental_uris":{"android":"levelo://app?vid=40ecdfdd-c953-451d-ad17-b10a2d91fb3c","ios":"levelo://app?vid=40ecdfdd-c953-451d-ad17-b10a2d91fb3c"},"vehicle_type_id":"4","last_reported":1781602954,"current_range_meters":8000,"station_id":"ce4bhm12rcd13ifvqgkg","pricing_plan_id":"cebpf4jnsgd1na2vs0mg"},{"bike_id":"eaee271f-9d2b-4020-857b-1bac61b122e1","system_id":"levelo_inurba_marseille","lat":43.27325,"lon":5.39115,"is_reserved":false,"is_disabled":false,"rental_uris":{"android":"levelo://app?vid=eaee271f-9d2b-4020-857b-1bac61b122e1","ios":"levelo://app?vid=eaee271f-9d2b-4020-857b-1bac61b122e1"},"vehicle_type_id":"4","last_reported":1781602954,"current_range_meters":8000,"station_id":"ce4bhgp2rcd13ifvqfe0","pricing_plan_id":"cebpf4jnsgd1na2vs0mg"},{"bike_id":"1462a447-be18-41a8-9ef6-9fa96faf5ad3","system_id":"levelo_inurba_marseille","lat":43.26795,"lon":5.39402,"is_reserved":false,"is_disabled":false,"rental_uris":{"android":"levelo://app?vid=1462a447-be18-41a8-9ef6-9fa96faf5ad3","ios":"levelo://app?vid=1462a447-be18-41a8-9ef6-9fa96faf5ad3"},"vehicle_type_id":"4","last_reported":1781602954,"current_range_meters":8000,"station_id":"ce4bhh12rcd13ifvqfg0","pricing_plan_id":"cebpf4jnsgd1na2vs0mg"},{"bike_id":"b38ef610-f1c5-41db-beff-06c39b8cfddb","system_id":"levelo_inurba_marseille","lat":43.3245,"lon":5.38552,"is_reserved":false,"is_disabled":false,"rental_uris":{"android":"levelo://app?vid=b38ef610-f1c5-41db-beff-06c39b8cfddb","ios":"levelo://app?vid=b38ef610-f1c5-41db-beff-06c39b8cfddb"},"vehicle_type_id":"4","last_reported":1781602954,"current_range_meters":8000,"station_id":"","pricing_plan_id":"cebpf4jnsgd1na2vs0mg"},{"bike_id":"4b5426be-9611-4d02-918d-053e1cce99b9","system_id":"levelo_inurba_marseille","lat":43.26409,"lon":5.41065,"is_reserved":false,"is_disabled":false,"rental_uris":{"android":"levelo://app?vid=4b5426be-9611-4d02-918d-053e1cce99b9","ios":"levelo://app?vid=4b5426be-9611-4d02-918d-053e1cce99b9"},"vehicle_type_id":"4","last_reported":1781602954,"current_range_meters":8400,"station_id":"","pricing_plan_id":"cebpf4jnsgd1na2vs0mg"},{"bike_id":"efbd971f-fffb-499e-9f5f-034f73d9ba62","system_id":"levelo_inurba_marseille","lat":43.26048,"lon":5.39373,"is_reserved":false,"is_disabled":false,"rental_uris":{"android":"levelo://app?vid=efbd971f-fffb-499e-9f5f-034f73d9ba62","ios":"levelo://app?vid=efbd971f-fffb-499e-9f5f-034f73d9ba62"},"vehicle_type_id":"4","last_reported":1781602954,"current_range_meters":8400,"station_id":"ce4bhh92rcd13ifvqfj0","pricing_plan_id":"cebpf4jnsgd1na2vs0mg"},{"bike_id":"ad0834ec-08cb-42bf-8d84-1b814f1982eb","system_id":"levelo_inurba_marseille","lat":43.29232,"lon":5.40085,"is_reserved":false,"is_disabled":true,"rental_uris":{"android":"levelo://app?vid=ad0834ec-08cb-42bf-8d84-1b814f1982eb","ios":"levelo://app?vid=ad0834ec-08cb-42bf-8d84-1b814f1982eb"},"vehicle_type_id":"4","last_reported":1781602954,"current_range_meters":8400,"station_id":"","pricing_plan_id":"cebpf4jnsgd1na2vs0mg"},{"bike_id":"e98eaae6-227c-462a-ad06-56a5944f5024","system_id":"levelo_inurba_marseille","lat":43.30156,"lon":5.38078,"is_reserved":false,"is_disabled":false,"rental_uris":{"android":"levelo://app?vid=e98eaae6-227c-462a-ad06-56a5944f5024","ios":"levelo://app?vid=e98eaae6-227c-462a-ad06-56a5944f5024"},"vehicle_type_id":"4","last_reported":1781602954,"current_range_meters":8400,"station_id":"ce4bgjp2rcd13ifvqbh0","pricing_plan_id":"cebpf4jnsgd1na2vs0mg"},{"bike_id":"2f566132-1c9a-451f-b0d4-03be1c3482a0","system_id":"levelo_inurba_marseille","lat":43.24444,"lon":5.42545,"is_reserved":false,"is_disabled":false,"rental_uris":{"android":"levelo://app?vid=2f566132-1c9a-451f-b0d4-03be1c3482a0","ios":"levelo://app?vid=2f566132-1c9a-451f-b0d4-03be1c3482a0"},"vehicle_type_id":"4","last_reported":1781602954,"current_range_meters":8400,"station_id":"st_d4a3vfp97mjs738cd8kg","pricing_plan_id":"cebpf4jnsgd1na2vs0mg"},{"bike_id":"c1f831f4-3b38-43c3-a602-4cd884c5fd4d","system_id":"levelo_inurba_marseille","lat":43.2897,"lon":5.37828,"is_reserved":false,"is_disabled":false,"rental_uris":{"android":"levelo://app?vid=c1f831f4-3b38-43c3-a602-4cd884c5fd4d","ios":"levelo://app?vid=c1f831f4-3b38-43c3-a602-4cd884c5fd4d"},"vehicle_type_id":"4","last_reported":1781602954,"current_range_meters":8400,"station_id":"ce4bh9p2rcd13ifvqed0","pricing_plan_id":"cebpf4jnsgd1na2vs0mg"},{"bike_id":"f642c554-6256-4644-ae25-c6a0bbc1006b","system_id":"levelo_inurba_marseille","lat":43.292755,"lon":5.368462,"is_reserved":false,"is_disabled":false,"rental_uris":{"android":"levelo://app?vid=f642c554-6256-4644-ae25-c6a0bbc1006b","ios":"levelo://app?vid=f642c554-6256-4644-ae25-c6a0bbc1006b"},"vehicle_type_id":"4","last_reported":1781602954,"current_range_meters":8400,"station_id":"ce4bhbp2rcd13ifvqesg","pricing_plan_id":"cebpf4jnsgd1na2vs0mg"},{"bike_id":"f79fa52d-d9e3-421b-95b0-a2d6c121faa8","system_id":"levelo_inurba_marseille","lat":43.32109,"lon":5.36773,"is_reserved":false,"is_disabled":false,"rental_uris":{"android":"levelo://app?vid=f79fa52d-d9e3-421b-95b0-a2d6c121faa8","ios":"levelo://app?vid=f79fa52d-d9e3-421b-95b0-a2d6c121faa8"},"vehicle_type_id":"4","last_reported":1781602954,"current_range_meters":8400,"station_id":"ce4bhrh2rcd13ifvqhug","pricing_plan_id":"cebpf4jnsgd1na2vs0mg"},{"bike_id":"51698d65-c7fe-450e-8a6c-5ce1b08825f1","system_id":"levelo_inurba_marseille","lat":43.28492,"lon":5.48399,"is_reserved":false,"is_disabled":false,"rental_uris":{"android":"levelo://app?vid=51698d65-c7fe-450e-8a6c-5ce1b08825f1","ios":"levelo://app?vid=51698d65-c7fe-450e-8a6c-5ce1b08825f1"},"vehicle_type_id":"4","last_reported":1781602954,"current_range_meters":8400,"station_id":"st_d3svhcjqgbts73a3dn0g","pricing_plan_id":"cebpf4jnsgd1na2vs0mg"},{"bike_id":"18f9dfa8-04f5-4b09-9f9f-c6cdc56e4ffb","system_id":"levelo_inurba_marseille","lat":43.30946,"lon":5.39053,"is_reserved":false,"is_disabled":false,"rental_uris":{"android":"levelo://app?vid=18f9dfa8-04f5-4b09-9f9f-c6cdc56e4ffb","ios":"levelo://app?vid=18f9dfa8-04f5-4b09-9f9f-c6cdc56e4ffb"},"vehicle_type_id":"4","last_reported":1781602954,"current_range_meters":8400,"station_id":"ce4bgup2rcd13ifvqco0","pricing_plan_id":"cebpf4jnsgd1na2vs0mg"},{"bike_id":"ca10764f-aece-4985-a737-0a6c35819981","system_id":"levelo_inurba_marseille","lat":43.2542,"lon":5.37514,"is_reserved":false,"is_disabled":false,"rental_uris":{"android":"levelo://app?vid=ca10764f-aece-4985-a737-0a6c35819981","ios":"levelo://app?vid=ca10764f-aece-4985-a737-0a6c35819981"},"vehicle_type_id":"4","last_reported":1781602954,"current_range_meters":8400,"station_id":"","pricing_plan_id":"cebpf4jnsgd1na2vs0mg"},{"bike_id":"1f589027-766d-4ad6-a434-282e5fb82063","system_id":"levelo_inurba_marseille","lat":43.2117,"lon":5.35056,"is_reserved":false,"is_disabled":false,"rental_uris":{"android":"levelo://app?vid=1f589027-766d-4ad6-a434-282e5fb82063","ios":"levelo://app?vid=1f589027-766d-4ad6-a434-282e5fb82063"},"vehicle_type_id":"4","last_reported":1781602954,"current_range_meters":8400,"station_id":"st_cvj6sg6p6f1abm77japg","pricing_plan_id":"cebpf4jnsgd1na2vs0mg"},{"bike_id":"42078ece-e0bb-45fd-9077-c0308ec0d605","system_id":"levelo_inurba_marseille","lat":43.30515,"lon":5.36702,"is_reserved":false,"is_disabled":false,"rental_uris":{"android":"levelo://app?vid=42078ece-e0bb-45fd-9077-c0308ec0d605","ios":"levelo://app?vid=42078ece-e0bb-45fd-9077-c0308ec0d605"},"vehicle_type_id":"4","last_reported":1781602954,"current_range_meters":8400,"station_id":"ce4bgrp2rcd13ifvqc9g","pricing_plan_id":"cebpf4jnsgd1na2vs0mg"},{"bike_id":"688d3da7-9eb1-4ea7-a56b-24b303c53ae4","system_id":"levelo_inurba_marseille","lat":43.25791,"lon":5.38275,"is_reserved":false,"is_disabled":false,"rental_uris":{"android":"levelo://app?vid=688d3da7-9eb1-4ea7-a56b-24b303c53ae4","ios":"levelo://app?vid=688d3da7-9eb1-4ea7-a56b-24b303c53ae4"},"vehicle_type_id":"4","last_reported":1781602954,"current_range_meters":8400,"station_id":"","pricing_plan_id":"cebpf4jnsgd1na2vs0mg"},{"bike_id":"af871fcc-7272-4be2-904e-da48896fc8e3","system_id":"levelo_inurba_marseille","lat":43.2929,"lon":5.40912,"is_reserved":false,"is_disabled":false,"rental_uris":{"android":"levelo://app?vid=af871fcc-7272-4be2-904e-da48896fc8e3","ios":"levelo://app?vid=af871fcc-7272-4be2-904e-da48896fc8e3"},"vehicle_type_id":"4","last_reported":1781602954,"current_range_meters":8400,"station_id":"ce4bh192rcd13ifvqdc0","pricing_plan_id":"cebpf4jnsgd1na2vs0mg"},{"bike_id":"e147eedb-c4e0-4e26-99ce-c30491ab6291","system_id":"levelo_inurba_marseille","lat":43.31254,"lon":5.36836,"is_reserved":false,"is_disabled":false,"rental_uris":{"android":"levelo://app?vid=e147eedb-c4e0-4e26-99ce-c30491ab6291","ios":"levelo://app?vid=e147eedb-c4e0-4e26-99ce-c30491ab6291"},"vehicle_type_id":"4","last_reported":1781602954,"current_range_meters":8400,"station_id":"ce4bgl92rcd13ifvqbq0","pricing_plan_id":"cebpf4jnsgd1na2vs0mg"},{"bike_id":"b731533c-196e-4fd5-9fc1-8a44b449f642","system_id":"levelo_inurba_marseille","lat":43.30352,"lon":5.40711,"is_reserved":false,"is_disabled":false,"rental_uris":{"android":"levelo://app?vid=b731533c-196e-4fd5-9fc1-8a44b449f642","ios":"levelo://app?vid=b731533c-196e-4fd5-9fc1-8a44b449f642"},"vehicle_type_id":"4","last_reported":1781602954,"current_range_meters":8400,"station_id":"","pricing_plan_id":"cebpf4jnsgd1na2vs0mg"},{"bike_id":"0ee5c527-5d14-45cb-8cd5-44156fdd97d0","system_id":"levelo_inurba_marseille","lat":43.30569,"lon":5.36521,"is_reserved":false,"is_disabled":false,"rental_uris":{"android":"levelo://app?vid=0ee5c527-5d14-45cb-8cd5-44156fdd97d0","ios":"levelo://app?vid=0ee5c527-5d14-45cb-8cd5-44156fdd97d0"},"vehicle_type_id":"4","last_reported":1781602954,"current_range_meters":8400,"station_id":"ce4bgs12rcd13ifvqcag","pricing_plan_id":"cebpf4jnsgd1na2vs0mg"},{"bike_id":"ad786be5-2e09-4658-be3d-ceceb7b4a725","system_id":"levelo_inurba_marseille","lat":43.2815,"lon":5.42618,"is_reserved":false,"is_disabled":false,"rental_uris":{"android":"levelo://app?vid=ad786be5-2e09-4658-be3d-ceceb7b4a725","ios":"levelo://app?vid=ad786be5-2e09-4658-be3d-ceceb7b4a725"},"vehicle_type_id":"4","last_reported":1781602954,"current_range_meters":8400,"station_id":"ce4bhnh2rcd13ifvqgug","pricing_plan_id":"cebpf4jnsgd1na2vs0mg"},{"bike_id":"c3f85a31-8448-432b-bdbd-289732876305","system_id":"levelo_inurba_marseille","lat":43.24384,"lon":5.37041,"is_reserved":false,"is_disabled":false,"rental_uris":{"android":"levelo://app?vid=c3f85a31-8448-432b-bdbd-289732876305","ios":"levelo://app?vid=c3f85a31-8448-432b-bdbd-289732876305"},"vehicle_type_id":"4","last_reported":1781602954,"current_range_meters":8400,"station_id":"ce4bhhh2rcd13ifvqfk0","pricing_plan_id":"cebpf4jnsgd1na2vs0mg"},{"bike_id":"377d46b5-1300-48af-8edd-cdb4edd8c599","system_id":"levelo_inurba_marseille","lat":43.26217,"lon":5.39716,"is_reserved":false,"is_disabled":false,"rental_uris":{"android":"levelo://app?vid=377d46b5-1300-48af-8edd-cdb4edd8c599","ios":"levelo://app?vid=377d46b5-1300-48af-8edd-cdb4edd8c599"},"vehicle_type_id":"4","last_reported":1781602954,"current_range_meters":8400,"station_id":"","pricing_plan_id":"cebpf4jnsgd1na2vs0mg"},