{"last_updated":1749571998,"ttl":60,"version":"2.2","data":{"bikes":[{"bike_id":"ad11cc4f-683e-45d9-81b5-392a081c9fa5","system_id":"levelo_inurba_marseille","lat":43.29005,"lon":5.35608,"is_reserved":false,"is_disabled":false,"rental_uris":{"android":"levelo://app?vid=ad11cc4f-683e-45d9-81b5-392a081c9fa5","ios":"levelo://app?vid=ad11cc4f-683e-45d9-81b5-392a081c9fa5"},"vehicle_type_id":"4","last_reported":1749571998,"current_range_meters":2800,"station_id":"ce4bhb92rcd13ifvqen0","pricing_plan_id":"cebpf4jnsgd1na2vs0mg"},{"bike_id":"5d4dde85-5ee2-471c-92b2-fbcd0adeb350","system_id":"levelo_inurba_marseille","lat":43.30457,"lon":5.36705,"is_reserved":false,"is_disabled":false,"rental_uris":{"android":"levelo://app?vid=5d4dde85-5ee2-471c-92b2-fbcd0adeb350","ios":"levelo://app?vid=5d4dde85-5ee2-471c-92b2-fbcd0adeb350"},"vehicle_type_id":"4","last_reported":1749571998,"current_range_meters":2800,"station_id":"","pricing_plan_id":"cebpf4jnsgd1na2vs0mg"},{"bike_id":"2840317a-c9e1-4577-9496-5607fad4ecd3","system_id":"levelo_inurba_marseille","lat":43.28158,"lon":5.42646,"is_reserved":false,"is_disabled":false,"rental_uris":{"android":"levelo://app?vid=2840317a-c9e1-4577-9496-5607fad4ecd3","ios":"levelo://app?vid=2840317a-c9e1-4577-9496-5607fad4ecd3"},"vehicle_type_id":"4","last_reported":1749571998,"current_range_meters":3200,"station_id":"ce4bhnh2rcd13ifvqgug","pricing_plan_id":"cebpf4jnsgd1na2vs0mg"},{"bike_id":"9c625302-721f-4d9d-9b6f-47693f3fd3b5","system_id":"levelo_inurba_marseille","lat":43.3035,"lon":5.41886,"is_reserved":false,"is_disabled":false,"rental_uris":{"android":"levelo://app?vid=9c625302-721f-4d9d-9b6f-47693f3fd3b5","ios":"levelo://app?vid=9c625302-721f-4d9d-9b6f-47693f3fd3b5"},"vehicle_type_id":"4","last_reported":1749571998,"current_range_meters":3200,"station_id":"ce4bhop2rcd13ifvqh7g","pricing_plan_id":"cebpf4jnsgd1na2vs0mg"},{"bike_id":"a0a48443-d7f5-4f0c-9e66-4224f74dc2db","system_id":"levelo_inurba_marseille","lat":43.28843,"lon":5.39319,"is_reserved":false,"is_disabled":false,"rental_uris":{"android":"levelo://app?vid=a0a48443-d7f5-4f0c-9e66-4224f74dc2db","ios":"levelo://app?vid=a0a48443-d7f5-4f0c-9e66-4224f74dc2db"},"vehicle_type_id":"4","last_reported":1749571998,"current_range_meters":3200,"station_id":"ce4bh2p2rcd13ifvqdi0","pricing_plan_id":"cebpf4jnsgd1na2vs0mg"},{"bike_id":"921bccf0-1879-4633-8024-5bbdc453118d","system_id":"levelo_inurba_marseille","lat":43.299133,"lon":5.38148,"is_reserved":false,"is_disabled":false,"rental_uris":{"android":"levelo://app?vid=921bccf0-1879-4633-8024-5bbdc453118d","ios":"levelo://app?vid=921bccf0-1879-4633-8024-5bbdc453118d"},"vehicle_type_id":"4","last_reported":1749571998,"current_range_meters":3200,"station_id":"ce4bgj12rcd13ifvqbc0","pricing_plan_id":"cebpf4jnsgd1na2vs0mg"},{"bike_id":"6d3922a6-b834-45dc-a648-c0f3d5bfc1dd","system_id":"levelo_inurba_marseille","lat":43.25114,"lon":5.40316,"is_reserved":false,"is_disabled":false,"rental_uris":{"android":"levelo://app?vid=6d3922a6-b834-45dc-a648-c0f3d5bfc1dd","ios":"levelo://app?vid=6d3922a6-b834-45dc-a648-c0f3d5bfc1dd"},"vehicle_type_id":"4","last_reported":1749571998,"current_range_meters":3200,"station_id":"ce4bhlh2rcd13ifvqgig","pricing_plan_id":"cebpf4jnsgd1na2vs0mg"},{"bike_id":"555626e4-ef9c-4f6a-9602-ac8f9dddf038","system_id":"levelo_inurba_marseille","lat":43.28418,"lon":5.34984,"is_reserved":false,"is_disabled":false,"rental_uris":{"android":"levelo://app?vid=555626e4-ef9c-4f6a-9602-ac8f9dddf038","ios":"levelo://app?vid=555626e4-ef9c-4f6a-9602-ac8f9dddf038"},"vehicle_type_id":"4","last_reported":1749571998,"current_range_meters":3600,"station_id":"ce4bhbh2rcd13ifvqepg","pricing_plan_id":"cebpf4jnsgd1na2vs0mg"},{"bike_id":"4c1b82c8-5d9b-413a-94b0-379b6262588d","system_id":"levelo_inurba_marseille","lat":43.30079,"lon":5.39066,"is_reserved":false,"is_disabled":false,"rental_uris":{"android":"levelo://app?vid=4c1b82c8-5d9b-413a-94b0-379b6262588d","ios":"levelo://app?vid=4c1b82c8-5d9b-413a-94b0-379b6262588d"},"vehicle_type_id":"4","last_reported":1749571998,"current_range_meters":3600,"station_id":"ce4bh192rcd13ifvqdb0","pricing_plan_id":"cebpf4jnsgd1na2vs0mg"},{"bike_id":"7d593098-375c-4381-af4d-ff84d0d02b0a","system_id":"levelo_inurba_marseille","lat":43.23191,"lon":5.39987,"is_reserved":false,"is_disabled":false,"rental_uris":{"android":"levelo://app?vid=7d593098-375c-4381-af4d-ff84d0d02b0a","ios":"levelo://app?vid=7d593098-375c-4381-af4d-ff84d0d02b0a"},"vehicle_type_id":"4","last_reported":1749571998,"current_range_meters":3600,"station_id":"ce4bhn12rcd13ifvqgqg","pricing_plan_id":"cebpf4jnsgd1na2vs0mg"},{"bike_id":"40d6dc04-82e9-4c7e-80a6-2e23bb4f0646","system_id":"levelo_inurba_marseille","lat":43.28158,"lon":5.42636,"is_reserved":false,"is_disabled":false,"rental_uris":{"android":"levelo://app?vid=40d6dc04-82e9-4c7e-80a6-2e23bb4f0646","ios":"levelo://app?vid=40d6dc04-82e9-4c7e-80a6-2e23bb4f0646"},"vehicle_type_id":"4","last_reported":1749571998,"current_range_meters":4000,"station_id":"ce4bhnh2rcd13ifvqgug","pricing_plan_id":"cebpf4jnsgd1na2vs0mg"},{"bike_id":"a7f7ab91-6d09-4e24-92b7-46f0020ccc5e","system_id":"levelo_inurba_marseille","lat":43.26776,"lon":5.39416,"is_reserved":false,"is_disabled":false,"rental_uris":{"android":"levelo://app?vid=a7f7ab91-6d09-4e24-92b7-46f0020ccc5e","ios":"levelo://app?vid=a7f7ab91-6d09-4e24-92b7-46f0020ccc5e"},"vehicle_type_id":"4","last_reported":1749571998,"current_range_meters":4000,"station_id":"ce4bhh12rcd13ifvqfg0","pricing_plan_id":"cebpf4jnsgd1na2vs0mg"},{"bike_id":"02234b0a-1bf7-4607-a6c3-2e03a929c2de","system_id":"levelo_inurba_marseille","lat":43.26226,"lon":5.40448,"is_reserved":false,"is_disabled":false,"rental_uris":{"android":"levelo://app?vid=02234b0a-1bf7-4607-a6c3-2e03a929c2de","ios":"levelo://app?vid=02234b0a-1bf7-4607-a6c3-2e03a929c2de"},"vehicle_type_id":"4","last_reported":1749571998,"current_range_meters":4000,"station_id":"ce4bhmh2rcd13ifvqgmg","pricing_plan_id":"cebpf4jnsgd1na2vs0mg"},{"bike_id":"9f1e2275-edf6-4aae-8f7c-81912e8dbd71","system_id":"levelo_inurba_marseille","lat":43.25002,"lon":5.38921,"is_reserved":false,"is_disabled":false,"rental_uris":{"android":"levelo://app?vid=9f1e2275-edf6-4aae-8f7c-81912e8dbd71","ios":"levelo://app?vid=9f1e2275-edf6-4aae-8f7c-81912e8dbd71"},"vehicle_type_id":"4","last_reported":1749571998,"current_range_meters":4000,"station_id":"ce4bhgp2rcd13ifvqfd0","pricing_plan_id":"cebpf4jnsgd1na2vs0mg"},{"bike_id":"c197eba1-a4c0-47d5-9937-655e7abc323f","system_id":"levelo_inurba_marseille","lat":43.287112,"lon":5.373724,"is_reserved":false,"is_disabled":false,"rental_uris":{"android":"levelo://app?vid=c197eba1-a4c0-47d5-9937-655e7abc323f","ios":"levelo://app?vid=c197eba1-a4c0-47d5-9937-655e7abc323f"},"vehicle_type_id":"4","last_reported":1749571998,"current_range_meters":4400,"station_id":"ce4bhb12rcd13ifvqem0","pricing_plan_id":"cebpf4jnsgd1na2vs0mg"},{"bike_id":"ca17d0b4-ce92-4238-86ba-9dd258d7d11e","system_id":"levelo_inurba_marseille","lat":43.28416,"lon":5.3498,"is_reserved":false,"is_disabled":false,"rental_uris":{"android":"levelo://app?vid=ca17d0b4-ce92-4238-86ba-9dd258d7d11e","ios":"levelo://app?vid=ca17d0b4-ce92-4238-86ba-9dd258d7d11e"},"vehicle_type_id":"4","last_reported":1749571998,"current_range_meters":4800,"station_id":"ce4bhbh2rcd13ifvqepg","pricing_plan_id":"cebpf4jnsgd1na2vs0mg"},{"bike_id":"d43b92af-4a5f-4492-ae4a-539aa878febf","system_id":"levelo_inurba_marseille","lat":43.29035,"lon":5.39963,"is_reserved":false,"is_disabled":false,"rental_uris":{"android":"levelo://app?vid=d43b92af-4a5f-4492-ae4a-539aa878febf","ios":"levelo://app?vid=d43b92af-4a5f-4492-ae4a-539aa878febf"},"vehicle_type_id":"4","last_reported":1749571998,"current_range_meters":4800,"station_id":"ce4bh392rcd13ifvqdm0","pricing_plan_id":"cebpf4jnsgd1na2vs0mg"},{"bike_id":"5dc42bb7-b211-44ad-a73f-1175c2d59bff","system_id":"levelo_inurba_marseille","lat":43.28007,"lon":5.40004,"is_reserved":false,"is_disabled":false,"rental_uris":{"android":"levelo://app?vid=5dc42bb7-b211-44ad-a73f-1175c2d59bff","ios":"levelo://app?vid=5dc42bb7-b211-44ad-a73f-1175c2d59bff"},"vehicle_type_id":"4","last_reported":1749571998,"current_range_meters":4800,"station_id":"ce4bho92rcd13ifvqh4g","pricing_plan_id":"cebpf4jnsgd1na2vs0mg"},{"bike_id":"347c65d6-be30-40c0-b6c4-2b0db662fbc7","system_id":"levelo_inurba_marseille","lat":43.295548,"lon":5.422913,"is_reserved":false,"is_disabled":false,"rental_uris":{"android":"levelo://app?vid=347c65d6-be30-40c0-b6c4-2b0db662fbc7","ios":"levelo://app?vid=347c65d6-be30-40c0-b6c4-2b0db662fbc7"},"vehicle_type_id":"4","last_reported":1749571998,"current_range_meters":4800,"station_id":"ce4bhph2rcd13ifvqhdg","pricing_plan_id":"cebpf4jnsgd1na2vs0mg"},{"bike_id":"dd67f108-95bf-4a1e-b619-4bb77e009c5b","system_id":"levelo_inurba_marseille","lat":43.290589,"lon":5.427694,"is_reserved":false,"is_disabled":false,"rental_uris":{"android":"levelo://app?vid=dd67f108-95bf-4a1e-b619-4bb77e009c5b","ios":"levelo://app?vid=dd67f108-95bf-4a1e-b619-4bb77e009c5b"},"vehicle_type_id":"4","last_reported":1749571998,"current_range_meters":5600,"station_id":"","pricing_plan_id":"cebpf4jnsgd1na2vs0mg"},{"bike_id":"b00ec517-e571-4286-ad52-0b88bf97ab26","system_id":"levelo_inurba_marseille","lat":43.29413,"lon":5.38624,"is_reserved":false,"is_disabled":false,"rental_uris":{"android":"levelo://app?vid=b00ec517-e571-4286-ad52-0b88bf97ab26","ios":"levelo://app?vid=b00ec517-e571-4286-ad52-0b88bf97ab26"},"vehicle_type_id":"4","last_reported":1749571998,"current_range_meters":5600,"station_id":"ce4bh2h2rcd13ifvqdh0","pricing_plan_id":"cebpf4jnsgd1na2vs0mg"},{"bike_id":"a6f55c71-e4cd-4e4f-93b7-82eb60c9b0c5","system_id":"levelo_inurba_marseille","lat":43.28568,"lon":5.39503,"is_reserved":false,"is_disabled":false,"rental_uris":{"android":"levelo://app?vid=a6f55c71-e4cd-4e4f-93b7-82eb60c9b0c5","ios":"levelo://app?vid=a6f55c71-e4cd-4e4f-93b7-82eb60c9b0c5"},"vehicle_type_id":"4","last_reported":1749571998,"current_range_meters":5600,"station_id":"ce4bh292rcd13ifvqdg0","pricing_plan_id":"cebpf4jnsgd1na2vs0mg"},{"bike_id":"eed8c764-629e-4ecf-84fc-cee88cb7eae2","system_id":"levelo_inurba_marseille","lat":43.30456,"lon":5.37903,"is_reserved":false,"is_disabled":false,"rental_uris":{"android":"levelo://app?vid=eed8c764-629e-4ecf-84fc-cee88cb7eae2","ios":"levelo://app?vid=eed8c764-629e-4ecf-84fc-cee88cb7eae2"},"vehicle_type_id":"4","last_reported":1749571998,"current_range_meters":6000,"station_id":"ce4bgup2rcd13ifvqcn0","pricing_plan_id":"cebpf4jnsgd1na2vs0mg"},{"bike_id":"632dc1a1-9370-4435-9d2b-fbace13b4104","system_id":"levelo_inurba_marseille","lat":43.24663,"lon":5.38165,"is_reserved":false,"is_disabled":false,"rental_uris":{"android":"levelo://app?vid=632dc1a1-9370-4435-9d2b-fbace13b4104","ios":"levelo://app?vid=632dc1a1-9370-4435-9d2b-fbace13b4104"},"vehicle_type_id":"4","last_reported":1749571998,"current_range_meters":6000,"station_id":"ce4bhih2rcd13ifvqfr0","pricing_plan_id":"cebpf4jnsgd1na2vs0mg"},{"bike_id":"817d98c3-97a9-4b7e-a2a8-ad8b2c58d6ec","system_id":"levelo_inurba_marseille","lat":43.29934,"lon":5.36547,"is_reserved":false,"is_disabled":false,"rental_uris":{"android":"levelo://app?vid=817d98c3-97a9-4b7e-a2a8-ad8b2c58d6ec","ios":"levelo://app?vid=817d98c3-97a9-4b7e-a2a8-ad8b2c58d6ec"},"vehicle_type_id":"4","last_reported":1749571998,"current_range_meters":6400,"station_id":"ce4bgm92rcd13ifvqbr0","pricing_plan_id":"cebpf4jnsgd1na2vs0mg"},{"bike_id":"de95e890-056e-4c40-8063-c9ba7367661d","system_id":"levelo_inurba_marseille","lat":43.305318,"lon":5.393445,"is_reserved":false,"is_disabled":false,"rental_uris":{"android":"levelo://app?vid=de95e890-056e-4c40-8063-c9ba7367661d","ios":"levelo://app?vid=de95e890-056e-4c40-8063-c9ba7367661d"},"vehicle_type_id":"4","last_reported":1749571998,"current_range_meters":6400,"station_id":"ce4bh0p2rcd13ifvqd80","pricing_plan_id":"cebpf4jnsgd1na2vs0mg"},{"bike_id":"fe52c15f-5aec-4b7e-998e-284a85843b2f","system_id":"levelo_inurba_marseille","lat":43.32111,"lon":5.36798,"is_reserved":false,"is_disabled":false,"rental_uris":{"android":"levelo://app?vid=fe52c15f-5aec-4b7e-998e-284a85843b2f","ios":"levelo://app?vid=fe52c15f-5aec-4b7e-998e-284a85843b2f"},"vehicle_type_id":"4","last_reported":1749571998,"current_range_meters":6400,"station_id":"ce4bhrh2rcd13ifvqhug","pricing_plan_id":"cebpf4jnsgd1na2vs0mg"},{"bike_id":"e8cb2e43-6f23-4baf-8073-76d84437d794","system_id":"levelo_inurba_marseille","lat":43.2857,"lon":5.394943,"is_reserved":false,"is_disabled":false,"rental_uris":{"android":"levelo://app?vid=e8cb2e43-6f23-4baf-8073-76d84437d794","ios":"levelo://app?vid=e8cb2e43-6f23-4baf-8073-76d84437d794"},"vehicle_type_id":"4","last_reported":1749571998,"current_range_meters":6800,"station_id":"ce4bh292rcd13ifvqdg0","pricing_plan_id":"cebpf4jnsgd1na2vs0mg"},{"bike_id":"e04199bc-986d-47f6-ae34-ec2b7b39855b","system_id":"levelo_inurba_marseille","lat":43.27812,"lon":5.40715,"is_reserved":false,"is_disabled":false,"rental_uris":{"android":"levelo://app?vid=e04199bc-986d-47f6-ae34-ec2b7b39855b","ios":"levelo://app?vid=e04199bc-986d-47f6-ae34-ec2b7b39855b"},"vehicle_type_id":"4","last_reported":1749571998,"current_range_meters":6800,"station_id":"ce4bhnh2rcd13ifvqgtg","pricing_plan_id":"cebpf4jnsgd1na2vs0mg"},{"bike_id":"743d5728-23fc-4a03-a60f-c6dacf91a53e","system_id":"levelo_inurba_marseille","lat":43.29416,"lon":5.38625,"is_reserved":false,"is_disabled":false,"rental_uris":{"android":"levelo://app?vid=743d5728-23fc-4a03-a60f-c6dacf91a53e","ios":"levelo://app?vid=743d5728-23fc-4a03-a60f-c6dacf91a53e"},"vehicle_type_id":"4","last_reported":1749571998,"current_range_meters":6800,"station_id":"ce4bh2h2rcd13ifvqdh0","pricing_plan_id":"cebpf4jnsgd1na2vs0mg"},{"bike_id":"f0782932-4f65-40fc-9cee-a635f880f137","system_id":"levelo_inurba_marseille","lat":43.32345,"lon":5.36733,"is_reserved":false,"is_disabled":false,"rental_uris":{"android":"levelo://app?vid=f0782932-4f65-40fc-9cee-a635f880f137","ios":"levelo://app?vid=f0782932-4f65-40fc-9cee-a635f880f137"},"vehicle_type_id":"4","last_reported":1749571998,"current_range_meters":7200,"station_id":"ce4bhsh2rcd13ifvqi2g","pricing_plan_id":"cebpf4jnsgd1na2vs0mg"},{"bike_id":"d5897165-4a08-4315-a459-111953ce164e","system_id":"levelo_inurba_marseille","lat":43.29409,"lon":5.38649,"is_reserved":false,"is_disabled":false,"rental_uris":{"android":"levelo://app?vid=d5897165-4a08-4315-a459-111953ce164e","ios":"levelo://app?vid=d5897165-4a08-4315-a459-111953ce164e"},"vehicle_type_id":"4","last_reported":1749571998,"current_range_meters":7200,"station_id":"ce4bh2h2rcd13ifvqdh0","pricing_plan_id":"cebpf4jnsgd1na2vs0mg"},{"bike_id":"3ad119e7-bd36-4ab2-8a49-a234db31a76e","system_id":"levelo_inurba_marseille","lat":43.284181,"lon":5.349972,"is_reserved":false,"is_disabled":false,"rental_uris":{"android":"levelo://app?vid=3ad119e7-bd36-4ab2-8a49-a234db31a76e","ios":"levelo://app?vid=3ad119e7-bd36-4ab2-8a49-a234db31a76e"},"vehicle_type_id":"4","last_reported":1749571998,"current_range_meters":7200,"station_id":"ce4bhbh2rcd13ifvqepg","pricing_plan_id":"cebpf4jnsgd1na2vs0mg"},{"bike_id":"b898339f-d661-4cd5-8993-7d7f4f35b9d5","system_id":"levelo_inurba_marseille","lat":43.30296,"lon":5.39218,"is_reserved":false,"is_disabled":false,"rental_uris":{"android":"levelo://app?vid=b898339f-d661-4cd5-8993-7d7f4f35b9d5","ios":"levelo://app?vid=b898339f-d661-4cd5-8993-7d7f4f35b9d5"},"vehicle_type_id":"4","last_reported":1749571998,"current_range_meters":7200,"station_id":"ce4bgkh2rcd13ifvqbk0","pricing_plan_id":"cebpf4jnsgd1na2vs0mg"},{"bike_id":"291ab0bc-bb52-4ad0-a840-58f1558e3677","system_id":"levelo_inurba_marseille","lat":43.217483,"lon":5.346117,"is_reserved":false,"is_disabled":false,"rental_uris":{"android":"levelo://app?vid=291ab0bc-bb52-4ad0-a840-58f1558e3677","ios":"levelo://app?vid=291ab0bc-bb52-4ad0-a840-58f1558e3677"},"vehicle_type_id":"4","last_reported":1749571998,"current_range_meters":7200,"station_id":"st_cvj6r9ubvosntc0bgbag","pricing_plan_id":"cebpf4jnsgd1na2vs0mg"},{"bike_id":"da14da1f-7442-42b5-98f6-365f4fbd4c56","system_id":"levelo_inurba_marseille","lat":43.32632,"lon":5.41033,"is_reserved":false,"is_disabled":false,"rental_uris":{"android":"levelo://app?vid=da14da1f-7442-42b5-98f6-365f4fbd4c56","ios":"levelo://app?vid=da14da1f-7442-42b5-98f6-365f4fbd4c56"},"vehicle_type_id":"4","last_reported":1749571998,"current_range_meters":7200,"station_id":"ce4bhpp2rcd13ifvqhgg","pricing_plan_id":"cebpf4jnsgd1na2vs0mg"},{"bike_id":"26e4d5cf-5183-4ea3-98e1-f6442f03aa2d","system_id":"levelo_inurba_marseille","lat":43.29104,"lon":5.38136,"is_reserved":false,"is_disabled":false,"rental_uris":{"android":"levelo://app?vid=26e4d5cf-5183-4ea3-98e1-f6442f03aa2d","ios":"levelo://app?vid=26e4d5cf-5183-4ea3-98e1-f6442f03aa2d"},"vehicle_type_id":"4","last_reported":1749571998,"current_range_meters":7200,"station_id":"ce4bh512rcd13ifvqe2g","pricing_plan_id":"cebpf4jnsgd1na2vs0mg"},{"bike_id":"a756be36-f100-4ef5-be39-2540009faafe","system_id":"levelo_inurba_marseille","lat":43.28107,"lon":5.37833,"is_reserved":false,"is_disabled":false,"rental_uris":{"android":"levelo://app?vid=a756be36-f100-4ef5-be39-2540009faafe","ios":"levelo://app?vid=a756be36-f100-4ef5-be39-2540009faafe"},"vehicle_type_id":"4","last_reported":1749571998,"current_range_meters":8000,"station_id":"ce4bha12rcd13ifvqee0","pricing_plan_id":"cebpf4jnsgd1na2vs0mg"},{"bike_id":"fb8977b3-1b0d-4bd7-b409-f8e7e0de2d3b","system_id":"levelo_inurba_marseille","lat":43.27987,"lon":5.41666,"is_reserved":false,"is_disabled":false,"rental_uris":{"android":"levelo://app?vid=fb8977b3-1b0d-4bd7-b409-f8e7e0de2d3b","ios":"levelo://app?vid=fb8977b3-1b0d-4bd7-b409-f8e7e0de2d3b"},"vehicle_type_id":"4","last_reported":1749571998,"current_range_meters":8000,"station_id":"ce4bho12rcd13ifvqh1g","pricing_plan_id":"cebpf4jnsgd1na2vs0mg"},{"bike_id":"7fa8fe03-e761-44b8-8ced-e506fdbc1a3a","system_id":"levelo_inurba_marseille","lat":43.32148,"lon":5.36796,"is_reserved":false,"is_disabled":false,"rental_uris":{"android":"levelo://app?vid=7fa8fe03-e761-44b8-8ced-e506fdbc1a3a","ios":"levelo://app?vid=7fa8fe03-e761-44b8-8ced-e506fdbc1a3a"},"vehicle_type_id":"4","last_reported":1749571998,"current_range_meters":8000,"station_id":"ce4bhrh2rcd13ifvqhug","pricing_plan_id":"cebpf4jnsgd1na2vs0mg"},{"bike_id":"85304951-cb9b-4351-857e-c25b2fdf676e","system_id":"levelo_inurba_marseille","lat":43.28396,"lon":5.37526,"is_reserved":false,"is_disabled":false,"rental_uris":{"android":"levelo://app?vid=85304951-cb9b-4351-857e-c25b2fdf676e","ios":"levelo://app?vid=85304951-cb9b-4351-857e-c25b2fdf676e"},"vehicle_type_id":"4","last_reported":1749571998,"current_range_meters":8000,"station_id":"ce4bh412rcd13ifvqds0","pricing_plan_id":"cebpf4jnsgd1na2vs0mg"},{"bike_id":"28c71702-a720-4cd6-91e0-8e5a41fbdb1b","system_id":"levelo_inurba_marseille","lat":43.23194,"lon":5.35544,"is_reserved":false,"is_disabled":false,"rental_uris":{"android":"levelo://app?vid=28c71702-a720-4cd6-91e0-8e5a41fbdb1b","ios":"levelo://app?vid=28c71702-a720-4cd6-91e0-8e5a41fbdb1b"},"vehicle_type_id":"4","last_reported":1749571998,"current_range_meters":8000,"station_id":"ce4bhu92rcd13ifvqi70","pricing_plan_id":"cebpf4jnsgd1na2vs0mg"},{"bike_id":"968a0124-0b32-418b-85f0-edf9fce04197","system_id":"levelo_inurba_marseille","lat":43.27823,"lon":5.39209,"is_reserved":false,"is_disabled":true,"rental_uris":{"android":"levelo://app?vid=968a0124-0b32-418b-85f0-edf9fce04197","ios":"levelo://app?vid=968a0124-0b32-418b-85f0-edf9fce04197"},"vehicle_type_id":"4","last_reported":1749571998,"current_range_meters":8000,"station_id":"ce4bhjp2rcd13ifvqga0","pricing_plan_id":"cebpf4jnsgd1na2vs0mg"},{"bike_id":"eeaa5aaa-e303-4f96-a202-f1be59a15cfa","system_id":"levelo_inurba_marseille","lat":43.29525,"lon":5.3903,"is_reserved":false,"is_disabled":false,"rental_uris":{"android":"levelo://app?vid=eeaa5aaa-e303-4f96-a202-f1be59a15cfa","ios":"levelo://app?vid=eeaa5aaa-e303-4f96-a202-f1be59a15cfa"},"vehicle_type_id":"4","last_reported":1749571998,"current_range_meters":8400,"station_id":"ce4bh3p2rcd13ifvqdp0","pricing_plan_id":"cebpf4jnsgd1na2vs0mg"},{"bike_id":"e7327c01-d229-4b97-a577-2b87bd565b7f","system_id":"levelo_inurba_marseille","lat":43.24387,"lon":5.37052,"is_reserved":false,"is_disabled":false,"rental_uris":{"android":"levelo://app?vid=e7327c01-d229-4b97-a577-2b87bd565b7f","ios":"levelo://app?vid=e7327c01-d229-4b97-a577-2b87bd565b7f"},"vehicle_type_id":"4","last_reported":1749571998,"current_range_meters":8000,"station_id":"ce4bhhh2rcd13ifvqfk0","pricing_plan_id":"cebpf4jnsgd1na2vs0mg"},{"bike_id":"88113087-f0bb-4133-ab2a-bbfce1f3d99a","system_id":"levelo_inurba_marseille","lat":43.31755,"lon":5.40455,"is_reserved":false,"is_disabled":true,"rental_uris":{"android":"levelo://app?vid=88113087-f0bb-4133-ab2a-bbfce1f3d99a","ios":"levelo://app?vid=88113087-f0bb-4133-ab2a-bbfce1f3d99a"},"vehicle_type_id":"4","last_reported":1749571998,"current_range_meters":8400,"station_id":"","pricing_plan_id":"cebpf4jnsgd1na2vs0mg"},{"bike_id":"0511cb9f-7dd3-4672-945b-236e9f0238ac","system_id":"levelo_inurba_marseille","lat":43.29788,"lon":5.37713,"is_reserved":false,"is_disabled":false,"rental_uris":{"android":"levelo://app?vid=0511cb9f-7dd3-4672-945b-236e9f0238ac","ios":"levelo://app?vid=0511cb9f-7dd3-4672-945b-236e9f0238ac"},"vehicle_type_id":"4","last_reported":1749571998,"current_range_meters":8400,"station_id":"","pricing_plan_id":"cebpf4jnsgd1na2vs0mg"},{"bike_id":"bd9c6497-55fc-4325-9419-abe08cdb8538","system_id":"levelo_inurba_marseille","lat":43.23194,"lon":5.35552,"is_reserved":false,"is_disabled":false,"rental_uris":{"android":"levelo://app?vid=bd9c6497-55fc-4325-9419-abe08cdb8538","ios":"levelo://app?vid=bd9c6497-55fc-4325-9419-abe08cdb8538"},"vehicle_type_id":"4","last_reported":1749571998,"current_range_meters":8800,"station_id":"ce4bhu92rcd13ifvqi70","pricing_plan_id":"cebpf4jnsgd1na2vs0mg"},{"bike_id":"d2d61c16-7c0c-4b4f-bb23-01330df0cbcf","system_id":"levelo_inurba_marseille","lat":43.29193,"lon":5.35842,"is_reserved":false,"is_disabled":false,"rental_uris":{"android":"levelo://app?vid=d2d61c16-7c0c-4b4f-bb23-01330df0cbcf","ios":"levelo://app?vid=d2d61c16-7c0c-4b4f-bb23-01330df0cbcf"},"vehicle_type_id":"4","last_reported":1749571998,"current_range_meters":8800,"station_id":"ce4bhb92rcd13ifvqen0","pricing_plan_id":"cebpf4jnsgd1na2vs0mg"},{"bike_id":"88be1d1d-d618-416c-84a9-0f8a13da2b0b","system_id":"levelo_inurba_marseille","lat":43.25105,"lon":5.40324,"is_reserved":false,"is_disabled":false,"rental_uris":{"android":"levelo://app?vid=88be1d1d-d618-416c-84a9-0f8a13da2b0b","ios":"levelo://app?vid=88be1d1d-d618-416c-84a9-0f8a13da2b0b"},"vehicle_type_id":"4","last_reported":1749571998,"current_range_meters":8800,"station_id":"ce4bhlh2rcd13ifvqgig","pricing_plan_id":"cebpf4jnsgd1na2vs0mg"},{"bike_id":"49917676-8f98-444e-a341-5e35575ebdc8","system_id":"levelo_inurba_marseille","lat":43.28416,"lon":5.34997,"is_reserved":false,"is_disabled":false,"rental_uris":{"android":"levelo://app?vid=49917676-8f98-444e-a341-5e35575ebdc8","ios":"levelo://app?vid=49917676-8f98-444e-a341-5e35575ebdc8"},"vehicle_type_id":"4","last_reported":1749571998,"current_range_meters":8800,"station_id":"ce4bhbh2rcd13ifvqepg","pricing_plan_id":"cebpf4jnsgd1na2vs0mg"},{"bike_id":"ba509714-11ea-4d63-9ff5-405d995db14c","system_id":"levelo_inurba_marseille","lat":43.217462,"lon":5.346106,"is_reserved":false,"is_disabled":false,"rental_uris":{"android":"levelo://app?vid=ba509714-11ea-4d63-9ff5-405d995db14c","ios":"levelo://app?vid=ba509714-11ea-4d63-9ff5-405d995db14c"},"vehicle_type_id":"4","last_reported":1749571998,"current_range_meters":9200,"station_id":"st_cvj6r9ubvosntc0bgbag","pricing_plan_id":"cebpf4jnsgd1na2vs0mg"},{"bike_id":"0253640a-b39d-43e3-90f8-230520726ab0","system_id":"levelo_inurba_marseille","lat":43.29031,"lon":5.38636,"is_reserved":false,"is_disabled":false,"rental_uris":{"android":"levelo://app?vid=0253640a-b39d-43e3-90f8-230520726ab0","ios":"levelo://app?vid=0253640a-b39d-43e3-90f8-230520726ab0"},"vehicle_type_id":"4","last_reported":1749571998,"current_range_meters":9200,"station_id":"ce4bh4p2rcd13ifvqe0g","pricing_plan_id":"cebpf4jnsgd1na2vs0mg"},{"bike_id":"32ec1162-655f-42f8-86b4-297bd9442945","system_id":"levelo_inurba_marseille","lat":43.28279,"lon":5.35083,"is_reserved":false,"is_disabled":false,"rental_uris":{"android":"levelo://app?vid=32ec1162-655f-42f8-86b4-297bd9442945","ios":"levelo://app?vid=32ec1162-655f-42f8-86b4-297bd9442945"},"vehicle_type_id":"4","last_reported":1749571998,"current_range_meters":9600,"station_id":"ce4bhbp2rcd13ifvqerg","pricing_plan_id":"cebpf4jnsgd1na2vs0mg"},{"bike_id":"b6285f6b-e9e7-470d-9b6d-1afe99ab71bf","system_id":"levelo_inurba_marseille","lat":43.26191,"lon":5.42073,"is_reserved":false,"is_disabled":false,"rental_uris":{"android":"levelo://app?vid=b6285f6b-e9e7-470d-9b6d-1afe99ab71bf","ios":"levelo://app?vid=b6285f6b-e9e7-470d-9b6d-1afe99ab71bf"},"vehicle_type_id":"4","last_reported":1749571998,"current_range_meters":9600,"station_id":"","pricing_plan_id":"cebpf4jnsgd1na2vs0mg"},{"bike_id":"15d66e80-f923-4d28-9562-1cbdccc76b06","system_id":"levelo_inurba_marseille","lat":43.29787,"lon":5.38093,"is_reserved":false,"is_disabled":false,"rental_uris":{"android":"levelo://app?vid=15d66e80-f923-4d28-9562-1cbdccc76b06","ios":"levelo://app?vid=15d66e80-f923-4d28-9562-1cbdccc76b06"},"vehicle_type_id":"4","last_reported":1749571998,"current_range_meters":9600,"station_id":"ce4bgip2rcd13ifvqbb0","pricing_plan_id":"cebpf4jnsgd1na2vs0mg"},{"bike_id":"09b225c1-06f5-4f17-8276-ebbe2d437827","system_id":"levelo_inurba_marseille","lat":43.28839,"lon":5.39298,"is_reserved":false,"is_disabled":false,"rental_uris":{"android":"levelo://app?vid=09b225c1-06f5-4f17-8276-ebbe2d437827","ios":"levelo://app?vid=09b225c1-06f5-4f17-8276-ebbe2d437827"},"vehicle_type_id":"4","last_reported":1749571998,"current_range_meters":9600,"station_id":"ce4bh2p2rcd13ifvqdi0","pricing_plan_id":"cebpf4jnsgd1na2vs0mg"},{"bike_id":"8adad799-88c4-4f06-8092-fd267bfbaa67","system_id":"levelo_inurba_marseille","lat":43.30353,"lon":5.41882,"is_reserved":false,"is_disabled":false,"rental_uris":{"android":"levelo://app?vid=8adad799-88c4-4f06-8092-fd267bfbaa67","ios":"levelo://app?vid=8adad799-88c4-4f06-8092-fd267bfbaa67"},"vehicle_type_id":"4","last_reported":1749571998,"current_range_meters":9600,"station_id":"ce4bhop2rcd13ifvqh7g","pricing_plan_id":"cebpf4jnsgd1na2vs0mg"},{"bike_id":"7ddaa34d-e626-4370-b563-3fa272b6b3e1","system_id":"levelo_inurba_marseille","lat":43.2886,"lon":5.39335,"is_reserved":false,"is_disabled":false,"rental_uris":{"android":"levelo://app?vid=7ddaa34d-e626-4370-b563-3fa272b6b3e1","ios":"levelo://app?vid=7ddaa34d-e626-4370-b563-3fa272b6b3e1"},"vehicle_type_id":"4","last_reported":1749571998,"current_range_meters":9600,"station_id":"ce4bh2p2rcd13ifvqdi0","pricing_plan_id":"cebpf4jnsgd1na2vs0mg"},{"bike_id":"882210b0-9cc7-4c04-8294-6049c8ddfe92","system_id":"levelo_inurba_marseille","lat":43.29608,"lon":5.37738,"is_reserved":false,"is_disabled":false,"rental_uris":{"android":"levelo://app?vid=882210b0-9cc7-4c04-8294-6049c8ddfe92","ios":"levelo://app?vid=882210b0-9cc7-4c04-8294-6049c8ddfe92"},"vehicle_type_id":"4","last_reported":1749571998,"current_range_meters":10000,"station_id":"ce4bgi92rcd13ifvqb90","pricing_plan_id":"cebpf4jnsgd1na2vs0mg"},{"bike_id":"7c9b294d-dad1-4918-8f8b-e34161629565","system_id":"levelo_inurba_marseille","lat":43.28424,"lon":5.34996,"is_reserved":false,"is_disabled":false,"rental_uris":{"android":"levelo://app?vid=7c9b294d-dad1-4918-8f8b-e34161629565","ios":"levelo://app?vid=7c9b294d-dad1-4918-8f8b-e34161629565"},"vehicle_type_id":"4","last_reported":1749571998,"current_range_meters":10000,"station_id":"ce4bhbh2rcd13ifvqepg","pricing_plan_id":"cebpf4jnsgd1na2vs0mg"},{"bike_id":"39d32260-51d5-455a-ba53-6471389bd255","system_id":"levelo_inurba_marseille","lat":43.3199,"lon":5.37619,"is_reserved":false,"is_disabled":false,"rental_uris":{"android":"levelo://app?vid=39d32260-51d5-455a-ba53-6471389bd255","ios":"levelo://app?vid=39d32260-51d5-455a-ba53-6471389bd255"},"vehicle_type_id":"4","last_reported":1749571998,"current_range_meters":10000,"station_id":"","pricing_plan_id":"cebpf4jnsgd1na2vs0mg"},{"bike_id":"4e643616-64a8-4cb4-a699-5c99f31870eb","system_id":"levelo_inurba_marseille","lat":43.21746,"lon":5.34599,"is_reserved":false,"is_disabled":false,"rental_uris":{"android":"levelo://app?vid=4e643616-64a8-4cb4-a699-5c99f31870eb","ios":"levelo://app?vid=4e643616-64a8-4cb4-a699-5c99f31870eb"},"vehicle_type_id":"4","last_reported":1749571998,"current_range_meters":10000,"station_id":"st_cvj6r9ubvosntc0bgbag","pricing_plan_id":"cebpf4jnsgd1na2vs0mg"},{"bike_id":"d5a17315-e704-4793-b6b0-10a8a3159a06","system_id":"levelo_inurba_marseille","lat":43.30216,"lon":5.36736,"is_reserved":false,"is_disabled":false,"rental_uris":{"android":"levelo://app?vid=d5a17315-e704-4793-b6b0-10a8a3159a06","ios":"levelo://app?vid=d5a17315-e704-4793-b6b0-10a8a3159a06"},"vehicle_type_id":"4","last_reported":1749571998,"current_range_meters":10800,"station_id":"ce4bgrh2rcd13ifvqc8g","pricing_plan_id":"cebpf4jnsgd1na2vs0mg"},{"bike_id":"b393526e-b100-41d8-a654-281bc951b32f","system_id":"levelo_inurba_marseille","lat":43.3108,"lon":5.4243,"is_reserved":false,"is_disabled":false,"rental_uris":{"android":"levelo://app?vid=b393526e-b100-41d8-a654-281bc951b32f","ios":"levelo://app?vid=b393526e-b100-41d8-a654-281bc951b32f"},"vehicle_type_id":"4","last_reported":1749571998,"current_range_meters":10800,"station_id":"ce4bhp92rcd13ifvqhag","pricing_plan_id":"cebpf4jnsgd1na2vs0mg"},{"bike_id":"27e462e7-a511-4b6e-8565-7a3c4dbf737c","system_id":"levelo_inurba_marseille","lat":43.3078,"lon":5.37651,"is_reserved":false,"is_disabled":false,"rental_uris":{"android":"levelo://app?vid=27e462e7-a511-4b6e-8565-7a3c4dbf737c","ios":"levelo://app?vid=27e462e7-a511-4b6e-8565-7a3c4dbf737c"},"vehicle_type_id":"4","last_reported":1749571998,"current_range_meters":10800,"station_id":"ce4bgv92rcd13ifvqcq0","pricing_plan_id":"cebpf4jnsgd1na2vs0mg"},{"bike_id":"dd509fef-6595-4c27-829b-d8f2502ff560","system_id":"levelo_inurba_marseille","lat":43.28147,"lon":5.42647,"is_reserved":false,"is_disabled":false,"rental_uris":{"android":"levelo://app?vid=dd509fef-6595-4c27-829b-d8f2502ff560","ios":"levelo://app?vid=dd509fef-6595-4c27-829b-d8f2502ff560"},"vehicle_type_id":"4","last_reported":1749571998,"current_range_meters":10800,"station_id":"ce4bhnh2rcd13ifvqgug","pricing_plan_id":"cebpf4jnsgd1na2vs0mg"},{"bike_id":"9e70fb7b-e755-41b8-b358-73c5ea8136a3","system_id":"levelo_inurba_marseille","lat":43.28277,"lon":5.35066,"is_reserved":false,"is_disabled":false,"rental_uris":{"android":"levelo://app?vid=9e70fb7b-e755-41b8-b358-73c5ea8136a3","ios":"levelo://app?vid=9e70fb7b-e755-41b8-b358-73c5ea8136a3"},"vehicle_type_id":"4","last_reported":1749571998,"current_range_meters":10800,"station_id":"ce4bhbp2rcd13ifvqerg","pricing_plan_id":"cebpf4jnsgd1na2vs0mg"},{"bike_id":"4cae07bb-22ff-49e6-b14e-60b3f30bdafd","system_id":"levelo_inurba_marseille","lat":43.28867,"lon":5.35845,"is_reserved":false,"is_disabled":false,"rental_uris":{"android":"levelo://app?vid=4cae07bb-22ff-49e6-b14e-60b3f30bdafd","ios":"levelo://app?vid=4cae07bb-22ff-49e6-b14e-60b3f30bdafd"},"vehicle_type_id":"4","last_reported":1749571998,"current_range_meters":10800,"station_id":"ce4bhb12rcd13ifvqem0","pricing_plan_id":"cebpf4jnsgd1na2vs0mg"},{"bike_id":"6890b9e2-87e1-40b6-9e0f-8af99f456400","system_id":"levelo_inurba_marseille","lat":43.2959,"lon":5.38112,"is_reserved":false,"is_disabled":true,"rental_uris":{"android":"levelo://app?vid=6890b9e2-87e1-40b6-9e0f-8af99f456400","ios":"levelo://app?vid=6890b9e2-87e1-40b6-9e0f-8af99f456400"},"vehicle_type_id":"4","last_reported":1749571998,"current_range_meters":10800,"station_id":"ce4bgl12rcd13ifvqbo0","pricing_plan_id":"cebpf4jnsgd1na2vs0mg"},{"bike_id":"6499d1fc-3cb6-4458-b525-3c5d08b64f0c","system_id":"levelo_inurba_marseille","lat":43.30182,"lon":5.36617,"is_reserved":false,"is_disabled":false,"rental_uris":{"android":"levelo://app?vid=6499d1fc-3cb6-4458-b525-3c5d08b64f0c","ios":"levelo://app?vid=6499d1fc-3cb6-4458-b525-3c5d08b64f0c"},"vehicle_type_id":"4","last_reported":1749571998,"current_range_meters":10800,"station_id":"ce4bgrh2rcd13ifvqc8g","pricing_plan_id":"cebpf4jnsgd1na2vs0mg"},{"bike_id":"c31dcfd9-6048-45b7-8b1d-fae158fe1439","system_id":"levelo_inurba_marseille","lat":43.2828,"lon":5.35073,"is_reserved":false,"is_disabled":false,"rental_uris":{"android":"levelo://app?vid=c31dcfd9-6048-45b7-8b1d-fae158fe1439","ios":"levelo://app?vid=c31dcfd9-6048-45b7-8b1d-fae158fe1439"},"vehicle_type_id":"4","last_reported":1749571998,"current_range_meters":11200,"station_id":"ce4bhbp2rcd13ifvqerg","pricing_plan_id":"cebpf4jnsgd1na2vs0mg"},{"bike_id":"1b760162-f793-424a-a929-ef3cd8eff0f8","system_id":"levelo_inurba_marseille","lat":43.28613,"lon":5.37059,"is_reserved":false,"is_disabled":false,"rental_uris":{"android":"levelo://app?vid=1b760162-f793-424a-a929-ef3cd8eff0f8","ios":"levelo://app?vid=1b760162-f793-424a-a929-ef3cd8eff0f8"},"vehicle_type_id":"4","last_reported":1749571998,"current_range_meters":11200,"station_id":"ce4bht12rcd13ifvqi60","pricing_plan_id":"cebpf4jnsgd1na2vs0mg"},{"bike_id":"5077581b-cebb-46fc-ba69-4fa8272d4810","system_id":"levelo_inurba_marseille","lat":43.21369,"lon":5.35518,"is_reserved":false,"is_disabled":false,"rental_uris":{"android":"levelo://app?vid=5077581b-cebb-46fc-ba69-4fa8272d4810","ios":"levelo://app?vid=5077581b-cebb-46fc-ba69-4fa8272d4810"},"vehicle_type_id":"4","last_reported":1749571998,"current_range_meters":11200,"station_id":"","pricing_plan_id":"cebpf4jnsgd1na2vs0mg"},{"bike_id":"ef555bdb-3115-4b1f-9398-9c76776e1204","system_id":"levelo_inurba_marseille","lat":43.26034,"lon":5.37452,"is_reserved":false,"is_disabled":false,"rental_uris":{"android":"levelo://app?vid=ef555bdb-3115-4b1f-9398-9c76776e1204","ios":"levelo://app?vid=ef555bdb-3115-4b1f-9398-9c76776e1204"},"vehicle_type_id":"4","last_reported":1749571998,"current_range_meters":11200,"station_id":"","pricing_plan_id":"cebpf4jnsgd1na2vs0mg"},{"bike_id":"3d59d2ec-b59a-43e8-abae-40ac02fdcdb8","system_id":"levelo_inurba_marseille","lat":43.29554,"lon":5.42284,"is_reserved":false,"is_disabled":false,"rental_uris":{"android":"levelo://app?vid=3d59d2ec-b59a-43e8-abae-40ac02fdcdb8","ios":"levelo://app?vid=3d59d2ec-b59a-43e8-abae-40ac02fdcdb8"},"vehicle_type_id":"4","last_reported":1749571998,"current_range_meters":11200,"station_id":"ce4bhph2rcd13ifvqhdg","pricing_plan_id":"cebpf4jnsgd1na2vs0mg"},{"bike_id":"a0136290-b004-45e7-b661-dc338c89cdc5","system_id":"levelo_inurba_marseille","lat":43.29519,"lon":5.39407,"is_reserved":false,"is_disabled":false,"rental_uris":{"android":"levelo://app?vid=a0136290-b004-45e7-b661-dc338c89cdc5","ios":"levelo://app?vid=a0136290-b004-45e7-b661-dc338c89cdc5"},"vehicle_type_id":"4","last_reported":1749571998,"current_range_meters":11600,"station_id":"ce4bh292rcd13ifvqdf0","pricing_plan_id":"cebpf4jnsgd1na2vs0mg"},{"bike_id":"75d5aaa7-d932-4da7-9e2e-20b15e0eaeee","system_id":"levelo_inurba_marseille","lat":43.28385,"lon":5.34996,"is_reserved":false,"is_disabled":false,"rental_uris":{"android":"levelo://app?vid=75d5aaa7-d932-4da7-9e2e-20b15e0eaeee","ios":"levelo://app?vid=75d5aaa7-d932-4da7-9e2e-20b15e0eaeee"},"vehicle_type_id":"4","last_reported":1749571998,"current_range_meters":11600,"station_id":"ce4bhbh2rcd13ifvqepg","pricing_plan_id":"cebpf4jnsgd1na2vs0mg"},{"bike_id":"2fb77abd-3112-4fce-99a6-71b8052ec74f","system_id":"levelo_inurba_marseille","lat":43.27941,"lon":5.41045,"is_reserved":false,"is_disabled":false,"rental_uris":{"android":"levelo://app?vid=2fb77abd-3112-4fce-99a6-71b8052ec74f","ios":"levelo://app?vid=2fb77abd-3112-4fce-99a6-71b8052ec74f"},"vehicle_type_id":"4","last_reported":1749571998,"current_range_meters":11600,"station_id":"ce4bhnp2rcd13ifvqh0g","pricing_plan_id":"cebpf4jnsgd1na2vs0mg"},{"bike_id":"0762674f-1e89-4d4c-aa36-9ccaf8f24fa7","system_id":"levelo_inurba_marseille","lat":43.28435,"lon":5.34999,"is_reserved":false,"is_disabled":false,"rental_uris":{"android":"levelo://app?vid=0762674f-1e89-4d4c-aa36-9ccaf8f24fa7","ios":"levelo://app?vid=0762674f-1e89-4d4c-aa36-9ccaf8f24fa7"},"vehicle_type_id":"4","last_reported":1749571998,"current_range_meters":11600,"station_id":"ce4bhbh2rcd13ifvqepg","pricing_plan_id":"cebpf4jnsgd1na2vs0mg"},{"bike_id":"d7d02bfc-1695-4f37-895b-714dd7ff4d94","system_id":"levelo_inurba_marseille","lat":43.297,"lon":5.37699,"is_reserved":false,"is_disabled":false,"rental_uris":{"android":"levelo://app?vid=d7d02bfc-1695-4f37-895b-714dd7ff4d94","ios":"levelo://app?vid=d7d02bfc-1695-4f37-895b-714dd7ff4d94"},"vehicle_type_id":"4","last_reported":1749571998,"current_range_meters":11600,"station_id":"ce4bgkh2rcd13ifvqbl0","pricing_plan_id":"cebpf4jnsgd1na2vs0mg"},{"bike_id":"2fb82a4e-0ee1-4839-87e1-0819fb18ed3d","system_id":"levelo_inurba_marseille","lat":43.27065,"lon":5.42274,"is_reserved":false,"is_disabled":true,"rental_uris":{"android":"levelo://app?vid=2fb82a4e-0ee1-4839-87e1-0819fb18ed3d","ios":"levelo://app?vid=2fb82a4e-0ee1-4839-87e1-0819fb18ed3d"},"vehicle_type_id":"4","last_reported":1749571998,"current_range_meters":11600,"station_id":"ce4bhk92rcd13ifvqgb0","pricing_plan_id":"cebpf4jnsgd1na2vs0mg"},{"bike_id":"6928e466-519a-43b8-8ee0-554ccb89f881","system_id":"levelo_inurba_marseille","lat":43.284293,"lon":5.349973,"is_reserved":false,"is_disabled":false,"rental_uris":{"android":"levelo://app?vid=6928e466-519a-43b8-8ee0-554ccb89f881","ios":"levelo://app?vid=6928e466-519a-43b8-8ee0-554ccb89f881"},"vehicle_type_id":"4","last_reported":1749571998,"current_range_meters":12000,"station_id":"ce4bhbh2rcd13ifvqepg","pricing_plan_id":"cebpf4jnsgd1na2vs0mg"},{"bike_id":"2fc9d308-41cb-43cf-8b96-5aaab15e1a94","system_id":"levelo_inurba_marseille","lat":43.29259,"lon":5.38439,"is_reserved":false,"is_disabled":false,"rental_uris":{"android":"levelo://app?vid=2fc9d308-41cb-43cf-8b96-5aaab15e1a94","ios":"levelo://app?vid=2fc9d308-41cb-43cf-8b96-5aaab15e1a94"},"vehicle_type_id":"4","last_reported":1749571998,"current_range_meters":12000,"station_id":"ce4bh692rcd13ifvqea0","pricing_plan_id":"cebpf4jnsgd1na2vs0mg"},{"bike_id":"2c6d03f1-92ff-42ca-bf1b-607d5b36a470","system_id":"levelo_inurba_marseille","lat":43.27069,"lon":5.42281,"is_reserved":false,"is_disabled":false,"rental_uris":{"android":"levelo://app?vid=2c6d03f1-92ff-42ca-bf1b-607d5b36a470","ios":"levelo://app?vid=2c6d03f1-92ff-42ca-bf1b-607d5b36a470"},"vehicle_type_id":"4","last_reported":1749571998,"current_range_meters":12000,"station_id":"ce4bhk92rcd13ifvqgb0","pricing_plan_id":"cebpf4jnsgd1na2vs0mg"},{"bike_id":"a48e89da-7dfb-4582-b7d6-24ba5ca180c1","system_id":"levelo_inurba_marseille","lat":43.3014,"lon":5.39854,"is_reserved":false,"is_disabled":false,"rental_uris":{"android":"levelo://app?vid=a48e89da-7dfb-4582-b7d6-24ba5ca180c1","ios":"levelo://app?vid=a48e89da-7dfb-4582-b7d6-24ba5ca180c1"},"vehicle_type_id":"4","last_reported":1749571998,"current_range_meters":12000,"station_id":"ce4bh0h2rcd13ifvqd40","pricing_plan_id":"cebpf4jnsgd1na2vs0mg"},{"bike_id":"889a0fd0-c2e4-48fc-a483-20a0e4d4d970","system_id":"levelo_inurba_marseille","lat":43.29856,"lon":5.39734,"is_reserved":false,"is_disabled":false,"rental_uris":{"android":"levelo://app?vid=889a0fd0-c2e4-48fc-a483-20a0e4d4d970","ios":"levelo://app?vid=889a0fd0-c2e4-48fc-a483-20a0e4d4d970"},"vehicle_type_id":"4","last_reported":1749571998,"current_range_meters":12000,"station_id":"","pricing_plan_id":"cebpf4jnsgd1na2vs0mg"},{"bike_id":"c96b2cb2-0df6-4ee8-992d-1c437bf5786b","system_id":"levelo_inurba_marseille","lat":43.27058,"lon":5.4026,"is_reserved":false,"is_disabled":true,"rental_uris":{"android":"levelo://app?vid=c96b2cb2-0df6-4ee8-992d-1c437bf5786b","ios":"levelo://app?vid=c96b2cb2-0df6-4ee8-992d-1c437bf5786b"},"vehicle_type_id":"4","last_reported":1749571998,"current_range_meters":12000,"station_id":"ce4bhk92rcd13ifvqgc0","pricing_plan_id":"cebpf4jnsgd1na2vs0mg"},{"bike_id":"ca27e12a-1f2d-4cf2-be29-12a2b9ff1547","system_id":"levelo_inurba_marseille","lat":43.31712,"lon":5.42398,"is_reserved":false,"is_disabled":false,"rental_uris":{"android":"levelo://app?vid=ca27e12a-1f2d-4cf2-be29-12a2b9ff1547","ios":"levelo://app?vid=ca27e12a-1f2d-4cf2-be29-12a2b9ff1547"},"vehicle_type_id":"4","last_reported":1749571998,"current_range_meters":12000,"station_id":"ce4bhp92rcd13ifvqhbg","pricing_plan_id":"cebpf4jnsgd1na2vs0mg"},{"bike_id":"1ed40eb8-05db-477f-a86d-108978308504","system_id":"levelo_inurba_marseille","lat":43.26939,"lon":5.40248,"is_reserved":false,"is_disabled":false,"rental_uris":{"android":"levelo://app?vid=1ed40eb8-05db-477f-a86d-108978308504","ios":"levelo://app?vid=1ed40eb8-05db-477f-a86d-108978308504"},"vehicle_type_id":"4","last_reported":1749571998,"current_range_meters":12400,"station_id":"cjm6bp8fraef2m0cb0m0","pricing_plan_id":"cebpf4jnsgd1na2vs0mg"},{"bike_id":"46ef9350-7b66-4427-a7d3-2d2beea19f72","system_id":"levelo_inurba_marseille","lat":43.25498,"lon":5.37648,"is_reserved":false,"is_disabled":false,"rental_uris":{"android":"levelo://app?vid=46ef9350-7b66-4427-a7d3-2d2beea19f72","ios":"levelo://app?vid=46ef9350-7b66-4427-a7d3-2d2beea19f72"},"vehicle_type_id":"4","last_reported":1749571998,"current_range_meters":12400,"station_id":"ce4bhh12rcd13ifvqff0","pricing_plan_id":"cebpf4jnsgd1na2vs0mg"},{"bike_id":"1e11feb0-0a6e-4b0e-aa98-d035d3992658","system_id":"levelo_inurba_marseille","lat":43.324801,"lon":5.424311,"is_reserved":false,"is_disabled":false,"rental_uris":{"android":"levelo://app?vid=1e11feb0-0a6e-4b0e-aa98-d035d3992658","ios":"levelo://app?vid=1e11feb0-0a6e-4b0e-aa98-d035d3992658"},"vehicle_type_id":"4","last_reported":1749571998,"current_range_meters":12400,"station_id":"","pricing_plan_id":"cebpf4jnsgd1na2vs0mg"},{"bike_id":"fc0a18b5-60a0-42b7-a756-1090ed99b610","system_id":"levelo_inurba_marseille","lat":43.23187,"lon":5.39987,"is_reserved":false,"is_disabled":false,"rental_uris":{"android":"levelo://app?vid=fc0a18b5-60a0-42b7-a756-1090ed99b610","ios":"levelo://app?vid=fc0a18b5-60a0-42b7-a756-1090ed99b610"},"vehicle_type_id":"4","last_reported":1749571998,"current_range_meters":12800,"station_id":"ce4bhn12rcd13ifvqgqg","pricing_plan_id":"cebpf4jnsgd1na2vs0mg"},{"bike_id":"1293039a-0323-4d24-a769-647ee6696071","system_id":"levelo_inurba_marseille","lat":43.29864,"lon":5.39732,"is_reserved":false,"is_disabled":false,"rental_uris":{"android":"levelo://app?vid=1293039a-0323-4d24-a769-647ee6696071","ios":"levelo://app?vid=1293039a-0323-4d24-a769-647ee6696071"},"vehicle_type_id":"4","last_reported":1749571998,"current_range_meters":12800,"station_id":"ce4bh0h2rcd13ifvqd50","pricing_plan_id":"cebpf4jnsgd1na2vs0mg"},{"bike_id":"187b0a7b-e256-4c19-9794-bb250a6c5653","system_id":"levelo_inurba_marseille","lat":43.31864,"lon":5.37949,"is_reserved":false,"is_disabled":false,"rental_uris":{"android":"levelo://app?vid=187b0a7b-e256-4c19-9794-bb250a6c5653","ios":"levelo://app?vid=187b0a7b-e256-4c19-9794-bb250a6c5653"},"vehicle_type_id":"4","last_reported":1749571998,"current_range_meters":12800,"station_id":"","pricing_plan_id":"cebpf4jnsgd1na2vs0mg"},{"bike_id":"15138ce4-9850-4a09-9eb2-0da12393d0d8","system_id":"levelo_inurba_marseille","lat":43.31716,"lon":5.43698,"is_reserved":false,"is_disabled":false,"rental_uris":{"android":"levelo://app?vid=15138ce4-9850-4a09-9eb2-0da12393d0d8","ios":"levelo://app?vid=15138ce4-9850-4a09-9eb2-0da12393d0d8"},"vehicle_type_id":"4","last_reported":1749571998,"current_range_meters":13600,"station_id":"ce4bhp92rcd13ifvqhcg","pricing_plan_id":"cebpf4jnsgd1na2vs0mg"},{"bike_id":"bd6f9301-a4a4-4bcd-a48e-8a1d9ce21d87","system_id":"levelo_inurba_marseille","lat":43.2837,"lon":5.38638,"is_reserved":false,"is_disabled":false,"rental_uris":{"android":"levelo://app?vid=bd6f9301-a4a4-4bcd-a48e-8a1d9ce21d87","ios":"levelo://app?vid=bd6f9301-a4a4-4bcd-a48e-8a1d9ce21d87"},"vehicle_type_id":"4","last_reported":1749571998,"current_range_meters":13600,"station_id":"ce4bh492rcd13ifvqdvg","pricing_plan_id":"cebpf4jnsgd1na2vs0mg"},{"bike_id":"c84c8956-e1dc-4aa5-be0b-5dabefb72925","system_id":"levelo_inurba_marseille","lat":43.30787,"lon":5.37645,"is_reserved":false,"is_disabled":false,"rental_uris":{"android":"levelo://app?vid=c84c8956-e1dc-4aa5-be0b-5dabefb72925","ios":"levelo://app?vid=c84c8956-e1dc-4aa5-be0b-5dabefb72925"},"vehicle_type_id":"4","last_reported":1749571998,"current_range_meters":14000,"station_id":"ce4bgv92rcd13ifvqcq0","pricing_plan_id":"cebpf4jnsgd1na2vs0mg"},{"bike_id":"f7ce4f65-c34c-48cf-9e4f-8051f9d60b0b","system_id":"levelo_inurba_marseille","lat":43.27822,"lon":5.40705,"is_reserved":false,"is_disabled":false,"rental_uris":{"android":"levelo://app?vid=f7ce4f65-c34c-48cf-9e4f-8051f9d60b0b","ios":"levelo://app?vid=f7ce4f65-c34c-48cf-9e4f-8051f9d60b0b"},"vehicle_type_id":"4","last_reported":1749571998,"current_range_meters":14000,"station_id":"ce4bhnh2rcd13ifvqgtg","pricing_plan_id":"cebpf4jnsgd1na2vs0mg"},{"bike_id":"b6547c05-f59c-4e60-8ba8-403fd8ca937b","system_id":"levelo_inurba_marseille","lat":43.292999,"lon":5.372633,"is_reserved":false,"is_disabled":false,"rental_uris":{"android":"levelo://app?vid=b6547c05-f59c-4e60-8ba8-403fd8ca937b","ios":"levelo://app?vid=b6547c05-f59c-4e60-8ba8-403fd8ca937b"},"vehicle_type_id":"4","last_reported":1749571998,"current_range_meters":14000,"station_id":"","pricing_plan_id":"cebpf4jnsgd1na2vs0mg"},{"bike_id":"03987622-f916-4e09-b1fb-b388037295a5","system_id":"levelo_inurba_marseille","lat":43.23965,"lon":5.36628,"is_reserved":false,"is_disabled":false,"rental_uris":{"android":"levelo://app?vid=03987622-f916-4e09-b1fb-b388037295a5","ios":"levelo://app?vid=03987622-f916-4e09-b1fb-b388037295a5"},"vehicle_type_id":"4","last_reported":1749571998,"current_range_meters":14000,"station_id":"ce4bhi12rcd13ifvqfp0","pricing_plan_id":"cebpf4jnsgd1na2vs0mg"},{"bike_id":"ab5d796b-6f87-4b6e-a5bd-6ac051fcacd1","system_id":"levelo_inurba_marseille","lat":43.32493,"lon":5.36563,"is_reserved":false,"is_disabled":false,"rental_uris":{"android":"levelo://app?vid=ab5d796b-6f87-4b6e-a5bd-6ac051fcacd1","ios":"levelo://app?vid=ab5d796b-6f87-4b6e-a5bd-6ac051fcacd1"},"vehicle_type_id":"4","last_reported":1749571998,"current_range_meters":14000,"station_id":"ce4bhs12rcd13ifvqhvg","pricing_plan_id":"cebpf4jnsgd1na2vs0mg"},{"bike_id":"099b325a-30ef-4475-909d-ca18d2254b4c","system_id":"levelo_inurba_marseille","lat":43.27392,"lon":5.36239,"is_reserved":false,"is_disabled":false,"rental_uris":{"android":"levelo://app?vid=099b325a-30ef-4475-909d-ca18d2254b4c","ios":"levelo://app?vid=099b325a-30ef-4475-909d-ca18d2254b4c"},"vehicle_type_id":"4","last_reported":1749571998,"current_range_meters":14400,"station_id":"ce4bhbh2rcd13ifvqeo0","pricing_plan_id":"cebpf4jnsgd1na2vs0mg"},{"bike_id":"62ae729b-2098-4d07-bafc-f3bd4500e03f","system_id":"levelo_inurba_marseille","lat":43.318995,"lon":5.407619,"is_reserved":false,"is_disabled":false,"rental_uris":{"android":"levelo://app?vid=62ae729b-2098-4d07-bafc-f3bd4500e03f","ios":"levelo://app?vid=62ae729b-2098-4d07-bafc-f3bd4500e03f"},"vehicle_type_id":"4","last_reported":1749571998,"current_range_meters":14400,"station_id":"ce4bhq12rcd13ifvqhig","pricing_plan_id":"cebpf4jnsgd1na2vs0mg"},{"bike_id":"03756332-2c6b-4d52-a887-7e21a0e6d703","system_id":"levelo_inurba_marseille","lat":43.26067,"lon":5.39381,"is_reserved":false,"is_disabled":false,"rental_uris":{"android":"levelo://app?vid=03756332-2c6b-4d52-a887-7e21a0e6d703","ios":"levelo://app?vid=03756332-2c6b-4d52-a887-7e21a0e6d703"},"vehicle_type_id":"4","last_reported":1749571998,"current_range_meters":14400,"station_id":"ce4bhh92rcd13ifvqfj0","pricing_plan_id":"cebpf4jnsgd1na2vs0mg"},{"bike_id":"c30dbedc-c866-492b-a092-32c1ee0c1f22","system_id":"levelo_inurba_marseille","lat":43.29537,"lon":5.38546,"is_reserved":false,"is_disabled":true,"rental_uris":{"android":"levelo://app?vid=c30dbedc-c866-492b-a092-32c1ee0c1f22","ios":"levelo://app?vid=c30dbedc-c866-492b-a092-32c1ee0c1f22"},"vehicle_type_id":"4","last_reported":1749571998,"current_range_meters":14400,"station_id":"ce4bgih2rcd13ifvqba0","pricing_plan_id":"cebpf4jnsgd1na2vs0mg"},{"bike_id":"ca6c1f31-3816-4665-a64c-905a26bfdf78","system_id":"levelo_inurba_marseille","lat":43.273775,"lon":5.362641,"is_reserved":false,"is_disabled":false,"rental_uris":{"android":"levelo://app?vid=ca6c1f31-3816-4665-a64c-905a26bfdf78","ios":"levelo://app?vid=ca6c1f31-3816-4665-a64c-905a26bfdf78"},"vehicle_type_id":"4","last_reported":1749571998,"current_range_meters":14400,"station_id":"ce4bhbh2rcd13ifvqeo0","pricing_plan_id":"cebpf4jnsgd1na2vs0mg"},{"bike_id":"45c964b4-fde9-40b1-991c-ed0995d4c611","system_id":"levelo_inurba_marseille","lat":43.29846,"lon":5.36304,"is_reserved":false,"is_disabled":true,"rental_uris":{"android":"levelo://app?vid=45c964b4-fde9-40b1-991c-ed0995d4c611","ios":"levelo://app?vid=45c964b4-fde9-40b1-991c-ed0995d4c611"},"vehicle_type_id":"4","last_reported":1749571998,"current_range_meters":14400,"station_id":"ce4bgpp2rcd13ifvqc3g","pricing_plan_id":"cebpf4jnsgd1na2vs0mg"},{"bike_id":"04fd5128-6c6e-484d-a7a4-c88b38dd70d3","system_id":"levelo_inurba_marseille","lat":43.28253,"lon":5.35066,"is_reserved":false,"is_disabled":false,"rental_uris":{"android":"levelo://app?vid=04fd5128-6c6e-484d-a7a4-c88b38dd70d3","ios":"levelo://app?vid=04fd5128-6c6e-484d-a7a4-c88b38dd70d3"},"vehicle_type_id":"4","last_reported":1749571998,"current_range_meters":14400,"station_id":"ce4bhbp2rcd13ifvqerg","pricing_plan_id":"cebpf4jnsgd1na2vs0mg"},{"bike_id":"0326013e-c8e8-4762-865c-94ee9fab1f03","system_id":"levelo_inurba_marseille","lat":43.26025,"lon":5.3755,"is_reserved":false,"is_disabled":false,"rental_uris":{"android":"levelo://app?vid=0326013e-c8e8-4762-865c-94ee9fab1f03","ios":"levelo://app?vid=0326013e-c8e8-4762-865c-94ee9fab1f03"},"vehicle_type_id":"4","last_reported":1749571998,"current_range_meters":14400,"station_id":"ce4bhgh2rcd13ifvqfa0","pricing_plan_id":"cebpf4jnsgd1na2vs0mg"},{"bike_id":"c51e46da-e9be-4fc4-8813-86b90ecd5785","system_id":"levelo_inurba_marseille","lat":43.28658,"lon":5.36347,"is_reserved":false,"is_disabled":false,"rental_uris":{"android":"levelo://app?vid=c51e46da-e9be-4fc4-8813-86b90ecd5785","ios":"levelo://app?vid=c51e46da-e9be-4fc4-8813-86b90ecd5785"},"vehicle_type_id":"4","last_reported":1749571998,"current_range_meters":14400,"station_id":"ce4bhah2rcd13ifvqej0","pricing_plan_id":"cebpf4jnsgd1na2vs0mg"},{"bike_id":"6260ff72-a25e-4861-8931-16936fd019c7","system_id":"levelo_inurba_marseille","lat":43.25727,"lon":5.41109,"is_reserved":false,"is_disabled":false,"rental_uris":{"android":"levelo://app?vid=6260ff72-a25e-4861-8931-16936fd019c7","ios":"levelo://app?vid=6260ff72-a25e-4861-8931-16936fd019c7"},"vehicle_type_id":"4","last_reported":1749571998,"current_range_meters":14400,"station_id":"ce4bhkp2rcd13ifvqgd0","pricing_plan_id":"cebpf4jnsgd1na2vs0mg"},{"bike_id":"1e20f032-0f6a-40b2-ad29-e4d2225496fa","system_id":"levelo_inurba_marseille","lat":43.30283,"lon":5.3706,"is_reserved":false,"is_disabled":false,"rental_uris":{"android":"levelo://app?vid=1e20f032-0f6a-40b2-ad29-e4d2225496fa","ios":"levelo://app?vid=1e20f032-0f6a-40b2-ad29-e4d2225496fa"},"vehicle_type_id":"4","last_reported":1749571998,"current_range_meters":14400,"station_id":"","pricing_plan_id":"cebpf4jnsgd1na2vs0mg"},{"bike_id":"3ae11694-05ae-42de-b208-44bc302f4eb5","system_id":"levelo_inurba_marseille","lat":43.28461,"lon":5.35889,"is_reserved":false,"is_disabled":false,"rental_uris":{"android":"levelo://app?vid=3ae11694-05ae-42de-b208-44bc302f4eb5","ios":"levelo://app?vid=3ae11694-05ae-42de-b208-44bc302f4eb5"},"vehicle_type_id":"4","last_reported":1749571998,"current_range_meters":14400,"station_id":"ce4bhah2rcd13ifvqei0","pricing_plan_id":"cebpf4jnsgd1na2vs0mg"},{"bike_id":"dbc59a63-553e-4a56-9edf-63244243f263","system_id":"levelo_inurba_marseille","lat":43.28418,"lon":5.34998,"is_reserved":false,"is_disabled":false,"rental_uris":{"android":"levelo://app?vid=dbc59a63-553e-4a56-9edf-63244243f263","ios":"levelo://app?vid=dbc59a63-553e-4a56-9edf-63244243f263"},"vehicle_type_id":"4","last_reported":1749571998,"current_range_meters":14800,"station_id":"ce4bhbh2rcd13ifvqepg","pricing_plan_id":"cebpf4jnsgd1na2vs0mg"},{"bike_id":"1213b776-2ac2-44c9-b7d6-8a9759647232","system_id":"levelo_inurba_marseille","lat":43.31687,"lon":5.40481,"is_reserved":false,"is_disabled":false,"rental_uris":{"android":"levelo://app?vid=1213b776-2ac2-44c9-b7d6-8a9759647232","ios":"levelo://app?vid=1213b776-2ac2-44c9-b7d6-8a9759647232"},"vehicle_type_id":"4","last_reported":1749571998,"current_range_meters":14800,"station_id":"ce4bh012rcd13ifvqd00","pricing_plan_id":"cebpf4jnsgd1na2vs0mg"},{"bike_id":"1c49f90f-06ec-4e39-8c3f-e5dfe10489ed","system_id":"levelo_inurba_marseille","lat":43.28413,"lon":5.34978,"is_reserved":false,"is_disabled":false,"rental_uris":{"android":"levelo://app?vid=1c49f90f-06ec-4e39-8c3f-e5dfe10489ed","ios":"levelo://app?vid=1c49f90f-06ec-4e39-8c3f-e5dfe10489ed"},"vehicle_type_id":"4","last_reported":1749571998,"current_range_meters":14800,"station_id":"ce4bhbh2rcd13ifvqepg","pricing_plan_id":"cebpf4jnsgd1na2vs0mg"},{"bike_id":"8e1895e8-f102-4cf2-b40e-b15e855d0379","system_id":"levelo_inurba_marseille","lat":43.27943,"lon":5.41025,"is_reserved":false,"is_disabled":false,"rental_uris":{"android":"levelo://app?vid=8e1895e8-f102-4cf2-b40e-b15e855d0379","ios":"levelo://app?vid=8e1895e8-f102-4cf2-b40e-b15e855d0379"},"vehicle_type_id":"4","last_reported":1749571998,"current_range_meters":14800,"station_id":"ce4bhnp2rcd13ifvqh0g","pricing_plan_id":"cebpf4jnsgd1na2vs0mg"},{"bike_id":"8b50e97d-f6cb-414d-aa53-bc309cbf12bc","system_id":"levelo_inurba_marseille","lat":43.28001,"lon":5.41664,"is_reserved":false,"is_disabled":false,"rental_uris":{"android":"levelo://app?vid=8b50e97d-f6cb-414d-aa53-bc309cbf12bc","ios":"levelo://app?vid=8b50e97d-f6cb-414d-aa53-bc309cbf12bc"},"vehicle_type_id":"4","last_reported":1749571998,"current_range_meters":15200,"station_id":"ce4bho12rcd13ifvqh1g","pricing_plan_id":"cebpf4jnsgd1na2vs0mg"},{"bike_id":"3b1a103f-3782-4e6f-a220-fe3c249d1b53","system_id":"levelo_inurba_marseille","lat":43.23191,"lon":5.35548,"is_reserved":false,"is_disabled":false,"rental_uris":{"android":"levelo://app?vid=3b1a103f-3782-4e6f-a220-fe3c249d1b53","ios":"levelo://app?vid=3b1a103f-3782-4e6f-a220-fe3c249d1b53"},"vehicle_type_id":"4","last_reported":1749571998,"current_range_meters":15200,"station_id":"ce4bhu92rcd13ifvqi70","pricing_plan_id":"cebpf4jnsgd1na2vs0mg"},{"bike_id":"1112870b-7d61-4c5e-867e-015df8afa9c0","system_id":"levelo_inurba_marseille","lat":43.28407,"lon":5.34995,"is_reserved":false,"is_disabled":false,"rental_uris":{"android":"levelo://app?vid=1112870b-7d61-4c5e-867e-015df8afa9c0","ios":"levelo://app?vid=1112870b-7d61-4c5e-867e-015df8afa9c0"},"vehicle_type_id":"4","last_reported":1749571998,"current_range_meters":15200,"station_id":"ce4bhbh2rcd13ifvqepg","pricing_plan_id":"cebpf4jnsgd1na2vs0mg"},{"bike_id":"63839b3b-c974-4c61-8599-867bc9b4a8cd","system_id":"levelo_inurba_marseille","lat":43.29441,"lon":5.39749,"is_reserved":false,"is_disabled":false,"rental_uris":{"android":"levelo://app?vid=63839b3b-c974-4c61-8599-867bc9b4a8cd","ios":"levelo://app?vid=63839b3b-c974-4c61-8599-867bc9b4a8cd"},"vehicle_type_id":"4","last_reported":1749571998,"current_range_meters":15200,"station_id":"ce4bh3h2rcd13ifvqdo0","pricing_plan_id":"cebpf4jnsgd1na2vs0mg"},{"bike_id":"240c80a5-6a8b-4804-a156-25d29fc5cbe1","system_id":"levelo_inurba_marseille","lat":43.23198,"lon":5.35547,"is_reserved":false,"is_disabled":false,"rental_uris":{"android":"levelo://app?vid=240c80a5-6a8b-4804-a156-25d29fc5cbe1","ios":"levelo://app?vid=240c80a5-6a8b-4804-a156-25d29fc5cbe1"},"vehicle_type_id":"4","last_reported":1749571998,"current_range_meters":15200,"station_id":"ce4bhu92rcd13ifvqi70","pricing_plan_id":"cebpf4jnsgd1na2vs0mg"},{"bike_id":"8b16ea3b-ab51-41e0-8e02-498695d66b3f","system_id":"levelo_inurba_marseille","lat":43.28474,"lon":5.38429,"is_reserved":false,"is_disabled":false,"rental_uris":{"android":"levelo://app?vid=8b16ea3b-ab51-41e0-8e02-498695d66b3f","ios":"levelo://app?vid=8b16ea3b-ab51-41e0-8e02-498695d66b3f"},"vehicle_type_id":"4","last_reported":1749571998,"current_range_meters":15200,"station_id":"ce4bh512rcd13ifvqe3g","pricing_plan_id":"cebpf4jnsgd1na2vs0mg"},{"bike_id":"5d5b8cc6-978e-45fe-9945-1d31c48a5ea7","system_id":"levelo_inurba_marseille","lat":43.27067,"lon":5.42284,"is_reserved":false,"is_disabled":false,"rental_uris":{"android":"levelo://app?vid=5d5b8cc6-978e-45fe-9945-1d31c48a5ea7","ios":"levelo://app?vid=5d5b8cc6-978e-45fe-9945-1d31c48a5ea7"},"vehicle_type_id":"4","last_reported":1749571998,"current_range_meters":15200,"station_id":"ce4bhk92rcd13ifvqgb0","pricing_plan_id":"cebpf4jnsgd1na2vs0mg"},{"bike_id":"66a554b0-1440-4449-9b9a-dcf9e0415ba6","system_id":"levelo_inurba_marseille","lat":43.299683,"lon":5.384796,"is_reserved":false,"is_disabled":true,"rental_uris":{"android":"levelo://app?vid=66a554b0-1440-4449-9b9a-dcf9e0415ba6","ios":"levelo://app?vid=66a554b0-1440-4449-9b9a-dcf9e0415ba6"},"vehicle_type_id":"4","last_reported":1749571998,"current_range_meters":15200,"station_id":"ce4bgj92rcd13ifvqbd0","pricing_plan_id":"cebpf4jnsgd1na2vs0mg"},{"bike_id":"262903a9-22b9-4b2d-96c2-2e5dbd155090","system_id":"levelo_inurba_marseille","lat":43.32479,"lon":5.36572,"is_reserved":false,"is_disabled":false,"rental_uris":{"android":"levelo://app?vid=262903a9-22b9-4b2d-96c2-2e5dbd155090","ios":"levelo://app?vid=262903a9-22b9-4b2d-96c2-2e5dbd155090"},"vehicle_type_id":"4","last_reported":1749571998,"current_range_meters":16000,"station_id":"ce4bhs12rcd13ifvqhvg","pricing_plan_id":"cebpf4jnsgd1na2vs0mg"},{"bike_id":"e61a5abb-c900-4d6e-8217-a46fab06e9f4","system_id":"levelo_inurba_marseille","lat":43.33017,"lon":5.39254,"is_reserved":false,"is_disabled":false,"rental_uris":{"android":"levelo://app?vid=e61a5abb-c900-4d6e-8217-a46fab06e9f4","ios":"levelo://app?vid=e61a5abb-c900-4d6e-8217-a46fab06e9f4"},"vehicle_type_id":"4","last_reported":1749571998,"current_range_meters":16000,"station_id":"","pricing_plan_id":"cebpf4jnsgd1na2vs0mg"},{"bike_id":"1cb49127-83c2-42e5-a0c1-a209212b201e","system_id":"levelo_inurba_marseille","lat":43.28407,"lon":5.34984,"is_reserved":false,"is_disabled":false,"rental_uris":{"android":"levelo://app?vid=1cb49127-83c2-42e5-a0c1-a209212b201e","ios":"levelo://app?vid=1cb49127-83c2-42e5-a0c1-a209212b201e"},"vehicle_type_id":"4","last_reported":1749571998,"current_range_meters":16000,"station_id":"ce4bhbh2rcd13ifvqepg","pricing_plan_id":"cebpf4jnsgd1na2vs0mg"},{"bike_id":"557104e5-12ad-4811-8d87-d8392375329d","system_id":"levelo_inurba_marseille","lat":43.28298,"lon":5.3506,"is_reserved":false,"is_disabled":false,"rental_uris":{"android":"levelo://app?vid=557104e5-12ad-4811-8d87-d8392375329d","ios":"levelo://app?vid=557104e5-12ad-4811-8d87-d8392375329d"},"vehicle_type_id":"4","last_reported":1749571998,"current_range_meters":16000,"station_id":"ce4bhbp2rcd13ifvqerg","pricing_plan_id":"cebpf4jnsgd1na2vs0mg"},{"bike_id":"72befdc9-9f00-42fe-9fa3-196160650a86","system_id":"levelo_inurba_marseille","lat":43.28609,"lon":5.35096,"is_reserved":false,"is_disabled":false,"rental_uris":{"android":"levelo://app?vid=72befdc9-9f00-42fe-9fa3-196160650a86","ios":"levelo://app?vid=72befdc9-9f00-42fe-9fa3-196160650a86"},"vehicle_type_id":"4","last_reported":1749571998,"current_range_meters":16000,"station_id":"ce4bhch2rcd13ifvqeug","pricing_plan_id":"cebpf4jnsgd1na2vs0mg"},{"bike_id":"84f5a926-1dd6-4535-b647-2764ce0ca103","system_id":"levelo_inurba_marseille","lat":43.32102,"lon":5.3679,"is_reserved":false,"is_disabled":false,"rental_uris":{"android":"levelo://app?vid=84f5a926-1dd6-4535-b647-2764ce0ca103","ios":"levelo://app?vid=84f5a926-1dd6-4535-b647-2764ce0ca103"},"vehicle_type_id":"4","last_reported":1749571998,"current_range_meters":16000,"station_id":"ce4bhrh2rcd13ifvqhug","pricing_plan_id":"cebpf4jnsgd1na2vs0mg"},{"bike_id":"002ad4e8-6140-4bdd-b14b-f38ee707447e","system_id":"levelo_inurba_marseille","lat":43.30987,"lon":5.38578,"is_reserved":false,"is_disabled":false,"rental_uris":{"android":"levelo://app?vid=002ad4e8-6140-4bdd-b14b-f38ee707447e","ios":"levelo://app?vid=002ad4e8-6140-4bdd-b14b-f38ee707447e"},"vehicle_type_id":"4","last_reported":1749571998,"current_range_meters":16000,"station_id":"","pricing_plan_id":"cebpf4jnsgd1na2vs0mg"},{"bike_id":"4b780e47-5600-4181-984d-00a4c434b562","system_id":"levelo_inurba_marseille","lat":43.28251,"lon":5.35106,"is_reserved":false,"is_disabled":false,"rental_uris":{"android":"levelo://app?vid=4b780e47-5600-4181-984d-00a4c434b562","ios":"levelo://app?vid=4b780e47-5600-4181-984d-00a4c434b562"},"vehicle_type_id":"4","last_reported":1749571998,"current_range_meters":16000,"station_id":"","pricing_plan_id":"cebpf4jnsgd1na2vs0mg"},{"bike_id":"b219f073-cc68-47d6-b2cf-4fc6b1631efa","system_id":"levelo_inurba_marseille","lat":43.26938,"lon":5.40237,"is_reserved":false,"is_disabled":false,"rental_uris":{"android":"levelo://app?vid=b219f073-cc68-47d6-b2cf-4fc6b1631efa","ios":"levelo://app?vid=b219f073-cc68-47d6-b2cf-4fc6b1631efa"},"vehicle_type_id":"4","last_reported":1749571998,"current_range_meters":16000,"station_id":"cjm6bp8fraef2m0cb0m0","pricing_plan_id":"cebpf4jnsgd1na2vs0mg"},{"bike_id":"2570b8d2-8993-4a8a-bd9c-bb6b693b3851","system_id":"levelo_inurba_marseille","lat":43.28273,"lon":5.35069,"is_reserved":false,"is_disabled":false,"rental_uris":{"android":"levelo://app?vid=2570b8d2-8993-4a8a-bd9c-bb6b693b3851","ios":"levelo://app?vid=2570b8d2-8993-4a8a-bd9c-bb6b693b3851"},"vehicle_type_id":"4","last_reported":1749571998,"current_range_meters":16400,"station_id":"ce4bhbp2rcd13ifvqerg","pricing_plan_id":"cebpf4jnsgd1na2vs0mg"},{"bike_id":"594e838f-8e55-4b81-b2b1-3200308e0a12","system_id":"levelo_inurba_marseille","lat":43.23969,"lon":5.36631,"is_reserved":false,"is_disabled":false,"rental_uris":{"android":"levelo://app?vid=594e838f-8e55-4b81-b2b1-3200308e0a12","ios":"levelo://app?vid=594e838f-8e55-4b81-b2b1-3200308e0a12"},"vehicle_type_id":"4","last_reported":1749571998,"current_range_meters":16400,"station_id":"ce4bhi12rcd13ifvqfp0","pricing_plan_id":"cebpf4jnsgd1na2vs0mg"},{"bike_id":"f86c871e-5691-4061-a487-aa146b09dc41","system_id":"levelo_inurba_marseille","lat":43.28421,"lon":5.34995,"is_reserved":false,"is_disabled":false,"rental_uris":{"android":"levelo://app?vid=f86c871e-5691-4061-a487-aa146b09dc41","ios":"levelo://app?vid=f86c871e-5691-4061-a487-aa146b09dc41"},"vehicle_type_id":"4","last_reported":1749571998,"current_range_meters":16400,"station_id":"ce4bhbh2rcd13ifvqepg","pricing_plan_id":"cebpf4jnsgd1na2vs0mg"},{"bike_id":"f6c2b664-d919-4f64-8418-1a0716286061","system_id":"levelo_inurba_marseille","lat":43.28712,"lon":5.36103,"is_reserved":false,"is_disabled":false,"rental_uris":{"android":"levelo://app?vid=f6c2b664-d919-4f64-8418-1a0716286061","ios":"levelo://app?vid=f6c2b664-d919-4f64-8418-1a0716286061"},"vehicle_type_id":"4","last_reported":1749571998,"current_range_meters":16400,"station_id":"cki0cbj6b192h4jlfktg","pricing_plan_id":"cebpf4jnsgd1na2vs0mg"},{"bike_id":"03b5290d-c596-4067-adda-74fb07463890","system_id":"levelo_inurba_marseille","lat":43.28615,"lon":5.35102,"is_reserved":false,"is_disabled":false,"rental_uris":{"android":"levelo://app?vid=03b5290d-c596-4067-adda-74fb07463890","ios":"levelo://app?vid=03b5290d-c596-4067-adda-74fb07463890"},"vehicle_type_id":"4","last_reported":1749571998,"current_range_meters":16400,"station_id":"ce4bhch2rcd13ifvqeug","pricing_plan_id":"cebpf4jnsgd1na2vs0mg"},{"bike_id":"550f8228-d554-4819-a428-97c5e8f98831","system_id":"levelo_inurba_marseille","lat":43.32546,"lon":5.42503,"is_reserved":false,"is_disabled":false,"rental_uris":{"android":"levelo://app?vid=550f8228-d554-4819-a428-97c5e8f98831","ios":"levelo://app?vid=550f8228-d554-4819-a428-97c5e8f98831"},"vehicle_type_id":"4","last_reported":1749571998,"current_range_meters":16400,"station_id":"","pricing_plan_id":"cebpf4jnsgd1na2vs0mg"},{"bike_id":"e857b26f-e98d-4e5b-a472-9489934cc3bc","system_id":"levelo_inurba_marseille","lat":43.30941,"lon":5.40117,"is_reserved":false,"is_disabled":true,"rental_uris":{"android":"levelo://app?vid=e857b26f-e98d-4e5b-a472-9489934cc3bc","ios":"levelo://app?vid=e857b26f-e98d-4e5b-a472-9489934cc3bc"},"vehicle_type_id":"4","last_reported":1749571998,"current_range_meters":16400,"station_id":"ce4bgvp2rcd13ifvqct0","pricing_plan_id":"cebpf4jnsgd1na2vs0mg"},{"bike_id":"0892bce3-a34e-4755-b1cc-a42f48f26fdd","system_id":"levelo_inurba_marseille","lat":43.28405,"lon":5.34993,"is_reserved":false,"is_disabled":false,"rental_uris":{"android":"levelo://app?vid=0892bce3-a34e-4755-b1cc-a42f48f26fdd","ios":"levelo://app?vid=0892bce3-a34e-4755-b1cc-a42f48f26fdd"},"vehicle_type_id":"4","last_reported":1749571998,"current_range_meters":16400,"station_id":"ce4bhbh2rcd13ifvqepg","pricing_plan_id":"cebpf4jnsgd1na2vs0mg"},{"bike_id":"e21e1891-48bf-4315-b96b-8d19a9321782","system_id":"levelo_inurba_marseille","lat":43.29863,"lon":5.39761,"is_reserved":false,"is_disabled":false,"rental_uris":{"android":"levelo://app?vid=e21e1891-48bf-4315-b96b-8d19a9321782","ios":"levelo://app?vid=e21e1891-48bf-4315-b96b-8d19a9321782"},"vehicle_type_id":"4","last_reported":1749571998,"current_range_meters":16400,"station_id":"ce4bh0h2rcd13ifvqd50","pricing_plan_id":"cebpf4jnsgd1na2vs0mg"},{"bike_id":"30206740-0f40-490d-94eb-797a80dea580","system_id":"levelo_inurba_marseille","lat":43.268481,"lon":5.393496,"is_reserved":false,"is_disabled":false,"rental_uris":{"android":"levelo://app?vid=30206740-0f40-490d-94eb-797a80dea580","ios":"levelo://app?vid=30206740-0f40-490d-94eb-797a80dea580"},"vehicle_type_id":"4","last_reported":1749571998,"current_range_meters":16800,"station_id":"ce4bhh12rcd13ifvqfg0","pricing_plan_id":"cebpf4jnsgd1na2vs0mg"},{"bike_id":"add27fa9-6426-45f1-b5a7-ba4ad51a8263","system_id":"levelo_inurba_marseille","lat":43.28152,"lon":5.42645,"is_reserved":false,"is_disabled":false,"rental_uris":{"android":"levelo://app?vid=add27fa9-6426-45f1-b5a7-ba4ad51a8263","ios":"levelo://app?vid=add27fa9-6426-45f1-b5a7-ba4ad51a8263"},"vehicle_type_id":"4","last_reported":1749571998,"current_range_meters":16800,"station_id":"ce4bhnh2rcd13ifvqgug","pricing_plan_id":"cebpf4jnsgd1na2vs0mg"},{"bike_id":"5edf403a-4e10-4945-badc-a33eaecd0b54","system_id":"levelo_inurba_marseille","lat":43.2737,"lon":5.3626,"is_reserved":false,"is_disabled":false,"rental_uris":{"android":"levelo://app?vid=5edf403a-4e10-4945-badc-a33eaecd0b54","ios":"levelo://app?vid=5edf403a-4e10-4945-badc-a33eaecd0b54"},"vehicle_type_id":"4","last_reported":1749571998,"current_range_meters":16800,"station_id":"ce4bhbh2rcd13ifvqeo0","pricing_plan_id":"cebpf4jnsgd1na2vs0mg"},{"bike_id":"1acfb620-cad7-48c0-8901-d7a5b74a5b65","system_id":"levelo_inurba_marseille","lat":43.33751,"lon":5.37456,"is_reserved":false,"is_disabled":false,"rental_uris":{"android":"levelo://app?vid=1acfb620-cad7-48c0-8901-d7a5b74a5b65","ios":"levelo://app?vid=1acfb620-cad7-48c0-8901-d7a5b74a5b65"},"vehicle_type_id":"4","last_reported":1749571998,"current_range_meters":16800,"station_id":"","pricing_plan_id":"cebpf4jnsgd1na2vs0mg"},{"bike_id":"f53bc08c-3129-4fc3-9174-862ec7b43c8b","system_id":"levelo_inurba_marseille","lat":43.28268,"lon":5.35077,"is_reserved":false,"is_disabled":false,"rental_uris":{"android":"levelo://app?vid=f53bc08c-3129-4fc3-9174-862ec7b43c8b","ios":"levelo://app?vid=f53bc08c-3129-4fc3-9174-862ec7b43c8b"},"vehicle_type_id":"4","last_reported":1749571998,"current_range_meters":17200,"station_id":"ce4bhbp2rcd13ifvqerg","pricing_plan_id":"cebpf4jnsgd1na2vs0mg"},{"bike_id":"dc0cc1d4-b59d-4f94-9922-0bf0110a5fbb","system_id":"levelo_inurba_marseille","lat":43.28413,"lon":5.34996,"is_reserved":false,"is_disabled":false,"rental_uris":{"android":"levelo://app?vid=dc0cc1d4-b59d-4f94-9922-0bf0110a5fbb","ios":"levelo://app?vid=dc0cc1d4-b59d-4f94-9922-0bf0110a5fbb"},"vehicle_type_id":"4","last_reported":1749571998,"current_range_meters":17200,"station_id":"ce4bhbh2rcd13ifvqepg","pricing_plan_id":"cebpf4jnsgd1na2vs0mg"},{"bike_id":"31cf0f6d-51a2-4e13-87e9-a96ee21ac562","system_id":"levelo_inurba_marseille","lat":43.28146,"lon":5.4264,"is_reserved":false,"is_disabled":false,"rental_uris":{"android":"levelo://app?vid=31cf0f6d-51a2-4e13-87e9-a96ee21ac562","ios":"levelo://app?vid=31cf0f6d-51a2-4e13-87e9-a96ee21ac562"},"vehicle_type_id":"4","last_reported":1749571998,"current_range_meters":17200,"station_id":"ce4bhnh2rcd13ifvqgug","pricing_plan_id":"cebpf4jnsgd1na2vs0mg"},{"bike_id":"70ad019b-bef1-44ea-955c-db8632c6c16d","system_id":"levelo_inurba_marseille","lat":43.24179,"lon":5.36386,"is_reserved":false,"is_disabled":false,"rental_uris":{"android":"levelo://app?vid=70ad019b-bef1-44ea-955c-db8632c6c16d","ios":"levelo://app?vid=70ad019b-bef1-44ea-955c-db8632c6c16d"},"vehicle_type_id":"4","last_reported":1749571998,"current_range_meters":17200,"station_id":"cpo36qri1sfpv3e86is0","pricing_plan_id":"cebpf4jnsgd1na2vs0mg"},{"bike_id":"69aada85-4ea5-4c0f-b5e3-d00605d80f4d","system_id":"levelo_inurba_marseille","lat":43.26552,"lon":5.37283,"is_reserved":false,"is_disabled":false,"rental_uris":{"android":"levelo://app?vid=69aada85-4ea5-4c0f-b5e3-d00605d80f4d","ios":"levelo://app?vid=69aada85-4ea5-4c0f-b5e3-d00605d80f4d"},"vehicle_type_id":"4","last_reported":1749571998,"current_range_meters":17200,"station_id":"ce4bhg12rcd13ifvqf70","pricing_plan_id":"cebpf4jnsgd1na2vs0mg"},{"bike_id":"4f277a40-c562-419c-82d0-1686b6d2030f","system_id":"levelo_inurba_marseille","lat":43.28404,"lon":5.34997,"is_reserved":false,"is_disabled":false,"rental_uris":{"android":"levelo://app?vid=4f277a40-c562-419c-82d0-1686b6d2030f","ios":"levelo://app?vid=4f277a40-c562-419c-82d0-1686b6d2030f"},"vehicle_type_id":"4","last_reported":1749571998,"current_range_meters":17200,"station_id":"ce4bhbh2rcd13ifvqepg","pricing_plan_id":"cebpf4jnsgd1na2vs0mg"},{"bike_id":"c80b951c-40ca-49ec-bb96-9b23afa6204e","system_id":"levelo_inurba_marseille","lat":43.28859,"lon":5.35354,"is_reserved":false,"is_disabled":false,"rental_uris":{"android":"levelo://app?vid=c80b951c-40ca-49ec-bb96-9b23afa6204e","ios":"levelo://app?vid=c80b951c-40ca-49ec-bb96-9b23afa6204e"},"vehicle_type_id":"4","last_reported":1749571998,"current_range_meters":17200,"station_id":"","pricing_plan_id":"cebpf4jnsgd1na2vs0mg"},{"bike_id":"0d12547c-03da-42f4-b762-ca2cc3499fe0","system_id":"levelo_inurba_marseille","lat":43.2842,"lon":5.34997,"is_reserved":false,"is_disabled":false,"rental_uris":{"android":"levelo://app?vid=0d12547c-03da-42f4-b762-ca2cc3499fe0","ios":"levelo://app?vid=0d12547c-03da-42f4-b762-ca2cc3499fe0"},"vehicle_type_id":"4","last_reported":1749571998,"current_range_meters":17200,"station_id":"ce4bhbh2rcd13ifvqepg","pricing_plan_id":"cebpf4jnsgd1na2vs0mg"},{"bike_id":"e6de0689-8a2b-4646-a115-1059643ca74c","system_id":"levelo_inurba_marseille","lat":43.27373,"lon":5.36263,"is_reserved":false,"is_disabled":false,"rental_uris":{"android":"levelo://app?vid=e6de0689-8a2b-4646-a115-1059643ca74c","ios":"levelo://app?vid=e6de0689-8a2b-4646-a115-1059643ca74c"},"vehicle_type_id":"4","last_reported":1749571998,"current_range_meters":17200,"station_id":"ce4bhbh2rcd13ifvqeo0","pricing_plan_id":"cebpf4jnsgd1na2vs0mg"},{"bike_id":"23088ce5-3d7e-4d18-ba1f-05eeb4433b12","system_id":"levelo_inurba_marseille","lat":43.29091,"lon":5.38126,"is_reserved":false,"is_disabled":false,"rental_uris":{"android":"levelo://app?vid=23088ce5-3d7e-4d18-ba1f-05eeb4433b12","ios":"levelo://app?vid=23088ce5-3d7e-4d18-ba1f-05eeb4433b12"},"vehicle_type_id":"4","last_reported":1749571998,"current_range_meters":17200,"station_id":"ce4bh512rcd13ifvqe2g","pricing_plan_id":"cebpf4jnsgd1na2vs0mg"},{"bike_id":"d49963c9-4a74-4b7c-ae71-2e7f71f19deb","system_id":"levelo_inurba_marseille","lat":43.29602,"lon":5.36736,"is_reserved":false,"is_disabled":true,"rental_uris":{"android":"levelo://app?vid=d49963c9-4a74-4b7c-ae71-2e7f71f19deb","ios":"levelo://app?vid=d49963c9-4a74-4b7c-ae71-2e7f71f19deb"},"vehicle_type_id":"4","last_reported":1749571998,"current_range_meters":17600,"station_id":"ce4bgph2rcd13ifvqc2g","pricing_plan_id":"cebpf4jnsgd1na2vs0mg"},{"bike_id":"85255223-b2ca-4450-9d6a-619de530cf83","system_id":"levelo_inurba_marseille","lat":43.29416,"lon":5.38626,"is_reserved":false,"is_disabled":false,"rental_uris":{"android":"levelo://app?vid=85255223-b2ca-4450-9d6a-619de530cf83","ios":"levelo://app?vid=85255223-b2ca-4450-9d6a-619de530cf83"},"vehicle_type_id":"4","last_reported":1749571998,"current_range_meters":17600,"station_id":"ce4bh2h2rcd13ifvqdh0","pricing_plan_id":"cebpf4jnsgd1na2vs0mg"},{"bike_id":"9cc6dd3d-d580-4771-b297-c2978cff7725","system_id":"levelo_inurba_marseille","lat":43.29879,"lon":5.39725,"is_reserved":false,"is_disabled":false,"rental_uris":{"android":"levelo://app?vid=9cc6dd3d-d580-4771-b297-c2978cff7725","ios":"levelo://app?vid=9cc6dd3d-d580-4771-b297-c2978cff7725"},"vehicle_type_id":"4","last_reported":1749571998,"current_range_meters":17600,"station_id":"ce4bh0h2rcd13ifvqd50","pricing_plan_id":"cebpf4jnsgd1na2vs0mg"},{"bike_id":"87482a76-4b31-421e-ad48-ed975817f9e4","system_id":"levelo_inurba_marseille","lat":43.21752,"lon":5.34606,"is_reserved":false,"is_disabled":false,"rental_uris":{"android":"levelo://app?vid=87482a76-4b31-421e-ad48-ed975817f9e4","ios":"levelo://app?vid=87482a76-4b31-421e-ad48-ed975817f9e4"},"vehicle_type_id":"4","last_reported":1749571998,"current_range_meters":17600,"station_id":"st_cvj6r9ubvosntc0bgbag","pricing_plan_id":"cebpf4jnsgd1na2vs0mg"},{"bike_id":"9e4c1212-733b-45dd-a3da-92d7d38d779c","system_id":"levelo_inurba_marseille","lat":43.28429,"lon":5.34976,"is_reserved":false,"is_disabled":false,"rental_uris":{"android":"levelo://app?vid=9e4c1212-733b-45dd-a3da-92d7d38d779c","ios":"levelo://app?vid=9e4c1212-733b-45dd-a3da-92d7d38d779c"},"vehicle_type_id":"4","last_reported":1749571998,"current_range_meters":17600,"station_id":"ce4bhbh2rcd13ifvqepg","pricing_plan_id":"cebpf4jnsgd1na2vs0mg"},{"bike_id":"ef82d3bb-77d5-4e5f-a672-159dfe609ed3","system_id":"levelo_inurba_marseille","lat":43.282863,"lon":5.35083,"is_reserved":false,"is_disabled":false,"rental_uris":{"android":"levelo://app?vid=ef82d3bb-77d5-4e5f-a672-159dfe609ed3","ios":"levelo://app?vid=ef82d3bb-77d5-4e5f-a672-159dfe609ed3"},"vehicle_type_id":"4","last_reported":1749571998,"current_range_meters":17600,"station_id":"ce4bhbp2rcd13ifvqerg","pricing_plan_id":"cebpf4jnsgd1na2vs0mg"},{"bike_id":"63e40138-141f-4768-876a-d09ed0ddb6e8","system_id":"levelo_inurba_marseille","lat":43.28633,"lon":5.35082,"is_reserved":false,"is_disabled":false,"rental_uris":{"android":"levelo://app?vid=63e40138-141f-4768-876a-d09ed0ddb6e8","ios":"levelo://app?vid=63e40138-141f-4768-876a-d09ed0ddb6e8"},"vehicle_type_id":"4","last_reported":1749571998,"current_range_meters":18000,"station_id":"ce4bhch2rcd13ifvqeug","pricing_plan_id":"cebpf4jnsgd1na2vs0mg"},{"bike_id":"7311422e-b2d3-4869-980f-0497eb6c2e03","system_id":"levelo_inurba_marseille","lat":43.23965,"lon":5.36623,"is_reserved":false,"is_disabled":false,"rental_uris":{"android":"levelo://app?vid=7311422e-b2d3-4869-980f-0497eb6c2e03","ios":"levelo://app?vid=7311422e-b2d3-4869-980f-0497eb6c2e03"},"vehicle_type_id":"4","last_reported":1749571998,"current_range_meters":18000,"station_id":"ce4bhi12rcd13ifvqfp0","pricing_plan_id":"cebpf4jnsgd1na2vs0mg"},{"bike_id":"c967a05b-91b4-483c-8cfb-c91308b2e9d7","system_id":"levelo_inurba_marseille","lat":43.29559,"lon":5.42268,"is_reserved":false,"is_disabled":false,"rental_uris":{"android":"levelo://app?vid=c967a05b-91b4-483c-8cfb-c91308b2e9d7","ios":"levelo://app?vid=c967a05b-91b4-483c-8cfb-c91308b2e9d7"},"vehicle_type_id":"4","last_reported":1749571998,"current_range_meters":18000,"station_id":"ce4bhph2rcd13ifvqhdg","pricing_plan_id":"cebpf4jnsgd1na2vs0mg"},{"bike_id":"9231f021-d06e-4dc9-b555-e59bf1d45ecd","system_id":"levelo_inurba_marseille","lat":43.32172,"lon":5.36763,"is_reserved":false,"is_disabled":false,"rental_uris":{"android":"levelo://app?vid=9231f021-d06e-4dc9-b555-e59bf1d45ecd","ios":"levelo://app?vid=9231f021-d06e-4dc9-b555-e59bf1d45ecd"},"vehicle_type_id":"4","last_reported":1749571998,"current_range_meters":18000,"station_id":"","pricing_plan_id":"cebpf4jnsgd1na2vs0mg"},{"bike_id":"f18719dd-f35c-4afe-988d-99bd3ca2c251","system_id":"levelo_inurba_marseille","lat":43.23175,"lon":5.3999,"is_reserved":false,"is_disabled":false,"rental_uris":{"android":"levelo://app?vid=f18719dd-f35c-4afe-988d-99bd3ca2c251","ios":"levelo://app?vid=f18719dd-f35c-4afe-988d-99bd3ca2c251"},"vehicle_type_id":"4","last_reported":1749571998,"current_range_meters":18000,"station_id":"ce4bhn12rcd13ifvqgqg","pricing_plan_id":"cebpf4jnsgd1na2vs0mg"},{"bike_id":"1df97c6c-4b5d-4e2f-8242-b92173d19578","system_id":"levelo_inurba_marseille","lat":43.29004,"lon":5.35612,"is_reserved":false,"is_disabled":false,"rental_uris":{"android":"levelo://app?vid=1df97c6c-4b5d-4e2f-8242-b92173d19578","ios":"levelo://app?vid=1df97c6c-4b5d-4e2f-8242-b92173d19578"},"vehicle_type_id":"4","last_reported":1749571998,"current_range_meters":18000,"station_id":"ce4bhb92rcd13ifvqen0","pricing_plan_id":"cebpf4jnsgd1na2vs0mg"},{"bike_id":"b918f339-a33d-489c-826a-8fffafca2d2e","system_id":"levelo_inurba_marseille","lat":43.32353,"lon":5.38909,"is_reserved":false,"is_disabled":false,"rental_uris":{"android":"levelo://app?vid=b918f339-a33d-489c-826a-8fffafca2d2e","ios":"levelo://app?vid=b918f339-a33d-489c-826a-8fffafca2d2e"},"vehicle_type_id":"4","last_reported":1749571998,"current_range_meters":18000,"station_id":"ce4bhqp2rcd13ifvqhog","pricing_plan_id":"cebpf4jnsgd1na2vs0mg"},{"bike_id":"5e7c2990-d266-4e18-93a9-52f36796b99d","system_id":"levelo_inurba_marseille","lat":43.30591,"lon":5.3723,"is_reserved":false,"is_disabled":false,"rental_uris":{"android":"levelo://app?vid=5e7c2990-d266-4e18-93a9-52f36796b99d","ios":"levelo://app?vid=5e7c2990-d266-4e18-93a9-52f36796b99d"},"vehicle_type_id":"4","last_reported":1749571998,"current_range_meters":18000,"station_id":"ce4bgqh2rcd13ifvqc4g","pricing_plan_id":"cebpf4jnsgd1na2vs0mg"},{"bike_id":"62f63092-baf2-4204-be9c-6a8af953ff4b","system_id":"levelo_inurba_marseille","lat":43.28612,"lon":5.35102,"is_reserved":false,"is_disabled":false,"rental_uris":{"android":"levelo://app?vid=62f63092-baf2-4204-be9c-6a8af953ff4b","ios":"levelo://app?vid=62f63092-baf2-4204-be9c-6a8af953ff4b"},"vehicle_type_id":"4","last_reported":1749571998,"current_range_meters":18000,"station_id":"ce4bhch2rcd13ifvqeug","pricing_plan_id":"cebpf4jnsgd1na2vs0mg"},{"bike_id":"314bac2c-e47f-46cd-afcd-53cd84a7d142","system_id":"levelo_inurba_marseille","lat":43.27605,"lon":5.36125,"is_reserved":false,"is_disabled":true,"rental_uris":{"android":"levelo://app?vid=314bac2c-e47f-46cd-afcd-53cd84a7d142","ios":"levelo://app?vid=314bac2c-e47f-46cd-afcd-53cd84a7d142"},"vehicle_type_id":"4","last_reported":1749571998,"current_range_meters":18000,"station_id":"ce4bgj92rcd13ifvqbe0","pricing_plan_id":"cebpf4jnsgd1na2vs0mg"},{"bike_id":"22d1711c-b90e-45b6-9dbe-7abac7643d67","system_id":"levelo_inurba_marseille","lat":43.286168,"lon":5.351042,"is_reserved":false,"is_disabled":false,"rental_uris":{"android":"levelo://app?vid=22d1711c-b90e-45b6-9dbe-7abac7643d67","ios":"levelo://app?vid=22d1711c-b90e-45b6-9dbe-7abac7643d67"},"vehicle_type_id":"4","last_reported":1749571998,"current_range_meters":18000,"station_id":"","pricing_plan_id":"cebpf4jnsgd1na2vs0mg"},{"bike_id":"9e77aa1f-87ca-40b5-83d2-889bc35d769b","system_id":"levelo_inurba_marseille","lat":43.32295,"lon":5.38269,"is_reserved":false,"is_disabled":false,"rental_uris":{"android":"levelo://app?vid=9e77aa1f-87ca-40b5-83d2-889bc35d769b","ios":"levelo://app?vid=9e77aa1f-87ca-40b5-83d2-889bc35d769b"},"vehicle_type_id":"4","last_reported":1749571998,"current_range_meters":18800,"station_id":"ce4bhr12rcd13ifvqhqg","pricing_plan_id":"cebpf4jnsgd1na2vs0mg"},{"bike_id":"84ea5bd0-aae6-418c-a255-435c1037463e","system_id":"levelo_inurba_marseille","lat":43.29003,"lon":5.3561,"is_reserved":false,"is_disabled":false,"rental_uris":{"android":"levelo://app?vid=84ea5bd0-aae6-418c-a255-435c1037463e","ios":"levelo://app?vid=84ea5bd0-aae6-418c-a255-435c1037463e"},"vehicle_type_id":"4","last_reported":1749571998,"current_range_meters":18800,"station_id":"ce4bhb92rcd13ifvqen0","pricing_plan_id":"cebpf4jnsgd1na2vs0mg"},{"bike_id":"04e6d58b-a824-40c1-b46e-2ec00454a71e","system_id":"levelo_inurba_marseille","lat":43.29014,"lon":5.3864,"is_reserved":false,"is_disabled":false,"rental_uris":{"android":"levelo://app?vid=04e6d58b-a824-40c1-b46e-2ec00454a71e","ios":"levelo://app?vid=04e6d58b-a824-40c1-b46e-2ec00454a71e"},"vehicle_type_id":"4","last_reported":1749571998,"current_range_meters":18800,"station_id":"ce4bh4p2rcd13ifvqe0g","pricing_plan_id":"cebpf4jnsgd1na2vs0mg"},{"bike_id":"b0d642a2-4d8f-4ade-867d-eb59ff052bfd","system_id":"levelo_inurba_marseille","lat":43.3307,"lon":5.39024,"is_reserved":false,"is_disabled":false,"rental_uris":{"android":"levelo://app?vid=b0d642a2-4d8f-4ade-867d-eb59ff052bfd","ios":"levelo://app?vid=b0d642a2-4d8f-4ade-867d-eb59ff052bfd"},"vehicle_type_id":"4","last_reported":1749571998,"current_range_meters":18800,"station_id":"","pricing_plan_id":"cebpf4jnsgd1na2vs0mg"},{"bike_id":"ac6b473a-74cc-49c0-b711-1f1e95e97af9","system_id":"levelo_inurba_marseille","lat":43.29413,"lon":5.38629,"is_reserved":false,"is_disabled":false,"rental_uris":{"android":"levelo://app?vid=ac6b473a-74cc-49c0-b711-1f1e95e97af9","ios":"levelo://app?vid=ac6b473a-74cc-49c0-b711-1f1e95e97af9"},"vehicle_type_id":"4","last_reported":1749571998,"current_range_meters":18800,"station_id":"ce4bh2h2rcd13ifvqdh0","pricing_plan_id":"cebpf4jnsgd1na2vs0mg"},{"bike_id":"dc0fb223-7feb-43a0-a901-ffa2d971228b","system_id":"levelo_inurba_marseille","lat":43.24406,"lon":5.37109,"is_reserved":false,"is_disabled":false,"rental_uris":{"android":"levelo://app?vid=dc0fb223-7feb-43a0-a901-ffa2d971228b","ios":"levelo://app?vid=dc0fb223-7feb-43a0-a901-ffa2d971228b"},"vehicle_type_id":"4","last_reported":1749571998,"current_range_meters":18800,"station_id":"ce4bhhh2rcd13ifvqfk0","pricing_plan_id":"cebpf4jnsgd1na2vs0mg"},{"bike_id":"f4a89b17-2fea-4cac-ba27-8e348c4e0fad","system_id":"levelo_inurba_marseille","lat":43.29609,"lon":5.37725,"is_reserved":false,"is_disabled":false,"rental_uris":{"android":"levelo://app?vid=f4a89b17-2fea-4cac-ba27-8e348c4e0fad","ios":"levelo://app?vid=f4a89b17-2fea-4cac-ba27-8e348c4e0fad"},"vehicle_type_id":"4","last_reported":1749571998,"current_range_meters":18800,"station_id":"ce4bgi92rcd13ifvqb90","pricing_plan_id":"cebpf4jnsgd1na2vs0mg"},{"bike_id":"6f26d8bf-15d6-4043-b8f9-adb1bf86a956","system_id":"levelo_inurba_marseille","lat":43.29607,"lon":5.38046,"is_reserved":false,"is_disabled":false,"rental_uris":{"android":"levelo://app?vid=6f26d8bf-15d6-4043-b8f9-adb1bf86a956","ios":"levelo://app?vid=6f26d8bf-15d6-4043-b8f9-adb1bf86a956"},"vehicle_type_id":"4","last_reported":1749571998,"current_range_meters":18800,"station_id":"","pricing_plan_id":"cebpf4jnsgd1na2vs0mg"},{"bike_id":"25a4c875-602e-485b-a883-bfff2f4afc41","system_id":"levelo_inurba_marseille","lat":43.28444,"lon":5.35021,"is_reserved":false,"is_disabled":false,"rental_uris":{"android":"levelo://app?vid=25a4c875-602e-485b-a883-bfff2f4afc41","ios":"levelo://app?vid=25a4c875-602e-485b-a883-bfff2f4afc41"},"vehicle_type_id":"4","last_reported":1749571998,"current_range_meters":18800,"station_id":"ce4bhbh2rcd13ifvqepg","pricing_plan_id":"cebpf4jnsgd1na2vs0mg"},{"bike_id":"de7b1ebb-f406-444c-a6d4-62243773bc8b","system_id":"levelo_inurba_marseille","lat":43.284197,"lon":5.34989,"is_reserved":false,"is_disabled":false,"rental_uris":{"android":"levelo://app?vid=de7b1ebb-f406-444c-a6d4-62243773bc8b","ios":"levelo://app?vid=de7b1ebb-f406-444c-a6d4-62243773bc8b"},"vehicle_type_id":"4","last_reported":1749571998,"current_range_meters":18800,"station_id":"ce4bhbh2rcd13ifvqepg","pricing_plan_id":"cebpf4jnsgd1na2vs0mg"},{"bike_id":"a172b0cf-62c4-4c52-a818-ce564350df02","system_id":"levelo_inurba_marseille","lat":43.21176,"lon":5.3507,"is_reserved":false,"is_disabled":false,"rental_uris":{"android":"levelo://app?vid=a172b0cf-62c4-4c52-a818-ce564350df02","ios":"levelo://app?vid=a172b0cf-62c4-4c52-a818-ce564350df02"},"vehicle_type_id":"4","last_reported":1749571998,"current_range_meters":18800,"station_id":"st_cvj6sg6p6f1abm77japg","pricing_plan_id":"cebpf4jnsgd1na2vs0mg"},{"bike_id":"2644b5d5-94b9-4145-8196-85e375f44cd6","system_id":"levelo_inurba_marseille","lat":43.27902,"lon":5.38023,"is_reserved":false,"is_disabled":false,"rental_uris":{"android":"levelo://app?vid=2644b5d5-94b9-4145-8196-85e375f44cd6","ios":"levelo://app?vid=2644b5d5-94b9-4145-8196-85e375f44cd6"},"vehicle_type_id":"4","last_reported":1749571998,"current_range_meters":18800,"station_id":"ce4bhf92rcd13ifvqf50","pricing_plan_id":"cebpf4jnsgd1na2vs0mg"},{"bike_id":"98178e55-41de-4e82-a5ef-89328e1396f0","system_id":"levelo_inurba_marseille","lat":43.28256,"lon":5.35098,"is_reserved":false,"is_disabled":false,"rental_uris":{"android":"levelo://app?vid=98178e55-41de-4e82-a5ef-89328e1396f0","ios":"levelo://app?vid=98178e55-41de-4e82-a5ef-89328e1396f0"},"vehicle_type_id":"4","last_reported":1749571998,"current_range_meters":19200,"station_id":"ce4bhbp2rcd13ifvqerg","pricing_plan_id":"cebpf4jnsgd1na2vs0mg"},{"bike_id":"4f4e0a1c-979e-4d49-ae63-4241598b0a04","system_id":"levelo_inurba_marseille","lat":43.21758,"lon":5.34613,"is_reserved":false,"is_disabled":false,"rental_uris":{"android":"levelo://app?vid=4f4e0a1c-979e-4d49-ae63-4241598b0a04","ios":"levelo://app?vid=4f4e0a1c-979e-4d49-ae63-4241598b0a04"},"vehicle_type_id":"4","last_reported":1749571998,"current_range_meters":19200,"station_id":"st_cvj6r9ubvosntc0bgbag","pricing_plan_id":"cebpf4jnsgd1na2vs0mg"},{"bike_id":"a2421370-e442-436f-a98a-844d44299694","system_id":"levelo_inurba_marseille","lat":43.32353,"lon":5.36765,"is_reserved":false,"is_disabled":false,"rental_uris":{"android":"levelo://app?vid=a2421370-e442-436f-a98a-844d44299694","ios":"levelo://app?vid=a2421370-e442-436f-a98a-844d44299694"},"vehicle_type_id":"4","last_reported":1749571998,"current_range_meters":19200,"station_id":"ce4bhsh2rcd13ifvqi2g","pricing_plan_id":"cebpf4jnsgd1na2vs0mg"},{"bike_id":"66761181-b083-48aa-b9d6-9efdd52dbbfb","system_id":"levelo_inurba_marseille","lat":43.2979,"lon":5.38096,"is_reserved":false,"is_disabled":false,"rental_uris":{"android":"levelo://app?vid=66761181-b083-48aa-b9d6-9efdd52dbbfb","ios":"levelo://app?vid=66761181-b083-48aa-b9d6-9efdd52dbbfb"},"vehicle_type_id":"4","last_reported":1749571998,"current_range_meters":18800,"station_id":"ce4bgip2rcd13ifvqbb0","pricing_plan_id":"cebpf4jnsgd1na2vs0mg"},{"bike_id":"2aecfc59-1451-48cc-ba6c-e19d884c8f44","system_id":"levelo_inurba_marseille","lat":43.24389,"lon":5.37061,"is_reserved":false,"is_disabled":false,"rental_uris":{"android":"levelo://app?vid=2aecfc59-1451-48cc-ba6c-e19d884c8f44","ios":"levelo://app?vid=2aecfc59-1451-48cc-ba6c-e19d884c8f44"},"vehicle_type_id":"4","last_reported":1749571998,"current_range_meters":19200,"station_id":"ce4bhhh2rcd13ifvqfk0","pricing_plan_id":"cebpf4jnsgd1na2vs0mg"},{"bike_id":"ae67b15e-e8b7-4821-ac69-0cc52dbedbae","system_id":"levelo_inurba_marseille","lat":43.29626,"lon":5.40597,"is_reserved":false,"is_disabled":false,"rental_uris":{"android":"levelo://app?vid=ae67b15e-e8b7-4821-ac69-0cc52dbedbae","ios":"levelo://app?vid=ae67b15e-e8b7-4821-ac69-0cc52dbedbae"},"vehicle_type_id":"4","last_reported":1749571998,"current_range_meters":19200,"station_id":"ce4bh0h2rcd13ifvqd60","pricing_plan_id":"cebpf4jnsgd1na2vs0mg"},{"bike_id":"c6d21e26-26b7-4a15-9f95-3af0bce0ea14","system_id":"levelo_inurba_marseille","lat":43.24165,"lon":5.36391,"is_reserved":false,"is_disabled":false,"rental_uris":{"android":"levelo://app?vid=c6d21e26-26b7-4a15-9f95-3af0bce0ea14","ios":"levelo://app?vid=c6d21e26-26b7-4a15-9f95-3af0bce0ea14"},"vehicle_type_id":"4","last_reported":1749571998,"current_range_meters":19200,"station_id":"cpo36qri1sfpv3e86is0","pricing_plan_id":"cebpf4jnsgd1na2vs0mg"},{"bike_id":"630221f0-0eef-4941-b8cf-49b4e27a895b","system_id":"levelo_inurba_marseille","lat":43.29417,"lon":5.38623,"is_reserved":false,"is_disabled":false,"rental_uris":{"android":"levelo://app?vid=630221f0-0eef-4941-b8cf-49b4e27a895b","ios":"levelo://app?vid=630221f0-0eef-4941-b8cf-49b4e27a895b"},"vehicle_type_id":"4","last_reported":1749571998,"current_range_meters":19200,"station_id":"ce4bh2h2rcd13ifvqdh0","pricing_plan_id":"cebpf4jnsgd1na2vs0mg"},{"bike_id":"f10adc7e-6a3a-4a5d-9515-dc52fefe2058","system_id":"levelo_inurba_marseille","lat":43.32371,"lon":5.36742,"is_reserved":false,"is_disabled":false,"rental_uris":{"android":"levelo://app?vid=f10adc7e-6a3a-4a5d-9515-dc52fefe2058","ios":"levelo://app?vid=f10adc7e-6a3a-4a5d-9515-dc52fefe2058"},"vehicle_type_id":"4","last_reported":1749571998,"current_range_meters":19200,"station_id":"ce4bhsh2rcd13ifvqi2g","pricing_plan_id":"cebpf4jnsgd1na2vs0mg"},{"bike_id":"d298e1cc-056b-4f2e-855c-d79d02d413f4","system_id":"levelo_inurba_marseille","lat":43.294172,"lon":5.386498,"is_reserved":false,"is_disabled":false,"rental_uris":{"android":"levelo://app?vid=d298e1cc-056b-4f2e-855c-d79d02d413f4","ios":"levelo://app?vid=d298e1cc-056b-4f2e-855c-d79d02d413f4"},"vehicle_type_id":"4","last_reported":1749571998,"current_range_meters":19600,"station_id":"ce4bh2h2rcd13ifvqdh0","pricing_plan_id":"cebpf4jnsgd1na2vs0mg"},{"bike_id":"5aa54a62-09c3-43c9-b7fa-46130b5663cb","system_id":"levelo_inurba_marseille","lat":43.30199,"lon":5.39469,"is_reserved":false,"is_disabled":false,"rental_uris":{"android":"levelo://app?vid=5aa54a62-09c3-43c9-b7fa-46130b5663cb","ios":"levelo://app?vid=5aa54a62-09c3-43c9-b7fa-46130b5663cb"},"vehicle_type_id":"4","last_reported":1749571998,"current_range_meters":19600,"station_id":"ce4bh0p2rcd13ifvqd70","pricing_plan_id":"cebpf4jnsgd1na2vs0mg"},{"bike_id":"58e9f0d4-505e-427b-a6f9-43ebded70c17","system_id":"levelo_inurba_marseille","lat":43.28614,"lon":5.35105,"is_reserved":false,"is_disabled":false,"rental_uris":{"android":"levelo://app?vid=58e9f0d4-505e-427b-a6f9-43ebded70c17","ios":"levelo://app?vid=58e9f0d4-505e-427b-a6f9-43ebded70c17"},"vehicle_type_id":"4","last_reported":1749571998,"current_range_meters":19600,"station_id":"ce4bhch2rcd13ifvqeug","pricing_plan_id":"cebpf4jnsgd1na2vs0mg"},{"bike_id":"b32966b9-4caa-4f62-a074-7c3ac585adb2","system_id":"levelo_inurba_marseille","lat":43.30802,"lon":5.43524,"is_reserved":false,"is_disabled":false,"rental_uris":{"android":"levelo://app?vid=b32966b9-4caa-4f62-a074-7c3ac585adb2","ios":"levelo://app?vid=b32966b9-4caa-4f62-a074-7c3ac585adb2"},"vehicle_type_id":"4","last_reported":1749571998,"current_range_meters":19600,"station_id":"ce4bhph2rcd13ifvqheg","pricing_plan_id":"cebpf4jnsgd1na2vs0mg"},{"bike_id":"4e4b8c3f-3c84-467e-92ac-b3973794ac74","system_id":"levelo_inurba_marseille","lat":43.3188,"lon":5.40733,"is_reserved":false,"is_disabled":false,"rental_uris":{"android":"levelo://app?vid=4e4b8c3f-3c84-467e-92ac-b3973794ac74","ios":"levelo://app?vid=4e4b8c3f-3c84-467e-92ac-b3973794ac74"},"vehicle_type_id":"4","last_reported":1749571998,"current_range_meters":19600,"station_id":"ce4bhq12rcd13ifvqhig","pricing_plan_id":"cebpf4jnsgd1na2vs0mg"},{"bike_id":"a5982f1b-396a-4cee-88f3-c4549eb202b2","system_id":"levelo_inurba_marseille","lat":43.28254,"lon":5.35082,"is_reserved":false,"is_disabled":false,"rental_uris":{"android":"levelo://app?vid=a5982f1b-396a-4cee-88f3-c4549eb202b2","ios":"levelo://app?vid=a5982f1b-396a-4cee-88f3-c4549eb202b2"},"vehicle_type_id":"4","last_reported":1749571998,"current_range_meters":19600,"station_id":"ce4bhbp2rcd13ifvqerg","pricing_plan_id":"cebpf4jnsgd1na2vs0mg"},{"bike_id":"6e464720-93b0-4699-80fe-881649eb71cd","system_id":"levelo_inurba_marseille","lat":43.23192,"lon":5.35564,"is_reserved":false,"is_disabled":false,"rental_uris":{"android":"levelo://app?vid=6e464720-93b0-4699-80fe-881649eb71cd","ios":"levelo://app?vid=6e464720-93b0-4699-80fe-881649eb71cd"},"vehicle_type_id":"4","last_reported":1749571998,"current_range_meters":19600,"station_id":"ce4bhu92rcd13ifvqi70","pricing_plan_id":"cebpf4jnsgd1na2vs0mg"},{"bike_id":"c8f785a7-0553-4ed0-96d0-4193adc96abc","system_id":"levelo_inurba_marseille","lat":43.28673,"lon":5.36345,"is_reserved":false,"is_disabled":false,"rental_uris":{"android":"levelo://app?vid=c8f785a7-0553-4ed0-96d0-4193adc96abc","ios":"levelo://app?vid=c8f785a7-0553-4ed0-96d0-4193adc96abc"},"vehicle_type_id":"4","last_reported":1749571998,"current_range_meters":20000,"station_id":"ce4bhah2rcd13ifvqej0","pricing_plan_id":"cebpf4jnsgd1na2vs0mg"},{"bike_id":"ef54e2b2-c48e-4910-a47c-1fb72415dbe6","system_id":"levelo_inurba_marseille","lat":43.294466,"lon":5.397526,"is_reserved":false,"is_disabled":false,"rental_uris":{"android":"levelo://app?vid=ef54e2b2-c48e-4910-a47c-1fb72415dbe6","ios":"levelo://app?vid=ef54e2b2-c48e-4910-a47c-1fb72415dbe6"},"vehicle_type_id":"4","last_reported":1749571998,"current_range_meters":20000,"station_id":"ce4bh4p2rcd13ifvqe0g","pricing_plan_id":"cebpf4jnsgd1na2vs0mg"},{"bike_id":"a81b7f12-9f5d-4775-aeaf-81483c500521","system_id":"levelo_inurba_marseille","lat":43.24164,"lon":5.36393,"is_reserved":false,"is_disabled":false,"rental_uris":{"android":"levelo://app?vid=a81b7f12-9f5d-4775-aeaf-81483c500521","ios":"levelo://app?vid=a81b7f12-9f5d-4775-aeaf-81483c500521"},"vehicle_type_id":"4","last_reported":1749571998,"current_range_meters":20000,"station_id":"cpo36qri1sfpv3e86is0","pricing_plan_id":"cebpf4jnsgd1na2vs0mg"},{"bike_id":"99ccb411-d7f9-4fcb-b612-4d8582e16182","system_id":"levelo_inurba_marseille","lat":43.33721,"lon":5.39193,"is_reserved":false,"is_disabled":false,"rental_uris":{"android":"levelo://app?vid=99ccb411-d7f9-4fcb-b612-4d8582e16182","ios":"levelo://app?vid=99ccb411-d7f9-4fcb-b612-4d8582e16182"},"vehicle_type_id":"4","last_reported":1749571998,"current_range_meters":20000,"station_id":"ce4bhr92rcd13ifvqhsg","pricing_plan_id":"cebpf4jnsgd1na2vs0mg"},{"bike_id":"40fa4821-5fd2-4f0f-ba8f-23dcbf8d33cb","system_id":"levelo_inurba_marseille","lat":43.30427,"lon":5.39749,"is_reserved":false,"is_disabled":false,"rental_uris":{"android":"levelo://app?vid=40fa4821-5fd2-4f0f-ba8f-23dcbf8d33cb","ios":"levelo://app?vid=40fa4821-5fd2-4f0f-ba8f-23dcbf8d33cb"},"vehicle_type_id":"4","last_reported":1749571998,"current_range_meters":20400,"station_id":"ce4bh092rcd13ifvqd20","pricing_plan_id":"cebpf4jnsgd1na2vs0mg"},{"bike_id":"ddf12cb6-d57c-4f42-8911-df1ca2b270dc","system_id":"levelo_inurba_marseille","lat":43.27617,"lon":5.36101,"is_reserved":false,"is_disabled":false,"rental_uris":{"android":"levelo://app?vid=ddf12cb6-d57c-4f42-8911-df1ca2b270dc","ios":"levelo://app?vid=ddf12cb6-d57c-4f42-8911-df1ca2b270dc"},"vehicle_type_id":"4","last_reported":1749571998,"current_range_meters":20400,"station_id":"ce4bgj92rcd13ifvqbe0","pricing_plan_id":"cebpf4jnsgd1na2vs0mg"},{"bike_id":"7a6583d6-815a-4a30-9209-d62abda83eb8","system_id":"levelo_inurba_marseille","lat":43.2549,"lon":5.3765,"is_reserved":false,"is_disabled":false,"rental_uris":{"android":"levelo://app?vid=7a6583d6-815a-4a30-9209-d62abda83eb8","ios":"levelo://app?vid=7a6583d6-815a-4a30-9209-d62abda83eb8"},"vehicle_type_id":"4","last_reported":1749571998,"current_range_meters":20400,"station_id":"ce4bhh12rcd13ifvqff0","pricing_plan_id":"cebpf4jnsgd1na2vs0mg"},{"bike_id":"9416031a-d730-435a-b710-92440d1c38e1","system_id":"levelo_inurba_marseille","lat":43.28256,"lon":5.35076,"is_reserved":false,"is_disabled":false,"rental_uris":{"android":"levelo://app?vid=9416031a-d730-435a-b710-92440d1c38e1","ios":"levelo://app?vid=9416031a-d730-435a-b710-92440d1c38e1"},"vehicle_type_id":"4","last_reported":1749571998,"current_range_meters":20400,"station_id":"ce4bhbp2rcd13ifvqerg","pricing_plan_id":"cebpf4jnsgd1na2vs0mg"},{"bike_id":"5c61bcea-10b3-4b5e-8945-bfff84436bfc","system_id":"levelo_inurba_marseille","lat":43.265252,"lon":5.373145,"is_reserved":false,"is_disabled":false,"rental_uris":{"android":"levelo://app?vid=5c61bcea-10b3-4b5e-8945-bfff84436bfc","ios":"levelo://app?vid=5c61bcea-10b3-4b5e-8945-bfff84436bfc"},"vehicle_type_id":"4","last_reported":1749571998,"current_range_meters":20400,"station_id":"ce4bhg12rcd13ifvqf70","pricing_plan_id":"cebpf4jnsgd1na2vs0mg"},{"bike_id":"409e3c72-7f15-43fa-b28d-910c6723bd91","system_id":"levelo_inurba_marseille","lat":43.28105,"lon":5.3783,"is_reserved":false,"is_disabled":false,"rental_uris":{"android":"levelo://app?vid=409e3c72-7f15-43fa-b28d-910c6723bd91","ios":"levelo://app?vid=409e3c72-7f15-43fa-b28d-910c6723bd91"},"vehicle_type_id":"4","last_reported":1749571998,"current_range_meters":20400,"station_id":"ce4bha12rcd13ifvqee0","pricing_plan_id":"cebpf4jnsgd1na2vs0mg"},{"bike_id":"390d10d2-a74e-4e66-9276-d0dc93391c1e","system_id":"levelo_inurba_marseille","lat":43.28412,"lon":5.34982,"is_reserved":false,"is_disabled":false,"rental_uris":{"android":"levelo://app?vid=390d10d2-a74e-4e66-9276-d0dc93391c1e","ios":"levelo://app?vid=390d10d2-a74e-4e66-9276-d0dc93391c1e"},"vehicle_type_id":"4","last_reported":1749571998,"current_range_meters":20400,"station_id":"ce4bhbh2rcd13ifvqepg","pricing_plan_id":"cebpf4jnsgd1na2vs0mg"},{"bike_id":"c6e18437-b280-4200-9f22-3f258eb6b288","system_id":"levelo_inurba_marseille","lat":43.28245,"lon":5.35089,"is_reserved":false,"is_disabled":false,"rental_uris":{"android":"levelo://app?vid=c6e18437-b280-4200-9f22-3f258eb6b288","ios":"levelo://app?vid=c6e18437-b280-4200-9f22-3f258eb6b288"},"vehicle_type_id":"4","last_reported":1749571998,"current_range_meters":20800,"station_id":"ce4bhbp2rcd13ifvqerg","pricing_plan_id":"cebpf4jnsgd1na2vs0mg"},{"bike_id":"776b5790-0489-41b1-8c0c-29bf4a2b508c","system_id":"levelo_inurba_marseille","lat":43.29598,"lon":5.38107,"is_reserved":false,"is_disabled":false,"rental_uris":{"android":"levelo://app?vid=776b5790-0489-41b1-8c0c-29bf4a2b508c","ios":"levelo://app?vid=776b5790-0489-41b1-8c0c-29bf4a2b508c"},"vehicle_type_id":"4","last_reported":1749571998,"current_range_meters":20800,"station_id":"ce4bgl12rcd13ifvqbo0","pricing_plan_id":"cebpf4jnsgd1na2vs0mg"},{"bike_id":"2ec42470-350a-46de-8574-76f46c56b208","system_id":"levelo_inurba_marseille","lat":43.27826,"lon":5.40729,"is_reserved":false,"is_disabled":false,"rental_uris":{"android":"levelo://app?vid=2ec42470-350a-46de-8574-76f46c56b208","ios":"levelo://app?vid=2ec42470-350a-46de-8574-76f46c56b208"},"vehicle_type_id":"4","last_reported":1749571998,"current_range_meters":20800,"station_id":"ce4bhnh2rcd13ifvqgtg","pricing_plan_id":"cebpf4jnsgd1na2vs0mg"},{"bike_id":"3b033441-69f6-41bc-a4f1-4b6ecbfb4903","system_id":"levelo_inurba_marseille","lat":43.28158,"lon":5.42619,"is_reserved":false,"is_disabled":false,"rental_uris":{"android":"levelo://app?vid=3b033441-69f6-41bc-a4f1-4b6ecbfb4903","ios":"levelo://app?vid=3b033441-69f6-41bc-a4f1-4b6ecbfb4903"},"vehicle_type_id":"4","last_reported":1749571998,"current_range_meters":20800,"station_id":"ce4bhnh2rcd13ifvqgug","pricing_plan_id":"cebpf4jnsgd1na2vs0mg"},{"bike_id":"131a22c5-2c23-41a1-8993-48538638085c","system_id":"levelo_inurba_marseille","lat":43.32101,"lon":5.36809,"is_reserved":false,"is_disabled":false,"rental_uris":{"android":"levelo://app?vid=131a22c5-2c23-41a1-8993-48538638085c","ios":"levelo://app?vid=131a22c5-2c23-41a1-8993-48538638085c"},"vehicle_type_id":"4","last_reported":1749571998,"current_range_meters":20800,"station_id":"ce4bhrh2rcd13ifvqhug","pricing_plan_id":"cebpf4jnsgd1na2vs0mg"},{"bike_id":"3db8fde5-dc25-47f9-adb5-1429f5338e31","system_id":"levelo_inurba_marseille","lat":43.31753,"lon":5.38473,"is_reserved":false,"is_disabled":false,"rental_uris":{"android":"levelo://app?vid=3db8fde5-dc25-47f9-adb5-1429f5338e31","ios":"levelo://app?vid=3db8fde5-dc25-47f9-adb5-1429f5338e31"},