{"last_updated":1725296832,"ttl":30,"version":"2.2","data":{"bikes":[{"bike_id":"67d0c600-186f-4929-b227-2c1e3017b2a2","system_id":"levelo_inurba_marseille","lat":43.312228,"lon":5.368616,"is_reserved":false,"is_disabled":false,"rental_uris":{"android":"levelo://app?vid=67d0c600-186f-4929-b227-2c1e3017b2a2","ios":"levelo://app?vid=67d0c600-186f-4929-b227-2c1e3017b2a2"},"vehicle_type_id":"4","last_reported":1725296832,"current_range_meters":0,"station_id":"ce4bgl92rcd13ifvqbq0","pricing_plan_id":"cebpf4jnsgd1na2vs0mg"},{"bike_id":"9d000149-8a9a-4ff7-9586-e8a03b6d2e2e","system_id":"levelo_inurba_marseille","lat":43.309076,"lon":5.368465,"is_reserved":false,"is_disabled":false,"rental_uris":{"android":"levelo://app?vid=9d000149-8a9a-4ff7-9586-e8a03b6d2e2e","ios":"levelo://app?vid=9d000149-8a9a-4ff7-9586-e8a03b6d2e2e"},"vehicle_type_id":"4","last_reported":1725296832,"current_range_meters":0,"station_id":"ce4bgn92rcd13ifvqbvg","pricing_plan_id":"cebpf4jnsgd1na2vs0mg"},{"bike_id":"71060d27-6a36-446e-9d33-b3107b5a167d","system_id":"levelo_inurba_marseille","lat":43.314811,"lon":5.373103,"is_reserved":false,"is_disabled":false,"rental_uris":{"android":"levelo://app?vid=71060d27-6a36-446e-9d33-b3107b5a167d","ios":"levelo://app?vid=71060d27-6a36-446e-9d33-b3107b5a167d"},"vehicle_type_id":"4","last_reported":1725296832,"current_range_meters":0,"station_id":"ce4bgt12rcd13ifvqcd0","pricing_plan_id":"cebpf4jnsgd1na2vs0mg"},{"bike_id":"de0c9be7-0ff9-4169-8e4e-190179ede6e8","system_id":"levelo_inurba_marseille","lat":43.314915,"lon":5.373019,"is_reserved":false,"is_disabled":false,"rental_uris":{"android":"levelo://app?vid=de0c9be7-0ff9-4169-8e4e-190179ede6e8","ios":"levelo://app?vid=de0c9be7-0ff9-4169-8e4e-190179ede6e8"},"vehicle_type_id":"4","last_reported":1725296832,"current_range_meters":31200,"station_id":"ce4bgt12rcd13ifvqcd0","pricing_plan_id":"cebpf4jnsgd1na2vs0mg"},{"bike_id":"ea9fc90d-3009-4f71-9681-3dd499cc7aad","system_id":"levelo_inurba_marseille","lat":43.31488,"lon":5.37308,"is_reserved":false,"is_disabled":false,"rental_uris":{"android":"levelo://app?vid=ea9fc90d-3009-4f71-9681-3dd499cc7aad","ios":"levelo://app?vid=ea9fc90d-3009-4f71-9681-3dd499cc7aad"},"vehicle_type_id":"4","last_reported":1725296832,"current_range_meters":22000,"station_id":"ce4bgt12rcd13ifvqcd0","pricing_plan_id":"cebpf4jnsgd1na2vs0mg"},{"bike_id":"e59c13bd-f85e-4460-afeb-014497bbac7b","system_id":"levelo_inurba_marseille","lat":43.315038,"lon":5.373024,"is_reserved":false,"is_disabled":false,"rental_uris":{"android":"levelo://app?vid=e59c13bd-f85e-4460-afeb-014497bbac7b","ios":"levelo://app?vid=e59c13bd-f85e-4460-afeb-014497bbac7b"},"vehicle_type_id":"4","last_reported":1725296832,"current_range_meters":31200,"station_id":"ce4bgt12rcd13ifvqcd0","pricing_plan_id":"cebpf4jnsgd1na2vs0mg"},{"bike_id":"67a60ada-071f-4886-86a6-3471bf1ad537","system_id":"levelo_inurba_marseille","lat":43.30902,"lon":5.3719,"is_reserved":false,"is_disabled":false,"rental_uris":{"android":"levelo://app?vid=67a60ada-071f-4886-86a6-3471bf1ad537","ios":"levelo://app?vid=67a60ada-071f-4886-86a6-3471bf1ad537"},"vehicle_type_id":"4","last_reported":1725296832,"current_range_meters":13200,"station_id":"ce4bguh2rcd13ifvqckg","pricing_plan_id":"cebpf4jnsgd1na2vs0mg"},{"bike_id":"b2fd3af8-453b-42bd-b5a4-27d264cf8a30","system_id":"levelo_inurba_marseille","lat":43.305712,"lon":5.365641,"is_reserved":false,"is_disabled":false,"rental_uris":{"android":"levelo://app?vid=b2fd3af8-453b-42bd-b5a4-27d264cf8a30","ios":"levelo://app?vid=b2fd3af8-453b-42bd-b5a4-27d264cf8a30"},"vehicle_type_id":"4","last_reported":1725296832,"current_range_meters":0,"station_id":"ce4bgs12rcd13ifvqcag","pricing_plan_id":"cebpf4jnsgd1na2vs0mg"},{"bike_id":"978b8043-55b4-4143-885e-13450043cd02","system_id":"levelo_inurba_marseille","lat":43.305714,"lon":5.365633,"is_reserved":false,"is_disabled":false,"rental_uris":{"android":"levelo://app?vid=978b8043-55b4-4143-885e-13450043cd02","ios":"levelo://app?vid=978b8043-55b4-4143-885e-13450043cd02"},"vehicle_type_id":"4","last_reported":1725296832,"current_range_meters":400,"station_id":"ce4bgs12rcd13ifvqcag","pricing_plan_id":"cebpf4jnsgd1na2vs0mg"},{"bike_id":"c22dcea0-f03e-472a-aa20-b51eeed8f41b","system_id":"levelo_inurba_marseille","lat":43.305706,"lon":5.365654,"is_reserved":false,"is_disabled":false,"rental_uris":{"android":"levelo://app?vid=c22dcea0-f03e-472a-aa20-b51eeed8f41b","ios":"levelo://app?vid=c22dcea0-f03e-472a-aa20-b51eeed8f41b"},"vehicle_type_id":"4","last_reported":1725296832,"current_range_meters":0,"station_id":"ce4bgs12rcd13ifvqcag","pricing_plan_id":"cebpf4jnsgd1na2vs0mg"},{"bike_id":"2a4d8ac1-36b4-43e5-997c-a53d1d782ca7","system_id":"levelo_inurba_marseille","lat":43.311125,"lon":5.377624,"is_reserved":false,"is_disabled":false,"rental_uris":{"android":"levelo://app?vid=2a4d8ac1-36b4-43e5-997c-a53d1d782ca7","ios":"levelo://app?vid=2a4d8ac1-36b4-43e5-997c-a53d1d782ca7"},"vehicle_type_id":"4","last_reported":1725296832,"current_range_meters":4000,"station_id":"ce4bgt92rcd13ifvqcg0","pricing_plan_id":"cebpf4jnsgd1na2vs0mg"},{"bike_id":"a421172f-24fd-4393-850d-d6719af8975c","system_id":"levelo_inurba_marseille","lat":43.317184,"lon":5.376704,"is_reserved":false,"is_disabled":false,"rental_uris":{"android":"levelo://app?vid=a421172f-24fd-4393-850d-d6719af8975c","ios":"levelo://app?vid=a421172f-24fd-4393-850d-d6719af8975c"},"vehicle_type_id":"4","last_reported":1725296832,"current_range_meters":31200,"station_id":"","pricing_plan_id":"cebpf4jnsgd1na2vs0mg"},{"bike_id":"267324f0-5925-4a12-88c1-ec98a28701fa","system_id":"levelo_inurba_marseille","lat":43.307945,"lon":5.376487,"is_reserved":false,"is_disabled":false,"rental_uris":{"android":"levelo://app?vid=267324f0-5925-4a12-88c1-ec98a28701fa","ios":"levelo://app?vid=267324f0-5925-4a12-88c1-ec98a28701fa"},"vehicle_type_id":"4","last_reported":1725296832,"current_range_meters":26400,"station_id":"ce4bgv92rcd13ifvqcq0","pricing_plan_id":"cebpf4jnsgd1na2vs0mg"},{"bike_id":"53d88a39-bfad-402b-b7df-70407753eae8","system_id":"levelo_inurba_marseille","lat":43.317075,"lon":5.377367,"is_reserved":false,"is_disabled":false,"rental_uris":{"android":"levelo://app?vid=53d88a39-bfad-402b-b7df-70407753eae8","ios":"levelo://app?vid=53d88a39-bfad-402b-b7df-70407753eae8"},"vehicle_type_id":"4","last_reported":1725296832,"current_range_meters":28000,"station_id":"ce4bgth2rcd13ifvqch0","pricing_plan_id":"cebpf4jnsgd1na2vs0mg"},{"bike_id":"2fac9833-779c-4b8e-ab24-77432187dcae","system_id":"levelo_inurba_marseille","lat":43.3031,"lon":5.36902,"is_reserved":false,"is_disabled":false,"rental_uris":{"android":"levelo://app?vid=2fac9833-779c-4b8e-ab24-77432187dcae","ios":"levelo://app?vid=2fac9833-779c-4b8e-ab24-77432187dcae"},"vehicle_type_id":"4","last_reported":1725296832,"current_range_meters":0,"station_id":"ce4bgqh2rcd13ifvqc5g","pricing_plan_id":"cebpf4jnsgd1na2vs0mg"},{"bike_id":"fb729676-a00f-4f79-b96a-128f12358f7f","system_id":"levelo_inurba_marseille","lat":43.315289,"lon":5.380349,"is_reserved":false,"is_disabled":false,"rental_uris":{"android":"levelo://app?vid=fb729676-a00f-4f79-b96a-128f12358f7f","ios":"levelo://app?vid=fb729676-a00f-4f79-b96a-128f12358f7f"},"vehicle_type_id":"4","last_reported":1725296832,"current_range_meters":29600,"station_id":"ce4bhsp2rcd13ifvqi50","pricing_plan_id":"cebpf4jnsgd1na2vs0mg"},{"bike_id":"e8e71965-0a71-4311-b978-463b1ff43a31","system_id":"levelo_inurba_marseille","lat":43.30786,"lon":5.3801,"is_reserved":false,"is_disabled":false,"rental_uris":{"android":"levelo://app?vid=e8e71965-0a71-4311-b978-463b1ff43a31","ios":"levelo://app?vid=e8e71965-0a71-4311-b978-463b1ff43a31"},"vehicle_type_id":"4","last_reported":1725296832,"current_range_meters":5600,"station_id":"","pricing_plan_id":"cebpf4jnsgd1na2vs0mg"},{"bike_id":"5db5048a-3a18-4311-9692-d33e5f653188","system_id":"levelo_inurba_marseille","lat":43.304606,"lon":5.379026,"is_reserved":false,"is_disabled":false,"rental_uris":{"android":"levelo://app?vid=5db5048a-3a18-4311-9692-d33e5f653188","ios":"levelo://app?vid=5db5048a-3a18-4311-9692-d33e5f653188"},"vehicle_type_id":"4","last_reported":1725296832,"current_range_meters":0,"station_id":"ce4bgup2rcd13ifvqcn0","pricing_plan_id":"cebpf4jnsgd1na2vs0mg"},{"bike_id":"e78210df-af85-4964-bc38-c5560f2af5e9","system_id":"levelo_inurba_marseille","lat":43.304606,"lon":5.379026,"is_reserved":false,"is_disabled":false,"rental_uris":{"android":"levelo://app?vid=e78210df-af85-4964-bc38-c5560f2af5e9","ios":"levelo://app?vid=e78210df-af85-4964-bc38-c5560f2af5e9"},"vehicle_type_id":"4","last_reported":1725296832,"current_range_meters":20000,"station_id":"ce4bgup2rcd13ifvqcn0","pricing_plan_id":"cebpf4jnsgd1na2vs0mg"},{"bike_id":"991403b2-6cfd-48c8-b91c-703c892d02d6","system_id":"levelo_inurba_marseille","lat":43.304606,"lon":5.379026,"is_reserved":false,"is_disabled":false,"rental_uris":{"android":"levelo://app?vid=991403b2-6cfd-48c8-b91c-703c892d02d6","ios":"levelo://app?vid=991403b2-6cfd-48c8-b91c-703c892d02d6"},"vehicle_type_id":"4","last_reported":1725296832,"current_range_meters":5200,"station_id":"ce4bgup2rcd13ifvqcn0","pricing_plan_id":"cebpf4jnsgd1na2vs0mg"},{"bike_id":"9bccd40d-b596-473f-b9d0-f2f875cbea24","system_id":"levelo_inurba_marseille","lat":43.324771,"lon":5.36557,"is_reserved":false,"is_disabled":false,"rental_uris":{"android":"levelo://app?vid=9bccd40d-b596-473f-b9d0-f2f875cbea24","ios":"levelo://app?vid=9bccd40d-b596-473f-b9d0-f2f875cbea24"},"vehicle_type_id":"4","last_reported":1725296832,"current_range_meters":1200,"station_id":"ce4bhs12rcd13ifvqhvg","pricing_plan_id":"cebpf4jnsgd1na2vs0mg"},{"bike_id":"1f7c457c-733d-4f08-b1ae-e4809849fe14","system_id":"levelo_inurba_marseille","lat":43.31079,"lon":5.3836,"is_reserved":false,"is_disabled":false,"rental_uris":{"android":"levelo://app?vid=1f7c457c-733d-4f08-b1ae-e4809849fe14","ios":"levelo://app?vid=1f7c457c-733d-4f08-b1ae-e4809849fe14"},"vehicle_type_id":"4","last_reported":1725296832,"current_range_meters":20400,"station_id":"ce4bgv92rcd13ifvqcr0","pricing_plan_id":"cebpf4jnsgd1na2vs0mg"},{"bike_id":"8cd7359d-c2d3-4546-a0de-f56c7dfe66d4","system_id":"levelo_inurba_marseille","lat":43.302784,"lon":5.377158,"is_reserved":false,"is_disabled":false,"rental_uris":{"android":"levelo://app?vid=8cd7359d-c2d3-4546-a0de-f56c7dfe66d4","ios":"levelo://app?vid=8cd7359d-c2d3-4546-a0de-f56c7dfe66d4"},"vehicle_type_id":"4","last_reported":1725296832,"current_range_meters":8000,"station_id":"ce4bguh2rcd13ifvqcj0","pricing_plan_id":"cebpf4jnsgd1na2vs0mg"},{"bike_id":"6586b1f7-bf00-45ea-ae11-cd2f548048ab","system_id":"levelo_inurba_marseille","lat":43.31989,"lon":5.38136,"is_reserved":false,"is_disabled":false,"rental_uris":{"android":"levelo://app?vid=6586b1f7-bf00-45ea-ae11-cd2f548048ab","ios":"levelo://app?vid=6586b1f7-bf00-45ea-ae11-cd2f548048ab"},"vehicle_type_id":"4","last_reported":1725296832,"current_range_meters":19600,"station_id":"ce4bhr12rcd13ifvqhpg","pricing_plan_id":"cebpf4jnsgd1na2vs0mg"},{"bike_id":"743c8c87-c1c3-438f-9be4-ea89b9c23645","system_id":"levelo_inurba_marseille","lat":43.31993,"lon":5.38145,"is_reserved":false,"is_disabled":false,"rental_uris":{"android":"levelo://app?vid=743c8c87-c1c3-438f-9be4-ea89b9c23645","ios":"levelo://app?vid=743c8c87-c1c3-438f-9be4-ea89b9c23645"},"vehicle_type_id":"4","last_reported":1725296832,"current_range_meters":14400,"station_id":"ce4bhr12rcd13ifvqhpg","pricing_plan_id":"cebpf4jnsgd1na2vs0mg"},{"bike_id":"f9666617-bcaa-408d-b981-d766aa7cc41e","system_id":"levelo_inurba_marseille","lat":43.319935,"lon":5.381699,"is_reserved":false,"is_disabled":false,"rental_uris":{"android":"levelo://app?vid=f9666617-bcaa-408d-b981-d766aa7cc41e","ios":"levelo://app?vid=f9666617-bcaa-408d-b981-d766aa7cc41e"},"vehicle_type_id":"4","last_reported":1725296832,"current_range_meters":11600,"station_id":"ce4bhr12rcd13ifvqhpg","pricing_plan_id":"cebpf4jnsgd1na2vs0mg"},{"bike_id":"6c011bdb-d6ba-47b7-8fe4-ce727f8bd302","system_id":"levelo_inurba_marseille","lat":43.319935,"lon":5.381699,"is_reserved":false,"is_disabled":false,"rental_uris":{"android":"levelo://app?vid=6c011bdb-d6ba-47b7-8fe4-ce727f8bd302","ios":"levelo://app?vid=6c011bdb-d6ba-47b7-8fe4-ce727f8bd302"},"vehicle_type_id":"4","last_reported":1725296832,"current_range_meters":8800,"station_id":"ce4bhr12rcd13ifvqhpg","pricing_plan_id":"cebpf4jnsgd1na2vs0mg"},{"bike_id":"d5fc40c2-a96c-43cb-9c37-281cca71e493","system_id":"levelo_inurba_marseille","lat":43.313571,"lon":5.384829,"is_reserved":false,"is_disabled":false,"rental_uris":{"android":"levelo://app?vid=d5fc40c2-a96c-43cb-9c37-281cca71e493","ios":"levelo://app?vid=d5fc40c2-a96c-43cb-9c37-281cca71e493"},"vehicle_type_id":"4","last_reported":1725296832,"current_range_meters":6000,"station_id":"ce4bgt92rcd13ifvqcf0","pricing_plan_id":"cebpf4jnsgd1na2vs0mg"},{"bike_id":"e23d0b39-d81e-4cc2-acc6-1733b36e13fc","system_id":"levelo_inurba_marseille","lat":43.313749,"lon":5.384901,"is_reserved":false,"is_disabled":false,"rental_uris":{"android":"levelo://app?vid=e23d0b39-d81e-4cc2-acc6-1733b36e13fc","ios":"levelo://app?vid=e23d0b39-d81e-4cc2-acc6-1733b36e13fc"},"vehicle_type_id":"4","last_reported":1725296832,"current_range_meters":29600,"station_id":"ce4bgt92rcd13ifvqcf0","pricing_plan_id":"cebpf4jnsgd1na2vs0mg"},{"bike_id":"9c251e2b-2a3c-45f9-8f61-a23f94df2a9c","system_id":"levelo_inurba_marseille","lat":43.313571,"lon":5.384829,"is_reserved":false,"is_disabled":false,"rental_uris":{"android":"levelo://app?vid=9c251e2b-2a3c-45f9-8f61-a23f94df2a9c","ios":"levelo://app?vid=9c251e2b-2a3c-45f9-8f61-a23f94df2a9c"},"vehicle_type_id":"4","last_reported":1725296832,"current_range_meters":31200,"station_id":"ce4bgt92rcd13ifvqcf0","pricing_plan_id":"cebpf4jnsgd1na2vs0mg"},{"bike_id":"a4b549ff-bcc3-4285-a626-483113cf5bdc","system_id":"levelo_inurba_marseille","lat":43.29984,"lon":5.37169,"is_reserved":false,"is_disabled":false,"rental_uris":{"android":"levelo://app?vid=a4b549ff-bcc3-4285-a626-483113cf5bdc","ios":"levelo://app?vid=a4b549ff-bcc3-4285-a626-483113cf5bdc"},"vehicle_type_id":"4","last_reported":1725296832,"current_range_meters":0,"station_id":"ce4bgr92rcd13ifvqc7g","pricing_plan_id":"cebpf4jnsgd1na2vs0mg"},{"bike_id":"e25122f2-7efd-4ff6-a864-429433db8c49","system_id":"levelo_inurba_marseille","lat":43.299724,"lon":5.371829,"is_reserved":false,"is_disabled":false,"rental_uris":{"android":"levelo://app?vid=e25122f2-7efd-4ff6-a864-429433db8c49","ios":"levelo://app?vid=e25122f2-7efd-4ff6-a864-429433db8c49"},"vehicle_type_id":"4","last_reported":1725296832,"current_range_meters":20000,"station_id":"ce4bgr92rcd13ifvqc7g","pricing_plan_id":"cebpf4jnsgd1na2vs0mg"},{"bike_id":"bf4db49e-23eb-46ff-ac7b-a1ff143486fb","system_id":"levelo_inurba_marseille","lat":43.299724,"lon":5.371829,"is_reserved":false,"is_disabled":false,"rental_uris":{"android":"levelo://app?vid=bf4db49e-23eb-46ff-ac7b-a1ff143486fb","ios":"levelo://app?vid=bf4db49e-23eb-46ff-ac7b-a1ff143486fb"},"vehicle_type_id":"4","last_reported":1725296832,"current_range_meters":4800,"station_id":"ce4bgr92rcd13ifvqc7g","pricing_plan_id":"cebpf4jnsgd1na2vs0mg"},{"bike_id":"a415c736-a78e-4a43-950c-df3598f2e552","system_id":"levelo_inurba_marseille","lat":43.30534,"lon":5.38425,"is_reserved":false,"is_disabled":false,"rental_uris":{"android":"levelo://app?vid=a415c736-a78e-4a43-950c-df3598f2e552","ios":"levelo://app?vid=a415c736-a78e-4a43-950c-df3598f2e552"},"vehicle_type_id":"4","last_reported":1725296832,"current_range_meters":2000,"station_id":"ce4bgg92rcd13ifvqb30","pricing_plan_id":"cebpf4jnsgd1na2vs0mg"},{"bike_id":"634a1285-79e8-4b3b-8f51-38712db24576","system_id":"levelo_inurba_marseille","lat":43.305368,"lon":5.367343,"is_reserved":false,"is_disabled":false,"rental_uris":{"android":"levelo://app?vid=634a1285-79e8-4b3b-8f51-38712db24576","ios":"levelo://app?vid=634a1285-79e8-4b3b-8f51-38712db24576"},"vehicle_type_id":"4","last_reported":1725296832,"current_range_meters":7600,"station_id":"ce4bgrp2rcd13ifvqc9g","pricing_plan_id":"cebpf4jnsgd1na2vs0mg"},{"bike_id":"4f7f77ba-2a0e-4fdd-a28a-9e9ff4eb6524","system_id":"levelo_inurba_marseille","lat":43.301417,"lon":5.3809,"is_reserved":false,"is_disabled":false,"rental_uris":{"android":"levelo://app?vid=4f7f77ba-2a0e-4fdd-a28a-9e9ff4eb6524","ios":"levelo://app?vid=4f7f77ba-2a0e-4fdd-a28a-9e9ff4eb6524"},"vehicle_type_id":"4","last_reported":1725296832,"current_range_meters":0,"station_id":"ce4bgjp2rcd13ifvqbh0","pricing_plan_id":"cebpf4jnsgd1na2vs0mg"},{"bike_id":"dd1d9bb8-1c75-4af9-8ef8-aec508cb3d7d","system_id":"levelo_inurba_marseille","lat":43.29779,"lon":5.37074,"is_reserved":false,"is_disabled":false,"rental_uris":{"android":"levelo://app?vid=dd1d9bb8-1c75-4af9-8ef8-aec508cb3d7d","ios":"levelo://app?vid=dd1d9bb8-1c75-4af9-8ef8-aec508cb3d7d"},"vehicle_type_id":"4","last_reported":1725296832,"current_range_meters":0,"station_id":"","pricing_plan_id":"cebpf4jnsgd1na2vs0mg"},{"bike_id":"43475821-6cd1-4bb6-9755-393790103167","system_id":"levelo_inurba_marseille","lat":43.3229,"lon":5.3826,"is_reserved":false,"is_disabled":false,"rental_uris":{"android":"levelo://app?vid=43475821-6cd1-4bb6-9755-393790103167","ios":"levelo://app?vid=43475821-6cd1-4bb6-9755-393790103167"},"vehicle_type_id":"4","last_reported":1725296832,"current_range_meters":0,"station_id":"ce4bhr12rcd13ifvqhqg","pricing_plan_id":"cebpf4jnsgd1na2vs0mg"},{"bike_id":"0e592648-6316-46fc-96dc-9a927e2965cd","system_id":"levelo_inurba_marseille","lat":43.322872,"lon":5.382756,"is_reserved":false,"is_disabled":false,"rental_uris":{"android":"levelo://app?vid=0e592648-6316-46fc-96dc-9a927e2965cd","ios":"levelo://app?vid=0e592648-6316-46fc-96dc-9a927e2965cd"},"vehicle_type_id":"4","last_reported":1725296832,"current_range_meters":30400,"station_id":"ce4bhr12rcd13ifvqhqg","pricing_plan_id":"cebpf4jnsgd1na2vs0mg"},{"bike_id":"269543b6-b20b-4f74-b995-517d422f7746","system_id":"levelo_inurba_marseille","lat":43.32292,"lon":5.38265,"is_reserved":false,"is_disabled":false,"rental_uris":{"android":"levelo://app?vid=269543b6-b20b-4f74-b995-517d422f7746","ios":"levelo://app?vid=269543b6-b20b-4f74-b995-517d422f7746"},"vehicle_type_id":"4","last_reported":1725296832,"current_range_meters":0,"station_id":"ce4bhr12rcd13ifvqhqg","pricing_plan_id":"cebpf4jnsgd1na2vs0mg"},{"bike_id":"a530ea29-7e9f-4e0c-98f5-3232bd4c7b6e","system_id":"levelo_inurba_marseille","lat":43.322872,"lon":5.382756,"is_reserved":false,"is_disabled":false,"rental_uris":{"android":"levelo://app?vid=a530ea29-7e9f-4e0c-98f5-3232bd4c7b6e","ios":"levelo://app?vid=a530ea29-7e9f-4e0c-98f5-3232bd4c7b6e"},"vehicle_type_id":"4","last_reported":1725296832,"current_range_meters":6800,"station_id":"ce4bhr12rcd13ifvqhqg","pricing_plan_id":"cebpf4jnsgd1na2vs0mg"},{"bike_id":"b6526665-543d-4c7f-a849-6c678ece708a","system_id":"levelo_inurba_marseille","lat":43.31503,"lon":5.38873,"is_reserved":false,"is_disabled":false,"rental_uris":{"android":"levelo://app?vid=b6526665-543d-4c7f-a849-6c678ece708a","ios":"levelo://app?vid=b6526665-543d-4c7f-a849-6c678ece708a"},"vehicle_type_id":"4","last_reported":1725296832,"current_range_meters":2000,"station_id":"","pricing_plan_id":"cebpf4jnsgd1na2vs0mg"},{"bike_id":"8a8887de-5c7d-4b1c-91b2-78e9c920b48d","system_id":"levelo_inurba_marseille","lat":43.2968,"lon":5.37291,"is_reserved":false,"is_disabled":false,"rental_uris":{"android":"levelo://app?vid=8a8887de-5c7d-4b1c-91b2-78e9c920b48d","ios":"levelo://app?vid=8a8887de-5c7d-4b1c-91b2-78e9c920b48d"},"vehicle_type_id":"4","last_reported":1725296832,"current_range_meters":31200,"station_id":"ce4bgk12rcd13ifvqbj0","pricing_plan_id":"cebpf4jnsgd1na2vs0mg"},{"bike_id":"af9f8fce-35bc-4a21-9168-b5b94111f118","system_id":"levelo_inurba_marseille","lat":43.309589,"lon":5.390258,"is_reserved":false,"is_disabled":false,"rental_uris":{"android":"levelo://app?vid=af9f8fce-35bc-4a21-9168-b5b94111f118","ios":"levelo://app?vid=af9f8fce-35bc-4a21-9168-b5b94111f118"},"vehicle_type_id":"4","last_reported":1725296832,"current_range_meters":30800,"station_id":"ce4bgup2rcd13ifvqco0","pricing_plan_id":"cebpf4jnsgd1na2vs0mg"},{"bike_id":"3edb2373-88ee-4a16-85b7-4abe4cbb3b48","system_id":"levelo_inurba_marseille","lat":43.299028,"lon":5.381509,"is_reserved":false,"is_disabled":false,"rental_uris":{"android":"levelo://app?vid=3edb2373-88ee-4a16-85b7-4abe4cbb3b48","ios":"levelo://app?vid=3edb2373-88ee-4a16-85b7-4abe4cbb3b48"},"vehicle_type_id":"4","last_reported":1725296832,"current_range_meters":5600,"station_id":"ce4bgj12rcd13ifvqbc0","pricing_plan_id":"cebpf4jnsgd1na2vs0mg"},{"bike_id":"bf003653-f74d-40a4-96d0-5ddc412080cb","system_id":"levelo_inurba_marseille","lat":43.309589,"lon":5.390258,"is_reserved":false,"is_disabled":false,"rental_uris":{"android":"levelo://app?vid=bf003653-f74d-40a4-96d0-5ddc412080cb","ios":"levelo://app?vid=bf003653-f74d-40a4-96d0-5ddc412080cb"},"vehicle_type_id":"4","last_reported":1725296832,"current_range_meters":25200,"station_id":"ce4bgup2rcd13ifvqco0","pricing_plan_id":"cebpf4jnsgd1na2vs0mg"},{"bike_id":"4206d64e-08ea-4828-826a-dc53157afe27","system_id":"levelo_inurba_marseille","lat":43.31761,"lon":5.39004,"is_reserved":false,"is_disabled":false,"rental_uris":{"android":"levelo://app?vid=4206d64e-08ea-4828-826a-dc53157afe27","ios":"levelo://app?vid=4206d64e-08ea-4828-826a-dc53157afe27"},"vehicle_type_id":"4","last_reported":1725296832,"current_range_meters":0,"station_id":"ce4bhqp2rcd13ifvqhng","pricing_plan_id":"cebpf4jnsgd1na2vs0mg"},{"bike_id":"435eb7ec-120a-42f4-81b3-2e5341a050a1","system_id":"levelo_inurba_marseille","lat":43.31759,"lon":5.39009,"is_reserved":false,"is_disabled":false,"rental_uris":{"android":"levelo://app?vid=435eb7ec-120a-42f4-81b3-2e5341a050a1","ios":"levelo://app?vid=435eb7ec-120a-42f4-81b3-2e5341a050a1"},"vehicle_type_id":"4","last_reported":1725296832,"current_range_meters":0,"station_id":"ce4bhqp2rcd13ifvqhng","pricing_plan_id":"cebpf4jnsgd1na2vs0mg"},{"bike_id":"02977fe5-2a38-4d05-980a-72b48f0c0aa5","system_id":"levelo_inurba_marseille","lat":43.317557,"lon":5.390173,"is_reserved":false,"is_disabled":false,"rental_uris":{"android":"levelo://app?vid=02977fe5-2a38-4d05-980a-72b48f0c0aa5","ios":"levelo://app?vid=02977fe5-2a38-4d05-980a-72b48f0c0aa5"},"vehicle_type_id":"4","last_reported":1725296832,"current_range_meters":30800,"station_id":"ce4bhqp2rcd13ifvqhng","pricing_plan_id":"cebpf4jnsgd1na2vs0mg"},{"bike_id":"57859b4b-774f-46f2-a470-4e60258d42c3","system_id":"levelo_inurba_marseille","lat":43.304274,"lon":5.388873,"is_reserved":false,"is_disabled":false,"rental_uris":{"android":"levelo://app?vid=57859b4b-774f-46f2-a470-4e60258d42c3","ios":"levelo://app?vid=57859b4b-774f-46f2-a470-4e60258d42c3"},"vehicle_type_id":"4","last_reported":1725296832,"current_range_meters":800,"station_id":"ce4bgk12rcd13ifvqbi0","pricing_plan_id":"cebpf4jnsgd1na2vs0mg"},{"bike_id":"ad3ca06b-5556-45e5-8a15-bbb52d8b2639","system_id":"levelo_inurba_marseille","lat":43.296263,"lon":5.377094,"is_reserved":false,"is_disabled":false,"rental_uris":{"android":"levelo://app?vid=ad3ca06b-5556-45e5-8a15-bbb52d8b2639","ios":"levelo://app?vid=ad3ca06b-5556-45e5-8a15-bbb52d8b2639"},"vehicle_type_id":"4","last_reported":1725296832,"current_range_meters":29600,"station_id":"ce4bgi92rcd13ifvqb90","pricing_plan_id":"cebpf4jnsgd1na2vs0mg"},{"bike_id":"d78b3987-eb2b-4ba5-91de-90b988ecab98","system_id":"levelo_inurba_marseille","lat":43.299707,"lon":5.384859,"is_reserved":false,"is_disabled":false,"rental_uris":{"android":"levelo://app?vid=d78b3987-eb2b-4ba5-91de-90b988ecab98","ios":"levelo://app?vid=d78b3987-eb2b-4ba5-91de-90b988ecab98"},"vehicle_type_id":"4","last_reported":1725296832,"current_range_meters":0,"station_id":"ce4bgj92rcd13ifvqbd0","pricing_plan_id":"cebpf4jnsgd1na2vs0mg"},{"bike_id":"6e186907-23f6-40fb-a228-d435efbfdde9","system_id":"levelo_inurba_marseille","lat":43.299717,"lon":5.384845,"is_reserved":false,"is_disabled":false,"rental_uris":{"android":"levelo://app?vid=6e186907-23f6-40fb-a228-d435efbfdde9","ios":"levelo://app?vid=6e186907-23f6-40fb-a228-d435efbfdde9"},"vehicle_type_id":"4","last_reported":1725296832,"current_range_meters":0,"station_id":"ce4bgj92rcd13ifvqbd0","pricing_plan_id":"cebpf4jnsgd1na2vs0mg"},{"bike_id":"6c786fbf-9614-4a9e-90d7-509a6a20d4fa","system_id":"levelo_inurba_marseille","lat":43.32223,"lon":5.38929,"is_reserved":false,"is_disabled":false,"rental_uris":{"android":"levelo://app?vid=6c786fbf-9614-4a9e-90d7-509a6a20d4fa","ios":"levelo://app?vid=6c786fbf-9614-4a9e-90d7-509a6a20d4fa"},"vehicle_type_id":"4","last_reported":1725296832,"current_range_meters":27200,"station_id":"","pricing_plan_id":"cebpf4jnsgd1na2vs0mg"},{"bike_id":"9ebfdf67-23b4-43da-9768-469132fbbab9","system_id":"levelo_inurba_marseille","lat":43.301396,"lon":5.387812,"is_reserved":false,"is_disabled":false,"rental_uris":{"android":"levelo://app?vid=9ebfdf67-23b4-43da-9768-469132fbbab9","ios":"levelo://app?vid=9ebfdf67-23b4-43da-9768-469132fbbab9"},"vehicle_type_id":"4","last_reported":1725296832,"current_range_meters":0,"station_id":"ce4bghh2rcd13ifvqb60","pricing_plan_id":"cebpf4jnsgd1na2vs0mg"},{"bike_id":"cf7f489b-4ea9-4ee2-9c03-d80e58218a81","system_id":"levelo_inurba_marseille","lat":43.32367,"lon":5.388836,"is_reserved":false,"is_disabled":false,"rental_uris":{"android":"levelo://app?vid=cf7f489b-4ea9-4ee2-9c03-d80e58218a81","ios":"levelo://app?vid=cf7f489b-4ea9-4ee2-9c03-d80e58218a81"},"vehicle_type_id":"4","last_reported":1725296832,"current_range_meters":0,"station_id":"ce4bhqp2rcd13ifvqhog","pricing_plan_id":"cebpf4jnsgd1na2vs0mg"},{"bike_id":"24070b4d-af64-4aba-aec2-13b1359bad3a","system_id":"levelo_inurba_marseille","lat":43.292749,"lon":5.368402,"is_reserved":false,"is_disabled":false,"rental_uris":{"android":"levelo://app?vid=24070b4d-af64-4aba-aec2-13b1359bad3a","ios":"levelo://app?vid=24070b4d-af64-4aba-aec2-13b1359bad3a"},"vehicle_type_id":"4","last_reported":1725296832,"current_range_meters":5200,"station_id":"ce4bhbp2rcd13ifvqesg","pricing_plan_id":"cebpf4jnsgd1na2vs0mg"},{"bike_id":"41bc48e8-82ef-49f3-92cb-a801278c6e74","system_id":"levelo_inurba_marseille","lat":43.293249,"lon":5.371578,"is_reserved":false,"is_disabled":false,"rental_uris":{"android":"levelo://app?vid=41bc48e8-82ef-49f3-92cb-a801278c6e74","ios":"levelo://app?vid=41bc48e8-82ef-49f3-92cb-a801278c6e74"},"vehicle_type_id":"4","last_reported":1725296832,"current_range_meters":1600,"station_id":"ce4bgh92rcd13ifvqb40","pricing_plan_id":"cebpf4jnsgd1na2vs0mg"},{"bike_id":"963229df-e785-4820-a7ac-3dafe95d6e8b","system_id":"levelo_inurba_marseille","lat":43.293249,"lon":5.371578,"is_reserved":false,"is_disabled":false,"rental_uris":{"android":"levelo://app?vid=963229df-e785-4820-a7ac-3dafe95d6e8b","ios":"levelo://app?vid=963229df-e785-4820-a7ac-3dafe95d6e8b"},"vehicle_type_id":"4","last_reported":1725296832,"current_range_meters":0,"station_id":"ce4bgh92rcd13ifvqb40","pricing_plan_id":"cebpf4jnsgd1na2vs0mg"},{"bike_id":"b662c72b-0e0b-42b8-be94-9f7c8e818fbc","system_id":"levelo_inurba_marseille","lat":43.293009,"lon":5.374584,"is_reserved":false,"is_disabled":false,"rental_uris":{"android":"levelo://app?vid=b662c72b-0e0b-42b8-be94-9f7c8e818fbc","ios":"levelo://app?vid=b662c72b-0e0b-42b8-be94-9f7c8e818fbc"},"vehicle_type_id":"4","last_reported":1725296832,"current_range_meters":11200,"station_id":"ce4bgi12rcd13ifvqb70","pricing_plan_id":"cebpf4jnsgd1na2vs0mg"},{"bike_id":"dc5c7701-6615-434b-8760-69a3e1e441d4","system_id":"levelo_inurba_marseille","lat":43.305994,"lon":5.393687,"is_reserved":false,"is_disabled":false,"rental_uris":{"android":"levelo://app?vid=dc5c7701-6615-434b-8760-69a3e1e441d4","ios":"levelo://app?vid=dc5c7701-6615-434b-8760-69a3e1e441d4"},"vehicle_type_id":"4","last_reported":1725296832,"current_range_meters":6000,"station_id":"ce4bh0p2rcd13ifvqd80","pricing_plan_id":"cebpf4jnsgd1na2vs0mg"},{"bike_id":"6581a1c3-9750-4a13-a086-b76def97826a","system_id":"levelo_inurba_marseille","lat":43.305994,"lon":5.393687,"is_reserved":false,"is_disabled":false,"rental_uris":{"android":"levelo://app?vid=6581a1c3-9750-4a13-a086-b76def97826a","ios":"levelo://app?vid=6581a1c3-9750-4a13-a086-b76def97826a"},"vehicle_type_id":"4","last_reported":1725296832,"current_range_meters":10000,"station_id":"ce4bh0p2rcd13ifvqd80","pricing_plan_id":"cebpf4jnsgd1na2vs0mg"},{"bike_id":"9494ed19-4818-46b9-83b0-d6ce7974ac05","system_id":"levelo_inurba_marseille","lat":43.305994,"lon":5.393687,"is_reserved":false,"is_disabled":false,"rental_uris":{"android":"levelo://app?vid=9494ed19-4818-46b9-83b0-d6ce7974ac05","ios":"levelo://app?vid=9494ed19-4818-46b9-83b0-d6ce7974ac05"},"vehicle_type_id":"4","last_reported":1725296832,"current_range_meters":800,"station_id":"ce4bh0p2rcd13ifvqd80","pricing_plan_id":"cebpf4jnsgd1na2vs0mg"},{"bike_id":"1726dc1c-ebb7-4140-8faf-cf1b65de6536","system_id":"levelo_inurba_marseille","lat":43.29384,"lon":5.37845,"is_reserved":false,"is_disabled":false,"rental_uris":{"android":"levelo://app?vid=1726dc1c-ebb7-4140-8faf-cf1b65de6536","ios":"levelo://app?vid=1726dc1c-ebb7-4140-8faf-cf1b65de6536"},"vehicle_type_id":"4","last_reported":1725296832,"current_range_meters":0,"station_id":"ce4bgjh2rcd13ifvqbf0","pricing_plan_id":"cebpf4jnsgd1na2vs0mg"},{"bike_id":"29065a4c-c38f-4767-bdd3-20383d88a6ae","system_id":"levelo_inurba_marseille","lat":43.2936,"lon":5.37835,"is_reserved":false,"is_disabled":false,"rental_uris":{"android":"levelo://app?vid=29065a4c-c38f-4767-bdd3-20383d88a6ae","ios":"levelo://app?vid=29065a4c-c38f-4767-bdd3-20383d88a6ae"},"vehicle_type_id":"4","last_reported":1725296832,"current_range_meters":0,"station_id":"ce4bgjh2rcd13ifvqbf0","pricing_plan_id":"cebpf4jnsgd1na2vs0mg"},{"bike_id":"88609992-9870-42c2-a085-90735d3722a3","system_id":"levelo_inurba_marseille","lat":43.2936,"lon":5.37835,"is_reserved":false,"is_disabled":false,"rental_uris":{"android":"levelo://app?vid=88609992-9870-42c2-a085-90735d3722a3","ios":"levelo://app?vid=88609992-9870-42c2-a085-90735d3722a3"},"vehicle_type_id":"4","last_reported":1725296832,"current_range_meters":0,"station_id":"ce4bgjh2rcd13ifvqbf0","pricing_plan_id":"cebpf4jnsgd1na2vs0mg"},{"bike_id":"d727ebd4-24bf-4db9-aa1a-9297884c3fa0","system_id":"levelo_inurba_marseille","lat":43.293724,"lon":5.378492,"is_reserved":false,"is_disabled":false,"rental_uris":{"android":"levelo://app?vid=d727ebd4-24bf-4db9-aa1a-9297884c3fa0","ios":"levelo://app?vid=d727ebd4-24bf-4db9-aa1a-9297884c3fa0"},"vehicle_type_id":"4","last_reported":1725296832,"current_range_meters":0,"station_id":"ce4bgjh2rcd13ifvqbf0","pricing_plan_id":"cebpf4jnsgd1na2vs0mg"},{"bike_id":"44eae629-95b2-40dc-9dfa-cf8915798e5e","system_id":"levelo_inurba_marseille","lat":43.292352,"lon":5.36102,"is_reserved":false,"is_disabled":false,"rental_uris":{"android":"levelo://app?vid=44eae629-95b2-40dc-9dfa-cf8915798e5e","ios":"levelo://app?vid=44eae629-95b2-40dc-9dfa-cf8915798e5e"},"vehicle_type_id":"4","last_reported":1725296832,"current_range_meters":10000,"station_id":"","pricing_plan_id":"cebpf4jnsgd1na2vs0mg"},{"bike_id":"b04e299f-080d-4048-b968-d6d605ab1de8","system_id":"levelo_inurba_marseille","lat":43.292005,"lon":5.357875,"is_reserved":false,"is_disabled":false,"rental_uris":{"android":"levelo://app?vid=b04e299f-080d-4048-b968-d6d605ab1de8","ios":"levelo://app?vid=b04e299f-080d-4048-b968-d6d605ab1de8"},"vehicle_type_id":"4","last_reported":1725296832,"current_range_meters":22000,"station_id":"ce4bhb12rcd13ifvqel0","pricing_plan_id":"cebpf4jnsgd1na2vs0mg"},{"bike_id":"4b7be8e8-4137-4339-8adf-e95e31b0f4ce","system_id":"levelo_inurba_marseille","lat":43.292311,"lon":5.360731,"is_reserved":false,"is_disabled":false,"rental_uris":{"android":"levelo://app?vid=4b7be8e8-4137-4339-8adf-e95e31b0f4ce","ios":"levelo://app?vid=4b7be8e8-4137-4339-8adf-e95e31b0f4ce"},"vehicle_type_id":"4","last_reported":1725296832,"current_range_meters":0,"station_id":"ce4bhbh2rcd13ifvqeqg","pricing_plan_id":"cebpf4jnsgd1na2vs0mg"},{"bike_id":"8c975906-0057-45b6-8fde-fac353eb8e52","system_id":"levelo_inurba_marseille","lat":43.292322,"lon":5.360653,"is_reserved":false,"is_disabled":false,"rental_uris":{"android":"levelo://app?vid=8c975906-0057-45b6-8fde-fac353eb8e52","ios":"levelo://app?vid=8c975906-0057-45b6-8fde-fac353eb8e52"},"vehicle_type_id":"4","last_reported":1725296832,"current_range_meters":2000,"station_id":"ce4bhbh2rcd13ifvqeqg","pricing_plan_id":"cebpf4jnsgd1na2vs0mg"},{"bike_id":"ddf41a40-af4f-443d-9027-8cf3719ead42","system_id":"levelo_inurba_marseille","lat":43.2923,"lon":5.36059,"is_reserved":false,"is_disabled":false,"rental_uris":{"android":"levelo://app?vid=ddf41a40-af4f-443d-9027-8cf3719ead42","ios":"levelo://app?vid=ddf41a40-af4f-443d-9027-8cf3719ead42"},"vehicle_type_id":"4","last_reported":1725296832,"current_range_meters":18800,"station_id":"ce4bhbh2rcd13ifvqeqg","pricing_plan_id":"cebpf4jnsgd1na2vs0mg"},{"bike_id":"7b5dfcc1-df84-488e-a5de-f19ebe463d99","system_id":"levelo_inurba_marseille","lat":43.29226,"lon":5.36067,"is_reserved":false,"is_disabled":false,"rental_uris":{"android":"levelo://app?vid=7b5dfcc1-df84-488e-a5de-f19ebe463d99","ios":"levelo://app?vid=7b5dfcc1-df84-488e-a5de-f19ebe463d99"},"vehicle_type_id":"4","last_reported":1725296832,"current_range_meters":0,"station_id":"ce4bhbh2rcd13ifvqeqg","pricing_plan_id":"cebpf4jnsgd1na2vs0mg"},{"bike_id":"fc58cb8e-a9dd-486a-808a-349709ef13c8","system_id":"levelo_inurba_marseille","lat":43.29226,"lon":5.36067,"is_reserved":false,"is_disabled":false,"rental_uris":{"android":"levelo://app?vid=fc58cb8e-a9dd-486a-808a-349709ef13c8","ios":"levelo://app?vid=fc58cb8e-a9dd-486a-808a-349709ef13c8"},"vehicle_type_id":"4","last_reported":1725296832,"current_range_meters":15600,"station_id":"ce4bhbh2rcd13ifvqeqg","pricing_plan_id":"cebpf4jnsgd1na2vs0mg"},{"bike_id":"8ce5f683-4a81-4046-8ad4-37b008a8f355","system_id":"levelo_inurba_marseille","lat":43.303002,"lon":5.392142,"is_reserved":false,"is_disabled":false,"rental_uris":{"android":"levelo://app?vid=8ce5f683-4a81-4046-8ad4-37b008a8f355","ios":"levelo://app?vid=8ce5f683-4a81-4046-8ad4-37b008a8f355"},"vehicle_type_id":"4","last_reported":1725296832,"current_range_meters":0,"station_id":"ce4bgkh2rcd13ifvqbk0","pricing_plan_id":"cebpf4jnsgd1na2vs0mg"},{"bike_id":"a7239564-dc16-4834-afdd-33157f842305","system_id":"levelo_inurba_marseille","lat":43.29227,"lon":5.36055,"is_reserved":false,"is_disabled":false,"rental_uris":{"android":"levelo://app?vid=a7239564-dc16-4834-afdd-33157f842305","ios":"levelo://app?vid=a7239564-dc16-4834-afdd-33157f842305"},"vehicle_type_id":"4","last_reported":1725296832,"current_range_meters":0,"station_id":"ce4bhbh2rcd13ifvqeqg","pricing_plan_id":"cebpf4jnsgd1na2vs0mg"},{"bike_id":"af6fbb33-9148-48ef-99de-80a6533ea359","system_id":"levelo_inurba_marseille","lat":43.292206,"lon":5.360834,"is_reserved":false,"is_disabled":false,"rental_uris":{"android":"levelo://app?vid=af6fbb33-9148-48ef-99de-80a6533ea359","ios":"levelo://app?vid=af6fbb33-9148-48ef-99de-80a6533ea359"},"vehicle_type_id":"4","last_reported":1725296832,"current_range_meters":0,"station_id":"","pricing_plan_id":"cebpf4jnsgd1na2vs0mg"},{"bike_id":"d48cd91c-80ab-46cb-a4d6-915be372a08d","system_id":"levelo_inurba_marseille","lat":43.29225,"lon":5.36053,"is_reserved":false,"is_disabled":false,"rental_uris":{"android":"levelo://app?vid=d48cd91c-80ab-46cb-a4d6-915be372a08d","ios":"levelo://app?vid=d48cd91c-80ab-46cb-a4d6-915be372a08d"},"vehicle_type_id":"4","last_reported":1725296832,"current_range_meters":15200,"station_id":"ce4bhbh2rcd13ifvqeqg","pricing_plan_id":"cebpf4jnsgd1na2vs0mg"},{"bike_id":"90dff281-4315-421c-baf5-3cfa07e271d5","system_id":"levelo_inurba_marseille","lat":43.2922,"lon":5.3605,"is_reserved":false,"is_disabled":false,"rental_uris":{"android":"levelo://app?vid=90dff281-4315-421c-baf5-3cfa07e271d5","ios":"levelo://app?vid=90dff281-4315-421c-baf5-3cfa07e271d5"},"vehicle_type_id":"4","last_reported":1725296832,"current_range_meters":10400,"station_id":"ce4bhbh2rcd13ifvqeqg","pricing_plan_id":"cebpf4jnsgd1na2vs0mg"},{"bike_id":"16c892b6-0f0b-4ed6-a998-d1c9cc21835d","system_id":"levelo_inurba_marseille","lat":43.298764,"lon":5.388973,"is_reserved":false,"is_disabled":false,"rental_uris":{"android":"levelo://app?vid=16c892b6-0f0b-4ed6-a998-d1c9cc21835d","ios":"levelo://app?vid=16c892b6-0f0b-4ed6-a998-d1c9cc21835d"},"vehicle_type_id":"4","last_reported":1725296832,"current_range_meters":0,"station_id":"ce4bh392rcd13ifvqdl0","pricing_plan_id":"cebpf4jnsgd1na2vs0mg"},{"bike_id":"ea92ab42-c489-4346-9104-0940bc1e2561","system_id":"levelo_inurba_marseille","lat":43.301396,"lon":5.387812,"is_reserved":false,"is_disabled":false,"rental_uris":{"android":"levelo://app?vid=ea92ab42-c489-4346-9104-0940bc1e2561","ios":"levelo://app?vid=ea92ab42-c489-4346-9104-0940bc1e2561"},"vehicle_type_id":"4","last_reported":1725296832,"current_range_meters":3200,"station_id":"ce4bghh2rcd13ifvqb60","pricing_plan_id":"cebpf4jnsgd1na2vs0mg"},{"bike_id":"bfa91a97-6ae2-41ce-a547-cafac7504f2d","system_id":"levelo_inurba_marseille","lat":43.291671,"lon":5.371575,"is_reserved":false,"is_disabled":false,"rental_uris":{"android":"levelo://app?vid=bfa91a97-6ae2-41ce-a547-cafac7504f2d","ios":"levelo://app?vid=bfa91a97-6ae2-41ce-a547-cafac7504f2d"},"vehicle_type_id":"4","last_reported":1725296832,"current_range_meters":17600,"station_id":"ce4bha92rcd13ifvqeh0","pricing_plan_id":"cebpf4jnsgd1na2vs0mg"},{"bike_id":"20ede0bd-f447-40a8-8a03-7cca190dabeb","system_id":"levelo_inurba_marseille","lat":43.29197,"lon":5.35809,"is_reserved":false,"is_disabled":false,"rental_uris":{"android":"levelo://app?vid=20ede0bd-f447-40a8-8a03-7cca190dabeb","ios":"levelo://app?vid=20ede0bd-f447-40a8-8a03-7cca190dabeb"},"vehicle_type_id":"4","last_reported":1725296832,"current_range_meters":0,"station_id":"ce4bhb12rcd13ifvqel0","pricing_plan_id":"cebpf4jnsgd1na2vs0mg"},{"bike_id":"a0d63ac2-b53b-4333-b5cd-6c85a556caf8","system_id":"levelo_inurba_marseille","lat":43.292005,"lon":5.357875,"is_reserved":false,"is_disabled":false,"rental_uris":{"android":"levelo://app?vid=a0d63ac2-b53b-4333-b5cd-6c85a556caf8","ios":"levelo://app?vid=a0d63ac2-b53b-4333-b5cd-6c85a556caf8"},"vehicle_type_id":"4","last_reported":1725296832,"current_range_meters":16000,"station_id":"ce4bhb12rcd13ifvqel0","pricing_plan_id":"cebpf4jnsgd1na2vs0mg"},{"bike_id":"5e1c44b2-388a-49a8-af6f-5bc63a24eb32","system_id":"levelo_inurba_marseille","lat":43.313291,"lon":5.396838,"is_reserved":false,"is_disabled":false,"rental_uris":{"android":"levelo://app?vid=5e1c44b2-388a-49a8-af6f-5bc63a24eb32","ios":"levelo://app?vid=5e1c44b2-388a-49a8-af6f-5bc63a24eb32"},"vehicle_type_id":"4","last_reported":1725296832,"current_range_meters":13600,"station_id":"ce4bgvp2rcd13ifvqcu0","pricing_plan_id":"cebpf4jnsgd1na2vs0mg"},{"bike_id":"d9cf8a50-975b-4443-9786-43a0ce8cd1f4","system_id":"levelo_inurba_marseille","lat":43.313291,"lon":5.396838,"is_reserved":false,"is_disabled":false,"rental_uris":{"android":"levelo://app?vid=d9cf8a50-975b-4443-9786-43a0ce8cd1f4","ios":"levelo://app?vid=d9cf8a50-975b-4443-9786-43a0ce8cd1f4"},"vehicle_type_id":"4","last_reported":1725296832,"current_range_meters":9600,"station_id":"ce4bgvp2rcd13ifvqcu0","pricing_plan_id":"cebpf4jnsgd1na2vs0mg"},{"bike_id":"4b4ade2c-9ba3-4252-8f8e-e0b6e7856ed6","system_id":"levelo_inurba_marseille","lat":43.313291,"lon":5.396838,"is_reserved":false,"is_disabled":false,"rental_uris":{"android":"levelo://app?vid=4b4ade2c-9ba3-4252-8f8e-e0b6e7856ed6","ios":"levelo://app?vid=4b4ade2c-9ba3-4252-8f8e-e0b6e7856ed6"},"vehicle_type_id":"4","last_reported":1725296832,"current_range_meters":12000,"station_id":"ce4bgvp2rcd13ifvqcu0","pricing_plan_id":"cebpf4jnsgd1na2vs0mg"},{"bike_id":"f56ec194-3929-4b5a-ac1a-f56b0e4267dc","system_id":"levelo_inurba_marseille","lat":43.29191,"lon":5.358,"is_reserved":false,"is_disabled":false,"rental_uris":{"android":"levelo://app?vid=f56ec194-3929-4b5a-ac1a-f56b0e4267dc","ios":"levelo://app?vid=f56ec194-3929-4b5a-ac1a-f56b0e4267dc"},"vehicle_type_id":"4","last_reported":1725296832,"current_range_meters":2000,"station_id":"ce4bhb12rcd13ifvqel0","pricing_plan_id":"cebpf4jnsgd1na2vs0mg"},{"bike_id":"7a9fdf05-cb51-4dcf-ae6a-dc38e2e02a1a","system_id":"levelo_inurba_marseille","lat":43.313291,"lon":5.396838,"is_reserved":false,"is_disabled":false,"rental_uris":{"android":"levelo://app?vid=7a9fdf05-cb51-4dcf-ae6a-dc38e2e02a1a","ios":"levelo://app?vid=7a9fdf05-cb51-4dcf-ae6a-dc38e2e02a1a"},"vehicle_type_id":"4","last_reported":1725296832,"current_range_meters":1200,"station_id":"ce4bgvp2rcd13ifvqcu0","pricing_plan_id":"cebpf4jnsgd1na2vs0mg"},{"bike_id":"e08dd8a0-7032-4a46-9b76-ff589bc44dc0","system_id":"levelo_inurba_marseille","lat":43.309038,"lon":5.396546,"is_reserved":false,"is_disabled":false,"rental_uris":{"android":"levelo://app?vid=e08dd8a0-7032-4a46-9b76-ff589bc44dc0","ios":"levelo://app?vid=e08dd8a0-7032-4a46-9b76-ff589bc44dc0"},"vehicle_type_id":"4","last_reported":1725296832,"current_range_meters":8400,"station_id":"ce4bh012rcd13ifvqcv0","pricing_plan_id":"cebpf4jnsgd1na2vs0mg"},{"bike_id":"8746bfdb-cbe2-4e76-a2e3-abd3254d0e33","system_id":"levelo_inurba_marseille","lat":43.29182,"lon":5.35798,"is_reserved":false,"is_disabled":false,"rental_uris":{"android":"levelo://app?vid=8746bfdb-cbe2-4e76-a2e3-abd3254d0e33","ios":"levelo://app?vid=8746bfdb-cbe2-4e76-a2e3-abd3254d0e33"},"vehicle_type_id":"4","last_reported":1725296832,"current_range_meters":0,"station_id":"ce4bhb12rcd13ifvqel0","pricing_plan_id":"cebpf4jnsgd1na2vs0mg"},{"bike_id":"f716c6e6-ee5e-4f96-b29b-9d62b8c57b9b","system_id":"levelo_inurba_marseille","lat":43.29529,"lon":5.385581,"is_reserved":false,"is_disabled":false,"rental_uris":{"android":"levelo://app?vid=f716c6e6-ee5e-4f96-b29b-9d62b8c57b9b","ios":"levelo://app?vid=f716c6e6-ee5e-4f96-b29b-9d62b8c57b9b"},"vehicle_type_id":"4","last_reported":1725296832,"current_range_meters":16400,"station_id":"ce4bgih2rcd13ifvqba0","pricing_plan_id":"cebpf4jnsgd1na2vs0mg"},{"bike_id":"4c4f4c28-6624-4f45-aaa2-492738ad9a9b","system_id":"levelo_inurba_marseille","lat":43.29529,"lon":5.385581,"is_reserved":false,"is_disabled":false,"rental_uris":{"android":"levelo://app?vid=4c4f4c28-6624-4f45-aaa2-492738ad9a9b","ios":"levelo://app?vid=4c4f4c28-6624-4f45-aaa2-492738ad9a9b"},"vehicle_type_id":"4","last_reported":1725296832,"current_range_meters":18000,"station_id":"ce4bgih2rcd13ifvqba0","pricing_plan_id":"cebpf4jnsgd1na2vs0mg"},{"bike_id":"d707c3d1-6550-451e-884c-05b0529c81da","system_id":"levelo_inurba_marseille","lat":43.2953,"lon":5.38543,"is_reserved":false,"is_disabled":false,"rental_uris":{"android":"levelo://app?vid=d707c3d1-6550-451e-884c-05b0529c81da","ios":"levelo://app?vid=d707c3d1-6550-451e-884c-05b0529c81da"},"vehicle_type_id":"4","last_reported":1725296832,"current_range_meters":29200,"station_id":"ce4bgih2rcd13ifvqba0","pricing_plan_id":"cebpf4jnsgd1na2vs0mg"},{"bike_id":"dc236fdc-a783-4055-956a-f63eacbb3f74","system_id":"levelo_inurba_marseille","lat":43.29529,"lon":5.38544,"is_reserved":false,"is_disabled":false,"rental_uris":{"android":"levelo://app?vid=dc236fdc-a783-4055-956a-f63eacbb3f74","ios":"levelo://app?vid=dc236fdc-a783-4055-956a-f63eacbb3f74"},"vehicle_type_id":"4","last_reported":1725296832,"current_range_meters":6000,"station_id":"ce4bgih2rcd13ifvqba0","pricing_plan_id":"cebpf4jnsgd1na2vs0mg"},{"bike_id":"d0c01b92-2d94-4d1f-a746-313e77aba2e7","system_id":"levelo_inurba_marseille","lat":43.302008,"lon":5.394694,"is_reserved":false,"is_disabled":false,"rental_uris":{"android":"levelo://app?vid=d0c01b92-2d94-4d1f-a746-313e77aba2e7","ios":"levelo://app?vid=d0c01b92-2d94-4d1f-a746-313e77aba2e7"},"vehicle_type_id":"4","last_reported":1725296832,"current_range_meters":2800,"station_id":"ce4bh0p2rcd13ifvqd70","pricing_plan_id":"cebpf4jnsgd1na2vs0mg"},{"bike_id":"ab4c7941-e8fa-443e-a818-582d7bbc729c","system_id":"levelo_inurba_marseille","lat":43.302008,"lon":5.394694,"is_reserved":false,"is_disabled":false,"rental_uris":{"android":"levelo://app?vid=ab4c7941-e8fa-443e-a818-582d7bbc729c","ios":"levelo://app?vid=ab4c7941-e8fa-443e-a818-582d7bbc729c"},"vehicle_type_id":"4","last_reported":1725296832,"current_range_meters":28800,"station_id":"ce4bh0p2rcd13ifvqd70","pricing_plan_id":"cebpf4jnsgd1na2vs0mg"},{"bike_id":"82ac752b-c3fb-469b-8b98-451d43b3b335","system_id":"levelo_inurba_marseille","lat":43.29064,"lon":5.35901,"is_reserved":false,"is_disabled":false,"rental_uris":{"android":"levelo://app?vid=82ac752b-c3fb-469b-8b98-451d43b3b335","ios":"levelo://app?vid=82ac752b-c3fb-469b-8b98-451d43b3b335"},"vehicle_type_id":"4","last_reported":1725296832,"current_range_meters":2000,"station_id":"ce4bha92rcd13ifvqeg0","pricing_plan_id":"cebpf4jnsgd1na2vs0mg"},{"bike_id":"3fc82fcd-eae8-46c0-b39a-3a53a5b9c96a","system_id":"levelo_inurba_marseille","lat":43.329315,"lon":5.388742,"is_reserved":false,"is_disabled":false,"rental_uris":{"android":"levelo://app?vid=3fc82fcd-eae8-46c0-b39a-3a53a5b9c96a","ios":"levelo://app?vid=3fc82fcd-eae8-46c0-b39a-3a53a5b9c96a"},"vehicle_type_id":"4","last_reported":1725296832,"current_range_meters":20800,"station_id":"","pricing_plan_id":"cebpf4jnsgd1na2vs0mg"},{"bike_id":"5e91185e-8ed1-4987-90f0-a8fc06bc2745","system_id":"levelo_inurba_marseille","lat":43.290631,"lon":5.359244,"is_reserved":false,"is_disabled":false,"rental_uris":{"android":"levelo://app?vid=5e91185e-8ed1-4987-90f0-a8fc06bc2745","ios":"levelo://app?vid=5e91185e-8ed1-4987-90f0-a8fc06bc2745"},"vehicle_type_id":"4","last_reported":1725296832,"current_range_meters":8800,"station_id":"ce4bha92rcd13ifvqeg0","pricing_plan_id":"cebpf4jnsgd1na2vs0mg"},{"bike_id":"cb1a4c14-f400-4913-acdb-63eff2137864","system_id":"levelo_inurba_marseille","lat":43.290631,"lon":5.359244,"is_reserved":false,"is_disabled":false,"rental_uris":{"android":"levelo://app?vid=cb1a4c14-f400-4913-acdb-63eff2137864","ios":"levelo://app?vid=cb1a4c14-f400-4913-acdb-63eff2137864"},"vehicle_type_id":"4","last_reported":1725296832,"current_range_meters":0,"station_id":"ce4bha92rcd13ifvqeg0","pricing_plan_id":"cebpf4jnsgd1na2vs0mg"},{"bike_id":"05b8dc18-de91-4db5-a170-152202b5cbb6","system_id":"levelo_inurba_marseille","lat":43.29418,"lon":5.38626,"is_reserved":false,"is_disabled":false,"rental_uris":{"android":"levelo://app?vid=05b8dc18-de91-4db5-a170-152202b5cbb6","ios":"levelo://app?vid=05b8dc18-de91-4db5-a170-152202b5cbb6"},"vehicle_type_id":"4","last_reported":1725296832,"current_range_meters":0,"station_id":"ce4bh2h2rcd13ifvqdh0","pricing_plan_id":"cebpf4jnsgd1na2vs0mg"},{"bike_id":"2e09323b-4a8c-487a-a97c-92e0d30d10dc","system_id":"levelo_inurba_marseille","lat":43.29416,"lon":5.38624,"is_reserved":false,"is_disabled":false,"rental_uris":{"android":"levelo://app?vid=2e09323b-4a8c-487a-a97c-92e0d30d10dc","ios":"levelo://app?vid=2e09323b-4a8c-487a-a97c-92e0d30d10dc"},"vehicle_type_id":"4","last_reported":1725296832,"current_range_meters":0,"station_id":"ce4bh2h2rcd13ifvqdh0","pricing_plan_id":"cebpf4jnsgd1na2vs0mg"},{"bike_id":"9fd70d5b-c9d7-4423-8311-e9ee65f62e4e","system_id":"levelo_inurba_marseille","lat":43.29415,"lon":5.38624,"is_reserved":false,"is_disabled":false,"rental_uris":{"android":"levelo://app?vid=9fd70d5b-c9d7-4423-8311-e9ee65f62e4e","ios":"levelo://app?vid=9fd70d5b-c9d7-4423-8311-e9ee65f62e4e"},"vehicle_type_id":"4","last_reported":1725296832,"current_range_meters":0,"station_id":"ce4bh2h2rcd13ifvqdh0","pricing_plan_id":"cebpf4jnsgd1na2vs0mg"},{"bike_id":"3883150d-1057-4be0-a70a-337677c75921","system_id":"levelo_inurba_marseille","lat":43.29414,"lon":5.38625,"is_reserved":false,"is_disabled":false,"rental_uris":{"android":"levelo://app?vid=3883150d-1057-4be0-a70a-337677c75921","ios":"levelo://app?vid=3883150d-1057-4be0-a70a-337677c75921"},"vehicle_type_id":"4","last_reported":1725296832,"current_range_meters":0,"station_id":"ce4bh2h2rcd13ifvqdh0","pricing_plan_id":"cebpf4jnsgd1na2vs0mg"},{"bike_id":"e7b3dd86-aa44-4642-9dbe-94e23e312d2f","system_id":"levelo_inurba_marseille","lat":43.2893,"lon":5.36634,"is_reserved":false,"is_disabled":false,"rental_uris":{"android":"levelo://app?vid=e7b3dd86-aa44-4642-9dbe-94e23e312d2f","ios":"levelo://app?vid=e7b3dd86-aa44-4642-9dbe-94e23e312d2f"},"vehicle_type_id":"4","last_reported":1725296832,"current_range_meters":0,"station_id":"ce4bhap2rcd13ifvqek0","pricing_plan_id":"cebpf4jnsgd1na2vs0mg"},{"bike_id":"b05a3fe5-1524-4c3a-bb09-142a84e2ca56","system_id":"levelo_inurba_marseille","lat":43.329846,"lon":5.389446,"is_reserved":false,"is_disabled":false,"rental_uris":{"android":"levelo://app?vid=b05a3fe5-1524-4c3a-bb09-142a84e2ca56","ios":"levelo://app?vid=b05a3fe5-1524-4c3a-bb09-142a84e2ca56"},"vehicle_type_id":"4","last_reported":1725296832,"current_range_meters":8800,"station_id":"","pricing_plan_id":"cebpf4jnsgd1na2vs0mg"},{"bike_id":"85b30f35-476b-4fd3-826f-73fe29282f34","system_id":"levelo_inurba_marseille","lat":43.304296,"lon":5.397513,"is_reserved":false,"is_disabled":false,"rental_uris":{"android":"levelo://app?vid=85b30f35-476b-4fd3-826f-73fe29282f34","ios":"levelo://app?vid=85b30f35-476b-4fd3-826f-73fe29282f34"},"vehicle_type_id":"4","last_reported":1725296832,"current_range_meters":6000,"station_id":"ce4bh092rcd13ifvqd20","pricing_plan_id":"cebpf4jnsgd1na2vs0mg"},{"bike_id":"8385193d-cb78-42ed-b5b7-53b1e6c26ce6","system_id":"levelo_inurba_marseille","lat":43.29269,"lon":5.38438,"is_reserved":false,"is_disabled":false,"rental_uris":{"android":"levelo://app?vid=8385193d-cb78-42ed-b5b7-53b1e6c26ce6","ios":"levelo://app?vid=8385193d-cb78-42ed-b5b7-53b1e6c26ce6"},"vehicle_type_id":"4","last_reported":1725296832,"current_range_meters":2400,"station_id":"ce4bh692rcd13ifvqea0","pricing_plan_id":"cebpf4jnsgd1na2vs0mg"},{"bike_id":"e1a42ec5-4c90-43c8-83a7-e896efaf2bba","system_id":"levelo_inurba_marseille","lat":43.29267,"lon":5.38438,"is_reserved":false,"is_disabled":false,"rental_uris":{"android":"levelo://app?vid=e1a42ec5-4c90-43c8-83a7-e896efaf2bba","ios":"levelo://app?vid=e1a42ec5-4c90-43c8-83a7-e896efaf2bba"},"vehicle_type_id":"4","last_reported":1725296832,"current_range_meters":16800,"station_id":"ce4bh692rcd13ifvqea0","pricing_plan_id":"cebpf4jnsgd1na2vs0mg"},{"bike_id":"28e57a97-e13d-4707-82df-abc84b674c0f","system_id":"levelo_inurba_marseille","lat":43.304296,"lon":5.397513,"is_reserved":false,"is_disabled":false,"rental_uris":{"android":"levelo://app?vid=28e57a97-e13d-4707-82df-abc84b674c0f","ios":"levelo://app?vid=28e57a97-e13d-4707-82df-abc84b674c0f"},"vehicle_type_id":"4","last_reported":1725296832,"current_range_meters":10800,"station_id":"ce4bh092rcd13ifvqd20","pricing_plan_id":"cebpf4jnsgd1na2vs0mg"},{"bike_id":"ffae9117-fe31-4e1b-943d-cd9da27c349c","system_id":"levelo_inurba_marseille","lat":43.292642,"lon":5.384254,"is_reserved":false,"is_disabled":false,"rental_uris":{"android":"levelo://app?vid=ffae9117-fe31-4e1b-943d-cd9da27c349c","ios":"levelo://app?vid=ffae9117-fe31-4e1b-943d-cd9da27c349c"},"vehicle_type_id":"4","last_reported":1725296832,"current_range_meters":1600,"station_id":"ce4bh692rcd13ifvqea0","pricing_plan_id":"cebpf4jnsgd1na2vs0mg"},{"bike_id":"cde2a614-ff5b-4f30-a616-0d4233cacce5","system_id":"levelo_inurba_marseille","lat":43.29258,"lon":5.38433,"is_reserved":false,"is_disabled":false,"rental_uris":{"android":"levelo://app?vid=cde2a614-ff5b-4f30-a616-0d4233cacce5","ios":"levelo://app?vid=cde2a614-ff5b-4f30-a616-0d4233cacce5"},"vehicle_type_id":"4","last_reported":1725296832,"current_range_meters":1600,"station_id":"ce4bh692rcd13ifvqea0","pricing_plan_id":"cebpf4jnsgd1na2vs0mg"},{"bike_id":"dee6175e-cd0d-4691-a44c-a092974e28b5","system_id":"levelo_inurba_marseille","lat":43.329832,"lon":5.389722,"is_reserved":false,"is_disabled":false,"rental_uris":{"android":"levelo://app?vid=dee6175e-cd0d-4691-a44c-a092974e28b5","ios":"levelo://app?vid=dee6175e-cd0d-4691-a44c-a092974e28b5"},"vehicle_type_id":"4","last_reported":1725296832,"current_range_meters":7200,"station_id":"","pricing_plan_id":"cebpf4jnsgd1na2vs0mg"},{"bike_id":"22632ba6-019b-478b-a101-a9e795b92ab0","system_id":"levelo_inurba_marseille","lat":43.290104,"lon":5.356111,"is_reserved":false,"is_disabled":false,"rental_uris":{"android":"levelo://app?vid=22632ba6-019b-478b-a101-a9e795b92ab0","ios":"levelo://app?vid=22632ba6-019b-478b-a101-a9e795b92ab0"},"vehicle_type_id":"4","last_reported":1725296832,"current_range_meters":0,"station_id":"ce4bhb92rcd13ifvqen0","pricing_plan_id":"cebpf4jnsgd1na2vs0mg"},{"bike_id":"a3848636-1a66-4cb0-90f1-a61b49e29923","system_id":"levelo_inurba_marseille","lat":43.29009,"lon":5.3561,"is_reserved":false,"is_disabled":false,"rental_uris":{"android":"levelo://app?vid=a3848636-1a66-4cb0-90f1-a61b49e29923","ios":"levelo://app?vid=a3848636-1a66-4cb0-90f1-a61b49e29923"},"vehicle_type_id":"4","last_reported":1725296832,"current_range_meters":3600,"station_id":"ce4bhb92rcd13ifvqen0","pricing_plan_id":"cebpf4jnsgd1na2vs0mg"},{"bike_id":"7ff79d89-7a01-41b7-9d1d-f9adcd8d347d","system_id":"levelo_inurba_marseille","lat":43.29008,"lon":5.35612,"is_reserved":false,"is_disabled":false,"rental_uris":{"android":"levelo://app?vid=7ff79d89-7a01-41b7-9d1d-f9adcd8d347d","ios":"levelo://app?vid=7ff79d89-7a01-41b7-9d1d-f9adcd8d347d"},"vehicle_type_id":"4","last_reported":1725296832,"current_range_meters":0,"station_id":"ce4bhb92rcd13ifvqen0","pricing_plan_id":"cebpf4jnsgd1na2vs0mg"},{"bike_id":"fd54d687-11c3-4ad2-848b-4449da8858ee","system_id":"levelo_inurba_marseille","lat":43.290104,"lon":5.356111,"is_reserved":false,"is_disabled":false,"rental_uris":{"android":"levelo://app?vid=fd54d687-11c3-4ad2-848b-4449da8858ee","ios":"levelo://app?vid=fd54d687-11c3-4ad2-848b-4449da8858ee"},"vehicle_type_id":"4","last_reported":1725296832,"current_range_meters":6800,"station_id":"ce4bhb92rcd13ifvqen0","pricing_plan_id":"cebpf4jnsgd1na2vs0mg"},{"bike_id":"e9e3b665-c7fe-4715-a89a-7baab8a772a6","system_id":"levelo_inurba_marseille","lat":43.29004,"lon":5.35615,"is_reserved":false,"is_disabled":false,"rental_uris":{"android":"levelo://app?vid=e9e3b665-c7fe-4715-a89a-7baab8a772a6","ios":"levelo://app?vid=e9e3b665-c7fe-4715-a89a-7baab8a772a6"},"vehicle_type_id":"4","last_reported":1725296832,"current_range_meters":3600,"station_id":"ce4bhb92rcd13ifvqen0","pricing_plan_id":"cebpf4jnsgd1na2vs0mg"},{"bike_id":"415abf9f-d28b-4163-a540-77a869455443","system_id":"levelo_inurba_marseille","lat":43.290104,"lon":5.356111,"is_reserved":false,"is_disabled":false,"rental_uris":{"android":"levelo://app?vid=415abf9f-d28b-4163-a540-77a869455443","ios":"levelo://app?vid=415abf9f-d28b-4163-a540-77a869455443"},"vehicle_type_id":"4","last_reported":1725296832,"current_range_meters":2000,"station_id":"ce4bhb92rcd13ifvqen0","pricing_plan_id":"cebpf4jnsgd1na2vs0mg"},{"bike_id":"446d8f67-b813-4997-82f1-5c26e5c4b80b","system_id":"levelo_inurba_marseille","lat":43.290104,"lon":5.356111,"is_reserved":false,"is_disabled":false,"rental_uris":{"android":"levelo://app?vid=446d8f67-b813-4997-82f1-5c26e5c4b80b","ios":"levelo://app?vid=446d8f67-b813-4997-82f1-5c26e5c4b80b"},"vehicle_type_id":"4","last_reported":1725296832,"current_range_meters":24000,"station_id":"ce4bhb92rcd13ifvqen0","pricing_plan_id":"cebpf4jnsgd1na2vs0mg"},{"bike_id":"d68be936-d2dd-4518-8c03-15bbe5f1a826","system_id":"levelo_inurba_marseille","lat":43.290104,"lon":5.356111,"is_reserved":false,"is_disabled":false,"rental_uris":{"android":"levelo://app?vid=d68be936-d2dd-4518-8c03-15bbe5f1a826","ios":"levelo://app?vid=d68be936-d2dd-4518-8c03-15bbe5f1a826"},"vehicle_type_id":"4","last_reported":1725296832,"current_range_meters":6000,"station_id":"ce4bhb92rcd13ifvqen0","pricing_plan_id":"cebpf4jnsgd1na2vs0mg"},{"bike_id":"9c98cec3-b760-48e4-a362-ee12dc756e97","system_id":"levelo_inurba_marseille","lat":43.290104,"lon":5.356111,"is_reserved":false,"is_disabled":false,"rental_uris":{"android":"levelo://app?vid=9c98cec3-b760-48e4-a362-ee12dc756e97","ios":"levelo://app?vid=9c98cec3-b760-48e4-a362-ee12dc756e97"},"vehicle_type_id":"4","last_reported":1725296832,"current_range_meters":14800,"station_id":"ce4bhb92rcd13ifvqen0","pricing_plan_id":"cebpf4jnsgd1na2vs0mg"},{"bike_id":"dcc2cc48-11f3-433e-9459-a9b23e0051c7","system_id":"levelo_inurba_marseille","lat":43.290103,"lon":5.356114,"is_reserved":false,"is_disabled":false,"rental_uris":{"android":"levelo://app?vid=dcc2cc48-11f3-433e-9459-a9b23e0051c7","ios":"levelo://app?vid=dcc2cc48-11f3-433e-9459-a9b23e0051c7"},"vehicle_type_id":"4","last_reported":1725296832,"current_range_meters":3600,"station_id":"ce4bhb92rcd13ifvqen0","pricing_plan_id":"cebpf4jnsgd1na2vs0mg"},{"bike_id":"1e7bbc6c-4d45-4933-8254-bd01dc48599d","system_id":"levelo_inurba_marseille","lat":43.29098,"lon":5.38137,"is_reserved":false,"is_disabled":false,"rental_uris":{"android":"levelo://app?vid=1e7bbc6c-4d45-4933-8254-bd01dc48599d","ios":"levelo://app?vid=1e7bbc6c-4d45-4933-8254-bd01dc48599d"},"vehicle_type_id":"4","last_reported":1725296832,"current_range_meters":0,"station_id":"ce4bh512rcd13ifvqe2g","pricing_plan_id":"cebpf4jnsgd1na2vs0mg"},{"bike_id":"2263caed-94e5-40e2-bbe7-4c8df4bb9ce5","system_id":"levelo_inurba_marseille","lat":43.29098,"lon":5.3814,"is_reserved":false,"is_disabled":false,"rental_uris":{"android":"levelo://app?vid=2263caed-94e5-40e2-bbe7-4c8df4bb9ce5","ios":"levelo://app?vid=2263caed-94e5-40e2-bbe7-4c8df4bb9ce5"},"vehicle_type_id":"4","last_reported":1725296832,"current_range_meters":0,"station_id":"ce4bh512rcd13ifvqe2g","pricing_plan_id":"cebpf4jnsgd1na2vs0mg"},{"bike_id":"ef5b2985-4ad7-4d56-8657-7eb1df32380c","system_id":"levelo_inurba_marseille","lat":43.297807,"lon":5.393533,"is_reserved":false,"is_disabled":false,"rental_uris":{"android":"levelo://app?vid=ef5b2985-4ad7-4d56-8657-7eb1df32380c","ios":"levelo://app?vid=ef5b2985-4ad7-4d56-8657-7eb1df32380c"},"vehicle_type_id":"4","last_reported":1725296832,"current_range_meters":0,"station_id":"chh1huq6cuj3fo74tm60","pricing_plan_id":"cebpf4jnsgd1na2vs0mg"},{"bike_id":"b6410296-b6fb-4051-b2ff-726195a8690a","system_id":"levelo_inurba_marseille","lat":43.3302,"lon":5.39035,"is_reserved":false,"is_disabled":false,"rental_uris":{"android":"levelo://app?vid=b6410296-b6fb-4051-b2ff-726195a8690a","ios":"levelo://app?vid=b6410296-b6fb-4051-b2ff-726195a8690a"},"vehicle_type_id":"4","last_reported":1725296832,"current_range_meters":8400,"station_id":"ce4bhr92rcd13ifvqhrg","pricing_plan_id":"cebpf4jnsgd1na2vs0mg"},{"bike_id":"3451276b-5c36-4fc2-8da6-e75b7b1e9fe1","system_id":"levelo_inurba_marseille","lat":43.295169,"lon":5.390426,"is_reserved":false,"is_disabled":false,"rental_uris":{"android":"levelo://app?vid=3451276b-5c36-4fc2-8da6-e75b7b1e9fe1","ios":"levelo://app?vid=3451276b-5c36-4fc2-8da6-e75b7b1e9fe1"},"vehicle_type_id":"4","last_reported":1725296832,"current_range_meters":800,"station_id":"ce4bh3p2rcd13ifvqdp0","pricing_plan_id":"cebpf4jnsgd1na2vs0mg"},{"bike_id":"ae8a7b32-d92e-4cdd-b85a-2e18cdc3e0f2","system_id":"levelo_inurba_marseille","lat":43.330442,"lon":5.389148,"is_reserved":false,"is_disabled":false,"rental_uris":{"android":"levelo://app?vid=ae8a7b32-d92e-4cdd-b85a-2e18cdc3e0f2","ios":"levelo://app?vid=ae8a7b32-d92e-4cdd-b85a-2e18cdc3e0f2"},"vehicle_type_id":"4","last_reported":1725296832,"current_range_meters":26400,"station_id":"ce4bhr92rcd13ifvqhrg","pricing_plan_id":"cebpf4jnsgd1na2vs0mg"},{"bike_id":"4ffc179f-b5d9-4ba7-b103-7930899f7742","system_id":"levelo_inurba_marseille","lat":43.330442,"lon":5.389148,"is_reserved":false,"is_disabled":false,"rental_uris":{"android":"levelo://app?vid=4ffc179f-b5d9-4ba7-b103-7930899f7742","ios":"levelo://app?vid=4ffc179f-b5d9-4ba7-b103-7930899f7742"},"vehicle_type_id":"4","last_reported":1725296832,"current_range_meters":7600,"station_id":"ce4bhr92rcd13ifvqhrg","pricing_plan_id":"cebpf4jnsgd1na2vs0mg"},{"bike_id":"df570b05-880b-45ad-9a80-b206290cf518","system_id":"levelo_inurba_marseille","lat":43.330442,"lon":5.389148,"is_reserved":false,"is_disabled":false,"rental_uris":{"android":"levelo://app?vid=df570b05-880b-45ad-9a80-b206290cf518","ios":"levelo://app?vid=df570b05-880b-45ad-9a80-b206290cf518"},"vehicle_type_id":"4","last_reported":1725296832,"current_range_meters":2800,"station_id":"ce4bhr92rcd13ifvqhrg","pricing_plan_id":"cebpf4jnsgd1na2vs0mg"},{"bike_id":"d3daf3b2-8126-4f65-89e8-0e5f7710267e","system_id":"levelo_inurba_marseille","lat":43.330442,"lon":5.389148,"is_reserved":false,"is_disabled":false,"rental_uris":{"android":"levelo://app?vid=d3daf3b2-8126-4f65-89e8-0e5f7710267e","ios":"levelo://app?vid=d3daf3b2-8126-4f65-89e8-0e5f7710267e"},"vehicle_type_id":"4","last_reported":1725296832,"current_range_meters":22000,"station_id":"ce4bhr92rcd13ifvqhrg","pricing_plan_id":"cebpf4jnsgd1na2vs0mg"},{"bike_id":"fe158b8b-6992-4416-bfbf-9a08611e6a3a","system_id":"levelo_inurba_marseille","lat":43.33019,"lon":5.39043,"is_reserved":false,"is_disabled":false,"rental_uris":{"android":"levelo://app?vid=fe158b8b-6992-4416-bfbf-9a08611e6a3a","ios":"levelo://app?vid=fe158b8b-6992-4416-bfbf-9a08611e6a3a"},"vehicle_type_id":"4","last_reported":1725296832,"current_range_meters":14800,"station_id":"ce4bhr92rcd13ifvqhrg","pricing_plan_id":"cebpf4jnsgd1na2vs0mg"},{"bike_id":"52d8a012-8286-4d28-aae6-f3bad10205bd","system_id":"levelo_inurba_marseille","lat":43.33024,"lon":5.39039,"is_reserved":false,"is_disabled":false,"rental_uris":{"android":"levelo://app?vid=52d8a012-8286-4d28-aae6-f3bad10205bd","ios":"levelo://app?vid=52d8a012-8286-4d28-aae6-f3bad10205bd"},"vehicle_type_id":"4","last_reported":1725296832,"current_range_meters":21600,"station_id":"ce4bhr92rcd13ifvqhrg","pricing_plan_id":"cebpf4jnsgd1na2vs0mg"},{"bike_id":"d08efa48-9a0c-4766-ba89-908ab3df66c2","system_id":"levelo_inurba_marseille","lat":43.33023,"lon":5.39041,"is_reserved":false,"is_disabled":false,"rental_uris":{"android":"levelo://app?vid=d08efa48-9a0c-4766-ba89-908ab3df66c2","ios":"levelo://app?vid=d08efa48-9a0c-4766-ba89-908ab3df66c2"},"vehicle_type_id":"4","last_reported":1725296832,"current_range_meters":4000,"station_id":"ce4bhr92rcd13ifvqhrg","pricing_plan_id":"cebpf4jnsgd1na2vs0mg"},{"bike_id":"9b3e84d4-924f-40d0-973a-01869b17071b","system_id":"levelo_inurba_marseille","lat":43.33023,"lon":5.39042,"is_reserved":false,"is_disabled":false,"rental_uris":{"android":"levelo://app?vid=9b3e84d4-924f-40d0-973a-01869b17071b","ios":"levelo://app?vid=9b3e84d4-924f-40d0-973a-01869b17071b"},"vehicle_type_id":"4","last_reported":1725296832,"current_range_meters":1200,"station_id":"ce4bhr92rcd13ifvqhrg","pricing_plan_id":"cebpf4jnsgd1na2vs0mg"},{"bike_id":"e74ecfe6-eb2e-4c31-b8da-544da791e5bd","system_id":"levelo_inurba_marseille","lat":43.330442,"lon":5.389148,"is_reserved":false,"is_disabled":false,"rental_uris":{"android":"levelo://app?vid=e74ecfe6-eb2e-4c31-b8da-544da791e5bd","ios":"levelo://app?vid=e74ecfe6-eb2e-4c31-b8da-544da791e5bd"},"vehicle_type_id":"4","last_reported":1725296832,"current_range_meters":31200,"station_id":"ce4bhr92rcd13ifvqhrg","pricing_plan_id":"cebpf4jnsgd1na2vs0mg"},{"bike_id":"4488b4b6-e5fb-4ece-8ba9-335437cf10d5","system_id":"levelo_inurba_marseille","lat":43.33025,"lon":5.39043,"is_reserved":false,"is_disabled":false,"rental_uris":{"android":"levelo://app?vid=4488b4b6-e5fb-4ece-8ba9-335437cf10d5","ios":"levelo://app?vid=4488b4b6-e5fb-4ece-8ba9-335437cf10d5"},"vehicle_type_id":"4","last_reported":1725296832,"current_range_meters":11600,"station_id":"ce4bhr92rcd13ifvqhrg","pricing_plan_id":"cebpf4jnsgd1na2vs0mg"},{"bike_id":"6e51196e-d8f4-4102-9034-57e435fc78b1","system_id":"levelo_inurba_marseille","lat":43.33028,"lon":5.39039,"is_reserved":false,"is_disabled":false,"rental_uris":{"android":"levelo://app?vid=6e51196e-d8f4-4102-9034-57e435fc78b1","ios":"levelo://app?vid=6e51196e-d8f4-4102-9034-57e435fc78b1"},"vehicle_type_id":"4","last_reported":1725296832,"current_range_meters":1600,"station_id":"ce4bhr92rcd13ifvqhrg","pricing_plan_id":"cebpf4jnsgd1na2vs0mg"},{"bike_id":"693ab049-37fa-47c7-bc56-e7d31d402a35","system_id":"levelo_inurba_marseille","lat":43.330442,"lon":5.389148,"is_reserved":false,"is_disabled":false,"rental_uris":{"android":"levelo://app?vid=693ab049-37fa-47c7-bc56-e7d31d402a35","ios":"levelo://app?vid=693ab049-37fa-47c7-bc56-e7d31d402a35"},"vehicle_type_id":"4","last_reported":1725296832,"current_range_meters":31200,"station_id":"ce4bhr92rcd13ifvqhrg","pricing_plan_id":"cebpf4jnsgd1na2vs0mg"},{"bike_id":"e09ee9ca-284b-4952-b6e5-bdb87dad0bf3","system_id":"levelo_inurba_marseille","lat":43.29523,"lon":5.39044,"is_reserved":false,"is_disabled":false,"rental_uris":{"android":"levelo://app?vid=e09ee9ca-284b-4952-b6e5-bdb87dad0bf3","ios":"levelo://app?vid=e09ee9ca-284b-4952-b6e5-bdb87dad0bf3"},"vehicle_type_id":"4","last_reported":1725296832,"current_range_meters":0,"station_id":"ce4bh3p2rcd13ifvqdp0","pricing_plan_id":"cebpf4jnsgd1na2vs0mg"},{"bike_id":"859318b7-26b4-47ec-a105-1abbeb82c548","system_id":"levelo_inurba_marseille","lat":43.33027,"lon":5.39042,"is_reserved":false,"is_disabled":false,"rental_uris":{"android":"levelo://app?vid=859318b7-26b4-47ec-a105-1abbeb82c548","ios":"levelo://app?vid=859318b7-26b4-47ec-a105-1abbeb82c548"},"vehicle_type_id":"4","last_reported":1725296832,"current_range_meters":20000,"station_id":"ce4bhr92rcd13ifvqhrg","pricing_plan_id":"cebpf4jnsgd1na2vs0mg"},{"bike_id":"b8b07b57-29a1-4df1-9f82-d47c5502a2d0","system_id":"levelo_inurba_marseille","lat":43.3303,"lon":5.39039,"is_reserved":false,"is_disabled":false,"rental_uris":{"android":"levelo://app?vid=b8b07b57-29a1-4df1-9f82-d47c5502a2d0","ios":"levelo://app?vid=b8b07b57-29a1-4df1-9f82-d47c5502a2d0"},"vehicle_type_id":"4","last_reported":1725296832,"current_range_meters":19600,"station_id":"ce4bhr92rcd13ifvqhrg","pricing_plan_id":"cebpf4jnsgd1na2vs0mg"},{"bike_id":"6a144e36-ead0-4b6f-8c8a-7191d8499cf0","system_id":"levelo_inurba_marseille","lat":43.330442,"lon":5.389148,"is_reserved":false,"is_disabled":false,"rental_uris":{"android":"levelo://app?vid=6a144e36-ead0-4b6f-8c8a-7191d8499cf0","ios":"levelo://app?vid=6a144e36-ead0-4b6f-8c8a-7191d8499cf0"},"vehicle_type_id":"4","last_reported":1725296832,"current_range_meters":31200,"station_id":"ce4bhr92rcd13ifvqhrg","pricing_plan_id":"cebpf4jnsgd1na2vs0mg"},{"bike_id":"aea8c454-c027-4d59-9859-778930df90d3","system_id":"levelo_inurba_marseille","lat":43.28856,"lon":5.358371,"is_reserved":false,"is_disabled":false,"rental_uris":{"android":"levelo://app?vid=aea8c454-c027-4d59-9859-778930df90d3","ios":"levelo://app?vid=aea8c454-c027-4d59-9859-778930df90d3"},"vehicle_type_id":"4","last_reported":1725296832,"current_range_meters":6800,"station_id":"ce4bhb12rcd13ifvqem0","pricing_plan_id":"cebpf4jnsgd1na2vs0mg"},{"bike_id":"7af64523-2923-411e-a462-55af43531544","system_id":"levelo_inurba_marseille","lat":43.28856,"lon":5.358371,"is_reserved":false,"is_disabled":false,"rental_uris":{"android":"levelo://app?vid=7af64523-2923-411e-a462-55af43531544","ios":"levelo://app?vid=7af64523-2923-411e-a462-55af43531544"},"vehicle_type_id":"4","last_reported":1725296832,"current_range_meters":0,"station_id":"ce4bhb12rcd13ifvqem0","pricing_plan_id":"cebpf4jnsgd1na2vs0mg"},{"bike_id":"f89bd0f6-6f2f-451c-8831-2e09ddfcfea8","system_id":"levelo_inurba_marseille","lat":43.28856,"lon":5.358371,"is_reserved":false,"is_disabled":false,"rental_uris":{"android":"levelo://app?vid=f89bd0f6-6f2f-451c-8831-2e09ddfcfea8","ios":"levelo://app?vid=f89bd0f6-6f2f-451c-8831-2e09ddfcfea8"},"vehicle_type_id":"4","last_reported":1725296832,"current_range_meters":0,"station_id":"ce4bhb12rcd13ifvqem0","pricing_plan_id":"cebpf4jnsgd1na2vs0mg"},{"bike_id":"415b170f-a7bd-4685-9787-b7d211f04513","system_id":"levelo_inurba_marseille","lat":43.28849,"lon":5.35789,"is_reserved":false,"is_disabled":false,"rental_uris":{"android":"levelo://app?vid=415b170f-a7bd-4685-9787-b7d211f04513","ios":"levelo://app?vid=415b170f-a7bd-4685-9787-b7d211f04513"},"vehicle_type_id":"4","last_reported":1725296832,"current_range_meters":4800,"station_id":"ce4bhb12rcd13ifvqem0","pricing_plan_id":"cebpf4jnsgd1na2vs0mg"},{"bike_id":"86a432be-3e0d-488d-a23c-7a18c9f35f96","system_id":"levelo_inurba_marseille","lat":43.31282,"lon":5.40161,"is_reserved":false,"is_disabled":false,"rental_uris":{"android":"levelo://app?vid=86a432be-3e0d-488d-a23c-7a18c9f35f96","ios":"levelo://app?vid=86a432be-3e0d-488d-a23c-7a18c9f35f96"},"vehicle_type_id":"4","last_reported":1725296832,"current_range_meters":0,"station_id":"ce4bh092rcd13ifvqd30","pricing_plan_id":"cebpf4jnsgd1na2vs0mg"},{"bike_id":"c31d5924-f3d0-42d4-b517-75f20fda0e1d","system_id":"levelo_inurba_marseille","lat":43.31268,"lon":5.40162,"is_reserved":false,"is_disabled":false,"rental_uris":{"android":"levelo://app?vid=c31d5924-f3d0-42d4-b517-75f20fda0e1d","ios":"levelo://app?vid=c31d5924-f3d0-42d4-b517-75f20fda0e1d"},"vehicle_type_id":"4","last_reported":1725296832,"current_range_meters":3600,"station_id":"ce4bh092rcd13ifvqd30","pricing_plan_id":"cebpf4jnsgd1na2vs0mg"},{"bike_id":"d01a3708-b82e-4752-857d-9dd8beb6bf91","system_id":"levelo_inurba_marseille","lat":43.33748,"lon":5.37448,"is_reserved":false,"is_disabled":false,"rental_uris":{"android":"levelo://app?vid=d01a3708-b82e-4752-857d-9dd8beb6bf91","ios":"levelo://app?vid=d01a3708-b82e-4752-857d-9dd8beb6bf91"},"vehicle_type_id":"4","last_reported":1725296832,"current_range_meters":5200,"station_id":"","pricing_plan_id":"cebpf4jnsgd1na2vs0mg"},{"bike_id":"3cb4fec9-04db-47b7-8a4e-45a5d42e20da","system_id":"levelo_inurba_marseille","lat":43.33755,"lon":5.37445,"is_reserved":false,"is_disabled":false,"rental_uris":{"android":"levelo://app?vid=3cb4fec9-04db-47b7-8a4e-45a5d42e20da","ios":"levelo://app?vid=3cb4fec9-04db-47b7-8a4e-45a5d42e20da"},"vehicle_type_id":"4","last_reported":1725296832,"current_range_meters":18000,"station_id":"","pricing_plan_id":"cebpf4jnsgd1na2vs0mg"},{"bike_id":"17af643b-cdc7-486e-9891-a56a66804d58","system_id":"levelo_inurba_marseille","lat":43.3064,"lon":5.40075,"is_reserved":false,"is_disabled":false,"rental_uris":{"android":"levelo://app?vid=17af643b-cdc7-486e-9891-a56a66804d58","ios":"levelo://app?vid=17af643b-cdc7-486e-9891-a56a66804d58"},"vehicle_type_id":"4","last_reported":1725296832,"current_range_meters":0,"station_id":"ce4bh112rcd13ifvqda0","pricing_plan_id":"cebpf4jnsgd1na2vs0mg"},{"bike_id":"b287d3d4-d2ec-469e-aeb0-4faaa00fda4e","system_id":"levelo_inurba_marseille","lat":43.3064,"lon":5.40081,"is_reserved":false,"is_disabled":false,"rental_uris":{"android":"levelo://app?vid=b287d3d4-d2ec-469e-aeb0-4faaa00fda4e","ios":"levelo://app?vid=b287d3d4-d2ec-469e-aeb0-4faaa00fda4e"},"vehicle_type_id":"4","last_reported":1725296832,"current_range_meters":0,"station_id":"ce4bh112rcd13ifvqda0","pricing_plan_id":"cebpf4jnsgd1na2vs0mg"},{"bike_id":"b5479479-24f2-4a5a-8c5b-1805b1ae831b","system_id":"levelo_inurba_marseille","lat":43.306412,"lon":5.401035,"is_reserved":false,"is_disabled":false,"rental_uris":{"android":"levelo://app?vid=b5479479-24f2-4a5a-8c5b-1805b1ae831b","ios":"levelo://app?vid=b5479479-24f2-4a5a-8c5b-1805b1ae831b"},"vehicle_type_id":"4","last_reported":1725296832,"current_range_meters":0,"station_id":"ce4bh112rcd13ifvqda0","pricing_plan_id":"cebpf4jnsgd1na2vs0mg"},{"bike_id":"268bf985-f159-41ff-b7e1-d0f96c2b866e","system_id":"levelo_inurba_marseille","lat":43.28727,"lon":5.36078,"is_reserved":false,"is_disabled":false,"rental_uris":{"android":"levelo://app?vid=268bf985-f159-41ff-b7e1-d0f96c2b866e","ios":"levelo://app?vid=268bf985-f159-41ff-b7e1-d0f96c2b866e"},"vehicle_type_id":"4","last_reported":1725296832,"current_range_meters":400,"station_id":"cki0cbj6b192h4jlfktg","pricing_plan_id":"cebpf4jnsgd1na2vs0mg"},{"bike_id":"d20c1efc-be96-4716-a056-534e4a8a4e31","system_id":"levelo_inurba_marseille","lat":43.28727,"lon":5.36078,"is_reserved":false,"is_disabled":false,"rental_uris":{"android":"levelo://app?vid=d20c1efc-be96-4716-a056-534e4a8a4e31","ios":"levelo://app?vid=d20c1efc-be96-4716-a056-534e4a8a4e31"},"vehicle_type_id":"4","last_reported":1725296832,"current_range_meters":0,"station_id":"cki0cbj6b192h4jlfktg","pricing_plan_id":"cebpf4jnsgd1na2vs0mg"},{"bike_id":"f99e53bb-3649-4ddb-9a97-a610baab3cc2","system_id":"levelo_inurba_marseille","lat":43.286591,"lon":5.363346,"is_reserved":false,"is_disabled":false,"rental_uris":{"android":"levelo://app?vid=f99e53bb-3649-4ddb-9a97-a610baab3cc2","ios":"levelo://app?vid=f99e53bb-3649-4ddb-9a97-a610baab3cc2"},"vehicle_type_id":"4","last_reported":1725296832,"current_range_meters":18000,"station_id":"ce4bhah2rcd13ifvqej0","pricing_plan_id":"cebpf4jnsgd1na2vs0mg"},{"bike_id":"22949429-fdf1-4b1c-8af6-ad4d178206d5","system_id":"levelo_inurba_marseille","lat":43.286961,"lon":5.373785,"is_reserved":false,"is_disabled":false,"rental_uris":{"android":"levelo://app?vid=22949429-fdf1-4b1c-8af6-ad4d178206d5","ios":"levelo://app?vid=22949429-fdf1-4b1c-8af6-ad4d178206d5"},"vehicle_type_id":"4","last_reported":1725296832,"current_range_meters":4000,"station_id":"ce4bh3p2rcd13ifvqdq0","pricing_plan_id":"cebpf4jnsgd1na2vs0mg"},{"bike_id":"6bedcff8-8e6f-4a55-9edd-732f07a77fef","system_id":"levelo_inurba_marseille","lat":43.298681,"lon":5.397225,"is_reserved":false,"is_disabled":false,"rental_uris":{"android":"levelo://app?vid=6bedcff8-8e6f-4a55-9edd-732f07a77fef","ios":"levelo://app?vid=6bedcff8-8e6f-4a55-9edd-732f07a77fef"},"vehicle_type_id":"4","last_reported":1725296832,"current_range_meters":15600,"station_id":"ce4bh0h2rcd13ifvqd50","pricing_plan_id":"cebpf4jnsgd1na2vs0mg"},{"bike_id":"3766da0c-af0a-4e01-98ae-83c35cbcf115","system_id":"levelo_inurba_marseille","lat":43.28702,"lon":5.37375,"is_reserved":false,"is_disabled":false,"rental_uris":{"android":"levelo://app?vid=3766da0c-af0a-4e01-98ae-83c35cbcf115","ios":"levelo://app?vid=3766da0c-af0a-4e01-98ae-83c35cbcf115"},"vehicle_type_id":"4","last_reported":1725296832,"current_range_meters":0,"station_id":"ce4bh3p2rcd13ifvqdq0","pricing_plan_id":"cebpf4jnsgd1na2vs0mg"},{"bike_id":"b5dad30f-3c1b-4d12-863b-daf478f6c14c","system_id":"levelo_inurba_marseille","lat":43.286961,"lon":5.373785,"is_reserved":false,"is_disabled":false,"rental_uris":{"android":"levelo://app?vid=b5dad30f-3c1b-4d12-863b-daf478f6c14c","ios":"levelo://app?vid=b5dad30f-3c1b-4d12-863b-daf478f6c14c"},"vehicle_type_id":"4","last_reported":1725296832,"current_range_meters":0,"station_id":"ce4bh3p2rcd13ifvqdq0","pricing_plan_id":"cebpf4jnsgd1na2vs0mg"},{"bike_id":"355b1b63-3744-4ec5-83f8-782ad4a8fedc","system_id":"levelo_inurba_marseille","lat":43.30249,"lon":5.40035,"is_reserved":false,"is_disabled":false,"rental_uris":{"android":"levelo://app?vid=355b1b63-3744-4ec5-83f8-782ad4a8fedc","ios":"levelo://app?vid=355b1b63-3744-4ec5-83f8-782ad4a8fedc"},"vehicle_type_id":"4","last_reported":1725296832,"current_range_meters":22000,"station_id":"","pricing_plan_id":"cebpf4jnsgd1na2vs0mg"},{"bike_id":"9a77d4cc-e177-4b9b-93f1-be123c86b300","system_id":"levelo_inurba_marseille","lat":43.2893,"lon":5.38395,"is_reserved":false,"is_disabled":false,"rental_uris":{"android":"levelo://app?vid=9a77d4cc-e177-4b9b-93f1-be123c86b300","ios":"levelo://app?vid=9a77d4cc-e177-4b9b-93f1-be123c86b300"},"vehicle_type_id":"4","last_reported":1725296832,"current_range_meters":0,"station_id":"ce4bh612rcd13ifvqe6g","pricing_plan_id":"cebpf4jnsgd1na2vs0mg"},{"bike_id":"98a5b707-dc4f-4a0c-ae21-a6aa8135fe46","system_id":"levelo_inurba_marseille","lat":43.290336,"lon":5.386425,"is_reserved":false,"is_disabled":false,"rental_uris":{"android":"levelo://app?vid=98a5b707-dc4f-4a0c-ae21-a6aa8135fe46","ios":"levelo://app?vid=98a5b707-dc4f-4a0c-ae21-a6aa8135fe46"},"vehicle_type_id":"4","last_reported":1725296832,"current_range_meters":400,"station_id":"ce4bh4p2rcd13ifvqe0g","pricing_plan_id":"cebpf4jnsgd1na2vs0mg"},{"bike_id":"9141cc5e-c5c0-4112-a565-c20b0782a953","system_id":"levelo_inurba_marseille","lat":43.302759,"lon":5.400793,"is_reserved":false,"is_disabled":false,"rental_uris":{"android":"levelo://app?vid=9141cc5e-c5c0-4112-a565-c20b0782a953","ios":"levelo://app?vid=9141cc5e-c5c0-4112-a565-c20b0782a953"},"vehicle_type_id":"4","last_reported":1725296832,"current_range_meters":28400,"station_id":"ce4bgvh2rcd13ifvqcs0","pricing_plan_id":"cebpf4jnsgd1na2vs0mg"},{"bike_id":"863823ba-568a-4530-8c08-1a4e9fbe3493","system_id":"levelo_inurba_marseille","lat":43.302759,"lon":5.400793,"is_reserved":false,"is_disabled":false,"rental_uris":{"android":"levelo://app?vid=863823ba-568a-4530-8c08-1a4e9fbe3493","ios":"levelo://app?vid=863823ba-568a-4530-8c08-1a4e9fbe3493"},"vehicle_type_id":"4","last_reported":1725296832,"current_range_meters":2400,"station_id":"ce4bgvh2rcd13ifvqcs0","pricing_plan_id":"cebpf4jnsgd1na2vs0mg"},{"bike_id":"ddc5307c-92f5-47c9-ae4c-d4479c15bdc7","system_id":"levelo_inurba_marseille","lat":43.286039,"lon":5.370679,"is_reserved":false,"is_disabled":false,"rental_uris":{"android":"levelo://app?vid=ddc5307c-92f5-47c9-ae4c-d4479c15bdc7","ios":"levelo://app?vid=ddc5307c-92f5-47c9-ae4c-d4479c15bdc7"},"vehicle_type_id":"4","last_reported":1725296832,"current_range_meters":10000,"station_id":"ce4bht12rcd13ifvqi60","pricing_plan_id":"cebpf4jnsgd1na2vs0mg"},{"bike_id":"598a804c-ba1a-4568-8f41-788cc5262dbc","system_id":"levelo_inurba_marseille","lat":43.286039,"lon":5.370679,"is_reserved":false,"is_disabled":false,"rental_uris":{"android":"levelo://app?vid=598a804c-ba1a-4568-8f41-788cc5262dbc","ios":"levelo://app?vid=598a804c-ba1a-4568-8f41-788cc5262dbc"},"vehicle_type_id":"4","last_reported":1725296832,"current_range_meters":12400,"station_id":"ce4bht12rcd13ifvqi60","pricing_plan_id":"cebpf4jnsgd1na2vs0mg"},{"bike_id":"35392a16-08d6-4fa6-9ed3-2c63b254b043","system_id":"levelo_inurba_marseille","lat":43.28604,"lon":5.37057,"is_reserved":false,"is_disabled":false,"rental_uris":{"android":"levelo://app?vid=35392a16-08d6-4fa6-9ed3-2c63b254b043","ios":"levelo://app?vid=35392a16-08d6-4fa6-9ed3-2c63b254b043"},"vehicle_type_id":"4","last_reported":1725296832,"current_range_meters":4400,"station_id":"ce4bht12rcd13ifvqi60","pricing_plan_id":"cebpf4jnsgd1na2vs0mg"},{"bike_id":"94ded013-8e10-4452-8bff-d484ff68119e","system_id":"levelo_inurba_marseille","lat":43.286039,"lon":5.370679,"is_reserved":false,"is_disabled":false,"rental_uris":{"android":"levelo://app?vid=94ded013-8e10-4452-8bff-d484ff68119e","ios":"levelo://app?vid=94ded013-8e10-4452-8bff-d484ff68119e"},"vehicle_type_id":"4","last_reported":1725296832,"current_range_meters":4000,"station_id":"ce4bht12rcd13ifvqi60","pricing_plan_id":"cebpf4jnsgd1na2vs0mg"},{"bike_id":"3cc17ff0-33c0-4f88-b81e-bf54a826b5f4","system_id":"levelo_inurba_marseille","lat":43.287184,"lon":5.37937,"is_reserved":false,"is_disabled":false,"rental_uris":{"android":"levelo://app?vid=3cc17ff0-33c0-4f88-b81e-bf54a826b5f4","ios":"levelo://app?vid=3cc17ff0-33c0-4f88-b81e-bf54a826b5f4"},"vehicle_type_id":"4","last_reported":1725296832,"current_range_meters":11600,"station_id":"ce4bh9p2rcd13ifvqec0","pricing_plan_id":"cebpf4jnsgd1na2vs0mg"},{"bike_id":"a4253538-9662-49e9-b746-faab23221f49","system_id":"levelo_inurba_marseille","lat":43.287184,"lon":5.37937,"is_reserved":false,"is_disabled":false,"rental_uris":{"android":"levelo://app?vid=a4253538-9662-49e9-b746-faab23221f49","ios":"levelo://app?vid=a4253538-9662-49e9-b746-faab23221f49"},"vehicle_type_id":"4","last_reported":1725296832,"current_range_meters":1600,"station_id":"ce4bh9p2rcd13ifvqec0","pricing_plan_id":"cebpf4jnsgd1na2vs0mg"},{"bike_id":"f1bbcfcc-cc00-481f-b73a-f35010da8064","system_id":"levelo_inurba_marseille","lat":43.28719,"lon":5.37928,"is_reserved":false,"is_disabled":false,"rental_uris":{"android":"levelo://app?vid=f1bbcfcc-cc00-481f-b73a-f35010da8064","ios":"levelo://app?vid=f1bbcfcc-cc00-481f-b73a-f35010da8064"},"vehicle_type_id":"4","last_reported":1725296832,"current_range_meters":0,"station_id":"ce4bh9p2rcd13ifvqec0","pricing_plan_id":"cebpf4jnsgd1na2vs0mg"},{"bike_id":"2be6819c-c632-4162-9d01-083c5272666b","system_id":"levelo_inurba_marseille","lat":43.327422,"lon":5.39874,"is_reserved":false,"is_disabled":false,"rental_uris":{"android":"levelo://app?vid=2be6819c-c632-4162-9d01-083c5272666b","ios":"levelo://app?vid=2be6819c-c632-4162-9d01-083c5272666b"},"vehicle_type_id":"4","last_reported":1725296832,"current_range_meters":10400,"station_id":"","pricing_plan_id":"cebpf4jnsgd1na2vs0mg"},{"bike_id":"43f54d25-e5b3-4170-b8b2-9fecf065f519","system_id":"levelo_inurba_marseille","lat":43.316828,"lon":5.404723,"is_reserved":false,"is_disabled":false,"rental_uris":{"android":"levelo://app?vid=43f54d25-e5b3-4170-b8b2-9fecf065f519","ios":"levelo://app?vid=43f54d25-e5b3-4170-b8b2-9fecf065f519"},"vehicle_type_id":"4","last_reported":1725296832,"current_range_meters":14400,"station_id":"ce4bh012rcd13ifvqd00","pricing_plan_id":"cebpf4jnsgd1na2vs0mg"},{"bike_id":"aeeecc75-5e39-4e2f-b7b5-5da857a07181","system_id":"levelo_inurba_marseille","lat":43.316828,"lon":5.404723,"is_reserved":false,"is_disabled":false,"rental_uris":{"android":"levelo://app?vid=aeeecc75-5e39-4e2f-b7b5-5da857a07181","ios":"levelo://app?vid=aeeecc75-5e39-4e2f-b7b5-5da857a07181"},"vehicle_type_id":"4","last_reported":1725296832,"current_range_meters":22000,"station_id":"ce4bh012rcd13ifvqd00","pricing_plan_id":"cebpf4jnsgd1na2vs0mg"},{"bike_id":"7fe199a8-5341-4eac-b7af-046ad1dafb7c","system_id":"levelo_inurba_marseille","lat":43.29193,"lon":5.39311,"is_reserved":false,"is_disabled":false,"rental_uris":{"android":"levelo://app?vid=7fe199a8-5341-4eac-b7af-046ad1dafb7c","ios":"levelo://app?vid=7fe199a8-5341-4eac-b7af-046ad1dafb7c"},"vehicle_type_id":"4","last_reported":1725296832,"current_range_meters":0,"station_id":"ce4bh192rcd13ifvqdd0","pricing_plan_id":"cebpf4jnsgd1na2vs0mg"},{"bike_id":"e829bcfa-d0b4-4385-8efd-bec7c63504f8","system_id":"levelo_inurba_marseille","lat":43.28467,"lon":5.35885,"is_reserved":false,"is_disabled":false,"rental_uris":{"android":"levelo://app?vid=e829bcfa-d0b4-4385-8efd-bec7c63504f8","ios":"levelo://app?vid=e829bcfa-d0b4-4385-8efd-bec7c63504f8"},"vehicle_type_id":"4","last_reported":1725296832,"current_range_meters":7600,"station_id":"ce4bhah2rcd13ifvqei0","pricing_plan_id":"cebpf4jnsgd1na2vs0mg"},{"bike_id":"ad70244d-cc54-4039-a8b8-d9f09d73bcad","system_id":"levelo_inurba_marseille","lat":43.30328,"lon":5.40422,"is_reserved":false,"is_disabled":false,"rental_uris":{"android":"levelo://app?vid=ad70244d-cc54-4039-a8b8-d9f09d73bcad","ios":"levelo://app?vid=ad70244d-cc54-4039-a8b8-d9f09d73bcad"},"vehicle_type_id":"4","last_reported":1725296832,"current_range_meters":27200,"station_id":"ce4bh012rcd13ifvqd10","pricing_plan_id":"cebpf4jnsgd1na2vs0mg"},{"bike_id":"db50457b-bd8d-4b0b-ac0f-642c88cf59ea","system_id":"levelo_inurba_marseille","lat":43.284534,"lon":5.358662,"is_reserved":false,"is_disabled":false,"rental_uris":{"android":"levelo://app?vid=db50457b-bd8d-4b0b-ac0f-642c88cf59ea","ios":"levelo://app?vid=db50457b-bd8d-4b0b-ac0f-642c88cf59ea"},"vehicle_type_id":"4","last_reported":1725296832,"current_range_meters":15600,"station_id":"ce4bhah2rcd13ifvqei0","pricing_plan_id":"cebpf4jnsgd1na2vs0mg"},{"bike_id":"ebc392f8-87b7-4021-b6b9-72c04eb51e6b","system_id":"levelo_inurba_marseille","lat":43.28461,"lon":5.35878,"is_reserved":false,"is_disabled":false,"rental_uris":{"android":"levelo://app?vid=ebc392f8-87b7-4021-b6b9-72c04eb51e6b","ios":"levelo://app?vid=ebc392f8-87b7-4021-b6b9-72c04eb51e6b"},"vehicle_type_id":"4","last_reported":1725296832,"current_range_meters":800,"station_id":"ce4bhah2rcd13ifvqei0","pricing_plan_id":"cebpf4jnsgd1na2vs0mg"},{"bike_id":"0c6cd2e1-8017-48c3-a96c-cdc5a0025d7a","system_id":"levelo_inurba_marseille","lat":43.28455,"lon":5.35895,"is_reserved":false,"is_disabled":false,"rental_uris":{"android":"levelo://app?vid=0c6cd2e1-8017-48c3-a96c-cdc5a0025d7a","ios":"levelo://app?vid=0c6cd2e1-8017-48c3-a96c-cdc5a0025d7a"},"vehicle_type_id":"4","last_reported":1725296832,"current_range_meters":3600,"station_id":"ce4bhah2rcd13ifvqei0","pricing_plan_id":"cebpf4jnsgd1na2vs0mg"},{"bike_id":"ba2db711-158a-49ae-8eec-9020a9ee278a","system_id":"levelo_inurba_marseille","lat":43.284534,"lon":5.358662,"is_reserved":false,"is_disabled":false,"rental_uris":{"android":"levelo://app?vid=ba2db711-158a-49ae-8eec-9020a9ee278a","ios":"levelo://app?vid=ba2db711-158a-49ae-8eec-9020a9ee278a"},"vehicle_type_id":"4","last_reported":1725296832,"current_range_meters":4000,"station_id":"ce4bhah2rcd13ifvqei0","pricing_plan_id":"cebpf4jnsgd1na2vs0mg"},{"bike_id":"f46751f7-7980-4e71-b6d7-292bbad3d6fe","system_id":"levelo_inurba_marseille","lat":43.303256,"lon":5.404389,"is_reserved":false,"is_disabled":false,"rental_uris":{"android":"levelo://app?vid=f46751f7-7980-4e71-b6d7-292bbad3d6fe","ios":"levelo://app?vid=f46751f7-7980-4e71-b6d7-292bbad3d6fe"},"vehicle_type_id":"4","last_reported":1725296832,"current_range_meters":18000,"station_id":"ce4bh012rcd13ifvqd10","pricing_plan_id":"cebpf4jnsgd1na2vs0mg"},{"bike_id":"0df53ea9-36be-4278-afbe-c6c0f3372ecc","system_id":"levelo_inurba_marseille","lat":43.284534,"lon":5.358662,"is_reserved":false,"is_disabled":false,"rental_uris":{"android":"levelo://app?vid=0df53ea9-36be-4278-afbe-c6c0f3372ecc","ios":"levelo://app?vid=0df53ea9-36be-4278-afbe-c6c0f3372ecc"},"vehicle_type_id":"4","last_reported":1725296832,"current_range_meters":20000,"station_id":"ce4bhah2rcd13ifvqei0","pricing_plan_id":"cebpf4jnsgd1na2vs0mg"},{"bike_id":"a3cee784-1fdc-4759-91cf-abe6fd4e92b5","system_id":"levelo_inurba_marseille","lat":43.30326,"lon":5.4043,"is_reserved":false,"is_disabled":false,"rental_uris":{"android":"levelo://app?vid=a3cee784-1fdc-4759-91cf-abe6fd4e92b5","ios":"levelo://app?vid=a3cee784-1fdc-4759-91cf-abe6fd4e92b5"},"vehicle_type_id":"4","last_reported":1725296832,"current_range_meters":5200,"station_id":"ce4bh012rcd13ifvqd10","pricing_plan_id":"cebpf4jnsgd1na2vs0mg"},{"bike_id":"5ef6d78b-5391-4180-8cbe-b47a8c704cd9","system_id":"levelo_inurba_marseille","lat":43.284534,"lon":5.358662,"is_reserved":false,"is_disabled":false,"rental_uris":{"android":"levelo://app?vid=5ef6d78b-5391-4180-8cbe-b47a8c704cd9","ios":"levelo://app?vid=5ef6d78b-5391-4180-8cbe-b47a8c704cd9"},"vehicle_type_id":"4","last_reported":1725296832,"current_range_meters":400,"station_id":"ce4bhah2rcd13ifvqei0","pricing_plan_id":"cebpf4jnsgd1na2vs0mg"},{"bike_id":"11480bb1-591e-4326-ac85-b702bd0fb3f8","system_id":"levelo_inurba_marseille","lat":43.294314,"lon":5.397498,"is_reserved":false,"is_disabled":false,"rental_uris":{"android":"levelo://app?vid=11480bb1-591e-4326-ac85-b702bd0fb3f8","ios":"levelo://app?vid=11480bb1-591e-4326-ac85-b702bd0fb3f8"},"vehicle_type_id":"4","last_reported":1725296832,"current_range_meters":16800,"station_id":"ce4bh3h2rcd13ifvqdo0","pricing_plan_id":"cebpf4jnsgd1na2vs0mg"},{"bike_id":"e7adf618-c392-4d08-bbbd-55d85561728a","system_id":"levelo_inurba_marseille","lat":43.28624,"lon":5.35106,"is_reserved":false,"is_disabled":false,"rental_uris":{"android":"levelo://app?vid=e7adf618-c392-4d08-bbbd-55d85561728a","ios":"levelo://app?vid=e7adf618-c392-4d08-bbbd-55d85561728a"},"vehicle_type_id":"4","last_reported":1725296832,"current_range_meters":10800,"station_id":"ce4bhch2rcd13ifvqeug","pricing_plan_id":"cebpf4jnsgd1na2vs0mg"},{"bike_id":"def39d71-8109-429f-895c-d7cdd4c18201","system_id":"levelo_inurba_marseille","lat":43.28622,"lon":5.35105,"is_reserved":false,"is_disabled":false,"rental_uris":{"android":"levelo://app?vid=def39d71-8109-429f-895c-d7cdd4c18201","ios":"levelo://app?vid=def39d71-8109-429f-895c-d7cdd4c18201"},"vehicle_type_id":"4","last_reported":1725296832,"current_range_meters":20400,"station_id":"ce4bhch2rcd13ifvqeug","pricing_plan_id":"cebpf4jnsgd1na2vs0mg"},{"bike_id":"28379993-7450-42b2-b4d2-7bc2fc37e627","system_id":"levelo_inurba_marseille","lat":43.28621,"lon":5.35105,"is_reserved":false,"is_disabled":false,"rental_uris":{"android":"levelo://app?vid=28379993-7450-42b2-b4d2-7bc2fc37e627","ios":"levelo://app?vid=28379993-7450-42b2-b4d2-7bc2fc37e627"},"vehicle_type_id":"4","last_reported":1725296832,"current_range_meters":0,"station_id":"ce4bhch2rcd13ifvqeug","pricing_plan_id":"cebpf4jnsgd1na2vs0mg"},{"bike_id":"67859470-b5cf-41e8-950f-f36d46027375","system_id":"levelo_inurba_marseille","lat":43.2862,"lon":5.35103,"is_reserved":false,"is_disabled":false,"rental_uris":{"android":"levelo://app?vid=67859470-b5cf-41e8-950f-f36d46027375","ios":"levelo://app?vid=67859470-b5cf-41e8-950f-f36d46027375"},"vehicle_type_id":"4","last_reported":1725296832,"current_range_meters":25600,"station_id":"ce4bhch2rcd13ifvqeug","pricing_plan_id":"cebpf4jnsgd1na2vs0mg"},{"bike_id":"5566c4df-afe2-4622-994f-f925fd662da3","system_id":"levelo_inurba_marseille","lat":43.28619,"lon":5.35105,"is_reserved":false,"is_disabled":false,"rental_uris":{"android":"levelo://app?vid=5566c4df-afe2-4622-994f-f925fd662da3","ios":"levelo://app?vid=5566c4df-afe2-4622-994f-f925fd662da3"},"vehicle_type_id":"4","last_reported":1725296832,"current_range_meters":12000,"station_id":"ce4bhch2rcd13ifvqeug","pricing_plan_id":"cebpf4jnsgd1na2vs0mg"},{"bike_id":"6b3d9e68-6de1-4377-9523-c097fa690eb8","system_id":"levelo_inurba_marseille","lat":43.28619,"lon":5.35104,"is_reserved":false,"is_disabled":false,"rental_uris":{"android":"levelo://app?vid=6b3d9e68-6de1-4377-9523-c097fa690eb8","ios":"levelo://app?vid=6b3d9e68-6de1-4377-9523-c097fa690eb8"},"vehicle_type_id":"4","last_reported":1725296832,"current_range_meters":24400,"station_id":"ce4bhch2rcd13ifvqeug","pricing_plan_id":"cebpf4jnsgd1na2vs0mg"},{"bike_id":"942e0e02-73a5-4be3-bc40-d291a310d646","system_id":"levelo_inurba_marseille","lat":43.28616,"lon":5.35111,"is_reserved":false,"is_disabled":false,"rental_uris":{"android":"levelo://app?vid=942e0e02-73a5-4be3-bc40-d291a310d646","ios":"levelo://app?vid=942e0e02-73a5-4be3-bc40-d291a310d646"},"vehicle_type_id":"4","last_reported":1725296832,"current_range_meters":0,"station_id":"ce4bhch2rcd13ifvqeug","pricing_plan_id":"cebpf4jnsgd1na2vs0mg"},{"bike_id":"093a76e0-f1d9-4752-ac34-7cdae2e3bc2d","system_id":"levelo_inurba_marseille","lat":43.28617,"lon":5.35102,"is_reserved":false,"is_disabled":false,"rental_uris":{"android":"levelo://app?vid=093a76e0-f1d9-4752-ac34-7cdae2e3bc2d","ios":"levelo://app?vid=093a76e0-f1d9-4752-ac34-7cdae2e3bc2d"},"vehicle_type_id":"4","last_reported":1725296832,"current_range_meters":30400,"station_id":"ce4bhch2rcd13ifvqeug","pricing_plan_id":"cebpf4jnsgd1na2vs0mg"},{"bike_id":"d9e52b97-db1a-4ae1-8b0f-547cc84a6c20","system_id":"levelo_inurba_marseille","lat":43.28615,"lon":5.35106,"is_reserved":false,"is_disabled":false,"rental_uris":{"android":"levelo://app?vid=d9e52b97-db1a-4ae1-8b0f-547cc84a6c20","ios":"levelo://app?vid=d9e52b97-db1a-4ae1-8b0f-547cc84a6c20"},"vehicle_type_id":"4","last_reported":1725296832,"current_range_meters":16400,"station_id":"ce4bhch2rcd13ifvqeug","pricing_plan_id":"cebpf4jnsgd1na2vs0mg"},{"bike_id":"f596573f-13b8-4936-b45b-2f86976ea614","system_id":"levelo_inurba_marseille","lat":43.286157,"lon":5.351,"is_reserved":false,"is_disabled":false,"rental_uris":{"android":"levelo://app?vid=f596573f-13b8-4936-b45b-2f86976ea614","ios":"levelo://app?vid=f596573f-13b8-4936-b45b-2f86976ea614"},"vehicle_type_id":"4","last_reported":1725296832,"current_range_meters":0,"station_id":"ce4bhch2rcd13ifvqeug","pricing_plan_id":"cebpf4jnsgd1na2vs0mg"},{"bike_id":"667a2f5e-9473-49a4-a620-cdf5d08f66fa","system_id":"levelo_inurba_marseille","lat":43.286148,"lon":5.350995,"is_reserved":false,"is_disabled":false,"rental_uris":{"android":"levelo://app?vid=667a2f5e-9473-49a4-a620-cdf5d08f66fa","ios":"levelo://app?vid=667a2f5e-9473-49a4-a620-cdf5d08f66fa"},"vehicle_type_id":"4","last_reported":1725296832,"current_range_meters":6800,"station_id":"ce4bhch2rcd13ifvqeug","pricing_plan_id":"cebpf4jnsgd1na2vs0mg"},{"bike_id":"e5061b71-af5e-4ac1-9849-89fee933ca34","system_id":"levelo_inurba_marseille","lat":43.28613,"lon":5.35104,"is_reserved":false,"is_disabled":false,"rental_uris":{"android":"levelo://app?vid=e5061b71-af5e-4ac1-9849-89fee933ca34","ios":"levelo://app?vid=e5061b71-af5e-4ac1-9849-89fee933ca34"},"vehicle_type_id":"4","last_reported":1725296832,"current_range_meters":14000,"station_id":"ce4bhch2rcd13ifvqeug","pricing_plan_id":"cebpf4jnsgd1na2vs0mg"},{"bike_id":"37a06ad2-73fe-427d-ac85-85b17707516a","system_id":"levelo_inurba_marseille","lat":43.28613,"lon":5.35103,"is_reserved":false,"is_disabled":false,"rental_uris":{"android":"levelo://app?vid=37a06ad2-73fe-427d-ac85-85b17707516a","ios":"levelo://app?vid=37a06ad2-73fe-427d-ac85-85b17707516a"},"vehicle_type_id":"4","last_reported":1725296832,"current_range_meters":0,"station_id":"ce4bhch2rcd13ifvqeug","pricing_plan_id":"cebpf4jnsgd1na2vs0mg"},{"bike_id":"1f676681-8bec-46d1-9008-f8cec1d1fc5a","system_id":"levelo_inurba_marseille","lat":43.285856,"lon":5.350771,"is_reserved":false,"is_disabled":false,"rental_uris":{"android":"levelo://app?vid=1f676681-8bec-46d1-9008-f8cec1d1fc5a","ios":"levelo://app?vid=1f676681-8bec-46d1-9008-f8cec1d1fc5a"},"vehicle_type_id":"4","last_reported":1725296832,"current_range_meters":27600,"station_id":"ce4bhch2rcd13ifvqeug","pricing_plan_id":"cebpf4jnsgd1na2vs0mg"},{"bike_id":"50dc8f74-ad8f-4adc-b2c3-e112d479d6d4","system_id":"levelo_inurba_marseille","lat":43.283998,"lon":5.375062,"is_reserved":false,"is_disabled":false,"rental_uris":{"android":"levelo://app?vid=50dc8f74-ad8f-4adc-b2c3-e112d479d6d4","ios":"levelo://app?vid=50dc8f74-ad8f-4adc-b2c3-e112d479d6d4"},"vehicle_type_id":"4","last_reported":1725296832,"current_range_meters":0,"station_id":"ce4bh412rcd13ifvqds0","pricing_plan_id":"cebpf4jnsgd1na2vs0mg"},{"bike_id":"dd1505c9-543b-473d-8706-6d8f2ee504d0","system_id":"levelo_inurba_marseille","lat":43.288501,"lon":5.393087,"is_reserved":false,"is_disabled":false,"rental_uris":{"android":"levelo://app?vid=dd1505c9-543b-473d-8706-6d8f2ee504d0","ios":"levelo://app?vid=dd1505c9-543b-473d-8706-6d8f2ee504d0"},"vehicle_type_id":"4","last_reported":1725296832,"current_range_meters":4400,"station_id":"ce4bh2p2rcd13ifvqdi0","pricing_plan_id":"cebpf4jnsgd1na2vs0mg"},{"bike_id":"f05bc1a9-7b55-40ee-9979-5c14d510a8d0","system_id":"levelo_inurba_marseille","lat":43.28673,"lon":5.38657,"is_reserved":false,"is_disabled":false,"rental_uris":{"android":"levelo://app?vid=f05bc1a9-7b55-40ee-9979-5c14d510a8d0","ios":"levelo://app?vid=f05bc1a9-7b55-40ee-9979-5c14d510a8d0"},"vehicle_type_id":"4","last_reported":1725296832,"current_range_meters":3600,"station_id":"ce4bh492rcd13ifvqdug","pricing_plan_id":"cebpf4jnsgd1na2vs0mg"},{"bike_id":"2c8e10f1-e03f-4bd0-93ca-5356f3e68b77","system_id":"levelo_inurba_marseille","lat":43.286595,"lon":5.386795,"is_reserved":false,"is_disabled":false,"rental_uris":{"android":"levelo://app?vid=2c8e10f1-e03f-4bd0-93ca-5356f3e68b77","ios":"levelo://app?vid=2c8e10f1-e03f-4bd0-93ca-5356f3e68b77"},"vehicle_type_id":"4","last_reported":1725296832,"current_range_meters":0,"station_id":"ce4bh492rcd13ifvqdug","pricing_plan_id":"cebpf4jnsgd1na2vs0mg"},{"bike_id":"a7b3fe95-c574-40c1-801d-3d85bd3a070c","system_id":"levelo_inurba_marseille","lat":43.29701,"lon":5.40175,"is_reserved":false,"is_disabled":false,"rental_uris":{"android":"levelo://app?vid=a7b3fe95-c574-40c1-801d-3d85bd3a070c","ios":"levelo://app?vid=a7b3fe95-c574-40c1-801d-3d85bd3a070c"},"vehicle_type_id":"4","last_reported":1725296832,"current_range_meters":0,"station_id":"","pricing_plan_id":"cebpf4jnsgd1na2vs0mg"},{"bike_id":"59ab45ef-2006-4bef-86af-c8487062b002","system_id":"levelo_inurba_marseille","lat":43.31883,"lon":5.40735,"is_reserved":false,"is_disabled":false,"rental_uris":{"android":"levelo://app?vid=59ab45ef-2006-4bef-86af-c8487062b002","ios":"levelo://app?vid=59ab45ef-2006-4bef-86af-c8487062b002"},"vehicle_type_id":"4","last_reported":1725296832,"current_range_meters":22800,"station_id":"ce4bhq12rcd13ifvqhig","pricing_plan_id":"cebpf4jnsgd1na2vs0mg"},{"bike_id":"d5b7d4a0-27cf-4bd5-a6de-5d26cb42a61b","system_id":"levelo_inurba_marseille","lat":43.33717,"lon":5.391857,"is_reserved":false,"is_disabled":false,"rental_uris":{"android":"levelo://app?vid=d5b7d4a0-27cf-4bd5-a6de-5d26cb42a61b","ios":"levelo://app?vid=d5b7d4a0-27cf-4bd5-a6de-5d26cb42a61b"},"vehicle_type_id":"4","last_reported":1725296832,"current_range_meters":18400,"station_id":"ce4bhr92rcd13ifvqhsg","pricing_plan_id":"cebpf4jnsgd1na2vs0mg"},{"bike_id":"d31744e6-0c8a-4793-8b78-9690b3551528","system_id":"levelo_inurba_marseille","lat":43.28809,"lon":5.39143,"is_reserved":false,"is_disabled":false,"rental_uris":{"android":"levelo://app?vid=d31744e6-0c8a-4793-8b78-9690b3551528","ios":"levelo://app?vid=d31744e6-0c8a-4793-8b78-9690b3551528"},"vehicle_type_id":"4","last_reported":1725296832,"current_range_meters":7200,"station_id":"","pricing_plan_id":"cebpf4jnsgd1na2vs0mg"},{"bike_id":"69e04aaf-0af0-476d-bb51-28a24243859c","system_id":"levelo_inurba_marseille","lat":43.337298,"lon":5.391789,"is_reserved":false,"is_disabled":false,"rental_uris":{"android":"levelo://app?vid=69e04aaf-0af0-476d-bb51-28a24243859c","ios":"levelo://app?vid=69e04aaf-0af0-476d-bb51-28a24243859c"},"vehicle_type_id":"4","last_reported":1725296832,"current_range_meters":15600,"station_id":"ce4bhr92rcd13ifvqhsg","pricing_plan_id":"cebpf4jnsgd1na2vs0mg"},{"bike_id":"104fed8d-03fa-4ba3-a4c3-f09bbb80ccf0","system_id":"levelo_inurba_marseille","lat":43.33727,"lon":5.39188,"is_reserved":false,"is_disabled":false,"rental_uris":{"android":"levelo://app?vid=104fed8d-03fa-4ba3-a4c3-f09bbb80ccf0","ios":"levelo://app?vid=104fed8d-03fa-4ba3-a4c3-f09bbb80ccf0"},"vehicle_type_id":"4","last_reported":1725296832,"current_range_meters":12400,"station_id":"ce4bhr92rcd13ifvqhsg","pricing_plan_id":"cebpf4jnsgd1na2vs0mg"},{"bike_id":"0f4848cc-9534-4f4b-b36d-f11c959d4d5d","system_id":"levelo_inurba_marseille","lat":43.297946,"lon":5.404063,"is_reserved":false,"is_disabled":false,"rental_uris":{"android":"levelo://app?vid=0f4848cc-9534-4f4b-b36d-f11c959d4d5d","ios":"levelo://app?vid=0f4848cc-9534-4f4b-b36d-f11c959d4d5d"},"vehicle_type_id":"4","last_reported":1725296832,"current_range_meters":21600,"station_id":"ce4bh112rcd13ifvqd90","pricing_plan_id":"cebpf4jnsgd1na2vs0mg"},{"bike_id":"513fa857-1932-47cb-a3c3-6dfb02998bc4","system_id":"levelo_inurba_marseille","lat":43.32672,"lon":5.40465,"is_reserved":false,"is_disabled":false,"rental_uris":{"android":"levelo://app?vid=513fa857-1932-47cb-a3c3-6dfb02998bc4","ios":"levelo://app?vid=513fa857-1932-47cb-a3c3-6dfb02998bc4"},"vehicle_type_id":"4","last_reported":1725296832,"current_range_meters":11600,"station_id":"","pricing_plan_id":"cebpf4jnsgd1na2vs0mg"},{"bike_id":"64c70585-5c25-40ec-bfaf-cd3f58c11b50","system_id":"levelo_inurba_marseille","lat":43.288501,"lon":5.393087,"is_reserved":false,"is_disabled":false,"rental_uris":{"android":"levelo://app?vid=64c70585-5c25-40ec-bfaf-cd3f58c11b50","ios":"levelo://app?vid=64c70585-5c25-40ec-bfaf-cd3f58c11b50"},"vehicle_type_id":"4","last_reported":1725296832,"current_range_meters":0,"station_id":"ce4bh2p2rcd13ifvqdi0","pricing_plan_id":"cebpf4jnsgd1na2vs0mg"},{"bike_id":"43229240-f33b-465e-969c-a22f80da4683","system_id":"levelo_inurba_marseille","lat":43.2885,"lon":5.3931,"is_reserved":false,"is_disabled":false,"rental_uris":{"android":"levelo://app?vid=43229240-f33b-465e-969c-a22f80da4683","ios":"levelo://app?vid=43229240-f33b-465e-969c-a22f80da4683"},"vehicle_type_id":"4","last_reported":1725296832,"current_range_meters":22800,"station_id":"ce4bh2p2rcd13ifvqdi0","pricing_plan_id":"cebpf4jnsgd1na2vs0mg"},{"bike_id":"9aa8f2a4-c270-4ca1-8d3f-bee026b9f8cd","system_id":"levelo_inurba_marseille","lat":43.288497,"lon":5.393089,"is_reserved":false,"is_disabled":false,"rental_uris":{"android":"levelo://app?vid=9aa8f2a4-c270-4ca1-8d3f-bee026b9f8cd","ios":"levelo://app?vid=9aa8f2a4-c270-4ca1-8d3f-bee026b9f8cd"},"vehicle_type_id":"4","last_reported":1725296832,"current_range_meters":0,"station_id":"ce4bh2p2rcd13ifvqdi0","pricing_plan_id":"cebpf4jnsgd1na2vs0mg"},{"bike_id":"677d3910-a3f0-4fc9-93d8-c81ac38bb780","system_id":"levelo_inurba_marseille","lat":43.288501,"lon":5.393087,"is_reserved":false,"is_disabled":false,"rental_uris":{"android":"levelo://app?vid=677d3910-a3f0-4fc9-93d8-c81ac38bb780","ios":"levelo://app?vid=677d3910-a3f0-4fc9-93d8-c81ac38bb780"},