{"last_updated":1723410504,"ttl":30,"version":"2.2","data":{"bikes":[{"bike_id":"1975fd8f-9171-44d2-9f2d-37fc24c82d94","system_id":"levelo_inurba_marseille","lat":43.31341,"lon":5.367098,"is_reserved":false,"is_disabled":false,"rental_uris":{"android":"levelo://app?vid=1975fd8f-9171-44d2-9f2d-37fc24c82d94","ios":"levelo://app?vid=1975fd8f-9171-44d2-9f2d-37fc24c82d94"},"vehicle_type_id":"4","last_reported":1723410504,"current_range_meters":14000,"station_id":"ce4bgr92rcd13ifvqc6g","pricing_plan_id":"cebpf4jnsgd1na2vs0mg"},{"bike_id":"860126a1-befc-48a1-a77d-80a8bc13c4d6","system_id":"levelo_inurba_marseille","lat":43.309076,"lon":5.368465,"is_reserved":false,"is_disabled":false,"rental_uris":{"android":"levelo://app?vid=860126a1-befc-48a1-a77d-80a8bc13c4d6","ios":"levelo://app?vid=860126a1-befc-48a1-a77d-80a8bc13c4d6"},"vehicle_type_id":"4","last_reported":1723410504,"current_range_meters":9200,"station_id":"ce4bgn92rcd13ifvqbvg","pricing_plan_id":"cebpf4jnsgd1na2vs0mg"},{"bike_id":"addb15a3-a61e-4520-b2a5-e551601f0e04","system_id":"levelo_inurba_marseille","lat":43.314811,"lon":5.373104,"is_reserved":false,"is_disabled":false,"rental_uris":{"android":"levelo://app?vid=addb15a3-a61e-4520-b2a5-e551601f0e04","ios":"levelo://app?vid=addb15a3-a61e-4520-b2a5-e551601f0e04"},"vehicle_type_id":"4","last_reported":1723410504,"current_range_meters":0,"station_id":"ce4bgt12rcd13ifvqcd0","pricing_plan_id":"cebpf4jnsgd1na2vs0mg"},{"bike_id":"70885b98-ff5f-4950-b3bf-0b090bc18b3e","system_id":"levelo_inurba_marseille","lat":43.30898,"lon":5.3718,"is_reserved":false,"is_disabled":false,"rental_uris":{"android":"levelo://app?vid=70885b98-ff5f-4950-b3bf-0b090bc18b3e","ios":"levelo://app?vid=70885b98-ff5f-4950-b3bf-0b090bc18b3e"},"vehicle_type_id":"4","last_reported":1723410504,"current_range_meters":15200,"station_id":"ce4bguh2rcd13ifvqckg","pricing_plan_id":"cebpf4jnsgd1na2vs0mg"},{"bike_id":"b1fc26d7-7131-459a-a914-1aa8055316f3","system_id":"levelo_inurba_marseille","lat":43.309039,"lon":5.371797,"is_reserved":false,"is_disabled":false,"rental_uris":{"android":"levelo://app?vid=b1fc26d7-7131-459a-a914-1aa8055316f3","ios":"levelo://app?vid=b1fc26d7-7131-459a-a914-1aa8055316f3"},"vehicle_type_id":"4","last_reported":1723410504,"current_range_meters":27200,"station_id":"ce4bguh2rcd13ifvqckg","pricing_plan_id":"cebpf4jnsgd1na2vs0mg"},{"bike_id":"b27aada5-e48f-44bf-911d-b6140ca379ca","system_id":"levelo_inurba_marseille","lat":43.309039,"lon":5.371797,"is_reserved":false,"is_disabled":false,"rental_uris":{"android":"levelo://app?vid=b27aada5-e48f-44bf-911d-b6140ca379ca","ios":"levelo://app?vid=b27aada5-e48f-44bf-911d-b6140ca379ca"},"vehicle_type_id":"4","last_reported":1723410504,"current_range_meters":8400,"station_id":"ce4bguh2rcd13ifvqckg","pricing_plan_id":"cebpf4jnsgd1na2vs0mg"},{"bike_id":"109adda2-1bb9-42cd-8452-5d656e123384","system_id":"levelo_inurba_marseille","lat":43.30892,"lon":5.37201,"is_reserved":false,"is_disabled":false,"rental_uris":{"android":"levelo://app?vid=109adda2-1bb9-42cd-8452-5d656e123384","ios":"levelo://app?vid=109adda2-1bb9-42cd-8452-5d656e123384"},"vehicle_type_id":"4","last_reported":1723410504,"current_range_meters":1600,"station_id":"ce4bguh2rcd13ifvqckg","pricing_plan_id":"cebpf4jnsgd1na2vs0mg"},{"bike_id":"0c857e18-b801-4c38-ba96-ac07bb83460c","system_id":"levelo_inurba_marseille","lat":43.309034,"lon":5.371783,"is_reserved":false,"is_disabled":false,"rental_uris":{"android":"levelo://app?vid=0c857e18-b801-4c38-ba96-ac07bb83460c","ios":"levelo://app?vid=0c857e18-b801-4c38-ba96-ac07bb83460c"},"vehicle_type_id":"4","last_reported":1723410504,"current_range_meters":16000,"station_id":"ce4bguh2rcd13ifvqckg","pricing_plan_id":"cebpf4jnsgd1na2vs0mg"},{"bike_id":"0a0d1504-0816-45d1-a14b-7aedf3610e22","system_id":"levelo_inurba_marseille","lat":43.31459,"lon":5.37383,"is_reserved":false,"is_disabled":false,"rental_uris":{"android":"levelo://app?vid=0a0d1504-0816-45d1-a14b-7aedf3610e22","ios":"levelo://app?vid=0a0d1504-0816-45d1-a14b-7aedf3610e22"},"vehicle_type_id":"4","last_reported":1723410504,"current_range_meters":4800,"station_id":"","pricing_plan_id":"cebpf4jnsgd1na2vs0mg"},{"bike_id":"80f9f110-4ffc-4297-bf57-2bf2a710da39","system_id":"levelo_inurba_marseille","lat":43.31918,"lon":5.36734,"is_reserved":false,"is_disabled":false,"rental_uris":{"android":"levelo://app?vid=80f9f110-4ffc-4297-bf57-2bf2a710da39","ios":"levelo://app?vid=80f9f110-4ffc-4297-bf57-2bf2a710da39"},"vehicle_type_id":"4","last_reported":1723410504,"current_range_meters":12000,"station_id":"","pricing_plan_id":"cebpf4jnsgd1na2vs0mg"},{"bike_id":"b0522b6c-dfb9-4f3d-b4a2-76ae628fdbca","system_id":"levelo_inurba_marseille","lat":43.31377,"lon":5.37668,"is_reserved":false,"is_disabled":false,"rental_uris":{"android":"levelo://app?vid=b0522b6c-dfb9-4f3d-b4a2-76ae628fdbca","ios":"levelo://app?vid=b0522b6c-dfb9-4f3d-b4a2-76ae628fdbca"},"vehicle_type_id":"4","last_reported":1723410504,"current_range_meters":0,"station_id":"","pricing_plan_id":"cebpf4jnsgd1na2vs0mg"},{"bike_id":"761d6d7d-4b6f-4e11-bd80-297921578ed9","system_id":"levelo_inurba_marseille","lat":43.305712,"lon":5.365641,"is_reserved":false,"is_disabled":false,"rental_uris":{"android":"levelo://app?vid=761d6d7d-4b6f-4e11-bd80-297921578ed9","ios":"levelo://app?vid=761d6d7d-4b6f-4e11-bd80-297921578ed9"},"vehicle_type_id":"4","last_reported":1723410504,"current_range_meters":2400,"station_id":"ce4bgs12rcd13ifvqcag","pricing_plan_id":"cebpf4jnsgd1na2vs0mg"},{"bike_id":"dde65a12-0062-4444-a22c-b8c54b32472c","system_id":"levelo_inurba_marseille","lat":43.30527,"lon":5.36934,"is_reserved":false,"is_disabled":false,"rental_uris":{"android":"levelo://app?vid=dde65a12-0062-4444-a22c-b8c54b32472c","ios":"levelo://app?vid=dde65a12-0062-4444-a22c-b8c54b32472c"},"vehicle_type_id":"4","last_reported":1723410504,"current_range_meters":400,"station_id":"","pricing_plan_id":"cebpf4jnsgd1na2vs0mg"},{"bike_id":"9b6e96d2-4bcb-4f9b-89c8-7948cde44e5e","system_id":"levelo_inurba_marseille","lat":43.30609,"lon":5.37225,"is_reserved":false,"is_disabled":false,"rental_uris":{"android":"levelo://app?vid=9b6e96d2-4bcb-4f9b-89c8-7948cde44e5e","ios":"levelo://app?vid=9b6e96d2-4bcb-4f9b-89c8-7948cde44e5e"},"vehicle_type_id":"4","last_reported":1723410504,"current_range_meters":14800,"station_id":"ce4bgqh2rcd13ifvqc4g","pricing_plan_id":"cebpf4jnsgd1na2vs0mg"},{"bike_id":"36a282b1-4dd6-42af-9f14-2439f45e149f","system_id":"levelo_inurba_marseille","lat":43.30594,"lon":5.37223,"is_reserved":false,"is_disabled":false,"rental_uris":{"android":"levelo://app?vid=36a282b1-4dd6-42af-9f14-2439f45e149f","ios":"levelo://app?vid=36a282b1-4dd6-42af-9f14-2439f45e149f"},"vehicle_type_id":"4","last_reported":1723410504,"current_range_meters":0,"station_id":"ce4bgqh2rcd13ifvqc4g","pricing_plan_id":"cebpf4jnsgd1na2vs0mg"},{"bike_id":"97df7cb3-f008-40a7-bce1-171b5cc5f7c5","system_id":"levelo_inurba_marseille","lat":43.311125,"lon":5.377624,"is_reserved":false,"is_disabled":false,"rental_uris":{"android":"levelo://app?vid=97df7cb3-f008-40a7-bce1-171b5cc5f7c5","ios":"levelo://app?vid=97df7cb3-f008-40a7-bce1-171b5cc5f7c5"},"vehicle_type_id":"4","last_reported":1723410504,"current_range_meters":0,"station_id":"ce4bgt92rcd13ifvqcg0","pricing_plan_id":"cebpf4jnsgd1na2vs0mg"},{"bike_id":"8b00ab21-75bd-4a6c-b173-840a3e7b3cf1","system_id":"levelo_inurba_marseille","lat":43.311243,"lon":5.37777,"is_reserved":false,"is_disabled":false,"rental_uris":{"android":"levelo://app?vid=8b00ab21-75bd-4a6c-b173-840a3e7b3cf1","ios":"levelo://app?vid=8b00ab21-75bd-4a6c-b173-840a3e7b3cf1"},"vehicle_type_id":"4","last_reported":1723410504,"current_range_meters":30000,"station_id":"ce4bgt92rcd13ifvqcg0","pricing_plan_id":"cebpf4jnsgd1na2vs0mg"},{"bike_id":"61eb0437-6ba5-4f1b-a2e8-31dcfd4fb8e7","system_id":"levelo_inurba_marseille","lat":43.317132,"lon":5.37625,"is_reserved":false,"is_disabled":false,"rental_uris":{"android":"levelo://app?vid=61eb0437-6ba5-4f1b-a2e8-31dcfd4fb8e7","ios":"levelo://app?vid=61eb0437-6ba5-4f1b-a2e8-31dcfd4fb8e7"},"vehicle_type_id":"4","last_reported":1723410504,"current_range_meters":17200,"station_id":"","pricing_plan_id":"cebpf4jnsgd1na2vs0mg"},{"bike_id":"fe70482e-2323-4430-9081-09c3d76f56a8","system_id":"levelo_inurba_marseille","lat":43.307945,"lon":5.376487,"is_reserved":false,"is_disabled":false,"rental_uris":{"android":"levelo://app?vid=fe70482e-2323-4430-9081-09c3d76f56a8","ios":"levelo://app?vid=fe70482e-2323-4430-9081-09c3d76f56a8"},"vehicle_type_id":"4","last_reported":1723410504,"current_range_meters":18400,"station_id":"ce4bgv92rcd13ifvqcq0","pricing_plan_id":"cebpf4jnsgd1na2vs0mg"},{"bike_id":"8fcacba4-3cb3-43ee-89db-d3fdf8af5144","system_id":"levelo_inurba_marseille","lat":43.30778,"lon":5.37652,"is_reserved":false,"is_disabled":false,"rental_uris":{"android":"levelo://app?vid=8fcacba4-3cb3-43ee-89db-d3fdf8af5144","ios":"levelo://app?vid=8fcacba4-3cb3-43ee-89db-d3fdf8af5144"},"vehicle_type_id":"4","last_reported":1723410504,"current_range_meters":23200,"station_id":"","pricing_plan_id":"cebpf4jnsgd1na2vs0mg"},{"bike_id":"45d74044-8fd5-426e-ac22-3f90cc3f6e58","system_id":"levelo_inurba_marseille","lat":43.317075,"lon":5.377367,"is_reserved":false,"is_disabled":false,"rental_uris":{"android":"levelo://app?vid=45d74044-8fd5-426e-ac22-3f90cc3f6e58","ios":"levelo://app?vid=45d74044-8fd5-426e-ac22-3f90cc3f6e58"},"vehicle_type_id":"4","last_reported":1723410504,"current_range_meters":11200,"station_id":"ce4bgth2rcd13ifvqch0","pricing_plan_id":"cebpf4jnsgd1na2vs0mg"},{"bike_id":"e48268b3-38bf-42a8-8810-6ebea97a4d6f","system_id":"levelo_inurba_marseille","lat":43.30569,"lon":5.37566,"is_reserved":false,"is_disabled":false,"rental_uris":{"android":"levelo://app?vid=e48268b3-38bf-42a8-8810-6ebea97a4d6f","ios":"levelo://app?vid=e48268b3-38bf-42a8-8810-6ebea97a4d6f"},"vehicle_type_id":"4","last_reported":1723410504,"current_range_meters":18800,"station_id":"","pricing_plan_id":"cebpf4jnsgd1na2vs0mg"},{"bike_id":"303137a6-ce0b-4306-b88e-00f89ba0a582","system_id":"levelo_inurba_marseille","lat":43.303187,"lon":5.366657,"is_reserved":false,"is_disabled":false,"rental_uris":{"android":"levelo://app?vid=303137a6-ce0b-4306-b88e-00f89ba0a582","ios":"levelo://app?vid=303137a6-ce0b-4306-b88e-00f89ba0a582"},"vehicle_type_id":"4","last_reported":1723410504,"current_range_meters":0,"station_id":"","pricing_plan_id":"cebpf4jnsgd1na2vs0mg"},{"bike_id":"febe2268-e7f9-4ebf-8980-72b0f11263fa","system_id":"levelo_inurba_marseille","lat":43.308012,"lon":5.381511,"is_reserved":false,"is_disabled":false,"rental_uris":{"android":"levelo://app?vid=febe2268-e7f9-4ebf-8980-72b0f11263fa","ios":"levelo://app?vid=febe2268-e7f9-4ebf-8980-72b0f11263fa"},"vehicle_type_id":"4","last_reported":1723410504,"current_range_meters":27600,"station_id":"ce4bgt12rcd13ifvqce0","pricing_plan_id":"cebpf4jnsgd1na2vs0mg"},{"bike_id":"775303b2-6033-4556-86b6-7277ace4edd3","system_id":"levelo_inurba_marseille","lat":43.308012,"lon":5.381511,"is_reserved":false,"is_disabled":false,"rental_uris":{"android":"levelo://app?vid=775303b2-6033-4556-86b6-7277ace4edd3","ios":"levelo://app?vid=775303b2-6033-4556-86b6-7277ace4edd3"},"vehicle_type_id":"4","last_reported":1723410504,"current_range_meters":17200,"station_id":"ce4bgt12rcd13ifvqce0","pricing_plan_id":"cebpf4jnsgd1na2vs0mg"},{"bike_id":"997c2af1-1f56-4727-a2a8-4a2483b3248c","system_id":"levelo_inurba_marseille","lat":43.324771,"lon":5.36557,"is_reserved":false,"is_disabled":false,"rental_uris":{"android":"levelo://app?vid=997c2af1-1f56-4727-a2a8-4a2483b3248c","ios":"levelo://app?vid=997c2af1-1f56-4727-a2a8-4a2483b3248c"},"vehicle_type_id":"4","last_reported":1723410504,"current_range_meters":19200,"station_id":"ce4bhs12rcd13ifvqhvg","pricing_plan_id":"cebpf4jnsgd1na2vs0mg"},{"bike_id":"84dfeaee-f2aa-4ff6-a3ce-561e65c6ac0b","system_id":"levelo_inurba_marseille","lat":43.324771,"lon":5.36557,"is_reserved":false,"is_disabled":false,"rental_uris":{"android":"levelo://app?vid=84dfeaee-f2aa-4ff6-a3ce-561e65c6ac0b","ios":"levelo://app?vid=84dfeaee-f2aa-4ff6-a3ce-561e65c6ac0b"},"vehicle_type_id":"4","last_reported":1723410504,"current_range_meters":31200,"station_id":"ce4bhs12rcd13ifvqhvg","pricing_plan_id":"cebpf4jnsgd1na2vs0mg"},{"bike_id":"410f9c20-9d4f-45b6-a78d-022a04d65468","system_id":"levelo_inurba_marseille","lat":43.324771,"lon":5.36557,"is_reserved":false,"is_disabled":false,"rental_uris":{"android":"levelo://app?vid=410f9c20-9d4f-45b6-a78d-022a04d65468","ios":"levelo://app?vid=410f9c20-9d4f-45b6-a78d-022a04d65468"},"vehicle_type_id":"4","last_reported":1723410504,"current_range_meters":3200,"station_id":"ce4bhs12rcd13ifvqhvg","pricing_plan_id":"cebpf4jnsgd1na2vs0mg"},{"bike_id":"5c535bb7-0115-4b27-98de-dfc9f80f4d1c","system_id":"levelo_inurba_marseille","lat":43.324771,"lon":5.36557,"is_reserved":false,"is_disabled":false,"rental_uris":{"android":"levelo://app?vid=5c535bb7-0115-4b27-98de-dfc9f80f4d1c","ios":"levelo://app?vid=5c535bb7-0115-4b27-98de-dfc9f80f4d1c"},"vehicle_type_id":"4","last_reported":1723410504,"current_range_meters":9600,"station_id":"ce4bhs12rcd13ifvqhvg","pricing_plan_id":"cebpf4jnsgd1na2vs0mg"},{"bike_id":"a7ae51a8-1c4d-47ad-baa5-683e7230417c","system_id":"levelo_inurba_marseille","lat":43.324771,"lon":5.36557,"is_reserved":false,"is_disabled":false,"rental_uris":{"android":"levelo://app?vid=a7ae51a8-1c4d-47ad-baa5-683e7230417c","ios":"levelo://app?vid=a7ae51a8-1c4d-47ad-baa5-683e7230417c"},"vehicle_type_id":"4","last_reported":1723410504,"current_range_meters":31200,"station_id":"ce4bhs12rcd13ifvqhvg","pricing_plan_id":"cebpf4jnsgd1na2vs0mg"},{"bike_id":"da8d3dd8-5bdf-4478-bce5-4f01601353c8","system_id":"levelo_inurba_marseille","lat":43.32488,"lon":5.36621,"is_reserved":false,"is_disabled":false,"rental_uris":{"android":"levelo://app?vid=da8d3dd8-5bdf-4478-bce5-4f01601353c8","ios":"levelo://app?vid=da8d3dd8-5bdf-4478-bce5-4f01601353c8"},"vehicle_type_id":"4","last_reported":1723410504,"current_range_meters":23200,"station_id":"","pricing_plan_id":"cebpf4jnsgd1na2vs0mg"},{"bike_id":"05ebc7a7-713f-4d4a-915a-d3a3f71aa858","system_id":"levelo_inurba_marseille","lat":43.310804,"lon":5.38359,"is_reserved":false,"is_disabled":false,"rental_uris":{"android":"levelo://app?vid=05ebc7a7-713f-4d4a-915a-d3a3f71aa858","ios":"levelo://app?vid=05ebc7a7-713f-4d4a-915a-d3a3f71aa858"},"vehicle_type_id":"4","last_reported":1723410504,"current_range_meters":18000,"station_id":"ce4bgv92rcd13ifvqcr0","pricing_plan_id":"cebpf4jnsgd1na2vs0mg"},{"bike_id":"1c0b8bea-6c11-46eb-a908-ce1fc0d1042c","system_id":"levelo_inurba_marseille","lat":43.30278,"lon":5.37707,"is_reserved":false,"is_disabled":false,"rental_uris":{"android":"levelo://app?vid=1c0b8bea-6c11-46eb-a908-ce1fc0d1042c","ios":"levelo://app?vid=1c0b8bea-6c11-46eb-a908-ce1fc0d1042c"},"vehicle_type_id":"4","last_reported":1723410504,"current_range_meters":30800,"station_id":"ce4bguh2rcd13ifvqcj0","pricing_plan_id":"cebpf4jnsgd1na2vs0mg"},{"bike_id":"a8fcfd70-c49f-479b-afbb-02c56ea78b29","system_id":"levelo_inurba_marseille","lat":43.30142,"lon":5.37412,"is_reserved":false,"is_disabled":false,"rental_uris":{"android":"levelo://app?vid=a8fcfd70-c49f-479b-afbb-02c56ea78b29","ios":"levelo://app?vid=a8fcfd70-c49f-479b-afbb-02c56ea78b29"},"vehicle_type_id":"4","last_reported":1723410504,"current_range_meters":8800,"station_id":"ce4bgs92rcd13ifvqcc0","pricing_plan_id":"cebpf4jnsgd1na2vs0mg"},{"bike_id":"db8f5f3d-1278-4ae2-aba9-3d81e832cc94","system_id":"levelo_inurba_marseille","lat":43.316095,"lon":5.38387,"is_reserved":false,"is_disabled":false,"rental_uris":{"android":"levelo://app?vid=db8f5f3d-1278-4ae2-aba9-3d81e832cc94","ios":"levelo://app?vid=db8f5f3d-1278-4ae2-aba9-3d81e832cc94"},"vehicle_type_id":"4","last_reported":1723410504,"current_range_meters":6800,"station_id":"","pricing_plan_id":"cebpf4jnsgd1na2vs0mg"},{"bike_id":"057ccf9f-39fa-445b-aa8c-1553727eb8e1","system_id":"levelo_inurba_marseille","lat":43.319946,"lon":5.381492,"is_reserved":false,"is_disabled":false,"rental_uris":{"android":"levelo://app?vid=057ccf9f-39fa-445b-aa8c-1553727eb8e1","ios":"levelo://app?vid=057ccf9f-39fa-445b-aa8c-1553727eb8e1"},"vehicle_type_id":"4","last_reported":1723410504,"current_range_meters":29200,"station_id":"ce4bhr12rcd13ifvqhpg","pricing_plan_id":"cebpf4jnsgd1na2vs0mg"},{"bike_id":"93251842-21e4-4970-8026-f9acb9b172c9","system_id":"levelo_inurba_marseille","lat":43.319935,"lon":5.381699,"is_reserved":false,"is_disabled":false,"rental_uris":{"android":"levelo://app?vid=93251842-21e4-4970-8026-f9acb9b172c9","ios":"levelo://app?vid=93251842-21e4-4970-8026-f9acb9b172c9"},"vehicle_type_id":"4","last_reported":1723410504,"current_range_meters":16800,"station_id":"ce4bhr12rcd13ifvqhpg","pricing_plan_id":"cebpf4jnsgd1na2vs0mg"},{"bike_id":"52eb169c-3428-4685-a12a-50b291fd0b04","system_id":"levelo_inurba_marseille","lat":43.319935,"lon":5.381699,"is_reserved":false,"is_disabled":false,"rental_uris":{"android":"levelo://app?vid=52eb169c-3428-4685-a12a-50b291fd0b04","ios":"levelo://app?vid=52eb169c-3428-4685-a12a-50b291fd0b04"},"vehicle_type_id":"4","last_reported":1723410504,"current_range_meters":29200,"station_id":"ce4bhr12rcd13ifvqhpg","pricing_plan_id":"cebpf4jnsgd1na2vs0mg"},{"bike_id":"beb52010-14f1-424b-a2bb-190e8ffb2b0c","system_id":"levelo_inurba_marseille","lat":43.319935,"lon":5.381699,"is_reserved":false,"is_disabled":false,"rental_uris":{"android":"levelo://app?vid=beb52010-14f1-424b-a2bb-190e8ffb2b0c","ios":"levelo://app?vid=beb52010-14f1-424b-a2bb-190e8ffb2b0c"},"vehicle_type_id":"4","last_reported":1723410504,"current_range_meters":11600,"station_id":"ce4bhr12rcd13ifvqhpg","pricing_plan_id":"cebpf4jnsgd1na2vs0mg"},{"bike_id":"d0c3e8f2-e0d6-42e7-94ec-3d680bd966f0","system_id":"levelo_inurba_marseille","lat":43.319935,"lon":5.381699,"is_reserved":false,"is_disabled":false,"rental_uris":{"android":"levelo://app?vid=d0c3e8f2-e0d6-42e7-94ec-3d680bd966f0","ios":"levelo://app?vid=d0c3e8f2-e0d6-42e7-94ec-3d680bd966f0"},"vehicle_type_id":"4","last_reported":1723410504,"current_range_meters":31600,"station_id":"ce4bhr12rcd13ifvqhpg","pricing_plan_id":"cebpf4jnsgd1na2vs0mg"},{"bike_id":"dc298617-b574-4384-9dcf-a2b4873d4519","system_id":"levelo_inurba_marseille","lat":43.313571,"lon":5.384829,"is_reserved":false,"is_disabled":false,"rental_uris":{"android":"levelo://app?vid=dc298617-b574-4384-9dcf-a2b4873d4519","ios":"levelo://app?vid=dc298617-b574-4384-9dcf-a2b4873d4519"},"vehicle_type_id":"4","last_reported":1723410504,"current_range_meters":7600,"station_id":"ce4bgt92rcd13ifvqcf0","pricing_plan_id":"cebpf4jnsgd1na2vs0mg"},{"bike_id":"8e5bf58c-300a-4cd2-ae3d-d8eb91270ea4","system_id":"levelo_inurba_marseille","lat":43.313571,"lon":5.384829,"is_reserved":false,"is_disabled":false,"rental_uris":{"android":"levelo://app?vid=8e5bf58c-300a-4cd2-ae3d-d8eb91270ea4","ios":"levelo://app?vid=8e5bf58c-300a-4cd2-ae3d-d8eb91270ea4"},"vehicle_type_id":"4","last_reported":1723410504,"current_range_meters":28000,"station_id":"ce4bgt92rcd13ifvqcf0","pricing_plan_id":"cebpf4jnsgd1na2vs0mg"},{"bike_id":"4c6cfc18-18d5-4886-9aee-c14ad9eb9641","system_id":"levelo_inurba_marseille","lat":43.29939,"lon":5.36553,"is_reserved":false,"is_disabled":false,"rental_uris":{"android":"levelo://app?vid=4c6cfc18-18d5-4886-9aee-c14ad9eb9641","ios":"levelo://app?vid=4c6cfc18-18d5-4886-9aee-c14ad9eb9641"},"vehicle_type_id":"4","last_reported":1723410504,"current_range_meters":7200,"station_id":"ce4bgm92rcd13ifvqbr0","pricing_plan_id":"cebpf4jnsgd1na2vs0mg"},{"bike_id":"dabc9138-9a4a-49a8-bf02-1234d4b6ab04","system_id":"levelo_inurba_marseille","lat":43.305364,"lon":5.384119,"is_reserved":false,"is_disabled":false,"rental_uris":{"android":"levelo://app?vid=dabc9138-9a4a-49a8-bf02-1234d4b6ab04","ios":"levelo://app?vid=dabc9138-9a4a-49a8-bf02-1234d4b6ab04"},"vehicle_type_id":"4","last_reported":1723410504,"current_range_meters":9200,"station_id":"ce4bgg92rcd13ifvqb30","pricing_plan_id":"cebpf4jnsgd1na2vs0mg"},{"bike_id":"0dc1a97c-296b-442b-b691-6903f909ebc6","system_id":"levelo_inurba_marseille","lat":43.298433,"lon":5.362774,"is_reserved":false,"is_disabled":false,"rental_uris":{"android":"levelo://app?vid=0dc1a97c-296b-442b-b691-6903f909ebc6","ios":"levelo://app?vid=0dc1a97c-296b-442b-b691-6903f909ebc6"},"vehicle_type_id":"4","last_reported":1723410504,"current_range_meters":1600,"station_id":"ce4bgpp2rcd13ifvqc3g","pricing_plan_id":"cebpf4jnsgd1na2vs0mg"},{"bike_id":"e63c9f8c-dcd9-4198-b4ea-516d12be29d9","system_id":"levelo_inurba_marseille","lat":43.311722,"lon":5.387247,"is_reserved":false,"is_disabled":false,"rental_uris":{"android":"levelo://app?vid=e63c9f8c-dcd9-4198-b4ea-516d12be29d9","ios":"levelo://app?vid=e63c9f8c-dcd9-4198-b4ea-516d12be29d9"},"vehicle_type_id":"4","last_reported":1723410504,"current_range_meters":12400,"station_id":"ce4bgv12rcd13ifvqcp0","pricing_plan_id":"cebpf4jnsgd1na2vs0mg"},{"bike_id":"9b3dd325-1bec-49a9-97a4-2aed7e788597","system_id":"levelo_inurba_marseille","lat":43.311722,"lon":5.387247,"is_reserved":false,"is_disabled":false,"rental_uris":{"android":"levelo://app?vid=9b3dd325-1bec-49a9-97a4-2aed7e788597","ios":"levelo://app?vid=9b3dd325-1bec-49a9-97a4-2aed7e788597"},"vehicle_type_id":"4","last_reported":1723410504,"current_range_meters":27200,"station_id":"ce4bgv12rcd13ifvqcp0","pricing_plan_id":"cebpf4jnsgd1na2vs0mg"},{"bike_id":"301ad31f-589c-48bc-8411-878c6bd8e9e1","system_id":"levelo_inurba_marseille","lat":43.311722,"lon":5.387247,"is_reserved":false,"is_disabled":false,"rental_uris":{"android":"levelo://app?vid=301ad31f-589c-48bc-8411-878c6bd8e9e1","ios":"levelo://app?vid=301ad31f-589c-48bc-8411-878c6bd8e9e1"},"vehicle_type_id":"4","last_reported":1723410504,"current_range_meters":10800,"station_id":"ce4bgv12rcd13ifvqcp0","pricing_plan_id":"cebpf4jnsgd1na2vs0mg"},{"bike_id":"1f7b93ea-120d-4e07-9dda-b5fdac1fd64f","system_id":"levelo_inurba_marseille","lat":43.32264,"lon":5.38287,"is_reserved":false,"is_disabled":false,"rental_uris":{"android":"levelo://app?vid=1f7b93ea-120d-4e07-9dda-b5fdac1fd64f","ios":"levelo://app?vid=1f7b93ea-120d-4e07-9dda-b5fdac1fd64f"},"vehicle_type_id":"4","last_reported":1723410504,"current_range_meters":17600,"station_id":"ce4bhr12rcd13ifvqhqg","pricing_plan_id":"cebpf4jnsgd1na2vs0mg"},{"bike_id":"169df4f7-7889-4620-aaca-273ad009ea53","system_id":"levelo_inurba_marseille","lat":43.29779,"lon":5.36277,"is_reserved":false,"is_disabled":false,"rental_uris":{"android":"levelo://app?vid=169df4f7-7889-4620-aaca-273ad009ea53","ios":"levelo://app?vid=169df4f7-7889-4620-aaca-273ad009ea53"},"vehicle_type_id":"4","last_reported":1723410504,"current_range_meters":8000,"station_id":"","pricing_plan_id":"cebpf4jnsgd1na2vs0mg"},{"bike_id":"286a9252-926e-4de5-809b-8f6628f3aa4c","system_id":"levelo_inurba_marseille","lat":43.296131,"lon":5.370791,"is_reserved":false,"is_disabled":false,"rental_uris":{"android":"levelo://app?vid=286a9252-926e-4de5-809b-8f6628f3aa4c","ios":"levelo://app?vid=286a9252-926e-4de5-809b-8f6628f3aa4c"},"vehicle_type_id":"4","last_reported":1723410504,"current_range_meters":12800,"station_id":"ce4bgnh2rcd13ifvqc0g","pricing_plan_id":"cebpf4jnsgd1na2vs0mg"},{"bike_id":"5e7828a8-c5bd-4288-a610-12603fb1ad0e","system_id":"levelo_inurba_marseille","lat":43.29573,"lon":5.367355,"is_reserved":false,"is_disabled":false,"rental_uris":{"android":"levelo://app?vid=5e7828a8-c5bd-4288-a610-12603fb1ad0e","ios":"levelo://app?vid=5e7828a8-c5bd-4288-a610-12603fb1ad0e"},"vehicle_type_id":"4","last_reported":1723410504,"current_range_meters":0,"station_id":"ce4bgph2rcd13ifvqc2g","pricing_plan_id":"cebpf4jnsgd1na2vs0mg"},{"bike_id":"3d133407-c7ce-46ca-ab1b-2cb230a14640","system_id":"levelo_inurba_marseille","lat":43.299028,"lon":5.381509,"is_reserved":false,"is_disabled":false,"rental_uris":{"android":"levelo://app?vid=3d133407-c7ce-46ca-ab1b-2cb230a14640","ios":"levelo://app?vid=3d133407-c7ce-46ca-ab1b-2cb230a14640"},"vehicle_type_id":"4","last_reported":1723410504,"current_range_meters":7600,"station_id":"ce4bgj12rcd13ifvqbc0","pricing_plan_id":"cebpf4jnsgd1na2vs0mg"},{"bike_id":"46a1577c-56f6-4ad2-a58a-bf4f16b12e22","system_id":"levelo_inurba_marseille","lat":43.296921,"lon":5.376579,"is_reserved":false,"is_disabled":false,"rental_uris":{"android":"levelo://app?vid=46a1577c-56f6-4ad2-a58a-bf4f16b12e22","ios":"levelo://app?vid=46a1577c-56f6-4ad2-a58a-bf4f16b12e22"},"vehicle_type_id":"4","last_reported":1723410504,"current_range_meters":29200,"station_id":"ce4bgkh2rcd13ifvqbl0","pricing_plan_id":"cebpf4jnsgd1na2vs0mg"},{"bike_id":"3bc5d767-3fc7-436d-bd94-584c13ac3370","system_id":"levelo_inurba_marseille","lat":43.296935,"lon":5.376544,"is_reserved":false,"is_disabled":false,"rental_uris":{"android":"levelo://app?vid=3bc5d767-3fc7-436d-bd94-584c13ac3370","ios":"levelo://app?vid=3bc5d767-3fc7-436d-bd94-584c13ac3370"},"vehicle_type_id":"4","last_reported":1723410504,"current_range_meters":2800,"station_id":"ce4bgkh2rcd13ifvqbl0","pricing_plan_id":"cebpf4jnsgd1na2vs0mg"},{"bike_id":"ec2c8e42-63b6-4319-b2b6-c702998b7b07","system_id":"levelo_inurba_marseille","lat":43.309589,"lon":5.390258,"is_reserved":false,"is_disabled":false,"rental_uris":{"android":"levelo://app?vid=ec2c8e42-63b6-4319-b2b6-c702998b7b07","ios":"levelo://app?vid=ec2c8e42-63b6-4319-b2b6-c702998b7b07"},"vehicle_type_id":"4","last_reported":1723410504,"current_range_meters":16400,"station_id":"ce4bgup2rcd13ifvqco0","pricing_plan_id":"cebpf4jnsgd1na2vs0mg"},{"bike_id":"77fa85f0-d993-4301-b7ed-38b06370819a","system_id":"levelo_inurba_marseille","lat":43.322561,"lon":5.386856,"is_reserved":false,"is_disabled":false,"rental_uris":{"android":"levelo://app?vid=77fa85f0-d993-4301-b7ed-38b06370819a","ios":"levelo://app?vid=77fa85f0-d993-4301-b7ed-38b06370819a"},"vehicle_type_id":"4","last_reported":1723410504,"current_range_meters":4800,"station_id":"","pricing_plan_id":"cebpf4jnsgd1na2vs0mg"},{"bike_id":"e607c7f8-3bd9-4d66-8809-7ca3902a3a3f","system_id":"levelo_inurba_marseille","lat":43.317557,"lon":5.390173,"is_reserved":false,"is_disabled":false,"rental_uris":{"android":"levelo://app?vid=e607c7f8-3bd9-4d66-8809-7ca3902a3a3f","ios":"levelo://app?vid=e607c7f8-3bd9-4d66-8809-7ca3902a3a3f"},"vehicle_type_id":"4","last_reported":1723410504,"current_range_meters":14400,"station_id":"ce4bhqp2rcd13ifvqhng","pricing_plan_id":"cebpf4jnsgd1na2vs0mg"},{"bike_id":"1a65652a-1d6e-4276-98fe-454cc1ce7727","system_id":"levelo_inurba_marseille","lat":43.29578,"lon":5.37508,"is_reserved":false,"is_disabled":false,"rental_uris":{"android":"levelo://app?vid=1a65652a-1d6e-4276-98fe-454cc1ce7727","ios":"levelo://app?vid=1a65652a-1d6e-4276-98fe-454cc1ce7727"},"vehicle_type_id":"4","last_reported":1723410504,"current_range_meters":30000,"station_id":"ce4bgh92rcd13ifvqb50","pricing_plan_id":"cebpf4jnsgd1na2vs0mg"},{"bike_id":"682c62c8-5b2b-4438-ac33-12c5f6edb4fb","system_id":"levelo_inurba_marseille","lat":43.287184,"lon":5.37937,"is_reserved":false,"is_disabled":false,"rental_uris":{"android":"levelo://app?vid=682c62c8-5b2b-4438-ac33-12c5f6edb4fb","ios":"levelo://app?vid=682c62c8-5b2b-4438-ac33-12c5f6edb4fb"},"vehicle_type_id":"4","last_reported":1723410504,"current_range_meters":12000,"station_id":"ce4bh9p2rcd13ifvqec0","pricing_plan_id":"cebpf4jnsgd1na2vs0mg"},{"bike_id":"4ebf2944-b9fb-4b3a-ae78-f880f8c75591","system_id":"levelo_inurba_marseille","lat":43.29569,"lon":5.37518,"is_reserved":false,"is_disabled":false,"rental_uris":{"android":"levelo://app?vid=4ebf2944-b9fb-4b3a-ae78-f880f8c75591","ios":"levelo://app?vid=4ebf2944-b9fb-4b3a-ae78-f880f8c75591"},"vehicle_type_id":"4","last_reported":1723410504,"current_range_meters":21200,"station_id":"ce4bgh92rcd13ifvqb50","pricing_plan_id":"cebpf4jnsgd1na2vs0mg"},{"bike_id":"20065f85-41e9-4f33-a0a5-1aab45c5bb86","system_id":"levelo_inurba_marseille","lat":43.296263,"lon":5.377094,"is_reserved":false,"is_disabled":false,"rental_uris":{"android":"levelo://app?vid=20065f85-41e9-4f33-a0a5-1aab45c5bb86","ios":"levelo://app?vid=20065f85-41e9-4f33-a0a5-1aab45c5bb86"},"vehicle_type_id":"4","last_reported":1723410504,"current_range_meters":0,"station_id":"ce4bgi92rcd13ifvqb90","pricing_plan_id":"cebpf4jnsgd1na2vs0mg"},{"bike_id":"0d168d84-3331-4963-99e2-547f0ffd3c67","system_id":"levelo_inurba_marseille","lat":43.304606,"lon":5.379026,"is_reserved":false,"is_disabled":false,"rental_uris":{"android":"levelo://app?vid=0d168d84-3331-4963-99e2-547f0ffd3c67","ios":"levelo://app?vid=0d168d84-3331-4963-99e2-547f0ffd3c67"},"vehicle_type_id":"4","last_reported":1723410504,"current_range_meters":26000,"station_id":"ce4bgup2rcd13ifvqcn0","pricing_plan_id":"cebpf4jnsgd1na2vs0mg"},{"bike_id":"824fe5c0-064e-400a-afad-c5ac6cda6d71","system_id":"levelo_inurba_marseille","lat":43.32367,"lon":5.388836,"is_reserved":false,"is_disabled":false,"rental_uris":{"android":"levelo://app?vid=824fe5c0-064e-400a-afad-c5ac6cda6d71","ios":"levelo://app?vid=824fe5c0-064e-400a-afad-c5ac6cda6d71"},"vehicle_type_id":"4","last_reported":1723410504,"current_range_meters":22400,"station_id":"ce4bhqp2rcd13ifvqhog","pricing_plan_id":"cebpf4jnsgd1na2vs0mg"},{"bike_id":"52c87a14-40fd-41dc-a107-8ae0776ada12","system_id":"levelo_inurba_marseille","lat":43.32367,"lon":5.38891,"is_reserved":false,"is_disabled":false,"rental_uris":{"android":"levelo://app?vid=52c87a14-40fd-41dc-a107-8ae0776ada12","ios":"levelo://app?vid=52c87a14-40fd-41dc-a107-8ae0776ada12"},"vehicle_type_id":"4","last_reported":1723410504,"current_range_meters":25200,"station_id":"ce4bhqp2rcd13ifvqhog","pricing_plan_id":"cebpf4jnsgd1na2vs0mg"},{"bike_id":"c77dc8cd-b50b-4a34-a424-1dbe723b266a","system_id":"levelo_inurba_marseille","lat":43.29596,"lon":5.38097,"is_reserved":false,"is_disabled":false,"rental_uris":{"android":"levelo://app?vid=c77dc8cd-b50b-4a34-a424-1dbe723b266a","ios":"levelo://app?vid=c77dc8cd-b50b-4a34-a424-1dbe723b266a"},"vehicle_type_id":"4","last_reported":1723410504,"current_range_meters":26000,"station_id":"ce4bgl12rcd13ifvqbo0","pricing_plan_id":"cebpf4jnsgd1na2vs0mg"},{"bike_id":"c5074bf4-76f1-4bde-90f9-0ef82b263ce5","system_id":"levelo_inurba_marseille","lat":43.29602,"lon":5.381084,"is_reserved":false,"is_disabled":false,"rental_uris":{"android":"levelo://app?vid=c5074bf4-76f1-4bde-90f9-0ef82b263ce5","ios":"levelo://app?vid=c5074bf4-76f1-4bde-90f9-0ef82b263ce5"},"vehicle_type_id":"4","last_reported":1723410504,"current_range_meters":2000,"station_id":"ce4bgl12rcd13ifvqbo0","pricing_plan_id":"cebpf4jnsgd1na2vs0mg"},{"bike_id":"e02e33ea-2c12-4f85-80d1-e4dd2274013d","system_id":"levelo_inurba_marseille","lat":43.293259,"lon":5.371586,"is_reserved":false,"is_disabled":false,"rental_uris":{"android":"levelo://app?vid=e02e33ea-2c12-4f85-80d1-e4dd2274013d","ios":"levelo://app?vid=e02e33ea-2c12-4f85-80d1-e4dd2274013d"},"vehicle_type_id":"4","last_reported":1723410504,"current_range_meters":12000,"station_id":"ce4bgh92rcd13ifvqb40","pricing_plan_id":"cebpf4jnsgd1na2vs0mg"},{"bike_id":"834da4a7-2421-40d9-9e29-45c17cfd4e01","system_id":"levelo_inurba_marseille","lat":43.29277,"lon":5.36841,"is_reserved":false,"is_disabled":false,"rental_uris":{"android":"levelo://app?vid=834da4a7-2421-40d9-9e29-45c17cfd4e01","ios":"levelo://app?vid=834da4a7-2421-40d9-9e29-45c17cfd4e01"},"vehicle_type_id":"4","last_reported":1723410504,"current_range_meters":0,"station_id":"ce4bhbp2rcd13ifvqesg","pricing_plan_id":"cebpf4jnsgd1na2vs0mg"},{"bike_id":"0a456c6e-69a6-4df6-88ba-7e003e45863e","system_id":"levelo_inurba_marseille","lat":43.29275,"lon":5.36849,"is_reserved":false,"is_disabled":false,"rental_uris":{"android":"levelo://app?vid=0a456c6e-69a6-4df6-88ba-7e003e45863e","ios":"levelo://app?vid=0a456c6e-69a6-4df6-88ba-7e003e45863e"},"vehicle_type_id":"4","last_reported":1723410504,"current_range_meters":0,"station_id":"ce4bhbp2rcd13ifvqesg","pricing_plan_id":"cebpf4jnsgd1na2vs0mg"},{"bike_id":"3dd595f9-3540-4bd9-80e7-3e742fe32147","system_id":"levelo_inurba_marseille","lat":43.292749,"lon":5.368402,"is_reserved":false,"is_disabled":false,"rental_uris":{"android":"levelo://app?vid=3dd595f9-3540-4bd9-80e7-3e742fe32147","ios":"levelo://app?vid=3dd595f9-3540-4bd9-80e7-3e742fe32147"},"vehicle_type_id":"4","last_reported":1723410504,"current_range_meters":27200,"station_id":"ce4bhbp2rcd13ifvqesg","pricing_plan_id":"cebpf4jnsgd1na2vs0mg"},{"bike_id":"5855ee00-b91c-4985-b6b1-c312ecd80f66","system_id":"levelo_inurba_marseille","lat":43.29272,"lon":5.36852,"is_reserved":false,"is_disabled":false,"rental_uris":{"android":"levelo://app?vid=5855ee00-b91c-4985-b6b1-c312ecd80f66","ios":"levelo://app?vid=5855ee00-b91c-4985-b6b1-c312ecd80f66"},"vehicle_type_id":"4","last_reported":1723410504,"current_range_meters":0,"station_id":"ce4bhbp2rcd13ifvqesg","pricing_plan_id":"cebpf4jnsgd1na2vs0mg"},{"bike_id":"b3f73f4d-6a24-410b-ba22-34b9c69922f4","system_id":"levelo_inurba_marseille","lat":43.298517,"lon":5.386508,"is_reserved":false,"is_disabled":false,"rental_uris":{"android":"levelo://app?vid=b3f73f4d-6a24-410b-ba22-34b9c69922f4","ios":"levelo://app?vid=b3f73f4d-6a24-410b-ba22-34b9c69922f4"},"vehicle_type_id":"4","last_reported":1723410504,"current_range_meters":30000,"station_id":"","pricing_plan_id":"cebpf4jnsgd1na2vs0mg"},{"bike_id":"c4e27678-114d-4227-8c9d-91a0c94b4fb8","system_id":"levelo_inurba_marseille","lat":43.293009,"lon":5.374584,"is_reserved":false,"is_disabled":false,"rental_uris":{"android":"levelo://app?vid=c4e27678-114d-4227-8c9d-91a0c94b4fb8","ios":"levelo://app?vid=c4e27678-114d-4227-8c9d-91a0c94b4fb8"},"vehicle_type_id":"4","last_reported":1723410504,"current_range_meters":0,"station_id":"ce4bgi12rcd13ifvqb70","pricing_plan_id":"cebpf4jnsgd1na2vs0mg"},{"bike_id":"730f023e-3dcb-42ff-a3cb-15b34eed51be","system_id":"levelo_inurba_marseille","lat":43.30605,"lon":5.39355,"is_reserved":false,"is_disabled":false,"rental_uris":{"android":"levelo://app?vid=730f023e-3dcb-42ff-a3cb-15b34eed51be","ios":"levelo://app?vid=730f023e-3dcb-42ff-a3cb-15b34eed51be"},"vehicle_type_id":"4","last_reported":1723410504,"current_range_meters":31200,"station_id":"ce4bh0p2rcd13ifvqd80","pricing_plan_id":"cebpf4jnsgd1na2vs0mg"},{"bike_id":"94388598-191c-4d1b-8877-7639bf017396","system_id":"levelo_inurba_marseille","lat":43.293009,"lon":5.374584,"is_reserved":false,"is_disabled":false,"rental_uris":{"android":"levelo://app?vid=94388598-191c-4d1b-8877-7639bf017396","ios":"levelo://app?vid=94388598-191c-4d1b-8877-7639bf017396"},"vehicle_type_id":"4","last_reported":1723410504,"current_range_meters":26400,"station_id":"ce4bgi12rcd13ifvqb70","pricing_plan_id":"cebpf4jnsgd1na2vs0mg"},{"bike_id":"b64bf6a8-eeff-4975-b088-3c485f1390c9","system_id":"levelo_inurba_marseille","lat":43.305994,"lon":5.393687,"is_reserved":false,"is_disabled":false,"rental_uris":{"android":"levelo://app?vid=b64bf6a8-eeff-4975-b088-3c485f1390c9","ios":"levelo://app?vid=b64bf6a8-eeff-4975-b088-3c485f1390c9"},"vehicle_type_id":"4","last_reported":1723410504,"current_range_meters":24400,"station_id":"ce4bh0p2rcd13ifvqd80","pricing_plan_id":"cebpf4jnsgd1na2vs0mg"},{"bike_id":"f0d405d1-4112-497f-b2c2-84feebc1af3d","system_id":"levelo_inurba_marseille","lat":43.29293,"lon":5.37462,"is_reserved":false,"is_disabled":false,"rental_uris":{"android":"levelo://app?vid=f0d405d1-4112-497f-b2c2-84feebc1af3d","ios":"levelo://app?vid=f0d405d1-4112-497f-b2c2-84feebc1af3d"},"vehicle_type_id":"4","last_reported":1723410504,"current_range_meters":0,"station_id":"ce4bgi12rcd13ifvqb70","pricing_plan_id":"cebpf4jnsgd1na2vs0mg"},{"bike_id":"8d37495d-9961-45f8-ba67-ee81725ae3ae","system_id":"levelo_inurba_marseille","lat":43.29228,"lon":5.36363,"is_reserved":false,"is_disabled":false,"rental_uris":{"android":"levelo://app?vid=8d37495d-9961-45f8-ba67-ee81725ae3ae","ios":"levelo://app?vid=8d37495d-9961-45f8-ba67-ee81725ae3ae"},"vehicle_type_id":"4","last_reported":1723410504,"current_range_meters":4000,"station_id":"","pricing_plan_id":"cebpf4jnsgd1na2vs0mg"},{"bike_id":"1b3d00ff-2a5e-4a41-97c4-c836077542be","system_id":"levelo_inurba_marseille","lat":43.29232,"lon":5.36219,"is_reserved":false,"is_disabled":false,"rental_uris":{"android":"levelo://app?vid=1b3d00ff-2a5e-4a41-97c4-c836077542be","ios":"levelo://app?vid=1b3d00ff-2a5e-4a41-97c4-c836077542be"},"vehicle_type_id":"4","last_reported":1723410504,"current_range_meters":0,"station_id":"","pricing_plan_id":"cebpf4jnsgd1na2vs0mg"},{"bike_id":"456ca48f-fcb3-490a-9892-3b1574791abf","system_id":"levelo_inurba_marseille","lat":43.2936,"lon":5.37835,"is_reserved":false,"is_disabled":false,"rental_uris":{"android":"levelo://app?vid=456ca48f-fcb3-490a-9892-3b1574791abf","ios":"levelo://app?vid=456ca48f-fcb3-490a-9892-3b1574791abf"},"vehicle_type_id":"4","last_reported":1723410504,"current_range_meters":20000,"station_id":"ce4bgjh2rcd13ifvqbf0","pricing_plan_id":"cebpf4jnsgd1na2vs0mg"},{"bike_id":"b1d38b79-513e-45a8-b507-a538e1fc4477","system_id":"levelo_inurba_marseille","lat":43.303002,"lon":5.392142,"is_reserved":false,"is_disabled":false,"rental_uris":{"android":"levelo://app?vid=b1d38b79-513e-45a8-b507-a538e1fc4477","ios":"levelo://app?vid=b1d38b79-513e-45a8-b507-a538e1fc4477"},"vehicle_type_id":"4","last_reported":1723410504,"current_range_meters":0,"station_id":"ce4bgkh2rcd13ifvqbk0","pricing_plan_id":"cebpf4jnsgd1na2vs0mg"},{"bike_id":"9099b508-9b10-4c4f-af36-8e959adcd297","system_id":"levelo_inurba_marseille","lat":43.292311,"lon":5.360731,"is_reserved":false,"is_disabled":false,"rental_uris":{"android":"levelo://app?vid=9099b508-9b10-4c4f-af36-8e959adcd297","ios":"levelo://app?vid=9099b508-9b10-4c4f-af36-8e959adcd297"},"vehicle_type_id":"4","last_reported":1723410504,"current_range_meters":0,"station_id":"ce4bhbh2rcd13ifvqeqg","pricing_plan_id":"cebpf4jnsgd1na2vs0mg"},{"bike_id":"b87ac339-90e4-4b4e-afee-1f3ac5bfe1ff","system_id":"levelo_inurba_marseille","lat":43.32723,"lon":5.38835,"is_reserved":false,"is_disabled":false,"rental_uris":{"android":"levelo://app?vid=b87ac339-90e4-4b4e-afee-1f3ac5bfe1ff","ios":"levelo://app?vid=b87ac339-90e4-4b4e-afee-1f3ac5bfe1ff"},"vehicle_type_id":"4","last_reported":1723410504,"current_range_meters":23200,"station_id":"","pricing_plan_id":"cebpf4jnsgd1na2vs0mg"},{"bike_id":"8669c215-f64f-4991-918a-38e605b47e3d","system_id":"levelo_inurba_marseille","lat":43.292889,"lon":5.355564,"is_reserved":false,"is_disabled":false,"rental_uris":{"android":"levelo://app?vid=8669c215-f64f-4991-918a-38e605b47e3d","ios":"levelo://app?vid=8669c215-f64f-4991-918a-38e605b47e3d"},"vehicle_type_id":"4","last_reported":1723410504,"current_range_meters":1200,"station_id":"","pricing_plan_id":"cebpf4jnsgd1na2vs0mg"},{"bike_id":"25c8cf4c-cf02-484a-addb-579a5eb226c6","system_id":"levelo_inurba_marseille","lat":43.291994,"lon":5.357886,"is_reserved":false,"is_disabled":false,"rental_uris":{"android":"levelo://app?vid=25c8cf4c-cf02-484a-addb-579a5eb226c6","ios":"levelo://app?vid=25c8cf4c-cf02-484a-addb-579a5eb226c6"},"vehicle_type_id":"4","last_reported":1723410504,"current_range_meters":0,"station_id":"ce4bhb12rcd13ifvqel0","pricing_plan_id":"cebpf4jnsgd1na2vs0mg"},{"bike_id":"11ee9b16-d761-43d0-a7c9-ceb2fbda2c60","system_id":"levelo_inurba_marseille","lat":43.313291,"lon":5.396838,"is_reserved":false,"is_disabled":false,"rental_uris":{"android":"levelo://app?vid=11ee9b16-d761-43d0-a7c9-ceb2fbda2c60","ios":"levelo://app?vid=11ee9b16-d761-43d0-a7c9-ceb2fbda2c60"},"vehicle_type_id":"4","last_reported":1723410504,"current_range_meters":31600,"station_id":"ce4bgvp2rcd13ifvqcu0","pricing_plan_id":"cebpf4jnsgd1na2vs0mg"},{"bike_id":"9d4b68a5-c93f-4844-a235-5ff4a055b660","system_id":"levelo_inurba_marseille","lat":43.292385,"lon":5.37767,"is_reserved":false,"is_disabled":false,"rental_uris":{"android":"levelo://app?vid=9d4b68a5-c93f-4844-a235-5ff4a055b660","ios":"levelo://app?vid=9d4b68a5-c93f-4844-a235-5ff4a055b660"},"vehicle_type_id":"4","last_reported":1723410504,"current_range_meters":6800,"station_id":"","pricing_plan_id":"cebpf4jnsgd1na2vs0mg"},{"bike_id":"14656cc8-d360-4849-80a4-c1e3b3f147a2","system_id":"levelo_inurba_marseille","lat":43.313291,"lon":5.396838,"is_reserved":false,"is_disabled":false,"rental_uris":{"android":"levelo://app?vid=14656cc8-d360-4849-80a4-c1e3b3f147a2","ios":"levelo://app?vid=14656cc8-d360-4849-80a4-c1e3b3f147a2"},"vehicle_type_id":"4","last_reported":1723410504,"current_range_meters":32000,"station_id":"ce4bgvp2rcd13ifvqcu0","pricing_plan_id":"cebpf4jnsgd1na2vs0mg"},{"bike_id":"bd8aa323-b5be-4337-8891-4d8907e813de","system_id":"levelo_inurba_marseille","lat":43.309038,"lon":5.396546,"is_reserved":false,"is_disabled":false,"rental_uris":{"android":"levelo://app?vid=bd8aa323-b5be-4337-8891-4d8907e813de","ios":"levelo://app?vid=bd8aa323-b5be-4337-8891-4d8907e813de"},"vehicle_type_id":"4","last_reported":1723410504,"current_range_meters":16800,"station_id":"ce4bh012rcd13ifvqcv0","pricing_plan_id":"cebpf4jnsgd1na2vs0mg"},{"bike_id":"6b594608-e12a-4e37-a6be-f9630dd39923","system_id":"levelo_inurba_marseille","lat":43.313291,"lon":5.396838,"is_reserved":false,"is_disabled":false,"rental_uris":{"android":"levelo://app?vid=6b594608-e12a-4e37-a6be-f9630dd39923","ios":"levelo://app?vid=6b594608-e12a-4e37-a6be-f9630dd39923"},"vehicle_type_id":"4","last_reported":1723410504,"current_range_meters":5600,"station_id":"ce4bgvp2rcd13ifvqcu0","pricing_plan_id":"cebpf4jnsgd1na2vs0mg"},{"bike_id":"a46f4a81-d30f-4a54-9800-52412f4be1ef","system_id":"levelo_inurba_marseille","lat":43.309038,"lon":5.396546,"is_reserved":false,"is_disabled":false,"rental_uris":{"android":"levelo://app?vid=a46f4a81-d30f-4a54-9800-52412f4be1ef","ios":"levelo://app?vid=a46f4a81-d30f-4a54-9800-52412f4be1ef"},"vehicle_type_id":"4","last_reported":1723410504,"current_range_meters":29600,"station_id":"ce4bh012rcd13ifvqcv0","pricing_plan_id":"cebpf4jnsgd1na2vs0mg"},{"bike_id":"5dae9e24-f5b1-4a55-948a-6ebd367c2027","system_id":"levelo_inurba_marseille","lat":43.309038,"lon":5.396546,"is_reserved":false,"is_disabled":false,"rental_uris":{"android":"levelo://app?vid=5dae9e24-f5b1-4a55-948a-6ebd367c2027","ios":"levelo://app?vid=5dae9e24-f5b1-4a55-948a-6ebd367c2027"},"vehicle_type_id":"4","last_reported":1723410504,"current_range_meters":31600,"station_id":"ce4bh012rcd13ifvqcv0","pricing_plan_id":"cebpf4jnsgd1na2vs0mg"},{"bike_id":"9db8fb99-3575-40d9-b1b9-45651331085c","system_id":"levelo_inurba_marseille","lat":43.309047,"lon":5.396551,"is_reserved":false,"is_disabled":false,"rental_uris":{"android":"levelo://app?vid=9db8fb99-3575-40d9-b1b9-45651331085c","ios":"levelo://app?vid=9db8fb99-3575-40d9-b1b9-45651331085c"},"vehicle_type_id":"4","last_reported":1723410504,"current_range_meters":26000,"station_id":"ce4bh012rcd13ifvqcv0","pricing_plan_id":"cebpf4jnsgd1na2vs0mg"},{"bike_id":"3e5c2741-e874-467c-b354-595d1017b6cd","system_id":"levelo_inurba_marseille","lat":43.309047,"lon":5.396551,"is_reserved":false,"is_disabled":false,"rental_uris":{"android":"levelo://app?vid=3e5c2741-e874-467c-b354-595d1017b6cd","ios":"levelo://app?vid=3e5c2741-e874-467c-b354-595d1017b6cd"},"vehicle_type_id":"4","last_reported":1723410504,"current_range_meters":0,"station_id":"ce4bh012rcd13ifvqcv0","pricing_plan_id":"cebpf4jnsgd1na2vs0mg"},{"bike_id":"4537dcb7-a9ab-4d15-8f3e-d4d8bff4c829","system_id":"levelo_inurba_marseille","lat":43.29529,"lon":5.3854,"is_reserved":false,"is_disabled":false,"rental_uris":{"android":"levelo://app?vid=4537dcb7-a9ab-4d15-8f3e-d4d8bff4c829","ios":"levelo://app?vid=4537dcb7-a9ab-4d15-8f3e-d4d8bff4c829"},"vehicle_type_id":"4","last_reported":1723410504,"current_range_meters":26400,"station_id":"ce4bgih2rcd13ifvqba0","pricing_plan_id":"cebpf4jnsgd1na2vs0mg"},{"bike_id":"75c17765-75be-444c-b3fa-79d66c013906","system_id":"levelo_inurba_marseille","lat":43.29529,"lon":5.385581,"is_reserved":false,"is_disabled":false,"rental_uris":{"android":"levelo://app?vid=75c17765-75be-444c-b3fa-79d66c013906","ios":"levelo://app?vid=75c17765-75be-444c-b3fa-79d66c013906"},"vehicle_type_id":"4","last_reported":1723410504,"current_range_meters":9600,"station_id":"ce4bgih2rcd13ifvqba0","pricing_plan_id":"cebpf4jnsgd1na2vs0mg"},{"bike_id":"5cafa95a-58ed-41f5-ab27-875925d090d4","system_id":"levelo_inurba_marseille","lat":43.29529,"lon":5.385581,"is_reserved":false,"is_disabled":false,"rental_uris":{"android":"levelo://app?vid=5cafa95a-58ed-41f5-ab27-875925d090d4","ios":"levelo://app?vid=5cafa95a-58ed-41f5-ab27-875925d090d4"},"vehicle_type_id":"4","last_reported":1723410504,"current_range_meters":8000,"station_id":"ce4bgih2rcd13ifvqba0","pricing_plan_id":"cebpf4jnsgd1na2vs0mg"},{"bike_id":"f487b378-cf2d-4387-b118-1081f1938911","system_id":"levelo_inurba_marseille","lat":43.29292,"lon":5.38257,"is_reserved":false,"is_disabled":false,"rental_uris":{"android":"levelo://app?vid=f487b378-cf2d-4387-b118-1081f1938911","ios":"levelo://app?vid=f487b378-cf2d-4387-b118-1081f1938911"},"vehicle_type_id":"4","last_reported":1723410504,"current_range_meters":0,"station_id":"","pricing_plan_id":"cebpf4jnsgd1na2vs0mg"},{"bike_id":"8123e9ae-9249-4f83-ba62-b67a17d4e1b0","system_id":"levelo_inurba_marseille","lat":43.290327,"lon":5.375711,"is_reserved":false,"is_disabled":false,"rental_uris":{"android":"levelo://app?vid=8123e9ae-9249-4f83-ba62-b67a17d4e1b0","ios":"levelo://app?vid=8123e9ae-9249-4f83-ba62-b67a17d4e1b0"},"vehicle_type_id":"4","last_reported":1723410504,"current_range_meters":400,"station_id":"ce4bh692rcd13ifvqe90","pricing_plan_id":"cebpf4jnsgd1na2vs0mg"},{"bike_id":"33cae1d5-e5c4-4342-a976-294c2cfe1a8e","system_id":"levelo_inurba_marseille","lat":43.294153,"lon":5.386305,"is_reserved":false,"is_disabled":false,"rental_uris":{"android":"levelo://app?vid=33cae1d5-e5c4-4342-a976-294c2cfe1a8e","ios":"levelo://app?vid=33cae1d5-e5c4-4342-a976-294c2cfe1a8e"},"vehicle_type_id":"4","last_reported":1723410504,"current_range_meters":0,"station_id":"ce4bh2h2rcd13ifvqdh0","pricing_plan_id":"cebpf4jnsgd1na2vs0mg"},{"bike_id":"a98f4057-8ccf-4217-a545-e8066d63cc83","system_id":"levelo_inurba_marseille","lat":43.295169,"lon":5.390426,"is_reserved":false,"is_disabled":false,"rental_uris":{"android":"levelo://app?vid=a98f4057-8ccf-4217-a545-e8066d63cc83","ios":"levelo://app?vid=a98f4057-8ccf-4217-a545-e8066d63cc83"},"vehicle_type_id":"4","last_reported":1723410504,"current_range_meters":30400,"station_id":"ce4bh3p2rcd13ifvqdp0","pricing_plan_id":"cebpf4jnsgd1na2vs0mg"},{"bike_id":"af9ab4de-16fa-4bb1-bca3-0fc3eb9d72f1","system_id":"levelo_inurba_marseille","lat":43.2942,"lon":5.38623,"is_reserved":false,"is_disabled":false,"rental_uris":{"android":"levelo://app?vid=af9ab4de-16fa-4bb1-bca3-0fc3eb9d72f1","ios":"levelo://app?vid=af9ab4de-16fa-4bb1-bca3-0fc3eb9d72f1"},"vehicle_type_id":"4","last_reported":1723410504,"current_range_meters":30400,"station_id":"ce4bh2h2rcd13ifvqdh0","pricing_plan_id":"cebpf4jnsgd1na2vs0mg"},{"bike_id":"6133c9f0-eb89-4197-afaf-e9b9a54b4471","system_id":"levelo_inurba_marseille","lat":43.294153,"lon":5.386305,"is_reserved":false,"is_disabled":false,"rental_uris":{"android":"levelo://app?vid=6133c9f0-eb89-4197-afaf-e9b9a54b4471","ios":"levelo://app?vid=6133c9f0-eb89-4197-afaf-e9b9a54b4471"},"vehicle_type_id":"4","last_reported":1723410504,"current_range_meters":22800,"station_id":"ce4bh2h2rcd13ifvqdh0","pricing_plan_id":"cebpf4jnsgd1na2vs0mg"},{"bike_id":"4caf2e47-387c-4616-918a-3f595460fd39","system_id":"levelo_inurba_marseille","lat":43.294162,"lon":5.386292,"is_reserved":false,"is_disabled":false,"rental_uris":{"android":"levelo://app?vid=4caf2e47-387c-4616-918a-3f595460fd39","ios":"levelo://app?vid=4caf2e47-387c-4616-918a-3f595460fd39"},"vehicle_type_id":"4","last_reported":1723410504,"current_range_meters":14800,"station_id":"ce4bh2h2rcd13ifvqdh0","pricing_plan_id":"cebpf4jnsgd1na2vs0mg"},{"bike_id":"f5be5bb5-6f89-4d1e-992d-1ac3c37f0aa6","system_id":"levelo_inurba_marseille","lat":43.294162,"lon":5.386292,"is_reserved":false,"is_disabled":false,"rental_uris":{"android":"levelo://app?vid=f5be5bb5-6f89-4d1e-992d-1ac3c37f0aa6","ios":"levelo://app?vid=f5be5bb5-6f89-4d1e-992d-1ac3c37f0aa6"},"vehicle_type_id":"4","last_reported":1723410504,"current_range_meters":25200,"station_id":"ce4bh2h2rcd13ifvqdh0","pricing_plan_id":"cebpf4jnsgd1na2vs0mg"},{"bike_id":"83fc70e6-531f-4154-bc4f-c47ed6268e31","system_id":"levelo_inurba_marseille","lat":43.294162,"lon":5.386292,"is_reserved":false,"is_disabled":false,"rental_uris":{"android":"levelo://app?vid=83fc70e6-531f-4154-bc4f-c47ed6268e31","ios":"levelo://app?vid=83fc70e6-531f-4154-bc4f-c47ed6268e31"},"vehicle_type_id":"4","last_reported":1723410504,"current_range_meters":9600,"station_id":"ce4bh2h2rcd13ifvqdh0","pricing_plan_id":"cebpf4jnsgd1na2vs0mg"},{"bike_id":"65782601-2f75-4431-855c-4c5f54f6abd2","system_id":"levelo_inurba_marseille","lat":43.294153,"lon":5.386305,"is_reserved":false,"is_disabled":false,"rental_uris":{"android":"levelo://app?vid=65782601-2f75-4431-855c-4c5f54f6abd2","ios":"levelo://app?vid=65782601-2f75-4431-855c-4c5f54f6abd2"},"vehicle_type_id":"4","last_reported":1723410504,"current_range_meters":4400,"station_id":"ce4bh2h2rcd13ifvqdh0","pricing_plan_id":"cebpf4jnsgd1na2vs0mg"},{"bike_id":"fe5737ec-220a-4cc9-951f-f21cbd8f8e78","system_id":"levelo_inurba_marseille","lat":43.294162,"lon":5.386292,"is_reserved":false,"is_disabled":false,"rental_uris":{"android":"levelo://app?vid=fe5737ec-220a-4cc9-951f-f21cbd8f8e78","ios":"levelo://app?vid=fe5737ec-220a-4cc9-951f-f21cbd8f8e78"},"vehicle_type_id":"4","last_reported":1723410504,"current_range_meters":29200,"station_id":"ce4bh2h2rcd13ifvqdh0","pricing_plan_id":"cebpf4jnsgd1na2vs0mg"},{"bike_id":"618ea3f8-a843-41f1-aa4f-3cd8ebba11c6","system_id":"levelo_inurba_marseille","lat":43.294153,"lon":5.386305,"is_reserved":false,"is_disabled":false,"rental_uris":{"android":"levelo://app?vid=618ea3f8-a843-41f1-aa4f-3cd8ebba11c6","ios":"levelo://app?vid=618ea3f8-a843-41f1-aa4f-3cd8ebba11c6"},"vehicle_type_id":"4","last_reported":1723410504,"current_range_meters":23200,"station_id":"ce4bh2h2rcd13ifvqdh0","pricing_plan_id":"cebpf4jnsgd1na2vs0mg"},{"bike_id":"ce2b6483-9b7a-4941-85df-f4840370b0dd","system_id":"levelo_inurba_marseille","lat":43.294162,"lon":5.386292,"is_reserved":false,"is_disabled":false,"rental_uris":{"android":"levelo://app?vid=ce2b6483-9b7a-4941-85df-f4840370b0dd","ios":"levelo://app?vid=ce2b6483-9b7a-4941-85df-f4840370b0dd"},"vehicle_type_id":"4","last_reported":1723410504,"current_range_meters":0,"station_id":"ce4bh2h2rcd13ifvqdh0","pricing_plan_id":"cebpf4jnsgd1na2vs0mg"},{"bike_id":"3fd1b569-9977-4bc5-996b-fab4f6e7c0c2","system_id":"levelo_inurba_marseille","lat":43.294153,"lon":5.386305,"is_reserved":false,"is_disabled":false,"rental_uris":{"android":"levelo://app?vid=3fd1b569-9977-4bc5-996b-fab4f6e7c0c2","ios":"levelo://app?vid=3fd1b569-9977-4bc5-996b-fab4f6e7c0c2"},"vehicle_type_id":"4","last_reported":1723410504,"current_range_meters":1600,"station_id":"ce4bh2h2rcd13ifvqdh0","pricing_plan_id":"cebpf4jnsgd1na2vs0mg"},{"bike_id":"90bbafd9-4fb0-48f1-9c99-24f05fd11273","system_id":"levelo_inurba_marseille","lat":43.29417,"lon":5.38629,"is_reserved":false,"is_disabled":false,"rental_uris":{"android":"levelo://app?vid=90bbafd9-4fb0-48f1-9c99-24f05fd11273","ios":"levelo://app?vid=90bbafd9-4fb0-48f1-9c99-24f05fd11273"},"vehicle_type_id":"4","last_reported":1723410504,"current_range_meters":28800,"station_id":"ce4bh2h2rcd13ifvqdh0","pricing_plan_id":"cebpf4jnsgd1na2vs0mg"},{"bike_id":"9c6eb698-9c80-4074-a060-8cdc07ccec6a","system_id":"levelo_inurba_marseille","lat":43.29027,"lon":5.37552,"is_reserved":false,"is_disabled":false,"rental_uris":{"android":"levelo://app?vid=9c6eb698-9c80-4074-a060-8cdc07ccec6a","ios":"levelo://app?vid=9c6eb698-9c80-4074-a060-8cdc07ccec6a"},"vehicle_type_id":"4","last_reported":1723410504,"current_range_meters":0,"station_id":"ce4bh692rcd13ifvqe90","pricing_plan_id":"cebpf4jnsgd1na2vs0mg"},{"bike_id":"5d56fbd2-d80b-4c55-af20-ec4800da8d30","system_id":"levelo_inurba_marseille","lat":43.294162,"lon":5.386292,"is_reserved":false,"is_disabled":false,"rental_uris":{"android":"levelo://app?vid=5d56fbd2-d80b-4c55-af20-ec4800da8d30","ios":"levelo://app?vid=5d56fbd2-d80b-4c55-af20-ec4800da8d30"},"vehicle_type_id":"4","last_reported":1723410504,"current_range_meters":18400,"station_id":"ce4bh2h2rcd13ifvqdh0","pricing_plan_id":"cebpf4jnsgd1na2vs0mg"},{"bike_id":"45e9758e-d7d0-4b69-a320-add300093a2f","system_id":"levelo_inurba_marseille","lat":43.289184,"lon":5.366408,"is_reserved":false,"is_disabled":false,"rental_uris":{"android":"levelo://app?vid=45e9758e-d7d0-4b69-a320-add300093a2f","ios":"levelo://app?vid=45e9758e-d7d0-4b69-a320-add300093a2f"},"vehicle_type_id":"4","last_reported":1723410504,"current_range_meters":6800,"station_id":"ce4bhap2rcd13ifvqek0","pricing_plan_id":"cebpf4jnsgd1na2vs0mg"},{"bike_id":"501cbdbd-71f0-4a4f-88fd-37584a9fa48d","system_id":"levelo_inurba_marseille","lat":43.289184,"lon":5.366408,"is_reserved":false,"is_disabled":false,"rental_uris":{"android":"levelo://app?vid=501cbdbd-71f0-4a4f-88fd-37584a9fa48d","ios":"levelo://app?vid=501cbdbd-71f0-4a4f-88fd-37584a9fa48d"},"vehicle_type_id":"4","last_reported":1723410504,"current_range_meters":0,"station_id":"ce4bhap2rcd13ifvqek0","pricing_plan_id":"cebpf4jnsgd1na2vs0mg"},{"bike_id":"c2d70f30-5ae6-4cd5-86b4-9e6e24e68b21","system_id":"levelo_inurba_marseille","lat":43.29421,"lon":5.38677,"is_reserved":false,"is_disabled":false,"rental_uris":{"android":"levelo://app?vid=c2d70f30-5ae6-4cd5-86b4-9e6e24e68b21","ios":"levelo://app?vid=c2d70f30-5ae6-4cd5-86b4-9e6e24e68b21"},"vehicle_type_id":"4","last_reported":1723410504,"current_range_meters":6000,"station_id":"ce4bh2h2rcd13ifvqdh0","pricing_plan_id":"cebpf4jnsgd1na2vs0mg"},{"bike_id":"1d5d45de-5125-4203-a7ca-ccf3f519711a","system_id":"levelo_inurba_marseille","lat":43.28919,"lon":5.36649,"is_reserved":false,"is_disabled":false,"rental_uris":{"android":"levelo://app?vid=1d5d45de-5125-4203-a7ca-ccf3f519711a","ios":"levelo://app?vid=1d5d45de-5125-4203-a7ca-ccf3f519711a"},"vehicle_type_id":"4","last_reported":1723410504,"current_range_meters":22400,"station_id":"ce4bhap2rcd13ifvqek0","pricing_plan_id":"cebpf4jnsgd1na2vs0mg"},{"bike_id":"06b0f818-f7fc-4221-af7a-5a54dadd5bbb","system_id":"levelo_inurba_marseille","lat":43.292644,"lon":5.384257,"is_reserved":false,"is_disabled":false,"rental_uris":{"android":"levelo://app?vid=06b0f818-f7fc-4221-af7a-5a54dadd5bbb","ios":"levelo://app?vid=06b0f818-f7fc-4221-af7a-5a54dadd5bbb"},"vehicle_type_id":"4","last_reported":1723410504,"current_range_meters":0,"station_id":"ce4bh692rcd13ifvqea0","pricing_plan_id":"cebpf4jnsgd1na2vs0mg"},{"bike_id":"add2e469-8934-4f0b-84a3-2814128ef47e","system_id":"levelo_inurba_marseille","lat":43.292642,"lon":5.384254,"is_reserved":false,"is_disabled":false,"rental_uris":{"android":"levelo://app?vid=add2e469-8934-4f0b-84a3-2814128ef47e","ios":"levelo://app?vid=add2e469-8934-4f0b-84a3-2814128ef47e"},"vehicle_type_id":"4","last_reported":1723410504,"current_range_meters":22400,"station_id":"ce4bh692rcd13ifvqea0","pricing_plan_id":"cebpf4jnsgd1na2vs0mg"},{"bike_id":"d0436361-c1fb-462d-9d22-17b34f8a00a5","system_id":"levelo_inurba_marseille","lat":43.292644,"lon":5.384257,"is_reserved":false,"is_disabled":false,"rental_uris":{"android":"levelo://app?vid=d0436361-c1fb-462d-9d22-17b34f8a00a5","ios":"levelo://app?vid=d0436361-c1fb-462d-9d22-17b34f8a00a5"},"vehicle_type_id":"4","last_reported":1723410504,"current_range_meters":30400,"station_id":"ce4bh692rcd13ifvqea0","pricing_plan_id":"cebpf4jnsgd1na2vs0mg"},{"bike_id":"790a2d56-dd7f-479a-afc5-eff775bc5b2e","system_id":"levelo_inurba_marseille","lat":43.290995,"lon":5.381361,"is_reserved":false,"is_disabled":false,"rental_uris":{"android":"levelo://app?vid=790a2d56-dd7f-479a-afc5-eff775bc5b2e","ios":"levelo://app?vid=790a2d56-dd7f-479a-afc5-eff775bc5b2e"},"vehicle_type_id":"4","last_reported":1723410504,"current_range_meters":29200,"station_id":"ce4bh512rcd13ifvqe2g","pricing_plan_id":"cebpf4jnsgd1na2vs0mg"},{"bike_id":"1662237f-40e4-457a-8bb5-ab657f1b2e1f","system_id":"levelo_inurba_marseille","lat":43.29098,"lon":5.38145,"is_reserved":false,"is_disabled":false,"rental_uris":{"android":"levelo://app?vid=1662237f-40e4-457a-8bb5-ab657f1b2e1f","ios":"levelo://app?vid=1662237f-40e4-457a-8bb5-ab657f1b2e1f"},"vehicle_type_id":"4","last_reported":1723410504,"current_range_meters":31600,"station_id":"ce4bh512rcd13ifvqe2g","pricing_plan_id":"cebpf4jnsgd1na2vs0mg"},{"bike_id":"d5978a14-600f-4e1f-9412-c847b5df8155","system_id":"levelo_inurba_marseille","lat":43.290995,"lon":5.381361,"is_reserved":false,"is_disabled":false,"rental_uris":{"android":"levelo://app?vid=d5978a14-600f-4e1f-9412-c847b5df8155","ios":"levelo://app?vid=d5978a14-600f-4e1f-9412-c847b5df8155"},"vehicle_type_id":"4","last_reported":1723410504,"current_range_meters":14800,"station_id":"ce4bh512rcd13ifvqe2g","pricing_plan_id":"cebpf4jnsgd1na2vs0mg"},{"bike_id":"76a5c062-9332-4e37-9d80-6dad1e1c02a7","system_id":"levelo_inurba_marseille","lat":43.297807,"lon":5.393533,"is_reserved":false,"is_disabled":false,"rental_uris":{"android":"levelo://app?vid=76a5c062-9332-4e37-9d80-6dad1e1c02a7","ios":"levelo://app?vid=76a5c062-9332-4e37-9d80-6dad1e1c02a7"},"vehicle_type_id":"4","last_reported":1723410504,"current_range_meters":15600,"station_id":"chh1huq6cuj3fo74tm60","pricing_plan_id":"cebpf4jnsgd1na2vs0mg"},{"bike_id":"951b639d-65e4-4df0-aa11-f1e1c5aee29f","system_id":"levelo_inurba_marseille","lat":43.297807,"lon":5.393533,"is_reserved":false,"is_disabled":false,"rental_uris":{"android":"levelo://app?vid=951b639d-65e4-4df0-aa11-f1e1c5aee29f","ios":"levelo://app?vid=951b639d-65e4-4df0-aa11-f1e1c5aee29f"},"vehicle_type_id":"4","last_reported":1723410504,"current_range_meters":8000,"station_id":"chh1huq6cuj3fo74tm60","pricing_plan_id":"cebpf4jnsgd1na2vs0mg"},{"bike_id":"9347931e-bef2-427f-8ff2-66b77b95c03c","system_id":"levelo_inurba_marseille","lat":43.33024,"lon":5.39035,"is_reserved":false,"is_disabled":false,"rental_uris":{"android":"levelo://app?vid=9347931e-bef2-427f-8ff2-66b77b95c03c","ios":"levelo://app?vid=9347931e-bef2-427f-8ff2-66b77b95c03c"},"vehicle_type_id":"4","last_reported":1723410504,"current_range_meters":6400,"station_id":"ce4bhr92rcd13ifvqhrg","pricing_plan_id":"cebpf4jnsgd1na2vs0mg"},{"bike_id":"f7b0e8cd-6409-4037-b802-f153f3d5a2af","system_id":"levelo_inurba_marseille","lat":43.297815,"lon":5.393548,"is_reserved":false,"is_disabled":false,"rental_uris":{"android":"levelo://app?vid=f7b0e8cd-6409-4037-b802-f153f3d5a2af","ios":"levelo://app?vid=f7b0e8cd-6409-4037-b802-f153f3d5a2af"},"vehicle_type_id":"4","last_reported":1723410504,"current_range_meters":28800,"station_id":"chh1huq6cuj3fo74tm60","pricing_plan_id":"cebpf4jnsgd1na2vs0mg"},{"bike_id":"c9219954-5891-479b-aa55-61f2895214d8","system_id":"levelo_inurba_marseille","lat":43.295169,"lon":5.390426,"is_reserved":false,"is_disabled":false,"rental_uris":{"android":"levelo://app?vid=c9219954-5891-479b-aa55-61f2895214d8","ios":"levelo://app?vid=c9219954-5891-479b-aa55-61f2895214d8"},"vehicle_type_id":"4","last_reported":1723410504,"current_range_meters":21200,"station_id":"ce4bh3p2rcd13ifvqdp0","pricing_plan_id":"cebpf4jnsgd1na2vs0mg"},{"bike_id":"e0510740-9577-447b-a054-c4869c7674c5","system_id":"levelo_inurba_marseille","lat":43.330442,"lon":5.389148,"is_reserved":false,"is_disabled":false,"rental_uris":{"android":"levelo://app?vid=e0510740-9577-447b-a054-c4869c7674c5","ios":"levelo://app?vid=e0510740-9577-447b-a054-c4869c7674c5"},"vehicle_type_id":"4","last_reported":1723410504,"current_range_meters":4000,"station_id":"ce4bhr92rcd13ifvqhrg","pricing_plan_id":"cebpf4jnsgd1na2vs0mg"},{"bike_id":"aced33ae-4844-46bc-bd9f-9e1bd5a87837","system_id":"levelo_inurba_marseille","lat":43.330442,"lon":5.389148,"is_reserved":false,"is_disabled":false,"rental_uris":{"android":"levelo://app?vid=aced33ae-4844-46bc-bd9f-9e1bd5a87837","ios":"levelo://app?vid=aced33ae-4844-46bc-bd9f-9e1bd5a87837"},"vehicle_type_id":"4","last_reported":1723410504,"current_range_meters":11600,"station_id":"ce4bhr92rcd13ifvqhrg","pricing_plan_id":"cebpf4jnsgd1na2vs0mg"},{"bike_id":"b8fe4fc7-815d-4b60-870c-d982e56575fa","system_id":"levelo_inurba_marseille","lat":43.330442,"lon":5.389148,"is_reserved":false,"is_disabled":false,"rental_uris":{"android":"levelo://app?vid=b8fe4fc7-815d-4b60-870c-d982e56575fa","ios":"levelo://app?vid=b8fe4fc7-815d-4b60-870c-d982e56575fa"},"vehicle_type_id":"4","last_reported":1723410504,"current_range_meters":14400,"station_id":"ce4bhr92rcd13ifvqhrg","pricing_plan_id":"cebpf4jnsgd1na2vs0mg"},{"bike_id":"90101dec-1a2d-4041-b603-1a04739f2a18","system_id":"levelo_inurba_marseille","lat":43.330442,"lon":5.389148,"is_reserved":false,"is_disabled":false,"rental_uris":{"android":"levelo://app?vid=90101dec-1a2d-4041-b603-1a04739f2a18","ios":"levelo://app?vid=90101dec-1a2d-4041-b603-1a04739f2a18"},"vehicle_type_id":"4","last_reported":1723410504,"current_range_meters":12400,"station_id":"ce4bhr92rcd13ifvqhrg","pricing_plan_id":"cebpf4jnsgd1na2vs0mg"},{"bike_id":"2e63a36e-a070-4b90-8452-4b71f9172047","system_id":"levelo_inurba_marseille","lat":43.33025,"lon":5.39045,"is_reserved":false,"is_disabled":false,"rental_uris":{"android":"levelo://app?vid=2e63a36e-a070-4b90-8452-4b71f9172047","ios":"levelo://app?vid=2e63a36e-a070-4b90-8452-4b71f9172047"},"vehicle_type_id":"4","last_reported":1723410504,"current_range_meters":5200,"station_id":"ce4bhr92rcd13ifvqhrg","pricing_plan_id":"cebpf4jnsgd1na2vs0mg"},{"bike_id":"027cbb86-d5f6-4a09-a599-3c6c56390272","system_id":"levelo_inurba_marseille","lat":43.330442,"lon":5.389148,"is_reserved":false,"is_disabled":false,"rental_uris":{"android":"levelo://app?vid=027cbb86-d5f6-4a09-a599-3c6c56390272","ios":"levelo://app?vid=027cbb86-d5f6-4a09-a599-3c6c56390272"},"vehicle_type_id":"4","last_reported":1723410504,"current_range_meters":6400,"station_id":"ce4bhr92rcd13ifvqhrg","pricing_plan_id":"cebpf4jnsgd1na2vs0mg"},{"bike_id":"8a9e1b14-86ef-4bae-adbd-9c558dbb54e1","system_id":"levelo_inurba_marseille","lat":43.295169,"lon":5.390426,"is_reserved":false,"is_disabled":false,"rental_uris":{"android":"levelo://app?vid=8a9e1b14-86ef-4bae-adbd-9c558dbb54e1","ios":"levelo://app?vid=8a9e1b14-86ef-4bae-adbd-9c558dbb54e1"},"vehicle_type_id":"4","last_reported":1723410504,"current_range_meters":30800,"station_id":"ce4bh3p2rcd13ifvqdp0","pricing_plan_id":"cebpf4jnsgd1na2vs0mg"},{"bike_id":"1cb9ed88-9090-43fc-9d77-ffeaac3247c5","system_id":"levelo_inurba_marseille","lat":43.33002,"lon":5.39143,"is_reserved":false,"is_disabled":false,"rental_uris":{"android":"levelo://app?vid=1cb9ed88-9090-43fc-9d77-ffeaac3247c5","ios":"levelo://app?vid=1cb9ed88-9090-43fc-9d77-ffeaac3247c5"},"vehicle_type_id":"4","last_reported":1723410504,"current_range_meters":2800,"station_id":"","pricing_plan_id":"cebpf4jnsgd1na2vs0mg"},{"bike_id":"b1e47359-7517-42e5-ab95-a0b7e0d1290f","system_id":"levelo_inurba_marseille","lat":43.29021,"lon":5.38138,"is_reserved":false,"is_disabled":false,"rental_uris":{"android":"levelo://app?vid=b1e47359-7517-42e5-ab95-a0b7e0d1290f","ios":"levelo://app?vid=b1e47359-7517-42e5-ab95-a0b7e0d1290f"},"vehicle_type_id":"4","last_reported":1723410504,"current_range_meters":4800,"station_id":"ce4bh4p2rcd13ifvqe1g","pricing_plan_id":"cebpf4jnsgd1na2vs0mg"},{"bike_id":"4dd3df97-f042-4ef0-9fba-47ec4b401346","system_id":"levelo_inurba_marseille","lat":43.2883,"lon":5.37357,"is_reserved":false,"is_disabled":false,"rental_uris":{"android":"levelo://app?vid=4dd3df97-f042-4ef0-9fba-47ec4b401346","ios":"levelo://app?vid=4dd3df97-f042-4ef0-9fba-47ec4b401346"},"vehicle_type_id":"4","last_reported":1723410504,"current_range_meters":19600,"station_id":"","pricing_plan_id":"cebpf4jnsgd1na2vs0mg"},{"bike_id":"c03816a3-583e-45fa-b982-364811b3c1fa","system_id":"levelo_inurba_marseille","lat":43.28856,"lon":5.358371,"is_reserved":false,"is_disabled":false,"rental_uris":{"android":"levelo://app?vid=c03816a3-583e-45fa-b982-364811b3c1fa","ios":"levelo://app?vid=c03816a3-583e-45fa-b982-364811b3c1fa"},"vehicle_type_id":"4","last_reported":1723410504,"current_range_meters":0,"station_id":"ce4bhb12rcd13ifvqem0","pricing_plan_id":"cebpf4jnsgd1na2vs0mg"},{"bike_id":"c3cf305c-692c-41ed-b07c-7ebbc13f240d","system_id":"levelo_inurba_marseille","lat":43.337405,"lon":5.374624,"is_reserved":false,"is_disabled":false,"rental_uris":{"android":"levelo://app?vid=c3cf305c-692c-41ed-b07c-7ebbc13f240d","ios":"levelo://app?vid=c3cf305c-692c-41ed-b07c-7ebbc13f240d"},"vehicle_type_id":"4","last_reported":1723410504,"current_range_meters":14400,"station_id":"","pricing_plan_id":"cebpf4jnsgd1na2vs0mg"},{"bike_id":"090db84e-1d04-4bbd-a353-0b6756815b17","system_id":"levelo_inurba_marseille","lat":43.309371,"lon":5.401449,"is_reserved":false,"is_disabled":false,"rental_uris":{"android":"levelo://app?vid=090db84e-1d04-4bbd-a353-0b6756815b17","ios":"levelo://app?vid=090db84e-1d04-4bbd-a353-0b6756815b17"},"vehicle_type_id":"4","last_reported":1723410504,"current_range_meters":15200,"station_id":"ce4bgvp2rcd13ifvqct0","pricing_plan_id":"cebpf4jnsgd1na2vs0mg"},{"bike_id":"ac75d8e5-5139-4e43-a64e-51e7994c2517","system_id":"levelo_inurba_marseille","lat":43.337444,"lon":5.374475,"is_reserved":false,"is_disabled":false,"rental_uris":{"android":"levelo://app?vid=ac75d8e5-5139-4e43-a64e-51e7994c2517","ios":"levelo://app?vid=ac75d8e5-5139-4e43-a64e-51e7994c2517"},"vehicle_type_id":"3","last_reported":1723410504,"current_range_meters":24800,"station_id":"","pricing_plan_id":"cebpf4jnsgd1na2vs0mg"},{"bike_id":"43f21911-683d-4ba4-93d3-8a7e20e1c78c","system_id":"levelo_inurba_marseille","lat":43.337419,"lon":5.374638,"is_reserved":false,"is_disabled":false,"rental_uris":{"android":"levelo://app?vid=43f21911-683d-4ba4-93d3-8a7e20e1c78c","ios":"levelo://app?vid=43f21911-683d-4ba4-93d3-8a7e20e1c78c"},"vehicle_type_id":"4","last_reported":1723410504,"current_range_meters":25600,"station_id":"","pricing_plan_id":"cebpf4jnsgd1na2vs0mg"},{"bike_id":"8b5f6228-3582-497c-9919-c849c8ef0c9b","system_id":"levelo_inurba_marseille","lat":43.337436,"lon":5.374589,"is_reserved":false,"is_disabled":false,"rental_uris":{"android":"levelo://app?vid=8b5f6228-3582-497c-9919-c849c8ef0c9b","ios":"levelo://app?vid=8b5f6228-3582-497c-9919-c849c8ef0c9b"},"vehicle_type_id":"4","last_reported":1723410504,"current_range_meters":0,"station_id":"","pricing_plan_id":"cebpf4jnsgd1na2vs0mg"},{"bike_id":"7553d7c6-8eef-4b21-9dca-534ec43256a6","system_id":"levelo_inurba_marseille","lat":43.33742,"lon":5.37471,"is_reserved":false,"is_disabled":false,"rental_uris":{"android":"levelo://app?vid=7553d7c6-8eef-4b21-9dca-534ec43256a6","ios":"levelo://app?vid=7553d7c6-8eef-4b21-9dca-534ec43256a6"},"vehicle_type_id":"4","last_reported":1723410504,"current_range_meters":8400,"station_id":"","pricing_plan_id":"cebpf4jnsgd1na2vs0mg"},{"bike_id":"cca370f1-1cf1-419f-8366-12cbb48be5cd","system_id":"levelo_inurba_marseille","lat":43.312609,"lon":5.401662,"is_reserved":false,"is_disabled":false,"rental_uris":{"android":"levelo://app?vid=cca370f1-1cf1-419f-8366-12cbb48be5cd","ios":"levelo://app?vid=cca370f1-1cf1-419f-8366-12cbb48be5cd"},"vehicle_type_id":"4","last_reported":1723410504,"current_range_meters":17600,"station_id":"ce4bh092rcd13ifvqd30","pricing_plan_id":"cebpf4jnsgd1na2vs0mg"},{"bike_id":"a99690a8-3e4f-41a1-9b6a-5b43249a269f","system_id":"levelo_inurba_marseille","lat":43.33746,"lon":5.37457,"is_reserved":false,"is_disabled":false,"rental_uris":{"android":"levelo://app?vid=a99690a8-3e4f-41a1-9b6a-5b43249a269f","ios":"levelo://app?vid=a99690a8-3e4f-41a1-9b6a-5b43249a269f"},"vehicle_type_id":"4","last_reported":1723410504,"current_range_meters":0,"station_id":"","pricing_plan_id":"cebpf4jnsgd1na2vs0mg"},{"bike_id":"f93cccd7-d7cd-46f4-93f4-f651cb6cf80a","system_id":"levelo_inurba_marseille","lat":43.309371,"lon":5.401449,"is_reserved":false,"is_disabled":false,"rental_uris":{"android":"levelo://app?vid=f93cccd7-d7cd-46f4-93f4-f651cb6cf80a","ios":"levelo://app?vid=f93cccd7-d7cd-46f4-93f4-f651cb6cf80a"},"vehicle_type_id":"4","last_reported":1723410504,"current_range_meters":26800,"station_id":"ce4bgvp2rcd13ifvqct0","pricing_plan_id":"cebpf4jnsgd1na2vs0mg"},{"bike_id":"6137b86e-8de9-4c4f-94ef-bfa372175031","system_id":"levelo_inurba_marseille","lat":43.337513,"lon":5.37454,"is_reserved":false,"is_disabled":false,"rental_uris":{"android":"levelo://app?vid=6137b86e-8de9-4c4f-94ef-bfa372175031","ios":"levelo://app?vid=6137b86e-8de9-4c4f-94ef-bfa372175031"},"vehicle_type_id":"4","last_reported":1723410504,"current_range_meters":10800,"station_id":"","pricing_plan_id":"cebpf4jnsgd1na2vs0mg"},{"bike_id":"1ece39e8-5ec5-465b-b0d5-bdea3554c74d","system_id":"levelo_inurba_marseille","lat":43.337574,"lon":5.374486,"is_reserved":false,"is_disabled":false,"rental_uris":{"android":"levelo://app?vid=1ece39e8-5ec5-465b-b0d5-bdea3554c74d","ios":"levelo://app?vid=1ece39e8-5ec5-465b-b0d5-bdea3554c74d"},"vehicle_type_id":"4","last_reported":1723410504,"current_range_meters":20000,"station_id":"","pricing_plan_id":"cebpf4jnsgd1na2vs0mg"},{"bike_id":"6f8a75ef-cfde-4da5-99c7-85f9ae9b026b","system_id":"levelo_inurba_marseille","lat":43.3376,"lon":5.37452,"is_reserved":false,"is_disabled":false,"rental_uris":{"android":"levelo://app?vid=6f8a75ef-cfde-4da5-99c7-85f9ae9b026b","ios":"levelo://app?vid=6f8a75ef-cfde-4da5-99c7-85f9ae9b026b"},"vehicle_type_id":"4","last_reported":1723410504,"current_range_meters":19200,"station_id":"","pricing_plan_id":"cebpf4jnsgd1na2vs0mg"},{"bike_id":"01476dab-e760-4fb7-8586-ebe731e69dca","system_id":"levelo_inurba_marseille","lat":43.30642,"lon":5.401031,"is_reserved":false,"is_disabled":false,"rental_uris":{"android":"levelo://app?vid=01476dab-e760-4fb7-8586-ebe731e69dca","ios":"levelo://app?vid=01476dab-e760-4fb7-8586-ebe731e69dca"},"vehicle_type_id":"4","last_reported":1723410504,"current_range_meters":3600,"station_id":"ce4bh112rcd13ifvqda0","pricing_plan_id":"cebpf4jnsgd1na2vs0mg"},{"bike_id":"5cb0d0f3-eacc-40eb-a46e-542fc59e15f6","system_id":"levelo_inurba_marseille","lat":43.337559,"lon":5.374921,"is_reserved":false,"is_disabled":false,"rental_uris":{"android":"levelo://app?vid=5cb0d0f3-eacc-40eb-a46e-542fc59e15f6","ios":"levelo://app?vid=5cb0d0f3-eacc-40eb-a46e-542fc59e15f6"},"vehicle_type_id":"4","last_reported":1723410504,"current_range_meters":28400,"station_id":"","pricing_plan_id":"cebpf4jnsgd1na2vs0mg"},{"bike_id":"ea1cc1bc-b3f0-4093-8f5f-6dfff1fa63d9","system_id":"levelo_inurba_marseille","lat":43.337575,"lon":5.37485,"is_reserved":false,"is_disabled":false,"rental_uris":{"android":"levelo://app?vid=ea1cc1bc-b3f0-4093-8f5f-6dfff1fa63d9","ios":"levelo://app?vid=ea1cc1bc-b3f0-4093-8f5f-6dfff1fa63d9"},"vehicle_type_id":"4","last_reported":1723410504,"current_range_meters":30400,"station_id":"","pricing_plan_id":"cebpf4jnsgd1na2vs0mg"},{"bike_id":"e0da458e-1309-458b-956b-aab617b2ea05","system_id":"levelo_inurba_marseille","lat":43.3376,"lon":5.37473,"is_reserved":false,"is_disabled":false,"rental_uris":{"android":"levelo://app?vid=e0da458e-1309-458b-956b-aab617b2ea05","ios":"levelo://app?vid=e0da458e-1309-458b-956b-aab617b2ea05"},"vehicle_type_id":"4","last_reported":1723410504,"current_range_meters":22400,"station_id":"","pricing_plan_id":"cebpf4jnsgd1na2vs0mg"},{"bike_id":"a7e71684-8757-4c0e-98c0-cd5b05cd0ba7","system_id":"levelo_inurba_marseille","lat":43.337583,"lon":5.374932,"is_reserved":false,"is_disabled":false,"rental_uris":{"android":"levelo://app?vid=a7e71684-8757-4c0e-98c0-cd5b05cd0ba7","ios":"levelo://app?vid=a7e71684-8757-4c0e-98c0-cd5b05cd0ba7"},"vehicle_type_id":"4","last_reported":1723410504,"current_range_meters":28400,"station_id":"","pricing_plan_id":"cebpf4jnsgd1na2vs0mg"},{"bike_id":"b0b078c9-f9e4-40df-903d-6924fb474063","system_id":"levelo_inurba_marseille","lat":43.301117,"lon":5.398795,"is_reserved":false,"is_disabled":false,"rental_uris":{"android":"levelo://app?vid=b0b078c9-f9e4-40df-903d-6924fb474063","ios":"levelo://app?vid=b0b078c9-f9e4-40df-903d-6924fb474063"},"vehicle_type_id":"4","last_reported":1723410504,"current_range_meters":0,"station_id":"ce4bh0h2rcd13ifvqd40","pricing_plan_id":"cebpf4jnsgd1na2vs0mg"},{"bike_id":"475ed14f-5d86-4ce1-9e44-9d4d1bef7035","system_id":"levelo_inurba_marseille","lat":43.33765,"lon":5.37486,"is_reserved":false,"is_disabled":false,"rental_uris":{"android":"levelo://app?vid=475ed14f-5d86-4ce1-9e44-9d4d1bef7035","ios":"levelo://app?vid=475ed14f-5d86-4ce1-9e44-9d4d1bef7035"},"vehicle_type_id":"4","last_reported":1723410504,"current_range_meters":20400,"station_id":"","pricing_plan_id":"cebpf4jnsgd1na2vs0mg"},{"bike_id":"57da0337-159a-4148-be4f-fc6e9aca3c31","system_id":"levelo_inurba_marseille","lat":43.33708,"lon":5.35583,"is_reserved":false,"is_disabled":false,"rental_uris":{"android":"levelo://app?vid=57da0337-159a-4148-be4f-fc6e9aca3c31","ios":"levelo://app?vid=57da0337-159a-4148-be4f-fc6e9aca3c31"},"vehicle_type_id":"4","last_reported":1723410504,"current_range_meters":3600,"station_id":"","pricing_plan_id":"cebpf4jnsgd1na2vs0mg"},{"bike_id":"bbc93d7b-e545-4cee-a7ef-7875871156db","system_id":"levelo_inurba_marseille","lat":43.28727,"lon":5.36078,"is_reserved":false,"is_disabled":false,"rental_uris":{"android":"levelo://app?vid=bbc93d7b-e545-4cee-a7ef-7875871156db","ios":"levelo://app?vid=bbc93d7b-e545-4cee-a7ef-7875871156db"},"vehicle_type_id":"4","last_reported":1723410504,"current_range_meters":10800,"station_id":"cki0cbj6b192h4jlfktg","pricing_plan_id":"cebpf4jnsgd1na2vs0mg"},{"bike_id":"eabdb98c-f098-4411-9aab-0794187d9d07","system_id":"levelo_inurba_marseille","lat":43.29529,"lon":5.385581,"is_reserved":false,"is_disabled":false,"rental_uris":{"android":"levelo://app?vid=eabdb98c-f098-4411-9aab-0794187d9d07","ios":"levelo://app?vid=eabdb98c-f098-4411-9aab-0794187d9d07"},"vehicle_type_id":"4","last_reported":1723410504,"current_range_meters":19200,"station_id":"ce4bgih2rcd13ifvqba0","pricing_plan_id":"cebpf4jnsgd1na2vs0mg"},{"bike_id":"791a5a82-80b8-4e40-94ec-b466900a7169","system_id":"levelo_inurba_marseille","lat":43.289307,"lon":5.38406,"is_reserved":false,"is_disabled":false,"rental_uris":{"android":"levelo://app?vid=791a5a82-80b8-4e40-94ec-b466900a7169","ios":"levelo://app?vid=791a5a82-80b8-4e40-94ec-b466900a7169"},"vehicle_type_id":"4","last_reported":1723410504,"current_range_meters":6000,"station_id":"ce4bh612rcd13ifvqe6g","pricing_plan_id":"cebpf4jnsgd1na2vs0mg"},{"bike_id":"ceef897e-38c3-48d6-9246-e4c3002c5452","system_id":"levelo_inurba_marseille","lat":43.286961,"lon":5.373785,"is_reserved":false,"is_disabled":false,"rental_uris":{"android":"levelo://app?vid=ceef897e-38c3-48d6-9246-e4c3002c5452","ios":"levelo://app?vid=ceef897e-38c3-48d6-9246-e4c3002c5452"},"vehicle_type_id":"4","last_reported":1723410504,"current_range_meters":17600,"station_id":"ce4bh3p2rcd13ifvqdq0","pricing_plan_id":"cebpf4jnsgd1na2vs0mg"},{"bike_id":"3b515d13-8d92-40a1-9e37-e093a120454d","system_id":"levelo_inurba_marseille","lat":43.286593,"lon":5.363346,"is_reserved":false,"is_disabled":false,"rental_uris":{"android":"levelo://app?vid=3b515d13-8d92-40a1-9e37-e093a120454d","ios":"levelo://app?vid=3b515d13-8d92-40a1-9e37-e093a120454d"},"vehicle_type_id":"4","last_reported":1723410504,"current_range_meters":10000,"station_id":"ce4bhah2rcd13ifvqej0","pricing_plan_id":"cebpf4jnsgd1na2vs0mg"},{"bike_id":"773de0a3-5782-4508-a98f-c7405e39c3fb","system_id":"levelo_inurba_marseille","lat":43.28667,"lon":5.36345,"is_reserved":false,"is_disabled":false,"rental_uris":{"android":"levelo://app?vid=773de0a3-5782-4508-a98f-c7405e39c3fb","ios":"levelo://app?vid=773de0a3-5782-4508-a98f-c7405e39c3fb"},"vehicle_type_id":"4","last_reported":1723410504,"current_range_meters":0,"station_id":"ce4bhah2rcd13ifvqej0","pricing_plan_id":"cebpf4jnsgd1na2vs0mg"},{"bike_id":"e6a7074c-c295-4ead-aaab-536257c22210","system_id":"levelo_inurba_marseille","lat":43.286593,"lon":5.363346,"is_reserved":false,"is_disabled":false,"rental_uris":{"android":"levelo://app?vid=e6a7074c-c295-4ead-aaab-536257c22210","ios":"levelo://app?vid=e6a7074c-c295-4ead-aaab-536257c22210"},"vehicle_type_id":"4","last_reported":1723410504,"current_range_meters":28800,"station_id":"ce4bhah2rcd13ifvqej0","pricing_plan_id":"cebpf4jnsgd1na2vs0mg"},{"bike_id":"46eb8e26-1804-4f52-b1df-a11e0313533c","system_id":"levelo_inurba_marseille","lat":43.286961,"lon":5.373785,"is_reserved":false,"is_disabled":false,"rental_uris":{"android":"levelo://app?vid=46eb8e26-1804-4f52-b1df-a11e0313533c","ios":"levelo://app?vid=46eb8e26-1804-4f52-b1df-a11e0313533c"},"vehicle_type_id":"4","last_reported":1723410504,"current_range_meters":1600,"station_id":"ce4bh3p2rcd13ifvqdq0","pricing_plan_id":"cebpf4jnsgd1na2vs0mg"},{"bike_id":"ca855bca-c8ef-470f-a020-8c35c33d95f5","system_id":"levelo_inurba_marseille","lat":43.286593,"lon":5.363346,"is_reserved":false,"is_disabled":false,"rental_uris":{"android":"levelo://app?vid=ca855bca-c8ef-470f-a020-8c35c33d95f5","ios":"levelo://app?vid=ca855bca-c8ef-470f-a020-8c35c33d95f5"},"vehicle_type_id":"4","last_reported":1723410504,"current_range_meters":1600,"station_id":"ce4bhah2rcd13ifvqej0","pricing_plan_id":"cebpf4jnsgd1na2vs0mg"},{"bike_id":"a541ce6b-b29e-4e58-b112-888e9514fb78","system_id":"levelo_inurba_marseille","lat":43.286593,"lon":5.363346,"is_reserved":false,"is_disabled":false,"rental_uris":{"android":"levelo://app?vid=a541ce6b-b29e-4e58-b112-888e9514fb78","ios":"levelo://app?vid=a541ce6b-b29e-4e58-b112-888e9514fb78"},"vehicle_type_id":"4","last_reported":1723410504,"current_range_meters":29200,"station_id":"ce4bhah2rcd13ifvqej0","pricing_plan_id":"cebpf4jnsgd1na2vs0mg"},{"bike_id":"b125a24b-87eb-4403-895a-5a4e3dd4f667","system_id":"levelo_inurba_marseille","lat":43.289307,"lon":5.38406,"is_reserved":false,"is_disabled":false,"rental_uris":{"android":"levelo://app?vid=b125a24b-87eb-4403-895a-5a4e3dd4f667","ios":"levelo://app?vid=b125a24b-87eb-4403-895a-5a4e3dd4f667"},"vehicle_type_id":"4","last_reported":1723410504,"current_range_meters":29600,"station_id":"ce4bh612rcd13ifvqe6g","pricing_plan_id":"cebpf4jnsgd1na2vs0mg"},{"bike_id":"69aea36d-e67c-4b38-bf7a-dd15721452ed","system_id":"levelo_inurba_marseille","lat":43.289307,"lon":5.38406,"is_reserved":false,"is_disabled":false,"rental_uris":{"android":"levelo://app?vid=69aea36d-e67c-4b38-bf7a-dd15721452ed","ios":"levelo://app?vid=69aea36d-e67c-4b38-bf7a-dd15721452ed"},"vehicle_type_id":"4","last_reported":1723410504,"current_range_meters":31200,"station_id":"ce4bh612rcd13ifvqe6g","pricing_plan_id":"cebpf4jnsgd1na2vs0mg"},{"bike_id":"64944829-a863-4a7c-846f-7206bdc07919","system_id":"levelo_inurba_marseille","lat":43.289307,"lon":5.38406,"is_reserved":false,"is_disabled":false,"rental_uris":{"android":"levelo://app?vid=64944829-a863-4a7c-846f-7206bdc07919","ios":"levelo://app?vid=64944829-a863-4a7c-846f-7206bdc07919"},"vehicle_type_id":"4","last_reported":1723410504,"current_range_meters":24800,"station_id":"ce4bh612rcd13ifvqe6g","pricing_plan_id":"cebpf4jnsgd1na2vs0mg"},{"bike_id":"ee105235-b96d-44c7-8d64-89092e7fc99d","system_id":"levelo_inurba_marseille","lat":43.289307,"lon":5.38406,"is_reserved":false,"is_disabled":false,"rental_uris":{"android":"levelo://app?vid=ee105235-b96d-44c7-8d64-89092e7fc99d","ios":"levelo://app?vid=ee105235-b96d-44c7-8d64-89092e7fc99d"},"vehicle_type_id":"4","last_reported":1723410504,"current_range_meters":6400,"station_id":"ce4bh612rcd13ifvqe6g","pricing_plan_id":"cebpf4jnsgd1na2vs0mg"},{"bike_id":"5ce76b25-8e0a-48fb-b3b3-27f4bd6b4e4b","system_id":"levelo_inurba_marseille","lat":43.289307,"lon":5.38406,"is_reserved":false,"is_disabled":false,"rental_uris":{"android":"levelo://app?vid=5ce76b25-8e0a-48fb-b3b3-27f4bd6b4e4b","ios":"levelo://app?vid=5ce76b25-8e0a-48fb-b3b3-27f4bd6b4e4b"},"vehicle_type_id":"4","last_reported":1723410504,"current_range_meters":6800,"station_id":"ce4bh612rcd13ifvqe6g","pricing_plan_id":"cebpf4jnsgd1na2vs0mg"},{"bike_id":"81492143-9758-4368-ae4e-7ecace7472b3","system_id":"levelo_inurba_marseille","lat":43.29029,"lon":5.38641,"is_reserved":false,"is_disabled":false,"rental_uris":{"android":"levelo://app?vid=81492143-9758-4368-ae4e-7ecace7472b3","ios":"levelo://app?vid=81492143-9758-4368-ae4e-7ecace7472b3"},"vehicle_type_id":"4","last_reported":1723410504,"current_range_meters":18400,"station_id":"ce4bh4p2rcd13ifvqe0g","pricing_plan_id":"cebpf4jnsgd1na2vs0mg"},{"bike_id":"a92b5f57-0262-466c-8003-eeddc9ddd941","system_id":"levelo_inurba_marseille","lat":43.289307,"lon":5.38406,"is_reserved":false,"is_disabled":false,"rental_uris":{"android":"levelo://app?vid=a92b5f57-0262-466c-8003-eeddc9ddd941","ios":"levelo://app?vid=a92b5f57-0262-466c-8003-eeddc9ddd941"},"vehicle_type_id":"4","last_reported":1723410504,"current_range_meters":19600,"station_id":"ce4bh612rcd13ifvqe6g","pricing_plan_id":"cebpf4jnsgd1na2vs0mg"},{"bike_id":"efabe2e6-933e-4975-a13b-07778e592086","system_id":"levelo_inurba_marseille","lat":43.289307,"lon":5.38406,"is_reserved":false,"is_disabled":false,"rental_uris":{"android":"levelo://app?vid=efabe2e6-933e-4975-a13b-07778e592086","ios":"levelo://app?vid=efabe2e6-933e-4975-a13b-07778e592086"},"vehicle_type_id":"4","last_reported":1723410504,"current_range_meters":22000,"station_id":"ce4bh612rcd13ifvqe6g","pricing_plan_id":"cebpf4jnsgd1na2vs0mg"},{"bike_id":"1be35606-d9ec-4820-88fb-f84dc8fcb845","system_id":"levelo_inurba_marseille","lat":43.302759,"lon":5.400793,"is_reserved":false,"is_disabled":false,"rental_uris":{"android":"levelo://app?vid=1be35606-d9ec-4820-88fb-f84dc8fcb845","ios":"levelo://app?vid=1be35606-d9ec-4820-88fb-f84dc8fcb845"},"vehicle_type_id":"4","last_reported":1723410504,"current_range_meters":23200,"station_id":"ce4bgvh2rcd13ifvqcs0","pricing_plan_id":"cebpf4jnsgd1na2vs0mg"},{"bike_id":"fad905d3-b1ce-4b5b-8b2e-742536a332c1","system_id":"levelo_inurba_marseille","lat":43.29029,"lon":5.38651,"is_reserved":false,"is_disabled":false,"rental_uris":{"android":"levelo://app?vid=fad905d3-b1ce-4b5b-8b2e-742536a332c1","ios":"levelo://app?vid=fad905d3-b1ce-4b5b-8b2e-742536a332c1"},"vehicle_type_id":"4","last_reported":1723410504,"current_range_meters":5200,"station_id":"ce4bh4p2rcd13ifvqe0g","pricing_plan_id":"cebpf4jnsgd1na2vs0mg"},{"bike_id":"0265ee9a-f5f5-4815-b63c-209ce8814b5a","system_id":"levelo_inurba_marseille","lat":43.2903,"lon":5.38655,"is_reserved":false,"is_disabled":false,"rental_uris":{"android":"levelo://app?vid=0265ee9a-f5f5-4815-b63c-209ce8814b5a","ios":"levelo://app?vid=0265ee9a-f5f5-4815-b63c-209ce8814b5a"},"vehicle_type_id":"4","last_reported":1723410504,"current_range_meters":0,"station_id":"ce4bh4p2rcd13ifvqe0g","pricing_plan_id":"cebpf4jnsgd1na2vs0mg"},{"bike_id":"b996838d-6690-41d6-bd68-e3c4941e999e","system_id":"levelo_inurba_marseille","lat":43.29029,"lon":5.38654,"is_reserved":false,"is_disabled":false,"rental_uris":{"android":"levelo://app?vid=b996838d-6690-41d6-bd68-e3c4941e999e","ios":"levelo://app?vid=b996838d-6690-41d6-bd68-e3c4941e999e"},"vehicle_type_id":"4","last_reported":1723410504,"current_range_meters":0,"station_id":"ce4bh4p2rcd13ifvqe0g","pricing_plan_id":"cebpf4jnsgd1na2vs0mg"},{"bike_id":"bd4fce73-a369-43e4-a6b6-48b1ba06574c","system_id":"levelo_inurba_marseille","lat":43.29027,"lon":5.3865,"is_reserved":false,"is_disabled":false,"rental_uris":{"android":"levelo://app?vid=bd4fce73-a369-43e4-a6b6-48b1ba06574c","ios":"levelo://app?vid=bd4fce73-a369-43e4-a6b6-48b1ba06574c"},"vehicle_type_id":"4","last_reported":1723410504,"current_range_meters":0,"station_id":"ce4bh4p2rcd13ifvqe0g","pricing_plan_id":"cebpf4jnsgd1na2vs0mg"},{"bike_id":"defcc37c-f7bf-4d93-9cbc-d1b42b4c5435","system_id":"levelo_inurba_marseille","lat":43.290336,"lon":5.386425,"is_reserved":false,"is_disabled":false,"rental_uris":{"android":"levelo://app?vid=defcc37c-f7bf-4d93-9cbc-d1b42b4c5435","ios":"levelo://app?vid=defcc37c-f7bf-4d93-9cbc-d1b42b4c5435"},"vehicle_type_id":"4","last_reported":1723410504,"current_range_meters":26800,"station_id":"ce4bh4p2rcd13ifvqe0g","pricing_plan_id":"cebpf4jnsgd1na2vs0mg"},{"bike_id":"a248b66c-bbc0-49c3-821d-5c1e2e71624d","system_id":"levelo_inurba_marseille","lat":43.29025,"lon":5.38659,"is_reserved":false,"is_disabled":false,"rental_uris":{"android":"levelo://app?vid=a248b66c-bbc0-49c3-821d-5c1e2e71624d","ios":"levelo://app?vid=a248b66c-bbc0-49c3-821d-5c1e2e71624d"},"vehicle_type_id":"4","last_reported":1723410504,"current_range_meters":27600,"station_id":"ce4bh4p2rcd13ifvqe0g","pricing_plan_id":"cebpf4jnsgd1na2vs0mg"},{"bike_id":"3cf3c2c4-3f13-43f7-846c-08c89c6b3fb9","system_id":"levelo_inurba_marseille","lat":43.30255,"lon":5.40082,"is_reserved":false,"is_disabled":false,"rental_uris":{"android":"levelo://app?vid=3cf3c2c4-3f13-43f7-846c-08c89c6b3fb9","ios":"levelo://app?vid=3cf3c2c4-3f13-43f7-846c-08c89c6b3fb9"},"vehicle_type_id":"4","last_reported":1723410504,"current_range_meters":31200,"station_id":"ce4bgvh2rcd13ifvqcs0","pricing_plan_id":"cebpf4jnsgd1na2vs0mg"},{"bike_id":"25465b4c-d19c-49ee-b26c-0734fbe14bbd","system_id":"levelo_inurba_marseille","lat":43.30259,"lon":5.40086,"is_reserved":false,"is_disabled":false,"rental_uris":{"android":"levelo://app?vid=25465b4c-d19c-49ee-b26c-0734fbe14bbd","ios":"levelo://app?vid=25465b4c-d19c-49ee-b26c-0734fbe14bbd"},"vehicle_type_id":"4","last_reported":1723410504,"current_range_meters":8400,"station_id":"ce4bgvh2rcd13ifvqcs0","pricing_plan_id":"cebpf4jnsgd1na2vs0mg"},{"bike_id":"5ee21ac6-a694-4257-94d1-b15c636f23a4","system_id":"levelo_inurba_marseille","lat":43.302759,"lon":5.400793,"is_reserved":false,"is_disabled":false,"rental_uris":{"android":"levelo://app?vid=5ee21ac6-a694-4257-94d1-b15c636f23a4","ios":"levelo://app?vid=5ee21ac6-a694-4257-94d1-b15c636f23a4"},"vehicle_type_id":"4","last_reported":1723410504,"current_range_meters":4800,"station_id":"ce4bgvh2rcd13ifvqcs0","pricing_plan_id":"cebpf4jnsgd1na2vs0mg"},{"bike_id":"cb0ca963-e36b-4a05-908c-29118ca50eae","system_id":"levelo_inurba_marseille","lat":43.302759,"lon":5.400793,"is_reserved":false,"is_disabled":false,"rental_uris":{"android":"levelo://app?vid=cb0ca963-e36b-4a05-908c-29118ca50eae","ios":"levelo://app?vid=cb0ca963-e36b-4a05-908c-29118ca50eae"},"vehicle_type_id":"4","last_reported":1723410504,"current_range_meters":26800,"station_id":"ce4bgvh2rcd13ifvqcs0","pricing_plan_id":"cebpf4jnsgd1na2vs0mg"},{"bike_id":"5b362a7c-2e09-4282-b062-20eb9d852fb8","system_id":"levelo_inurba_marseille","lat":43.286039,"lon":5.370679,"is_reserved":false,"is_disabled":false,"rental_uris":{"android":"levelo://app?vid=5b362a7c-2e09-4282-b062-20eb9d852fb8","ios":"levelo://app?vid=5b362a7c-2e09-4282-b062-20eb9d852fb8"},"vehicle_type_id":"4","last_reported":1723410504,"current_range_meters":22800,"station_id":"ce4bht12rcd13ifvqi60","pricing_plan_id":"cebpf4jnsgd1na2vs0mg"},{"bike_id":"2174df38-7e7d-4622-8e45-2dd9221a974f","system_id":"levelo_inurba_marseille","lat":43.286039,"lon":5.370679,"is_reserved":false,"is_disabled":false,"rental_uris":{"android":"levelo://app?vid=2174df38-7e7d-4622-8e45-2dd9221a974f","ios":"levelo://app?vid=2174df38-7e7d-4622-8e45-2dd9221a974f"},"vehicle_type_id":"4","last_reported":1723410504,"current_range_meters":17200,"station_id":"ce4bht12rcd13ifvqi60","pricing_plan_id":"cebpf4jnsgd1na2vs0mg"},{"bike_id":"09873725-1fa9-4e80-91e4-8c002c000731","system_id":"levelo_inurba_marseille","lat":43.28612,"lon":5.37059,"is_reserved":false,"is_disabled":false,"rental_uris":{"android":"levelo://app?vid=09873725-1fa9-4e80-91e4-8c002c000731","ios":"levelo://app?vid=09873725-1fa9-4e80-91e4-8c002c000731"},"vehicle_type_id":"4","last_reported":1723410504,"current_range_meters":0,"station_id":"","pricing_plan_id":"cebpf4jnsgd1na2vs0mg"},{"bike_id":"1d8f9745-fac0-43e1-973a-190138e5c631","system_id":"levelo_inurba_marseille","lat":43.286039,"lon":5.370679,"is_reserved":false,"is_disabled":false,"rental_uris":{"android":"levelo://app?vid=1d8f9745-fac0-43e1-973a-190138e5c631","ios":"levelo://app?vid=1d8f9745-fac0-43e1-973a-190138e5c631"},"vehicle_type_id":"4","last_reported":1723410504,"current_range_meters":24000,"station_id":"ce4bht12rcd13ifvqi60","pricing_plan_id":"cebpf4jnsgd1na2vs0mg"},{"bike_id":"996d9335-1178-45af-90fc-d6d4c239eba1","system_id":"levelo_inurba_marseille","lat":43.287194,"lon":5.379278,"is_reserved":false,"is_disabled":false,"rental_uris":{"android":"levelo://app?vid=996d9335-1178-45af-90fc-d6d4c239eba1","ios":"levelo://app?vid=996d9335-1178-45af-90fc-d6d4c239eba1"},"vehicle_type_id":"4","last_reported":1723410504,"current_range_meters":0,"station_id":"ce4bh9p2rcd13ifvqec0","pricing_plan_id":"cebpf4jnsgd1na2vs0mg"},{"bike_id":"770ad36c-e5fc-4e19-b44d-0b8466af34de","system_id":"levelo_inurba_marseille","lat":43.28721,"lon":5.37938,"is_reserved":false,"is_disabled":false,"rental_uris":{"android":"levelo://app?vid=770ad36c-e5fc-4e19-b44d-0b8466af34de","ios":"levelo://app?vid=770ad36c-e5fc-4e19-b44d-0b8466af34de"},"vehicle_type_id":"4","last_reported":1723410504,"current_range_meters":19200,"station_id":"ce4bh9p2rcd13ifvqec0","pricing_plan_id":"cebpf4jnsgd1na2vs0mg"},{"bike_id":"89ae6b9b-806c-40e7-8848-035c040ae6fa","system_id":"levelo_inurba_marseille","lat":43.28716,"lon":5.37944,"is_reserved":false,"is_disabled":false,"rental_uris":{"android":"levelo://app?vid=89ae6b9b-806c-40e7-8848-035c040ae6fa","ios":"levelo://app?vid=89ae6b9b-806c-40e7-8848-035c040ae6fa"},"vehicle_type_id":"4","last_reported":1723410504,"current_range_meters":20400,"station_id":"ce4bh9p2rcd13ifvqec0","pricing_plan_id":"cebpf4jnsgd1na2vs0mg"},{"bike_id":"f4c6676d-1c60-4beb-96e0-de98240d7fb1","system_id":"levelo_inurba_marseille","lat":43.28711,"lon":5.37937,"is_reserved":false,"is_disabled":false,"rental_uris":{"android":"levelo://app?vid=f4c6676d-1c60-4beb-96e0-de98240d7fb1","ios":"levelo://app?vid=f4c6676d-1c60-4beb-96e0-de98240d7fb1"},"vehicle_type_id":"4","last_reported":1723410504,"current_range_meters":7200,"station_id":"ce4bh9p2rcd13ifvqec0","pricing_plan_id":"cebpf4jnsgd1na2vs0mg"},{"bike_id":"8cb8d0e0-6350-41ae-984e-1ff2fa2f6a02","system_id":"levelo_inurba_marseille","lat":43.287185,"lon":5.379373,"is_reserved":false,"is_disabled":false,"rental_uris":{"android":"levelo://app?vid=8cb8d0e0-6350-41ae-984e-1ff2fa2f6a02","ios":"levelo://app?vid=8cb8d0e0-6350-41ae-984e-1ff2fa2f6a02"},"vehicle_type_id":"4","last_reported":1723410504,"current_range_meters":0,"station_id":"ce4bh9p2rcd13ifvqec0","pricing_plan_id":"cebpf4jnsgd1na2vs0mg"},{"bike_id":"af5b5b00-3baf-460b-852e-ea1af365054e","system_id":"levelo_inurba_marseille","lat":43.288969,"lon":5.387081,"is_reserved":false,"is_disabled":false,"rental_uris":{"android":"levelo://app?vid=af5b5b00-3baf-460b-852e-ea1af365054e","ios":"levelo://app?vid=af5b5b00-3baf-460b-852e-ea1af365054e"},"vehicle_type_id":"4","last_reported":1723410504,"current_range_meters":0,"station_id":"","pricing_plan_id":"cebpf4jnsgd1na2vs0mg"},{"bike_id":"a535f803-be4c-427e-86cb-99e30d34949a","system_id":"levelo_inurba_marseille","lat":43.291994,"lon":5.392907,"is_reserved":false,"is_disabled":false,"rental_uris":{"android":"levelo://app?vid=a535f803-be4c-427e-86cb-99e30d34949a","ios":"levelo://app?vid=a535f803-be4c-427e-86cb-99e30d34949a"},"vehicle_type_id":"4","last_reported":1723410504,"current_range_meters":4000,"station_id":"ce4bh192rcd13ifvqdd0","pricing_plan_id":"cebpf4jnsgd1na2vs0mg"},{"bike_id":"f5dec97d-38a5-4e35-949a-686b91fbbc1a","system_id":"levelo_inurba_marseille","lat":43.29198,"lon":5.3932,"is_reserved":false,"is_disabled":false,"rental_uris":{"android":"levelo://app?vid=f5dec97d-38a5-4e35-949a-686b91fbbc1a","ios":"levelo://app?vid=f5dec97d-38a5-4e35-949a-686b91fbbc1a"},"vehicle_type_id":"4","last_reported":1723410504,"current_range_meters":7200,"station_id":"ce4bh192rcd13ifvqdd0","pricing_plan_id":"cebpf4jnsgd1na2vs0mg"},{"bike_id":"3a5f84ad-7eef-41cc-bc83-5aa192392bfa","system_id":"levelo_inurba_marseille","lat":43.29199,"lon":5.39322,"is_reserved":false,"is_disabled":false,"rental_uris":{"android":"levelo://app?vid=3a5f84ad-7eef-41cc-bc83-5aa192392bfa","ios":"levelo://app?vid=3a5f84ad-7eef-41cc-bc83-5aa192392bfa"},"vehicle_type_id":"4","last_reported":1723410504,"current_range_meters":18400,"station_id":"ce4bh192rcd13ifvqdd0","pricing_plan_id":"cebpf4jnsgd1na2vs0mg"},{"bike_id":"61792e03-d29e-49da-a415-b61756c60be7","system_id":"levelo_inurba_marseille","lat":43.291994,"lon":5.392907,"is_reserved":false,"is_disabled":false,"rental_uris":{"android":"levelo://app?vid=61792e03-d29e-49da-a415-b61756c60be7","ios":"levelo://app?vid=61792e03-d29e-49da-a415-b61756c60be7"},"vehicle_type_id":"4","last_reported":1723410504,"current_range_meters":18800,"station_id":"ce4bh192rcd13ifvqdd0","pricing_plan_id":"cebpf4jnsgd1na2vs0mg"},{"bike_id":"ebd6124d-7021-46ef-8cf2-b0f10ef190b1","system_id":"levelo_inurba_marseille","lat":43.29196,"lon":5.39325,"is_reserved":false,"is_disabled":false,"rental_uris":{"android":"levelo://app?vid=ebd6124d-7021-46ef-8cf2-b0f10ef190b1","ios":"levelo://app?vid=ebd6124d-7021-46ef-8cf2-b0f10ef190b1"},"vehicle_type_id":"4","last_reported":1723410504,"current_range_meters":16800,"station_id":"ce4bh192rcd13ifvqdd0","pricing_plan_id":"cebpf4jnsgd1na2vs0mg"},{"bike_id":"d3081004-cc1e-4a3e-a242-aab6eea3f6e6","system_id":"levelo_inurba_marseille","lat":43.291994,"lon":5.392907,"is_reserved":false,"is_disabled":false,"rental_uris":{"android":"levelo://app?vid=d3081004-cc1e-4a3e-a242-aab6eea3f6e6","ios":"levelo://app?vid=d3081004-cc1e-4a3e-a242-aab6eea3f6e6"},"vehicle_type_id":"4","last_reported":1723410504,"current_range_meters":22400,"station_id":"ce4bh192rcd13ifvqdd0","pricing_plan_id":"cebpf4jnsgd1na2vs0mg"},{"bike_id":"092f0a5f-bda5-415c-9cd4-11d7fa0638ae","system_id":"levelo_inurba_marseille","lat":43.291994,"lon":5.392907,"is_reserved":false,"is_disabled":false,"rental_uris":{"android":"levelo://app?vid=092f0a5f-bda5-415c-9cd4-11d7fa0638ae","ios":"levelo://app?vid=092f0a5f-bda5-415c-9cd4-11d7fa0638ae"},"vehicle_type_id":"4","last_reported":1723410504,"current_range_meters":5200,"station_id":"ce4bh192rcd13ifvqdd0","pricing_plan_id":"cebpf4jnsgd1na2vs0mg"},{"bike_id":"5c522414-07f7-49f3-9bd7-58ec71f4df41","system_id":"levelo_inurba_marseille","lat":43.29202,"lon":5.3934,"is_reserved":false,"is_disabled":false,"rental_uris":{"android":"levelo://app?vid=5c522414-07f7-49f3-9bd7-58ec71f4df41","ios":"levelo://app?vid=5c522414-07f7-49f3-9bd7-58ec71f4df41"},"vehicle_type_id":"4","last_reported":1723410504,"current_range_meters":5600,"station_id":"ce4bh192rcd13ifvqdd0","pricing_plan_id":"cebpf4jnsgd1na2vs0mg"},{"bike_id":"9f525a49-cd0b-4020-85a6-44674db15910","system_id":"levelo_inurba_marseille","lat":43.2919,"lon":5.39324,"is_reserved":false,"is_disabled":false,"rental_uris":{"android":"levelo://app?vid=9f525a49-cd0b-4020-85a6-44674db15910","ios":"levelo://app?vid=9f525a49-cd0b-4020-85a6-44674db15910"},"vehicle_type_id":"4","last_reported":1723410504,"current_range_meters":8000,"station_id":"ce4bh192rcd13ifvqdd0","pricing_plan_id":"cebpf4jnsgd1na2vs0mg"},{"bike_id":"4dd29048-99ba-4789-93db-d7906ae8dc14","system_id":"levelo_inurba_marseille","lat":43.29196,"lon":5.39333,"is_reserved":false,"is_disabled":false,"rental_uris":{"android":"levelo://app?vid=4dd29048-99ba-4789-93db-d7906ae8dc14","ios":"levelo://app?vid=4dd29048-99ba-4789-93db-d7906ae8dc14"},"vehicle_type_id":"4","last_reported":1723410504,"current_range_meters":2400,"station_id":"ce4bh192rcd13ifvqdd0","pricing_plan_id":"cebpf4jnsgd1na2vs0mg"},{"bike_id":"49c9048c-7d34-499f-a66a-87c240ed3226","system_id":"levelo_inurba_marseille","lat":43.29192,"lon":5.39331,"is_reserved":false,"is_disabled":false,"rental_uris":{"android":"levelo://app?vid=49c9048c-7d34-499f-a66a-87c240ed3226","ios":"levelo://app?vid=49c9048c-7d34-499f-a66a-87c240ed3226"},"vehicle_type_id":"4","last_reported":1723410504,"current_range_meters":26800,"station_id":"ce4bh192rcd13ifvqdd0","pricing_plan_id":"cebpf4jnsgd1na2vs0mg"},{"bike_id":"4f428281-cb31-4df3-b313-c1a98db22d91","system_id":"levelo_inurba_marseille","lat":43.294314,"lon":5.397498,"is_reserved":false,"is_disabled":false,"rental_uris":{"android":"levelo://app?vid=4f428281-cb31-4df3-b313-c1a98db22d91","ios":"levelo://app?vid=4f428281-cb31-4df3-b313-c1a98db22d91"},"vehicle_type_id":"4","last_reported":1723410504,"current_range_meters":9600,"station_id":"ce4bh3h2rcd13ifvqdo0","pricing_plan_id":"cebpf4jnsgd1na2vs0mg"},{"bike_id":"f1f25379-3374-49c8-bc24-76be466fd42e","system_id":"levelo_inurba_marseille","lat":43.294314,"lon":5.397498,"is_reserved":false,"is_disabled":false,"rental_uris":{"android":"levelo://app?vid=f1f25379-3374-49c8-bc24-76be466fd42e","ios":"levelo://app?vid=f1f25379-3374-49c8-bc24-76be466fd42e"},"vehicle_type_id":"4","last_reported":1723410504,"current_range_meters":9600,"station_id":"ce4bh3h2rcd13ifvqdo0","pricing_plan_id":"cebpf4jnsgd1na2vs0mg"},{"bike_id":"7af28132-4682-4eac-9d2f-8adab798ec82","system_id":"levelo_inurba_marseille","lat":43.294314,"lon":5.397498,"is_reserved":false,"is_disabled":false,"rental_uris":{"android":"levelo://app?vid=7af28132-4682-4eac-9d2f-8adab798ec82","ios":"levelo://app?vid=7af28132-4682-4eac-9d2f-8adab798ec82"},"vehicle_type_id":"4","last_reported":1723410504,"current_range_meters":23600,"station_id":"ce4bh3h2rcd13ifvqdo0","pricing_plan_id":"cebpf4jnsgd1na2vs0mg"},{"bike_id":"6d93a544-4c3d-4929-ad9d-3e73d76e39b4","system_id":"levelo_inurba_marseille","lat":43.29444,"lon":5.39757,"is_reserved":false,"is_disabled":false,"rental_uris":{"android":"levelo://app?vid=6d93a544-4c3d-4929-ad9d-3e73d76e39b4","ios":"levelo://app?vid=6d93a544-4c3d-4929-ad9d-3e73d76e39b4"},"vehicle_type_id":"4","last_reported":1723410504,"current_range_meters":0,"station_id":"ce4bh3h2rcd13ifvqdo0","pricing_plan_id":"cebpf4jnsgd1na2vs0mg"},{"bike_id":"e49aee5c-ea81-4204-b29c-1b52791e6efe","system_id":"levelo_inurba_marseille","lat":43.29445,"lon":5.39761,"is_reserved":false,"is_disabled":false,"rental_uris":{"android":"levelo://app?vid=e49aee5c-ea81-4204-b29c-1b52791e6efe","ios":"levelo://app?vid=e49aee5c-ea81-4204-b29c-1b52791e6efe"},"vehicle_type_id":"4","last_reported":1723410504,"current_range_meters":0,"station_id":"ce4bh3h2rcd13ifvqdo0","pricing_plan_id":"cebpf4jnsgd1na2vs0mg"},{"bike_id":"c0b4c7c8-fee4-4395-9b00-4db7ff3b3cc2","system_id":"levelo_inurba_marseille","lat":43.31557,"lon":5.40652,"is_reserved":false,"is_disabled":false,"rental_uris":{"android":"levelo://app?vid=c0b4c7c8-fee4-4395-9b00-4db7ff3b3cc2","ios":"levelo://app?vid=c0b4c7c8-fee4-4395-9b00-4db7ff3b3cc2"},"vehicle_type_id":"4","last_reported":1723410504,"current_range_meters":13200,"station_id":"","pricing_plan_id":"cebpf4jnsgd1na2vs0mg"},{"bike_id":"bc68d1fd-bfdc-477f-a7d3-4a3e52c29636","system_id":"levelo_inurba_marseille","lat":43.31562,"lon":5.40652,"is_reserved":false,"is_disabled":false,"rental_uris":{"android":"levelo://app?vid=bc68d1fd-bfdc-477f-a7d3-4a3e52c29636","ios":"levelo://app?vid=bc68d1fd-bfdc-477f-a7d3-4a3e52c29636"},"vehicle_type_id":"4","last_reported":1723410504,"current_range_meters":10400,"station_id":"ce4bgup2rcd13ifvqco0","pricing_plan_id":"cebpf4jnsgd1na2vs0mg"},{"bike_id":"ac7a3bc8-eac8-4372-8501-beafa774c88d","system_id":"levelo_inurba_marseille","lat":43.28413,"lon":5.37517,"is_reserved":false,"is_disabled":false,"rental_uris":{"android":"levelo://app?vid=ac7a3bc8-eac8-4372-8501-beafa774c88d","ios":"levelo://app?vid=ac7a3bc8-eac8-4372-8501-beafa774c88d"},"vehicle_type_id":"4","last_reported":1723410504,"current_range_meters":8400,"station_id":"ce4bh412rcd13ifvqds0","pricing_plan_id":"cebpf4jnsgd1na2vs0mg"},{"bike_id":"4aa70c75-fcc6-4e12-a073-7ba1cb45a365","system_id":"levelo_inurba_marseille","lat":43.28408,"lon":5.3751,"is_reserved":false,"is_disabled":false,"rental_uris":{"android":"levelo://app?vid=4aa70c75-fcc6-4e12-a073-7ba1cb45a365","ios":"levelo://app?vid=4aa70c75-fcc6-4e12-a073-7ba1cb45a365"},"vehicle_type_id":"4","last_reported":1723410504,"current_range_meters":12800,"station_id":"ce4bh412rcd13ifvqds0","pricing_plan_id":"cebpf4jnsgd1na2vs0mg"},