{"last_updated":1760861501,"ttl":60,"version":"2.2","data":{"bikes":[{"bike_id":"ad817210-8c8f-48f7-98c7-dd3be03d9809","system_id":"levelo_inurba_marseille","lat":43.282789,"lon":5.350573,"is_reserved":false,"is_disabled":false,"rental_uris":{"android":"levelo://app?vid=ad817210-8c8f-48f7-98c7-dd3be03d9809","ios":"levelo://app?vid=ad817210-8c8f-48f7-98c7-dd3be03d9809"},"vehicle_type_id":"4","last_reported":1760861502,"current_range_meters":2800,"station_id":"ce4bhbp2rcd13ifvqerg","pricing_plan_id":"cebpf4jnsgd1na2vs0mg"},{"bike_id":"5cf58e81-7552-4ebd-a932-79bba6f62907","system_id":"levelo_inurba_marseille","lat":43.29022,"lon":5.38632,"is_reserved":false,"is_disabled":true,"rental_uris":{"android":"levelo://app?vid=5cf58e81-7552-4ebd-a932-79bba6f62907","ios":"levelo://app?vid=5cf58e81-7552-4ebd-a932-79bba6f62907"},"vehicle_type_id":"4","last_reported":1760861502,"current_range_meters":2800,"station_id":"ce4bh4p2rcd13ifvqe0g","pricing_plan_id":"cebpf4jnsgd1na2vs0mg"},{"bike_id":"24d82d64-1145-442f-a9f5-19238b0b39ef","system_id":"levelo_inurba_marseille","lat":43.272133,"lon":5.391866,"is_reserved":false,"is_disabled":false,"rental_uris":{"android":"levelo://app?vid=24d82d64-1145-442f-a9f5-19238b0b39ef","ios":"levelo://app?vid=24d82d64-1145-442f-a9f5-19238b0b39ef"},"vehicle_type_id":"4","last_reported":1760861502,"current_range_meters":2800,"station_id":"","pricing_plan_id":"cebpf4jnsgd1na2vs0mg"},{"bike_id":"b198fdae-a02e-4380-b40a-23fa0f5e4197","system_id":"levelo_inurba_marseille","lat":43.2863,"lon":5.40702,"is_reserved":false,"is_disabled":false,"rental_uris":{"android":"levelo://app?vid=b198fdae-a02e-4380-b40a-23fa0f5e4197","ios":"levelo://app?vid=b198fdae-a02e-4380-b40a-23fa0f5e4197"},"vehicle_type_id":"4","last_reported":1760861502,"current_range_meters":2800,"station_id":"","pricing_plan_id":"cebpf4jnsgd1na2vs0mg"},{"bike_id":"82661c43-886c-4f39-9521-367b34454f36","system_id":"levelo_inurba_marseille","lat":43.28614,"lon":5.35107,"is_reserved":false,"is_disabled":false,"rental_uris":{"android":"levelo://app?vid=82661c43-886c-4f39-9521-367b34454f36","ios":"levelo://app?vid=82661c43-886c-4f39-9521-367b34454f36"},"vehicle_type_id":"4","last_reported":1760861502,"current_range_meters":3200,"station_id":"ce4bhch2rcd13ifvqeug","pricing_plan_id":"cebpf4jnsgd1na2vs0mg"},{"bike_id":"adf87cc6-5492-46ca-b1d2-e8a416addf57","system_id":"levelo_inurba_marseille","lat":43.282657,"lon":5.350674,"is_reserved":false,"is_disabled":false,"rental_uris":{"android":"levelo://app?vid=adf87cc6-5492-46ca-b1d2-e8a416addf57","ios":"levelo://app?vid=adf87cc6-5492-46ca-b1d2-e8a416addf57"},"vehicle_type_id":"4","last_reported":1760861502,"current_range_meters":3600,"station_id":"ce4bhbp2rcd13ifvqerg","pricing_plan_id":"cebpf4jnsgd1na2vs0mg"},{"bike_id":"416f580b-31c7-4ade-8604-dbd86eb8155f","system_id":"levelo_inurba_marseille","lat":43.28161,"lon":5.42136,"is_reserved":false,"is_disabled":false,"rental_uris":{"android":"levelo://app?vid=416f580b-31c7-4ade-8604-dbd86eb8155f","ios":"levelo://app?vid=416f580b-31c7-4ade-8604-dbd86eb8155f"},"vehicle_type_id":"4","last_reported":1760861502,"current_range_meters":3600,"station_id":"","pricing_plan_id":"cebpf4jnsgd1na2vs0mg"},{"bike_id":"5fe6e873-dba1-40dd-bc65-77de126f2710","system_id":"levelo_inurba_marseille","lat":43.332893,"lon":5.395256,"is_reserved":false,"is_disabled":true,"rental_uris":{"android":"levelo://app?vid=5fe6e873-dba1-40dd-bc65-77de126f2710","ios":"levelo://app?vid=5fe6e873-dba1-40dd-bc65-77de126f2710"},"vehicle_type_id":"4","last_reported":1760861502,"current_range_meters":4000,"station_id":"","pricing_plan_id":"cebpf4jnsgd1na2vs0mg"},{"bike_id":"2880f905-49a8-472a-9364-256c1f7abfb6","system_id":"levelo_inurba_marseille","lat":43.29003,"lon":5.35606,"is_reserved":false,"is_disabled":false,"rental_uris":{"android":"levelo://app?vid=2880f905-49a8-472a-9364-256c1f7abfb6","ios":"levelo://app?vid=2880f905-49a8-472a-9364-256c1f7abfb6"},"vehicle_type_id":"4","last_reported":1760861502,"current_range_meters":4400,"station_id":"ce4bhb92rcd13ifvqen0","pricing_plan_id":"cebpf4jnsgd1na2vs0mg"},{"bike_id":"a817b630-bbed-48d3-97f4-9bd571b9ebab","system_id":"levelo_inurba_marseille","lat":43.29992,"lon":5.37364,"is_reserved":false,"is_disabled":false,"rental_uris":{"android":"levelo://app?vid=a817b630-bbed-48d3-97f4-9bd571b9ebab","ios":"levelo://app?vid=a817b630-bbed-48d3-97f4-9bd571b9ebab"},"vehicle_type_id":"4","last_reported":1760861502,"current_range_meters":4400,"station_id":"","pricing_plan_id":"cebpf4jnsgd1na2vs0mg"},{"bike_id":"efbce1d0-71a2-4337-9d3c-c97340097a11","system_id":"levelo_inurba_marseille","lat":43.31481,"lon":5.37323,"is_reserved":false,"is_disabled":false,"rental_uris":{"android":"levelo://app?vid=efbce1d0-71a2-4337-9d3c-c97340097a11","ios":"levelo://app?vid=efbce1d0-71a2-4337-9d3c-c97340097a11"},"vehicle_type_id":"4","last_reported":1760861502,"current_range_meters":4800,"station_id":"ce4bgt12rcd13ifvqcd0","pricing_plan_id":"cebpf4jnsgd1na2vs0mg"},{"bike_id":"2d0a7272-b420-4972-811b-9845613bc82e","system_id":"levelo_inurba_marseille","lat":43.26199,"lon":5.3792,"is_reserved":false,"is_disabled":false,"rental_uris":{"android":"levelo://app?vid=2d0a7272-b420-4972-811b-9845613bc82e","ios":"levelo://app?vid=2d0a7272-b420-4972-811b-9845613bc82e"},"vehicle_type_id":"4","last_reported":1760861502,"current_range_meters":5600,"station_id":"ce4bhjp2rcd13ifvqg90","pricing_plan_id":"cebpf4jnsgd1na2vs0mg"},{"bike_id":"620f19db-e929-4071-8a7a-fb5114fd2597","system_id":"levelo_inurba_marseille","lat":43.273244,"lon":5.390863,"is_reserved":false,"is_disabled":true,"rental_uris":{"android":"levelo://app?vid=620f19db-e929-4071-8a7a-fb5114fd2597","ios":"levelo://app?vid=620f19db-e929-4071-8a7a-fb5114fd2597"},"vehicle_type_id":"4","last_reported":1760861502,"current_range_meters":5600,"station_id":"ce4bhgp2rcd13ifvqfe0","pricing_plan_id":"cebpf4jnsgd1na2vs0mg"},{"bike_id":"cb6660cb-7c53-41b3-9bb7-02a686fe2a7b","system_id":"levelo_inurba_marseille","lat":43.23967,"lon":5.36632,"is_reserved":false,"is_disabled":false,"rental_uris":{"android":"levelo://app?vid=cb6660cb-7c53-41b3-9bb7-02a686fe2a7b","ios":"levelo://app?vid=cb6660cb-7c53-41b3-9bb7-02a686fe2a7b"},"vehicle_type_id":"4","last_reported":1760861502,"current_range_meters":6000,"station_id":"ce4bhi12rcd13ifvqfp0","pricing_plan_id":"cebpf4jnsgd1na2vs0mg"},{"bike_id":"d0057ba9-b233-440f-8490-e26f02f1a1dd","system_id":"levelo_inurba_marseille","lat":43.28663,"lon":5.36357,"is_reserved":false,"is_disabled":true,"rental_uris":{"android":"levelo://app?vid=d0057ba9-b233-440f-8490-e26f02f1a1dd","ios":"levelo://app?vid=d0057ba9-b233-440f-8490-e26f02f1a1dd"},"vehicle_type_id":"4","last_reported":1760861502,"current_range_meters":6000,"station_id":"ce4bhah2rcd13ifvqej0","pricing_plan_id":"cebpf4jnsgd1na2vs0mg"},{"bike_id":"1382b748-840e-4ecc-afc5-0fb4eeaeb841","system_id":"levelo_inurba_marseille","lat":43.30587,"lon":5.37494,"is_reserved":false,"is_disabled":false,"rental_uris":{"android":"levelo://app?vid=1382b748-840e-4ecc-afc5-0fb4eeaeb841","ios":"levelo://app?vid=1382b748-840e-4ecc-afc5-0fb4eeaeb841"},"vehicle_type_id":"4","last_reported":1760861502,"current_range_meters":6000,"station_id":"","pricing_plan_id":"cebpf4jnsgd1na2vs0mg"},{"bike_id":"23106cad-886f-404f-82e9-c2982189811d","system_id":"levelo_inurba_marseille","lat":43.27188,"lon":5.42784,"is_reserved":false,"is_disabled":false,"rental_uris":{"android":"levelo://app?vid=23106cad-886f-404f-82e9-c2982189811d","ios":"levelo://app?vid=23106cad-886f-404f-82e9-c2982189811d"},"vehicle_type_id":"4","last_reported":1760861502,"current_range_meters":6000,"station_id":"","pricing_plan_id":"cebpf4jnsgd1na2vs0mg"},{"bike_id":"29fe0414-f7c8-4450-9224-31f63d3a6f33","system_id":"levelo_inurba_marseille","lat":43.29707,"lon":5.37704,"is_reserved":false,"is_disabled":false,"rental_uris":{"android":"levelo://app?vid=29fe0414-f7c8-4450-9224-31f63d3a6f33","ios":"levelo://app?vid=29fe0414-f7c8-4450-9224-31f63d3a6f33"},"vehicle_type_id":"4","last_reported":1760861502,"current_range_meters":6400,"station_id":"ce4bgkh2rcd13ifvqbl0","pricing_plan_id":"cebpf4jnsgd1na2vs0mg"},{"bike_id":"bfa5d6fa-5303-450c-8deb-bf365f94a097","system_id":"levelo_inurba_marseille","lat":43.21198,"lon":5.3508,"is_reserved":false,"is_disabled":false,"rental_uris":{"android":"levelo://app?vid=bfa5d6fa-5303-450c-8deb-bf365f94a097","ios":"levelo://app?vid=bfa5d6fa-5303-450c-8deb-bf365f94a097"},"vehicle_type_id":"4","last_reported":1760861502,"current_range_meters":6400,"station_id":"st_cvj6sg6p6f1abm77japg","pricing_plan_id":"cebpf4jnsgd1na2vs0mg"},{"bike_id":"2e4b6a0d-1c19-475e-885c-8a9e76859294","system_id":"levelo_inurba_marseille","lat":43.28251,"lon":5.35086,"is_reserved":false,"is_disabled":false,"rental_uris":{"android":"levelo://app?vid=2e4b6a0d-1c19-475e-885c-8a9e76859294","ios":"levelo://app?vid=2e4b6a0d-1c19-475e-885c-8a9e76859294"},"vehicle_type_id":"4","last_reported":1760861502,"current_range_meters":6400,"station_id":"ce4bhbp2rcd13ifvqerg","pricing_plan_id":"cebpf4jnsgd1na2vs0mg"},{"bike_id":"924ac669-be8b-47aa-9a8e-6f22baf815eb","system_id":"levelo_inurba_marseille","lat":43.337692,"lon":5.374734,"is_reserved":false,"is_disabled":false,"rental_uris":{"android":"levelo://app?vid=924ac669-be8b-47aa-9a8e-6f22baf815eb","ios":"levelo://app?vid=924ac669-be8b-47aa-9a8e-6f22baf815eb"},"vehicle_type_id":"4","last_reported":1760861502,"current_range_meters":6800,"station_id":"","pricing_plan_id":"cebpf4jnsgd1na2vs0mg"},{"bike_id":"9b3ec767-26cf-4b69-97c2-4503b4353f66","system_id":"levelo_inurba_marseille","lat":43.311169,"lon":5.377757,"is_reserved":false,"is_disabled":false,"rental_uris":{"android":"levelo://app?vid=9b3ec767-26cf-4b69-97c2-4503b4353f66","ios":"levelo://app?vid=9b3ec767-26cf-4b69-97c2-4503b4353f66"},"vehicle_type_id":"4","last_reported":1760861502,"current_range_meters":6800,"station_id":"ce4bgt92rcd13ifvqcg0","pricing_plan_id":"cebpf4jnsgd1na2vs0mg"},{"bike_id":"91b6b3bb-f752-409f-a59c-fda45187bd78","system_id":"levelo_inurba_marseille","lat":43.307348,"lon":5.424325,"is_reserved":false,"is_disabled":false,"rental_uris":{"android":"levelo://app?vid=91b6b3bb-f752-409f-a59c-fda45187bd78","ios":"levelo://app?vid=91b6b3bb-f752-409f-a59c-fda45187bd78"},"vehicle_type_id":"4","last_reported":1760861502,"current_range_meters":6800,"station_id":"st_cvj6ca6bvosntc0bfgr0","pricing_plan_id":"cebpf4jnsgd1na2vs0mg"},{"bike_id":"f55709e0-4b78-4850-8db3-b4d73728152f","system_id":"levelo_inurba_marseille","lat":43.351742,"lon":5.364649,"is_reserved":false,"is_disabled":false,"rental_uris":{"android":"levelo://app?vid=f55709e0-4b78-4850-8db3-b4d73728152f","ios":"levelo://app?vid=f55709e0-4b78-4850-8db3-b4d73728152f"},"vehicle_type_id":"4","last_reported":1760861502,"current_range_meters":6800,"station_id":"","pricing_plan_id":"cebpf4jnsgd1na2vs0mg"},{"bike_id":"13224652-ee64-4679-894b-0019df6fc80a","system_id":"levelo_inurba_marseille","lat":43.30738,"lon":5.37673,"is_reserved":false,"is_disabled":false,"rental_uris":{"android":"levelo://app?vid=13224652-ee64-4679-894b-0019df6fc80a","ios":"levelo://app?vid=13224652-ee64-4679-894b-0019df6fc80a"},"vehicle_type_id":"4","last_reported":1760861502,"current_range_meters":6800,"station_id":"","pricing_plan_id":"cebpf4jnsgd1na2vs0mg"},{"bike_id":"c5b6c6d4-9872-4337-83ee-d594405fc0df","system_id":"levelo_inurba_marseille","lat":43.2971,"lon":5.37702,"is_reserved":false,"is_disabled":false,"rental_uris":{"android":"levelo://app?vid=c5b6c6d4-9872-4337-83ee-d594405fc0df","ios":"levelo://app?vid=c5b6c6d4-9872-4337-83ee-d594405fc0df"},"vehicle_type_id":"4","last_reported":1760861502,"current_range_meters":7200,"station_id":"ce4bgkh2rcd13ifvqbl0","pricing_plan_id":"cebpf4jnsgd1na2vs0mg"},{"bike_id":"ffba4afa-54a2-4996-b187-e03b2e75334d","system_id":"levelo_inurba_marseille","lat":43.31698,"lon":5.40479,"is_reserved":false,"is_disabled":false,"rental_uris":{"android":"levelo://app?vid=ffba4afa-54a2-4996-b187-e03b2e75334d","ios":"levelo://app?vid=ffba4afa-54a2-4996-b187-e03b2e75334d"},"vehicle_type_id":"4","last_reported":1760861502,"current_range_meters":7200,"station_id":"ce4bh012rcd13ifvqd00","pricing_plan_id":"cebpf4jnsgd1na2vs0mg"},{"bike_id":"bbfea383-53c1-4cff-975b-4647ba07b014","system_id":"levelo_inurba_marseille","lat":43.30254,"lon":5.40077,"is_reserved":false,"is_disabled":false,"rental_uris":{"android":"levelo://app?vid=bbfea383-53c1-4cff-975b-4647ba07b014","ios":"levelo://app?vid=bbfea383-53c1-4cff-975b-4647ba07b014"},"vehicle_type_id":"4","last_reported":1760861502,"current_range_meters":8000,"station_id":"ce4bgvh2rcd13ifvqcs0","pricing_plan_id":"cebpf4jnsgd1na2vs0mg"},{"bike_id":"75b02a51-1325-435e-9661-29bb451a696a","system_id":"levelo_inurba_marseille","lat":43.31448,"lon":5.38488,"is_reserved":false,"is_disabled":false,"rental_uris":{"android":"levelo://app?vid=75b02a51-1325-435e-9661-29bb451a696a","ios":"levelo://app?vid=75b02a51-1325-435e-9661-29bb451a696a"},"vehicle_type_id":"4","last_reported":1760861502,"current_range_meters":8000,"station_id":"","pricing_plan_id":"cebpf4jnsgd1na2vs0mg"},{"bike_id":"9dd1d8fe-c2a8-4a70-a175-61f5f9fe7fd2","system_id":"levelo_inurba_marseille","lat":43.31529,"lon":5.38892,"is_reserved":false,"is_disabled":false,"rental_uris":{"android":"levelo://app?vid=9dd1d8fe-c2a8-4a70-a175-61f5f9fe7fd2","ios":"levelo://app?vid=9dd1d8fe-c2a8-4a70-a175-61f5f9fe7fd2"},"vehicle_type_id":"4","last_reported":1760861502,"current_range_meters":8400,"station_id":"","pricing_plan_id":"cebpf4jnsgd1na2vs0mg"},{"bike_id":"228be0a7-a064-416a-aad1-c9443795ad86","system_id":"levelo_inurba_marseille","lat":43.315571,"lon":5.386254,"is_reserved":false,"is_disabled":false,"rental_uris":{"android":"levelo://app?vid=228be0a7-a064-416a-aad1-c9443795ad86","ios":"levelo://app?vid=228be0a7-a064-416a-aad1-c9443795ad86"},"vehicle_type_id":"4","last_reported":1760861502,"current_range_meters":8400,"station_id":"","pricing_plan_id":"cebpf4jnsgd1na2vs0mg"},{"bike_id":"d7de8a4b-054e-4f08-972f-750ba132f0ec","system_id":"levelo_inurba_marseille","lat":43.291881,"lon":5.35793,"is_reserved":false,"is_disabled":true,"rental_uris":{"android":"levelo://app?vid=d7de8a4b-054e-4f08-972f-750ba132f0ec","ios":"levelo://app?vid=d7de8a4b-054e-4f08-972f-750ba132f0ec"},"vehicle_type_id":"4","last_reported":1760861502,"current_range_meters":8400,"station_id":"ce4bhb12rcd13ifvqel0","pricing_plan_id":"cebpf4jnsgd1na2vs0mg"},{"bike_id":"0b170382-a38a-48fc-b060-b901de311f1a","system_id":"levelo_inurba_marseille","lat":43.33047,"lon":5.39024,"is_reserved":false,"is_disabled":true,"rental_uris":{"android":"levelo://app?vid=0b170382-a38a-48fc-b060-b901de311f1a","ios":"levelo://app?vid=0b170382-a38a-48fc-b060-b901de311f1a"},"vehicle_type_id":"4","last_reported":1760861502,"current_range_meters":8800,"station_id":"ce4bhr92rcd13ifvqhrg","pricing_plan_id":"cebpf4jnsgd1na2vs0mg"},{"bike_id":"383132c7-6568-4b3f-85e0-394f17b8ed8c","system_id":"levelo_inurba_marseille","lat":43.24637,"lon":5.3889,"is_reserved":false,"is_disabled":true,"rental_uris":{"android":"levelo://app?vid=383132c7-6568-4b3f-85e0-394f17b8ed8c","ios":"levelo://app?vid=383132c7-6568-4b3f-85e0-394f17b8ed8c"},"vehicle_type_id":"4","last_reported":1760861502,"current_range_meters":8800,"station_id":"ce4bhg12rcd13ifvqf60","pricing_plan_id":"cebpf4jnsgd1na2vs0mg"},{"bike_id":"676fd588-494b-4028-8203-f37ef89d1fbb","system_id":"levelo_inurba_marseille","lat":43.22562,"lon":5.41636,"is_reserved":false,"is_disabled":false,"rental_uris":{"android":"levelo://app?vid=676fd588-494b-4028-8203-f37ef89d1fbb","ios":"levelo://app?vid=676fd588-494b-4028-8203-f37ef89d1fbb"},"vehicle_type_id":"4","last_reported":1760861502,"current_range_meters":8800,"station_id":"st_d2o4gvlbi1j2169b742g","pricing_plan_id":"cebpf4jnsgd1na2vs0mg"},{"bike_id":"9b35f520-b47c-4550-9804-23f27fab5ce9","system_id":"levelo_inurba_marseille","lat":43.254912,"lon":5.376585,"is_reserved":false,"is_disabled":true,"rental_uris":{"android":"levelo://app?vid=9b35f520-b47c-4550-9804-23f27fab5ce9","ios":"levelo://app?vid=9b35f520-b47c-4550-9804-23f27fab5ce9"},"vehicle_type_id":"4","last_reported":1760861502,"current_range_meters":8800,"station_id":"ce4bhh12rcd13ifvqff0","pricing_plan_id":"cebpf4jnsgd1na2vs0mg"},{"bike_id":"5ec36f29-a595-43fb-81bc-e1f6ecf04525","system_id":"levelo_inurba_marseille","lat":43.21185,"lon":5.35076,"is_reserved":false,"is_disabled":true,"rental_uris":{"android":"levelo://app?vid=5ec36f29-a595-43fb-81bc-e1f6ecf04525","ios":"levelo://app?vid=5ec36f29-a595-43fb-81bc-e1f6ecf04525"},"vehicle_type_id":"4","last_reported":1760861502,"current_range_meters":8800,"station_id":"st_cvj6sg6p6f1abm77japg","pricing_plan_id":"cebpf4jnsgd1na2vs0mg"},{"bike_id":"8e6781bb-2e20-454e-8191-54182f17bdfc","system_id":"levelo_inurba_marseille","lat":43.21739,"lon":5.34613,"is_reserved":false,"is_disabled":true,"rental_uris":{"android":"levelo://app?vid=8e6781bb-2e20-454e-8191-54182f17bdfc","ios":"levelo://app?vid=8e6781bb-2e20-454e-8191-54182f17bdfc"},"vehicle_type_id":"4","last_reported":1760861502,"current_range_meters":8800,"station_id":"st_cvj6r9ubvosntc0bgbag","pricing_plan_id":"cebpf4jnsgd1na2vs0mg"},{"bike_id":"a9d31d42-6d86-4993-b335-38ed0cc5765d","system_id":"levelo_inurba_marseille","lat":43.24652,"lon":5.38907,"is_reserved":false,"is_disabled":false,"rental_uris":{"android":"levelo://app?vid=a9d31d42-6d86-4993-b335-38ed0cc5765d","ios":"levelo://app?vid=a9d31d42-6d86-4993-b335-38ed0cc5765d"},"vehicle_type_id":"4","last_reported":1760861502,"current_range_meters":8800,"station_id":"ce4bhg12rcd13ifvqf60","pricing_plan_id":"cebpf4jnsgd1na2vs0mg"},{"bike_id":"f770bc01-f2ec-4bd6-8e37-4f02eca83a56","system_id":"levelo_inurba_marseille","lat":43.315251,"lon":5.38747,"is_reserved":false,"is_disabled":false,"rental_uris":{"android":"levelo://app?vid=f770bc01-f2ec-4bd6-8e37-4f02eca83a56","ios":"levelo://app?vid=f770bc01-f2ec-4bd6-8e37-4f02eca83a56"},"vehicle_type_id":"4","last_reported":1760861502,"current_range_meters":8800,"station_id":"","pricing_plan_id":"cebpf4jnsgd1na2vs0mg"},{"bike_id":"2da8af00-5bde-4f68-9a63-f51b703d78e7","system_id":"levelo_inurba_marseille","lat":43.28611,"lon":5.35083,"is_reserved":false,"is_disabled":false,"rental_uris":{"android":"levelo://app?vid=2da8af00-5bde-4f68-9a63-f51b703d78e7","ios":"levelo://app?vid=2da8af00-5bde-4f68-9a63-f51b703d78e7"},"vehicle_type_id":"4","last_reported":1760861502,"current_range_meters":9200,"station_id":"ce4bhch2rcd13ifvqeug","pricing_plan_id":"cebpf4jnsgd1na2vs0mg"},{"bike_id":"b0d9eaff-3340-49a4-85fe-a9130db488fe","system_id":"levelo_inurba_marseille","lat":43.29933,"lon":5.36551,"is_reserved":false,"is_disabled":false,"rental_uris":{"android":"levelo://app?vid=b0d9eaff-3340-49a4-85fe-a9130db488fe","ios":"levelo://app?vid=b0d9eaff-3340-49a4-85fe-a9130db488fe"},"vehicle_type_id":"4","last_reported":1760861502,"current_range_meters":9200,"station_id":"ce4bgm92rcd13ifvqbr0","pricing_plan_id":"cebpf4jnsgd1na2vs0mg"},{"bike_id":"e7e8b93c-02d4-466b-82b5-3f4c4f15c2ae","system_id":"levelo_inurba_marseille","lat":43.28816,"lon":5.43839,"is_reserved":false,"is_disabled":false,"rental_uris":{"android":"levelo://app?vid=e7e8b93c-02d4-466b-82b5-3f4c4f15c2ae","ios":"levelo://app?vid=e7e8b93c-02d4-466b-82b5-3f4c4f15c2ae"},"vehicle_type_id":"4","last_reported":1760861502,"current_range_meters":9200,"station_id":"","pricing_plan_id":"cebpf4jnsgd1na2vs0mg"},{"bike_id":"c6227cff-120f-49c6-93a2-5454dd916cde","system_id":"levelo_inurba_marseille","lat":43.265542,"lon":5.372976,"is_reserved":false,"is_disabled":true,"rental_uris":{"android":"levelo://app?vid=c6227cff-120f-49c6-93a2-5454dd916cde","ios":"levelo://app?vid=c6227cff-120f-49c6-93a2-5454dd916cde"},"vehicle_type_id":"4","last_reported":1760861502,"current_range_meters":9200,"station_id":"ce4bhg12rcd13ifvqf70","pricing_plan_id":"cebpf4jnsgd1na2vs0mg"},{"bike_id":"546627ef-82ba-4927-85ee-f717c2084d9c","system_id":"levelo_inurba_marseille","lat":43.28694,"lon":5.374,"is_reserved":false,"is_disabled":false,"rental_uris":{"android":"levelo://app?vid=546627ef-82ba-4927-85ee-f717c2084d9c","ios":"levelo://app?vid=546627ef-82ba-4927-85ee-f717c2084d9c"},"vehicle_type_id":"4","last_reported":1760861502,"current_range_meters":9200,"station_id":"ce4bh3p2rcd13ifvqdq0","pricing_plan_id":"cebpf4jnsgd1na2vs0mg"},{"bike_id":"06f89247-fbad-4af8-afc6-bb357794b62f","system_id":"levelo_inurba_marseille","lat":43.27367,"lon":5.36249,"is_reserved":false,"is_disabled":false,"rental_uris":{"android":"levelo://app?vid=06f89247-fbad-4af8-afc6-bb357794b62f","ios":"levelo://app?vid=06f89247-fbad-4af8-afc6-bb357794b62f"},"vehicle_type_id":"4","last_reported":1760861502,"current_range_meters":9200,"station_id":"ce4bhbh2rcd13ifvqeo0","pricing_plan_id":"cebpf4jnsgd1na2vs0mg"},{"bike_id":"0a414463-fe1a-4833-8a11-178a3c2c879a","system_id":"levelo_inurba_marseille","lat":43.29852,"lon":5.37897,"is_reserved":false,"is_disabled":false,"rental_uris":{"android":"levelo://app?vid=0a414463-fe1a-4833-8a11-178a3c2c879a","ios":"levelo://app?vid=0a414463-fe1a-4833-8a11-178a3c2c879a"},"vehicle_type_id":"4","last_reported":1760861502,"current_range_meters":9600,"station_id":"","pricing_plan_id":"cebpf4jnsgd1na2vs0mg"},{"bike_id":"dcdd3a68-3144-4dbd-8729-3a06d2e39d18","system_id":"levelo_inurba_marseille","lat":43.28941,"lon":5.38386,"is_reserved":false,"is_disabled":false,"rental_uris":{"android":"levelo://app?vid=dcdd3a68-3144-4dbd-8729-3a06d2e39d18","ios":"levelo://app?vid=dcdd3a68-3144-4dbd-8729-3a06d2e39d18"},"vehicle_type_id":"4","last_reported":1760861502,"current_range_meters":9600,"station_id":"ce4bh612rcd13ifvqe6g","pricing_plan_id":"cebpf4jnsgd1na2vs0mg"},{"bike_id":"245a030c-0c43-41f8-a4cc-088d55252b06","system_id":"levelo_inurba_marseille","lat":43.244745,"lon":5.369346,"is_reserved":false,"is_disabled":false,"rental_uris":{"android":"levelo://app?vid=245a030c-0c43-41f8-a4cc-088d55252b06","ios":"levelo://app?vid=245a030c-0c43-41f8-a4cc-088d55252b06"},"vehicle_type_id":"4","last_reported":1760861502,"current_range_meters":9600,"station_id":"","pricing_plan_id":"cebpf4jnsgd1na2vs0mg"},{"bike_id":"657f303b-2417-4a96-a979-9bb80b1500f6","system_id":"levelo_inurba_marseille","lat":43.2985,"lon":5.36279,"is_reserved":false,"is_disabled":true,"rental_uris":{"android":"levelo://app?vid=657f303b-2417-4a96-a979-9bb80b1500f6","ios":"levelo://app?vid=657f303b-2417-4a96-a979-9bb80b1500f6"},"vehicle_type_id":"4","last_reported":1760861502,"current_range_meters":9600,"station_id":"ce4bgpp2rcd13ifvqc3g","pricing_plan_id":"cebpf4jnsgd1na2vs0mg"},{"bike_id":"95517d2e-464c-4bb9-8d8d-e2fba29fedbc","system_id":"levelo_inurba_marseille","lat":43.321136,"lon":5.367689,"is_reserved":false,"is_disabled":false,"rental_uris":{"android":"levelo://app?vid=95517d2e-464c-4bb9-8d8d-e2fba29fedbc","ios":"levelo://app?vid=95517d2e-464c-4bb9-8d8d-e2fba29fedbc"},"vehicle_type_id":"4","last_reported":1760861502,"current_range_meters":9600,"station_id":"ce4bhrh2rcd13ifvqhug","pricing_plan_id":"cebpf4jnsgd1na2vs0mg"},{"bike_id":"887e0711-86db-4d03-ae0c-852685105df3","system_id":"levelo_inurba_marseille","lat":43.279605,"lon":5.379273,"is_reserved":false,"is_disabled":false,"rental_uris":{"android":"levelo://app?vid=887e0711-86db-4d03-ae0c-852685105df3","ios":"levelo://app?vid=887e0711-86db-4d03-ae0c-852685105df3"},"vehicle_type_id":"4","last_reported":1760861502,"current_range_meters":9600,"station_id":"ce4bha12rcd13ifvqee0","pricing_plan_id":"cebpf4jnsgd1na2vs0mg"},{"bike_id":"29deeaa9-e77a-408d-b13e-b6abc21d5df6","system_id":"levelo_inurba_marseille","lat":43.296509,"lon":5.386966,"is_reserved":false,"is_disabled":false,"rental_uris":{"android":"levelo://app?vid=29deeaa9-e77a-408d-b13e-b6abc21d5df6","ios":"levelo://app?vid=29deeaa9-e77a-408d-b13e-b6abc21d5df6"},"vehicle_type_id":"4","last_reported":1760861502,"current_range_meters":9600,"station_id":"","pricing_plan_id":"cebpf4jnsgd1na2vs0mg"},{"bike_id":"94a80ed1-2fee-468c-bb76-25f1829c19bf","system_id":"levelo_inurba_marseille","lat":43.30467,"lon":5.37922,"is_reserved":false,"is_disabled":true,"rental_uris":{"android":"levelo://app?vid=94a80ed1-2fee-468c-bb76-25f1829c19bf","ios":"levelo://app?vid=94a80ed1-2fee-468c-bb76-25f1829c19bf"},"vehicle_type_id":"4","last_reported":1760861502,"current_range_meters":9600,"station_id":"ce4bgup2rcd13ifvqcn0","pricing_plan_id":"cebpf4jnsgd1na2vs0mg"},{"bike_id":"d268909a-e206-40bf-8f0e-13d23d661ef9","system_id":"levelo_inurba_marseille","lat":43.303717,"lon":5.424983,"is_reserved":false,"is_disabled":false,"rental_uris":{"android":"levelo://app?vid=d268909a-e206-40bf-8f0e-13d23d661ef9","ios":"levelo://app?vid=d268909a-e206-40bf-8f0e-13d23d661ef9"},"vehicle_type_id":"4","last_reported":1760861502,"current_range_meters":9600,"station_id":"ce4bhoh2rcd13ifvqh6g","pricing_plan_id":"cebpf4jnsgd1na2vs0mg"},{"bike_id":"b1db1391-3474-48f3-85bd-dfc79b190eda","system_id":"levelo_inurba_marseille","lat":43.29274,"lon":5.36089,"is_reserved":false,"is_disabled":false,"rental_uris":{"android":"levelo://app?vid=b1db1391-3474-48f3-85bd-dfc79b190eda","ios":"levelo://app?vid=b1db1391-3474-48f3-85bd-dfc79b190eda"},"vehicle_type_id":"4","last_reported":1760861502,"current_range_meters":9600,"station_id":"ce4bhbh2rcd13ifvqeqg","pricing_plan_id":"cebpf4jnsgd1na2vs0mg"},{"bike_id":"1d2e768f-70b1-4771-9d80-f8333d7b1d35","system_id":"levelo_inurba_marseille","lat":43.29273,"lon":5.36855,"is_reserved":false,"is_disabled":false,"rental_uris":{"android":"levelo://app?vid=1d2e768f-70b1-4771-9d80-f8333d7b1d35","ios":"levelo://app?vid=1d2e768f-70b1-4771-9d80-f8333d7b1d35"},"vehicle_type_id":"4","last_reported":1760861502,"current_range_meters":10000,"station_id":"ce4bhbp2rcd13ifvqesg","pricing_plan_id":"cebpf4jnsgd1na2vs0mg"},{"bike_id":"83348da8-a4f5-46df-865e-64326525590d","system_id":"levelo_inurba_marseille","lat":43.21757,"lon":5.34612,"is_reserved":false,"is_disabled":false,"rental_uris":{"android":"levelo://app?vid=83348da8-a4f5-46df-865e-64326525590d","ios":"levelo://app?vid=83348da8-a4f5-46df-865e-64326525590d"},"vehicle_type_id":"4","last_reported":1760861502,"current_range_meters":10000,"station_id":"st_cvj6r9ubvosntc0bgbag","pricing_plan_id":"cebpf4jnsgd1na2vs0mg"},{"bike_id":"ea883585-d0e4-4bcb-922c-57b2a3efdeac","system_id":"levelo_inurba_marseille","lat":43.30512,"lon":5.3681,"is_reserved":false,"is_disabled":false,"rental_uris":{"android":"levelo://app?vid=ea883585-d0e4-4bcb-922c-57b2a3efdeac","ios":"levelo://app?vid=ea883585-d0e4-4bcb-922c-57b2a3efdeac"},"vehicle_type_id":"4","last_reported":1760861502,"current_range_meters":10000,"station_id":"","pricing_plan_id":"cebpf4jnsgd1na2vs0mg"},{"bike_id":"3586afa5-19c6-4385-ae3b-80726606c1bb","system_id":"levelo_inurba_marseille","lat":43.26396,"lon":5.39895,"is_reserved":false,"is_disabled":false,"rental_uris":{"android":"levelo://app?vid=3586afa5-19c6-4385-ae3b-80726606c1bb","ios":"levelo://app?vid=3586afa5-19c6-4385-ae3b-80726606c1bb"},"vehicle_type_id":"4","last_reported":1760861502,"current_range_meters":10000,"station_id":"","pricing_plan_id":"cebpf4jnsgd1na2vs0mg"},{"bike_id":"e9c8911f-6661-4330-b933-c7ef20dc0f45","system_id":"levelo_inurba_marseille","lat":43.28132,"lon":5.35026,"is_reserved":false,"is_disabled":false,"rental_uris":{"android":"levelo://app?vid=e9c8911f-6661-4330-b933-c7ef20dc0f45","ios":"levelo://app?vid=e9c8911f-6661-4330-b933-c7ef20dc0f45"},"vehicle_type_id":"4","last_reported":1760861502,"current_range_meters":10000,"station_id":"","pricing_plan_id":"cebpf4jnsgd1na2vs0mg"},{"bike_id":"c690dac1-0ca7-4344-86ef-57616dd27e21","system_id":"levelo_inurba_marseille","lat":43.29622,"lon":5.40602,"is_reserved":false,"is_disabled":false,"rental_uris":{"android":"levelo://app?vid=c690dac1-0ca7-4344-86ef-57616dd27e21","ios":"levelo://app?vid=c690dac1-0ca7-4344-86ef-57616dd27e21"},"vehicle_type_id":"4","last_reported":1760861502,"current_range_meters":10000,"station_id":"ce4bh0h2rcd13ifvqd60","pricing_plan_id":"cebpf4jnsgd1na2vs0mg"},{"bike_id":"e978660f-731d-4a95-8df5-e0a54d8fe8be","system_id":"levelo_inurba_marseille","lat":43.21196,"lon":5.35071,"is_reserved":false,"is_disabled":true,"rental_uris":{"android":"levelo://app?vid=e978660f-731d-4a95-8df5-e0a54d8fe8be","ios":"levelo://app?vid=e978660f-731d-4a95-8df5-e0a54d8fe8be"},"vehicle_type_id":"4","last_reported":1760861502,"current_range_meters":10000,"station_id":"st_cvj6sg6p6f1abm77japg","pricing_plan_id":"cebpf4jnsgd1na2vs0mg"},{"bike_id":"e44a9fda-96bb-4edc-a9ca-3bd163b75a58","system_id":"levelo_inurba_marseille","lat":43.24065,"lon":5.37738,"is_reserved":false,"is_disabled":false,"rental_uris":{"android":"levelo://app?vid=e44a9fda-96bb-4edc-a9ca-3bd163b75a58","ios":"levelo://app?vid=e44a9fda-96bb-4edc-a9ca-3bd163b75a58"},"vehicle_type_id":"4","last_reported":1760861502,"current_range_meters":10000,"station_id":"ce4bhnp2rcd13ifvqgvg","pricing_plan_id":"cebpf4jnsgd1na2vs0mg"},{"bike_id":"074be791-6c38-4f2f-8dd0-b227e073e27e","system_id":"levelo_inurba_marseille","lat":43.241689,"lon":5.364078,"is_reserved":false,"is_disabled":false,"rental_uris":{"android":"levelo://app?vid=074be791-6c38-4f2f-8dd0-b227e073e27e","ios":"levelo://app?vid=074be791-6c38-4f2f-8dd0-b227e073e27e"},"vehicle_type_id":"4","last_reported":1760861502,"current_range_meters":10800,"station_id":"cpo36qri1sfpv3e86is0","pricing_plan_id":"cebpf4jnsgd1na2vs0mg"},{"bike_id":"3f13991a-43fd-4b49-b31a-f84d43d4b745","system_id":"levelo_inurba_marseille","lat":43.29036,"lon":5.37284,"is_reserved":false,"is_disabled":false,"rental_uris":{"android":"levelo://app?vid=3f13991a-43fd-4b49-b31a-f84d43d4b745","ios":"levelo://app?vid=3f13991a-43fd-4b49-b31a-f84d43d4b745"},"vehicle_type_id":"4","last_reported":1760861502,"current_range_meters":10800,"station_id":"","pricing_plan_id":"cebpf4jnsgd1na2vs0mg"},{"bike_id":"9aca6410-dfe2-4f0b-8309-4bbe61aef318","system_id":"levelo_inurba_marseille","lat":43.3304,"lon":5.39066,"is_reserved":false,"is_disabled":false,"rental_uris":{"android":"levelo://app?vid=9aca6410-dfe2-4f0b-8309-4bbe61aef318","ios":"levelo://app?vid=9aca6410-dfe2-4f0b-8309-4bbe61aef318"},"vehicle_type_id":"4","last_reported":1760861502,"current_range_meters":10800,"station_id":"ce4bhr92rcd13ifvqhrg","pricing_plan_id":"cebpf4jnsgd1na2vs0mg"},{"bike_id":"bf2c3617-0e72-4f4a-8585-0c63bcbc4fce","system_id":"levelo_inurba_marseille","lat":43.28625,"lon":5.35094,"is_reserved":false,"is_disabled":true,"rental_uris":{"android":"levelo://app?vid=bf2c3617-0e72-4f4a-8585-0c63bcbc4fce","ios":"levelo://app?vid=bf2c3617-0e72-4f4a-8585-0c63bcbc4fce"},"vehicle_type_id":"4","last_reported":1760861502,"current_range_meters":10800,"station_id":"ce4bhch2rcd13ifvqeug","pricing_plan_id":"cebpf4jnsgd1na2vs0mg"},{"bike_id":"4d639fc2-fd62-4b4f-8fc3-f0ee032daac3","system_id":"levelo_inurba_marseille","lat":43.24164,"lon":5.36419,"is_reserved":false,"is_disabled":false,"rental_uris":{"android":"levelo://app?vid=4d639fc2-fd62-4b4f-8fc3-f0ee032daac3","ios":"levelo://app?vid=4d639fc2-fd62-4b4f-8fc3-f0ee032daac3"},"vehicle_type_id":"4","last_reported":1760861502,"current_range_meters":10800,"station_id":"cpo36qri1sfpv3e86is0","pricing_plan_id":"cebpf4jnsgd1na2vs0mg"},{"bike_id":"f4b21278-7a88-4f1e-8b50-4cb4a181722f","system_id":"levelo_inurba_marseille","lat":43.2851,"lon":5.44109,"is_reserved":false,"is_disabled":false,"rental_uris":{"android":"levelo://app?vid=f4b21278-7a88-4f1e-8b50-4cb4a181722f","ios":"levelo://app?vid=f4b21278-7a88-4f1e-8b50-4cb4a181722f"},"vehicle_type_id":"4","last_reported":1760861502,"current_range_meters":10800,"station_id":"st_d3j3df2ikq2c7380ej80","pricing_plan_id":"cebpf4jnsgd1na2vs0mg"},{"bike_id":"3ce2b19a-e168-4209-83be-b37dcb6d9d80","system_id":"levelo_inurba_marseille","lat":43.29174,"lon":5.36146,"is_reserved":false,"is_disabled":false,"rental_uris":{"android":"levelo://app?vid=3ce2b19a-e168-4209-83be-b37dcb6d9d80","ios":"levelo://app?vid=3ce2b19a-e168-4209-83be-b37dcb6d9d80"},"vehicle_type_id":"4","last_reported":1760861502,"current_range_meters":10800,"station_id":"","pricing_plan_id":"cebpf4jnsgd1na2vs0mg"},{"bike_id":"234de998-d88b-4c8d-801a-e0e06ca0ab94","system_id":"levelo_inurba_marseille","lat":43.29578,"lon":5.39694,"is_reserved":false,"is_disabled":false,"rental_uris":{"android":"levelo://app?vid=234de998-d88b-4c8d-801a-e0e06ca0ab94","ios":"levelo://app?vid=234de998-d88b-4c8d-801a-e0e06ca0ab94"},"vehicle_type_id":"4","last_reported":1760861502,"current_range_meters":10800,"station_id":"","pricing_plan_id":"cebpf4jnsgd1na2vs0mg"},{"bike_id":"6632a0ad-f43a-451e-834c-e4d64180498e","system_id":"levelo_inurba_marseille","lat":43.326573,"lon":5.409905,"is_reserved":false,"is_disabled":false,"rental_uris":{"android":"levelo://app?vid=6632a0ad-f43a-451e-834c-e4d64180498e","ios":"levelo://app?vid=6632a0ad-f43a-451e-834c-e4d64180498e"},"vehicle_type_id":"4","last_reported":1760861502,"current_range_meters":10800,"station_id":"ce4bhpp2rcd13ifvqhgg","pricing_plan_id":"cebpf4jnsgd1na2vs0mg"},{"bike_id":"9dcc87e5-a56c-4fc8-9c25-0844926985ff","system_id":"levelo_inurba_marseille","lat":43.2963,"lon":5.37729,"is_reserved":false,"is_disabled":false,"rental_uris":{"android":"levelo://app?vid=9dcc87e5-a56c-4fc8-9c25-0844926985ff","ios":"levelo://app?vid=9dcc87e5-a56c-4fc8-9c25-0844926985ff"},"vehicle_type_id":"4","last_reported":1760861502,"current_range_meters":11200,"station_id":"ce4bgi92rcd13ifvqb90","pricing_plan_id":"cebpf4jnsgd1na2vs0mg"},{"bike_id":"394213f8-a678-4fef-874f-bcb7093d4f1d","system_id":"levelo_inurba_marseille","lat":43.28145,"lon":5.42651,"is_reserved":false,"is_disabled":false,"rental_uris":{"android":"levelo://app?vid=394213f8-a678-4fef-874f-bcb7093d4f1d","ios":"levelo://app?vid=394213f8-a678-4fef-874f-bcb7093d4f1d"},"vehicle_type_id":"4","last_reported":1760861502,"current_range_meters":11200,"station_id":"ce4bhnh2rcd13ifvqgug","pricing_plan_id":"cebpf4jnsgd1na2vs0mg"},{"bike_id":"6426e4fa-7f79-410d-acfa-0a51b3b2658a","system_id":"levelo_inurba_marseille","lat":43.31271,"lon":5.40411,"is_reserved":false,"is_disabled":false,"rental_uris":{"android":"levelo://app?vid=6426e4fa-7f79-410d-acfa-0a51b3b2658a","ios":"levelo://app?vid=6426e4fa-7f79-410d-acfa-0a51b3b2658a"},"vehicle_type_id":"4","last_reported":1760861502,"current_range_meters":11600,"station_id":"","pricing_plan_id":"cebpf4jnsgd1na2vs0mg"},{"bike_id":"ac6d2c4d-74a8-443d-a9f9-0d9807feacda","system_id":"levelo_inurba_marseille","lat":43.33772,"lon":5.37469,"is_reserved":false,"is_disabled":false,"rental_uris":{"android":"levelo://app?vid=ac6d2c4d-74a8-443d-a9f9-0d9807feacda","ios":"levelo://app?vid=ac6d2c4d-74a8-443d-a9f9-0d9807feacda"},"vehicle_type_id":"4","last_reported":1760861502,"current_range_meters":11600,"station_id":"","pricing_plan_id":"cebpf4jnsgd1na2vs0mg"},{"bike_id":"c3a43516-decc-43f9-8e26-5e24bd17a93e","system_id":"levelo_inurba_marseille","lat":43.31123,"lon":5.37744,"is_reserved":false,"is_disabled":false,"rental_uris":{"android":"levelo://app?vid=c3a43516-decc-43f9-8e26-5e24bd17a93e","ios":"levelo://app?vid=c3a43516-decc-43f9-8e26-5e24bd17a93e"},"vehicle_type_id":"4","last_reported":1760861502,"current_range_meters":12000,"station_id":"ce4bgt92rcd13ifvqcg0","pricing_plan_id":"cebpf4jnsgd1na2vs0mg"},{"bike_id":"365b1110-8604-4b2d-ad9b-3263b8a258f2","system_id":"levelo_inurba_marseille","lat":43.28655,"lon":5.3634,"is_reserved":false,"is_disabled":false,"rental_uris":{"android":"levelo://app?vid=365b1110-8604-4b2d-ad9b-3263b8a258f2","ios":"levelo://app?vid=365b1110-8604-4b2d-ad9b-3263b8a258f2"},"vehicle_type_id":"4","last_reported":1760861502,"current_range_meters":12000,"station_id":"ce4bhah2rcd13ifvqej0","pricing_plan_id":"cebpf4jnsgd1na2vs0mg"},{"bike_id":"d712d0ff-3096-41ad-87d0-b640167ff060","system_id":"levelo_inurba_marseille","lat":43.31541,"lon":5.38512,"is_reserved":false,"is_disabled":false,"rental_uris":{"android":"levelo://app?vid=d712d0ff-3096-41ad-87d0-b640167ff060","ios":"levelo://app?vid=d712d0ff-3096-41ad-87d0-b640167ff060"},"vehicle_type_id":"4","last_reported":1760861502,"current_range_meters":12000,"station_id":"","pricing_plan_id":"cebpf4jnsgd1na2vs0mg"},{"bike_id":"306ea87b-2815-4719-a6e5-9830c9d8e776","system_id":"levelo_inurba_marseille","lat":43.31394,"lon":5.37675,"is_reserved":false,"is_disabled":false,"rental_uris":{"android":"levelo://app?vid=306ea87b-2815-4719-a6e5-9830c9d8e776","ios":"levelo://app?vid=306ea87b-2815-4719-a6e5-9830c9d8e776"},"vehicle_type_id":"4","last_reported":1760861502,"current_range_meters":12000,"station_id":"","pricing_plan_id":"cebpf4jnsgd1na2vs0mg"},{"bike_id":"684dea98-4fa8-4451-8c5f-30e274ad7842","system_id":"levelo_inurba_marseille","lat":43.25088,"lon":5.40324,"is_reserved":false,"is_disabled":false,"rental_uris":{"android":"levelo://app?vid=684dea98-4fa8-4451-8c5f-30e274ad7842","ios":"levelo://app?vid=684dea98-4fa8-4451-8c5f-30e274ad7842"},"vehicle_type_id":"4","last_reported":1760861502,"current_range_meters":12000,"station_id":"ce4bhlh2rcd13ifvqgig","pricing_plan_id":"cebpf4jnsgd1na2vs0mg"},{"bike_id":"2db029f9-09f5-4e8b-b1fa-a808274e9248","system_id":"levelo_inurba_marseille","lat":43.26683,"lon":5.38265,"is_reserved":false,"is_disabled":false,"rental_uris":{"android":"levelo://app?vid=2db029f9-09f5-4e8b-b1fa-a808274e9248","ios":"levelo://app?vid=2db029f9-09f5-4e8b-b1fa-a808274e9248"},"vehicle_type_id":"4","last_reported":1760861502,"current_range_meters":12400,"station_id":"ce4bhg92rcd13ifvqf90","pricing_plan_id":"cebpf4jnsgd1na2vs0mg"},{"bike_id":"0ef8dc6a-6cfd-4f12-9c76-120fdb5f893d","system_id":"levelo_inurba_marseille","lat":43.29775,"lon":5.37104,"is_reserved":false,"is_disabled":false,"rental_uris":{"android":"levelo://app?vid=0ef8dc6a-6cfd-4f12-9c76-120fdb5f893d","ios":"levelo://app?vid=0ef8dc6a-6cfd-4f12-9c76-120fdb5f893d"},"vehicle_type_id":"4","last_reported":1760861502,"current_range_meters":12400,"station_id":"ce4bgop2rcd13ifvqc1g","pricing_plan_id":"cebpf4jnsgd1na2vs0mg"},{"bike_id":"74a0e418-9a8a-4d6c-82ac-4bcdbfc66662","system_id":"levelo_inurba_marseille","lat":43.2952,"lon":5.3856,"is_reserved":false,"is_disabled":true,"rental_uris":{"android":"levelo://app?vid=74a0e418-9a8a-4d6c-82ac-4bcdbfc66662","ios":"levelo://app?vid=74a0e418-9a8a-4d6c-82ac-4bcdbfc66662"},"vehicle_type_id":"4","last_reported":1760861502,"current_range_meters":12400,"station_id":"ce4bgih2rcd13ifvqba0","pricing_plan_id":"cebpf4jnsgd1na2vs0mg"},{"bike_id":"3723dc20-8123-4f5f-92a0-0c3073c1e3b9","system_id":"levelo_inurba_marseille","lat":43.25337,"lon":5.42182,"is_reserved":false,"is_disabled":false,"rental_uris":{"android":"levelo://app?vid=3723dc20-8123-4f5f-92a0-0c3073c1e3b9","ios":"levelo://app?vid=3723dc20-8123-4f5f-92a0-0c3073c1e3b9"},"vehicle_type_id":"4","last_reported":1760861502,"current_range_meters":12400,"station_id":"st_d2m65c5bi1j21697t3ng","pricing_plan_id":"cebpf4jnsgd1na2vs0mg"},{"bike_id":"cf4c14bf-7635-4f96-a4b6-ee6481db3804","system_id":"levelo_inurba_marseille","lat":43.32293,"lon":5.38287,"is_reserved":false,"is_disabled":false,"rental_uris":{"android":"levelo://app?vid=cf4c14bf-7635-4f96-a4b6-ee6481db3804","ios":"levelo://app?vid=cf4c14bf-7635-4f96-a4b6-ee6481db3804"},"vehicle_type_id":"4","last_reported":1760861502,"current_range_meters":12400,"station_id":"ce4bhr12rcd13ifvqhqg","pricing_plan_id":"cebpf4jnsgd1na2vs0mg"},{"bike_id":"c35717d0-5fe6-4520-8aec-8d7ada383776","system_id":"levelo_inurba_marseille","lat":43.313678,"lon":5.385087,"is_reserved":false,"is_disabled":false,"rental_uris":{"android":"levelo://app?vid=c35717d0-5fe6-4520-8aec-8d7ada383776","ios":"levelo://app?vid=c35717d0-5fe6-4520-8aec-8d7ada383776"},"vehicle_type_id":"4","last_reported":1760861502,"current_range_meters":12400,"station_id":"ce4bgt92rcd13ifvqcf0","pricing_plan_id":"cebpf4jnsgd1na2vs0mg"},{"bike_id":"dd9d657e-a27a-429b-911d-5332fa69c962","system_id":"levelo_inurba_marseille","lat":43.29273,"lon":5.36849,"is_reserved":false,"is_disabled":false,"rental_uris":{"android":"levelo://app?vid=dd9d657e-a27a-429b-911d-5332fa69c962","ios":"levelo://app?vid=dd9d657e-a27a-429b-911d-5332fa69c962"},"vehicle_type_id":"4","last_reported":1760861502,"current_range_meters":12400,"station_id":"ce4bhbp2rcd13ifvqesg","pricing_plan_id":"cebpf4jnsgd1na2vs0mg"},{"bike_id":"51539c6d-039a-4035-81b8-b9683f3fe755","system_id":"levelo_inurba_marseille","lat":43.30934,"lon":5.40153,"is_reserved":false,"is_disabled":false,"rental_uris":{"android":"levelo://app?vid=51539c6d-039a-4035-81b8-b9683f3fe755","ios":"levelo://app?vid=51539c6d-039a-4035-81b8-b9683f3fe755"},"vehicle_type_id":"4","last_reported":1760861502,"current_range_meters":12400,"station_id":"ce4bgvp2rcd13ifvqct0","pricing_plan_id":"cebpf4jnsgd1na2vs0mg"},{"bike_id":"a7b3764b-b896-4840-bd7e-9880973af195","system_id":"levelo_inurba_marseille","lat":43.292287,"lon":5.360602,"is_reserved":false,"is_disabled":false,"rental_uris":{"android":"levelo://app?vid=a7b3764b-b896-4840-bd7e-9880973af195","ios":"levelo://app?vid=a7b3764b-b896-4840-bd7e-9880973af195"},"vehicle_type_id":"4","last_reported":1760861502,"current_range_meters":12400,"station_id":"","pricing_plan_id":"cebpf4jnsgd1na2vs0mg"},{"bike_id":"a533ae46-787d-49b4-aa93-49818834801a","system_id":"levelo_inurba_marseille","lat":43.3117,"lon":5.38753,"is_reserved":false,"is_disabled":false,"rental_uris":{"android":"levelo://app?vid=a533ae46-787d-49b4-aa93-49818834801a","ios":"levelo://app?vid=a533ae46-787d-49b4-aa93-49818834801a"},"vehicle_type_id":"4","last_reported":1760861502,"current_range_meters":12800,"station_id":"ce4bgv12rcd13ifvqcp0","pricing_plan_id":"cebpf4jnsgd1na2vs0mg"},{"bike_id":"af277a69-2c40-4884-9e98-0003e5cba8ca","system_id":"levelo_inurba_marseille","lat":43.24383,"lon":5.37061,"is_reserved":false,"is_disabled":false,"rental_uris":{"android":"levelo://app?vid=af277a69-2c40-4884-9e98-0003e5cba8ca","ios":"levelo://app?vid=af277a69-2c40-4884-9e98-0003e5cba8ca"},"vehicle_type_id":"4","last_reported":1760861502,"current_range_meters":12800,"station_id":"ce4bhhh2rcd13ifvqfk0","pricing_plan_id":"cebpf4jnsgd1na2vs0mg"},{"bike_id":"fcdb490e-5966-4191-874f-a0870dbecf5e","system_id":"levelo_inurba_marseille","lat":43.25928,"lon":5.4091,"is_reserved":false,"is_disabled":false,"rental_uris":{"android":"levelo://app?vid=fcdb490e-5966-4191-874f-a0870dbecf5e","ios":"levelo://app?vid=fcdb490e-5966-4191-874f-a0870dbecf5e"},"vehicle_type_id":"4","last_reported":1760861502,"current_range_meters":12800,"station_id":"ce4bhm92rcd13ifvqglg","pricing_plan_id":"cebpf4jnsgd1na2vs0mg"},{"bike_id":"90ba9e44-eda0-4914-aadc-c21ede29abbf","system_id":"levelo_inurba_marseille","lat":43.25324,"lon":5.42168,"is_reserved":false,"is_disabled":false,"rental_uris":{"android":"levelo://app?vid=90ba9e44-eda0-4914-aadc-c21ede29abbf","ios":"levelo://app?vid=90ba9e44-eda0-4914-aadc-c21ede29abbf"},"vehicle_type_id":"4","last_reported":1760861502,"current_range_meters":12800,"station_id":"st_d2m65c5bi1j21697t3ng","pricing_plan_id":"cebpf4jnsgd1na2vs0mg"},{"bike_id":"039e2461-f460-4ef8-a658-0a0ed3531b85","system_id":"levelo_inurba_marseille","lat":43.3111,"lon":5.37788,"is_reserved":false,"is_disabled":false,"rental_uris":{"android":"levelo://app?vid=039e2461-f460-4ef8-a658-0a0ed3531b85","ios":"levelo://app?vid=039e2461-f460-4ef8-a658-0a0ed3531b85"},"vehicle_type_id":"4","last_reported":1760861502,"current_range_meters":12800,"station_id":"ce4bgt92rcd13ifvqcg0","pricing_plan_id":"cebpf4jnsgd1na2vs0mg"},{"bike_id":"3f9922fa-5fa2-4bb2-b6fe-411d28b8df2c","system_id":"levelo_inurba_marseille","lat":43.284539,"lon":5.381451,"is_reserved":false,"is_disabled":false,"rental_uris":{"android":"levelo://app?vid=3f9922fa-5fa2-4bb2-b6fe-411d28b8df2c","ios":"levelo://app?vid=3f9922fa-5fa2-4bb2-b6fe-411d28b8df2c"},"vehicle_type_id":"4","last_reported":1760861502,"current_range_meters":13600,"station_id":"","pricing_plan_id":"cebpf4jnsgd1na2vs0mg"},{"bike_id":"367c1051-7e4c-4903-8a1f-171c98150810","system_id":"levelo_inurba_marseille","lat":43.24156,"lon":5.364035,"is_reserved":false,"is_disabled":false,"rental_uris":{"android":"levelo://app?vid=367c1051-7e4c-4903-8a1f-171c98150810","ios":"levelo://app?vid=367c1051-7e4c-4903-8a1f-171c98150810"},"vehicle_type_id":"4","last_reported":1760861502,"current_range_meters":13600,"station_id":"cpo36qri1sfpv3e86is0","pricing_plan_id":"cebpf4jnsgd1na2vs0mg"},{"bike_id":"b9f4c452-f1a0-4b31-854c-2325a5b73556","system_id":"levelo_inurba_marseille","lat":43.2145,"lon":5.34308,"is_reserved":false,"is_disabled":false,"rental_uris":{"android":"levelo://app?vid=b9f4c452-f1a0-4b31-854c-2325a5b73556","ios":"levelo://app?vid=b9f4c452-f1a0-4b31-854c-2325a5b73556"},"vehicle_type_id":"4","last_reported":1760861502,"current_range_meters":13600,"station_id":"","pricing_plan_id":"cebpf4jnsgd1na2vs0mg"},{"bike_id":"8f6c99a9-2111-4ea5-ba4d-4bb0a3b06aa1","system_id":"levelo_inurba_marseille","lat":43.298157,"lon":5.440708,"is_reserved":false,"is_disabled":false,"rental_uris":{"android":"levelo://app?vid=8f6c99a9-2111-4ea5-ba4d-4bb0a3b06aa1","ios":"levelo://app?vid=8f6c99a9-2111-4ea5-ba4d-4bb0a3b06aa1"},"vehicle_type_id":"4","last_reported":1760861502,"current_range_meters":14000,"station_id":"st_d3jp68qikq2c7381ktn0","pricing_plan_id":"cebpf4jnsgd1na2vs0mg"},{"bike_id":"8e9e6b93-cd6b-400a-a518-29baddae32ac","system_id":"levelo_inurba_marseille","lat":43.30046,"lon":5.3872,"is_reserved":false,"is_disabled":false,"rental_uris":{"android":"levelo://app?vid=8e9e6b93-cd6b-400a-a518-29baddae32ac","ios":"levelo://app?vid=8e9e6b93-cd6b-400a-a518-29baddae32ac"},"vehicle_type_id":"4","last_reported":1760861502,"current_range_meters":14000,"station_id":"","pricing_plan_id":"cebpf4jnsgd1na2vs0mg"},{"bike_id":"86ce52f8-f590-4694-90e1-216ddc477b29","system_id":"levelo_inurba_marseille","lat":43.30968,"lon":5.3812,"is_reserved":false,"is_disabled":false,"rental_uris":{"android":"levelo://app?vid=86ce52f8-f590-4694-90e1-216ddc477b29","ios":"levelo://app?vid=86ce52f8-f590-4694-90e1-216ddc477b29"},"vehicle_type_id":"4","last_reported":1760861502,"current_range_meters":14000,"station_id":"","pricing_plan_id":"cebpf4jnsgd1na2vs0mg"},{"bike_id":"8cd818e3-a9e2-4f48-92b2-26306f507696","system_id":"levelo_inurba_marseille","lat":43.31349,"lon":5.37913,"is_reserved":false,"is_disabled":false,"rental_uris":{"android":"levelo://app?vid=8cd818e3-a9e2-4f48-92b2-26306f507696","ios":"levelo://app?vid=8cd818e3-a9e2-4f48-92b2-26306f507696"},"vehicle_type_id":"4","last_reported":1760861502,"current_range_meters":14000,"station_id":"","pricing_plan_id":"cebpf4jnsgd1na2vs0mg"},{"bike_id":"dd9349a9-1c57-41ea-85c9-a2e59c5ac387","system_id":"levelo_inurba_marseille","lat":43.29555,"lon":5.42287,"is_reserved":false,"is_disabled":false,"rental_uris":{"android":"levelo://app?vid=dd9349a9-1c57-41ea-85c9-a2e59c5ac387","ios":"levelo://app?vid=dd9349a9-1c57-41ea-85c9-a2e59c5ac387"},"vehicle_type_id":"4","last_reported":1760861502,"current_range_meters":14000,"station_id":"ce4bhph2rcd13ifvqhdg","pricing_plan_id":"cebpf4jnsgd1na2vs0mg"},{"bike_id":"c2109d25-d4ee-4a1f-897b-a03e90535513","system_id":"levelo_inurba_marseille","lat":43.285332,"lon":5.441106,"is_reserved":false,"is_disabled":false,"rental_uris":{"android":"levelo://app?vid=c2109d25-d4ee-4a1f-897b-a03e90535513","ios":"levelo://app?vid=c2109d25-d4ee-4a1f-897b-a03e90535513"},"vehicle_type_id":"4","last_reported":1760861502,"current_range_meters":14000,"station_id":"st_d3j3df2ikq2c7380ej80","pricing_plan_id":"cebpf4jnsgd1na2vs0mg"},{"bike_id":"7b4102bf-aba1-447f-93de-ffef7042242e","system_id":"levelo_inurba_marseille","lat":43.27766,"lon":5.37613,"is_reserved":false,"is_disabled":false,"rental_uris":{"android":"levelo://app?vid=7b4102bf-aba1-447f-93de-ffef7042242e","ios":"levelo://app?vid=7b4102bf-aba1-447f-93de-ffef7042242e"},"vehicle_type_id":"4","last_reported":1760861502,"current_range_meters":14400,"station_id":"","pricing_plan_id":"cebpf4jnsgd1na2vs0mg"},{"bike_id":"676d88a8-f06e-4192-886d-e52926318b91","system_id":"levelo_inurba_marseille","lat":43.21192,"lon":5.35074,"is_reserved":false,"is_disabled":false,"rental_uris":{"android":"levelo://app?vid=676d88a8-f06e-4192-886d-e52926318b91","ios":"levelo://app?vid=676d88a8-f06e-4192-886d-e52926318b91"},"vehicle_type_id":"4","last_reported":1760861502,"current_range_meters":14400,"station_id":"st_cvj6sg6p6f1abm77japg","pricing_plan_id":"cebpf4jnsgd1na2vs0mg"},{"bike_id":"33072f8a-fdd4-421e-bff0-051872342972","system_id":"levelo_inurba_marseille","lat":43.2799,"lon":5.41661,"is_reserved":false,"is_disabled":false,"rental_uris":{"android":"levelo://app?vid=33072f8a-fdd4-421e-bff0-051872342972","ios":"levelo://app?vid=33072f8a-fdd4-421e-bff0-051872342972"},"vehicle_type_id":"4","last_reported":1760861502,"current_range_meters":14400,"station_id":"ce4bho12rcd13ifvqh1g","pricing_plan_id":"cebpf4jnsgd1na2vs0mg"},{"bike_id":"8fc39a68-750e-4904-a3b6-7d372c0a4269","system_id":"levelo_inurba_marseille","lat":43.30775,"lon":5.3766,"is_reserved":false,"is_disabled":false,"rental_uris":{"android":"levelo://app?vid=8fc39a68-750e-4904-a3b6-7d372c0a4269","ios":"levelo://app?vid=8fc39a68-750e-4904-a3b6-7d372c0a4269"},"vehicle_type_id":"4","last_reported":1760861502,"current_range_meters":14400,"station_id":"ce4bgv92rcd13ifvqcq0","pricing_plan_id":"cebpf4jnsgd1na2vs0mg"},{"bike_id":"92b855db-83ae-42a5-ae3c-3811d6f3b9c4","system_id":"levelo_inurba_marseille","lat":43.28679,"lon":5.36351,"is_reserved":false,"is_disabled":false,"rental_uris":{"android":"levelo://app?vid=92b855db-83ae-42a5-ae3c-3811d6f3b9c4","ios":"levelo://app?vid=92b855db-83ae-42a5-ae3c-3811d6f3b9c4"},"vehicle_type_id":"4","last_reported":1760861502,"current_range_meters":14400,"station_id":"ce4bhah2rcd13ifvqej0","pricing_plan_id":"cebpf4jnsgd1na2vs0mg"},{"bike_id":"fbe586dc-ebc7-45f2-b699-4812fb9ca15d","system_id":"levelo_inurba_marseille","lat":43.25481,"lon":5.37659,"is_reserved":false,"is_disabled":true,"rental_uris":{"android":"levelo://app?vid=fbe586dc-ebc7-45f2-b699-4812fb9ca15d","ios":"levelo://app?vid=fbe586dc-ebc7-45f2-b699-4812fb9ca15d"},"vehicle_type_id":"4","last_reported":1760861502,"current_range_meters":14400,"station_id":"ce4bhh12rcd13ifvqff0","pricing_plan_id":"cebpf4jnsgd1na2vs0mg"},{"bike_id":"dc93ad0f-026e-4bfb-a302-4b74fc9c8814","system_id":"levelo_inurba_marseille","lat":43.31364,"lon":5.38558,"is_reserved":false,"is_disabled":false,"rental_uris":{"android":"levelo://app?vid=dc93ad0f-026e-4bfb-a302-4b74fc9c8814","ios":"levelo://app?vid=dc93ad0f-026e-4bfb-a302-4b74fc9c8814"},"vehicle_type_id":"4","last_reported":1760861502,"current_range_meters":14400,"station_id":"","pricing_plan_id":"cebpf4jnsgd1na2vs0mg"},{"bike_id":"c04ec69d-6f4d-48f7-aaa3-f0b9e15d37d3","system_id":"levelo_inurba_marseille","lat":43.24939,"lon":5.4052,"is_reserved":false,"is_disabled":false,"rental_uris":{"android":"levelo://app?vid=c04ec69d-6f4d-48f7-aaa3-f0b9e15d37d3","ios":"levelo://app?vid=c04ec69d-6f4d-48f7-aaa3-f0b9e15d37d3"},"vehicle_type_id":"4","last_reported":1760861502,"current_range_meters":14400,"station_id":"st_d2ngiaodas8pm72gd1h0","pricing_plan_id":"cebpf4jnsgd1na2vs0mg"},{"bike_id":"0f787efd-37ca-4060-a03d-15d3c3ce389f","system_id":"levelo_inurba_marseille","lat":43.3,"lon":5.373507,"is_reserved":false,"is_disabled":false,"rental_uris":{"android":"levelo://app?vid=0f787efd-37ca-4060-a03d-15d3c3ce389f","ios":"levelo://app?vid=0f787efd-37ca-4060-a03d-15d3c3ce389f"},"vehicle_type_id":"4","last_reported":1760861502,"current_range_meters":14400,"station_id":"","pricing_plan_id":"cebpf4jnsgd1na2vs0mg"},{"bike_id":"975218b1-0233-42f1-9373-40d58585c2f5","system_id":"levelo_inurba_marseille","lat":43.3135,"lon":5.38501,"is_reserved":false,"is_disabled":false,"rental_uris":{"android":"levelo://app?vid=975218b1-0233-42f1-9373-40d58585c2f5","ios":"levelo://app?vid=975218b1-0233-42f1-9373-40d58585c2f5"},"vehicle_type_id":"4","last_reported":1760861502,"current_range_meters":14800,"station_id":"ce4bgt92rcd13ifvqcf0","pricing_plan_id":"cebpf4jnsgd1na2vs0mg"},{"bike_id":"7fd36eea-805d-4dce-89b5-46f277eaf158","system_id":"levelo_inurba_marseille","lat":43.305097,"lon":5.366695,"is_reserved":false,"is_disabled":false,"rental_uris":{"android":"levelo://app?vid=7fd36eea-805d-4dce-89b5-46f277eaf158","ios":"levelo://app?vid=7fd36eea-805d-4dce-89b5-46f277eaf158"},"vehicle_type_id":"4","last_reported":1760861502,"current_range_meters":14800,"station_id":"","pricing_plan_id":"cebpf4jnsgd1na2vs0mg"},{"bike_id":"59b3e812-3549-4015-b252-4efa80c10aa9","system_id":"levelo_inurba_marseille","lat":43.29222,"lon":5.36074,"is_reserved":false,"is_disabled":false,"rental_uris":{"android":"levelo://app?vid=59b3e812-3549-4015-b252-4efa80c10aa9","ios":"levelo://app?vid=59b3e812-3549-4015-b252-4efa80c10aa9"},"vehicle_type_id":"4","last_reported":1760861502,"current_range_meters":14800,"station_id":"ce4bhbh2rcd13ifvqeqg","pricing_plan_id":"cebpf4jnsgd1na2vs0mg"},{"bike_id":"5bd9155f-156c-49c8-8b0f-833732c1c592","system_id":"levelo_inurba_marseille","lat":43.28535,"lon":5.44123,"is_reserved":false,"is_disabled":false,"rental_uris":{"android":"levelo://app?vid=5bd9155f-156c-49c8-8b0f-833732c1c592","ios":"levelo://app?vid=5bd9155f-156c-49c8-8b0f-833732c1c592"},"vehicle_type_id":"4","last_reported":1760861502,"current_range_meters":15200,"station_id":"st_d3j3df2ikq2c7380ej80","pricing_plan_id":"cebpf4jnsgd1na2vs0mg"},{"bike_id":"7a8ac50b-c3a4-490a-8f96-9c005f89ed5d","system_id":"levelo_inurba_marseille","lat":43.26521,"lon":5.39049,"is_reserved":false,"is_disabled":false,"rental_uris":{"android":"levelo://app?vid=7a8ac50b-c3a4-490a-8f96-9c005f89ed5d","ios":"levelo://app?vid=7a8ac50b-c3a4-490a-8f96-9c005f89ed5d"},"vehicle_type_id":"4","last_reported":1760861502,"current_range_meters":15200,"station_id":"","pricing_plan_id":"cebpf4jnsgd1na2vs0mg"},{"bike_id":"437e49d2-ac1d-44f1-871d-4eda45fc3c65","system_id":"levelo_inurba_marseille","lat":43.23144,"lon":5.43723,"is_reserved":false,"is_disabled":false,"rental_uris":{"android":"levelo://app?vid=437e49d2-ac1d-44f1-871d-4eda45fc3c65","ios":"levelo://app?vid=437e49d2-ac1d-44f1-871d-4eda45fc3c65"},"vehicle_type_id":"4","last_reported":1760861502,"current_range_meters":15200,"station_id":"ce4bhmp2rcd13ifvqgog","pricing_plan_id":"cebpf4jnsgd1na2vs0mg"},{"bike_id":"281275b0-340b-4d2d-bc29-085f43a86d4d","system_id":"levelo_inurba_marseille","lat":43.27377,"lon":5.36251,"is_reserved":false,"is_disabled":false,"rental_uris":{"android":"levelo://app?vid=281275b0-340b-4d2d-bc29-085f43a86d4d","ios":"levelo://app?vid=281275b0-340b-4d2d-bc29-085f43a86d4d"},"vehicle_type_id":"4","last_reported":1760861502,"current_range_meters":15200,"station_id":"","pricing_plan_id":"cebpf4jnsgd1na2vs0mg"},{"bike_id":"c22e92c8-3fe0-4c56-ab21-210e12f7f0b4","system_id":"levelo_inurba_marseille","lat":43.31946,"lon":5.41533,"is_reserved":false,"is_disabled":false,"rental_uris":{"android":"levelo://app?vid=c22e92c8-3fe0-4c56-ab21-210e12f7f0b4","ios":"levelo://app?vid=c22e92c8-3fe0-4c56-ab21-210e12f7f0b4"},"vehicle_type_id":"4","last_reported":1760861502,"current_range_meters":15200,"station_id":"","pricing_plan_id":"cebpf4jnsgd1na2vs0mg"},{"bike_id":"61a03972-6032-4677-a33f-1ca16df398f0","system_id":"levelo_inurba_marseille","lat":43.309287,"lon":5.401345,"is_reserved":false,"is_disabled":false,"rental_uris":{"android":"levelo://app?vid=61a03972-6032-4677-a33f-1ca16df398f0","ios":"levelo://app?vid=61a03972-6032-4677-a33f-1ca16df398f0"},"vehicle_type_id":"4","last_reported":1760861502,"current_range_meters":15200,"station_id":"ce4bgvp2rcd13ifvqct0","pricing_plan_id":"cebpf4jnsgd1na2vs0mg"},{"bike_id":"bce98ae8-dfdf-4c26-a4bd-718a9035c2fc","system_id":"levelo_inurba_marseille","lat":43.27947,"lon":5.4105,"is_reserved":false,"is_disabled":false,"rental_uris":{"android":"levelo://app?vid=bce98ae8-dfdf-4c26-a4bd-718a9035c2fc","ios":"levelo://app?vid=bce98ae8-dfdf-4c26-a4bd-718a9035c2fc"},"vehicle_type_id":"4","last_reported":1760861502,"current_range_meters":15200,"station_id":"ce4bhnp2rcd13ifvqh0g","pricing_plan_id":"cebpf4jnsgd1na2vs0mg"},{"bike_id":"f31b156e-2264-44ca-8b67-3860eadd088e","system_id":"levelo_inurba_marseille","lat":43.30253,"lon":5.40075,"is_reserved":false,"is_disabled":false,"rental_uris":{"android":"levelo://app?vid=f31b156e-2264-44ca-8b67-3860eadd088e","ios":"levelo://app?vid=f31b156e-2264-44ca-8b67-3860eadd088e"},"vehicle_type_id":"4","last_reported":1760861502,"current_range_meters":15200,"station_id":"ce4bgvh2rcd13ifvqcs0","pricing_plan_id":"cebpf4jnsgd1na2vs0mg"},{"bike_id":"d1668fd5-d05d-42a9-b5d1-4388db8ac6a3","system_id":"levelo_inurba_marseille","lat":43.31764,"lon":5.39029,"is_reserved":false,"is_disabled":false,"rental_uris":{"android":"levelo://app?vid=d1668fd5-d05d-42a9-b5d1-4388db8ac6a3","ios":"levelo://app?vid=d1668fd5-d05d-42a9-b5d1-4388db8ac6a3"},"vehicle_type_id":"4","last_reported":1760861502,"current_range_meters":15200,"station_id":"ce4bhqp2rcd13ifvqhng","pricing_plan_id":"cebpf4jnsgd1na2vs0mg"},{"bike_id":"f1b8e04f-457e-461e-a0a7-0d512845fe50","system_id":"levelo_inurba_marseille","lat":43.33333,"lon":5.39864,"is_reserved":false,"is_disabled":false,"rental_uris":{"android":"levelo://app?vid=f1b8e04f-457e-461e-a0a7-0d512845fe50","ios":"levelo://app?vid=f1b8e04f-457e-461e-a0a7-0d512845fe50"},"vehicle_type_id":"4","last_reported":1760861502,"current_range_meters":16000,"station_id":"","pricing_plan_id":"cebpf4jnsgd1na2vs0mg"},{"bike_id":"a5fc564a-c489-40d8-a469-6e76c4119dc1","system_id":"levelo_inurba_marseille","lat":43.28663,"lon":5.3637,"is_reserved":false,"is_disabled":false,"rental_uris":{"android":"levelo://app?vid=a5fc564a-c489-40d8-a469-6e76c4119dc1","ios":"levelo://app?vid=a5fc564a-c489-40d8-a469-6e76c4119dc1"},"vehicle_type_id":"4","last_reported":1760861502,"current_range_meters":16000,"station_id":"ce4bhah2rcd13ifvqej0","pricing_plan_id":"cebpf4jnsgd1na2vs0mg"},{"bike_id":"bb79989d-871e-48b8-a3e7-7a297a28b04c","system_id":"levelo_inurba_marseille","lat":43.281524,"lon":5.351267,"is_reserved":false,"is_disabled":false,"rental_uris":{"android":"levelo://app?vid=bb79989d-871e-48b8-a3e7-7a297a28b04c","ios":"levelo://app?vid=bb79989d-871e-48b8-a3e7-7a297a28b04c"},"vehicle_type_id":"4","last_reported":1760861502,"current_range_meters":16400,"station_id":"","pricing_plan_id":"cebpf4jnsgd1na2vs0mg"},{"bike_id":"5b2e9661-9fd4-4d0d-957d-eefc69cf7582","system_id":"levelo_inurba_marseille","lat":43.319163,"lon":5.367297,"is_reserved":false,"is_disabled":false,"rental_uris":{"android":"levelo://app?vid=5b2e9661-9fd4-4d0d-957d-eefc69cf7582","ios":"levelo://app?vid=5b2e9661-9fd4-4d0d-957d-eefc69cf7582"},"vehicle_type_id":"4","last_reported":1760861502,"current_range_meters":16400,"station_id":"","pricing_plan_id":"cebpf4jnsgd1na2vs0mg"},{"bike_id":"09c5c7ea-a1e5-441e-9d28-941694561539","system_id":"levelo_inurba_marseille","lat":43.31176,"lon":5.38711,"is_reserved":false,"is_disabled":false,"rental_uris":{"android":"levelo://app?vid=09c5c7ea-a1e5-441e-9d28-941694561539","ios":"levelo://app?vid=09c5c7ea-a1e5-441e-9d28-941694561539"},"vehicle_type_id":"4","last_reported":1760861502,"current_range_meters":16400,"station_id":"ce4bgv12rcd13ifvqcp0","pricing_plan_id":"cebpf4jnsgd1na2vs0mg"},{"bike_id":"bf40278b-4bc5-4d5b-be65-c18872b0fe60","system_id":"levelo_inurba_marseille","lat":43.21189,"lon":5.35099,"is_reserved":false,"is_disabled":false,"rental_uris":{"android":"levelo://app?vid=bf40278b-4bc5-4d5b-be65-c18872b0fe60","ios":"levelo://app?vid=bf40278b-4bc5-4d5b-be65-c18872b0fe60"},"vehicle_type_id":"4","last_reported":1760861502,"current_range_meters":16400,"station_id":"st_cvj6sg6p6f1abm77japg","pricing_plan_id":"cebpf4jnsgd1na2vs0mg"},{"bike_id":"0a950a0d-01ce-40b2-be0e-ad7894fd72f2","system_id":"levelo_inurba_marseille","lat":43.32116,"lon":5.36754,"is_reserved":false,"is_disabled":true,"rental_uris":{"android":"levelo://app?vid=0a950a0d-01ce-40b2-be0e-ad7894fd72f2","ios":"levelo://app?vid=0a950a0d-01ce-40b2-be0e-ad7894fd72f2"},"vehicle_type_id":"4","last_reported":1760861502,"current_range_meters":16400,"station_id":"ce4bhrh2rcd13ifvqhug","pricing_plan_id":"cebpf4jnsgd1na2vs0mg"},{"bike_id":"9652283e-21f4-4490-ac9e-ffa9429f0005","system_id":"levelo_inurba_marseille","lat":43.2904,"lon":5.40521,"is_reserved":false,"is_disabled":false,"rental_uris":{"android":"levelo://app?vid=9652283e-21f4-4490-ac9e-ffa9429f0005","ios":"levelo://app?vid=9652283e-21f4-4490-ac9e-ffa9429f0005"},"vehicle_type_id":"4","last_reported":1760861502,"current_range_meters":16400,"station_id":"","pricing_plan_id":"cebpf4jnsgd1na2vs0mg"},{"bike_id":"3281eb69-9f14-48d9-a8af-bd1dbcbd3dc6","system_id":"levelo_inurba_marseille","lat":43.32456,"lon":5.36582,"is_reserved":false,"is_disabled":false,"rental_uris":{"android":"levelo://app?vid=3281eb69-9f14-48d9-a8af-bd1dbcbd3dc6","ios":"levelo://app?vid=3281eb69-9f14-48d9-a8af-bd1dbcbd3dc6"},"vehicle_type_id":"4","last_reported":1760861502,"current_range_meters":16400,"station_id":"ce4bhs12rcd13ifvqhvg","pricing_plan_id":"cebpf4jnsgd1na2vs0mg"},{"bike_id":"5a35347d-1dbb-434c-8651-0148cd77cd1e","system_id":"levelo_inurba_marseille","lat":43.31541,"lon":5.38743,"is_reserved":false,"is_disabled":false,"rental_uris":{"android":"levelo://app?vid=5a35347d-1dbb-434c-8651-0148cd77cd1e","ios":"levelo://app?vid=5a35347d-1dbb-434c-8651-0148cd77cd1e"},"vehicle_type_id":"4","last_reported":1760861502,"current_range_meters":16400,"station_id":"","pricing_plan_id":"cebpf4jnsgd1na2vs0mg"},{"bike_id":"c1797d73-9a57-4ace-9913-3d5292c80a81","system_id":"levelo_inurba_marseille","lat":43.30321,"lon":5.40447,"is_reserved":false,"is_disabled":false,"rental_uris":{"android":"levelo://app?vid=c1797d73-9a57-4ace-9913-3d5292c80a81","ios":"levelo://app?vid=c1797d73-9a57-4ace-9913-3d5292c80a81"},"vehicle_type_id":"4","last_reported":1760861502,"current_range_meters":16400,"station_id":"ce4bh012rcd13ifvqd10","pricing_plan_id":"cebpf4jnsgd1na2vs0mg"},{"bike_id":"e6a7d054-152f-48ef-adea-b2903c04274b","system_id":"levelo_inurba_marseille","lat":43.31069,"lon":5.38343,"is_reserved":false,"is_disabled":false,"rental_uris":{"android":"levelo://app?vid=e6a7d054-152f-48ef-adea-b2903c04274b","ios":"levelo://app?vid=e6a7d054-152f-48ef-adea-b2903c04274b"},"vehicle_type_id":"4","last_reported":1760861502,"current_range_meters":16400,"station_id":"ce4bgv92rcd13ifvqcr0","pricing_plan_id":"cebpf4jnsgd1na2vs0mg"},{"bike_id":"62a2917a-11f1-4065-bafc-67f0f75ed065","system_id":"levelo_inurba_marseille","lat":43.313227,"lon":5.397247,"is_reserved":false,"is_disabled":false,"rental_uris":{"android":"levelo://app?vid=62a2917a-11f1-4065-bafc-67f0f75ed065","ios":"levelo://app?vid=62a2917a-11f1-4065-bafc-67f0f75ed065"},"vehicle_type_id":"4","last_reported":1760861502,"current_range_meters":16800,"station_id":"ce4bgvp2rcd13ifvqcu0","pricing_plan_id":"cebpf4jnsgd1na2vs0mg"},{"bike_id":"53f1040d-5532-4b03-9970-22f68ff0b1c0","system_id":"levelo_inurba_marseille","lat":43.29623,"lon":5.37165,"is_reserved":false,"is_disabled":false,"rental_uris":{"android":"levelo://app?vid=53f1040d-5532-4b03-9970-22f68ff0b1c0","ios":"levelo://app?vid=53f1040d-5532-4b03-9970-22f68ff0b1c0"},"vehicle_type_id":"4","last_reported":1760861502,"current_range_meters":16800,"station_id":"ce4bgnh2rcd13ifvqc0g","pricing_plan_id":"cebpf4jnsgd1na2vs0mg"},{"bike_id":"4bbd6801-e86f-4670-a08c-5a08e1dabb92","system_id":"levelo_inurba_marseille","lat":43.29191,"lon":5.38118,"is_reserved":false,"is_disabled":false,"rental_uris":{"android":"levelo://app?vid=4bbd6801-e86f-4670-a08c-5a08e1dabb92","ios":"levelo://app?vid=4bbd6801-e86f-4670-a08c-5a08e1dabb92"},"vehicle_type_id":"4","last_reported":1760861502,"current_range_meters":16800,"station_id":"","pricing_plan_id":"cebpf4jnsgd1na2vs0mg"},{"bike_id":"28036086-9fc0-4694-90bd-3af15535beb3","system_id":"levelo_inurba_marseille","lat":43.29869,"lon":5.36296,"is_reserved":false,"is_disabled":true,"rental_uris":{"android":"levelo://app?vid=28036086-9fc0-4694-90bd-3af15535beb3","ios":"levelo://app?vid=28036086-9fc0-4694-90bd-3af15535beb3"},"vehicle_type_id":"4","last_reported":1760861502,"current_range_meters":16800,"station_id":"ce4bgpp2rcd13ifvqc3g","pricing_plan_id":"cebpf4jnsgd1na2vs0mg"},{"bike_id":"fea2e9c8-aa41-4976-b715-a9bf6cd91f19","system_id":"levelo_inurba_marseille","lat":43.26934,"lon":5.40266,"is_reserved":false,"is_disabled":false,"rental_uris":{"android":"levelo://app?vid=fea2e9c8-aa41-4976-b715-a9bf6cd91f19","ios":"levelo://app?vid=fea2e9c8-aa41-4976-b715-a9bf6cd91f19"},"vehicle_type_id":"4","last_reported":1760861502,"current_range_meters":16800,"station_id":"cjm6bp8fraef2m0cb0m0","pricing_plan_id":"cebpf4jnsgd1na2vs0mg"},{"bike_id":"da22a6bb-ece8-4168-87fa-39fdca8adc0a","system_id":"levelo_inurba_marseille","lat":43.248064,"lon":5.374574,"is_reserved":false,"is_disabled":false,"rental_uris":{"android":"levelo://app?vid=da22a6bb-ece8-4168-87fa-39fdca8adc0a","ios":"levelo://app?vid=da22a6bb-ece8-4168-87fa-39fdca8adc0a"},"vehicle_type_id":"4","last_reported":1760861502,"current_range_meters":16800,"station_id":"ce4bhgh2rcd13ifvqfb0","pricing_plan_id":"cebpf4jnsgd1na2vs0mg"},{"bike_id":"489efffe-acf2-4782-9d49-87b313b699b9","system_id":"levelo_inurba_marseille","lat":43.288567,"lon":5.358559,"is_reserved":false,"is_disabled":false,"rental_uris":{"android":"levelo://app?vid=489efffe-acf2-4782-9d49-87b313b699b9","ios":"levelo://app?vid=489efffe-acf2-4782-9d49-87b313b699b9"},"vehicle_type_id":"4","last_reported":1760861502,"current_range_meters":17200,"station_id":"ce4bhb12rcd13ifvqem0","pricing_plan_id":"cebpf4jnsgd1na2vs0mg"},{"bike_id":"0efdc4b6-faae-410e-a01e-42fe021ab326","system_id":"levelo_inurba_marseille","lat":43.291938,"lon":5.393137,"is_reserved":false,"is_disabled":false,"rental_uris":{"android":"levelo://app?vid=0efdc4b6-faae-410e-a01e-42fe021ab326","ios":"levelo://app?vid=0efdc4b6-faae-410e-a01e-42fe021ab326"},"vehicle_type_id":"4","last_reported":1760861502,"current_range_meters":17200,"station_id":"ce4bh192rcd13ifvqdd0","pricing_plan_id":"cebpf4jnsgd1na2vs0mg"},{"bike_id":"9acfcdb9-7bf0-4991-8024-da3d8f37ea9e","system_id":"levelo_inurba_marseille","lat":43.28616,"lon":5.35103,"is_reserved":false,"is_disabled":false,"rental_uris":{"android":"levelo://app?vid=9acfcdb9-7bf0-4991-8024-da3d8f37ea9e","ios":"levelo://app?vid=9acfcdb9-7bf0-4991-8024-da3d8f37ea9e"},"vehicle_type_id":"4","last_reported":1760861502,"current_range_meters":17200,"station_id":"ce4bhch2rcd13ifvqeug","pricing_plan_id":"cebpf4jnsgd1na2vs0mg"},{"bike_id":"605c8a23-7906-4fb2-9c0a-c6590810f681","system_id":"levelo_inurba_marseille","lat":43.241643,"lon":5.364137,"is_reserved":false,"is_disabled":false,"rental_uris":{"android":"levelo://app?vid=605c8a23-7906-4fb2-9c0a-c6590810f681","ios":"levelo://app?vid=605c8a23-7906-4fb2-9c0a-c6590810f681"},"vehicle_type_id":"4","last_reported":1760861502,"current_range_meters":17200,"station_id":"cpo36qri1sfpv3e86is0","pricing_plan_id":"cebpf4jnsgd1na2vs0mg"},{"bike_id":"9aa893ee-1807-4639-a1a7-1714b8f2dc9d","system_id":"levelo_inurba_marseille","lat":43.274977,"lon":5.424713,"is_reserved":false,"is_disabled":false,"rental_uris":{"android":"levelo://app?vid=9aa893ee-1807-4639-a1a7-1714b8f2dc9d","ios":"levelo://app?vid=9aa893ee-1807-4639-a1a7-1714b8f2dc9d"},"vehicle_type_id":"4","last_reported":1760861502,"current_range_meters":17600,"station_id":"ce4bhn92rcd13ifvqgrg","pricing_plan_id":"cebpf4jnsgd1na2vs0mg"},{"bike_id":"a191bf25-790d-4769-b581-0bf6f8773e37","system_id":"levelo_inurba_marseille","lat":43.30657,"lon":5.40096,"is_reserved":false,"is_disabled":false,"rental_uris":{"android":"levelo://app?vid=a191bf25-790d-4769-b581-0bf6f8773e37","ios":"levelo://app?vid=a191bf25-790d-4769-b581-0bf6f8773e37"},"vehicle_type_id":"4","last_reported":1760861502,"current_range_meters":17600,"station_id":"ce4bh112rcd13ifvqda0","pricing_plan_id":"cebpf4jnsgd1na2vs0mg"},{"bike_id":"b7ddea43-28dc-4fbe-a7ed-b00d6badff2a","system_id":"levelo_inurba_marseille","lat":43.287842,"lon":5.380541,"is_reserved":false,"is_disabled":true,"rental_uris":{"android":"levelo://app?vid=b7ddea43-28dc-4fbe-a7ed-b00d6badff2a","ios":"levelo://app?vid=b7ddea43-28dc-4fbe-a7ed-b00d6badff2a"},"vehicle_type_id":"4","last_reported":1760861502,"current_range_meters":17600,"station_id":"","pricing_plan_id":"cebpf4jnsgd1na2vs0mg"},{"bike_id":"c530e950-50a8-4b2f-81e6-a5f7e6f752e8","system_id":"levelo_inurba_marseille","lat":43.33759,"lon":5.37473,"is_reserved":false,"is_disabled":false,"rental_uris":{"android":"levelo://app?vid=c530e950-50a8-4b2f-81e6-a5f7e6f752e8","ios":"levelo://app?vid=c530e950-50a8-4b2f-81e6-a5f7e6f752e8"},"vehicle_type_id":"4","last_reported":1760861502,"current_range_meters":17600,"station_id":"","pricing_plan_id":"cebpf4jnsgd1na2vs0mg"},{"bike_id":"47ad36fc-1d6b-4faa-b0d4-aea7afc16122","system_id":"levelo_inurba_marseille","lat":43.30915,"lon":5.40167,"is_reserved":false,"is_disabled":false,"rental_uris":{"android":"levelo://app?vid=47ad36fc-1d6b-4faa-b0d4-aea7afc16122","ios":"levelo://app?vid=47ad36fc-1d6b-4faa-b0d4-aea7afc16122"},"vehicle_type_id":"4","last_reported":1760861502,"current_range_meters":17600,"station_id":"ce4bgvp2rcd13ifvqct0","pricing_plan_id":"cebpf4jnsgd1na2vs0mg"},{"bike_id":"14b61eee-06ce-44bc-a99e-8bf0c35b7935","system_id":"levelo_inurba_marseille","lat":43.251139,"lon":5.403145,"is_reserved":false,"is_disabled":false,"rental_uris":{"android":"levelo://app?vid=14b61eee-06ce-44bc-a99e-8bf0c35b7935","ios":"levelo://app?vid=14b61eee-06ce-44bc-a99e-8bf0c35b7935"},"vehicle_type_id":"4","last_reported":1760861502,"current_range_meters":17600,"station_id":"ce4bhlh2rcd13ifvqgig","pricing_plan_id":"cebpf4jnsgd1na2vs0mg"},{"bike_id":"f05c3f47-6256-4655-8663-5522fc159fff","system_id":"levelo_inurba_marseille","lat":43.26202,"lon":5.37929,"is_reserved":false,"is_disabled":false,"rental_uris":{"android":"levelo://app?vid=f05c3f47-6256-4655-8663-5522fc159fff","ios":"levelo://app?vid=f05c3f47-6256-4655-8663-5522fc159fff"},"vehicle_type_id":"4","last_reported":1760861502,"current_range_meters":17600,"station_id":"ce4bhjp2rcd13ifvqg90","pricing_plan_id":"cebpf4jnsgd1na2vs0mg"},{"bike_id":"6efb5370-c205-499d-ab30-54e0c7524fa1","system_id":"levelo_inurba_marseille","lat":43.292754,"lon":5.368469,"is_reserved":false,"is_disabled":false,"rental_uris":{"android":"levelo://app?vid=6efb5370-c205-499d-ab30-54e0c7524fa1","ios":"levelo://app?vid=6efb5370-c205-499d-ab30-54e0c7524fa1"},"vehicle_type_id":"4","last_reported":1760861502,"current_range_meters":17600,"station_id":"ce4bh492rcd13ifvqdug","pricing_plan_id":"cebpf4jnsgd1na2vs0mg"},{"bike_id":"443fc992-bd8f-4e48-89c4-ef1795929a1e","system_id":"levelo_inurba_marseille","lat":43.31361,"lon":5.384938,"is_reserved":false,"is_disabled":false,"rental_uris":{"android":"levelo://app?vid=443fc992-bd8f-4e48-89c4-ef1795929a1e","ios":"levelo://app?vid=443fc992-bd8f-4e48-89c4-ef1795929a1e"},"vehicle_type_id":"4","last_reported":1760861502,"current_range_meters":18000,"station_id":"ce4bgt92rcd13ifvqcf0","pricing_plan_id":"cebpf4jnsgd1na2vs0mg"},{"bike_id":"8f5b4e3f-d0c8-438b-955e-3fd6c08bc9d3","system_id":"levelo_inurba_marseille","lat":43.241638,"lon":5.364051,"is_reserved":false,"is_disabled":false,"rental_uris":{"android":"levelo://app?vid=8f5b4e3f-d0c8-438b-955e-3fd6c08bc9d3","ios":"levelo://app?vid=8f5b4e3f-d0c8-438b-955e-3fd6c08bc9d3"},"vehicle_type_id":"4","last_reported":1760861502,"current_range_meters":18000,"station_id":"cpo36qri1sfpv3e86is0","pricing_plan_id":"cebpf4jnsgd1na2vs0mg"},{"bike_id":"e343fae2-abdd-419f-add3-4252cf1a7c5a","system_id":"levelo_inurba_marseille","lat":43.30482,"lon":5.40078,"is_reserved":false,"is_disabled":false,"rental_uris":{"android":"levelo://app?vid=e343fae2-abdd-419f-add3-4252cf1a7c5a","ios":"levelo://app?vid=e343fae2-abdd-419f-add3-4252cf1a7c5a"},"vehicle_type_id":"4","last_reported":1760861502,"current_range_meters":18000,"station_id":"","pricing_plan_id":"cebpf4jnsgd1na2vs0mg"},{"bike_id":"27b5581b-44ff-4718-b758-98465db337b8","system_id":"levelo_inurba_marseille","lat":43.30883,"lon":5.39619,"is_reserved":false,"is_disabled":false,"rental_uris":{"android":"levelo://app?vid=27b5581b-44ff-4718-b758-98465db337b8","ios":"levelo://app?vid=27b5581b-44ff-4718-b758-98465db337b8"},"vehicle_type_id":"4","last_reported":1760861502,"current_range_meters":18000,"station_id":"ce4bh012rcd13ifvqcv0","pricing_plan_id":"cebpf4jnsgd1na2vs0mg"},{"bike_id":"7c9134d6-f24d-43fc-b5dd-c553a4300356","system_id":"levelo_inurba_marseille","lat":43.28619,"lon":5.37061,"is_reserved":false,"is_disabled":true,"rental_uris":{"android":"levelo://app?vid=7c9134d6-f24d-43fc-b5dd-c553a4300356","ios":"levelo://app?vid=7c9134d6-f24d-43fc-b5dd-c553a4300356"},"vehicle_type_id":"4","last_reported":1760861502,"current_range_meters":18000,"station_id":"ce4bht12rcd13ifvqi60","pricing_plan_id":"cebpf4jnsgd1na2vs0mg"},{"bike_id":"7541e009-9c6d-4a66-90f0-a53fab701033","system_id":"levelo_inurba_marseille","lat":43.29011,"lon":5.35608,"is_reserved":false,"is_disabled":false,"rental_uris":{"android":"levelo://app?vid=7541e009-9c6d-4a66-90f0-a53fab701033","ios":"levelo://app?vid=7541e009-9c6d-4a66-90f0-a53fab701033"},"vehicle_type_id":"4","last_reported":1760861502,"current_range_meters":18800,"station_id":"ce4bhb92rcd13ifvqen0","pricing_plan_id":"cebpf4jnsgd1na2vs0mg"},{"bike_id":"0000b6d3-e83a-4149-90d5-c0999f573ff8","system_id":"levelo_inurba_marseille","lat":43.32075,"lon":5.36782,"is_reserved":false,"is_disabled":false,"rental_uris":{"android":"levelo://app?vid=0000b6d3-e83a-4149-90d5-c0999f573ff8","ios":"levelo://app?vid=0000b6d3-e83a-4149-90d5-c0999f573ff8"},"vehicle_type_id":"4","last_reported":1760861502,"current_range_meters":18800,"station_id":"ce4bhrh2rcd13ifvqhug","pricing_plan_id":"cebpf4jnsgd1na2vs0mg"},{"bike_id":"bb211116-29a7-4e48-93ed-d4ab1a1c4665","system_id":"levelo_inurba_marseille","lat":43.25941,"lon":5.40904,"is_reserved":false,"is_disabled":false,"rental_uris":{"android":"levelo://app?vid=bb211116-29a7-4e48-93ed-d4ab1a1c4665","ios":"levelo://app?vid=bb211116-29a7-4e48-93ed-d4ab1a1c4665"},"vehicle_type_id":"4","last_reported":1760861502,"current_range_meters":18800,"station_id":"ce4bhm92rcd13ifvqglg","pricing_plan_id":"cebpf4jnsgd1na2vs0mg"},{"bike_id":"348ab8cc-81cc-4702-b12d-7027572c1935","system_id":"levelo_inurba_marseille","lat":43.27376,"lon":5.3625,"is_reserved":false,"is_disabled":true,"rental_uris":{"android":"levelo://app?vid=348ab8cc-81cc-4702-b12d-7027572c1935","ios":"levelo://app?vid=348ab8cc-81cc-4702-b12d-7027572c1935"},"vehicle_type_id":"4","last_reported":1760861502,"current_range_meters":18800,"station_id":"ce4bhbh2rcd13ifvqeo0","pricing_plan_id":"cebpf4jnsgd1na2vs0mg"},{"bike_id":"7aae7eeb-ada1-48a3-8415-9b13ecbae171","system_id":"levelo_inurba_marseille","lat":43.25113,"lon":5.40335,"is_reserved":false,"is_disabled":false,"rental_uris":{"android":"levelo://app?vid=7aae7eeb-ada1-48a3-8415-9b13ecbae171","ios":"levelo://app?vid=7aae7eeb-ada1-48a3-8415-9b13ecbae171"},"vehicle_type_id":"4","last_reported":1760861502,"current_range_meters":18800,"station_id":"ce4bhlh2rcd13ifvqgig","pricing_plan_id":"cebpf4jnsgd1na2vs0mg"},{"bike_id":"e3ceb8f0-5e12-4ef4-a429-05541ebe2200","system_id":"levelo_inurba_marseille","lat":43.31373,"lon":5.38512,"is_reserved":false,"is_disabled":false,"rental_uris":{"android":"levelo://app?vid=e3ceb8f0-5e12-4ef4-a429-05541ebe2200","ios":"levelo://app?vid=e3ceb8f0-5e12-4ef4-a429-05541ebe2200"},"vehicle_type_id":"4","last_reported":1760861502,"current_range_meters":18800,"station_id":"ce4bgt92rcd13ifvqcf0","pricing_plan_id":"cebpf4jnsgd1na2vs0mg"},{"bike_id":"000ffae2-734f-491c-adc2-b06d24d3f805","system_id":"levelo_inurba_marseille","lat":43.29638,"lon":5.40602,"is_reserved":false,"is_disabled":false,"rental_uris":{"android":"levelo://app?vid=000ffae2-734f-491c-adc2-b06d24d3f805","ios":"levelo://app?vid=000ffae2-734f-491c-adc2-b06d24d3f805"},"vehicle_type_id":"4","last_reported":1760861502,"current_range_meters":18800,"station_id":"ce4bh0h2rcd13ifvqd60","pricing_plan_id":"cebpf4jnsgd1na2vs0mg"},{"bike_id":"3863f941-4a21-481d-952a-f957ff454506","system_id":"levelo_inurba_marseille","lat":43.30782,"lon":5.37653,"is_reserved":false,"is_disabled":false,"rental_uris":{"android":"levelo://app?vid=3863f941-4a21-481d-952a-f957ff454506","ios":"levelo://app?vid=3863f941-4a21-481d-952a-f957ff454506"},"vehicle_type_id":"4","last_reported":1760861502,"current_range_meters":18800,"station_id":"ce4bgv92rcd13ifvqcq0","pricing_plan_id":"cebpf4jnsgd1na2vs0mg"},{"bike_id":"b68f7682-3d24-4ff8-abcb-012518c2cb89","system_id":"levelo_inurba_marseille","lat":43.28261,"lon":5.35084,"is_reserved":false,"is_disabled":false,"rental_uris":{"android":"levelo://app?vid=b68f7682-3d24-4ff8-abcb-012518c2cb89","ios":"levelo://app?vid=b68f7682-3d24-4ff8-abcb-012518c2cb89"},"vehicle_type_id":"4","last_reported":1760861502,"current_range_meters":18800,"station_id":"ce4bhbp2rcd13ifvqerg","pricing_plan_id":"cebpf4jnsgd1na2vs0mg"},{"bike_id":"df0b1ad2-effc-488f-a203-90340b7fa431","system_id":"levelo_inurba_marseille","lat":43.24064,"lon":5.37763,"is_reserved":false,"is_disabled":false,"rental_uris":{"android":"levelo://app?vid=df0b1ad2-effc-488f-a203-90340b7fa431","ios":"levelo://app?vid=df0b1ad2-effc-488f-a203-90340b7fa431"},"vehicle_type_id":"4","last_reported":1760861502,"current_range_meters":18800,"station_id":"ce4bhnp2rcd13ifvqgvg","pricing_plan_id":"cebpf4jnsgd1na2vs0mg"},{"bike_id":"66f7fe07-f70c-4306-a457-c24ce4f2f477","system_id":"levelo_inurba_marseille","lat":43.240656,"lon":5.377551,"is_reserved":false,"is_disabled":false,"rental_uris":{"android":"levelo://app?vid=66f7fe07-f70c-4306-a457-c24ce4f2f477","ios":"levelo://app?vid=66f7fe07-f70c-4306-a457-c24ce4f2f477"},"vehicle_type_id":"4","last_reported":1760861502,"current_range_meters":19200,"station_id":"ce4bhnp2rcd13ifvqgvg","pricing_plan_id":"cebpf4jnsgd1na2vs0mg"},{"bike_id":"78b3bdff-c8c8-4550-9ff0-18c632b07088","system_id":"levelo_inurba_marseille","lat":43.315393,"lon":5.380308,"is_reserved":false,"is_disabled":false,"rental_uris":{"android":"levelo://app?vid=78b3bdff-c8c8-4550-9ff0-18c632b07088","ios":"levelo://app?vid=78b3bdff-c8c8-4550-9ff0-18c632b07088"},"vehicle_type_id":"4","last_reported":1760861502,"current_range_meters":19200,"station_id":"ce4bhsp2rcd13ifvqi50","pricing_plan_id":"cebpf4jnsgd1na2vs0mg"},{"bike_id":"78fe83c7-5376-41e5-afa1-483e220954a6","system_id":"levelo_inurba_marseille","lat":43.291674,"lon":5.37075,"is_reserved":false,"is_disabled":false,"rental_uris":{"android":"levelo://app?vid=78fe83c7-5376-41e5-afa1-483e220954a6","ios":"levelo://app?vid=78fe83c7-5376-41e5-afa1-483e220954a6"},"vehicle_type_id":"4","last_reported":1760861502,"current_range_meters":19200,"station_id":"","pricing_plan_id":"cebpf4jnsgd1na2vs0mg"},{"bike_id":"a084b6b2-1500-4098-9b79-15baacb33e8f","system_id":"levelo_inurba_marseille","lat":43.30874,"lon":5.39641,"is_reserved":false,"is_disabled":false,"rental_uris":{"android":"levelo://app?vid=a084b6b2-1500-4098-9b79-15baacb33e8f","ios":"levelo://app?vid=a084b6b2-1500-4098-9b79-15baacb33e8f"},"vehicle_type_id":"4","last_reported":1760861502,"current_range_meters":19200,"station_id":"ce4bh012rcd13ifvqcv0","pricing_plan_id":"cebpf4jnsgd1na2vs0mg"},{"bike_id":"6e8ed827-a6f7-46f1-ad28-2f0468b71691","system_id":"levelo_inurba_marseille","lat":43.3213,"lon":5.36875,"is_reserved":false,"is_disabled":true,"rental_uris":{"android":"levelo://app?vid=6e8ed827-a6f7-46f1-ad28-2f0468b71691","ios":"levelo://app?vid=6e8ed827-a6f7-46f1-ad28-2f0468b71691"},"vehicle_type_id":"4","last_reported":1760861502,"current_range_meters":19200,"station_id":"","pricing_plan_id":"cebpf4jnsgd1na2vs0mg"},{"bike_id":"e4e299d9-1b55-4ed1-bb9f-1e2a828fd41c","system_id":"levelo_inurba_marseille","lat":43.30153,"lon":5.380775,"is_reserved":false,"is_disabled":false,"rental_uris":{"android":"levelo://app?vid=e4e299d9-1b55-4ed1-bb9f-1e2a828fd41c","ios":"levelo://app?vid=e4e299d9-1b55-4ed1-bb9f-1e2a828fd41c"},"vehicle_type_id":"4","last_reported":1760861502,"current_range_meters":19200,"station_id":"ce4bgjp2rcd13ifvqbh0","pricing_plan_id":"cebpf4jnsgd1na2vs0mg"},{"bike_id":"c38d4779-18e1-43c4-a71d-5d81c3a33a62","system_id":"levelo_inurba_marseille","lat":43.29801,"lon":5.38118,"is_reserved":false,"is_disabled":true,"rental_uris":{"android":"levelo://app?vid=c38d4779-18e1-43c4-a71d-5d81c3a33a62","ios":"levelo://app?vid=c38d4779-18e1-43c4-a71d-5d81c3a33a62"},"vehicle_type_id":"4","last_reported":1760861502,"current_range_meters":19200,"station_id":"ce4bgip2rcd13ifvqbb0","pricing_plan_id":"cebpf4jnsgd1na2vs0mg"},{"bike_id":"4307a57d-bb94-41ab-9135-34ff655d42fc","system_id":"levelo_inurba_marseille","lat":43.28698,"lon":5.399861,"is_reserved":false,"is_disabled":false,"rental_uris":{"android":"levelo://app?vid=4307a57d-bb94-41ab-9135-34ff655d42fc","ios":"levelo://app?vid=4307a57d-bb94-41ab-9135-34ff655d42fc"},"vehicle_type_id":"4","last_reported":1760861502,"current_range_meters":19200,"station_id":"ce4bho92rcd13ifvqh3g","pricing_plan_id":"cebpf4jnsgd1na2vs0mg"},{"bike_id":"d06fb50d-c65b-432c-b433-e9f5248356cd","system_id":"levelo_inurba_marseille","lat":43.28999,"lon":5.3558,"is_reserved":false,"is_disabled":true,"rental_uris":{"android":"levelo://app?vid=d06fb50d-c65b-432c-b433-e9f5248356cd","ios":"levelo://app?vid=d06fb50d-c65b-432c-b433-e9f5248356cd"},"vehicle_type_id":"4","last_reported":1760861502,"current_range_meters":19200,"station_id":"ce4bhb92rcd13ifvqen0","pricing_plan_id":"cebpf4jnsgd1na2vs0mg"},{"bike_id":"faa3e668-6719-4125-8206-72a0a37494c0","system_id":"levelo_inurba_marseille","lat":43.269433,"lon":5.402595,"is_reserved":false,"is_disabled":true,"rental_uris":{"android":"levelo://app?vid=faa3e668-6719-4125-8206-72a0a37494c0","ios":"levelo://app?vid=faa3e668-6719-4125-8206-72a0a37494c0"},"vehicle_type_id":"4","last_reported":1760861502,"current_range_meters":19200,"station_id":"cjm6bp8fraef2m0cb0m0","pricing_plan_id":"cebpf4jnsgd1na2vs0mg"},{"bike_id":"5b87a245-ba0a-4145-84ed-54302e4f634d","system_id":"levelo_inurba_marseille","lat":43.28612,"lon":5.3705,"is_reserved":false,"is_disabled":false,"rental_uris":{"android":"levelo://app?vid=5b87a245-ba0a-4145-84ed-54302e4f634d","ios":"levelo://app?vid=5b87a245-ba0a-4145-84ed-54302e4f634d"},"vehicle_type_id":"4","last_reported":1760861502,"current_range_meters":19600,"station_id":"ce4bht12rcd13ifvqi60","pricing_plan_id":"cebpf4jnsgd1na2vs0mg"},{"bike_id":"7b337a6b-60f1-4325-85d3-02c30c39d179","system_id":"levelo_inurba_marseille","lat":43.29187,"lon":5.39317,"is_reserved":false,"is_disabled":false,"rental_uris":{"android":"levelo://app?vid=7b337a6b-60f1-4325-85d3-02c30c39d179","ios":"levelo://app?vid=7b337a6b-60f1-4325-85d3-02c30c39d179"},"vehicle_type_id":"4","last_reported":1760861502,"current_range_meters":19600,"station_id":"ce4bh192rcd13ifvqdd0","pricing_plan_id":"cebpf4jnsgd1na2vs0mg"},{"bike_id":"d6318f9e-0184-4ff6-931a-ee0c5a28c2b7","system_id":"levelo_inurba_marseille","lat":43.23197,"lon":5.3556,"is_reserved":false,"is_disabled":false,"rental_uris":{"android":"levelo://app?vid=d6318f9e-0184-4ff6-931a-ee0c5a28c2b7","ios":"levelo://app?vid=d6318f9e-0184-4ff6-931a-ee0c5a28c2b7"},"vehicle_type_id":"4","last_reported":1760861502,"current_range_meters":19600,"station_id":"ce4bhu92rcd13ifvqi70","pricing_plan_id":"cebpf4jnsgd1na2vs0mg"},{"bike_id":"8580f859-d8f4-44fb-9c0c-da0a57d43dea","system_id":"levelo_inurba_marseille","lat":43.303168,"lon":5.404518,"is_reserved":false,"is_disabled":false,"rental_uris":{"android":"levelo://app?vid=8580f859-d8f4-44fb-9c0c-da0a57d43dea","ios":"levelo://app?vid=8580f859-d8f4-44fb-9c0c-da0a57d43dea"},"vehicle_type_id":"4","last_reported":1760861502,"current_range_meters":19600,"station_id":"ce4bh012rcd13ifvqd10","pricing_plan_id":"cebpf4jnsgd1na2vs0mg"},{"bike_id":"f6bcfd0e-b247-4a30-9443-2755b83baa73","system_id":"levelo_inurba_marseille","lat":43.28145,"lon":5.42664,"is_reserved":false,"is_disabled":false,"rental_uris":{"android":"levelo://app?vid=f6bcfd0e-b247-4a30-9443-2755b83baa73","ios":"levelo://app?vid=f6bcfd0e-b247-4a30-9443-2755b83baa73"},"vehicle_type_id":"4","last_reported":1760861502,"current_range_meters":19600,"station_id":"ce4bhnh2rcd13ifvqgug","pricing_plan_id":"cebpf4jnsgd1na2vs0mg"},{"bike_id":"a6e1884f-76ca-449a-9150-7e1f37794b6c","system_id":"levelo_inurba_marseille","lat":43.28889,"lon":5.36405,"is_reserved":false,"is_disabled":true,"rental_uris":{"android":"levelo://app?vid=a6e1884f-76ca-449a-9150-7e1f37794b6c","ios":"levelo://app?vid=a6e1884f-76ca-449a-9150-7e1f37794b6c"},"vehicle_type_id":"4","last_reported":1760861502,"current_range_meters":19600,"station_id":"","pricing_plan_id":"cebpf4jnsgd1na2vs0mg"},{"bike_id":"54c19099-cba1-4c2b-ae28-bb4584b542f1","system_id":"levelo_inurba_marseille","lat":43.29232,"lon":5.3607,"is_reserved":false,"is_disabled":false,"rental_uris":{"android":"levelo://app?vid=54c19099-cba1-4c2b-ae28-bb4584b542f1","ios":"levelo://app?vid=54c19099-cba1-4c2b-ae28-bb4584b542f1"},"vehicle_type_id":"4","last_reported":1760861502,"current_range_meters":19600,"station_id":"ce4bhbh2rcd13ifvqeqg","pricing_plan_id":"cebpf4jnsgd1na2vs0mg"},{"bike_id":"78ed1f23-a0aa-47ea-b414-35a6bd3e9c11","system_id":"levelo_inurba_marseille","lat":43.238261,"lon":5.377733,"is_reserved":false,"is_disabled":false,"rental_uris":{"android":"levelo://app?vid=78ed1f23-a0aa-47ea-b414-35a6bd3e9c11","ios":"levelo://app?vid=78ed1f23-a0aa-47ea-b414-35a6bd3e9c11"},"vehicle_type_id":"4","last_reported":1760861502,"current_range_meters":19600,"station_id":"","pricing_plan_id":"cebpf4jnsgd1na2vs0mg"},{"bike_id":"81fee18c-da25-4715-ae44-9f4e3a7b4702","system_id":"levelo_inurba_marseille","lat":43.28405,"lon":5.3495,"is_reserved":false,"is_disabled":false,"rental_uris":{"android":"levelo://app?vid=81fee18c-da25-4715-ae44-9f4e3a7b4702","ios":"levelo://app?vid=81fee18c-da25-4715-ae44-9f4e3a7b4702"},"vehicle_type_id":"4","last_reported":1760861502,"current_range_meters":20000,"station_id":"","pricing_plan_id":"cebpf4jnsgd1na2vs0mg"},{"bike_id":"5aaf4735-cb3d-4d3c-b922-9654de2ca31c","system_id":"levelo_inurba_marseille","lat":43.28096,"lon":5.37845,"is_reserved":false,"is_disabled":false,"rental_uris":{"android":"levelo://app?vid=5aaf4735-cb3d-4d3c-b922-9654de2ca31c","ios":"levelo://app?vid=5aaf4735-cb3d-4d3c-b922-9654de2ca31c"},"vehicle_type_id":"4","last_reported":1760861502,"current_range_meters":20000,"station_id":"ce4bha12rcd13ifvqee0","pricing_plan_id":"cebpf4jnsgd1na2vs0mg"},{"bike_id":"490c187a-0098-44bd-9010-902ebf6f6ea9","system_id":"levelo_inurba_marseille","lat":43.28289,"lon":5.3508,"is_reserved":false,"is_disabled":true,"rental_uris":{"android":"levelo://app?vid=490c187a-0098-44bd-9010-902ebf6f6ea9","ios":"levelo://app?vid=490c187a-0098-44bd-9010-902ebf6f6ea9"},"vehicle_type_id":"4","last_reported":1760861502,"current_range_meters":20000,"station_id":"ce4bhbp2rcd13ifvqerg","pricing_plan_id":"cebpf4jnsgd1na2vs0mg"},{"bike_id":"16c6b20e-8897-40ab-b69d-f40016c13179","system_id":"levelo_inurba_marseille","lat":43.3112,"lon":5.37761,"is_reserved":false,"is_disabled":false,"rental_uris":{"android":"levelo://app?vid=16c6b20e-8897-40ab-b69d-f40016c13179","ios":"levelo://app?vid=16c6b20e-8897-40ab-b69d-f40016c13179"},"vehicle_type_id":"4","last_reported":1760861502,"current_range_meters":20000,"station_id":"ce4bgt92rcd13ifvqcg0","pricing_plan_id":"cebpf4jnsgd1na2vs0mg"},{"bike_id":"9ab002b7-e8ca-46a6-9453-d414abeb7060","system_id":"levelo_inurba_marseille","lat":43.31317,"lon":5.39723,"is_reserved":false,"is_disabled":false,"rental_uris":{"android":"levelo://app?vid=9ab002b7-e8ca-46a6-9453-d414abeb7060","ios":"levelo://app?vid=9ab002b7-e8ca-46a6-9453-d414abeb7060"},"vehicle_type_id":"4","last_reported":1760861502,"current_range_meters":20000,"station_id":"ce4bgvp2rcd13ifvqcu0","pricing_plan_id":"cebpf4jnsgd1na2vs0mg"},{"bike_id":"44def8bb-fc22-46bb-a308-b8e670ec5dfd","system_id":"levelo_inurba_marseille","lat":43.30131,"lon":5.37428,"is_reserved":false,"is_disabled":true,"rental_uris":{"android":"levelo://app?vid=44def8bb-fc22-46bb-a308-b8e670ec5dfd","ios":"levelo://app?vid=44def8bb-fc22-46bb-a308-b8e670ec5dfd"},"vehicle_type_id":"4","last_reported":1760861502,"current_range_meters":20000,"station_id":"ce4bgs92rcd13ifvqcc0","pricing_plan_id":"cebpf4jnsgd1na2vs0mg"},{"bike_id":"b6f6ba1e-5d04-4635-9340-0dad39863634","system_id":"levelo_inurba_marseille","lat":43.32341,"lon":5.36724,"is_reserved":false,"is_disabled":false,"rental_uris":{"android":"levelo://app?vid=b6f6ba1e-5d04-4635-9340-0dad39863634","ios":"levelo://app?vid=b6f6ba1e-5d04-4635-9340-0dad39863634"},"vehicle_type_id":"4","last_reported":1760861502,"current_range_meters":20000,"station_id":"ce4bhsh2rcd13ifvqi2g","pricing_plan_id":"cebpf4jnsgd1na2vs0mg"},{"bike_id":"e5089735-7dde-42b8-bd5e-fca739cfdcbf","system_id":"levelo_inurba_marseille","lat":43.32681,"lon":5.40983,"is_reserved":false,"is_disabled":false,"rental_uris":{"android":"levelo://app?vid=e5089735-7dde-42b8-bd5e-fca739cfdcbf","ios":"levelo://app?vid=e5089735-7dde-42b8-bd5e-fca739cfdcbf"},"vehicle_type_id":"4","last_reported":1760861502,"current_range_meters":20000,"station_id":"ce4bhpp2rcd13ifvqhgg","pricing_plan_id":"cebpf4jnsgd1na2vs0mg"},{"bike_id":"5320792b-a543-4680-9660-8f7be612a105","system_id":"levelo_inurba_marseille","lat":43.23781,"lon":5.36632,"is_reserved":false,"is_disabled":false,"rental_uris":{"android":"levelo://app?vid=5320792b-a543-4680-9660-8f7be612a105","ios":"levelo://app?vid=5320792b-a543-4680-9660-8f7be612a105"},"vehicle_type_id":"4","last_reported":1760861502,"current_range_meters":20000,"station_id":"st_d3nk18o9ro0c73en2l3g","pricing_plan_id":"cebpf4jnsgd1na2vs0mg"},{"bike_id":"b894c5d5-e9bd-4706-815c-16a0dd68d718","system_id":"levelo_inurba_marseille","lat":43.29529,"lon":5.37511,"is_reserved":false,"is_disabled":false,"rental_uris":{"android":"levelo://app?vid=b894c5d5-e9bd-4706-815c-16a0dd68d718","ios":"levelo://app?vid=b894c5d5-e9bd-4706-815c-16a0dd68d718"},"vehicle_type_id":"4","last_reported":1760861502,"current_range_meters":20400,"station_id":"ce4bgkp2rcd13ifvqbmg","pricing_plan_id":"cebpf4jnsgd1na2vs0mg"},{"bike_id":"06c84d1b-6e81-4ab2-ab43-e166647822bc","system_id":"levelo_inurba_marseille","lat":43.2893,"lon":5.36843,"is_reserved":false,"is_disabled":false,"rental_uris":{"android":"levelo://app?vid=06c84d1b-6e81-4ab2-ab43-e166647822bc","ios":"levelo://app?vid=06c84d1b-6e81-4ab2-ab43-e166647822bc"},"vehicle_type_id":"4","last_reported":1760861502,"current_range_meters":20400,"station_id":"","pricing_plan_id":"cebpf4jnsgd1na2vs0mg"},{"bike_id":"36e74dbc-824d-42dc-b04d-3e8bed84b913","system_id":"levelo_inurba_marseille","lat":43.3015,"lon":5.38091,"is_reserved":false,"is_disabled":false,"rental_uris":{"android":"levelo://app?vid=36e74dbc-824d-42dc-b04d-3e8bed84b913","ios":"levelo://app?vid=36e74dbc-824d-42dc-b04d-3e8bed84b913"},"vehicle_type_id":"4","last_reported":1760861502,"current_range_meters":20400,"station_id":"ce4bgjp2rcd13ifvqbh0","pricing_plan_id":"cebpf4jnsgd1na2vs0mg"},{"bike_id":"5645f280-6685-434c-ba8a-063d786f43b4","system_id":"levelo_inurba_marseille","lat":43.3118,"lon":5.38695,"is_reserved":false,"is_disabled":false,"rental_uris":{"android":"levelo://app?vid=5645f280-6685-434c-ba8a-063d786f43b4","ios":"levelo://app?vid=5645f280-6685-434c-ba8a-063d786f43b4"},"vehicle_type_id":"4","last_reported":1760861502,"current_range_meters":20400,"station_id":"ce4bgv12rcd13ifvqcp0","pricing_plan_id":"cebpf4jnsgd1na2vs0mg"},{"bike_id":"239fc625-c459-40bf-b021-41dbfe58f972","system_id":"levelo_inurba_marseille","lat":43.25334,"lon":5.42179,"is_reserved":false,"is_disabled":false,"rental_uris":{"android":"levelo://app?vid=239fc625-c459-40bf-b021-41dbfe58f972","ios":"levelo://app?vid=239fc625-c459-40bf-b021-41dbfe58f972"},"vehicle_type_id":"4","last_reported":1760861502,"current_range_meters":20400,"station_id":"st_d2m65c5bi1j21697t3ng","pricing_plan_id":"cebpf4jnsgd1na2vs0mg"},{"bike_id":"8758806c-a775-4e20-b8bd-1fb9bd76f1c5","system_id":"levelo_inurba_marseille","lat":43.296666,"lon":5.387036,"is_reserved":false,"is_disabled":false,"rental_uris":{"android":"levelo://app?vid=8758806c-a775-4e20-b8bd-1fb9bd76f1c5","ios":"levelo://app?vid=8758806c-a775-4e20-b8bd-1fb9bd76f1c5"},"vehicle_type_id":"4","last_reported":1760861502,"current_range_meters":20400,"station_id":"","pricing_plan_id":"cebpf4jnsgd1na2vs0mg"},{"bike_id":"8694199a-8f1e-419c-b1d7-408286138698","system_id":"levelo_inurba_marseille","lat":43.24418,"lon":5.37093,"is_reserved":false,"is_disabled":false,"rental_uris":{"android":"levelo://app?vid=8694199a-8f1e-419c-b1d7-408286138698","ios":"levelo://app?vid=8694199a-8f1e-419c-b1d7-408286138698"},"vehicle_type_id":"4","last_reported":1760861502,"current_range_meters":20400,"station_id":"ce4bhhh2rcd13ifvqfk0","pricing_plan_id":"cebpf4jnsgd1na2vs0mg"},{"bike_id":"ac9e0450-c7cd-408b-9730-e6cdacee0a4d","system_id":"levelo_inurba_marseille","lat":43.25143,"lon":5.40328,"is_reserved":false,"is_disabled":false,"rental_uris":{"android":"levelo://app?vid=ac9e0450-c7cd-408b-9730-e6cdacee0a4d","ios":"levelo://app?vid=ac9e0450-c7cd-408b-9730-e6cdacee0a4d"},"vehicle_type_id":"4","last_reported":1760861502,"current_range_meters":20800,"station_id":"ce4bhlh2rcd13ifvqgig","pricing_plan_id":"cebpf4jnsgd1na2vs0mg"},{"bike_id":"d1c1bb6b-69fa-4810-8781-073e6ddc2956","system_id":"levelo_inurba_marseille","lat":43.29252,"lon":5.40172,"is_reserved":false,"is_disabled":false,"rental_uris":{"android":"levelo://app?vid=d1c1bb6b-69fa-4810-8781-073e6ddc2956","ios":"levelo://app?vid=d1c1bb6b-69fa-4810-8781-073e6ddc2956"},"vehicle_type_id":"4","last_reported":1760861502,"current_range_meters":20800,"station_id":"ce4bh312rcd13ifvqdk0","pricing_plan_id":"cebpf4jnsgd1na2vs0mg"},{"bike_id":"82602cf4-24f0-4e65-81f2-7b58a2443cd2","system_id":"levelo_inurba_marseille","lat":43.28782,"lon":5.36629,"is_reserved":false,"is_disabled":false,"rental_uris":{"android":"levelo://app?vid=82602cf4-24f0-4e65-81f2-7b58a2443cd2","ios":"levelo://app?vid=82602cf4-24f0-4e65-81f2-7b58a2443cd2"},"vehicle_type_id":"4","last_reported":1760861502,"current_range_meters":20800,"station_id":"","pricing_plan_id":"cebpf4jnsgd1na2vs0mg"},{"bike_id":"25d08ad0-0b62-4f36-9359-2f67deecc13f","system_id":"levelo_inurba_marseille","lat":43.28367,"lon":5.38631,"is_reserved":false,"is_disabled":true,"rental_uris":{"android":"levelo://app?vid=25d08ad0-0b62-4f36-9359-2f67deecc13f","ios":"levelo://app?vid=25d08ad0-0b62-4f36-9359-2f67deecc13f"},"vehicle_type_id":"4","last_reported":1760861502,"current_range_meters":20800,"station_id":"ce4bh492rcd13ifvqdvg","pricing_plan_id":"cebpf4jnsgd1na2vs0mg"},{"bike_id":"e1f879d9-a39f-4654-a4e3-2912f8dd27de","system_id":"levelo_inurba_marseille","lat":43.28435,"lon":5.35006,"is_reserved":false,"is_disabled":true,"rental_uris":{"android":"levelo://app?vid=e1f879d9-a39f-4654-a4e3-2912f8dd27de","ios":"levelo://app?vid=e1f879d9-a39f-4654-a4e3-2912f8dd27de"},"vehicle_type_id":"4","last_reported":1760861502,"current_range_meters":20800,"station_id":"ce4bhbh2rcd13ifvqepg","pricing_plan_id":"cebpf4jnsgd1na2vs0mg"},{"bike_id":"9953bb32-6d68-488a-9e42-24a31e2ab81f","system_id":"levelo_inurba_marseille","lat":43.31525,"lon":5.38034,"is_reserved":false,"is_disabled":false,"rental_uris":{"android":"levelo://app?vid=9953bb32-6d68-488a-9e42-24a31e2ab81f","ios":"levelo://app?vid=9953bb32-6d68-488a-9e42-24a31e2ab81f"},"vehicle_type_id":"4","last_reported":1760861502,"current_range_meters":20800,"station_id":"ce4bhsp2rcd13ifvqi50","pricing_plan_id":"cebpf4jnsgd1na2vs0mg"},{"bike_id":"7998a4e0-5f04-4077-8f8f-9b1221ad34b9","system_id":"levelo_inurba_marseille","lat":43.27947,"lon":5.41049,"is_reserved":false,"is_disabled":false,"rental_uris":{"android":"levelo://app?vid=7998a4e0-5f04-4077-8f8f-9b1221ad34b9","ios":"levelo://app?vid=7998a4e0-5f04-4077-8f8f-9b1221ad34b9"},"vehicle_type_id":"4","last_reported":1760861502,"current_range_meters":20800,"station_id":"ce4bhnp2rcd13ifvqh0g","pricing_plan_id":"cebpf4jnsgd1na2vs0mg"},{"bike_id":"12759272-9ae9-4531-88bf-492c68a538d1","system_id":"levelo_inurba_marseille","lat":43.3055,"lon":5.38449,"is_reserved":false,"is_disabled":true,"rental_uris":{"android":"levelo://app?vid=12759272-9ae9-4531-88bf-492c68a538d1","ios":"levelo://app?vid=12759272-9ae9-4531-88bf-492c68a538d1"},"vehicle_type_id":"4","last_reported":1760861502,"current_range_meters":20800,"station_id":"ce4bgg92rcd13ifvqb30","pricing_plan_id":"cebpf4jnsgd1na2vs0mg"},{"bike_id":"97ad8efb-80ee-4b8e-ad7e-fc14608273c0","system_id":"levelo_inurba_marseille","lat":43.29097,"lon":5.38127,"is_reserved":false,"is_disabled":false,"rental_uris":{"android":"levelo://app?vid=97ad8efb-80ee-4b8e-ad7e-fc14608273c0","ios":"levelo://app?vid=97ad8efb-80ee-4b8e-ad7e-fc14608273c0"},"vehicle_type_id":"4","last_reported":1760861502,"current_range_meters":20800,"station_id":"ce4bh512rcd13ifvqe2g","pricing_plan_id":"cebpf4jnsgd1na2vs0mg"},{"bike_id":"9e2850b0-5868-4dd1-98fb-797732624545","system_id":"levelo_inurba_marseille","lat":43.26886,"lon":5.38482,"is_reserved":false,"is_disabled":false,"rental_uris":{"android":"levelo://app?vid=9e2850b0-5868-4dd1-98fb-797732624545","ios":"levelo://app?vid=9e2850b0-5868-4dd1-98fb-797732624545"},"vehicle_type_id":"4","last_reported":1760861502,"current_range_meters":20800,"station_id":"ce4bhh92rcd13ifvqfh0","pricing_plan_id":"cebpf4jnsgd1na2vs0mg"},{"bike_id":"f6c479a4-d7bc-4dd1-ba09-7696a91b7983","system_id":"levelo_inurba_marseille","lat":43.3052,"lon":5.36715,"is_reserved":false,"is_disabled":false,"rental_uris":{"android":"levelo://app?vid=f6c479a4-d7bc-4dd1-ba09-7696a91b7983","ios":"levelo://app?vid=f6c479a4-d7bc-4dd1-ba09-7696a91b7983"},"vehicle_type_id":"4","last_reported":1760861502,"current_range_meters":20800,"station_id":"ce4bgrp2rcd13ifvqc9g","pricing_plan_id":"cebpf4jnsgd1na2vs0mg"},{"bike_id":"50256437-f563-4e18-83ab-119789c51b86","system_id":"levelo_inurba_marseille","lat":43.31656,"lon":5.37615,"is_reserved":false,"is_disabled":false,"rental_uris":{"android":"levelo://app?vid=50256437-f563-4e18-83ab-119789c51b86","ios":"levelo://app?vid=50256437-f563-4e18-83ab-119789c51b86"},"vehicle_type_id":"4","last_reported":1760861502,"current_range_meters":21600,"station_id":"","pricing_plan_id":"cebpf4jnsgd1na2vs0mg"},{"bike_id":"b6ccfc35-ade9-4d11-9f6c-814fb0d3e0af","system_id":"levelo_inurba_marseille","lat":43.23149,"lon":5.43725,"is_reserved":false,"is_disabled":false,"rental_uris":{"android":"levelo://app?vid=b6ccfc35-ade9-4d11-9f6c-814fb0d3e0af","ios":"levelo://app?vid=b6ccfc35-ade9-4d11-9f6c-814fb0d3e0af"},"vehicle_type_id":"4","last_reported":1760861502,"current_range_meters":21600,"station_id":"ce4bhmp2rcd13ifvqgog","pricing_plan_id":"cebpf4jnsgd1na2vs0mg"},{"bike_id":"85b03626-3093-437e-b401-4ed550236304","system_id":"levelo_inurba_marseille","lat":43.2945,"lon":5.38669,"is_reserved":false,"is_disabled":false,"rental_uris":{"android":"levelo://app?vid=85b03626-3093-437e-b401-4ed550236304","ios":"levelo://app?vid=85b03626-3093-437e-b401-4ed550236304"},"vehicle_type_id":"4","last_reported":1760861502,"current_range_meters":21600,"station_id":"","pricing_plan_id":"cebpf4jnsgd1na2vs0mg"},{"bike_id":"fa4da7d0-9f39-4083-9ce5-f84443fcf4b0","system_id":"levelo_inurba_marseille","lat":43.288674,"lon":5.425134,"is_reserved":false,"is_disabled":false,"rental_uris":{"android":"levelo://app?vid=fa4da7d0-9f39-4083-9ce5-f84443fcf4b0","ios":"levelo://app?vid=fa4da7d0-9f39-4083-9ce5-f84443fcf4b0"},"vehicle_type_id":"4","last_reported":1760861502,"current_range_meters":21600,"station_id":"st_d3b462108ojc7389ooeg","pricing_plan_id":"cebpf4jnsgd1na2vs0mg"},{"bike_id":"a7ba6a6a-8dda-4e76-8a63-3f1cbbb0d6aa","system_id":"levelo_inurba_marseille","lat":43.34133,"lon":5.40907,"is_reserved":false,"is_disabled":false,"rental_uris":{"android":"levelo://app?vid=a7ba6a6a-8dda-4e76-8a63-3f1cbbb0d6aa","ios":"levelo://app?vid=a7ba6a6a-8dda-4e76-8a63-3f1cbbb0d6aa"},"vehicle_type_id":"4","last_reported":1760861502,"current_range_meters":21600,"station_id":"ce4bhqh2rcd13ifvqhlg","pricing_plan_id":"cebpf4jnsgd1na2vs0mg"},