{"last_updated":1717337168,"ttl":30,"version":"2.2","data":{"bikes":[{"bike_id":"5821ac15-cdf7-42be-8113-b1ccff2b5756","system_id":"levelo_inurba_marseille","lat":43.31341,"lon":5.367098,"is_reserved":false,"is_disabled":false,"rental_uris":{"android":"levelo://app?vid=5821ac15-cdf7-42be-8113-b1ccff2b5756","ios":"levelo://app?vid=5821ac15-cdf7-42be-8113-b1ccff2b5756"},"vehicle_type_id":"4","last_reported":1717337168,"current_range_meters":24400,"station_id":"ce4bgr92rcd13ifvqc6g","pricing_plan_id":"cebpf4jnsgd1na2vs0mg"},{"bike_id":"c91b8518-78ce-45af-86b4-0746a3ff67c6","system_id":"levelo_inurba_marseille","lat":43.313391,"lon":5.36706,"is_reserved":false,"is_disabled":false,"rental_uris":{"android":"levelo://app?vid=c91b8518-78ce-45af-86b4-0746a3ff67c6","ios":"levelo://app?vid=c91b8518-78ce-45af-86b4-0746a3ff67c6"},"vehicle_type_id":"4","last_reported":1717337168,"current_range_meters":8000,"station_id":"ce4bgr92rcd13ifvqc6g","pricing_plan_id":"cebpf4jnsgd1na2vs0mg"},{"bike_id":"93cb9a9b-adf1-4bcf-859d-072610dbc021","system_id":"levelo_inurba_marseille","lat":43.312239,"lon":5.368562,"is_reserved":false,"is_disabled":false,"rental_uris":{"android":"levelo://app?vid=93cb9a9b-adf1-4bcf-859d-072610dbc021","ios":"levelo://app?vid=93cb9a9b-adf1-4bcf-859d-072610dbc021"},"vehicle_type_id":"4","last_reported":1717337168,"current_range_meters":12800,"station_id":"ce4bgl92rcd13ifvqbq0","pricing_plan_id":"cebpf4jnsgd1na2vs0mg"},{"bike_id":"f6bacb4b-961b-4c65-8519-140b6188de16","system_id":"levelo_inurba_marseille","lat":43.314811,"lon":5.373104,"is_reserved":false,"is_disabled":false,"rental_uris":{"android":"levelo://app?vid=f6bacb4b-961b-4c65-8519-140b6188de16","ios":"levelo://app?vid=f6bacb4b-961b-4c65-8519-140b6188de16"},"vehicle_type_id":"4","last_reported":1717337168,"current_range_meters":26800,"station_id":"ce4bgt12rcd13ifvqcd0","pricing_plan_id":"cebpf4jnsgd1na2vs0mg"},{"bike_id":"2c4d5410-701a-4504-8f3e-1f79f3cde677","system_id":"levelo_inurba_marseille","lat":43.309034,"lon":5.371783,"is_reserved":false,"is_disabled":false,"rental_uris":{"android":"levelo://app?vid=2c4d5410-701a-4504-8f3e-1f79f3cde677","ios":"levelo://app?vid=2c4d5410-701a-4504-8f3e-1f79f3cde677"},"vehicle_type_id":"4","last_reported":1717337168,"current_range_meters":28000,"station_id":"ce4bguh2rcd13ifvqckg","pricing_plan_id":"cebpf4jnsgd1na2vs0mg"},{"bike_id":"f3442c31-cc6e-4fb7-b566-c26961160a29","system_id":"levelo_inurba_marseille","lat":43.314811,"lon":5.373103,"is_reserved":false,"is_disabled":false,"rental_uris":{"android":"levelo://app?vid=f3442c31-cc6e-4fb7-b566-c26961160a29","ios":"levelo://app?vid=f3442c31-cc6e-4fb7-b566-c26961160a29"},"vehicle_type_id":"4","last_reported":1717337168,"current_range_meters":12000,"station_id":"ce4bgt12rcd13ifvqcd0","pricing_plan_id":"cebpf4jnsgd1na2vs0mg"},{"bike_id":"83f05e27-5868-4c28-8d3d-7a621f178673","system_id":"levelo_inurba_marseille","lat":43.305368,"lon":5.367343,"is_reserved":false,"is_disabled":false,"rental_uris":{"android":"levelo://app?vid=83f05e27-5868-4c28-8d3d-7a621f178673","ios":"levelo://app?vid=83f05e27-5868-4c28-8d3d-7a621f178673"},"vehicle_type_id":"4","last_reported":1717337168,"current_range_meters":0,"station_id":"ce4bgrp2rcd13ifvqc9g","pricing_plan_id":"cebpf4jnsgd1na2vs0mg"},{"bike_id":"887d5444-7ecd-4b7f-9076-c7bf5abc9454","system_id":"levelo_inurba_marseille","lat":43.305714,"lon":5.365633,"is_reserved":false,"is_disabled":false,"rental_uris":{"android":"levelo://app?vid=887d5444-7ecd-4b7f-9076-c7bf5abc9454","ios":"levelo://app?vid=887d5444-7ecd-4b7f-9076-c7bf5abc9454"},"vehicle_type_id":"4","last_reported":1717337168,"current_range_meters":26800,"station_id":"ce4bgs12rcd13ifvqcag","pricing_plan_id":"cebpf4jnsgd1na2vs0mg"},{"bike_id":"603ac6e2-c513-4a26-bd78-de06845038a3","system_id":"levelo_inurba_marseille","lat":43.305706,"lon":5.365654,"is_reserved":false,"is_disabled":false,"rental_uris":{"android":"levelo://app?vid=603ac6e2-c513-4a26-bd78-de06845038a3","ios":"levelo://app?vid=603ac6e2-c513-4a26-bd78-de06845038a3"},"vehicle_type_id":"4","last_reported":1717337168,"current_range_meters":30400,"station_id":"ce4bgs12rcd13ifvqcag","pricing_plan_id":"cebpf4jnsgd1na2vs0mg"},{"bike_id":"0ae2607b-c951-43f9-a7fd-9a0ff48af997","system_id":"levelo_inurba_marseille","lat":43.311131,"lon":5.377651,"is_reserved":false,"is_disabled":false,"rental_uris":{"android":"levelo://app?vid=0ae2607b-c951-43f9-a7fd-9a0ff48af997","ios":"levelo://app?vid=0ae2607b-c951-43f9-a7fd-9a0ff48af997"},"vehicle_type_id":"4","last_reported":1717337168,"current_range_meters":400,"station_id":"ce4bgt92rcd13ifvqcg0","pricing_plan_id":"cebpf4jnsgd1na2vs0mg"},{"bike_id":"51c86222-4e41-4df6-9753-411195fdf084","system_id":"levelo_inurba_marseille","lat":43.311125,"lon":5.377624,"is_reserved":false,"is_disabled":false,"rental_uris":{"android":"levelo://app?vid=51c86222-4e41-4df6-9753-411195fdf084","ios":"levelo://app?vid=51c86222-4e41-4df6-9753-411195fdf084"},"vehicle_type_id":"4","last_reported":1717337168,"current_range_meters":10000,"station_id":"ce4bgt92rcd13ifvqcg0","pricing_plan_id":"cebpf4jnsgd1na2vs0mg"},{"bike_id":"c86f9e8d-a034-4b59-afd5-c3705c753981","system_id":"levelo_inurba_marseille","lat":43.317075,"lon":5.377367,"is_reserved":false,"is_disabled":false,"rental_uris":{"android":"levelo://app?vid=c86f9e8d-a034-4b59-afd5-c3705c753981","ios":"levelo://app?vid=c86f9e8d-a034-4b59-afd5-c3705c753981"},"vehicle_type_id":"4","last_reported":1717337168,"current_range_meters":14000,"station_id":"ce4bgth2rcd13ifvqch0","pricing_plan_id":"cebpf4jnsgd1na2vs0mg"},{"bike_id":"701a9ec3-2f7e-4751-b26c-51c6543fc6c8","system_id":"levelo_inurba_marseille","lat":43.315293,"lon":5.380349,"is_reserved":false,"is_disabled":false,"rental_uris":{"android":"levelo://app?vid=701a9ec3-2f7e-4751-b26c-51c6543fc6c8","ios":"levelo://app?vid=701a9ec3-2f7e-4751-b26c-51c6543fc6c8"},"vehicle_type_id":"4","last_reported":1717337168,"current_range_meters":21600,"station_id":"ce4bhsp2rcd13ifvqi50","pricing_plan_id":"cebpf4jnsgd1na2vs0mg"},{"bike_id":"1d1ace44-2e8f-42cf-9f06-228a95cd915a","system_id":"levelo_inurba_marseille","lat":43.315293,"lon":5.380349,"is_reserved":false,"is_disabled":false,"rental_uris":{"android":"levelo://app?vid=1d1ace44-2e8f-42cf-9f06-228a95cd915a","ios":"levelo://app?vid=1d1ace44-2e8f-42cf-9f06-228a95cd915a"},"vehicle_type_id":"4","last_reported":1717337168,"current_range_meters":21600,"station_id":"ce4bhsp2rcd13ifvqi50","pricing_plan_id":"cebpf4jnsgd1na2vs0mg"},{"bike_id":"61ce56f3-8c27-423d-bbf1-b00ccc6cf763","system_id":"levelo_inurba_marseille","lat":43.315293,"lon":5.380349,"is_reserved":false,"is_disabled":false,"rental_uris":{"android":"levelo://app?vid=61ce56f3-8c27-423d-bbf1-b00ccc6cf763","ios":"levelo://app?vid=61ce56f3-8c27-423d-bbf1-b00ccc6cf763"},"vehicle_type_id":"4","last_reported":1717337168,"current_range_meters":800,"station_id":"ce4bhsp2rcd13ifvqi50","pricing_plan_id":"cebpf4jnsgd1na2vs0mg"},{"bike_id":"ff754aa6-c72d-45a1-91df-4da06622211e","system_id":"levelo_inurba_marseille","lat":43.308012,"lon":5.381511,"is_reserved":false,"is_disabled":false,"rental_uris":{"android":"levelo://app?vid=ff754aa6-c72d-45a1-91df-4da06622211e","ios":"levelo://app?vid=ff754aa6-c72d-45a1-91df-4da06622211e"},"vehicle_type_id":"4","last_reported":1717337168,"current_range_meters":2800,"station_id":"ce4bgt12rcd13ifvqce0","pricing_plan_id":"cebpf4jnsgd1na2vs0mg"},{"bike_id":"f7c4e06f-48df-4e47-a3a2-b85729ad3bd3","system_id":"levelo_inurba_marseille","lat":43.304606,"lon":5.379026,"is_reserved":false,"is_disabled":false,"rental_uris":{"android":"levelo://app?vid=f7c4e06f-48df-4e47-a3a2-b85729ad3bd3","ios":"levelo://app?vid=f7c4e06f-48df-4e47-a3a2-b85729ad3bd3"},"vehicle_type_id":"4","last_reported":1717337168,"current_range_meters":26400,"station_id":"ce4bgup2rcd13ifvqcn0","pricing_plan_id":"cebpf4jnsgd1na2vs0mg"},{"bike_id":"42c7a295-36d5-4ecb-a515-edff7e61f781","system_id":"levelo_inurba_marseille","lat":43.324771,"lon":5.36557,"is_reserved":false,"is_disabled":false,"rental_uris":{"android":"levelo://app?vid=42c7a295-36d5-4ecb-a515-edff7e61f781","ios":"levelo://app?vid=42c7a295-36d5-4ecb-a515-edff7e61f781"},"vehicle_type_id":"4","last_reported":1717337168,"current_range_meters":24800,"station_id":"ce4bhs12rcd13ifvqhvg","pricing_plan_id":"cebpf4jnsgd1na2vs0mg"},{"bike_id":"8cbc0fc6-918d-4c69-8fdd-df42854ea7e1","system_id":"levelo_inurba_marseille","lat":43.32479,"lon":5.36562,"is_reserved":false,"is_disabled":false,"rental_uris":{"android":"levelo://app?vid=8cbc0fc6-918d-4c69-8fdd-df42854ea7e1","ios":"levelo://app?vid=8cbc0fc6-918d-4c69-8fdd-df42854ea7e1"},"vehicle_type_id":"4","last_reported":1717337168,"current_range_meters":16400,"station_id":"ce4bhs12rcd13ifvqhvg","pricing_plan_id":"cebpf4jnsgd1na2vs0mg"},{"bike_id":"958441d0-bc92-4f8a-9628-058621f75548","system_id":"levelo_inurba_marseille","lat":43.304606,"lon":5.379026,"is_reserved":false,"is_disabled":false,"rental_uris":{"android":"levelo://app?vid=958441d0-bc92-4f8a-9628-058621f75548","ios":"levelo://app?vid=958441d0-bc92-4f8a-9628-058621f75548"},"vehicle_type_id":"4","last_reported":1717337168,"current_range_meters":0,"station_id":"ce4bgup2rcd13ifvqcn0","pricing_plan_id":"cebpf4jnsgd1na2vs0mg"},{"bike_id":"6b38e5ec-0823-4a11-b2ee-a5ca54fd0ebc","system_id":"levelo_inurba_marseille","lat":43.32482,"lon":5.36564,"is_reserved":false,"is_disabled":false,"rental_uris":{"android":"levelo://app?vid=6b38e5ec-0823-4a11-b2ee-a5ca54fd0ebc","ios":"levelo://app?vid=6b38e5ec-0823-4a11-b2ee-a5ca54fd0ebc"},"vehicle_type_id":"4","last_reported":1717337168,"current_range_meters":18800,"station_id":"ce4bhs12rcd13ifvqhvg","pricing_plan_id":"cebpf4jnsgd1na2vs0mg"},{"bike_id":"801f355f-f800-4b1e-bb6c-d1fe46e1a5b0","system_id":"levelo_inurba_marseille","lat":43.324771,"lon":5.36557,"is_reserved":false,"is_disabled":false,"rental_uris":{"android":"levelo://app?vid=801f355f-f800-4b1e-bb6c-d1fe46e1a5b0","ios":"levelo://app?vid=801f355f-f800-4b1e-bb6c-d1fe46e1a5b0"},"vehicle_type_id":"4","last_reported":1717337168,"current_range_meters":22000,"station_id":"ce4bhs12rcd13ifvqhvg","pricing_plan_id":"cebpf4jnsgd1na2vs0mg"},{"bike_id":"64ec3637-4ea2-4e44-9b1e-112fe7054b9d","system_id":"levelo_inurba_marseille","lat":43.324771,"lon":5.36557,"is_reserved":false,"is_disabled":false,"rental_uris":{"android":"levelo://app?vid=64ec3637-4ea2-4e44-9b1e-112fe7054b9d","ios":"levelo://app?vid=64ec3637-4ea2-4e44-9b1e-112fe7054b9d"},"vehicle_type_id":"4","last_reported":1717337168,"current_range_meters":1200,"station_id":"ce4bhs12rcd13ifvqhvg","pricing_plan_id":"cebpf4jnsgd1na2vs0mg"},{"bike_id":"760a3dff-4fd3-478b-bcb8-a8df2ebdcda7","system_id":"levelo_inurba_marseille","lat":43.32487,"lon":5.36573,"is_reserved":false,"is_disabled":false,"rental_uris":{"android":"levelo://app?vid=760a3dff-4fd3-478b-bcb8-a8df2ebdcda7","ios":"levelo://app?vid=760a3dff-4fd3-478b-bcb8-a8df2ebdcda7"},"vehicle_type_id":"4","last_reported":1717337168,"current_range_meters":17200,"station_id":"ce4bhs12rcd13ifvqhvg","pricing_plan_id":"cebpf4jnsgd1na2vs0mg"},{"bike_id":"44bfd3c9-0902-49aa-b11e-8b335427e96c","system_id":"levelo_inurba_marseille","lat":43.310804,"lon":5.38359,"is_reserved":false,"is_disabled":false,"rental_uris":{"android":"levelo://app?vid=44bfd3c9-0902-49aa-b11e-8b335427e96c","ios":"levelo://app?vid=44bfd3c9-0902-49aa-b11e-8b335427e96c"},"vehicle_type_id":"4","last_reported":1717337168,"current_range_meters":0,"station_id":"ce4bgv92rcd13ifvqcr0","pricing_plan_id":"cebpf4jnsgd1na2vs0mg"},{"bike_id":"e45777db-9c3b-4f82-96ee-a09b0bb0b35a","system_id":"levelo_inurba_marseille","lat":43.302784,"lon":5.377158,"is_reserved":false,"is_disabled":false,"rental_uris":{"android":"levelo://app?vid=e45777db-9c3b-4f82-96ee-a09b0bb0b35a","ios":"levelo://app?vid=e45777db-9c3b-4f82-96ee-a09b0bb0b35a"},"vehicle_type_id":"4","last_reported":1717337168,"current_range_meters":20800,"station_id":"ce4bguh2rcd13ifvqcj0","pricing_plan_id":"cebpf4jnsgd1na2vs0mg"},{"bike_id":"a1b324c3-4672-4178-8f46-8f15d360dea8","system_id":"levelo_inurba_marseille","lat":43.30324,"lon":5.379236,"is_reserved":false,"is_disabled":false,"rental_uris":{"android":"levelo://app?vid=a1b324c3-4672-4178-8f46-8f15d360dea8","ios":"levelo://app?vid=a1b324c3-4672-4178-8f46-8f15d360dea8"},"vehicle_type_id":"4","last_reported":1717337168,"current_range_meters":16800,"station_id":"","pricing_plan_id":"cebpf4jnsgd1na2vs0mg"},{"bike_id":"7c0279c4-785e-41cc-9875-11b1aa5697b0","system_id":"levelo_inurba_marseille","lat":43.298433,"lon":5.362774,"is_reserved":false,"is_disabled":false,"rental_uris":{"android":"levelo://app?vid=7c0279c4-785e-41cc-9875-11b1aa5697b0","ios":"levelo://app?vid=7c0279c4-785e-41cc-9875-11b1aa5697b0"},"vehicle_type_id":"4","last_reported":1717337168,"current_range_meters":30000,"station_id":"ce4bgpp2rcd13ifvqc3g","pricing_plan_id":"cebpf4jnsgd1na2vs0mg"},{"bike_id":"8f3a3a8a-fb14-4717-931f-4856e872cb58","system_id":"levelo_inurba_marseille","lat":43.311722,"lon":5.387247,"is_reserved":false,"is_disabled":false,"rental_uris":{"android":"levelo://app?vid=8f3a3a8a-fb14-4717-931f-4856e872cb58","ios":"levelo://app?vid=8f3a3a8a-fb14-4717-931f-4856e872cb58"},"vehicle_type_id":"4","last_reported":1717337168,"current_range_meters":14000,"station_id":"ce4bgv12rcd13ifvqcp0","pricing_plan_id":"cebpf4jnsgd1na2vs0mg"},{"bike_id":"83778589-7633-4352-b718-9e7c46bc020a","system_id":"levelo_inurba_marseille","lat":43.311722,"lon":5.387247,"is_reserved":false,"is_disabled":false,"rental_uris":{"android":"levelo://app?vid=83778589-7633-4352-b718-9e7c46bc020a","ios":"levelo://app?vid=83778589-7633-4352-b718-9e7c46bc020a"},"vehicle_type_id":"4","last_reported":1717337168,"current_range_meters":15200,"station_id":"ce4bgv12rcd13ifvqcp0","pricing_plan_id":"cebpf4jnsgd1na2vs0mg"},{"bike_id":"3a306032-4bd9-4a84-a5d9-4c610bf64500","system_id":"levelo_inurba_marseille","lat":43.299243,"lon":5.374807,"is_reserved":false,"is_disabled":false,"rental_uris":{"android":"levelo://app?vid=3a306032-4bd9-4a84-a5d9-4c610bf64500","ios":"levelo://app?vid=3a306032-4bd9-4a84-a5d9-4c610bf64500"},"vehicle_type_id":"4","last_reported":1717337168,"current_range_meters":18400,"station_id":"ce4bgjh2rcd13ifvqbg0","pricing_plan_id":"cebpf4jnsgd1na2vs0mg"},{"bike_id":"72f163b3-88a9-43aa-9898-85e4b5589800","system_id":"levelo_inurba_marseille","lat":43.301478,"lon":5.380746,"is_reserved":false,"is_disabled":false,"rental_uris":{"android":"levelo://app?vid=72f163b3-88a9-43aa-9898-85e4b5589800","ios":"levelo://app?vid=72f163b3-88a9-43aa-9898-85e4b5589800"},"vehicle_type_id":"4","last_reported":1717337168,"current_range_meters":6400,"station_id":"","pricing_plan_id":"cebpf4jnsgd1na2vs0mg"},{"bike_id":"10fb4334-c940-4455-979b-d3f1ca32e262","system_id":"levelo_inurba_marseille","lat":43.297774,"lon":5.370875,"is_reserved":false,"is_disabled":false,"rental_uris":{"android":"levelo://app?vid=10fb4334-c940-4455-979b-d3f1ca32e262","ios":"levelo://app?vid=10fb4334-c940-4455-979b-d3f1ca32e262"},"vehicle_type_id":"4","last_reported":1717337168,"current_range_meters":29200,"station_id":"ce4bgop2rcd13ifvqc1g","pricing_plan_id":"cebpf4jnsgd1na2vs0mg"},{"bike_id":"7e00f39b-868f-4ad2-a9df-83f41c910f4b","system_id":"levelo_inurba_marseille","lat":43.2968,"lon":5.37291,"is_reserved":false,"is_disabled":false,"rental_uris":{"android":"levelo://app?vid=7e00f39b-868f-4ad2-a9df-83f41c910f4b","ios":"levelo://app?vid=7e00f39b-868f-4ad2-a9df-83f41c910f4b"},"vehicle_type_id":"4","last_reported":1717337168,"current_range_meters":9200,"station_id":"ce4bgk12rcd13ifvqbj0","pricing_plan_id":"cebpf4jnsgd1na2vs0mg"},{"bike_id":"6a8e3c25-05b4-4171-be3a-ed56bc3d43c1","system_id":"levelo_inurba_marseille","lat":43.2968,"lon":5.37291,"is_reserved":false,"is_disabled":false,"rental_uris":{"android":"levelo://app?vid=6a8e3c25-05b4-4171-be3a-ed56bc3d43c1","ios":"levelo://app?vid=6a8e3c25-05b4-4171-be3a-ed56bc3d43c1"},"vehicle_type_id":"4","last_reported":1717337168,"current_range_meters":23600,"station_id":"ce4bgk12rcd13ifvqbj0","pricing_plan_id":"cebpf4jnsgd1na2vs0mg"},{"bike_id":"61077fb7-fbc3-481e-b653-70806b02cc66","system_id":"levelo_inurba_marseille","lat":43.29573,"lon":5.367355,"is_reserved":false,"is_disabled":false,"rental_uris":{"android":"levelo://app?vid=61077fb7-fbc3-481e-b653-70806b02cc66","ios":"levelo://app?vid=61077fb7-fbc3-481e-b653-70806b02cc66"},"vehicle_type_id":"4","last_reported":1717337168,"current_range_meters":29200,"station_id":"ce4bgph2rcd13ifvqc2g","pricing_plan_id":"cebpf4jnsgd1na2vs0mg"},{"bike_id":"76c11e12-a3b9-4f52-a199-5acf481eb300","system_id":"levelo_inurba_marseille","lat":43.299243,"lon":5.374807,"is_reserved":false,"is_disabled":false,"rental_uris":{"android":"levelo://app?vid=76c11e12-a3b9-4f52-a199-5acf481eb300","ios":"levelo://app?vid=76c11e12-a3b9-4f52-a199-5acf481eb300"},"vehicle_type_id":"4","last_reported":1717337168,"current_range_meters":5600,"station_id":"ce4bgjh2rcd13ifvqbg0","pricing_plan_id":"cebpf4jnsgd1na2vs0mg"},{"bike_id":"de0efd1d-9a71-4f0e-8d9b-4eb2a1c0285e","system_id":"levelo_inurba_marseille","lat":43.299028,"lon":5.381509,"is_reserved":false,"is_disabled":false,"rental_uris":{"android":"levelo://app?vid=de0efd1d-9a71-4f0e-8d9b-4eb2a1c0285e","ios":"levelo://app?vid=de0efd1d-9a71-4f0e-8d9b-4eb2a1c0285e"},"vehicle_type_id":"4","last_reported":1717337168,"current_range_meters":9600,"station_id":"ce4bgj12rcd13ifvqbc0","pricing_plan_id":"cebpf4jnsgd1na2vs0mg"},{"bike_id":"801362f2-8a56-4188-88f3-3884b72abe72","system_id":"levelo_inurba_marseille","lat":43.296921,"lon":5.376579,"is_reserved":false,"is_disabled":false,"rental_uris":{"android":"levelo://app?vid=801362f2-8a56-4188-88f3-3884b72abe72","ios":"levelo://app?vid=801362f2-8a56-4188-88f3-3884b72abe72"},"vehicle_type_id":"4","last_reported":1717337168,"current_range_meters":28400,"station_id":"ce4bgkh2rcd13ifvqbl0","pricing_plan_id":"cebpf4jnsgd1na2vs0mg"},{"bike_id":"e3bbc978-b0a5-441a-aa25-3b5f6639d61d","system_id":"levelo_inurba_marseille","lat":43.296935,"lon":5.376544,"is_reserved":false,"is_disabled":false,"rental_uris":{"android":"levelo://app?vid=e3bbc978-b0a5-441a-aa25-3b5f6639d61d","ios":"levelo://app?vid=e3bbc978-b0a5-441a-aa25-3b5f6639d61d"},"vehicle_type_id":"4","last_reported":1717337168,"current_range_meters":12400,"station_id":"ce4bgkh2rcd13ifvqbl0","pricing_plan_id":"cebpf4jnsgd1na2vs0mg"},{"bike_id":"77a12a32-3c5b-4e9a-9111-7df56281a2f3","system_id":"levelo_inurba_marseille","lat":43.31759,"lon":5.3901,"is_reserved":false,"is_disabled":false,"rental_uris":{"android":"levelo://app?vid=77a12a32-3c5b-4e9a-9111-7df56281a2f3","ios":"levelo://app?vid=77a12a32-3c5b-4e9a-9111-7df56281a2f3"},"vehicle_type_id":"4","last_reported":1717337168,"current_range_meters":14400,"station_id":"ce4bhqp2rcd13ifvqhng","pricing_plan_id":"cebpf4jnsgd1na2vs0mg"},{"bike_id":"fb9032b6-d8a3-4b47-8feb-b30063e33fdc","system_id":"levelo_inurba_marseille","lat":43.298037,"lon":5.381066,"is_reserved":false,"is_disabled":false,"rental_uris":{"android":"levelo://app?vid=fb9032b6-d8a3-4b47-8feb-b30063e33fdc","ios":"levelo://app?vid=fb9032b6-d8a3-4b47-8feb-b30063e33fdc"},"vehicle_type_id":"4","last_reported":1717337168,"current_range_meters":400,"station_id":"ce4bgip2rcd13ifvqbb0","pricing_plan_id":"cebpf4jnsgd1na2vs0mg"},{"bike_id":"62124f89-3686-459f-98b2-c45bd4586b45","system_id":"levelo_inurba_marseille","lat":43.298037,"lon":5.381066,"is_reserved":false,"is_disabled":false,"rental_uris":{"android":"levelo://app?vid=62124f89-3686-459f-98b2-c45bd4586b45","ios":"levelo://app?vid=62124f89-3686-459f-98b2-c45bd4586b45"},"vehicle_type_id":"4","last_reported":1717337168,"current_range_meters":16400,"station_id":"ce4bgip2rcd13ifvqbb0","pricing_plan_id":"cebpf4jnsgd1na2vs0mg"},{"bike_id":"72184630-97ce-445d-80a5-d9d9c6083a6a","system_id":"levelo_inurba_marseille","lat":43.296277,"lon":5.377108,"is_reserved":false,"is_disabled":false,"rental_uris":{"android":"levelo://app?vid=72184630-97ce-445d-80a5-d9d9c6083a6a","ios":"levelo://app?vid=72184630-97ce-445d-80a5-d9d9c6083a6a"},"vehicle_type_id":"4","last_reported":1717337168,"current_range_meters":22000,"station_id":"ce4bgi92rcd13ifvqb90","pricing_plan_id":"cebpf4jnsgd1na2vs0mg"},{"bike_id":"3a5acb5f-8aa0-4e5d-8261-34952001a038","system_id":"levelo_inurba_marseille","lat":43.295748,"lon":5.37522,"is_reserved":false,"is_disabled":false,"rental_uris":{"android":"levelo://app?vid=3a5acb5f-8aa0-4e5d-8261-34952001a038","ios":"levelo://app?vid=3a5acb5f-8aa0-4e5d-8261-34952001a038"},"vehicle_type_id":"4","last_reported":1717337168,"current_range_meters":24400,"station_id":"ce4bgh92rcd13ifvqb50","pricing_plan_id":"cebpf4jnsgd1na2vs0mg"},{"bike_id":"37709c95-a45a-4a58-9a78-e8a8e416b574","system_id":"levelo_inurba_marseille","lat":43.296263,"lon":5.377094,"is_reserved":false,"is_disabled":false,"rental_uris":{"android":"levelo://app?vid=37709c95-a45a-4a58-9a78-e8a8e416b574","ios":"levelo://app?vid=37709c95-a45a-4a58-9a78-e8a8e416b574"},"vehicle_type_id":"4","last_reported":1717337168,"current_range_meters":8400,"station_id":"ce4bgi92rcd13ifvqb90","pricing_plan_id":"cebpf4jnsgd1na2vs0mg"},{"bike_id":"149bfd01-3e2e-4390-a08f-ac1627aae1ab","system_id":"levelo_inurba_marseille","lat":43.296277,"lon":5.377108,"is_reserved":false,"is_disabled":false,"rental_uris":{"android":"levelo://app?vid=149bfd01-3e2e-4390-a08f-ac1627aae1ab","ios":"levelo://app?vid=149bfd01-3e2e-4390-a08f-ac1627aae1ab"},"vehicle_type_id":"4","last_reported":1717337168,"current_range_meters":5600,"station_id":"ce4bgi92rcd13ifvqb90","pricing_plan_id":"cebpf4jnsgd1na2vs0mg"},{"bike_id":"c7a4513b-a250-4974-836e-341796c7a07c","system_id":"levelo_inurba_marseille","lat":43.3007,"lon":5.38559,"is_reserved":false,"is_disabled":false,"rental_uris":{"android":"levelo://app?vid=c7a4513b-a250-4974-836e-341796c7a07c","ios":"levelo://app?vid=c7a4513b-a250-4974-836e-341796c7a07c"},"vehicle_type_id":"4","last_reported":1717337168,"current_range_meters":20400,"station_id":"","pricing_plan_id":"cebpf4jnsgd1na2vs0mg"},{"bike_id":"b68a1778-c41e-4693-915d-a84dda7e9152","system_id":"levelo_inurba_marseille","lat":43.296263,"lon":5.377094,"is_reserved":false,"is_disabled":false,"rental_uris":{"android":"levelo://app?vid=b68a1778-c41e-4693-915d-a84dda7e9152","ios":"levelo://app?vid=b68a1778-c41e-4693-915d-a84dda7e9152"},"vehicle_type_id":"4","last_reported":1717337168,"current_range_meters":0,"station_id":"ce4bgi92rcd13ifvqb90","pricing_plan_id":"cebpf4jnsgd1na2vs0mg"},{"bike_id":"d9e8113a-582b-48a0-b0b2-c6f86306b734","system_id":"levelo_inurba_marseille","lat":43.296123,"lon":5.377086,"is_reserved":false,"is_disabled":false,"rental_uris":{"android":"levelo://app?vid=d9e8113a-582b-48a0-b0b2-c6f86306b734","ios":"levelo://app?vid=d9e8113a-582b-48a0-b0b2-c6f86306b734"},"vehicle_type_id":"4","last_reported":1717337168,"current_range_meters":29200,"station_id":"","pricing_plan_id":"cebpf4jnsgd1na2vs0mg"},{"bike_id":"e14589c0-b558-43a5-aa0d-6444cdf226f3","system_id":"levelo_inurba_marseille","lat":43.309589,"lon":5.390258,"is_reserved":false,"is_disabled":false,"rental_uris":{"android":"levelo://app?vid=e14589c0-b558-43a5-aa0d-6444cdf226f3","ios":"levelo://app?vid=e14589c0-b558-43a5-aa0d-6444cdf226f3"},"vehicle_type_id":"4","last_reported":1717337168,"current_range_meters":1200,"station_id":"ce4bgup2rcd13ifvqco0","pricing_plan_id":"cebpf4jnsgd1na2vs0mg"},{"bike_id":"47e05705-1bf0-4edd-85ff-914e2b3bd0c3","system_id":"levelo_inurba_marseille","lat":43.295279,"lon":5.375048,"is_reserved":false,"is_disabled":false,"rental_uris":{"android":"levelo://app?vid=47e05705-1bf0-4edd-85ff-914e2b3bd0c3","ios":"levelo://app?vid=47e05705-1bf0-4edd-85ff-914e2b3bd0c3"},"vehicle_type_id":"4","last_reported":1717337168,"current_range_meters":12800,"station_id":"ce4bgkp2rcd13ifvqbmg","pricing_plan_id":"cebpf4jnsgd1na2vs0mg"},{"bike_id":"0d80ac8b-66cf-408c-9dad-ec7a13bca824","system_id":"levelo_inurba_marseille","lat":43.299717,"lon":5.384845,"is_reserved":false,"is_disabled":false,"rental_uris":{"android":"levelo://app?vid=0d80ac8b-66cf-408c-9dad-ec7a13bca824","ios":"levelo://app?vid=0d80ac8b-66cf-408c-9dad-ec7a13bca824"},"vehicle_type_id":"4","last_reported":1717337168,"current_range_meters":16400,"station_id":"ce4bgj92rcd13ifvqbd0","pricing_plan_id":"cebpf4jnsgd1na2vs0mg"},{"bike_id":"b333f603-4f50-4b6c-964c-0c93a9dda6a3","system_id":"levelo_inurba_marseille","lat":43.295279,"lon":5.375048,"is_reserved":false,"is_disabled":false,"rental_uris":{"android":"levelo://app?vid=b333f603-4f50-4b6c-964c-0c93a9dda6a3","ios":"levelo://app?vid=b333f603-4f50-4b6c-964c-0c93a9dda6a3"},"vehicle_type_id":"4","last_reported":1717337168,"current_range_meters":10000,"station_id":"ce4bgkp2rcd13ifvqbmg","pricing_plan_id":"cebpf4jnsgd1na2vs0mg"},{"bike_id":"8b8f39c5-8ec3-4d24-bc32-9eff16120d1d","system_id":"levelo_inurba_marseille","lat":43.295279,"lon":5.375048,"is_reserved":false,"is_disabled":false,"rental_uris":{"android":"levelo://app?vid=8b8f39c5-8ec3-4d24-bc32-9eff16120d1d","ios":"levelo://app?vid=8b8f39c5-8ec3-4d24-bc32-9eff16120d1d"},"vehicle_type_id":"4","last_reported":1717337168,"current_range_meters":25600,"station_id":"ce4bgkp2rcd13ifvqbmg","pricing_plan_id":"cebpf4jnsgd1na2vs0mg"},{"bike_id":"9acb491e-1894-4897-a5ff-a493317cbe92","system_id":"levelo_inurba_marseille","lat":43.32365,"lon":5.38879,"is_reserved":false,"is_disabled":false,"rental_uris":{"android":"levelo://app?vid=9acb491e-1894-4897-a5ff-a493317cbe92","ios":"levelo://app?vid=9acb491e-1894-4897-a5ff-a493317cbe92"},"vehicle_type_id":"4","last_reported":1717337168,"current_range_meters":0,"station_id":"ce4bhqp2rcd13ifvqhog","pricing_plan_id":"cebpf4jnsgd1na2vs0mg"},{"bike_id":"a0f31f9e-01b7-4e8e-99ee-1676b0ea82ec","system_id":"levelo_inurba_marseille","lat":43.32367,"lon":5.388836,"is_reserved":false,"is_disabled":false,"rental_uris":{"android":"levelo://app?vid=a0f31f9e-01b7-4e8e-99ee-1676b0ea82ec","ios":"levelo://app?vid=a0f31f9e-01b7-4e8e-99ee-1676b0ea82ec"},"vehicle_type_id":"4","last_reported":1717337168,"current_range_meters":16000,"station_id":"ce4bhqp2rcd13ifvqhog","pricing_plan_id":"cebpf4jnsgd1na2vs0mg"},{"bike_id":"0e09f33c-7737-4595-80b3-003d3c84b8de","system_id":"levelo_inurba_marseille","lat":43.32367,"lon":5.388836,"is_reserved":false,"is_disabled":false,"rental_uris":{"android":"levelo://app?vid=0e09f33c-7737-4595-80b3-003d3c84b8de","ios":"levelo://app?vid=0e09f33c-7737-4595-80b3-003d3c84b8de"},"vehicle_type_id":"4","last_reported":1717337168,"current_range_meters":16400,"station_id":"ce4bhqp2rcd13ifvqhog","pricing_plan_id":"cebpf4jnsgd1na2vs0mg"},{"bike_id":"505c44a1-5863-4f41-b79e-adc00cc914ff","system_id":"levelo_inurba_marseille","lat":43.32367,"lon":5.388836,"is_reserved":false,"is_disabled":false,"rental_uris":{"android":"levelo://app?vid=505c44a1-5863-4f41-b79e-adc00cc914ff","ios":"levelo://app?vid=505c44a1-5863-4f41-b79e-adc00cc914ff"},"vehicle_type_id":"4","last_reported":1717337168,"current_range_meters":18400,"station_id":"ce4bhqp2rcd13ifvqhog","pricing_plan_id":"cebpf4jnsgd1na2vs0mg"},{"bike_id":"38edf25e-14e8-4a41-b8bd-3fa8b929aa43","system_id":"levelo_inurba_marseille","lat":43.32367,"lon":5.388836,"is_reserved":false,"is_disabled":false,"rental_uris":{"android":"levelo://app?vid=38edf25e-14e8-4a41-b8bd-3fa8b929aa43","ios":"levelo://app?vid=38edf25e-14e8-4a41-b8bd-3fa8b929aa43"},"vehicle_type_id":"4","last_reported":1717337168,"current_range_meters":18800,"station_id":"ce4bhqp2rcd13ifvqhog","pricing_plan_id":"cebpf4jnsgd1na2vs0mg"},{"bike_id":"0616d569-9674-4777-b01f-2876f04424e1","system_id":"levelo_inurba_marseille","lat":43.292749,"lon":5.368398,"is_reserved":false,"is_disabled":false,"rental_uris":{"android":"levelo://app?vid=0616d569-9674-4777-b01f-2876f04424e1","ios":"levelo://app?vid=0616d569-9674-4777-b01f-2876f04424e1"},"vehicle_type_id":"4","last_reported":1717337168,"current_range_meters":0,"station_id":"ce4bhbp2rcd13ifvqesg","pricing_plan_id":"cebpf4jnsgd1na2vs0mg"},{"bike_id":"6901390d-96a8-43eb-9bcd-6b40a86d0e90","system_id":"levelo_inurba_marseille","lat":43.292749,"lon":5.368402,"is_reserved":false,"is_disabled":false,"rental_uris":{"android":"levelo://app?vid=6901390d-96a8-43eb-9bcd-6b40a86d0e90","ios":"levelo://app?vid=6901390d-96a8-43eb-9bcd-6b40a86d0e90"},"vehicle_type_id":"4","last_reported":1717337168,"current_range_meters":7200,"station_id":"ce4bhbp2rcd13ifvqesg","pricing_plan_id":"cebpf4jnsgd1na2vs0mg"},{"bike_id":"37b75fb7-2901-475e-b2ef-fd5c683dac26","system_id":"levelo_inurba_marseille","lat":43.293009,"lon":5.374584,"is_reserved":false,"is_disabled":false,"rental_uris":{"android":"levelo://app?vid=37b75fb7-2901-475e-b2ef-fd5c683dac26","ios":"levelo://app?vid=37b75fb7-2901-475e-b2ef-fd5c683dac26"},"vehicle_type_id":"4","last_reported":1717337168,"current_range_meters":0,"station_id":"ce4bgi12rcd13ifvqb70","pricing_plan_id":"cebpf4jnsgd1na2vs0mg"},{"bike_id":"1587bf0f-8025-4801-a1f7-70ac31ac5564","system_id":"levelo_inurba_marseille","lat":43.29472,"lon":5.38028,"is_reserved":false,"is_disabled":false,"rental_uris":{"android":"levelo://app?vid=1587bf0f-8025-4801-a1f7-70ac31ac5564","ios":"levelo://app?vid=1587bf0f-8025-4801-a1f7-70ac31ac5564"},"vehicle_type_id":"4","last_reported":1717337168,"current_range_meters":8000,"station_id":"","pricing_plan_id":"cebpf4jnsgd1na2vs0mg"},{"bike_id":"b300c2bc-a55a-4070-8ccb-71f868f881ce","system_id":"levelo_inurba_marseille","lat":43.30607,"lon":5.39362,"is_reserved":false,"is_disabled":false,"rental_uris":{"android":"levelo://app?vid=b300c2bc-a55a-4070-8ccb-71f868f881ce","ios":"levelo://app?vid=b300c2bc-a55a-4070-8ccb-71f868f881ce"},"vehicle_type_id":"4","last_reported":1717337168,"current_range_meters":20400,"station_id":"ce4bh0p2rcd13ifvqd80","pricing_plan_id":"cebpf4jnsgd1na2vs0mg"},{"bike_id":"541c7351-8df5-4b93-9c52-a1f630411d67","system_id":"levelo_inurba_marseille","lat":43.29223,"lon":5.36331,"is_reserved":false,"is_disabled":false,"rental_uris":{"android":"levelo://app?vid=541c7351-8df5-4b93-9c52-a1f630411d67","ios":"levelo://app?vid=541c7351-8df5-4b93-9c52-a1f630411d67"},"vehicle_type_id":"4","last_reported":1717337168,"current_range_meters":0,"station_id":"","pricing_plan_id":"cebpf4jnsgd1na2vs0mg"},{"bike_id":"f2d5fe43-95e9-42c9-8543-2d2efd54f4d4","system_id":"levelo_inurba_marseille","lat":43.2936,"lon":5.37835,"is_reserved":false,"is_disabled":false,"rental_uris":{"android":"levelo://app?vid=f2d5fe43-95e9-42c9-8543-2d2efd54f4d4","ios":"levelo://app?vid=f2d5fe43-95e9-42c9-8543-2d2efd54f4d4"},"vehicle_type_id":"4","last_reported":1717337168,"current_range_meters":15200,"station_id":"ce4bgjh2rcd13ifvqbf0","pricing_plan_id":"cebpf4jnsgd1na2vs0mg"},{"bike_id":"22a91d3a-6002-44f3-b28d-47ca4799ba78","system_id":"levelo_inurba_marseille","lat":43.2936,"lon":5.37835,"is_reserved":false,"is_disabled":false,"rental_uris":{"android":"levelo://app?vid=22a91d3a-6002-44f3-b28d-47ca4799ba78","ios":"levelo://app?vid=22a91d3a-6002-44f3-b28d-47ca4799ba78"},"vehicle_type_id":"4","last_reported":1717337168,"current_range_meters":8800,"station_id":"ce4bgjh2rcd13ifvqbf0","pricing_plan_id":"cebpf4jnsgd1na2vs0mg"},{"bike_id":"b5e54f26-a68c-4fdc-ac09-f8cd9b42f5c7","system_id":"levelo_inurba_marseille","lat":43.2936,"lon":5.37835,"is_reserved":false,"is_disabled":false,"rental_uris":{"android":"levelo://app?vid=b5e54f26-a68c-4fdc-ac09-f8cd9b42f5c7","ios":"levelo://app?vid=b5e54f26-a68c-4fdc-ac09-f8cd9b42f5c7"},"vehicle_type_id":"4","last_reported":1717337168,"current_range_meters":8000,"station_id":"ce4bgjh2rcd13ifvqbf0","pricing_plan_id":"cebpf4jnsgd1na2vs0mg"},{"bike_id":"609973a7-a40f-43a9-a30b-56d45fac5436","system_id":"levelo_inurba_marseille","lat":43.2936,"lon":5.37835,"is_reserved":false,"is_disabled":false,"rental_uris":{"android":"levelo://app?vid=609973a7-a40f-43a9-a30b-56d45fac5436","ios":"levelo://app?vid=609973a7-a40f-43a9-a30b-56d45fac5436"},"vehicle_type_id":"4","last_reported":1717337168,"current_range_meters":20800,"station_id":"ce4bgjh2rcd13ifvqbf0","pricing_plan_id":"cebpf4jnsgd1na2vs0mg"},{"bike_id":"987222f9-4c24-4468-8b45-fc67100a1c5c","system_id":"levelo_inurba_marseille","lat":43.292311,"lon":5.360731,"is_reserved":false,"is_disabled":false,"rental_uris":{"android":"levelo://app?vid=987222f9-4c24-4468-8b45-fc67100a1c5c","ios":"levelo://app?vid=987222f9-4c24-4468-8b45-fc67100a1c5c"},"vehicle_type_id":"4","last_reported":1717337168,"current_range_meters":25600,"station_id":"ce4bhbh2rcd13ifvqeqg","pricing_plan_id":"cebpf4jnsgd1na2vs0mg"},{"bike_id":"ed488a60-329e-47a0-8a49-ebf5e4c073cd","system_id":"levelo_inurba_marseille","lat":43.292311,"lon":5.360731,"is_reserved":false,"is_disabled":false,"rental_uris":{"android":"levelo://app?vid=ed488a60-329e-47a0-8a49-ebf5e4c073cd","ios":"levelo://app?vid=ed488a60-329e-47a0-8a49-ebf5e4c073cd"},"vehicle_type_id":"4","last_reported":1717337168,"current_range_meters":26400,"station_id":"ce4bhbh2rcd13ifvqeqg","pricing_plan_id":"cebpf4jnsgd1na2vs0mg"},{"bike_id":"c96ddffb-81bd-4a70-b3f0-3c949ddfc57f","system_id":"levelo_inurba_marseille","lat":43.292257,"lon":5.360507,"is_reserved":false,"is_disabled":false,"rental_uris":{"android":"levelo://app?vid=c96ddffb-81bd-4a70-b3f0-3c949ddfc57f","ios":"levelo://app?vid=c96ddffb-81bd-4a70-b3f0-3c949ddfc57f"},"vehicle_type_id":"4","last_reported":1717337168,"current_range_meters":0,"station_id":"ce4bhbh2rcd13ifvqeqg","pricing_plan_id":"cebpf4jnsgd1na2vs0mg"},{"bike_id":"8b50e05a-8941-4776-b85d-0e67c46b6626","system_id":"levelo_inurba_marseille","lat":43.298764,"lon":5.388973,"is_reserved":false,"is_disabled":false,"rental_uris":{"android":"levelo://app?vid=8b50e05a-8941-4776-b85d-0e67c46b6626","ios":"levelo://app?vid=8b50e05a-8941-4776-b85d-0e67c46b6626"},"vehicle_type_id":"4","last_reported":1717337168,"current_range_meters":2400,"station_id":"ce4bh392rcd13ifvqdl0","pricing_plan_id":"cebpf4jnsgd1na2vs0mg"},{"bike_id":"e7ea25f0-95cc-4e47-8736-28e3a295bcc8","system_id":"levelo_inurba_marseille","lat":43.298764,"lon":5.388973,"is_reserved":false,"is_disabled":false,"rental_uris":{"android":"levelo://app?vid=e7ea25f0-95cc-4e47-8736-28e3a295bcc8","ios":"levelo://app?vid=e7ea25f0-95cc-4e47-8736-28e3a295bcc8"},"vehicle_type_id":"4","last_reported":1717337168,"current_range_meters":17600,"station_id":"ce4bh392rcd13ifvqdl0","pricing_plan_id":"cebpf4jnsgd1na2vs0mg"},{"bike_id":"88d85188-9462-4941-8600-f60d2bfd0bdf","system_id":"levelo_inurba_marseille","lat":43.3132,"lon":5.39688,"is_reserved":false,"is_disabled":false,"rental_uris":{"android":"levelo://app?vid=88d85188-9462-4941-8600-f60d2bfd0bdf","ios":"levelo://app?vid=88d85188-9462-4941-8600-f60d2bfd0bdf"},"vehicle_type_id":"4","last_reported":1717337168,"current_range_meters":18800,"station_id":"","pricing_plan_id":"cebpf4jnsgd1na2vs0mg"},{"bike_id":"4d3c82a3-c6c6-4d5c-a61a-301f82f9bcdc","system_id":"levelo_inurba_marseille","lat":43.313291,"lon":5.396838,"is_reserved":false,"is_disabled":false,"rental_uris":{"android":"levelo://app?vid=4d3c82a3-c6c6-4d5c-a61a-301f82f9bcdc","ios":"levelo://app?vid=4d3c82a3-c6c6-4d5c-a61a-301f82f9bcdc"},"vehicle_type_id":"4","last_reported":1717337168,"current_range_meters":28000,"station_id":"ce4bgvp2rcd13ifvqcu0","pricing_plan_id":"cebpf4jnsgd1na2vs0mg"},{"bike_id":"d0d84194-2d80-4965-8f80-db88dd7684b0","system_id":"levelo_inurba_marseille","lat":43.29529,"lon":5.385581,"is_reserved":false,"is_disabled":false,"rental_uris":{"android":"levelo://app?vid=d0d84194-2d80-4965-8f80-db88dd7684b0","ios":"levelo://app?vid=d0d84194-2d80-4965-8f80-db88dd7684b0"},"vehicle_type_id":"4","last_reported":1717337168,"current_range_meters":0,"station_id":"ce4bgih2rcd13ifvqba0","pricing_plan_id":"cebpf4jnsgd1na2vs0mg"},{"bike_id":"3f44715d-ed0e-4d93-9c68-20d38a9d08d5","system_id":"levelo_inurba_marseille","lat":43.290779,"lon":5.371482,"is_reserved":false,"is_disabled":false,"rental_uris":{"android":"levelo://app?vid=3f44715d-ed0e-4d93-9c68-20d38a9d08d5","ios":"levelo://app?vid=3f44715d-ed0e-4d93-9c68-20d38a9d08d5"},"vehicle_type_id":"4","last_reported":1717337168,"current_range_meters":400,"station_id":"ce4bh5p2rcd13ifvqe4g","pricing_plan_id":"cebpf4jnsgd1na2vs0mg"},{"bike_id":"8842c777-2b3f-4cb1-9060-2429329c914f","system_id":"levelo_inurba_marseille","lat":43.290779,"lon":5.371482,"is_reserved":false,"is_disabled":false,"rental_uris":{"android":"levelo://app?vid=8842c777-2b3f-4cb1-9060-2429329c914f","ios":"levelo://app?vid=8842c777-2b3f-4cb1-9060-2429329c914f"},"vehicle_type_id":"4","last_reported":1717337168,"current_range_meters":9600,"station_id":"ce4bh5p2rcd13ifvqe4g","pricing_plan_id":"cebpf4jnsgd1na2vs0mg"},{"bike_id":"4bb386bf-d36c-432a-8afa-d87a8c1c5d97","system_id":"levelo_inurba_marseille","lat":43.290779,"lon":5.371482,"is_reserved":false,"is_disabled":false,"rental_uris":{"android":"levelo://app?vid=4bb386bf-d36c-432a-8afa-d87a8c1c5d97","ios":"levelo://app?vid=4bb386bf-d36c-432a-8afa-d87a8c1c5d97"},"vehicle_type_id":"4","last_reported":1717337168,"current_range_meters":19200,"station_id":"ce4bh5p2rcd13ifvqe4g","pricing_plan_id":"cebpf4jnsgd1na2vs0mg"},{"bike_id":"f3dc743f-48a7-45f5-aaf0-ee27268ae462","system_id":"levelo_inurba_marseille","lat":43.290779,"lon":5.371482,"is_reserved":false,"is_disabled":false,"rental_uris":{"android":"levelo://app?vid=f3dc743f-48a7-45f5-aaf0-ee27268ae462","ios":"levelo://app?vid=f3dc743f-48a7-45f5-aaf0-ee27268ae462"},"vehicle_type_id":"4","last_reported":1717337168,"current_range_meters":10800,"station_id":"ce4bh5p2rcd13ifvqe4g","pricing_plan_id":"cebpf4jnsgd1na2vs0mg"},{"bike_id":"fc39b3ad-19d8-4b83-8fdc-e47e5cbeb469","system_id":"levelo_inurba_marseille","lat":43.290779,"lon":5.371482,"is_reserved":false,"is_disabled":false,"rental_uris":{"android":"levelo://app?vid=fc39b3ad-19d8-4b83-8fdc-e47e5cbeb469","ios":"levelo://app?vid=fc39b3ad-19d8-4b83-8fdc-e47e5cbeb469"},"vehicle_type_id":"4","last_reported":1717337168,"current_range_meters":28400,"station_id":"ce4bh5p2rcd13ifvqe4g","pricing_plan_id":"cebpf4jnsgd1na2vs0mg"},{"bike_id":"04ca9389-3856-4c34-b676-6b4cd9859aad","system_id":"levelo_inurba_marseille","lat":43.290779,"lon":5.371482,"is_reserved":false,"is_disabled":false,"rental_uris":{"android":"levelo://app?vid=04ca9389-3856-4c34-b676-6b4cd9859aad","ios":"levelo://app?vid=04ca9389-3856-4c34-b676-6b4cd9859aad"},"vehicle_type_id":"4","last_reported":1717337168,"current_range_meters":19600,"station_id":"ce4bh5p2rcd13ifvqe4g","pricing_plan_id":"cebpf4jnsgd1na2vs0mg"},{"bike_id":"2c759fc6-09e7-4225-a709-dada8a0df9e0","system_id":"levelo_inurba_marseille","lat":43.30214,"lon":5.39468,"is_reserved":false,"is_disabled":false,"rental_uris":{"android":"levelo://app?vid=2c759fc6-09e7-4225-a709-dada8a0df9e0","ios":"levelo://app?vid=2c759fc6-09e7-4225-a709-dada8a0df9e0"},"vehicle_type_id":"4","last_reported":1717337168,"current_range_meters":0,"station_id":"ce4bh0p2rcd13ifvqd70","pricing_plan_id":"cebpf4jnsgd1na2vs0mg"},{"bike_id":"5beb6e40-993a-48e3-81fb-b0e0b1923ae3","system_id":"levelo_inurba_marseille","lat":43.290624,"lon":5.359245,"is_reserved":false,"is_disabled":false,"rental_uris":{"android":"levelo://app?vid=5beb6e40-993a-48e3-81fb-b0e0b1923ae3","ios":"levelo://app?vid=5beb6e40-993a-48e3-81fb-b0e0b1923ae3"},"vehicle_type_id":"4","last_reported":1717337168,"current_range_meters":25200,"station_id":"ce4bha92rcd13ifvqeg0","pricing_plan_id":"cebpf4jnsgd1na2vs0mg"},{"bike_id":"6f62411b-c151-4710-8ad8-456186a58f88","system_id":"levelo_inurba_marseille","lat":43.289184,"lon":5.366408,"is_reserved":false,"is_disabled":false,"rental_uris":{"android":"levelo://app?vid=6f62411b-c151-4710-8ad8-456186a58f88","ios":"levelo://app?vid=6f62411b-c151-4710-8ad8-456186a58f88"},"vehicle_type_id":"4","last_reported":1717337168,"current_range_meters":0,"station_id":"ce4bhap2rcd13ifvqek0","pricing_plan_id":"cebpf4jnsgd1na2vs0mg"},{"bike_id":"73a94518-dbc2-4871-8ea0-ce41317c0bb7","system_id":"levelo_inurba_marseille","lat":43.294162,"lon":5.386292,"is_reserved":false,"is_disabled":false,"rental_uris":{"android":"levelo://app?vid=73a94518-dbc2-4871-8ea0-ce41317c0bb7","ios":"levelo://app?vid=73a94518-dbc2-4871-8ea0-ce41317c0bb7"},"vehicle_type_id":"4","last_reported":1717337168,"current_range_meters":18400,"station_id":"ce4bh2h2rcd13ifvqdh0","pricing_plan_id":"cebpf4jnsgd1na2vs0mg"},{"bike_id":"10b3db9c-b168-4647-a42d-0fa602fea51e","system_id":"levelo_inurba_marseille","lat":43.290074,"lon":5.356078,"is_reserved":false,"is_disabled":false,"rental_uris":{"android":"levelo://app?vid=10b3db9c-b168-4647-a42d-0fa602fea51e","ios":"levelo://app?vid=10b3db9c-b168-4647-a42d-0fa602fea51e"},"vehicle_type_id":"4","last_reported":1717337168,"current_range_meters":0,"station_id":"ce4bhb92rcd13ifvqen0","pricing_plan_id":"cebpf4jnsgd1na2vs0mg"},{"bike_id":"79e996a9-6f66-4ff1-a2d6-023300395c87","system_id":"levelo_inurba_marseille","lat":43.290995,"lon":5.381361,"is_reserved":false,"is_disabled":false,"rental_uris":{"android":"levelo://app?vid=79e996a9-6f66-4ff1-a2d6-023300395c87","ios":"levelo://app?vid=79e996a9-6f66-4ff1-a2d6-023300395c87"},"vehicle_type_id":"4","last_reported":1717337168,"current_range_meters":800,"station_id":"ce4bh512rcd13ifvqe2g","pricing_plan_id":"cebpf4jnsgd1na2vs0mg"},{"bike_id":"72ecd401-cb06-44af-b862-ff8e7a654943","system_id":"levelo_inurba_marseille","lat":43.290995,"lon":5.381361,"is_reserved":false,"is_disabled":false,"rental_uris":{"android":"levelo://app?vid=72ecd401-cb06-44af-b862-ff8e7a654943","ios":"levelo://app?vid=72ecd401-cb06-44af-b862-ff8e7a654943"},"vehicle_type_id":"4","last_reported":1717337168,"current_range_meters":20800,"station_id":"ce4bh512rcd13ifvqe2g","pricing_plan_id":"cebpf4jnsgd1na2vs0mg"},{"bike_id":"afce032c-7651-4e45-9ac5-5c58ac75485e","system_id":"levelo_inurba_marseille","lat":43.330442,"lon":5.389148,"is_reserved":false,"is_disabled":false,"rental_uris":{"android":"levelo://app?vid=afce032c-7651-4e45-9ac5-5c58ac75485e","ios":"levelo://app?vid=afce032c-7651-4e45-9ac5-5c58ac75485e"},"vehicle_type_id":"4","last_reported":1717337168,"current_range_meters":1600,"station_id":"ce4bhr92rcd13ifvqhrg","pricing_plan_id":"cebpf4jnsgd1na2vs0mg"},{"bike_id":"072a710d-00d0-4482-8e7c-0e1a3314028e","system_id":"levelo_inurba_marseille","lat":43.330442,"lon":5.389148,"is_reserved":false,"is_disabled":false,"rental_uris":{"android":"levelo://app?vid=072a710d-00d0-4482-8e7c-0e1a3314028e","ios":"levelo://app?vid=072a710d-00d0-4482-8e7c-0e1a3314028e"},"vehicle_type_id":"4","last_reported":1717337168,"current_range_meters":22000,"station_id":"ce4bhr92rcd13ifvqhrg","pricing_plan_id":"cebpf4jnsgd1na2vs0mg"},{"bike_id":"f9ada0f8-ec38-48e9-ae12-101fabfe6ac6","system_id":"levelo_inurba_marseille","lat":43.290094,"lon":5.381264,"is_reserved":false,"is_disabled":false,"rental_uris":{"android":"levelo://app?vid=f9ada0f8-ec38-48e9-ae12-101fabfe6ac6","ios":"levelo://app?vid=f9ada0f8-ec38-48e9-ae12-101fabfe6ac6"},"vehicle_type_id":"4","last_reported":1717337168,"current_range_meters":13600,"station_id":"ce4bh4p2rcd13ifvqe1g","pricing_plan_id":"cebpf4jnsgd1na2vs0mg"},{"bike_id":"73edba52-c724-4c90-95ad-594bb123eec3","system_id":"levelo_inurba_marseille","lat":43.28856,"lon":5.358371,"is_reserved":false,"is_disabled":false,"rental_uris":{"android":"levelo://app?vid=73edba52-c724-4c90-95ad-594bb123eec3","ios":"levelo://app?vid=73edba52-c724-4c90-95ad-594bb123eec3"},"vehicle_type_id":"4","last_reported":1717337168,"current_range_meters":800,"station_id":"ce4bhb12rcd13ifvqem0","pricing_plan_id":"cebpf4jnsgd1na2vs0mg"},{"bike_id":"8e292594-2265-412c-8a4f-24905e451c35","system_id":"levelo_inurba_marseille","lat":43.28856,"lon":5.358371,"is_reserved":false,"is_disabled":false,"rental_uris":{"android":"levelo://app?vid=8e292594-2265-412c-8a4f-24905e451c35","ios":"levelo://app?vid=8e292594-2265-412c-8a4f-24905e451c35"},"vehicle_type_id":"4","last_reported":1717337168,"current_range_meters":400,"station_id":"ce4bhb12rcd13ifvqem0","pricing_plan_id":"cebpf4jnsgd1na2vs0mg"},{"bike_id":"18465449-fac5-4e23-8b86-d7c847de669f","system_id":"levelo_inurba_marseille","lat":43.28863,"lon":5.357843,"is_reserved":false,"is_disabled":false,"rental_uris":{"android":"levelo://app?vid=18465449-fac5-4e23-8b86-d7c847de669f","ios":"levelo://app?vid=18465449-fac5-4e23-8b86-d7c847de669f"},"vehicle_type_id":"4","last_reported":1717337168,"current_range_meters":16000,"station_id":"ce4bhb12rcd13ifvqem0","pricing_plan_id":"cebpf4jnsgd1na2vs0mg"},{"bike_id":"5418c4b0-8465-4526-984b-a5b540931cdb","system_id":"levelo_inurba_marseille","lat":43.290094,"lon":5.381264,"is_reserved":false,"is_disabled":false,"rental_uris":{"android":"levelo://app?vid=5418c4b0-8465-4526-984b-a5b540931cdb","ios":"levelo://app?vid=5418c4b0-8465-4526-984b-a5b540931cdb"},"vehicle_type_id":"4","last_reported":1717337168,"current_range_meters":5200,"station_id":"ce4bh4p2rcd13ifvqe1g","pricing_plan_id":"cebpf4jnsgd1na2vs0mg"},{"bike_id":"94241b89-be14-4ed4-9e17-e498b3a99b2f","system_id":"levelo_inurba_marseille","lat":43.33148,"lon":5.38987,"is_reserved":false,"is_disabled":false,"rental_uris":{"android":"levelo://app?vid=94241b89-be14-4ed4-9e17-e498b3a99b2f","ios":"levelo://app?vid=94241b89-be14-4ed4-9e17-e498b3a99b2f"},"vehicle_type_id":"4","last_reported":1717337168,"current_range_meters":6000,"station_id":"","pricing_plan_id":"cebpf4jnsgd1na2vs0mg"},{"bike_id":"bb0d0136-9586-4a13-9e8b-bf38c2f68992","system_id":"levelo_inurba_marseille","lat":43.309371,"lon":5.401449,"is_reserved":false,"is_disabled":false,"rental_uris":{"android":"levelo://app?vid=bb0d0136-9586-4a13-9e8b-bf38c2f68992","ios":"levelo://app?vid=bb0d0136-9586-4a13-9e8b-bf38c2f68992"},"vehicle_type_id":"4","last_reported":1717337168,"current_range_meters":16000,"station_id":"ce4bgvp2rcd13ifvqct0","pricing_plan_id":"cebpf4jnsgd1na2vs0mg"},{"bike_id":"698b3dbd-6bd6-4d41-9803-fc3df903768e","system_id":"levelo_inurba_marseille","lat":43.309371,"lon":5.401449,"is_reserved":false,"is_disabled":false,"rental_uris":{"android":"levelo://app?vid=698b3dbd-6bd6-4d41-9803-fc3df903768e","ios":"levelo://app?vid=698b3dbd-6bd6-4d41-9803-fc3df903768e"},"vehicle_type_id":"4","last_reported":1717337168,"current_range_meters":400,"station_id":"ce4bgvp2rcd13ifvqct0","pricing_plan_id":"cebpf4jnsgd1na2vs0mg"},{"bike_id":"26e88c15-1ebf-4978-814d-f8bc280f73dc","system_id":"levelo_inurba_marseille","lat":43.33743,"lon":5.37483,"is_reserved":false,"is_disabled":false,"rental_uris":{"android":"levelo://app?vid=26e88c15-1ebf-4978-814d-f8bc280f73dc","ios":"levelo://app?vid=26e88c15-1ebf-4978-814d-f8bc280f73dc"},"vehicle_type_id":"4","last_reported":1717337168,"current_range_meters":27600,"station_id":"","pricing_plan_id":"cebpf4jnsgd1na2vs0mg"},{"bike_id":"5e4a7bbd-79ec-4d01-b4bd-a67b4f24cdb1","system_id":"levelo_inurba_marseille","lat":43.28868,"lon":5.35555,"is_reserved":false,"is_disabled":false,"rental_uris":{"android":"levelo://app?vid=5e4a7bbd-79ec-4d01-b4bd-a67b4f24cdb1","ios":"levelo://app?vid=5e4a7bbd-79ec-4d01-b4bd-a67b4f24cdb1"},"vehicle_type_id":"4","last_reported":1717337168,"current_range_meters":30400,"station_id":"","pricing_plan_id":"cebpf4jnsgd1na2vs0mg"},{"bike_id":"e66d99c6-8f34-48fe-b7f0-4c4c2ec33236","system_id":"levelo_inurba_marseille","lat":43.301117,"lon":5.398795,"is_reserved":false,"is_disabled":false,"rental_uris":{"android":"levelo://app?vid=e66d99c6-8f34-48fe-b7f0-4c4c2ec33236","ios":"levelo://app?vid=e66d99c6-8f34-48fe-b7f0-4c4c2ec33236"},"vehicle_type_id":"4","last_reported":1717337168,"current_range_meters":14400,"station_id":"ce4bh0h2rcd13ifvqd40","pricing_plan_id":"cebpf4jnsgd1na2vs0mg"},{"bike_id":"a1af9ef3-c8cc-401f-8539-08ef403db372","system_id":"levelo_inurba_marseille","lat":43.306412,"lon":5.401035,"is_reserved":false,"is_disabled":false,"rental_uris":{"android":"levelo://app?vid=a1af9ef3-c8cc-401f-8539-08ef403db372","ios":"levelo://app?vid=a1af9ef3-c8cc-401f-8539-08ef403db372"},"vehicle_type_id":"4","last_reported":1717337168,"current_range_meters":21200,"station_id":"ce4bh112rcd13ifvqda0","pricing_plan_id":"cebpf4jnsgd1na2vs0mg"},{"bike_id":"ccc96030-b99e-485a-b34e-21aff057f536","system_id":"levelo_inurba_marseille","lat":43.301117,"lon":5.398795,"is_reserved":false,"is_disabled":false,"rental_uris":{"android":"levelo://app?vid=ccc96030-b99e-485a-b34e-21aff057f536","ios":"levelo://app?vid=ccc96030-b99e-485a-b34e-21aff057f536"},"vehicle_type_id":"4","last_reported":1717337168,"current_range_meters":0,"station_id":"ce4bh0h2rcd13ifvqd40","pricing_plan_id":"cebpf4jnsgd1na2vs0mg"},{"bike_id":"9b25d7fa-ac19-4189-a57f-cd39740601db","system_id":"levelo_inurba_marseille","lat":43.30132,"lon":5.39847,"is_reserved":false,"is_disabled":false,"rental_uris":{"android":"levelo://app?vid=9b25d7fa-ac19-4189-a57f-cd39740601db","ios":"levelo://app?vid=9b25d7fa-ac19-4189-a57f-cd39740601db"},"vehicle_type_id":"4","last_reported":1717337168,"current_range_meters":8000,"station_id":"ce4bho92rcd13ifvqh4g","pricing_plan_id":"cebpf4jnsgd1na2vs0mg"},{"bike_id":"8c988f55-b247-49df-a0e6-4c444007a99a","system_id":"levelo_inurba_marseille","lat":43.28727,"lon":5.36078,"is_reserved":false,"is_disabled":false,"rental_uris":{"android":"levelo://app?vid=8c988f55-b247-49df-a0e6-4c444007a99a","ios":"levelo://app?vid=8c988f55-b247-49df-a0e6-4c444007a99a"},"vehicle_type_id":"4","last_reported":1717337168,"current_range_meters":29200,"station_id":"cki0cbj6b192h4jlfktg","pricing_plan_id":"cebpf4jnsgd1na2vs0mg"},{"bike_id":"c97600b1-dda5-466e-ba55-1bb8c5609c1d","system_id":"levelo_inurba_marseille","lat":43.286961,"lon":5.373785,"is_reserved":false,"is_disabled":false,"rental_uris":{"android":"levelo://app?vid=c97600b1-dda5-466e-ba55-1bb8c5609c1d","ios":"levelo://app?vid=c97600b1-dda5-466e-ba55-1bb8c5609c1d"},"vehicle_type_id":"4","last_reported":1717337168,"current_range_meters":1600,"station_id":"ce4bh3p2rcd13ifvqdq0","pricing_plan_id":"cebpf4jnsgd1na2vs0mg"},{"bike_id":"cb673d92-09cb-4e6c-987f-ed00eabfb2f8","system_id":"levelo_inurba_marseille","lat":43.287002,"lon":5.373833,"is_reserved":false,"is_disabled":false,"rental_uris":{"android":"levelo://app?vid=cb673d92-09cb-4e6c-987f-ed00eabfb2f8","ios":"levelo://app?vid=cb673d92-09cb-4e6c-987f-ed00eabfb2f8"},"vehicle_type_id":"4","last_reported":1717337168,"current_range_meters":0,"station_id":"","pricing_plan_id":"cebpf4jnsgd1na2vs0mg"},{"bike_id":"536f28bc-e4c0-4de6-b23f-bd6c91638d04","system_id":"levelo_inurba_marseille","lat":43.286961,"lon":5.373785,"is_reserved":false,"is_disabled":false,"rental_uris":{"android":"levelo://app?vid=536f28bc-e4c0-4de6-b23f-bd6c91638d04","ios":"levelo://app?vid=536f28bc-e4c0-4de6-b23f-bd6c91638d04"},"vehicle_type_id":"4","last_reported":1717337168,"current_range_meters":0,"station_id":"ce4bh3p2rcd13ifvqdq0","pricing_plan_id":"cebpf4jnsgd1na2vs0mg"},{"bike_id":"0dd1e25e-1ca9-403e-9ef4-3e1952f281a1","system_id":"levelo_inurba_marseille","lat":43.295194,"lon":5.39397,"is_reserved":false,"is_disabled":false,"rental_uris":{"android":"levelo://app?vid=0dd1e25e-1ca9-403e-9ef4-3e1952f281a1","ios":"levelo://app?vid=0dd1e25e-1ca9-403e-9ef4-3e1952f281a1"},"vehicle_type_id":"4","last_reported":1717337168,"current_range_meters":5200,"station_id":"ce4bh292rcd13ifvqdf0","pricing_plan_id":"cebpf4jnsgd1na2vs0mg"},{"bike_id":"763d4dad-8287-47eb-91aa-d6badf3b6eb9","system_id":"levelo_inurba_marseille","lat":43.295196,"lon":5.39397,"is_reserved":false,"is_disabled":false,"rental_uris":{"android":"levelo://app?vid=763d4dad-8287-47eb-91aa-d6badf3b6eb9","ios":"levelo://app?vid=763d4dad-8287-47eb-91aa-d6badf3b6eb9"},"vehicle_type_id":"4","last_reported":1717337168,"current_range_meters":0,"station_id":"ce4bh292rcd13ifvqdf0","pricing_plan_id":"cebpf4jnsgd1na2vs0mg"},{"bike_id":"cd9a2c98-f99f-4ca5-9e51-8b0c1f0af219","system_id":"levelo_inurba_marseille","lat":43.302759,"lon":5.400793,"is_reserved":false,"is_disabled":false,"rental_uris":{"android":"levelo://app?vid=cd9a2c98-f99f-4ca5-9e51-8b0c1f0af219","ios":"levelo://app?vid=cd9a2c98-f99f-4ca5-9e51-8b0c1f0af219"},"vehicle_type_id":"4","last_reported":1717337168,"current_range_meters":24000,"station_id":"ce4bgvh2rcd13ifvqcs0","pricing_plan_id":"cebpf4jnsgd1na2vs0mg"},{"bike_id":"4a10e68f-0dea-4d20-a0c3-0395e17f5663","system_id":"levelo_inurba_marseille","lat":43.302759,"lon":5.400793,"is_reserved":false,"is_disabled":false,"rental_uris":{"android":"levelo://app?vid=4a10e68f-0dea-4d20-a0c3-0395e17f5663","ios":"levelo://app?vid=4a10e68f-0dea-4d20-a0c3-0395e17f5663"},"vehicle_type_id":"4","last_reported":1717337168,"current_range_meters":20800,"station_id":"ce4bgvh2rcd13ifvqcs0","pricing_plan_id":"cebpf4jnsgd1na2vs0mg"},{"bike_id":"d97b5e9a-9a25-4870-b0a5-9e06bcf6a4f3","system_id":"levelo_inurba_marseille","lat":43.30264,"lon":5.40082,"is_reserved":false,"is_disabled":false,"rental_uris":{"android":"levelo://app?vid=d97b5e9a-9a25-4870-b0a5-9e06bcf6a4f3","ios":"levelo://app?vid=d97b5e9a-9a25-4870-b0a5-9e06bcf6a4f3"},"vehicle_type_id":"4","last_reported":1717337168,"current_range_meters":26000,"station_id":"","pricing_plan_id":"cebpf4jnsgd1na2vs0mg"},{"bike_id":"3bc598f5-6f1b-433e-badb-06754aa0f9bc","system_id":"levelo_inurba_marseille","lat":43.286039,"lon":5.370679,"is_reserved":false,"is_disabled":false,"rental_uris":{"android":"levelo://app?vid=3bc598f5-6f1b-433e-badb-06754aa0f9bc","ios":"levelo://app?vid=3bc598f5-6f1b-433e-badb-06754aa0f9bc"},"vehicle_type_id":"4","last_reported":1717337168,"current_range_meters":19600,"station_id":"ce4bht12rcd13ifvqi60","pricing_plan_id":"cebpf4jnsgd1na2vs0mg"},{"bike_id":"a8702027-ec03-4c69-b1d9-662e2bc5936e","system_id":"levelo_inurba_marseille","lat":43.287184,"lon":5.37937,"is_reserved":false,"is_disabled":false,"rental_uris":{"android":"levelo://app?vid=a8702027-ec03-4c69-b1d9-662e2bc5936e","ios":"levelo://app?vid=a8702027-ec03-4c69-b1d9-662e2bc5936e"},"vehicle_type_id":"4","last_reported":1717337168,"current_range_meters":0,"station_id":"ce4bh9p2rcd13ifvqec0","pricing_plan_id":"cebpf4jnsgd1na2vs0mg"},{"bike_id":"87c96f1a-1d5c-4a13-a00e-b419c993f57b","system_id":"levelo_inurba_marseille","lat":43.291994,"lon":5.392907,"is_reserved":false,"is_disabled":false,"rental_uris":{"android":"levelo://app?vid=87c96f1a-1d5c-4a13-a00e-b419c993f57b","ios":"levelo://app?vid=87c96f1a-1d5c-4a13-a00e-b419c993f57b"},"vehicle_type_id":"4","last_reported":1717337168,"current_range_meters":13600,"station_id":"ce4bh192rcd13ifvqdd0","pricing_plan_id":"cebpf4jnsgd1na2vs0mg"},{"bike_id":"ddec8ba4-5999-4849-9798-a4e30e2a4855","system_id":"levelo_inurba_marseille","lat":43.282744,"lon":5.350533,"is_reserved":false,"is_disabled":false,"rental_uris":{"android":"levelo://app?vid=ddec8ba4-5999-4849-9798-a4e30e2a4855","ios":"levelo://app?vid=ddec8ba4-5999-4849-9798-a4e30e2a4855"},"vehicle_type_id":"4","last_reported":1717337168,"current_range_meters":9600,"station_id":"ce4bhbp2rcd13ifvqerg","pricing_plan_id":"cebpf4jnsgd1na2vs0mg"},{"bike_id":"e1335ea6-9fc8-477a-b170-f4016e2be4e0","system_id":"levelo_inurba_marseille","lat":43.28467,"lon":5.35886,"is_reserved":false,"is_disabled":false,"rental_uris":{"android":"levelo://app?vid=e1335ea6-9fc8-477a-b170-f4016e2be4e0","ios":"levelo://app?vid=e1335ea6-9fc8-477a-b170-f4016e2be4e0"},"vehicle_type_id":"4","last_reported":1717337168,"current_range_meters":0,"station_id":"ce4bhah2rcd13ifvqei0","pricing_plan_id":"cebpf4jnsgd1na2vs0mg"},{"bike_id":"904e9747-c730-42fe-b826-57f37d41b4b0","system_id":"levelo_inurba_marseille","lat":43.284538,"lon":5.358657,"is_reserved":false,"is_disabled":false,"rental_uris":{"android":"levelo://app?vid=904e9747-c730-42fe-b826-57f37d41b4b0","ios":"levelo://app?vid=904e9747-c730-42fe-b826-57f37d41b4b0"},"vehicle_type_id":"4","last_reported":1717337168,"current_range_meters":12400,"station_id":"ce4bhah2rcd13ifvqei0","pricing_plan_id":"cebpf4jnsgd1na2vs0mg"},{"bike_id":"57b95b74-2b73-4079-83c2-345b160908d2","system_id":"levelo_inurba_marseille","lat":43.28463,"lon":5.35889,"is_reserved":false,"is_disabled":false,"rental_uris":{"android":"levelo://app?vid=57b95b74-2b73-4079-83c2-345b160908d2","ios":"levelo://app?vid=57b95b74-2b73-4079-83c2-345b160908d2"},"vehicle_type_id":"4","last_reported":1717337168,"current_range_meters":0,"station_id":"ce4bhah2rcd13ifvqei0","pricing_plan_id":"cebpf4jnsgd1na2vs0mg"},{"bike_id":"3fcc40c0-436f-4b8a-8191-410cdcdbbb01","system_id":"levelo_inurba_marseille","lat":43.284534,"lon":5.358662,"is_reserved":false,"is_disabled":false,"rental_uris":{"android":"levelo://app?vid=3fcc40c0-436f-4b8a-8191-410cdcdbbb01","ios":"levelo://app?vid=3fcc40c0-436f-4b8a-8191-410cdcdbbb01"},"vehicle_type_id":"4","last_reported":1717337168,"current_range_meters":0,"station_id":"ce4bhah2rcd13ifvqei0","pricing_plan_id":"cebpf4jnsgd1na2vs0mg"},{"bike_id":"e7c0f737-0d0c-4791-92d4-6c7978ca58d9","system_id":"levelo_inurba_marseille","lat":43.284534,"lon":5.358662,"is_reserved":false,"is_disabled":false,"rental_uris":{"android":"levelo://app?vid=e7c0f737-0d0c-4791-92d4-6c7978ca58d9","ios":"levelo://app?vid=e7c0f737-0d0c-4791-92d4-6c7978ca58d9"},"vehicle_type_id":"4","last_reported":1717337168,"current_range_meters":4400,"station_id":"ce4bhah2rcd13ifvqei0","pricing_plan_id":"cebpf4jnsgd1na2vs0mg"},{"bike_id":"4a1a2ad9-1583-41bd-b1b1-fe064b4f07fa","system_id":"levelo_inurba_marseille","lat":43.284534,"lon":5.358662,"is_reserved":false,"is_disabled":false,"rental_uris":{"android":"levelo://app?vid=4a1a2ad9-1583-41bd-b1b1-fe064b4f07fa","ios":"levelo://app?vid=4a1a2ad9-1583-41bd-b1b1-fe064b4f07fa"},"vehicle_type_id":"4","last_reported":1717337168,"current_range_meters":0,"station_id":"ce4bhah2rcd13ifvqei0","pricing_plan_id":"cebpf4jnsgd1na2vs0mg"},{"bike_id":"6e1de7e3-e9b5-4b1e-90bb-329c6aac27d6","system_id":"levelo_inurba_marseille","lat":43.285856,"lon":5.350771,"is_reserved":false,"is_disabled":false,"rental_uris":{"android":"levelo://app?vid=6e1de7e3-e9b5-4b1e-90bb-329c6aac27d6","ios":"levelo://app?vid=6e1de7e3-e9b5-4b1e-90bb-329c6aac27d6"},"vehicle_type_id":"4","last_reported":1717337168,"current_range_meters":20800,"station_id":"ce4bhch2rcd13ifvqeug","pricing_plan_id":"cebpf4jnsgd1na2vs0mg"},{"bike_id":"4b702bf9-7c23-4ced-9ea1-e7c74b1bb1e0","system_id":"levelo_inurba_marseille","lat":43.28615,"lon":5.35099,"is_reserved":false,"is_disabled":false,"rental_uris":{"android":"levelo://app?vid=4b702bf9-7c23-4ced-9ea1-e7c74b1bb1e0","ios":"levelo://app?vid=4b702bf9-7c23-4ced-9ea1-e7c74b1bb1e0"},"vehicle_type_id":"4","last_reported":1717337168,"current_range_meters":31200,"station_id":"ce4bhch2rcd13ifvqeug","pricing_plan_id":"cebpf4jnsgd1na2vs0mg"},{"bike_id":"a75784df-54a8-41de-9e36-2da9b5f0f3f3","system_id":"levelo_inurba_marseille","lat":43.28615,"lon":5.35098,"is_reserved":false,"is_disabled":false,"rental_uris":{"android":"levelo://app?vid=a75784df-54a8-41de-9e36-2da9b5f0f3f3","ios":"levelo://app?vid=a75784df-54a8-41de-9e36-2da9b5f0f3f3"},"vehicle_type_id":"4","last_reported":1717337168,"current_range_meters":30000,"station_id":"ce4bhch2rcd13ifvqeug","pricing_plan_id":"cebpf4jnsgd1na2vs0mg"},{"bike_id":"59043404-063f-4146-a608-aee1a8c9e8d8","system_id":"levelo_inurba_marseille","lat":43.283998,"lon":5.375062,"is_reserved":false,"is_disabled":false,"rental_uris":{"android":"levelo://app?vid=59043404-063f-4146-a608-aee1a8c9e8d8","ios":"levelo://app?vid=59043404-063f-4146-a608-aee1a8c9e8d8"},"vehicle_type_id":"4","last_reported":1717337168,"current_range_meters":6000,"station_id":"ce4bh412rcd13ifvqds0","pricing_plan_id":"cebpf4jnsgd1na2vs0mg"},{"bike_id":"6b6c58e7-e97a-417d-a38f-e6708d28a329","system_id":"levelo_inurba_marseille","lat":43.283998,"lon":5.375062,"is_reserved":false,"is_disabled":false,"rental_uris":{"android":"levelo://app?vid=6b6c58e7-e97a-417d-a38f-e6708d28a329","ios":"levelo://app?vid=6b6c58e7-e97a-417d-a38f-e6708d28a329"},"vehicle_type_id":"4","last_reported":1717337168,"current_range_meters":800,"station_id":"ce4bh412rcd13ifvqds0","pricing_plan_id":"cebpf4jnsgd1na2vs0mg"},{"bike_id":"36baad2a-469d-4362-a565-93c7e7889a65","system_id":"levelo_inurba_marseille","lat":43.295713,"lon":5.399639,"is_reserved":false,"is_disabled":false,"rental_uris":{"android":"levelo://app?vid=36baad2a-469d-4362-a565-93c7e7889a65","ios":"levelo://app?vid=36baad2a-469d-4362-a565-93c7e7889a65"},"vehicle_type_id":"4","last_reported":1717337168,"current_range_meters":0,"station_id":"ce4bh312rcd13ifvqdj0","pricing_plan_id":"cebpf4jnsgd1na2vs0mg"},{"bike_id":"2ceeb11f-5ab9-49ef-980d-df3a610598a7","system_id":"levelo_inurba_marseille","lat":43.286595,"lon":5.386795,"is_reserved":false,"is_disabled":false,"rental_uris":{"android":"levelo://app?vid=2ceeb11f-5ab9-49ef-980d-df3a610598a7","ios":"levelo://app?vid=2ceeb11f-5ab9-49ef-980d-df3a610598a7"},"vehicle_type_id":"4","last_reported":1717337168,"current_range_meters":1600,"station_id":"ce4bh492rcd13ifvqdug","pricing_plan_id":"cebpf4jnsgd1na2vs0mg"},{"bike_id":"3b6fd49d-39e3-4de1-ab0e-46811ee880fa","system_id":"levelo_inurba_marseille","lat":43.286595,"lon":5.386795,"is_reserved":false,"is_disabled":false,"rental_uris":{"android":"levelo://app?vid=3b6fd49d-39e3-4de1-ab0e-46811ee880fa","ios":"levelo://app?vid=3b6fd49d-39e3-4de1-ab0e-46811ee880fa"},"vehicle_type_id":"4","last_reported":1717337168,"current_range_meters":1200,"station_id":"ce4bh492rcd13ifvqdug","pricing_plan_id":"cebpf4jnsgd1na2vs0mg"},{"bike_id":"9ed9c775-bed5-4182-9289-9a301a3f936d","system_id":"levelo_inurba_marseille","lat":43.283998,"lon":5.375062,"is_reserved":false,"is_disabled":false,"rental_uris":{"android":"levelo://app?vid=9ed9c775-bed5-4182-9289-9a301a3f936d","ios":"levelo://app?vid=9ed9c775-bed5-4182-9289-9a301a3f936d"},"vehicle_type_id":"4","last_reported":1717337168,"current_range_meters":20800,"station_id":"ce4bh412rcd13ifvqds0","pricing_plan_id":"cebpf4jnsgd1na2vs0mg"},{"bike_id":"9c117b3b-5ad8-475a-8ae6-d26720a187d3","system_id":"levelo_inurba_marseille","lat":43.286595,"lon":5.386795,"is_reserved":false,"is_disabled":false,"rental_uris":{"android":"levelo://app?vid=9c117b3b-5ad8-475a-8ae6-d26720a187d3","ios":"levelo://app?vid=9c117b3b-5ad8-475a-8ae6-d26720a187d3"},"vehicle_type_id":"4","last_reported":1717337168,"current_range_meters":2400,"station_id":"ce4bh492rcd13ifvqdug","pricing_plan_id":"cebpf4jnsgd1na2vs0mg"},{"bike_id":"f1e290a0-b1d1-41a2-9f84-690d75f7d1ac","system_id":"levelo_inurba_marseille","lat":43.33717,"lon":5.391857,"is_reserved":false,"is_disabled":false,"rental_uris":{"android":"levelo://app?vid=f1e290a0-b1d1-41a2-9f84-690d75f7d1ac","ios":"levelo://app?vid=f1e290a0-b1d1-41a2-9f84-690d75f7d1ac"},"vehicle_type_id":"4","last_reported":1717337168,"current_range_meters":13600,"station_id":"ce4bhr92rcd13ifvqhsg","pricing_plan_id":"cebpf4jnsgd1na2vs0mg"},{"bike_id":"369106d9-4488-4c8e-96d8-32054535205a","system_id":"levelo_inurba_marseille","lat":43.336617,"lon":5.392077,"is_reserved":false,"is_disabled":false,"rental_uris":{"android":"levelo://app?vid=369106d9-4488-4c8e-96d8-32054535205a","ios":"levelo://app?vid=369106d9-4488-4c8e-96d8-32054535205a"},"vehicle_type_id":"4","last_reported":1717337168,"current_range_meters":29600,"station_id":"","pricing_plan_id":"cebpf4jnsgd1na2vs0mg"},{"bike_id":"21a51ed3-dde5-476e-ae4b-9d89be466537","system_id":"levelo_inurba_marseille","lat":43.337168,"lon":5.391825,"is_reserved":false,"is_disabled":false,"rental_uris":{"android":"levelo://app?vid=21a51ed3-dde5-476e-ae4b-9d89be466537","ios":"levelo://app?vid=21a51ed3-dde5-476e-ae4b-9d89be466537"},"vehicle_type_id":"4","last_reported":1717337168,"current_range_meters":27600,"station_id":"ce4bhr92rcd13ifvqhsg","pricing_plan_id":"cebpf4jnsgd1na2vs0mg"},{"bike_id":"095a4809-8f15-4f7f-85c4-b9607eff4ef7","system_id":"levelo_inurba_marseille","lat":43.294447,"lon":5.40043,"is_reserved":false,"is_disabled":false,"rental_uris":{"android":"levelo://app?vid=095a4809-8f15-4f7f-85c4-b9607eff4ef7","ios":"levelo://app?vid=095a4809-8f15-4f7f-85c4-b9607eff4ef7"},"vehicle_type_id":"4","last_reported":1717337168,"current_range_meters":6000,"station_id":"","pricing_plan_id":"cebpf4jnsgd1na2vs0mg"},{"bike_id":"cbcbb52a-89ae-4e47-913a-6da32d68fd05","system_id":"levelo_inurba_marseille","lat":43.323464,"lon":5.406297,"is_reserved":false,"is_disabled":false,"rental_uris":{"android":"levelo://app?vid=cbcbb52a-89ae-4e47-913a-6da32d68fd05","ios":"levelo://app?vid=cbcbb52a-89ae-4e47-913a-6da32d68fd05"},"vehicle_type_id":"4","last_reported":1717337168,"current_range_meters":31200,"station_id":"ce4bhq92rcd13ifvqhjg","pricing_plan_id":"cebpf4jnsgd1na2vs0mg"},{"bike_id":"b8fa993f-27b1-47f1-a02e-5f8a5b5f429d","system_id":"levelo_inurba_marseille","lat":43.32335,"lon":5.40624,"is_reserved":false,"is_disabled":false,"rental_uris":{"android":"levelo://app?vid=b8fa993f-27b1-47f1-a02e-5f8a5b5f429d","ios":"levelo://app?vid=b8fa993f-27b1-47f1-a02e-5f8a5b5f429d"},"vehicle_type_id":"4","last_reported":1717337168,"current_range_meters":0,"station_id":"ce4bhq92rcd13ifvqhjg","pricing_plan_id":"cebpf4jnsgd1na2vs0mg"},{"bike_id":"f961931a-fd68-4e84-bb87-d0e7b9836b1e","system_id":"levelo_inurba_marseille","lat":43.297946,"lon":5.404063,"is_reserved":false,"is_disabled":false,"rental_uris":{"android":"levelo://app?vid=f961931a-fd68-4e84-bb87-d0e7b9836b1e","ios":"levelo://app?vid=f961931a-fd68-4e84-bb87-d0e7b9836b1e"},"vehicle_type_id":"4","last_reported":1717337168,"current_range_meters":11200,"station_id":"ce4bh112rcd13ifvqd90","pricing_plan_id":"cebpf4jnsgd1na2vs0mg"},{"bike_id":"645eafee-e5d7-4fb2-bfb8-19c97e68bc12","system_id":"levelo_inurba_marseille","lat":43.284787,"lon":5.384116,"is_reserved":false,"is_disabled":false,"rental_uris":{"android":"levelo://app?vid=645eafee-e5d7-4fb2-bfb8-19c97e68bc12","ios":"levelo://app?vid=645eafee-e5d7-4fb2-bfb8-19c97e68bc12"},"vehicle_type_id":"4","last_reported":1717337168,"current_range_meters":21600,"station_id":"ce4bh512rcd13ifvqe3g","pricing_plan_id":"cebpf4jnsgd1na2vs0mg"},{"bike_id":"b14cbb0e-e42e-469e-acc1-42d32752640a","system_id":"levelo_inurba_marseille","lat":43.283494,"lon":5.380945,"is_reserved":false,"is_disabled":false,"rental_uris":{"android":"levelo://app?vid=b14cbb0e-e42e-469e-acc1-42d32752640a","ios":"levelo://app?vid=b14cbb0e-e42e-469e-acc1-42d32752640a"},"vehicle_type_id":"4","last_reported":1717337168,"current_range_meters":0,"station_id":"ce4bh412rcd13ifvqdr0","pricing_plan_id":"cebpf4jnsgd1na2vs0mg"},{"bike_id":"5fddbb61-3c1e-40ff-b55d-d6dda69321d2","system_id":"levelo_inurba_marseille","lat":43.284214,"lon":5.349706,"is_reserved":false,"is_disabled":false,"rental_uris":{"android":"levelo://app?vid=5fddbb61-3c1e-40ff-b55d-d6dda69321d2","ios":"levelo://app?vid=5fddbb61-3c1e-40ff-b55d-d6dda69321d2"},"vehicle_type_id":"4","last_reported":1717337168,"current_range_meters":5600,"station_id":"ce4bhbh2rcd13ifvqepg","pricing_plan_id":"cebpf4jnsgd1na2vs0mg"},{"bike_id":"99a18bd1-65e2-4bd3-bbee-46264fdd62a6","system_id":"levelo_inurba_marseille","lat":43.283498,"lon":5.380948,"is_reserved":false,"is_disabled":false,"rental_uris":{"android":"levelo://app?vid=99a18bd1-65e2-4bd3-bbee-46264fdd62a6","ios":"levelo://app?vid=99a18bd1-65e2-4bd3-bbee-46264fdd62a6"},"vehicle_type_id":"4","last_reported":1717337168,"current_range_meters":4000,"station_id":"ce4bh412rcd13ifvqdr0","pricing_plan_id":"cebpf4jnsgd1na2vs0mg"},{"bike_id":"5837ded6-6f74-4f9f-8edc-9b5a62c6a7c2","system_id":"levelo_inurba_marseille","lat":43.273125,"lon":5.390731,"is_reserved":false,"is_disabled":false,"rental_uris":{"android":"levelo://app?vid=5837ded6-6f74-4f9f-8edc-9b5a62c6a7c2","ios":"levelo://app?vid=5837ded6-6f74-4f9f-8edc-9b5a62c6a7c2"},"vehicle_type_id":"4","last_reported":1717337168,"current_range_meters":2400,"station_id":"ce4bhgp2rcd13ifvqfe0","pricing_plan_id":"cebpf4jnsgd1na2vs0mg"},{"bike_id":"396bb1fd-8eb6-41d4-8714-dd8030c5f323","system_id":"levelo_inurba_marseille","lat":43.28573,"lon":5.394992,"is_reserved":false,"is_disabled":false,"rental_uris":{"android":"levelo://app?vid=396bb1fd-8eb6-41d4-8714-dd8030c5f323","ios":"levelo://app?vid=396bb1fd-8eb6-41d4-8714-dd8030c5f323"},"vehicle_type_id":"4","last_reported":1717337168,"current_range_meters":9200,"station_id":"ce4bh292rcd13ifvqdg0","pricing_plan_id":"cebpf4jnsgd1na2vs0mg"},{"bike_id":"f6b24947-2ce0-46d1-b573-67219c17182b","system_id":"levelo_inurba_marseille","lat":43.284776,"lon":5.385603,"is_reserved":false,"is_disabled":false,"rental_uris":{"android":"levelo://app?vid=f6b24947-2ce0-46d1-b573-67219c17182b","ios":"levelo://app?vid=f6b24947-2ce0-46d1-b573-67219c17182b"},"vehicle_type_id":"4","last_reported":1717337168,"current_range_meters":0,"station_id":"ce4bh8p2rcd13ifvqeb0","pricing_plan_id":"cebpf4jnsgd1na2vs0mg"},{"bike_id":"0618269e-a37d-4e85-93ea-e27aa82c2aeb","system_id":"levelo_inurba_marseille","lat":43.284219,"lon":5.3497,"is_reserved":false,"is_disabled":false,"rental_uris":{"android":"levelo://app?vid=0618269e-a37d-4e85-93ea-e27aa82c2aeb","ios":"levelo://app?vid=0618269e-a37d-4e85-93ea-e27aa82c2aeb"},"vehicle_type_id":"4","last_reported":1717337168,"current_range_meters":17600,"station_id":"ce4bhbh2rcd13ifvqepg","pricing_plan_id":"cebpf4jnsgd1na2vs0mg"},{"bike_id":"0565dcf4-203f-4a16-8dec-b25b42d5d3d4","system_id":"levelo_inurba_marseille","lat":43.284219,"lon":5.3497,"is_reserved":false,"is_disabled":false,"rental_uris":{"android":"levelo://app?vid=0565dcf4-203f-4a16-8dec-b25b42d5d3d4","ios":"levelo://app?vid=0565dcf4-203f-4a16-8dec-b25b42d5d3d4"},"vehicle_type_id":"4","last_reported":1717337168,"current_range_meters":20000,"station_id":"ce4bhbh2rcd13ifvqepg","pricing_plan_id":"cebpf4jnsgd1na2vs0mg"},{"bike_id":"b7215365-293e-4897-a704-2d0fc993bd79","system_id":"levelo_inurba_marseille","lat":43.2842,"lon":5.35001,"is_reserved":false,"is_disabled":false,"rental_uris":{"android":"levelo://app?vid=b7215365-293e-4897-a704-2d0fc993bd79","ios":"levelo://app?vid=b7215365-293e-4897-a704-2d0fc993bd79"},"vehicle_type_id":"4","last_reported":1717337168,"current_range_meters":8800,"station_id":"ce4bhbh2rcd13ifvqepg","pricing_plan_id":"cebpf4jnsgd1na2vs0mg"},{"bike_id":"2b79d267-576e-4b7a-850a-79eab606c904","system_id":"levelo_inurba_marseille","lat":43.284219,"lon":5.3497,"is_reserved":false,"is_disabled":false,"rental_uris":{"android":"levelo://app?vid=2b79d267-576e-4b7a-850a-79eab606c904","ios":"levelo://app?vid=2b79d267-576e-4b7a-850a-79eab606c904"},"vehicle_type_id":"4","last_reported":1717337168,"current_range_meters":24800,"station_id":"ce4bhbh2rcd13ifvqepg","pricing_plan_id":"cebpf4jnsgd1na2vs0mg"},{"bike_id":"309e4b44-4ff3-45b4-a138-c713e758b3d8","system_id":"levelo_inurba_marseille","lat":43.284215,"lon":5.34991,"is_reserved":false,"is_disabled":false,"rental_uris":{"android":"levelo://app?vid=309e4b44-4ff3-45b4-a138-c713e758b3d8","ios":"levelo://app?vid=309e4b44-4ff3-45b4-a138-c713e758b3d8"},"vehicle_type_id":"4","last_reported":1717337168,"current_range_meters":15200,"station_id":"ce4bhbh2rcd13ifvqepg","pricing_plan_id":"cebpf4jnsgd1na2vs0mg"},{"bike_id":"6d7f0e12-a780-47d5-9a20-3e12dd6bbbd7","system_id":"levelo_inurba_marseille","lat":43.28423,"lon":5.34986,"is_reserved":false,"is_disabled":false,"rental_uris":{"android":"levelo://app?vid=6d7f0e12-a780-47d5-9a20-3e12dd6bbbd7","ios":"levelo://app?vid=6d7f0e12-a780-47d5-9a20-3e12dd6bbbd7"},"vehicle_type_id":"4","last_reported":1717337168,"current_range_meters":6400,"station_id":"","pricing_plan_id":"cebpf4jnsgd1na2vs0mg"},{"bike_id":"de579743-2897-41cc-a786-742140680b14","system_id":"levelo_inurba_marseille","lat":43.284219,"lon":5.3497,"is_reserved":false,"is_disabled":false,"rental_uris":{"android":"levelo://app?vid=de579743-2897-41cc-a786-742140680b14","ios":"levelo://app?vid=de579743-2897-41cc-a786-742140680b14"},"vehicle_type_id":"4","last_reported":1717337168,"current_range_meters":24800,"station_id":"ce4bhbh2rcd13ifvqepg","pricing_plan_id":"cebpf4jnsgd1na2vs0mg"},{"bike_id":"67a51507-a2f2-43af-9b29-6f150df7cbb7","system_id":"levelo_inurba_marseille","lat":43.284219,"lon":5.3497,"is_reserved":false,"is_disabled":false,"rental_uris":{"android":"levelo://app?vid=67a51507-a2f2-43af-9b29-6f150df7cbb7","ios":"levelo://app?vid=67a51507-a2f2-43af-9b29-6f150df7cbb7"},"vehicle_type_id":"4","last_reported":1717337168,"current_range_meters":31600,"station_id":"ce4bhbh2rcd13ifvqepg","pricing_plan_id":"cebpf4jnsgd1na2vs0mg"},{"bike_id":"79f47780-9d85-4545-af4e-1da5b48c31b3","system_id":"levelo_inurba_marseille","lat":43.284219,"lon":5.3497,"is_reserved":false,"is_disabled":false,"rental_uris":{"android":"levelo://app?vid=79f47780-9d85-4545-af4e-1da5b48c31b3","ios":"levelo://app?vid=79f47780-9d85-4545-af4e-1da5b48c31b3"},"vehicle_type_id":"4","last_reported":1717337168,"current_range_meters":24400,"station_id":"ce4bhbh2rcd13ifvqepg","pricing_plan_id":"cebpf4jnsgd1na2vs0mg"},{"bike_id":"65fe5214-afd7-40ef-85b0-97553ce1b3e3","system_id":"levelo_inurba_marseille","lat":43.284219,"lon":5.3497,"is_reserved":false,"is_disabled":false,"rental_uris":{"android":"levelo://app?vid=65fe5214-afd7-40ef-85b0-97553ce1b3e3","ios":"levelo://app?vid=65fe5214-afd7-40ef-85b0-97553ce1b3e3"},"vehicle_type_id":"4","last_reported":1717337168,"current_range_meters":20800,"station_id":"ce4bhbh2rcd13ifvqepg","pricing_plan_id":"cebpf4jnsgd1na2vs0mg"},{"bike_id":"ef401898-5769-4605-9547-40197d771822","system_id":"levelo_inurba_marseille","lat":43.2842,"lon":5.34989,"is_reserved":false,"is_disabled":false,"rental_uris":{"android":"levelo://app?vid=ef401898-5769-4605-9547-40197d771822","ios":"levelo://app?vid=ef401898-5769-4605-9547-40197d771822"},"vehicle_type_id":"4","last_reported":1717337168,"current_range_meters":1600,"station_id":"ce4bhbh2rcd13ifvqepg","pricing_plan_id":"cebpf4jnsgd1na2vs0mg"},{"bike_id":"4aa79431-920e-422d-8a07-a9c84a5ca538","system_id":"levelo_inurba_marseille","lat":43.28417,"lon":5.34992,"is_reserved":false,"is_disabled":false,"rental_uris":{"android":"levelo://app?vid=4aa79431-920e-422d-8a07-a9c84a5ca538","ios":"levelo://app?vid=4aa79431-920e-422d-8a07-a9c84a5ca538"},"vehicle_type_id":"4","last_reported":1717337168,"current_range_meters":8000,"station_id":"ce4bhbh2rcd13ifvqepg","pricing_plan_id":"cebpf4jnsgd1na2vs0mg"},{"bike_id":"8423b279-e19a-49db-81cb-af4ecd43830f","system_id":"levelo_inurba_marseille","lat":43.28422,"lon":5.34976,"is_reserved":false,"is_disabled":false,"rental_uris":{"android":"levelo://app?vid=8423b279-e19a-49db-81cb-af4ecd43830f","ios":"levelo://app?vid=8423b279-e19a-49db-81cb-af4ecd43830f"},"vehicle_type_id":"4","last_reported":1717337168,"current_range_meters":31200,"station_id":"","pricing_plan_id":"cebpf4jnsgd1na2vs0mg"},{"bike_id":"16381d1b-9f1f-4151-bee5-0c2ea382906a","system_id":"levelo_inurba_marseille","lat":43.284219,"lon":5.3497,"is_reserved":false,"is_disabled":false,"rental_uris":{"android":"levelo://app?vid=16381d1b-9f1f-4151-bee5-0c2ea382906a","ios":"levelo://app?vid=16381d1b-9f1f-4151-bee5-0c2ea382906a"},"vehicle_type_id":"4","last_reported":1717337168,"current_range_meters":24000,"station_id":"ce4bhbh2rcd13ifvqepg","pricing_plan_id":"cebpf4jnsgd1na2vs0mg"},{"bike_id":"4f74c835-73f8-4451-8fa6-4df1143f7e4f","system_id":"levelo_inurba_marseille","lat":43.284214,"lon":5.349706,"is_reserved":false,"is_disabled":false,"rental_uris":{"android":"levelo://app?vid=4f74c835-73f8-4451-8fa6-4df1143f7e4f","ios":"levelo://app?vid=4f74c835-73f8-4451-8fa6-4df1143f7e4f"},"vehicle_type_id":"4","last_reported":1717337168,"current_range_meters":6400,"station_id":"ce4bhbh2rcd13ifvqepg","pricing_plan_id":"cebpf4jnsgd1na2vs0mg"},{"bike_id":"7bbb856b-7176-4cb1-abf9-4861a245703d","system_id":"levelo_inurba_marseille","lat":43.284217,"lon":5.349697,"is_reserved":false,"is_disabled":false,"rental_uris":{"android":"levelo://app?vid=7bbb856b-7176-4cb1-abf9-4861a245703d","ios":"levelo://app?vid=7bbb856b-7176-4cb1-abf9-4861a245703d"},"vehicle_type_id":"4","last_reported":1717337168,"current_range_meters":28000,"station_id":"ce4bhbh2rcd13ifvqepg","pricing_plan_id":"cebpf4jnsgd1na2vs0mg"},{"bike_id":"d9ba2fec-a135-454f-bfe0-a377f5bf73bd","system_id":"levelo_inurba_marseille","lat":43.284217,"lon":5.349697,"is_reserved":false,"is_disabled":false,"rental_uris":{"android":"levelo://app?vid=d9ba2fec-a135-454f-bfe0-a377f5bf73bd","ios":"levelo://app?vid=d9ba2fec-a135-454f-bfe0-a377f5bf73bd"},"vehicle_type_id":"4","last_reported":1717337168,"current_range_meters":24400,"station_id":"ce4bhbh2rcd13ifvqepg","pricing_plan_id":"cebpf4jnsgd1na2vs0mg"},{"bike_id":"e5d633c7-a55b-4dda-a8d6-ee64f03195b6","system_id":"levelo_inurba_marseille","lat":43.284214,"lon":5.349706,"is_reserved":false,"is_disabled":false,"rental_uris":{"android":"levelo://app?vid=e5d633c7-a55b-4dda-a8d6-ee64f03195b6","ios":"levelo://app?vid=e5d633c7-a55b-4dda-a8d6-ee64f03195b6"},"vehicle_type_id":"4","last_reported":1717337168,"current_range_meters":0,"station_id":"ce4bhbh2rcd13ifvqepg","pricing_plan_id":"cebpf4jnsgd1na2vs0mg"},{"bike_id":"6977f5da-984a-479d-8a24-e974978e9a1d","system_id":"levelo_inurba_marseille","lat":43.284177,"lon":5.349799,"is_reserved":false,"is_disabled":false,"rental_uris":{"android":"levelo://app?vid=6977f5da-984a-479d-8a24-e974978e9a1d","ios":"levelo://app?vid=6977f5da-984a-479d-8a24-e974978e9a1d"},"vehicle_type_id":"4","last_reported":1717337168,"current_range_meters":18000,"station_id":"ce4bhbh2rcd13ifvqepg","pricing_plan_id":"cebpf4jnsgd1na2vs0mg"},{"bike_id":"73d92cf1-35dc-456c-a8c7-100e85d3bf51","system_id":"levelo_inurba_marseille","lat":43.28417,"lon":5.3498,"is_reserved":false,"is_disabled":false,"rental_uris":{"android":"levelo://app?vid=73d92cf1-35dc-456c-a8c7-100e85d3bf51","ios":"levelo://app?vid=73d92cf1-35dc-456c-a8c7-100e85d3bf51"},"vehicle_type_id":"4","last_reported":1717337168,"current_range_meters":1600,"station_id":"ce4bhbh2rcd13ifvqepg","pricing_plan_id":"cebpf4jnsgd1na2vs0mg"},{"bike_id":"9b4d0ae7-dbd3-4903-bef7-93a2fa2a1810","system_id":"levelo_inurba_marseille","lat":43.284217,"lon":5.349697,"is_reserved":false,"is_disabled":false,"rental_uris":{"android":"levelo://app?vid=9b4d0ae7-dbd3-4903-bef7-93a2fa2a1810","ios":"levelo://app?vid=9b4d0ae7-dbd3-4903-bef7-93a2fa2a1810"},"vehicle_type_id":"4","last_reported":1717337168,"current_range_meters":16400,"station_id":"ce4bhbh2rcd13ifvqepg","pricing_plan_id":"cebpf4jnsgd1na2vs0mg"},{"bike_id":"510e81e7-e75f-4d41-8ac4-20546fb11380","system_id":"levelo_inurba_marseille","lat":43.284217,"lon":5.349697,"is_reserved":false,"is_disabled":false,"rental_uris":{"android":"levelo://app?vid=510e81e7-e75f-4d41-8ac4-20546fb11380","ios":"levelo://app?vid=510e81e7-e75f-4d41-8ac4-20546fb11380"},"vehicle_type_id":"4","last_reported":1717337168,"current_range_meters":2800,"station_id":"ce4bhbh2rcd13ifvqepg","pricing_plan_id":"cebpf4jnsgd1na2vs0mg"},{"bike_id":"7c274c3f-1f2a-47bc-af4c-de23baf549bc","system_id":"levelo_inurba_marseille","lat":43.284155,"lon":5.349817,"is_reserved":false,"is_disabled":false,"rental_uris":{"android":"levelo://app?vid=7c274c3f-1f2a-47bc-af4c-de23baf549bc","ios":"levelo://app?vid=7c274c3f-1f2a-47bc-af4c-de23baf549bc"},"vehicle_type_id":"4","last_reported":1717337168,"current_range_meters":30000,"station_id":"ce4bhbh2rcd13ifvqepg","pricing_plan_id":"cebpf4jnsgd1na2vs0mg"},{"bike_id":"c808fdde-9078-4ad2-b4ad-b5e1f30ac191","system_id":"levelo_inurba_marseille","lat":43.284219,"lon":5.3497,"is_reserved":false,"is_disabled":false,"rental_uris":{"android":"levelo://app?vid=c808fdde-9078-4ad2-b4ad-b5e1f30ac191","ios":"levelo://app?vid=c808fdde-9078-4ad2-b4ad-b5e1f30ac191"},"vehicle_type_id":"4","last_reported":1717337168,"current_range_meters":24400,"station_id":"ce4bhbh2rcd13ifvqepg","pricing_plan_id":"cebpf4jnsgd1na2vs0mg"},{"bike_id":"44e6cdb7-2ac1-409e-bd3b-0a674325ced8","system_id":"levelo_inurba_marseille","lat":43.284214,"lon":5.349706,"is_reserved":false,"is_disabled":false,"rental_uris":{"android":"levelo://app?vid=44e6cdb7-2ac1-409e-bd3b-0a674325ced8","ios":"levelo://app?vid=44e6cdb7-2ac1-409e-bd3b-0a674325ced8"},"vehicle_type_id":"4","last_reported":1717337168,"current_range_meters":1600,"station_id":"ce4bhbh2rcd13ifvqepg","pricing_plan_id":"cebpf4jnsgd1na2vs0mg"},{"bike_id":"4a3c5e22-14aa-491e-83eb-58f3f9dc4027","system_id":"levelo_inurba_marseille","lat":43.284219,"lon":5.3497,"is_reserved":false,"is_disabled":false,"rental_uris":{"android":"levelo://app?vid=4a3c5e22-14aa-491e-83eb-58f3f9dc4027","ios":"levelo://app?vid=4a3c5e22-14aa-491e-83eb-58f3f9dc4027"},"vehicle_type_id":"4","last_reported":1717337168,"current_range_meters":15600,"station_id":"ce4bhbh2rcd13ifvqepg","pricing_plan_id":"cebpf4jnsgd1na2vs0mg"},{"bike_id":"d44daae6-549e-4fa6-ad41-d033922393c4","system_id":"levelo_inurba_marseille","lat":43.28417,"lon":5.34966,"is_reserved":false,"is_disabled":false,"rental_uris":{"android":"levelo://app?vid=d44daae6-549e-4fa6-ad41-d033922393c4","ios":"levelo://app?vid=d44daae6-549e-4fa6-ad41-d033922393c4"},"vehicle_type_id":"4","last_reported":1717337168,"current_range_meters":0,"station_id":"ce4bhbh2rcd13ifvqepg","pricing_plan_id":"cebpf4jnsgd1na2vs0mg"},{"bike_id":"5305e2db-7c22-4171-b52b-b52ab1dd9c29","system_id":"levelo_inurba_marseille","lat":43.2841,"lon":5.34986,"is_reserved":false,"is_disabled":false,"rental_uris":{"android":"levelo://app?vid=5305e2db-7c22-4171-b52b-b52ab1dd9c29","ios":"levelo://app?vid=5305e2db-7c22-4171-b52b-b52ab1dd9c29"},"vehicle_type_id":"4","last_reported":1717337168,"current_range_meters":31600,"station_id":"ce4bhbh2rcd13ifvqepg","pricing_plan_id":"cebpf4jnsgd1na2vs0mg"},{"bike_id":"b5f00cf1-847e-40f3-9847-7526555aa8eb","system_id":"levelo_inurba_marseille","lat":43.283494,"lon":5.380945,"is_reserved":false,"is_disabled":false,"rental_uris":{"android":"levelo://app?vid=b5f00cf1-847e-40f3-9847-7526555aa8eb","ios":"levelo://app?vid=b5f00cf1-847e-40f3-9847-7526555aa8eb"},"vehicle_type_id":"4","last_reported":1717337168,"current_range_meters":21200,"station_id":"ce4bh412rcd13ifvqdr0","pricing_plan_id":"cebpf4jnsgd1na2vs0mg"},{"bike_id":"4ce85e64-59f0-4b22-9926-6bf53ed6700e","system_id":"levelo_inurba_marseille","lat":43.292724,"lon":5.401131,"is_reserved":false,"is_disabled":false,"rental_uris":{"android":"levelo://app?vid=4ce85e64-59f0-4b22-9926-6bf53ed6700e","ios":"levelo://app?vid=4ce85e64-59f0-4b22-9926-6bf53ed6700e"},"vehicle_type_id":"4","last_reported":1717337168,"current_range_meters":0,"station_id":"ce4bh312rcd13ifvqdk0","pricing_plan_id":"cebpf4jnsgd1na2vs0mg"},{"bike_id":"84278b29-ef66-494d-b533-53d7e974efab","system_id":"levelo_inurba_marseille","lat":43.292724,"lon":5.401131,"is_reserved":false,"is_disabled":false,"rental_uris":{"android":"levelo://app?vid=84278b29-ef66-494d-b533-53d7e974efab","ios":"levelo://app?vid=84278b29-ef66-494d-b533-53d7e974efab"},"vehicle_type_id":"4","last_reported":1717337168,"current_range_meters":1200,"station_id":"ce4bh312rcd13ifvqdk0","pricing_plan_id":"cebpf4jnsgd1na2vs0mg"},{"bike_id":"9de89402-1d33-42af-8cac-9c7e74642e0d","system_id":"levelo_inurba_marseille","lat":43.28278,"lon":5.35068,"is_reserved":false,"is_disabled":false,"rental_uris":{"android":"levelo://app?vid=9de89402-1d33-42af-8cac-9c7e74642e0d","ios":"levelo://app?vid=9de89402-1d33-42af-8cac-9c7e74642e0d"},"vehicle_type_id":"4","last_reported":1717337168,"current_range_meters":30800,"station_id":"ce4bhbp2rcd13ifvqerg","pricing_plan_id":"cebpf4jnsgd1na2vs0mg"},{"bike_id":"995d656f-b3ec-42ff-829b-97e31a6d5ac1","system_id":"levelo_inurba_marseille","lat":43.28274,"lon":5.35072,"is_reserved":false,"is_disabled":false,"rental_uris":{"android":"levelo://app?vid=995d656f-b3ec-42ff-829b-97e31a6d5ac1","ios":"levelo://app?vid=995d656f-b3ec-42ff-829b-97e31a6d5ac1"},"vehicle_type_id":"4","last_reported":1717337168,"current_range_meters":25200,"station_id":"ce4bhbp2rcd13ifvqerg","pricing_plan_id":"cebpf4jnsgd1na2vs0mg"},{"bike_id":"44818ef4-ac29-4677-b934-8df8b5bdff24","system_id":"levelo_inurba_marseille","lat":43.282744,"lon":5.350533,"is_reserved":false,"is_disabled":false,"rental_uris":{"android":"levelo://app?vid=44818ef4-ac29-4677-b934-8df8b5bdff24","ios":"levelo://app?vid=44818ef4-ac29-4677-b934-8df8b5bdff24"},"vehicle_type_id":"4","last_reported":1717337168,"current_range_meters":0,"station_id":"ce4bhbp2rcd13ifvqerg","pricing_plan_id":"cebpf4jnsgd1na2vs0mg"},{"bike_id":"da66dc76-dd6b-4724-9da2-bafa84f83d58","system_id":"levelo_inurba_marseille","lat":43.28271,"lon":5.3508,"is_reserved":false,"is_disabled":false,"rental_uris":{"android":"levelo://app?vid=da66dc76-dd6b-4724-9da2-bafa84f83d58","ios":"levelo://app?vid=da66dc76-dd6b-4724-9da2-bafa84f83d58"},"vehicle_type_id":"4","last_reported":1717337168,"current_range_meters":6800,"station_id":"ce4bhbp2rcd13ifvqerg","pricing_plan_id":"cebpf4jnsgd1na2vs0mg"},{"bike_id":"14b54302-e6d7-4ab3-996d-7fb6b188f811","system_id":"levelo_inurba_marseille","lat":43.28273,"lon":5.35072,"is_reserved":false,"is_disabled":false,"rental_uris":{"android":"levelo://app?vid=14b54302-e6d7-4ab3-996d-7fb6b188f811","ios":"levelo://app?vid=14b54302-e6d7-4ab3-996d-7fb6b188f811"},"vehicle_type_id":"4","last_reported":1717337168,"current_range_meters":10800,"station_id":"ce4bhbp2rcd13ifvqerg","pricing_plan_id":"cebpf4jnsgd1na2vs0mg"},{"bike_id":"b8cda5c9-5bc3-41c3-83e1-5f31b7897ece","system_id":"levelo_inurba_marseille","lat":43.28275,"lon":5.35064,"is_reserved":false,"is_disabled":false,"rental_uris":{"android":"levelo://app?vid=b8cda5c9-5bc3-41c3-83e1-5f31b7897ece","ios":"levelo://app?vid=b8cda5c9-5bc3-41c3-83e1-5f31b7897ece"},"vehicle_type_id":"4","last_reported":1717337168,"current_range_meters":800,"station_id":"ce4bhbp2rcd13ifvqerg","pricing_plan_id":"cebpf4jnsgd1na2vs0mg"},{"bike_id":"5424cb95-e424-4dcf-92ec-62e5d035c80c","system_id":"levelo_inurba_marseille","lat":43.282722,"lon":5.350734,"is_reserved":false,"is_disabled":false,"rental_uris":{"android":"levelo://app?vid=5424cb95-e424-4dcf-92ec-62e5d035c80c","ios":"levelo://app?vid=5424cb95-e424-4dcf-92ec-62e5d035c80c"},"vehicle_type_id":"4","last_reported":1717337168,"current_range_meters":10800,"station_id":"ce4bhbp2rcd13ifvqerg","pricing_plan_id":"cebpf4jnsgd1na2vs0mg"},{"bike_id":"f4a8c827-2a80-4231-8f56-8e334031a25f","system_id":"levelo_inurba_marseille","lat":43.283502,"lon":5.386471,"is_reserved":false,"is_disabled":false,"rental_uris":{"android":"levelo://app?vid=f4a8c827-2a80-4231-8f56-8e334031a25f","ios":"levelo://app?vid=f4a8c827-2a80-4231-8f56-8e334031a25f"},"vehicle_type_id":"4","last_reported":1717337168,"current_range_meters":2400,"station_id":"ce4bh492rcd13ifvqdvg","pricing_plan_id":"cebpf4jnsgd1na2vs0mg"},{"bike_id":"cc473b0b-0771-4eb6-821c-73f844f41b02","system_id":"levelo_inurba_marseille","lat":43.283502,"lon":5.386471,"is_reserved":false,"is_disabled":false,"rental_uris":{"android":"levelo://app?vid=cc473b0b-0771-4eb6-821c-73f844f41b02","ios":"levelo://app?vid=cc473b0b-0771-4eb6-821c-73f844f41b02"},"vehicle_type_id":"4","last_reported":1717337168,"current_range_meters":7600,"station_id":"ce4bh492rcd13ifvqdvg","pricing_plan_id":"cebpf4jnsgd1na2vs0mg"},{"bike_id":"7bb981e6-d0e4-418f-93c4-47f97604f4f9","system_id":"levelo_inurba_marseille","lat":43.282732,"lon":5.350645,"is_reserved":false,"is_disabled":false,"rental_uris":{"android":"levelo://app?vid=7bb981e6-d0e4-418f-93c4-47f97604f4f9","ios":"levelo://app?vid=7bb981e6-d0e4-418f-93c4-47f97604f4f9"},"vehicle_type_id":"4","last_reported":1717337168,"current_range_meters":31200,"station_id":"ce4bhbp2rcd13ifvqerg","pricing_plan_id":"cebpf4jnsgd1na2vs0mg"},{"bike_id":"bbc93ebf-541d-43a1-9785-cfb6dc6b6385","system_id":"levelo_inurba_marseille","lat":43.283502,"lon":5.386471,"is_reserved":false,"is_disabled":false,"rental_uris":{"android":"levelo://app?vid=bbc93ebf-541d-43a1-9785-cfb6dc6b6385","ios":"levelo://app?vid=bbc93ebf-541d-43a1-9785-cfb6dc6b6385"},"vehicle_type_id":"4","last_reported":1717337168,"current_range_meters":8000,"station_id":"ce4bh492rcd13ifvqdvg","pricing_plan_id":"cebpf4jnsgd1na2vs0mg"},{"bike_id":"809e26da-25a7-4c6b-a54b-bbbc38620129","system_id":"levelo_inurba_marseille","lat":43.282754,"lon":5.350519,"is_reserved":false,"is_disabled":false,"rental_uris":{"android":"levelo://app?vid=809e26da-25a7-4c6b-a54b-bbbc38620129","ios":"levelo://app?vid=809e26da-25a7-4c6b-a54b-bbbc38620129"},"vehicle_type_id":"4","last_reported":1717337168,"current_range_meters":19600,"station_id":"ce4bhbp2rcd13ifvqerg","pricing_plan_id":"cebpf4jnsgd1na2vs0mg"},{"bike_id":"3f3b3903-3d50-4f1c-9137-f6723a369229","system_id":"levelo_inurba_marseille","lat":43.2827,"lon":5.35058,"is_reserved":false,"is_disabled":false,"rental_uris":{"android":"levelo://app?vid=3f3b3903-3d50-4f1c-9137-f6723a369229","ios":"levelo://app?vid=3f3b3903-3d50-4f1c-9137-f6723a369229"},"vehicle_type_id":"4","last_reported":1717337168,"current_range_meters":1600,"station_id":"ce4bhbp2rcd13ifvqerg","pricing_plan_id":"cebpf4jnsgd1na2vs0mg"},{"bike_id":"5f7c4b2f-d3a7-4c9c-b424-a9d7d16c8f94","system_id":"levelo_inurba_marseille","lat":43.282698,"lon":5.350579,"is_reserved":false,"is_disabled":false,"rental_uris":{"android":"levelo://app?vid=5f7c4b2f-d3a7-4c9c-b424-a9d7d16c8f94","ios":"levelo://app?vid=5f7c4b2f-d3a7-4c9c-b424-a9d7d16c8f94"},"vehicle_type_id":"4","last_reported":1717337168,"current_range_meters":11600,"station_id":"ce4bhbp2rcd13ifvqerg","pricing_plan_id":"cebpf4jnsgd1na2vs0mg"},{"bike_id":"8f5c56bf-93bc-4ab2-969e-51f89ed4a431","system_id":"levelo_inurba_marseille","lat":43.28266,"lon":5.35071,"is_reserved":false,"is_disabled":false,"rental_uris":{"android":"levelo://app?vid=8f5c56bf-93bc-4ab2-969e-51f89ed4a431","ios":"levelo://app?vid=8f5c56bf-93bc-4ab2-969e-51f89ed4a431"},"vehicle_type_id":"4","last_reported":1717337168,"current_range_meters":0,"station_id":"ce4bhbp2rcd13ifvqerg","pricing_plan_id":"cebpf4jnsgd1na2vs0mg"},{"bike_id":"1893db89-6096-451b-87ff-c2c96aed1cbd","system_id":"levelo_inurba_marseille","lat":43.28266,"lon":5.3507,"is_reserved":false,"is_disabled":false,"rental_uris":{"android":"levelo://app?vid=1893db89-6096-451b-87ff-c2c96aed1cbd","ios":"levelo://app?vid=1893db89-6096-451b-87ff-c2c96aed1cbd"},"vehicle_type_id":"4","last_reported":1717337168,"current_range_meters":12400,"station_id":"ce4bhbp2rcd13ifvqerg","pricing_plan_id":"cebpf4jnsgd1na2vs0mg"},{"bike_id":"f94191fe-bf40-476e-84af-1cc1e2328928","system_id":"levelo_inurba_marseille","lat":43.283502,"lon":5.386471,"is_reserved":false,"is_disabled":false,"rental_uris":{"android":"levelo://app?vid=f94191fe-bf40-476e-84af-1cc1e2328928","ios":"levelo://app?vid=f94191fe-bf40-476e-84af-1cc1e2328928"},"vehicle_type_id":"4","last_reported":1717337168,"current_range_meters":31200,"station_id":"ce4bh492rcd13ifvqdvg","pricing_plan_id":"cebpf4jnsgd1na2vs0mg"},{"bike_id":"6c0c1cbb-c86a-41bb-9d1a-c628998b2d33","system_id":"levelo_inurba_marseille","lat":43.28268,"lon":5.35061,"is_reserved":false,"is_disabled":false,"rental_uris":{"android":"levelo://app?vid=6c0c1cbb-c86a-41bb-9d1a-c628998b2d33","ios":"levelo://app?vid=6c0c1cbb-c86a-41bb-9d1a-c628998b2d33"},"vehicle_type_id":"4","last_reported":1717337168,"current_range_meters":0,"station_id":"ce4bhbp2rcd13ifvqerg","pricing_plan_id":"cebpf4jnsgd1na2vs0mg"},{"bike_id":"47fe009e-051c-4edf-a958-73c77de45e8d","system_id":"levelo_inurba_marseille","lat":43.28267,"lon":5.35064,"is_reserved":false,"is_disabled":false,"rental_uris":{"android":"levelo://app?vid=47fe009e-051c-4edf-a958-73c77de45e8d","ios":"levelo://app?vid=47fe009e-051c-4edf-a958-73c77de45e8d"},"vehicle_type_id":"4","last_reported":1717337168,"current_range_meters":28000,"station_id":"ce4bhbp2rcd13ifvqerg","pricing_plan_id":"cebpf4jnsgd1na2vs0mg"},{"bike_id":"78ca9f8d-5ae2-4a01-ad5d-191ca3a42541","system_id":"levelo_inurba_marseille","lat":43.282675,"lon":5.350589,"is_reserved":false,"is_disabled":false,"rental_uris":{"android":"levelo://app?vid=78ca9f8d-5ae2-4a01-ad5d-191ca3a42541","ios":"levelo://app?vid=78ca9f8d-5ae2-4a01-ad5d-191ca3a42541"},"vehicle_type_id":"4","last_reported":1717337168,"current_range_meters":24800,"station_id":"ce4bhbp2rcd13ifvqerg","pricing_plan_id":"cebpf4jnsgd1na2vs0mg"},{"bike_id":"b1ff1098-ac65-47a5-b969-d3a1cc12e842","system_id":"levelo_inurba_marseille","lat":43.28265,"lon":5.35067,"is_reserved":false,"is_disabled":false,"rental_uris":{"android":"levelo://app?vid=b1ff1098-ac65-47a5-b969-d3a1cc12e842","ios":"levelo://app?vid=b1ff1098-ac65-47a5-b969-d3a1cc12e842"},"vehicle_type_id":"4","last_reported":1717337168,"current_range_meters":10800,"station_id":"ce4bhbp2rcd13ifvqerg","pricing_plan_id":"cebpf4jnsgd1na2vs0mg"},{"bike_id":"d117cdfe-cbec-4fd1-a731-fe320a5068b3","system_id":"levelo_inurba_marseille","lat":43.28267,"lon":5.3506,"is_reserved":false,"is_disabled":false,"rental_uris":{"android":"levelo://app?vid=d117cdfe-cbec-4fd1-a731-fe320a5068b3","ios":"levelo://app?vid=d117cdfe-cbec-4fd1-a731-fe320a5068b3"},"vehicle_type_id":"4","last_reported":1717337168,"current_range_meters":0,"station_id":"ce4bhbp2rcd13ifvqerg","pricing_plan_id":"cebpf4jnsgd1na2vs0mg"},{"bike_id":"3dc5f81e-6909-4cf3-a98e-a057d145b724","system_id":"levelo_inurba_marseille","lat":43.283502,"lon":5.386471,"is_reserved":false,"is_disabled":false,"rental_uris":{"android":"levelo://app?vid=3dc5f81e-6909-4cf3-a98e-a057d145b724","ios":"levelo://app?vid=3dc5f81e-6909-4cf3-a98e-a057d145b724"},"vehicle_type_id":"4","last_reported":1717337168,"current_range_meters":14400,"station_id":"ce4bh492rcd13ifvqdvg","pricing_plan_id":"cebpf4jnsgd1na2vs0mg"},{"bike_id":"0eb9f457-5b61-47c8-b7ee-a457b71b2921","system_id":"levelo_inurba_marseille","lat":43.28268,"lon":5.35054,"is_reserved":false,"is_disabled":false,"rental_uris":{"android":"levelo://app?vid=0eb9f457-5b61-47c8-b7ee-a457b71b2921","ios":"levelo://app?vid=0eb9f457-5b61-47c8-b7ee-a457b71b2921"},"vehicle_type_id":"4","last_reported":1717337168,"current_range_meters":0,"station_id":"ce4bhbp2rcd13ifvqerg","pricing_plan_id":"cebpf4jnsgd1na2vs0mg"},{"bike_id":"f1d46a34-5d79-41ca-820a-c077c15eeb4c","system_id":"levelo_inurba_marseille","lat":43.28263,"lon":5.35065,"is_reserved":false,"is_disabled":false,"rental_uris":{"android":"levelo://app?vid=f1d46a34-5d79-41ca-820a-c077c15eeb4c","ios":"levelo://app?vid=f1d46a34-5d79-41ca-820a-c077c15eeb4c"},"vehicle_type_id":"4","last_reported":1717337168,"current_range_meters":23200,"station_id":"ce4bhbp2rcd13ifvqerg","pricing_plan_id":"cebpf4jnsgd1na2vs0mg"},{"bike_id":"1c901bba-e527-40e2-892c-4a897b6ea81a","system_id":"levelo_inurba_marseille","lat":43.282744,"lon":5.350533,"is_reserved":false,"is_disabled":false,"rental_uris":{"android":"levelo://app?vid=1c901bba-e527-40e2-892c-4a897b6ea81a","ios":"levelo://app?vid=1c901bba-e527-40e2-892c-4a897b6ea81a"},"vehicle_type_id":"4","last_reported":1717337168,"current_range_meters":26400,"station_id":"ce4bhbp2rcd13ifvqerg","pricing_plan_id":"cebpf4jnsgd1na2vs0mg"},{"bike_id":"5de2117a-d656-404f-a750-fb20c0524089","system_id":"levelo_inurba_marseille","lat":43.282744,"lon":5.350533,"is_reserved":false,"is_disabled":false,"rental_uris":{"android":"levelo://app?vid=5de2117a-d656-404f-a750-fb20c0524089","ios":"levelo://app?vid=5de2117a-d656-404f-a750-fb20c0524089"},"vehicle_type_id":"4","last_reported":1717337168,"current_range_meters":18400,"station_id":"ce4bhbp2rcd13ifvqerg","pricing_plan_id":"cebpf4jnsgd1na2vs0mg"},{"bike_id":"e2642f19-cae3-4d61-85c5-fc2c403ac915","system_id":"levelo_inurba_marseille","lat":43.290412,"lon":5.399633,"is_reserved":false,"is_disabled":false,"rental_uris":{"android":"levelo://app?vid=e2642f19-cae3-4d61-85c5-fc2c403ac915","ios":"levelo://app?vid=e2642f19-cae3-4d61-85c5-fc2c403ac915"},"vehicle_type_id":"4","last_reported":1717337168,"current_range_meters":15600,"station_id":"ce4bh392rcd13ifvqdm0","pricing_plan_id":"cebpf4jnsgd1na2vs0mg"},{"bike_id":"a3d76369-b83e-4801-b499-eed1a0e20833","system_id":"levelo_inurba_marseille","lat":43.29041,"lon":5.399634,"is_reserved":false,"is_disabled":false,"rental_uris":{"android":"levelo://app?vid=a3d76369-b83e-4801-b499-eed1a0e20833","ios":"levelo://app?vid=a3d76369-b83e-4801-b499-eed1a0e20833"},"vehicle_type_id":"4","last_reported":1717337168,"current_range_meters":8000,"station_id":"ce4bh392rcd13ifvqdm0","pricing_plan_id":"cebpf4jnsgd1na2vs0mg"},{"bike_id":"bcceda08-7a40-41dd-b331-1b68acc4b581","system_id":"levelo_inurba_marseille","lat":43.281044,"lon":5.378308,"is_reserved":false,"is_disabled":false,"rental_uris":{"android":"levelo://app?vid=bcceda08-7a40-41dd-b331-1b68acc4b581","ios":"levelo://app?vid=bcceda08-7a40-41dd-b331-1b68acc4b581"},"vehicle_type_id":"4","last_reported":1717337168,"current_range_meters":12400,"station_id":"ce4bha12rcd13ifvqee0","pricing_plan_id":"cebpf4jnsgd1na2vs0mg"},{"bike_id":"1127aebe-ffdd-49c5-a237-24d0334d8785","system_id":"levelo_inurba_marseille","lat":43.281044,"lon":5.378308,"is_reserved":false,"is_disabled":false,"rental_uris":{"android":"levelo://app?vid=1127aebe-ffdd-49c5-a237-24d0334d8785","ios":"levelo://app?vid=1127aebe-ffdd-49c5-a237-24d0334d8785"},"vehicle_type_id":"4","last_reported":1717337168,"current_range_meters":6400,"station_id":"ce4bha12rcd13ifvqee0","pricing_plan_id":"cebpf4jnsgd1na2vs0mg"},{"bike_id":"b124a47c-0a97-4e0a-938e-566a0f0fb019","system_id":"levelo_inurba_marseille","lat":43.326605,"lon":5.409903,"is_reserved":false,"is_disabled":false,"rental_uris":{"android":"levelo://app?vid=b124a47c-0a97-4e0a-938e-566a0f0fb019","ios":"levelo://app?vid=b124a47c-0a97-4e0a-938e-566a0f0fb019"},"vehicle_type_id":"4","last_reported":1717337168,"current_range_meters":9600,"station_id":"ce4bhpp2rcd13ifvqhgg","pricing_plan_id":"cebpf4jnsgd1na2vs0mg"},{"bike_id":"111b6ff5-8478-4156-9fd1-88cc7d4c2d38","system_id":"levelo_inurba_marseille","lat":43.326605,"lon":5.409903,"is_reserved":false,"is_disabled":false,"rental_uris":{"android":"levelo://app?vid=111b6ff5-8478-4156-9fd1-88cc7d4c2d38","ios":"levelo://app?vid=111b6ff5-8478-4156-9fd1-88cc7d4c2d38"},"vehicle_type_id":"4","last_reported":1717337168,"current_range_meters":9600,"station_id":"ce4bhpp2rcd13ifvqhgg","pricing_plan_id":"cebpf4jnsgd1na2vs0mg"},{"bike_id":"58559c12-4fb5-4bc0-9c05-b75bebb759c6","system_id":"levelo_inurba_marseille","lat":43.28057,"lon":5.34964,"is_reserved":false,"is_disabled":false,"rental_uris":{"android":"levelo://app?vid=58559c12-4fb5-4bc0-9c05-b75bebb759c6","ios":"levelo://app?vid=58559c12-4fb5-4bc0-9c05-b75bebb759c6"},"vehicle_type_id":"4","last_reported":1717337168,"current_range_meters":17600,"station_id":"","pricing_plan_id":"cebpf4jnsgd1na2vs0mg"},{"bike_id":"808218d3-804e-44fe-bc51-fbb316ff16ac","system_id":"levelo_inurba_marseille","lat":43.304188,"lon":5.412904,"is_reserved":false,"is_disabled":false,"rental_uris":{"android":"levelo://app?vid=808218d3-804e-44fe-bc51-fbb316ff16ac","ios":"levelo://app?vid=808218d3-804e-44fe-bc51-fbb316ff16ac"},"vehicle_type_id":"4","last_reported":1717337168,"current_range_meters":19600,"station_id":"ce4bhop2rcd13ifvqh8g","pricing_plan_id":"cebpf4jnsgd1na2vs0mg"},{"bike_id":"91a32ef0-1f8a-4a4b-b40f-a0b65a7759a9","system_id":"levelo_inurba_marseille","lat":43.279087,"lon":5.380114,"is_reserved":false,"is_disabled":false,"rental_uris":{"android":"levelo://app?vid=91a32ef0-1f8a-4a4b-b40f-a0b65a7759a9","ios":"levelo://app?vid=91a32ef0-1f8a-4a4b-b40f-a0b65a7759a9"},"vehicle_type_id":"4","last_reported":1717337168,"current_range_meters":8000,"station_id":"ce4bhf92rcd13ifvqf50","pricing_plan_id":"cebpf4jnsgd1na2vs0mg"},{"bike_id":"109b1bdc-1eca-42f2-a7cf-22f7048a9a04","system_id":"levelo_inurba_marseille","lat":43.283502,"lon":5.386471,"is_reserved":false,"is_disabled":false,"rental_uris":{"android":"levelo://app?vid=109b1bdc-1eca-42f2-a7cf-22f7048a9a04","ios":"levelo://app?vid=109b1bdc-1eca-42f2-a7cf-22f7048a9a04"},"vehicle_type_id":"4","last_reported":1717337168,"current_range_meters":5200,"station_id":"ce4bh492rcd13ifvqdvg","pricing_plan_id":"cebpf4jnsgd1na2vs0mg"},{"bike_id":"fef34607-5b7a-498c-bc27-a035fddf7904","system_id":"levelo_inurba_marseille","lat":43.279087,"lon":5.380114,"is_reserved":false,"is_disabled":false,"rental_uris":{"android":"levelo://app?vid=fef34607-5b7a-498c-bc27-a035fddf7904","ios":"levelo://app?vid=fef34607-5b7a-498c-bc27-a035fddf7904"},"vehicle_type_id":"4","last_reported":1717337168,"current_range_meters":2000,"station_id":"ce4bhf92rcd13ifvqf50","pricing_plan_id":"cebpf4jnsgd1na2vs0mg"},