{"last_updated":1731431272,"ttl":60,"version":"2.2","data":{"bikes":[{"bike_id":"4ecf88c0-77a6-4268-b158-1994aec5c096","system_id":"levelo_inurba_marseille","lat":43.31072,"lon":5.40092,"is_reserved":false,"is_disabled":false,"rental_uris":{"android":"levelo://app?vid=4ecf88c0-77a6-4268-b158-1994aec5c096","ios":"levelo://app?vid=4ecf88c0-77a6-4268-b158-1994aec5c096"},"vehicle_type_id":"4","last_reported":1731431272,"current_range_meters":4400,"station_id":"","pricing_plan_id":"cebpf4jnsgd1na2vs0mg"},{"bike_id":"9321cc4c-b7b8-4621-99af-a090505f2af8","system_id":"levelo_inurba_marseille","lat":43.28407,"lon":5.37521,"is_reserved":false,"is_disabled":false,"rental_uris":{"android":"levelo://app?vid=9321cc4c-b7b8-4621-99af-a090505f2af8","ios":"levelo://app?vid=9321cc4c-b7b8-4621-99af-a090505f2af8"},"vehicle_type_id":"4","last_reported":1731431272,"current_range_meters":3600,"station_id":"ce4bh412rcd13ifvqds0","pricing_plan_id":"cebpf4jnsgd1na2vs0mg"},{"bike_id":"73d668ca-637c-4be3-9004-0b2abcc3f9ae","system_id":"levelo_inurba_marseille","lat":43.26681,"lon":5.38272,"is_reserved":false,"is_disabled":false,"rental_uris":{"android":"levelo://app?vid=73d668ca-637c-4be3-9004-0b2abcc3f9ae","ios":"levelo://app?vid=73d668ca-637c-4be3-9004-0b2abcc3f9ae"},"vehicle_type_id":"4","last_reported":1731431272,"current_range_meters":8400,"station_id":"ce4bhg92rcd13ifvqf90","pricing_plan_id":"cebpf4jnsgd1na2vs0mg"},{"bike_id":"e7e760f4-0019-498a-b40d-00c414583455","system_id":"levelo_inurba_marseille","lat":43.32335,"lon":5.40628,"is_reserved":false,"is_disabled":false,"rental_uris":{"android":"levelo://app?vid=e7e760f4-0019-498a-b40d-00c414583455","ios":"levelo://app?vid=e7e760f4-0019-498a-b40d-00c414583455"},"vehicle_type_id":"4","last_reported":1731431272,"current_range_meters":6400,"station_id":"ce4bhq92rcd13ifvqhjg","pricing_plan_id":"cebpf4jnsgd1na2vs0mg"},{"bike_id":"c6b0ac6f-bcfd-411d-9922-0c6ff5ae9b5a","system_id":"levelo_inurba_marseille","lat":43.24389,"lon":5.37059,"is_reserved":false,"is_disabled":false,"rental_uris":{"android":"levelo://app?vid=c6b0ac6f-bcfd-411d-9922-0c6ff5ae9b5a","ios":"levelo://app?vid=c6b0ac6f-bcfd-411d-9922-0c6ff5ae9b5a"},"vehicle_type_id":"4","last_reported":1731431272,"current_range_meters":36000,"station_id":"ce4bhhh2rcd13ifvqfk0","pricing_plan_id":"cebpf4jnsgd1na2vs0mg"},{"bike_id":"d336610c-8590-441d-9510-6c1bf5000cdd","system_id":"levelo_inurba_marseille","lat":43.26947,"lon":5.40249,"is_reserved":false,"is_disabled":false,"rental_uris":{"android":"levelo://app?vid=d336610c-8590-441d-9510-6c1bf5000cdd","ios":"levelo://app?vid=d336610c-8590-441d-9510-6c1bf5000cdd"},"vehicle_type_id":"4","last_reported":1731431272,"current_range_meters":36800,"station_id":"cjm6bp8fraef2m0cb0m0","pricing_plan_id":"cebpf4jnsgd1na2vs0mg"},{"bike_id":"4ed35403-5ac4-4371-a30a-a3239d5101e8","system_id":"levelo_inurba_marseille","lat":43.23961,"lon":5.36634,"is_reserved":false,"is_disabled":false,"rental_uris":{"android":"levelo://app?vid=4ed35403-5ac4-4371-a30a-a3239d5101e8","ios":"levelo://app?vid=4ed35403-5ac4-4371-a30a-a3239d5101e8"},"vehicle_type_id":"4","last_reported":1731431272,"current_range_meters":24800,"station_id":"ce4bhi12rcd13ifvqfp0","pricing_plan_id":"cebpf4jnsgd1na2vs0mg"},{"bike_id":"6eb5534c-ad14-426b-92ce-bbe983a67828","system_id":"levelo_inurba_marseille","lat":43.287842,"lon":5.362542,"is_reserved":false,"is_disabled":false,"rental_uris":{"android":"levelo://app?vid=6eb5534c-ad14-426b-92ce-bbe983a67828","ios":"levelo://app?vid=6eb5534c-ad14-426b-92ce-bbe983a67828"},"vehicle_type_id":"4","last_reported":1731431272,"current_range_meters":32800,"station_id":"cki0cbj6b192h4jlfktg","pricing_plan_id":"cebpf4jnsgd1na2vs0mg"},{"bike_id":"18600b65-d922-4b26-8018-34b1e4d05724","system_id":"levelo_inurba_marseille","lat":43.27822,"lon":5.40716,"is_reserved":false,"is_disabled":false,"rental_uris":{"android":"levelo://app?vid=18600b65-d922-4b26-8018-34b1e4d05724","ios":"levelo://app?vid=18600b65-d922-4b26-8018-34b1e4d05724"},"vehicle_type_id":"4","last_reported":1731431272,"current_range_meters":37600,"station_id":"ce4bhnh2rcd13ifvqgtg","pricing_plan_id":"cebpf4jnsgd1na2vs0mg"},{"bike_id":"6b228d07-4301-4a5b-9474-4b744d853bd2","system_id":"levelo_inurba_marseille","lat":43.32475,"lon":5.36573,"is_reserved":false,"is_disabled":false,"rental_uris":{"android":"levelo://app?vid=6b228d07-4301-4a5b-9474-4b744d853bd2","ios":"levelo://app?vid=6b228d07-4301-4a5b-9474-4b744d853bd2"},"vehicle_type_id":"4","last_reported":1731431272,"current_range_meters":24800,"station_id":"ce4bhs12rcd13ifvqhvg","pricing_plan_id":"cebpf4jnsgd1na2vs0mg"},{"bike_id":"08b576bb-db72-4765-beb3-6747da039575","system_id":"levelo_inurba_marseille","lat":43.28154,"lon":5.42645,"is_reserved":false,"is_disabled":false,"rental_uris":{"android":"levelo://app?vid=08b576bb-db72-4765-beb3-6747da039575","ios":"levelo://app?vid=08b576bb-db72-4765-beb3-6747da039575"},"vehicle_type_id":"4","last_reported":1731431272,"current_range_meters":10000,"station_id":"ce4bhnh2rcd13ifvqgug","pricing_plan_id":"cebpf4jnsgd1na2vs0mg"},{"bike_id":"93cfdd43-b019-419e-9c9c-4d30e79815ad","system_id":"levelo_inurba_marseille","lat":43.25085,"lon":5.39528,"is_reserved":false,"is_disabled":false,"rental_uris":{"android":"levelo://app?vid=93cfdd43-b019-419e-9c9c-4d30e79815ad","ios":"levelo://app?vid=93cfdd43-b019-419e-9c9c-4d30e79815ad"},"vehicle_type_id":"4","last_reported":1731431272,"current_range_meters":16000,"station_id":"ce4bhm12rcd13ifvqgkg","pricing_plan_id":"cebpf4jnsgd1na2vs0mg"},{"bike_id":"92501b6a-7129-4fd6-b1c6-a0ff5a76a687","system_id":"levelo_inurba_marseille","lat":43.25088,"lon":5.39528,"is_reserved":false,"is_disabled":false,"rental_uris":{"android":"levelo://app?vid=92501b6a-7129-4fd6-b1c6-a0ff5a76a687","ios":"levelo://app?vid=92501b6a-7129-4fd6-b1c6-a0ff5a76a687"},"vehicle_type_id":"4","last_reported":1731431272,"current_range_meters":20000,"station_id":"ce4bhm12rcd13ifvqgkg","pricing_plan_id":"cebpf4jnsgd1na2vs0mg"},{"bike_id":"9f31b8c1-bbe7-454c-900e-8ecb3c97ac9c","system_id":"levelo_inurba_marseille","lat":43.28925,"lon":5.36401,"is_reserved":false,"is_disabled":false,"rental_uris":{"android":"levelo://app?vid=9f31b8c1-bbe7-454c-900e-8ecb3c97ac9c","ios":"levelo://app?vid=9f31b8c1-bbe7-454c-900e-8ecb3c97ac9c"},"vehicle_type_id":"4","last_reported":1731431272,"current_range_meters":26000,"station_id":"ce4bhc92rcd13ifvqetg","pricing_plan_id":"cebpf4jnsgd1na2vs0mg"},{"bike_id":"274309ed-0615-4e00-a50d-24019477a1f1","system_id":"levelo_inurba_marseille","lat":43.31697,"lon":5.4048,"is_reserved":false,"is_disabled":false,"rental_uris":{"android":"levelo://app?vid=274309ed-0615-4e00-a50d-24019477a1f1","ios":"levelo://app?vid=274309ed-0615-4e00-a50d-24019477a1f1"},"vehicle_type_id":"4","last_reported":1731431272,"current_range_meters":21600,"station_id":"ce4bh012rcd13ifvqd00","pricing_plan_id":"cebpf4jnsgd1na2vs0mg"},{"bike_id":"ec2bd622-564a-4344-81ef-f79e221200a1","system_id":"levelo_inurba_marseille","lat":43.25579,"lon":5.38228,"is_reserved":false,"is_disabled":false,"rental_uris":{"android":"levelo://app?vid=ec2bd622-564a-4344-81ef-f79e221200a1","ios":"levelo://app?vid=ec2bd622-564a-4344-81ef-f79e221200a1"},"vehicle_type_id":"4","last_reported":1731431272,"current_range_meters":28000,"station_id":"ce4bhih2rcd13ifvqfs0","pricing_plan_id":"cebpf4jnsgd1na2vs0mg"},{"bike_id":"3f987d12-16c0-4540-a565-b1e1f2e9cbd2","system_id":"levelo_inurba_marseille","lat":43.29542,"lon":5.39394,"is_reserved":false,"is_disabled":false,"rental_uris":{"android":"levelo://app?vid=3f987d12-16c0-4540-a565-b1e1f2e9cbd2","ios":"levelo://app?vid=3f987d12-16c0-4540-a565-b1e1f2e9cbd2"},"vehicle_type_id":"4","last_reported":1731431272,"current_range_meters":24400,"station_id":"ce4bh292rcd13ifvqdf0","pricing_plan_id":"cebpf4jnsgd1na2vs0mg"},{"bike_id":"25b70a3a-40c7-4299-a2e9-c150bcc2f247","system_id":"levelo_inurba_marseille","lat":43.2846,"lon":5.35891,"is_reserved":false,"is_disabled":false,"rental_uris":{"android":"levelo://app?vid=25b70a3a-40c7-4299-a2e9-c150bcc2f247","ios":"levelo://app?vid=25b70a3a-40c7-4299-a2e9-c150bcc2f247"},"vehicle_type_id":"4","last_reported":1731431272,"current_range_meters":25600,"station_id":"ce4bhah2rcd13ifvqei0","pricing_plan_id":"cebpf4jnsgd1na2vs0mg"},{"bike_id":"5d004fbf-052b-4ba3-9117-254e6429ef51","system_id":"levelo_inurba_marseille","lat":43.26944,"lon":5.40252,"is_reserved":false,"is_disabled":false,"rental_uris":{"android":"levelo://app?vid=5d004fbf-052b-4ba3-9117-254e6429ef51","ios":"levelo://app?vid=5d004fbf-052b-4ba3-9117-254e6429ef51"},"vehicle_type_id":"4","last_reported":1731431272,"current_range_meters":3600,"station_id":"cjm6bp8fraef2m0cb0m0","pricing_plan_id":"cebpf4jnsgd1na2vs0mg"},{"bike_id":"a20e5842-83dc-4854-806e-44d0a023cb6f","system_id":"levelo_inurba_marseille","lat":43.29522,"lon":5.38551,"is_reserved":false,"is_disabled":false,"rental_uris":{"android":"levelo://app?vid=a20e5842-83dc-4854-806e-44d0a023cb6f","ios":"levelo://app?vid=a20e5842-83dc-4854-806e-44d0a023cb6f"},"vehicle_type_id":"4","last_reported":1731431272,"current_range_meters":36400,"station_id":"ce4bgih2rcd13ifvqba0","pricing_plan_id":"cebpf4jnsgd1na2vs0mg"},{"bike_id":"46af5b7f-5607-486d-bc57-2daa7d5b28e7","system_id":"levelo_inurba_marseille","lat":43.27066,"lon":5.42277,"is_reserved":false,"is_disabled":false,"rental_uris":{"android":"levelo://app?vid=46af5b7f-5607-486d-bc57-2daa7d5b28e7","ios":"levelo://app?vid=46af5b7f-5607-486d-bc57-2daa7d5b28e7"},"vehicle_type_id":"4","last_reported":1731431272,"current_range_meters":37600,"station_id":"ce4bhk92rcd13ifvqgb0","pricing_plan_id":"cebpf4jnsgd1na2vs0mg"},{"bike_id":"970f30f5-69af-4298-a56f-37f4b11445ca","system_id":"levelo_inurba_marseille","lat":43.28619,"lon":5.35105,"is_reserved":false,"is_disabled":false,"rental_uris":{"android":"levelo://app?vid=970f30f5-69af-4298-a56f-37f4b11445ca","ios":"levelo://app?vid=970f30f5-69af-4298-a56f-37f4b11445ca"},"vehicle_type_id":"4","last_reported":1731431272,"current_range_meters":14000,"station_id":"ce4bhch2rcd13ifvqeug","pricing_plan_id":"cebpf4jnsgd1na2vs0mg"},{"bike_id":"5770bbd9-2c6e-4691-a76b-306c0fdae32c","system_id":"levelo_inurba_marseille","lat":43.28863,"lon":5.35862,"is_reserved":false,"is_disabled":false,"rental_uris":{"android":"levelo://app?vid=5770bbd9-2c6e-4691-a76b-306c0fdae32c","ios":"levelo://app?vid=5770bbd9-2c6e-4691-a76b-306c0fdae32c"},"vehicle_type_id":"4","last_reported":1731431272,"current_range_meters":34000,"station_id":"ce4bhb12rcd13ifvqem0","pricing_plan_id":"cebpf4jnsgd1na2vs0mg"},{"bike_id":"507284d9-4009-457e-bfa1-5ddbf58c6240","system_id":"levelo_inurba_marseille","lat":43.27181,"lon":5.40998,"is_reserved":false,"is_disabled":false,"rental_uris":{"android":"levelo://app?vid=507284d9-4009-457e-bfa1-5ddbf58c6240","ios":"levelo://app?vid=507284d9-4009-457e-bfa1-5ddbf58c6240"},"vehicle_type_id":"4","last_reported":1731431272,"current_range_meters":38800,"station_id":"ce4bhl12rcd13ifvqgf0","pricing_plan_id":"cebpf4jnsgd1na2vs0mg"},{"bike_id":"007ed1e0-5e71-46da-97d5-4d5c67a3b532","system_id":"levelo_inurba_marseille","lat":43.2668,"lon":5.38266,"is_reserved":false,"is_disabled":false,"rental_uris":{"android":"levelo://app?vid=007ed1e0-5e71-46da-97d5-4d5c67a3b532","ios":"levelo://app?vid=007ed1e0-5e71-46da-97d5-4d5c67a3b532"},"vehicle_type_id":"4","last_reported":1731431272,"current_range_meters":36000,"station_id":"ce4bhg92rcd13ifvqf90","pricing_plan_id":"cebpf4jnsgd1na2vs0mg"},{"bike_id":"44a85343-f177-4904-8616-4b62e063a17c","system_id":"levelo_inurba_marseille","lat":43.29002,"lon":5.35613,"is_reserved":false,"is_disabled":false,"rental_uris":{"android":"levelo://app?vid=44a85343-f177-4904-8616-4b62e063a17c","ios":"levelo://app?vid=44a85343-f177-4904-8616-4b62e063a17c"},"vehicle_type_id":"4","last_reported":1731431272,"current_range_meters":39200,"station_id":"ce4bhb92rcd13ifvqen0","pricing_plan_id":"cebpf4jnsgd1na2vs0mg"},{"bike_id":"0c16ce1e-70c2-4d1f-b546-d3a2156323ff","system_id":"levelo_inurba_marseille","lat":43.27814,"lon":5.40712,"is_reserved":false,"is_disabled":false,"rental_uris":{"android":"levelo://app?vid=0c16ce1e-70c2-4d1f-b546-d3a2156323ff","ios":"levelo://app?vid=0c16ce1e-70c2-4d1f-b546-d3a2156323ff"},"vehicle_type_id":"4","last_reported":1731431272,"current_range_meters":32800,"station_id":"ce4bhnh2rcd13ifvqgtg","pricing_plan_id":"cebpf4jnsgd1na2vs0mg"},{"bike_id":"3477bbce-43eb-4842-84e8-537630ea163a","system_id":"levelo_inurba_marseille","lat":43.24802,"lon":5.37457,"is_reserved":false,"is_disabled":false,"rental_uris":{"android":"levelo://app?vid=3477bbce-43eb-4842-84e8-537630ea163a","ios":"levelo://app?vid=3477bbce-43eb-4842-84e8-537630ea163a"},"vehicle_type_id":"4","last_reported":1731431272,"current_range_meters":8000,"station_id":"ce4bhgh2rcd13ifvqfb0","pricing_plan_id":"cebpf4jnsgd1na2vs0mg"},{"bike_id":"9e15b188-2341-4d66-8a22-cefbe21774ba","system_id":"levelo_inurba_marseille","lat":43.31227,"lon":5.36856,"is_reserved":false,"is_disabled":false,"rental_uris":{"android":"levelo://app?vid=9e15b188-2341-4d66-8a22-cefbe21774ba","ios":"levelo://app?vid=9e15b188-2341-4d66-8a22-cefbe21774ba"},"vehicle_type_id":"4","last_reported":1731431272,"current_range_meters":27200,"station_id":"ce4bgl92rcd13ifvqbq0","pricing_plan_id":"cebpf4jnsgd1na2vs0mg"},{"bike_id":"d265751d-fa37-4729-b8e3-a5848e7e9d07","system_id":"levelo_inurba_marseille","lat":43.24804,"lon":5.37455,"is_reserved":false,"is_disabled":false,"rental_uris":{"android":"levelo://app?vid=d265751d-fa37-4729-b8e3-a5848e7e9d07","ios":"levelo://app?vid=d265751d-fa37-4729-b8e3-a5848e7e9d07"},"vehicle_type_id":"4","last_reported":1731431272,"current_range_meters":38800,"station_id":"ce4bhgh2rcd13ifvqfb0","pricing_plan_id":"cebpf4jnsgd1na2vs0mg"},{"bike_id":"e4557244-baef-4fb7-ae0e-00398e2706db","system_id":"levelo_inurba_marseille","lat":43.28465,"lon":5.35886,"is_reserved":false,"is_disabled":false,"rental_uris":{"android":"levelo://app?vid=e4557244-baef-4fb7-ae0e-00398e2706db","ios":"levelo://app?vid=e4557244-baef-4fb7-ae0e-00398e2706db"},"vehicle_type_id":"4","last_reported":1731431272,"current_range_meters":28400,"station_id":"ce4bhah2rcd13ifvqei0","pricing_plan_id":"cebpf4jnsgd1na2vs0mg"},{"bike_id":"991bef25-7582-49b4-bbf4-c554ae6b520f","system_id":"levelo_inurba_marseille","lat":43.2985,"lon":5.36276,"is_reserved":false,"is_disabled":false,"rental_uris":{"android":"levelo://app?vid=991bef25-7582-49b4-bbf4-c554ae6b520f","ios":"levelo://app?vid=991bef25-7582-49b4-bbf4-c554ae6b520f"},"vehicle_type_id":"4","last_reported":1731431272,"current_range_meters":40000,"station_id":"ce4bgpp2rcd13ifvqc3g","pricing_plan_id":"cebpf4jnsgd1na2vs0mg"},{"bike_id":"26a2d6a7-4fa8-4809-8a08-65a4babf4a73","system_id":"levelo_inurba_marseille","lat":43.30901,"lon":5.37201,"is_reserved":false,"is_disabled":false,"rental_uris":{"android":"levelo://app?vid=26a2d6a7-4fa8-4809-8a08-65a4babf4a73","ios":"levelo://app?vid=26a2d6a7-4fa8-4809-8a08-65a4babf4a73"},"vehicle_type_id":"4","last_reported":1731431272,"current_range_meters":27200,"station_id":"ce4bguh2rcd13ifvqckg","pricing_plan_id":"cebpf4jnsgd1na2vs0mg"},{"bike_id":"14ca7dd1-c31f-468e-9272-e551b4928aa5","system_id":"levelo_inurba_marseille","lat":43.29997,"lon":5.38525,"is_reserved":false,"is_disabled":false,"rental_uris":{"android":"levelo://app?vid=14ca7dd1-c31f-468e-9272-e551b4928aa5","ios":"levelo://app?vid=14ca7dd1-c31f-468e-9272-e551b4928aa5"},"vehicle_type_id":"4","last_reported":1731431272,"current_range_meters":33200,"station_id":"ce4bgj92rcd13ifvqbd0","pricing_plan_id":"cebpf4jnsgd1na2vs0mg"},{"bike_id":"c565e166-0c49-4cc6-a1bc-c3380b4b3d89","system_id":"levelo_inurba_marseille","lat":43.326015,"lon":5.411968,"is_reserved":false,"is_disabled":false,"rental_uris":{"android":"levelo://app?vid=c565e166-0c49-4cc6-a1bc-c3380b4b3d89","ios":"levelo://app?vid=c565e166-0c49-4cc6-a1bc-c3380b4b3d89"},"vehicle_type_id":"4","last_reported":1731431272,"current_range_meters":39200,"station_id":"ce4bhpp2rcd13ifvqhgg","pricing_plan_id":"cebpf4jnsgd1na2vs0mg"},{"bike_id":"47f68d1a-08bc-4a05-95ab-0c37ad1d556f","system_id":"levelo_inurba_marseille","lat":43.31722,"lon":5.42401,"is_reserved":false,"is_disabled":false,"rental_uris":{"android":"levelo://app?vid=47f68d1a-08bc-4a05-95ab-0c37ad1d556f","ios":"levelo://app?vid=47f68d1a-08bc-4a05-95ab-0c37ad1d556f"},"vehicle_type_id":"4","last_reported":1731431272,"current_range_meters":38800,"station_id":"ce4bhp92rcd13ifvqhbg","pricing_plan_id":"cebpf4jnsgd1na2vs0mg"},{"bike_id":"bbcd3432-7c91-4287-abb0-e58d1d91530d","system_id":"levelo_inurba_marseille","lat":43.30099,"lon":5.39074,"is_reserved":false,"is_disabled":false,"rental_uris":{"android":"levelo://app?vid=bbcd3432-7c91-4287-abb0-e58d1d91530d","ios":"levelo://app?vid=bbcd3432-7c91-4287-abb0-e58d1d91530d"},"vehicle_type_id":"4","last_reported":1731431272,"current_range_meters":38000,"station_id":"ce4bh192rcd13ifvqdb0","pricing_plan_id":"cebpf4jnsgd1na2vs0mg"},{"bike_id":"9645f7fa-b111-43dd-9cc9-f4f8cc6d6a32","system_id":"levelo_inurba_marseille","lat":43.29794,"lon":5.38194,"is_reserved":false,"is_disabled":false,"rental_uris":{"android":"levelo://app?vid=9645f7fa-b111-43dd-9cc9-f4f8cc6d6a32","ios":"levelo://app?vid=9645f7fa-b111-43dd-9cc9-f4f8cc6d6a32"},"vehicle_type_id":"4","last_reported":1731431272,"current_range_meters":38400,"station_id":"ce4bgip2rcd13ifvqbb0","pricing_plan_id":"cebpf4jnsgd1na2vs0mg"},{"bike_id":"2d1792f0-af76-4d9e-9073-6b58abd1668b","system_id":"levelo_inurba_marseille","lat":43.27907,"lon":5.38014,"is_reserved":false,"is_disabled":false,"rental_uris":{"android":"levelo://app?vid=2d1792f0-af76-4d9e-9073-6b58abd1668b","ios":"levelo://app?vid=2d1792f0-af76-4d9e-9073-6b58abd1668b"},"vehicle_type_id":"4","last_reported":1731431272,"current_range_meters":38800,"station_id":"ce4bhf92rcd13ifvqf50","pricing_plan_id":"cebpf4jnsgd1na2vs0mg"},{"bike_id":"7d250492-b878-490b-8fb4-bee304bc7d48","system_id":"levelo_inurba_marseille","lat":43.29525,"lon":5.39041,"is_reserved":false,"is_disabled":false,"rental_uris":{"android":"levelo://app?vid=7d250492-b878-490b-8fb4-bee304bc7d48","ios":"levelo://app?vid=7d250492-b878-490b-8fb4-bee304bc7d48"},"vehicle_type_id":"4","last_reported":1731431272,"current_range_meters":33600,"station_id":"ce4bh3p2rcd13ifvqdp0","pricing_plan_id":"cebpf4jnsgd1na2vs0mg"},{"bike_id":"66cc935e-df55-4393-b088-10cb9ad840ab","system_id":"levelo_inurba_marseille","lat":43.26216,"lon":5.37439,"is_reserved":false,"is_disabled":false,"rental_uris":{"android":"levelo://app?vid=66cc935e-df55-4393-b088-10cb9ad840ab","ios":"levelo://app?vid=66cc935e-df55-4393-b088-10cb9ad840ab"},"vehicle_type_id":"4","last_reported":1731431272,"current_range_meters":27600,"station_id":"ce4bhgp2rcd13ifvqfc0","pricing_plan_id":"cebpf4jnsgd1na2vs0mg"},{"bike_id":"9c0e6aa1-ebac-4982-80f4-bd2d90608366","system_id":"levelo_inurba_marseille","lat":43.29599,"lon":5.38101,"is_reserved":false,"is_disabled":false,"rental_uris":{"android":"levelo://app?vid=9c0e6aa1-ebac-4982-80f4-bd2d90608366","ios":"levelo://app?vid=9c0e6aa1-ebac-4982-80f4-bd2d90608366"},"vehicle_type_id":"4","last_reported":1731431272,"current_range_meters":38400,"station_id":"ce4bgl12rcd13ifvqbo0","pricing_plan_id":"cebpf4jnsgd1na2vs0mg"},{"bike_id":"22a4a6a8-79ed-4cde-bd02-4a8eae668b5f","system_id":"levelo_inurba_marseille","lat":43.29323,"lon":5.41152,"is_reserved":false,"is_disabled":false,"rental_uris":{"android":"levelo://app?vid=22a4a6a8-79ed-4cde-bd02-4a8eae668b5f","ios":"levelo://app?vid=22a4a6a8-79ed-4cde-bd02-4a8eae668b5f"},"vehicle_type_id":"4","last_reported":1731431272,"current_range_meters":28800,"station_id":"","pricing_plan_id":"cebpf4jnsgd1na2vs0mg"},{"bike_id":"310bf956-2d0c-40fb-9411-0b80e8e2b383","system_id":"levelo_inurba_marseille","lat":43.3032,"lon":5.40447,"is_reserved":false,"is_disabled":false,"rental_uris":{"android":"levelo://app?vid=310bf956-2d0c-40fb-9411-0b80e8e2b383","ios":"levelo://app?vid=310bf956-2d0c-40fb-9411-0b80e8e2b383"},"vehicle_type_id":"4","last_reported":1731431272,"current_range_meters":5600,"station_id":"ce4bh012rcd13ifvqd10","pricing_plan_id":"cebpf4jnsgd1na2vs0mg"},{"bike_id":"e8e02d9c-9f18-44fb-893f-40424ddd086b","system_id":"levelo_inurba_marseille","lat":43.28463,"lon":5.35889,"is_reserved":false,"is_disabled":false,"rental_uris":{"android":"levelo://app?vid=e8e02d9c-9f18-44fb-893f-40424ddd086b","ios":"levelo://app?vid=e8e02d9c-9f18-44fb-893f-40424ddd086b"},"vehicle_type_id":"4","last_reported":1731431272,"current_range_meters":39200,"station_id":"ce4bhah2rcd13ifvqei0","pricing_plan_id":"cebpf4jnsgd1na2vs0mg"},{"bike_id":"b0843d66-5916-4a06-86f1-73ac0aafef65","system_id":"levelo_inurba_marseille","lat":43.31753,"lon":5.39014,"is_reserved":false,"is_disabled":false,"rental_uris":{"android":"levelo://app?vid=b0843d66-5916-4a06-86f1-73ac0aafef65","ios":"levelo://app?vid=b0843d66-5916-4a06-86f1-73ac0aafef65"},"vehicle_type_id":"4","last_reported":1731431272,"current_range_meters":32400,"station_id":"ce4bhqp2rcd13ifvqhng","pricing_plan_id":"cebpf4jnsgd1na2vs0mg"},{"bike_id":"1740a8aa-c44f-4c36-a230-385a32395a5f","system_id":"levelo_inurba_marseille","lat":43.28737,"lon":5.36085,"is_reserved":false,"is_disabled":false,"rental_uris":{"android":"levelo://app?vid=1740a8aa-c44f-4c36-a230-385a32395a5f","ios":"levelo://app?vid=1740a8aa-c44f-4c36-a230-385a32395a5f"},"vehicle_type_id":"4","last_reported":1731431272,"current_range_meters":39200,"station_id":"cki0cbj6b192h4jlfktg","pricing_plan_id":"cebpf4jnsgd1na2vs0mg"},{"bike_id":"28ccf766-abbf-423f-ae25-bebbc93536b1","system_id":"levelo_inurba_marseille","lat":43.29976,"lon":5.38492,"is_reserved":false,"is_disabled":false,"rental_uris":{"android":"levelo://app?vid=28ccf766-abbf-423f-ae25-bebbc93536b1","ios":"levelo://app?vid=28ccf766-abbf-423f-ae25-bebbc93536b1"},"vehicle_type_id":"4","last_reported":1731431272,"current_range_meters":23200,"station_id":"ce4bgj92rcd13ifvqbd0","pricing_plan_id":"cebpf4jnsgd1na2vs0mg"},{"bike_id":"bffb9ad5-11f9-4ac1-bc93-daa95e4d74a2","system_id":"levelo_inurba_marseille","lat":43.23186,"lon":5.39982,"is_reserved":false,"is_disabled":false,"rental_uris":{"android":"levelo://app?vid=bffb9ad5-11f9-4ac1-bc93-daa95e4d74a2","ios":"levelo://app?vid=bffb9ad5-11f9-4ac1-bc93-daa95e4d74a2"},"vehicle_type_id":"4","last_reported":1731431272,"current_range_meters":32800,"station_id":"ce4bhn12rcd13ifvqgqg","pricing_plan_id":"cebpf4jnsgd1na2vs0mg"},{"bike_id":"70891525-0a40-4d67-a2b8-86f756c2e2b2","system_id":"levelo_inurba_marseille","lat":43.29032,"lon":5.39968,"is_reserved":false,"is_disabled":false,"rental_uris":{"android":"levelo://app?vid=70891525-0a40-4d67-a2b8-86f756c2e2b2","ios":"levelo://app?vid=70891525-0a40-4d67-a2b8-86f756c2e2b2"},"vehicle_type_id":"4","last_reported":1731431272,"current_range_meters":9600,"station_id":"ce4bh392rcd13ifvqdm0","pricing_plan_id":"cebpf4jnsgd1na2vs0mg"},{"bike_id":"999f7b22-d874-4db9-8d59-074a5979b56b","system_id":"levelo_inurba_marseille","lat":43.290057,"lon":5.399329,"is_reserved":false,"is_disabled":false,"rental_uris":{"android":"levelo://app?vid=999f7b22-d874-4db9-8d59-074a5979b56b","ios":"levelo://app?vid=999f7b22-d874-4db9-8d59-074a5979b56b"},"vehicle_type_id":"4","last_reported":1731431272,"current_range_meters":8000,"station_id":"ce4bh392rcd13ifvqdm0","pricing_plan_id":"cebpf4jnsgd1na2vs0mg"},{"bike_id":"212b6c3f-ace3-45e8-99f0-447547f69bd6","system_id":"levelo_inurba_marseille","lat":43.28,"lon":5.41668,"is_reserved":false,"is_disabled":false,"rental_uris":{"android":"levelo://app?vid=212b6c3f-ace3-45e8-99f0-447547f69bd6","ios":"levelo://app?vid=212b6c3f-ace3-45e8-99f0-447547f69bd6"},"vehicle_type_id":"4","last_reported":1731431272,"current_range_meters":40000,"station_id":"ce4bho12rcd13ifvqh1g","pricing_plan_id":"cebpf4jnsgd1na2vs0mg"},{"bike_id":"6e69fe9c-e058-44c4-a7e9-2545bf3f7b41","system_id":"levelo_inurba_marseille","lat":43.2439,"lon":5.37055,"is_reserved":false,"is_disabled":false,"rental_uris":{"android":"levelo://app?vid=6e69fe9c-e058-44c4-a7e9-2545bf3f7b41","ios":"levelo://app?vid=6e69fe9c-e058-44c4-a7e9-2545bf3f7b41"},"vehicle_type_id":"4","last_reported":1731431272,"current_range_meters":24400,"station_id":"ce4bhhh2rcd13ifvqfk0","pricing_plan_id":"cebpf4jnsgd1na2vs0mg"},{"bike_id":"8410d1ee-cb65-4f27-8d13-34eec427afc9","system_id":"levelo_inurba_marseille","lat":43.27316,"lon":5.39086,"is_reserved":false,"is_disabled":false,"rental_uris":{"android":"levelo://app?vid=8410d1ee-cb65-4f27-8d13-34eec427afc9","ios":"levelo://app?vid=8410d1ee-cb65-4f27-8d13-34eec427afc9"},"vehicle_type_id":"4","last_reported":1731431272,"current_range_meters":35600,"station_id":"ce4bhgp2rcd13ifvqfe0","pricing_plan_id":"cebpf4jnsgd1na2vs0mg"},{"bike_id":"6b5b780b-1915-41f3-95ca-02dd8c70600f","system_id":"levelo_inurba_marseille","lat":43.25488,"lon":5.37648,"is_reserved":false,"is_disabled":false,"rental_uris":{"android":"levelo://app?vid=6b5b780b-1915-41f3-95ca-02dd8c70600f","ios":"levelo://app?vid=6b5b780b-1915-41f3-95ca-02dd8c70600f"},"vehicle_type_id":"4","last_reported":1731431272,"current_range_meters":35200,"station_id":"ce4bhh12rcd13ifvqff0","pricing_plan_id":"cebpf4jnsgd1na2vs0mg"},{"bike_id":"d7263090-4e41-407d-9271-2db32801f77e","system_id":"levelo_inurba_marseille","lat":43.27849,"lon":5.39208,"is_reserved":false,"is_disabled":false,"rental_uris":{"android":"levelo://app?vid=d7263090-4e41-407d-9271-2db32801f77e","ios":"levelo://app?vid=d7263090-4e41-407d-9271-2db32801f77e"},"vehicle_type_id":"4","last_reported":1731431272,"current_range_meters":19600,"station_id":"ce4bhjp2rcd13ifvqga0","pricing_plan_id":"cebpf4jnsgd1na2vs0mg"},{"bike_id":"3e772978-d11f-4f36-8df5-1bb1fd27fdf0","system_id":"levelo_inurba_marseille","lat":43.29634,"lon":5.40598,"is_reserved":false,"is_disabled":false,"rental_uris":{"android":"levelo://app?vid=3e772978-d11f-4f36-8df5-1bb1fd27fdf0","ios":"levelo://app?vid=3e772978-d11f-4f36-8df5-1bb1fd27fdf0"},"vehicle_type_id":"4","last_reported":1731431272,"current_range_meters":38400,"station_id":"ce4bh0h2rcd13ifvqd60","pricing_plan_id":"cebpf4jnsgd1na2vs0mg"},{"bike_id":"a969080e-a3a3-4ea4-9316-2da40b1fb0e3","system_id":"levelo_inurba_marseille","lat":43.30299,"lon":5.39201,"is_reserved":false,"is_disabled":false,"rental_uris":{"android":"levelo://app?vid=a969080e-a3a3-4ea4-9316-2da40b1fb0e3","ios":"levelo://app?vid=a969080e-a3a3-4ea4-9316-2da40b1fb0e3"},"vehicle_type_id":"4","last_reported":1731431272,"current_range_meters":28800,"station_id":"ce4bgkh2rcd13ifvqbk0","pricing_plan_id":"cebpf4jnsgd1na2vs0mg"},{"bike_id":"647d87d8-ed03-4344-9ce2-6aeae85a7109","system_id":"levelo_inurba_marseille","lat":43.28564,"lon":5.39502,"is_reserved":false,"is_disabled":false,"rental_uris":{"android":"levelo://app?vid=647d87d8-ed03-4344-9ce2-6aeae85a7109","ios":"levelo://app?vid=647d87d8-ed03-4344-9ce2-6aeae85a7109"},"vehicle_type_id":"4","last_reported":1731431272,"current_range_meters":4400,"station_id":"ce4bh292rcd13ifvqdg0","pricing_plan_id":"cebpf4jnsgd1na2vs0mg"},{"bike_id":"b006f22f-269a-46a7-b220-e64237870ed6","system_id":"levelo_inurba_marseille","lat":43.27172,"lon":5.40991,"is_reserved":false,"is_disabled":false,"rental_uris":{"android":"levelo://app?vid=b006f22f-269a-46a7-b220-e64237870ed6","ios":"levelo://app?vid=b006f22f-269a-46a7-b220-e64237870ed6"},"vehicle_type_id":"4","last_reported":1731431272,"current_range_meters":3200,"station_id":"ce4bhl12rcd13ifvqgf0","pricing_plan_id":"cebpf4jnsgd1na2vs0mg"},{"bike_id":"c72e5a0a-02ab-421c-8ca0-c4c5d279373d","system_id":"levelo_inurba_marseille","lat":43.24389,"lon":5.37056,"is_reserved":false,"is_disabled":false,"rental_uris":{"android":"levelo://app?vid=c72e5a0a-02ab-421c-8ca0-c4c5d279373d","ios":"levelo://app?vid=c72e5a0a-02ab-421c-8ca0-c4c5d279373d"},"vehicle_type_id":"4","last_reported":1731431272,"current_range_meters":3200,"station_id":"ce4bhhh2rcd13ifvqfk0","pricing_plan_id":"cebpf4jnsgd1na2vs0mg"},{"bike_id":"ac702bda-51a4-4f87-bb8b-945bd68c9bd2","system_id":"levelo_inurba_marseille","lat":43.2743,"lon":5.394205,"is_reserved":false,"is_disabled":false,"rental_uris":{"android":"levelo://app?vid=ac702bda-51a4-4f87-bb8b-945bd68c9bd2","ios":"levelo://app?vid=ac702bda-51a4-4f87-bb8b-945bd68c9bd2"},"vehicle_type_id":"4","last_reported":1731431272,"current_range_meters":40000,"station_id":"ce4bhdp2rcd13ifvqf20","pricing_plan_id":"cebpf4jnsgd1na2vs0mg"},{"bike_id":"51e64c81-88de-497d-87b8-cb4bcf784f16","system_id":"levelo_inurba_marseille","lat":43.2681,"lon":5.40272,"is_reserved":false,"is_disabled":false,"rental_uris":{"android":"levelo://app?vid=51e64c81-88de-497d-87b8-cb4bcf784f16","ios":"levelo://app?vid=51e64c81-88de-497d-87b8-cb4bcf784f16"},"vehicle_type_id":"4","last_reported":1731431272,"current_range_meters":4400,"station_id":"ce501612rcd8frsf0b60","pricing_plan_id":"cebpf4jnsgd1na2vs0mg"},{"bike_id":"c4472169-5e60-4eb5-93c1-cfea6cf859ae","system_id":"levelo_inurba_marseille","lat":43.26496,"lon":5.39548,"is_reserved":false,"is_disabled":false,"rental_uris":{"android":"levelo://app?vid=c4472169-5e60-4eb5-93c1-cfea6cf859ae","ios":"levelo://app?vid=c4472169-5e60-4eb5-93c1-cfea6cf859ae"},"vehicle_type_id":"4","last_reported":1731431272,"current_range_meters":26000,"station_id":"ce4bhi12rcd13ifvqfq0","pricing_plan_id":"cebpf4jnsgd1na2vs0mg"},{"bike_id":"65715c3f-614c-464f-af5f-e10124002dd8","system_id":"levelo_inurba_marseille","lat":43.31521,"lon":5.38037,"is_reserved":false,"is_disabled":false,"rental_uris":{"android":"levelo://app?vid=65715c3f-614c-464f-af5f-e10124002dd8","ios":"levelo://app?vid=65715c3f-614c-464f-af5f-e10124002dd8"},"vehicle_type_id":"4","last_reported":1731431272,"current_range_meters":36400,"station_id":"ce4bhsp2rcd13ifvqi50","pricing_plan_id":"cebpf4jnsgd1na2vs0mg"},{"bike_id":"66666f45-6562-4a25-905a-788c606fb154","system_id":"levelo_inurba_marseille","lat":43.27919,"lon":5.39576,"is_reserved":false,"is_disabled":false,"rental_uris":{"android":"levelo://app?vid=66666f45-6562-4a25-905a-788c606fb154","ios":"levelo://app?vid=66666f45-6562-4a25-905a-788c606fb154"},"vehicle_type_id":"4","last_reported":1731431272,"current_range_meters":17600,"station_id":"ce4bhf92rcd13ifvqf40","pricing_plan_id":"cebpf4jnsgd1na2vs0mg"},{"bike_id":"c74efc69-e44b-467a-92ff-10f19d06dbfe","system_id":"levelo_inurba_marseille","lat":43.28936,"lon":5.3664,"is_reserved":false,"is_disabled":false,"rental_uris":{"android":"levelo://app?vid=c74efc69-e44b-467a-92ff-10f19d06dbfe","ios":"levelo://app?vid=c74efc69-e44b-467a-92ff-10f19d06dbfe"},"vehicle_type_id":"4","last_reported":1731431272,"current_range_meters":33600,"station_id":"ce4bhap2rcd13ifvqek0","pricing_plan_id":"cebpf4jnsgd1na2vs0mg"},{"bike_id":"02a3f1fa-1b00-4bb2-8845-d89d50875ff5","system_id":"levelo_inurba_marseille","lat":43.32361,"lon":5.38883,"is_reserved":false,"is_disabled":false,"rental_uris":{"android":"levelo://app?vid=02a3f1fa-1b00-4bb2-8845-d89d50875ff5","ios":"levelo://app?vid=02a3f1fa-1b00-4bb2-8845-d89d50875ff5"},"vehicle_type_id":"4","last_reported":1731431272,"current_range_meters":36400,"station_id":"ce4bhqp2rcd13ifvqhog","pricing_plan_id":"cebpf4jnsgd1na2vs0mg"},{"bike_id":"09f7a188-3812-409d-991e-f3fbc40f071d","system_id":"levelo_inurba_marseille","lat":43.29424,"lon":5.38621,"is_reserved":false,"is_disabled":false,"rental_uris":{"android":"levelo://app?vid=09f7a188-3812-409d-991e-f3fbc40f071d","ios":"levelo://app?vid=09f7a188-3812-409d-991e-f3fbc40f071d"},"vehicle_type_id":"4","last_reported":1731431272,"current_range_meters":28000,"station_id":"ce4bh2h2rcd13ifvqdh0","pricing_plan_id":"cebpf4jnsgd1na2vs0mg"},{"bike_id":"91396e2c-9f64-4b07-9603-7237ff652da5","system_id":"levelo_inurba_marseille","lat":43.28156,"lon":5.42642,"is_reserved":false,"is_disabled":false,"rental_uris":{"android":"levelo://app?vid=91396e2c-9f64-4b07-9603-7237ff652da5","ios":"levelo://app?vid=91396e2c-9f64-4b07-9603-7237ff652da5"},"vehicle_type_id":"4","last_reported":1731431272,"current_range_meters":36800,"station_id":"ce4bhnh2rcd13ifvqgug","pricing_plan_id":"cebpf4jnsgd1na2vs0mg"},{"bike_id":"3fc8e131-ee97-4bd0-9956-4d476a1f6edb","system_id":"levelo_inurba_marseille","lat":43.27922,"lon":5.3958,"is_reserved":false,"is_disabled":false,"rental_uris":{"android":"levelo://app?vid=3fc8e131-ee97-4bd0-9956-4d476a1f6edb","ios":"levelo://app?vid=3fc8e131-ee97-4bd0-9956-4d476a1f6edb"},"vehicle_type_id":"4","last_reported":1731431272,"current_range_meters":20800,"station_id":"ce4bhf92rcd13ifvqf40","pricing_plan_id":"cebpf4jnsgd1na2vs0mg"},{"bike_id":"23371319-3326-4e94-b694-68f01aa3521f","system_id":"levelo_inurba_marseille","lat":43.337444,"lon":5.374475,"is_reserved":false,"is_disabled":false,"rental_uris":{"android":"levelo://app?vid=23371319-3326-4e94-b694-68f01aa3521f","ios":"levelo://app?vid=23371319-3326-4e94-b694-68f01aa3521f"},"vehicle_type_id":"4","last_reported":1731431272,"current_range_meters":36800,"station_id":"","pricing_plan_id":"cebpf4jnsgd1na2vs0mg"},{"bike_id":"e1155244-b440-4395-8743-4450240ff13a","system_id":"levelo_inurba_marseille","lat":43.292849,"lon":5.401382,"is_reserved":false,"is_disabled":false,"rental_uris":{"android":"levelo://app?vid=e1155244-b440-4395-8743-4450240ff13a","ios":"levelo://app?vid=e1155244-b440-4395-8743-4450240ff13a"},"vehicle_type_id":"4","last_reported":1731431272,"current_range_meters":24400,"station_id":"ce4bh312rcd13ifvqdk0","pricing_plan_id":"cebpf4jnsgd1na2vs0mg"},{"bike_id":"181c7f73-9f83-4905-89f0-f85f48fe72c2","system_id":"levelo_inurba_marseille","lat":43.29874,"lon":5.39734,"is_reserved":false,"is_disabled":false,"rental_uris":{"android":"levelo://app?vid=181c7f73-9f83-4905-89f0-f85f48fe72c2","ios":"levelo://app?vid=181c7f73-9f83-4905-89f0-f85f48fe72c2"},"vehicle_type_id":"4","last_reported":1731431272,"current_range_meters":36400,"station_id":"ce4bh0h2rcd13ifvqd50","pricing_plan_id":"cebpf4jnsgd1na2vs0mg"},{"bike_id":"f6ec8717-1c2c-4c9c-90c5-29827b3ed065","system_id":"levelo_inurba_marseille","lat":43.28855,"lon":5.35861,"is_reserved":false,"is_disabled":false,"rental_uris":{"android":"levelo://app?vid=f6ec8717-1c2c-4c9c-90c5-29827b3ed065","ios":"levelo://app?vid=f6ec8717-1c2c-4c9c-90c5-29827b3ed065"},"vehicle_type_id":"4","last_reported":1731431272,"current_range_meters":39200,"station_id":"ce4bhb12rcd13ifvqem0","pricing_plan_id":"cebpf4jnsgd1na2vs0mg"},{"bike_id":"28854e83-1824-4a61-a535-5caf21bba725","system_id":"levelo_inurba_marseille","lat":43.29231,"lon":5.36066,"is_reserved":false,"is_disabled":false,"rental_uris":{"android":"levelo://app?vid=28854e83-1824-4a61-a535-5caf21bba725","ios":"levelo://app?vid=28854e83-1824-4a61-a535-5caf21bba725"},"vehicle_type_id":"4","last_reported":1731431272,"current_range_meters":36000,"station_id":"ce4bhbh2rcd13ifvqeqg","pricing_plan_id":"cebpf4jnsgd1na2vs0mg"},{"bike_id":"1e01f4f0-a7bf-4ae7-bf5d-ea3293b54d0f","system_id":"levelo_inurba_marseille","lat":43.246318,"lon":5.388437,"is_reserved":false,"is_disabled":false,"rental_uris":{"android":"levelo://app?vid=1e01f4f0-a7bf-4ae7-bf5d-ea3293b54d0f","ios":"levelo://app?vid=1e01f4f0-a7bf-4ae7-bf5d-ea3293b54d0f"},"vehicle_type_id":"4","last_reported":1731431272,"current_range_meters":28000,"station_id":"ce4bhg12rcd13ifvqf60","pricing_plan_id":"cebpf4jnsgd1na2vs0mg"},{"bike_id":"742db710-4051-4413-9191-d4bf0ffac143","system_id":"levelo_inurba_marseille","lat":43.30353,"lon":5.41883,"is_reserved":false,"is_disabled":false,"rental_uris":{"android":"levelo://app?vid=742db710-4051-4413-9191-d4bf0ffac143","ios":"levelo://app?vid=742db710-4051-4413-9191-d4bf0ffac143"},"vehicle_type_id":"4","last_reported":1731431272,"current_range_meters":28400,"station_id":"ce4bhop2rcd13ifvqh7g","pricing_plan_id":"cebpf4jnsgd1na2vs0mg"},{"bike_id":"fec10551-f379-49ba-9ca2-8a635f99a617","system_id":"levelo_inurba_marseille","lat":43.337444,"lon":5.374475,"is_reserved":false,"is_disabled":false,"rental_uris":{"android":"levelo://app?vid=fec10551-f379-49ba-9ca2-8a635f99a617","ios":"levelo://app?vid=fec10551-f379-49ba-9ca2-8a635f99a617"},"vehicle_type_id":"4","last_reported":1731431272,"current_range_meters":38400,"station_id":"","pricing_plan_id":"cebpf4jnsgd1na2vs0mg"},{"bike_id":"979b0182-b0c0-414a-ac99-0bb48afc867b","system_id":"levelo_inurba_marseille","lat":43.27408,"lon":5.38951,"is_reserved":false,"is_disabled":false,"rental_uris":{"android":"levelo://app?vid=979b0182-b0c0-414a-ac99-0bb48afc867b","ios":"levelo://app?vid=979b0182-b0c0-414a-ac99-0bb48afc867b"},"vehicle_type_id":"4","last_reported":1731431272,"current_range_meters":13600,"station_id":"","pricing_plan_id":"cebpf4jnsgd1na2vs0mg"},{"bike_id":"dd8d30c5-13a0-4764-b15e-0fd8f9274f3a","system_id":"levelo_inurba_marseille","lat":43.30089,"lon":5.39095,"is_reserved":false,"is_disabled":false,"rental_uris":{"android":"levelo://app?vid=dd8d30c5-13a0-4764-b15e-0fd8f9274f3a","ios":"levelo://app?vid=dd8d30c5-13a0-4764-b15e-0fd8f9274f3a"},"vehicle_type_id":"4","last_reported":1731431272,"current_range_meters":24000,"station_id":"ce4bh192rcd13ifvqdb0","pricing_plan_id":"cebpf4jnsgd1na2vs0mg"},{"bike_id":"4813615d-f850-4681-afbb-47dec9d385ce","system_id":"levelo_inurba_marseille","lat":43.29006,"lon":5.35611,"is_reserved":false,"is_disabled":false,"rental_uris":{"android":"levelo://app?vid=4813615d-f850-4681-afbb-47dec9d385ce","ios":"levelo://app?vid=4813615d-f850-4681-afbb-47dec9d385ce"},"vehicle_type_id":"4","last_reported":1731431272,"current_range_meters":17600,"station_id":"ce4bhb92rcd13ifvqen0","pricing_plan_id":"cebpf4jnsgd1na2vs0mg"},{"bike_id":"6ff2acd9-a174-44c1-ab9d-12f95f4c438d","system_id":"levelo_inurba_marseille","lat":43.24386,"lon":5.3706,"is_reserved":false,"is_disabled":false,"rental_uris":{"android":"levelo://app?vid=6ff2acd9-a174-44c1-ab9d-12f95f4c438d","ios":"levelo://app?vid=6ff2acd9-a174-44c1-ab9d-12f95f4c438d"},"vehicle_type_id":"4","last_reported":1731431272,"current_range_meters":35600,"station_id":"ce4bhhh2rcd13ifvqfk0","pricing_plan_id":"cebpf4jnsgd1na2vs0mg"},{"bike_id":"9226043b-87e5-487a-82e8-3478e5410da2","system_id":"levelo_inurba_marseille","lat":43.26559,"lon":5.37286,"is_reserved":false,"is_disabled":false,"rental_uris":{"android":"levelo://app?vid=9226043b-87e5-487a-82e8-3478e5410da2","ios":"levelo://app?vid=9226043b-87e5-487a-82e8-3478e5410da2"},"vehicle_type_id":"4","last_reported":1731431272,"current_range_meters":16400,"station_id":"ce4bhg12rcd13ifvqf70","pricing_plan_id":"cebpf4jnsgd1na2vs0mg"},{"bike_id":"997e8ac0-1d46-4817-95d5-b61546cadfd8","system_id":"levelo_inurba_marseille","lat":43.22934,"lon":5.35381,"is_reserved":false,"is_disabled":false,"rental_uris":{"android":"levelo://app?vid=997e8ac0-1d46-4817-95d5-b61546cadfd8","ios":"levelo://app?vid=997e8ac0-1d46-4817-95d5-b61546cadfd8"},"vehicle_type_id":"4","last_reported":1731431272,"current_range_meters":38000,"station_id":"cpo3532slgdg3j2ikp40","pricing_plan_id":"cebpf4jnsgd1na2vs0mg"},{"bike_id":"2fd3696d-93c1-438c-8b28-a4f5382d6ee2","system_id":"levelo_inurba_marseille","lat":43.28042,"lon":5.36947,"is_reserved":false,"is_disabled":false,"rental_uris":{"android":"levelo://app?vid=2fd3696d-93c1-438c-8b28-a4f5382d6ee2","ios":"levelo://app?vid=2fd3696d-93c1-438c-8b28-a4f5382d6ee2"},"vehicle_type_id":"4","last_reported":1731431272,"current_range_meters":8800,"station_id":"ce4bha12rcd13ifvqef0","pricing_plan_id":"cebpf4jnsgd1na2vs0mg"},{"bike_id":"ac3319ff-f4fc-4a4a-9405-971d1f31dafa","system_id":"levelo_inurba_marseille","lat":43.25933,"lon":5.40906,"is_reserved":false,"is_disabled":false,"rental_uris":{"android":"levelo://app?vid=ac3319ff-f4fc-4a4a-9405-971d1f31dafa","ios":"levelo://app?vid=ac3319ff-f4fc-4a4a-9405-971d1f31dafa"},"vehicle_type_id":"4","last_reported":1731431272,"current_range_meters":32400,"station_id":"ce4bhm92rcd13ifvqglg","pricing_plan_id":"cebpf4jnsgd1na2vs0mg"},{"bike_id":"e4f80836-2c49-43b5-b683-e5ca5292b4e4","system_id":"levelo_inurba_marseille","lat":43.27998,"lon":5.41663,"is_reserved":false,"is_disabled":false,"rental_uris":{"android":"levelo://app?vid=e4f80836-2c49-43b5-b683-e5ca5292b4e4","ios":"levelo://app?vid=e4f80836-2c49-43b5-b683-e5ca5292b4e4"},"vehicle_type_id":"4","last_reported":1731431272,"current_range_meters":28000,"station_id":"ce4bho12rcd13ifvqh1g","pricing_plan_id":"cebpf4jnsgd1na2vs0mg"},{"bike_id":"56cd5555-5691-44a6-b515-7c9485fe6b17","system_id":"levelo_inurba_marseille","lat":43.2956,"lon":5.42295,"is_reserved":false,"is_disabled":false,"rental_uris":{"android":"levelo://app?vid=56cd5555-5691-44a6-b515-7c9485fe6b17","ios":"levelo://app?vid=56cd5555-5691-44a6-b515-7c9485fe6b17"},"vehicle_type_id":"4","last_reported":1731431272,"current_range_meters":38800,"station_id":"ce4bhph2rcd13ifvqhdg","pricing_plan_id":"cebpf4jnsgd1na2vs0mg"},{"bike_id":"ef097ac4-a2c0-45d2-b5d5-54184510c839","system_id":"levelo_inurba_marseille","lat":43.30656,"lon":5.40087,"is_reserved":false,"is_disabled":false,"rental_uris":{"android":"levelo://app?vid=ef097ac4-a2c0-45d2-b5d5-54184510c839","ios":"levelo://app?vid=ef097ac4-a2c0-45d2-b5d5-54184510c839"},"vehicle_type_id":"4","last_reported":1731431272,"current_range_meters":20800,"station_id":"ce4bh112rcd13ifvqda0","pricing_plan_id":"cebpf4jnsgd1na2vs0mg"},{"bike_id":"71a649ef-ed3c-4201-bbe7-3f4c92d1bb6e","system_id":"levelo_inurba_marseille","lat":43.29535,"lon":5.39032,"is_reserved":false,"is_disabled":false,"rental_uris":{"android":"levelo://app?vid=71a649ef-ed3c-4201-bbe7-3f4c92d1bb6e","ios":"levelo://app?vid=71a649ef-ed3c-4201-bbe7-3f4c92d1bb6e"},"vehicle_type_id":"4","last_reported":1731431272,"current_range_meters":32800,"station_id":"ce4bh3p2rcd13ifvqdp0","pricing_plan_id":"cebpf4jnsgd1na2vs0mg"},{"bike_id":"da18e8b3-5b3f-4266-8099-3c3957afc7ac","system_id":"levelo_inurba_marseille","lat":43.27831,"lon":5.39204,"is_reserved":false,"is_disabled":false,"rental_uris":{"android":"levelo://app?vid=da18e8b3-5b3f-4266-8099-3c3957afc7ac","ios":"levelo://app?vid=da18e8b3-5b3f-4266-8099-3c3957afc7ac"},"vehicle_type_id":"4","last_reported":1731431272,"current_range_meters":17200,"station_id":"ce4bhjp2rcd13ifvqga0","pricing_plan_id":"cebpf4jnsgd1na2vs0mg"},{"bike_id":"50ec9a72-2d48-4182-b452-21b17e2354cd","system_id":"levelo_inurba_marseille","lat":43.30807,"lon":5.43526,"is_reserved":false,"is_disabled":false,"rental_uris":{"android":"levelo://app?vid=50ec9a72-2d48-4182-b452-21b17e2354cd","ios":"levelo://app?vid=50ec9a72-2d48-4182-b452-21b17e2354cd"},"vehicle_type_id":"4","last_reported":1731431272,"current_range_meters":6000,"station_id":"ce4bhph2rcd13ifvqheg","pricing_plan_id":"cebpf4jnsgd1na2vs0mg"},{"bike_id":"8801a9ab-2cdf-4db6-a265-83c3b290056e","system_id":"levelo_inurba_marseille","lat":43.30101,"lon":5.39075,"is_reserved":false,"is_disabled":false,"rental_uris":{"android":"levelo://app?vid=8801a9ab-2cdf-4db6-a265-83c3b290056e","ios":"levelo://app?vid=8801a9ab-2cdf-4db6-a265-83c3b290056e"},"vehicle_type_id":"4","last_reported":1731431272,"current_range_meters":7200,"station_id":"ce4bh192rcd13ifvqdb0","pricing_plan_id":"cebpf4jnsgd1na2vs0mg"},{"bike_id":"dc8796a0-3a87-4d5f-a951-0fd329665496","system_id":"levelo_inurba_marseille","lat":43.27378,"lon":5.36265,"is_reserved":false,"is_disabled":false,"rental_uris":{"android":"levelo://app?vid=dc8796a0-3a87-4d5f-a951-0fd329665496","ios":"levelo://app?vid=dc8796a0-3a87-4d5f-a951-0fd329665496"},"vehicle_type_id":"4","last_reported":1731431272,"current_range_meters":2800,"station_id":"ce4bhbh2rcd13ifvqeo0","pricing_plan_id":"cebpf4jnsgd1na2vs0mg"},{"bike_id":"e20e371e-0ac8-4f8a-8e0a-12e9bf345f5e","system_id":"levelo_inurba_marseille","lat":43.27069,"lon":5.42281,"is_reserved":false,"is_disabled":false,"rental_uris":{"android":"levelo://app?vid=e20e371e-0ac8-4f8a-8e0a-12e9bf345f5e","ios":"levelo://app?vid=e20e371e-0ac8-4f8a-8e0a-12e9bf345f5e"},"vehicle_type_id":"4","last_reported":1731431272,"current_range_meters":30400,"station_id":"ce4bhk92rcd13ifvqgb0","pricing_plan_id":"cebpf4jnsgd1na2vs0mg"},{"bike_id":"b3343b43-308a-45e0-b0f7-52e99ba1150f","system_id":"levelo_inurba_marseille","lat":43.294501,"lon":5.39748,"is_reserved":false,"is_disabled":false,"rental_uris":{"android":"levelo://app?vid=b3343b43-308a-45e0-b0f7-52e99ba1150f","ios":"levelo://app?vid=b3343b43-308a-45e0-b0f7-52e99ba1150f"},"vehicle_type_id":"4","last_reported":1731431272,"current_range_meters":29600,"station_id":"ce4bh3h2rcd13ifvqdo0","pricing_plan_id":"cebpf4jnsgd1na2vs0mg"},{"bike_id":"a7fa391a-5e9a-4306-ab89-3411e5df4996","system_id":"levelo_inurba_marseille","lat":43.33019,"lon":5.39027,"is_reserved":false,"is_disabled":false,"rental_uris":{"android":"levelo://app?vid=a7fa391a-5e9a-4306-ab89-3411e5df4996","ios":"levelo://app?vid=a7fa391a-5e9a-4306-ab89-3411e5df4996"},"vehicle_type_id":"4","last_reported":1731431272,"current_range_meters":37600,"station_id":"ce4bhr92rcd13ifvqhrg","pricing_plan_id":"cebpf4jnsgd1na2vs0mg"},{"bike_id":"5817e958-deb7-4799-af1a-ed194ead4717","system_id":"levelo_inurba_marseille","lat":43.29189,"lon":5.39322,"is_reserved":false,"is_disabled":false,"rental_uris":{"android":"levelo://app?vid=5817e958-deb7-4799-af1a-ed194ead4717","ios":"levelo://app?vid=5817e958-deb7-4799-af1a-ed194ead4717"},"vehicle_type_id":"4","last_reported":1731431272,"current_range_meters":38800,"station_id":"ce4bh192rcd13ifvqdd0","pricing_plan_id":"cebpf4jnsgd1na2vs0mg"},{"bike_id":"daaa50bc-024b-493c-b42d-10673d751505","system_id":"levelo_inurba_marseille","lat":43.29074,"lon":5.38604,"is_reserved":false,"is_disabled":false,"rental_uris":{"android":"levelo://app?vid=daaa50bc-024b-493c-b42d-10673d751505","ios":"levelo://app?vid=daaa50bc-024b-493c-b42d-10673d751505"},"vehicle_type_id":"4","last_reported":1731431272,"current_range_meters":35600,"station_id":"","pricing_plan_id":"cebpf4jnsgd1na2vs0mg"},{"bike_id":"42d52a67-a111-45ff-b216-f95ab26ba86a","system_id":"levelo_inurba_marseille","lat":43.30533,"lon":5.3655,"is_reserved":false,"is_disabled":false,"rental_uris":{"android":"levelo://app?vid=42d52a67-a111-45ff-b216-f95ab26ba86a","ios":"levelo://app?vid=42d52a67-a111-45ff-b216-f95ab26ba86a"},"vehicle_type_id":"4","last_reported":1731431272,"current_range_meters":36800,"station_id":"ce4bgs12rcd13ifvqcag","pricing_plan_id":"cebpf4jnsgd1na2vs0mg"},{"bike_id":"85818844-8eb0-4925-bc5d-82279bf48263","system_id":"levelo_inurba_marseille","lat":43.24809,"lon":5.37449,"is_reserved":false,"is_disabled":false,"rental_uris":{"android":"levelo://app?vid=85818844-8eb0-4925-bc5d-82279bf48263","ios":"levelo://app?vid=85818844-8eb0-4925-bc5d-82279bf48263"},"vehicle_type_id":"4","last_reported":1731431272,"current_range_meters":35600,"station_id":"ce4bhgh2rcd13ifvqfb0","pricing_plan_id":"cebpf4jnsgd1na2vs0mg"},{"bike_id":"51de079a-4713-4220-aef5-8906afb2ba42","system_id":"levelo_inurba_marseille","lat":43.281032,"lon":5.378517,"is_reserved":false,"is_disabled":false,"rental_uris":{"android":"levelo://app?vid=51de079a-4713-4220-aef5-8906afb2ba42","ios":"levelo://app?vid=51de079a-4713-4220-aef5-8906afb2ba42"},"vehicle_type_id":"4","last_reported":1731431272,"current_range_meters":36400,"station_id":"ce4bha12rcd13ifvqee0","pricing_plan_id":"cebpf4jnsgd1na2vs0mg"},{"bike_id":"9bccf8f7-f51f-4c68-bdf5-738fde987b81","system_id":"levelo_inurba_marseille","lat":43.31268,"lon":5.40177,"is_reserved":false,"is_disabled":false,"rental_uris":{"android":"levelo://app?vid=9bccf8f7-f51f-4c68-bdf5-738fde987b81","ios":"levelo://app?vid=9bccf8f7-f51f-4c68-bdf5-738fde987b81"},"vehicle_type_id":"4","last_reported":1731431272,"current_range_meters":39200,"station_id":"ce4bh092rcd13ifvqd30","pricing_plan_id":"cebpf4jnsgd1na2vs0mg"},{"bike_id":"d3d88389-bd60-4947-8db6-b3fd375e6183","system_id":"levelo_inurba_marseille","lat":43.23958,"lon":5.3663,"is_reserved":false,"is_disabled":false,"rental_uris":{"android":"levelo://app?vid=d3d88389-bd60-4947-8db6-b3fd375e6183","ios":"levelo://app?vid=d3d88389-bd60-4947-8db6-b3fd375e6183"},"vehicle_type_id":"4","last_reported":1731431272,"current_range_meters":36400,"station_id":"ce4bhi12rcd13ifvqfp0","pricing_plan_id":"cebpf4jnsgd1na2vs0mg"},{"bike_id":"ce67fbe1-589e-49c5-943a-a7e096615d92","system_id":"levelo_inurba_marseille","lat":43.26937,"lon":5.3892,"is_reserved":false,"is_disabled":false,"rental_uris":{"android":"levelo://app?vid=ce67fbe1-589e-49c5-943a-a7e096615d92","ios":"levelo://app?vid=ce67fbe1-589e-49c5-943a-a7e096615d92"},"vehicle_type_id":"4","last_reported":1731431272,"current_range_meters":33600,"station_id":"ce4bhhh2rcd13ifvqfl0","pricing_plan_id":"cebpf4jnsgd1na2vs0mg"},{"bike_id":"91526d85-6d2f-4b0d-b668-d1a556d90682","system_id":"levelo_inurba_marseille","lat":43.32,"lon":5.38158,"is_reserved":false,"is_disabled":false,"rental_uris":{"android":"levelo://app?vid=91526d85-6d2f-4b0d-b668-d1a556d90682","ios":"levelo://app?vid=91526d85-6d2f-4b0d-b668-d1a556d90682"},"vehicle_type_id":"4","last_reported":1731431272,"current_range_meters":40000,"station_id":"ce4bhr12rcd13ifvqhpg","pricing_plan_id":"cebpf4jnsgd1na2vs0mg"},{"bike_id":"b559c9c6-563c-434e-a716-8bca141c219c","system_id":"levelo_inurba_marseille","lat":43.30126,"lon":5.37188,"is_reserved":false,"is_disabled":false,"rental_uris":{"android":"levelo://app?vid=b559c9c6-563c-434e-a716-8bca141c219c","ios":"levelo://app?vid=b559c9c6-563c-434e-a716-8bca141c219c"},"vehicle_type_id":"4","last_reported":1731431272,"current_range_meters":23200,"station_id":"","pricing_plan_id":"cebpf4jnsgd1na2vs0mg"},{"bike_id":"67cb9084-b024-46f2-b3e8-7ce83e2120f1","system_id":"levelo_inurba_marseille","lat":43.265167,"lon":5.395181,"is_reserved":false,"is_disabled":false,"rental_uris":{"android":"levelo://app?vid=67cb9084-b024-46f2-b3e8-7ce83e2120f1","ios":"levelo://app?vid=67cb9084-b024-46f2-b3e8-7ce83e2120f1"},"vehicle_type_id":"4","last_reported":1731431272,"current_range_meters":33200,"station_id":"ce4bhi12rcd13ifvqfq0","pricing_plan_id":"cebpf4jnsgd1na2vs0mg"},{"bike_id":"916729ae-1270-4185-8820-d50c1cb28eb4","system_id":"levelo_inurba_marseille","lat":43.29424,"lon":5.38622,"is_reserved":false,"is_disabled":false,"rental_uris":{"android":"levelo://app?vid=916729ae-1270-4185-8820-d50c1cb28eb4","ios":"levelo://app?vid=916729ae-1270-4185-8820-d50c1cb28eb4"},"vehicle_type_id":"4","last_reported":1731431272,"current_range_meters":25600,"station_id":"ce4bh2h2rcd13ifvqdh0","pricing_plan_id":"cebpf4jnsgd1na2vs0mg"},{"bike_id":"e1f2424d-96e3-41c7-9f8d-6dd18a27c6ce","system_id":"levelo_inurba_marseille","lat":43.27434,"lon":5.39424,"is_reserved":false,"is_disabled":false,"rental_uris":{"android":"levelo://app?vid=e1f2424d-96e3-41c7-9f8d-6dd18a27c6ce","ios":"levelo://app?vid=e1f2424d-96e3-41c7-9f8d-6dd18a27c6ce"},"vehicle_type_id":"4","last_reported":1731431272,"current_range_meters":40000,"station_id":"ce4bhdp2rcd13ifvqf20","pricing_plan_id":"cebpf4jnsgd1na2vs0mg"},{"bike_id":"76738a10-f230-4cc3-8218-fde68dc5c9d3","system_id":"levelo_inurba_marseille","lat":43.30258,"lon":5.40081,"is_reserved":false,"is_disabled":false,"rental_uris":{"android":"levelo://app?vid=76738a10-f230-4cc3-8218-fde68dc5c9d3","ios":"levelo://app?vid=76738a10-f230-4cc3-8218-fde68dc5c9d3"},"vehicle_type_id":"4","last_reported":1731431272,"current_range_meters":32800,"station_id":"ce4bgvh2rcd13ifvqcs0","pricing_plan_id":"cebpf4jnsgd1na2vs0mg"},{"bike_id":"0db11cc2-43df-43d4-ba1f-54e31097abf2","system_id":"levelo_inurba_marseille","lat":43.26944,"lon":5.40251,"is_reserved":false,"is_disabled":false,"rental_uris":{"android":"levelo://app?vid=0db11cc2-43df-43d4-ba1f-54e31097abf2","ios":"levelo://app?vid=0db11cc2-43df-43d4-ba1f-54e31097abf2"},"vehicle_type_id":"4","last_reported":1731431272,"current_range_meters":37600,"station_id":"cjm6bp8fraef2m0cb0m0","pricing_plan_id":"cebpf4jnsgd1na2vs0mg"},{"bike_id":"f0a40cc6-a1da-4af9-a14b-5e586331dd8e","system_id":"levelo_inurba_marseille","lat":43.29914,"lon":5.37473,"is_reserved":false,"is_disabled":false,"rental_uris":{"android":"levelo://app?vid=f0a40cc6-a1da-4af9-a14b-5e586331dd8e","ios":"levelo://app?vid=f0a40cc6-a1da-4af9-a14b-5e586331dd8e"},"vehicle_type_id":"4","last_reported":1731431272,"current_range_meters":7200,"station_id":"ce4bgjh2rcd13ifvqbg0","pricing_plan_id":"cebpf4jnsgd1na2vs0mg"},{"bike_id":"c1b8d31c-a84c-452b-a37c-c4439ca46883","system_id":"levelo_inurba_marseille","lat":43.28659,"lon":5.36343,"is_reserved":false,"is_disabled":false,"rental_uris":{"android":"levelo://app?vid=c1b8d31c-a84c-452b-a37c-c4439ca46883","ios":"levelo://app?vid=c1b8d31c-a84c-452b-a37c-c4439ca46883"},"vehicle_type_id":"4","last_reported":1731431272,"current_range_meters":30400,"station_id":"ce4bhah2rcd13ifvqej0","pricing_plan_id":"cebpf4jnsgd1na2vs0mg"},{"bike_id":"690959e1-32d7-492f-a674-cbcd4a6a2909","system_id":"levelo_inurba_marseille","lat":43.27916,"lon":5.39577,"is_reserved":false,"is_disabled":false,"rental_uris":{"android":"levelo://app?vid=690959e1-32d7-492f-a674-cbcd4a6a2909","ios":"levelo://app?vid=690959e1-32d7-492f-a674-cbcd4a6a2909"},"vehicle_type_id":"4","last_reported":1731431272,"current_range_meters":35600,"station_id":"ce4bhf92rcd13ifvqf40","pricing_plan_id":"cebpf4jnsgd1na2vs0mg"},{"bike_id":"2d11c320-a81b-424e-80ce-d8ac1193642b","system_id":"levelo_inurba_marseille","lat":43.27813,"lon":5.40708,"is_reserved":false,"is_disabled":false,"rental_uris":{"android":"levelo://app?vid=2d11c320-a81b-424e-80ce-d8ac1193642b","ios":"levelo://app?vid=2d11c320-a81b-424e-80ce-d8ac1193642b"},"vehicle_type_id":"4","last_reported":1731431272,"current_range_meters":36800,"station_id":"ce4bhnh2rcd13ifvqgtg","pricing_plan_id":"cebpf4jnsgd1na2vs0mg"},{"bike_id":"a4f7aba9-c023-4228-aeef-98fda0d19c88","system_id":"levelo_inurba_marseille","lat":43.2572,"lon":5.41114,"is_reserved":false,"is_disabled":false,"rental_uris":{"android":"levelo://app?vid=a4f7aba9-c023-4228-aeef-98fda0d19c88","ios":"levelo://app?vid=a4f7aba9-c023-4228-aeef-98fda0d19c88"},"vehicle_type_id":"4","last_reported":1731431272,"current_range_meters":38800,"station_id":"ce4bhkp2rcd13ifvqgd0","pricing_plan_id":"cebpf4jnsgd1na2vs0mg"},{"bike_id":"58f18ecf-ad63-4b43-bcdf-8c1e9fb66eea","system_id":"levelo_inurba_marseille","lat":43.27074,"lon":5.42282,"is_reserved":false,"is_disabled":false,"rental_uris":{"android":"levelo://app?vid=58f18ecf-ad63-4b43-bcdf-8c1e9fb66eea","ios":"levelo://app?vid=58f18ecf-ad63-4b43-bcdf-8c1e9fb66eea"},"vehicle_type_id":"4","last_reported":1731431272,"current_range_meters":21600,"station_id":"ce4bhk92rcd13ifvqgb0","pricing_plan_id":"cebpf4jnsgd1na2vs0mg"},{"bike_id":"63a15a7f-3b4c-4b70-a6b7-1e78a69e9120","system_id":"levelo_inurba_marseille","lat":43.26494,"lon":5.39536,"is_reserved":false,"is_disabled":false,"rental_uris":{"android":"levelo://app?vid=63a15a7f-3b4c-4b70-a6b7-1e78a69e9120","ios":"levelo://app?vid=63a15a7f-3b4c-4b70-a6b7-1e78a69e9120"},"vehicle_type_id":"4","last_reported":1731431272,"current_range_meters":38800,"station_id":"ce4bhi12rcd13ifvqfq0","pricing_plan_id":"cebpf4jnsgd1na2vs0mg"},{"bike_id":"e62bb96a-ded7-4199-85d5-f7da5543f92d","system_id":"levelo_inurba_marseille","lat":43.30245,"lon":5.40086,"is_reserved":false,"is_disabled":false,"rental_uris":{"android":"levelo://app?vid=e62bb96a-ded7-4199-85d5-f7da5543f92d","ios":"levelo://app?vid=e62bb96a-ded7-4199-85d5-f7da5543f92d"},"vehicle_type_id":"4","last_reported":1731431272,"current_range_meters":6400,"station_id":"ce4bgvh2rcd13ifvqcs0","pricing_plan_id":"cebpf4jnsgd1na2vs0mg"},{"bike_id":"640d20b0-1a6e-4b5e-8a21-81a6a04ac2f2","system_id":"levelo_inurba_marseille","lat":43.27837,"lon":5.39205,"is_reserved":false,"is_disabled":false,"rental_uris":{"android":"levelo://app?vid=640d20b0-1a6e-4b5e-8a21-81a6a04ac2f2","ios":"levelo://app?vid=640d20b0-1a6e-4b5e-8a21-81a6a04ac2f2"},"vehicle_type_id":"4","last_reported":1731431272,"current_range_meters":32800,"station_id":"ce4bhjp2rcd13ifvqga0","pricing_plan_id":"cebpf4jnsgd1na2vs0mg"},{"bike_id":"ffa338f4-66f3-4cc4-8f6f-0ef0fb8ce298","system_id":"levelo_inurba_marseille","lat":43.26558,"lon":5.3728,"is_reserved":false,"is_disabled":false,"rental_uris":{"android":"levelo://app?vid=ffa338f4-66f3-4cc4-8f6f-0ef0fb8ce298","ios":"levelo://app?vid=ffa338f4-66f3-4cc4-8f6f-0ef0fb8ce298"},"vehicle_type_id":"4","last_reported":1731431272,"current_range_meters":28800,"station_id":"ce4bhg12rcd13ifvqf70","pricing_plan_id":"cebpf4jnsgd1na2vs0mg"},{"bike_id":"3f7f3df8-50d9-475f-8a41-f4a7ada046d4","system_id":"levelo_inurba_marseille","lat":43.31863,"lon":5.37477,"is_reserved":false,"is_disabled":false,"rental_uris":{"android":"levelo://app?vid=3f7f3df8-50d9-475f-8a41-f4a7ada046d4","ios":"levelo://app?vid=3f7f3df8-50d9-475f-8a41-f4a7ada046d4"},"vehicle_type_id":"4","last_reported":1731431272,"current_range_meters":27600,"station_id":"","pricing_plan_id":"cebpf4jnsgd1na2vs0mg"},{"bike_id":"b7fa613e-a739-41ea-9182-838c65034c2f","system_id":"levelo_inurba_marseille","lat":43.309296,"lon":5.401437,"is_reserved":false,"is_disabled":false,"rental_uris":{"android":"levelo://app?vid=b7fa613e-a739-41ea-9182-838c65034c2f","ios":"levelo://app?vid=b7fa613e-a739-41ea-9182-838c65034c2f"},"vehicle_type_id":"4","last_reported":1731431272,"current_range_meters":23200,"station_id":"ce4bgvp2rcd13ifvqct0","pricing_plan_id":"cebpf4jnsgd1na2vs0mg"},{"bike_id":"c0aa0c75-d15f-4c6b-b77e-5e1ca95eb6f0","system_id":"levelo_inurba_marseille","lat":43.29031,"lon":5.38651,"is_reserved":false,"is_disabled":false,"rental_uris":{"android":"levelo://app?vid=c0aa0c75-d15f-4c6b-b77e-5e1ca95eb6f0","ios":"levelo://app?vid=c0aa0c75-d15f-4c6b-b77e-5e1ca95eb6f0"},"vehicle_type_id":"4","last_reported":1731431272,"current_range_meters":37600,"station_id":"ce4bh4p2rcd13ifvqe0g","pricing_plan_id":"cebpf4jnsgd1na2vs0mg"},{"bike_id":"03e7c2d6-7943-4034-92e7-7194dfabc013","system_id":"levelo_inurba_marseille","lat":43.23068,"lon":5.35491,"is_reserved":false,"is_disabled":false,"rental_uris":{"android":"levelo://app?vid=03e7c2d6-7943-4034-92e7-7194dfabc013","ios":"levelo://app?vid=03e7c2d6-7943-4034-92e7-7194dfabc013"},"vehicle_type_id":"4","last_reported":1731431272,"current_range_meters":2800,"station_id":"cpo3342slgdg3j2ifvpg","pricing_plan_id":"cebpf4jnsgd1na2vs0mg"},{"bike_id":"c64a8077-1b9b-47fd-8da4-6f7247d1ed83","system_id":"levelo_inurba_marseille","lat":43.25719,"lon":5.41117,"is_reserved":false,"is_disabled":false,"rental_uris":{"android":"levelo://app?vid=c64a8077-1b9b-47fd-8da4-6f7247d1ed83","ios":"levelo://app?vid=c64a8077-1b9b-47fd-8da4-6f7247d1ed83"},"vehicle_type_id":"4","last_reported":1731431272,"current_range_meters":31200,"station_id":"ce4bhkp2rcd13ifvqgd0","pricing_plan_id":"cebpf4jnsgd1na2vs0mg"},{"bike_id":"396c8b4f-48ec-4c92-8cae-2d186c72b345","system_id":"levelo_inurba_marseille","lat":43.26789,"lon":5.3941,"is_reserved":false,"is_disabled":false,"rental_uris":{"android":"levelo://app?vid=396c8b4f-48ec-4c92-8cae-2d186c72b345","ios":"levelo://app?vid=396c8b4f-48ec-4c92-8cae-2d186c72b345"},"vehicle_type_id":"4","last_reported":1731431272,"current_range_meters":32400,"station_id":"ce4bhh12rcd13ifvqfg0","pricing_plan_id":"cebpf4jnsgd1na2vs0mg"},{"bike_id":"1df6d920-f88d-48b1-98f9-19f870fdc7c7","system_id":"levelo_inurba_marseille","lat":43.26929,"lon":5.38911,"is_reserved":false,"is_disabled":false,"rental_uris":{"android":"levelo://app?vid=1df6d920-f88d-48b1-98f9-19f870fdc7c7","ios":"levelo://app?vid=1df6d920-f88d-48b1-98f9-19f870fdc7c7"},"vehicle_type_id":"4","last_reported":1731431272,"current_range_meters":32400,"station_id":"ce4bhhh2rcd13ifvqfl0","pricing_plan_id":"cebpf4jnsgd1na2vs0mg"},{"bike_id":"0e171ddd-bcf2-4897-a3c5-4bcad6a3968d","system_id":"levelo_inurba_marseille","lat":43.29553,"lon":5.42295,"is_reserved":false,"is_disabled":false,"rental_uris":{"android":"levelo://app?vid=0e171ddd-bcf2-4897-a3c5-4bcad6a3968d","ios":"levelo://app?vid=0e171ddd-bcf2-4897-a3c5-4bcad6a3968d"},"vehicle_type_id":"4","last_reported":1731431272,"current_range_meters":37600,"station_id":"ce4bhph2rcd13ifvqhdg","pricing_plan_id":"cebpf4jnsgd1na2vs0mg"},{"bike_id":"b736b105-1e46-4ca7-987a-5290ff378b69","system_id":"levelo_inurba_marseille","lat":43.29901,"lon":5.38894,"is_reserved":false,"is_disabled":false,"rental_uris":{"android":"levelo://app?vid=b736b105-1e46-4ca7-987a-5290ff378b69","ios":"levelo://app?vid=b736b105-1e46-4ca7-987a-5290ff378b69"},"vehicle_type_id":"4","last_reported":1731431272,"current_range_meters":36800,"station_id":"ce4bh392rcd13ifvqdl0","pricing_plan_id":"cebpf4jnsgd1na2vs0mg"},{"bike_id":"c9bede44-42dd-4f91-bdfe-282ce1806246","system_id":"levelo_inurba_marseille","lat":43.29601,"lon":5.38107,"is_reserved":false,"is_disabled":false,"rental_uris":{"android":"levelo://app?vid=c9bede44-42dd-4f91-bdfe-282ce1806246","ios":"levelo://app?vid=c9bede44-42dd-4f91-bdfe-282ce1806246"},"vehicle_type_id":"4","last_reported":1731431272,"current_range_meters":35200,"station_id":"ce4bgl12rcd13ifvqbo0","pricing_plan_id":"cebpf4jnsgd1na2vs0mg"},{"bike_id":"e92c5947-6d80-41ba-aecc-06ded8281947","system_id":"levelo_inurba_marseille","lat":43.32475,"lon":5.3657,"is_reserved":false,"is_disabled":false,"rental_uris":{"android":"levelo://app?vid=e92c5947-6d80-41ba-aecc-06ded8281947","ios":"levelo://app?vid=e92c5947-6d80-41ba-aecc-06ded8281947"},"vehicle_type_id":"4","last_reported":1731431272,"current_range_meters":36400,"station_id":"ce4bhs12rcd13ifvqhvg","pricing_plan_id":"cebpf4jnsgd1na2vs0mg"},{"bike_id":"7171e6db-52e2-436e-b34b-e04dcf85ebe3","system_id":"levelo_inurba_marseille","lat":43.30532,"lon":5.36717,"is_reserved":false,"is_disabled":false,"rental_uris":{"android":"levelo://app?vid=7171e6db-52e2-436e-b34b-e04dcf85ebe3","ios":"levelo://app?vid=7171e6db-52e2-436e-b34b-e04dcf85ebe3"},"vehicle_type_id":"4","last_reported":1731431272,"current_range_meters":34800,"station_id":"ce4bgrp2rcd13ifvqc9g","pricing_plan_id":"cebpf4jnsgd1na2vs0mg"},{"bike_id":"6d1d7ff5-212c-4c20-b347-740ab3978966","system_id":"levelo_inurba_marseille","lat":43.28696,"lon":5.39971,"is_reserved":false,"is_disabled":false,"rental_uris":{"android":"levelo://app?vid=6d1d7ff5-212c-4c20-b347-740ab3978966","ios":"levelo://app?vid=6d1d7ff5-212c-4c20-b347-740ab3978966"},"vehicle_type_id":"4","last_reported":1731431272,"current_range_meters":31200,"station_id":"ce4bho92rcd13ifvqh3g","pricing_plan_id":"cebpf4jnsgd1na2vs0mg"},{"bike_id":"b9ecfbcf-3cfc-4dc2-a21d-c9650bd6e460","system_id":"levelo_inurba_marseille","lat":43.30542,"lon":5.365343,"is_reserved":false,"is_disabled":false,"rental_uris":{"android":"levelo://app?vid=b9ecfbcf-3cfc-4dc2-a21d-c9650bd6e460","ios":"levelo://app?vid=b9ecfbcf-3cfc-4dc2-a21d-c9650bd6e460"},"vehicle_type_id":"4","last_reported":1731431272,"current_range_meters":39200,"station_id":"ce4bgs12rcd13ifvqcag","pricing_plan_id":"cebpf4jnsgd1na2vs0mg"},{"bike_id":"6c0a10f0-3585-4f81-a649-6194583059bc","system_id":"levelo_inurba_marseille","lat":43.27576,"lon":5.38414,"is_reserved":false,"is_disabled":false,"rental_uris":{"android":"levelo://app?vid=6c0a10f0-3585-4f81-a649-6194583059bc","ios":"levelo://app?vid=6c0a10f0-3585-4f81-a649-6194583059bc"},"vehicle_type_id":"4","last_reported":1731431272,"current_range_meters":21600,"station_id":"ce4bhh92rcd13ifvqfi0","pricing_plan_id":"cebpf4jnsgd1na2vs0mg"},{"bike_id":"4560d80d-b770-46a9-8ac0-6fe10fc64b4e","system_id":"levelo_inurba_marseille","lat":43.28041,"lon":5.3695,"is_reserved":false,"is_disabled":false,"rental_uris":{"android":"levelo://app?vid=4560d80d-b770-46a9-8ac0-6fe10fc64b4e","ios":"levelo://app?vid=4560d80d-b770-46a9-8ac0-6fe10fc64b4e"},"vehicle_type_id":"4","last_reported":1731431272,"current_range_meters":33200,"station_id":"ce4bha12rcd13ifvqef0","pricing_plan_id":"cebpf4jnsgd1na2vs0mg"},{"bike_id":"542f9556-61e5-436a-b1e2-2baa2a16c5d1","system_id":"levelo_inurba_marseille","lat":43.3237,"lon":5.38885,"is_reserved":false,"is_disabled":false,"rental_uris":{"android":"levelo://app?vid=542f9556-61e5-436a-b1e2-2baa2a16c5d1","ios":"levelo://app?vid=542f9556-61e5-436a-b1e2-2baa2a16c5d1"},"vehicle_type_id":"4","last_reported":1731431272,"current_range_meters":26800,"station_id":"ce4bhqp2rcd13ifvqhog","pricing_plan_id":"cebpf4jnsgd1na2vs0mg"},{"bike_id":"e6e8b17e-b78a-47f8-87b6-edf9fe27d935","system_id":"levelo_inurba_marseille","lat":43.26942,"lon":5.40249,"is_reserved":false,"is_disabled":false,"rental_uris":{"android":"levelo://app?vid=e6e8b17e-b78a-47f8-87b6-edf9fe27d935","ios":"levelo://app?vid=e6e8b17e-b78a-47f8-87b6-edf9fe27d935"},"vehicle_type_id":"4","last_reported":1731431272,"current_range_meters":38400,"station_id":"cjm6bp8fraef2m0cb0m0","pricing_plan_id":"cebpf4jnsgd1na2vs0mg"},{"bike_id":"4e009cbb-f727-4a18-8010-18009e303f5c","system_id":"levelo_inurba_marseille","lat":43.27908,"lon":5.3802,"is_reserved":false,"is_disabled":false,"rental_uris":{"android":"levelo://app?vid=4e009cbb-f727-4a18-8010-18009e303f5c","ios":"levelo://app?vid=4e009cbb-f727-4a18-8010-18009e303f5c"},"vehicle_type_id":"4","last_reported":1731431272,"current_range_meters":37600,"station_id":"ce4bhf92rcd13ifvqf50","pricing_plan_id":"cebpf4jnsgd1na2vs0mg"},{"bike_id":"c54f9dc0-6494-43f2-a750-fac5cc34d6b4","system_id":"levelo_inurba_marseille","lat":43.29543,"lon":5.39397,"is_reserved":false,"is_disabled":false,"rental_uris":{"android":"levelo://app?vid=c54f9dc0-6494-43f2-a750-fac5cc34d6b4","ios":"levelo://app?vid=c54f9dc0-6494-43f2-a750-fac5cc34d6b4"},"vehicle_type_id":"4","last_reported":1731431272,"current_range_meters":38800,"station_id":"ce4bh292rcd13ifvqdf0","pricing_plan_id":"cebpf4jnsgd1na2vs0mg"},{"bike_id":"593dd953-92e9-4448-9d82-ca754ac12605","system_id":"levelo_inurba_marseille","lat":43.25092,"lon":5.39527,"is_reserved":false,"is_disabled":false,"rental_uris":{"android":"levelo://app?vid=593dd953-92e9-4448-9d82-ca754ac12605","ios":"levelo://app?vid=593dd953-92e9-4448-9d82-ca754ac12605"},"vehicle_type_id":"4","last_reported":1731431272,"current_range_meters":22000,"station_id":"ce4bhm12rcd13ifvqgkg","pricing_plan_id":"cebpf4jnsgd1na2vs0mg"},{"bike_id":"98a41b55-783d-4a53-9a0a-09f9b47b2669","system_id":"levelo_inurba_marseille","lat":43.23197,"lon":5.35556,"is_reserved":false,"is_disabled":false,"rental_uris":{"android":"levelo://app?vid=98a41b55-783d-4a53-9a0a-09f9b47b2669","ios":"levelo://app?vid=98a41b55-783d-4a53-9a0a-09f9b47b2669"},"vehicle_type_id":"4","last_reported":1731431272,"current_range_meters":18800,"station_id":"ce4bhu92rcd13ifvqi70","pricing_plan_id":"cebpf4jnsgd1na2vs0mg"},{"bike_id":"9b899324-9bf0-4e7e-944b-128cdc9d3596","system_id":"levelo_inurba_marseille","lat":43.25568,"lon":5.38239,"is_reserved":false,"is_disabled":false,"rental_uris":{"android":"levelo://app?vid=9b899324-9bf0-4e7e-944b-128cdc9d3596","ios":"levelo://app?vid=9b899324-9bf0-4e7e-944b-128cdc9d3596"},"vehicle_type_id":"4","last_reported":1731431272,"current_range_meters":32400,"station_id":"ce4bhih2rcd13ifvqfs0","pricing_plan_id":"cebpf4jnsgd1na2vs0mg"},{"bike_id":"024df2db-6d9b-45f8-8b41-87c99d2ddf3b","system_id":"levelo_inurba_marseille","lat":43.30418,"lon":5.41284,"is_reserved":false,"is_disabled":false,"rental_uris":{"android":"levelo://app?vid=024df2db-6d9b-45f8-8b41-87c99d2ddf3b","ios":"levelo://app?vid=024df2db-6d9b-45f8-8b41-87c99d2ddf3b"},"vehicle_type_id":"4","last_reported":1731431272,"current_range_meters":38800,"station_id":"ce4bhop2rcd13ifvqh8g","pricing_plan_id":"cebpf4jnsgd1na2vs0mg"},{"bike_id":"33982fe9-a903-40cd-a32c-32a0ffad344a","system_id":"levelo_inurba_marseille","lat":43.28471,"lon":5.35887,"is_reserved":false,"is_disabled":false,"rental_uris":{"android":"levelo://app?vid=33982fe9-a903-40cd-a32c-32a0ffad344a","ios":"levelo://app?vid=33982fe9-a903-40cd-a32c-32a0ffad344a"},"vehicle_type_id":"4","last_reported":1731431272,"current_range_meters":33200,"station_id":"ce4bhah2rcd13ifvqei0","pricing_plan_id":"cebpf4jnsgd1na2vs0mg"},{"bike_id":"52a803cd-037c-4542-9657-84b331aca8ec","system_id":"levelo_inurba_marseille","lat":43.27435,"lon":5.39419,"is_reserved":false,"is_disabled":false,"rental_uris":{"android":"levelo://app?vid=52a803cd-037c-4542-9657-84b331aca8ec","ios":"levelo://app?vid=52a803cd-037c-4542-9657-84b331aca8ec"},"vehicle_type_id":"4","last_reported":1731431272,"current_range_meters":40000,"station_id":"ce4bhdp2rcd13ifvqf20","pricing_plan_id":"cebpf4jnsgd1na2vs0mg"},{"bike_id":"e8954a64-58d2-482b-96b4-fe3607075f13","system_id":"levelo_inurba_marseille","lat":43.26935,"lon":5.38921,"is_reserved":false,"is_disabled":false,"rental_uris":{"android":"levelo://app?vid=e8954a64-58d2-482b-96b4-fe3607075f13","ios":"levelo://app?vid=e8954a64-58d2-482b-96b4-fe3607075f13"},"vehicle_type_id":"4","last_reported":1731431272,"current_range_meters":34800,"station_id":"ce4bhhh2rcd13ifvqfl0","pricing_plan_id":"cebpf4jnsgd1na2vs0mg"},{"bike_id":"653ccebd-1a09-482b-b6a1-4473a75c6bb2","system_id":"levelo_inurba_marseille","lat":43.26945,"lon":5.40252,"is_reserved":false,"is_disabled":false,"rental_uris":{"android":"levelo://app?vid=653ccebd-1a09-482b-b6a1-4473a75c6bb2","ios":"levelo://app?vid=653ccebd-1a09-482b-b6a1-4473a75c6bb2"},"vehicle_type_id":"4","last_reported":1731431272,"current_range_meters":35600,"station_id":"cjm6bp8fraef2m0cb0m0","pricing_plan_id":"cebpf4jnsgd1na2vs0mg"},{"bike_id":"f69c3578-2978-4e1e-88dc-719dff2dcb38","system_id":"levelo_inurba_marseille","lat":43.2955,"lon":5.39393,"is_reserved":false,"is_disabled":false,"rental_uris":{"android":"levelo://app?vid=f69c3578-2978-4e1e-88dc-719dff2dcb38","ios":"levelo://app?vid=f69c3578-2978-4e1e-88dc-719dff2dcb38"},"vehicle_type_id":"4","last_reported":1731431272,"current_range_meters":36800,"station_id":"ce4bh292rcd13ifvqdf0","pricing_plan_id":"cebpf4jnsgd1na2vs0mg"},{"bike_id":"afa715b5-1241-4d6f-8f78-73e0daefc925","system_id":"levelo_inurba_marseille","lat":43.29007,"lon":5.3561,"is_reserved":false,"is_disabled":false,"rental_uris":{"android":"levelo://app?vid=afa715b5-1241-4d6f-8f78-73e0daefc925","ios":"levelo://app?vid=afa715b5-1241-4d6f-8f78-73e0daefc925"},"vehicle_type_id":"4","last_reported":1731431272,"current_range_meters":36400,"station_id":"ce4bhb92rcd13ifvqen0","pricing_plan_id":"cebpf4jnsgd1na2vs0mg"},{"bike_id":"1a1b75e8-7bcb-4adb-8dd6-6afbaba86775","system_id":"levelo_inurba_marseille","lat":43.29257,"lon":5.40906,"is_reserved":false,"is_disabled":false,"rental_uris":{"android":"levelo://app?vid=1a1b75e8-7bcb-4adb-8dd6-6afbaba86775","ios":"levelo://app?vid=1a1b75e8-7bcb-4adb-8dd6-6afbaba86775"},"vehicle_type_id":"4","last_reported":1731431272,"current_range_meters":16000,"station_id":"ce4bh192rcd13ifvqdc0","pricing_plan_id":"cebpf4jnsgd1na2vs0mg"},{"bike_id":"3ee4df3f-aec6-4ea4-91a9-55e9372637f0","system_id":"levelo_inurba_marseille","lat":43.26558,"lon":5.37285,"is_reserved":false,"is_disabled":false,"rental_uris":{"android":"levelo://app?vid=3ee4df3f-aec6-4ea4-91a9-55e9372637f0","ios":"levelo://app?vid=3ee4df3f-aec6-4ea4-91a9-55e9372637f0"},"vehicle_type_id":"4","last_reported":1731431272,"current_range_meters":26000,"station_id":"ce4bhg12rcd13ifvqf70","pricing_plan_id":"cebpf4jnsgd1na2vs0mg"},{"bike_id":"0606443b-4369-42a4-bea1-57669a14e9a4","system_id":"levelo_inurba_marseille","lat":43.27816,"lon":5.40714,"is_reserved":false,"is_disabled":false,"rental_uris":{"android":"levelo://app?vid=0606443b-4369-42a4-bea1-57669a14e9a4","ios":"levelo://app?vid=0606443b-4369-42a4-bea1-57669a14e9a4"},"vehicle_type_id":"4","last_reported":1731431272,"current_range_meters":37600,"station_id":"ce4bhnh2rcd13ifvqgtg","pricing_plan_id":"cebpf4jnsgd1na2vs0mg"},{"bike_id":"0fb7af37-ed7e-4639-a28c-e6d4b52ce80c","system_id":"levelo_inurba_marseille","lat":43.30934,"lon":5.40156,"is_reserved":false,"is_disabled":false,"rental_uris":{"android":"levelo://app?vid=0fb7af37-ed7e-4639-a28c-e6d4b52ce80c","ios":"levelo://app?vid=0fb7af37-ed7e-4639-a28c-e6d4b52ce80c"},"vehicle_type_id":"4","last_reported":1731431272,"current_range_meters":38000,"station_id":"ce4bgvp2rcd13ifvqct0","pricing_plan_id":"cebpf4jnsgd1na2vs0mg"},{"bike_id":"c854b97e-9617-447f-b99c-ee2e070c2efa","system_id":"levelo_inurba_marseille","lat":43.30322,"lon":5.40439,"is_reserved":false,"is_disabled":false,"rental_uris":{"android":"levelo://app?vid=c854b97e-9617-447f-b99c-ee2e070c2efa","ios":"levelo://app?vid=c854b97e-9617-447f-b99c-ee2e070c2efa"},"vehicle_type_id":"4","last_reported":1731431272,"current_range_meters":36800,"station_id":"ce4bh012rcd13ifvqd10","pricing_plan_id":"cebpf4jnsgd1na2vs0mg"},{"bike_id":"c807c55b-a013-46e6-b4ae-1a602698c401","system_id":"levelo_inurba_marseille","lat":43.24387,"lon":5.3706,"is_reserved":false,"is_disabled":false,"rental_uris":{"android":"levelo://app?vid=c807c55b-a013-46e6-b4ae-1a602698c401","ios":"levelo://app?vid=c807c55b-a013-46e6-b4ae-1a602698c401"},"vehicle_type_id":"4","last_reported":1731431272,"current_range_meters":26000,"station_id":"ce4bhhh2rcd13ifvqfk0","pricing_plan_id":"cebpf4jnsgd1na2vs0mg"},{"bike_id":"aa81cd4d-52e5-4916-b3b1-6e135085c8ef","system_id":"levelo_inurba_marseille","lat":43.24801,"lon":5.37461,"is_reserved":false,"is_disabled":false,"rental_uris":{"android":"levelo://app?vid=aa81cd4d-52e5-4916-b3b1-6e135085c8ef","ios":"levelo://app?vid=aa81cd4d-52e5-4916-b3b1-6e135085c8ef"},"vehicle_type_id":"4","last_reported":1731431272,"current_range_meters":38800,"station_id":"ce4bhgh2rcd13ifvqfb0","pricing_plan_id":"cebpf4jnsgd1na2vs0mg"},{"bike_id":"af3c2379-836a-42b2-a7e4-5e983acec102","system_id":"levelo_inurba_marseille","lat":43.29258,"lon":5.40912,"is_reserved":false,"is_disabled":false,"rental_uris":{"android":"levelo://app?vid=af3c2379-836a-42b2-a7e4-5e983acec102","ios":"levelo://app?vid=af3c2379-836a-42b2-a7e4-5e983acec102"},"vehicle_type_id":"4","last_reported":1731431272,"current_range_meters":33200,"station_id":"ce4bh192rcd13ifvqdc0","pricing_plan_id":"cebpf4jnsgd1na2vs0mg"},{"bike_id":"0aff73a2-71ea-49bb-8ffc-37117b1f7d2a","system_id":"levelo_inurba_marseille","lat":43.29966,"lon":5.38496,"is_reserved":false,"is_disabled":false,"rental_uris":{"android":"levelo://app?vid=0aff73a2-71ea-49bb-8ffc-37117b1f7d2a","ios":"levelo://app?vid=0aff73a2-71ea-49bb-8ffc-37117b1f7d2a"},"vehicle_type_id":"4","last_reported":1731431272,"current_range_meters":39200,"station_id":"ce4bgj92rcd13ifvqbd0","pricing_plan_id":"cebpf4jnsgd1na2vs0mg"},{"bike_id":"8284ca83-caa9-4b3a-8477-a21e4770ce54","system_id":"levelo_inurba_marseille","lat":43.29733,"lon":5.37692,"is_reserved":false,"is_disabled":false,"rental_uris":{"android":"levelo://app?vid=8284ca83-caa9-4b3a-8477-a21e4770ce54","ios":"levelo://app?vid=8284ca83-caa9-4b3a-8477-a21e4770ce54"},"vehicle_type_id":"4","last_reported":1731431272,"current_range_meters":9600,"station_id":"ce4bgkh2rcd13ifvqbl0","pricing_plan_id":"cebpf4jnsgd1na2vs0mg"},{"bike_id":"ed2020d9-53c9-4082-9a6b-029c3dfcbe63","system_id":"levelo_inurba_marseille","lat":43.29292,"lon":5.39325,"is_reserved":false,"is_disabled":false,"rental_uris":{"android":"levelo://app?vid=ed2020d9-53c9-4082-9a6b-029c3dfcbe63","ios":"levelo://app?vid=ed2020d9-53c9-4082-9a6b-029c3dfcbe63"},"vehicle_type_id":"4","last_reported":1731431272,"current_range_meters":6000,"station_id":"","pricing_plan_id":"cebpf4jnsgd1na2vs0mg"},{"bike_id":"3a592b53-57e2-464e-a19f-ae5ceb8f3494","system_id":"levelo_inurba_marseille","lat":43.30642,"lon":5.40091,"is_reserved":false,"is_disabled":false,"rental_uris":{"android":"levelo://app?vid=3a592b53-57e2-464e-a19f-ae5ceb8f3494","ios":"levelo://app?vid=3a592b53-57e2-464e-a19f-ae5ceb8f3494"},"vehicle_type_id":"4","last_reported":1731431272,"current_range_meters":26000,"station_id":"ce4bh112rcd13ifvqda0","pricing_plan_id":"cebpf4jnsgd1na2vs0mg"},{"bike_id":"7ca33f6b-e349-49e0-8226-5b445a766323","system_id":"levelo_inurba_marseille","lat":43.32102,"lon":5.36777,"is_reserved":false,"is_disabled":false,"rental_uris":{"android":"levelo://app?vid=7ca33f6b-e349-49e0-8226-5b445a766323","ios":"levelo://app?vid=7ca33f6b-e349-49e0-8226-5b445a766323"},"vehicle_type_id":"4","last_reported":1731431272,"current_range_meters":24000,"station_id":"ce4bhrh2rcd13ifvqhug","pricing_plan_id":"cebpf4jnsgd1na2vs0mg"},{"bike_id":"d630cb9a-e8bf-44d9-91ed-7fa483e78ae6","system_id":"levelo_inurba_marseille","lat":43.25087,"lon":5.39514,"is_reserved":false,"is_disabled":false,"rental_uris":{"android":"levelo://app?vid=d630cb9a-e8bf-44d9-91ed-7fa483e78ae6","ios":"levelo://app?vid=d630cb9a-e8bf-44d9-91ed-7fa483e78ae6"},"vehicle_type_id":"4","last_reported":1731431272,"current_range_meters":32400,"station_id":"ce4bhm12rcd13ifvqgkg","pricing_plan_id":"cebpf4jnsgd1na2vs0mg"},{"bike_id":"7eefa272-3116-4b84-a466-6a64c9d9db4c","system_id":"levelo_inurba_marseille","lat":43.28853,"lon":5.35846,"is_reserved":false,"is_disabled":false,"rental_uris":{"android":"levelo://app?vid=7eefa272-3116-4b84-a466-6a64c9d9db4c","ios":"levelo://app?vid=7eefa272-3116-4b84-a466-6a64c9d9db4c"},"vehicle_type_id":"4","last_reported":1731431272,"current_range_meters":37600,"station_id":"ce4bhb12rcd13ifvqem0","pricing_plan_id":"cebpf4jnsgd1na2vs0mg"},{"bike_id":"9b6f4511-578c-42ab-81ac-bef492210160","system_id":"levelo_inurba_marseille","lat":43.31331,"lon":5.39695,"is_reserved":false,"is_disabled":false,"rental_uris":{"android":"levelo://app?vid=9b6f4511-578c-42ab-81ac-bef492210160","ios":"levelo://app?vid=9b6f4511-578c-42ab-81ac-bef492210160"},"vehicle_type_id":"4","last_reported":1731431272,"current_range_meters":38800,"station_id":"ce4bgvp2rcd13ifvqcu0","pricing_plan_id":"cebpf4jnsgd1na2vs0mg"},{"bike_id":"1809c098-d7fb-42db-83b3-2e42d5e84b99","system_id":"levelo_inurba_marseille","lat":43.26776,"lon":5.39418,"is_reserved":false,"is_disabled":false,"rental_uris":{"android":"levelo://app?vid=1809c098-d7fb-42db-83b3-2e42d5e84b99","ios":"levelo://app?vid=1809c098-d7fb-42db-83b3-2e42d5e84b99"},"vehicle_type_id":"4","last_reported":1731431272,"current_range_meters":34800,"station_id":"ce4bhh12rcd13ifvqfg0","pricing_plan_id":"cebpf4jnsgd1na2vs0mg"},{"bike_id":"31fbc62d-402e-475c-a801-a5603d7284c0","system_id":"levelo_inurba_marseille","lat":43.30888,"lon":5.37198,"is_reserved":false,"is_disabled":false,"rental_uris":{"android":"levelo://app?vid=31fbc62d-402e-475c-a801-a5603d7284c0","ios":"levelo://app?vid=31fbc62d-402e-475c-a801-a5603d7284c0"},"vehicle_type_id":"4","last_reported":1731431272,"current_range_meters":22800,"station_id":"ce4bguh2rcd13ifvqckg","pricing_plan_id":"cebpf4jnsgd1na2vs0mg"},{"bike_id":"69fbcf16-3969-467c-a552-8a6da67f6ac9","system_id":"levelo_inurba_marseille","lat":43.30105,"lon":5.39085,"is_reserved":false,"is_disabled":false,"rental_uris":{"android":"levelo://app?vid=69fbcf16-3969-467c-a552-8a6da67f6ac9","ios":"levelo://app?vid=69fbcf16-3969-467c-a552-8a6da67f6ac9"},"vehicle_type_id":"4","last_reported":1731431272,"current_range_meters":19200,"station_id":"ce4bh192rcd13ifvqdb0","pricing_plan_id":"cebpf4jnsgd1na2vs0mg"},{"bike_id":"2d1db9fd-4cc2-4108-9789-2a6f31c92ef2","system_id":"levelo_inurba_marseille","lat":43.30537,"lon":5.36541,"is_reserved":false,"is_disabled":false,"rental_uris":{"android":"levelo://app?vid=2d1db9fd-4cc2-4108-9789-2a6f31c92ef2","ios":"levelo://app?vid=2d1db9fd-4cc2-4108-9789-2a6f31c92ef2"},"vehicle_type_id":"4","last_reported":1731431272,"current_range_meters":39200,"station_id":"ce4bgs12rcd13ifvqcag","pricing_plan_id":"cebpf4jnsgd1na2vs0mg"},{"bike_id":"3a49739d-e0d5-44ce-afc6-bcfbf1160431","system_id":"levelo_inurba_marseille","lat":43.27943,"lon":5.41049,"is_reserved":false,"is_disabled":false,"rental_uris":{"android":"levelo://app?vid=3a49739d-e0d5-44ce-afc6-bcfbf1160431","ios":"levelo://app?vid=3a49739d-e0d5-44ce-afc6-bcfbf1160431"},"vehicle_type_id":"4","last_reported":1731431272,"current_range_meters":33600,"station_id":"ce4bhnp2rcd13ifvqh0g","pricing_plan_id":"cebpf4jnsgd1na2vs0mg"},{"bike_id":"efb0a886-a864-4628-af7f-3b014ea4c4f7","system_id":"levelo_inurba_marseille","lat":43.28417,"lon":5.34994,"is_reserved":false,"is_disabled":false,"rental_uris":{"android":"levelo://app?vid=efb0a886-a864-4628-af7f-3b014ea4c4f7","ios":"levelo://app?vid=efb0a886-a864-4628-af7f-3b014ea4c4f7"},"vehicle_type_id":"4","last_reported":1731431272,"current_range_meters":37600,"station_id":"","pricing_plan_id":"cebpf4jnsgd1na2vs0mg"},{"bike_id":"6cc49a5a-10d7-4481-bb6e-0b4566b7e49e","system_id":"levelo_inurba_marseille","lat":43.3064,"lon":5.4007,"is_reserved":false,"is_disabled":false,"rental_uris":{"android":"levelo://app?vid=6cc49a5a-10d7-4481-bb6e-0b4566b7e49e","ios":"levelo://app?vid=6cc49a5a-10d7-4481-bb6e-0b4566b7e49e"},"vehicle_type_id":"4","last_reported":1731431272,"current_range_meters":38800,"station_id":"ce4bh112rcd13ifvqda0","pricing_plan_id":"cebpf4jnsgd1na2vs0mg"},{"bike_id":"290d9ccc-ec87-4d41-bca2-75fa1cd5e08e","system_id":"levelo_inurba_marseille","lat":43.28861,"lon":5.35842,"is_reserved":false,"is_disabled":false,"rental_uris":{"android":"levelo://app?vid=290d9ccc-ec87-4d41-bca2-75fa1cd5e08e","ios":"levelo://app?vid=290d9ccc-ec87-4d41-bca2-75fa1cd5e08e"},"vehicle_type_id":"4","last_reported":1731431272,"current_range_meters":38800,"station_id":"ce4bhb12rcd13ifvqem0","pricing_plan_id":"cebpf4jnsgd1na2vs0mg"},{"bike_id":"a85b8d19-4ee5-4c73-822a-587d5f556c70","system_id":"levelo_inurba_marseille","lat":43.29625,"lon":5.40598,"is_reserved":false,"is_disabled":false,"rental_uris":{"android":"levelo://app?vid=a85b8d19-4ee5-4c73-822a-587d5f556c70","ios":"levelo://app?vid=a85b8d19-4ee5-4c73-822a-587d5f556c70"},"vehicle_type_id":"4","last_reported":1731431272,"current_range_meters":38800,"station_id":"ce4bh0h2rcd13ifvqd60","pricing_plan_id":"cebpf4jnsgd1na2vs0mg"},{"bike_id":"b0018920-e77e-4e07-936e-d420e8de27ae","system_id":"levelo_inurba_marseille","lat":43.31228,"lon":5.36863,"is_reserved":false,"is_disabled":false,"rental_uris":{"android":"levelo://app?vid=b0018920-e77e-4e07-936e-d420e8de27ae","ios":"levelo://app?vid=b0018920-e77e-4e07-936e-d420e8de27ae"},"vehicle_type_id":"4","last_reported":1731431272,"current_range_meters":22800,"station_id":"ce4bgl92rcd13ifvqbq0","pricing_plan_id":"cebpf4jnsgd1na2vs0mg"},{"bike_id":"d4d03369-cdb7-4f03-a1c2-cda9868865a7","system_id":"levelo_inurba_marseille","lat":43.246568,"lon":5.381657,"is_reserved":false,"is_disabled":false,"rental_uris":{"android":"levelo://app?vid=d4d03369-cdb7-4f03-a1c2-cda9868865a7","ios":"levelo://app?vid=d4d03369-cdb7-4f03-a1c2-cda9868865a7"},"vehicle_type_id":"4","last_reported":1731431272,"current_range_meters":34800,"station_id":"ce4bhih2rcd13ifvqfr0","pricing_plan_id":"cebpf4jnsgd1na2vs0mg"},{"bike_id":"4b793196-2d97-43cd-bb77-27702346a1f5","system_id":"levelo_inurba_marseille","lat":43.30358,"lon":5.41876,"is_reserved":false,"is_disabled":false,"rental_uris":{"android":"levelo://app?vid=4b793196-2d97-43cd-bb77-27702346a1f5","ios":"levelo://app?vid=4b793196-2d97-43cd-bb77-27702346a1f5"},"vehicle_type_id":"4","last_reported":1731431272,"current_range_meters":23200,"station_id":"ce4bhop2rcd13ifvqh7g","pricing_plan_id":"cebpf4jnsgd1na2vs0mg"},{"bike_id":"b35cc190-5a5c-406d-ae69-aacd1e9b605a","system_id":"levelo_inurba_marseille","lat":43.29569,"lon":5.3999,"is_reserved":false,"is_disabled":false,"rental_uris":{"android":"levelo://app?vid=b35cc190-5a5c-406d-ae69-aacd1e9b605a","ios":"levelo://app?vid=b35cc190-5a5c-406d-ae69-aacd1e9b605a"},"vehicle_type_id":"4","last_reported":1731431272,"current_range_meters":16400,"station_id":"ce4bh312rcd13ifvqdj0","pricing_plan_id":"cebpf4jnsgd1na2vs0mg"},{"bike_id":"c3cc0151-3756-4284-a56d-74e20d0dbfa4","system_id":"levelo_inurba_marseille","lat":43.32477,"lon":5.36562,"is_reserved":false,"is_disabled":false,"rental_uris":{"android":"levelo://app?vid=c3cc0151-3756-4284-a56d-74e20d0dbfa4","ios":"levelo://app?vid=c3cc0151-3756-4284-a56d-74e20d0dbfa4"},"vehicle_type_id":"4","last_reported":1731431272,"current_range_meters":26000,"station_id":"ce4bhs12rcd13ifvqhvg","pricing_plan_id":"cebpf4jnsgd1na2vs0mg"},{"bike_id":"ff9caabe-fe7c-4ccf-8baa-fbe9499f71d7","system_id":"levelo_inurba_marseille","lat":43.25088,"lon":5.39526,"is_reserved":false,"is_disabled":false,"rental_uris":{"android":"levelo://app?vid=ff9caabe-fe7c-4ccf-8baa-fbe9499f71d7","ios":"levelo://app?vid=ff9caabe-fe7c-4ccf-8baa-fbe9499f71d7"},"vehicle_type_id":"4","last_reported":1731431272,"current_range_meters":14800,"station_id":"ce4bhm12rcd13ifvqgkg","pricing_plan_id":"cebpf4jnsgd1na2vs0mg"},{"bike_id":"1b78dc6f-bcd7-4772-9063-a0fe1798c19e","system_id":"levelo_inurba_marseille","lat":43.28152,"lon":5.42641,"is_reserved":false,"is_disabled":false,"rental_uris":{"android":"levelo://app?vid=1b78dc6f-bcd7-4772-9063-a0fe1798c19e","ios":"levelo://app?vid=1b78dc6f-bcd7-4772-9063-a0fe1798c19e"},"vehicle_type_id":"4","last_reported":1731431272,"current_range_meters":36800,"station_id":"ce4bhnh2rcd13ifvqgug","pricing_plan_id":"cebpf4jnsgd1na2vs0mg"},{"bike_id":"338beb6c-7d58-4935-9c4c-65b1e1f6e74d","system_id":"levelo_inurba_marseille","lat":43.25006,"lon":5.38918,"is_reserved":false,"is_disabled":false,"rental_uris":{"android":"levelo://app?vid=338beb6c-7d58-4935-9c4c-65b1e1f6e74d","ios":"levelo://app?vid=338beb6c-7d58-4935-9c4c-65b1e1f6e74d"},"vehicle_type_id":"4","last_reported":1731431272,"current_range_meters":20800,"station_id":"ce4bhgp2rcd13ifvqfd0","pricing_plan_id":"cebpf4jnsgd1na2vs0mg"},{"bike_id":"515a80a5-0ba7-4345-8558-977afc45db37","system_id":"levelo_inurba_marseille","lat":43.28728,"lon":5.36083,"is_reserved":false,"is_disabled":false,"rental_uris":{"android":"levelo://app?vid=515a80a5-0ba7-4345-8558-977afc45db37","ios":"levelo://app?vid=515a80a5-0ba7-4345-8558-977afc45db37"},"vehicle_type_id":"4","last_reported":1731431272,"current_range_meters":38800,"station_id":"cki0cbj6b192h4jlfktg","pricing_plan_id":"cebpf4jnsgd1na2vs0mg"},{"bike_id":"7f2168b2-5622-4833-a747-ee2d754883b4","system_id":"levelo_inurba_marseille","lat":43.28347,"lon":5.38112,"is_reserved":false,"is_disabled":false,"rental_uris":{"android":"levelo://app?vid=7f2168b2-5622-4833-a747-ee2d754883b4","ios":"levelo://app?vid=7f2168b2-5622-4833-a747-ee2d754883b4"},"vehicle_type_id":"4","last_reported":1731431272,"current_range_meters":6000,"station_id":"ce4bh412rcd13ifvqdr0","pricing_plan_id":"cebpf4jnsgd1na2vs0mg"},{"bike_id":"75477a1a-4e8c-48d3-bcf2-d9ee5222e19e","system_id":"levelo_inurba_marseille","lat":43.24808,"lon":5.37458,"is_reserved":false,"is_disabled":false,"rental_uris":{"android":"levelo://app?vid=75477a1a-4e8c-48d3-bcf2-d9ee5222e19e","ios":"levelo://app?vid=75477a1a-4e8c-48d3-bcf2-d9ee5222e19e"},"vehicle_type_id":"4","last_reported":1731431272,"current_range_meters":17600,"station_id":"ce4bhgh2rcd13ifvqfb0","pricing_plan_id":"cebpf4jnsgd1na2vs0mg"},{"bike_id":"f9759fe8-3500-4cad-8ee7-da4c287019e9","system_id":"levelo_inurba_marseille","lat":43.32289,"lon":5.38271,"is_reserved":false,"is_disabled":false,"rental_uris":{"android":"levelo://app?vid=f9759fe8-3500-4cad-8ee7-da4c287019e9","ios":"levelo://app?vid=f9759fe8-3500-4cad-8ee7-da4c287019e9"},"vehicle_type_id":"4","last_reported":1731431272,"current_range_meters":6000,"station_id":"ce4bhr12rcd13ifvqhqg","pricing_plan_id":"cebpf4jnsgd1na2vs0mg"},{"bike_id":"257e8fcc-a6ab-4f4b-a151-1263f4c801c2","system_id":"levelo_inurba_marseille","lat":43.28463,"lon":5.35891,"is_reserved":false,"is_disabled":false,"rental_uris":{"android":"levelo://app?vid=257e8fcc-a6ab-4f4b-a151-1263f4c801c2","ios":"levelo://app?vid=257e8fcc-a6ab-4f4b-a151-1263f4c801c2"},"vehicle_type_id":"4","last_reported":1731431272,"current_range_meters":23200,"station_id":"ce4bhah2rcd13ifvqei0","pricing_plan_id":"cebpf4jnsgd1na2vs0mg"},{"bike_id":"be7286c5-8ba3-48f2-9ec2-68842fd15d13","system_id":"levelo_inurba_marseille","lat":43.27379,"lon":5.36243,"is_reserved":false,"is_disabled":false,"rental_uris":{"android":"levelo://app?vid=be7286c5-8ba3-48f2-9ec2-68842fd15d13","ios":"levelo://app?vid=be7286c5-8ba3-48f2-9ec2-68842fd15d13"},"vehicle_type_id":"4","last_reported":1731431272,"current_range_meters":38400,"station_id":"ce4bhbh2rcd13ifvqeo0","pricing_plan_id":"cebpf4jnsgd1na2vs0mg"},{"bike_id":"4d4469f7-5424-4f01-8b8d-6eb6c3573259","system_id":"levelo_inurba_marseille","lat":43.337444,"lon":5.374475,"is_reserved":false,"is_disabled":false,"rental_uris":{"android":"levelo://app?vid=4d4469f7-5424-4f01-8b8d-6eb6c3573259","ios":"levelo://app?vid=4d4469f7-5424-4f01-8b8d-6eb6c3573259"},"vehicle_type_id":"4","last_reported":1731431272,"current_range_meters":37600,"station_id":"","pricing_plan_id":"cebpf4jnsgd1na2vs0mg"},{"bike_id":"abec2844-210b-47ec-989a-5d40d265bbad","system_id":"levelo_inurba_marseille","lat":43.3205,"lon":5.41543,"is_reserved":false,"is_disabled":false,"rental_uris":{"android":"levelo://app?vid=abec2844-210b-47ec-989a-5d40d265bbad","ios":"levelo://app?vid=abec2844-210b-47ec-989a-5d40d265bbad"},"vehicle_type_id":"4","last_reported":1731431272,"current_range_meters":36800,"station_id":"ce4bhq92rcd13ifvqhkg","pricing_plan_id":"cebpf4jnsgd1na2vs0mg"},{"bike_id":"b6c8dd18-c0cf-43bd-8444-21dc55773db5","system_id":"levelo_inurba_marseille","lat":43.28701,"lon":5.39979,"is_reserved":false,"is_disabled":false,"rental_uris":{"android":"levelo://app?vid=b6c8dd18-c0cf-43bd-8444-21dc55773db5","ios":"levelo://app?vid=b6c8dd18-c0cf-43bd-8444-21dc55773db5"},"vehicle_type_id":"4","last_reported":1731431272,"current_range_meters":38800,"station_id":"ce4bho92rcd13ifvqh3g","pricing_plan_id":"cebpf4jnsgd1na2vs0mg"},{"bike_id":"a7a06eea-fb75-4c94-ada0-1dadb648ba27","system_id":"levelo_inurba_marseille","lat":43.26941,"lon":5.40248,"is_reserved":false,"is_disabled":false,"rental_uris":{"android":"levelo://app?vid=a7a06eea-fb75-4c94-ada0-1dadb648ba27","ios":"levelo://app?vid=a7a06eea-fb75-4c94-ada0-1dadb648ba27"},"vehicle_type_id":"4","last_reported":1731431272,"current_range_meters":27200,"station_id":"cjm6bp8fraef2m0cb0m0","pricing_plan_id":"cebpf4jnsgd1na2vs0mg"},{"bike_id":"db63bedc-2c23-4536-821c-60587795bd16","system_id":"levelo_inurba_marseille","lat":43.28856,"lon":5.35849,"is_reserved":false,"is_disabled":false,"rental_uris":{"android":"levelo://app?vid=db63bedc-2c23-4536-821c-60587795bd16","ios":"levelo://app?vid=db63bedc-2c23-4536-821c-60587795bd16"},"vehicle_type_id":"4","last_reported":1731431272,"current_range_meters":37600,"station_id":"ce4bhb12rcd13ifvqem0","pricing_plan_id":"cebpf4jnsgd1na2vs0mg"},{"bike_id":"1cd0b1a4-bdf7-4648-b7b9-9306af3b5de7","system_id":"levelo_inurba_marseille","lat":43.29033,"lon":5.37565,"is_reserved":false,"is_disabled":false,"rental_uris":{"android":"levelo://app?vid=1cd0b1a4-bdf7-4648-b7b9-9306af3b5de7","ios":"levelo://app?vid=1cd0b1a4-bdf7-4648-b7b9-9306af3b5de7"},"vehicle_type_id":"4","last_reported":1731431272,"current_range_meters":36000,"station_id":"ce4bh692rcd13ifvqe90","pricing_plan_id":"cebpf4jnsgd1na2vs0mg"},{"bike_id":"d2d00d0c-0edb-4e3f-a6ed-e620fd87dfdf","system_id":"levelo_inurba_marseille","lat":43.29147,"lon":5.40342,"is_reserved":false,"is_disabled":false,"rental_uris":{"android":"levelo://app?vid=d2d00d0c-0edb-4e3f-a6ed-e620fd87dfdf","ios":"levelo://app?vid=d2d00d0c-0edb-4e3f-a6ed-e620fd87dfdf"},"vehicle_type_id":"4","last_reported":1731431272,"current_range_meters":25200,"station_id":"","pricing_plan_id":"cebpf4jnsgd1na2vs0mg"},{"bike_id":"89a5da73-1a39-4a68-af81-12419c43aa89","system_id":"levelo_inurba_marseille","lat":43.30536,"lon":5.36547,"is_reserved":false,"is_disabled":false,"rental_uris":{"android":"levelo://app?vid=89a5da73-1a39-4a68-af81-12419c43aa89","ios":"levelo://app?vid=89a5da73-1a39-4a68-af81-12419c43aa89"},"vehicle_type_id":"4","last_reported":1731431272,"current_range_meters":39200,"station_id":"ce4bgs12rcd13ifvqcag","pricing_plan_id":"cebpf4jnsgd1na2vs0mg"},{"bike_id":"b29be4a3-c18b-495f-b57e-820ea1ddd696","system_id":"levelo_inurba_marseille","lat":43.27212,"lon":5.40988,"is_reserved":false,"is_disabled":false,"rental_uris":{"android":"levelo://app?vid=b29be4a3-c18b-495f-b57e-820ea1ddd696","ios":"levelo://app?vid=b29be4a3-c18b-495f-b57e-820ea1ddd696"},"vehicle_type_id":"4","last_reported":1731431272,"current_range_meters":11600,"station_id":"ce4bh692rcd13ifvqea0","pricing_plan_id":"cebpf4jnsgd1na2vs0mg"},{"bike_id":"37072477-a60a-4e75-bbc5-20428a0eab38","system_id":"levelo_inurba_marseille","lat":43.34181,"lon":5.38602,"is_reserved":false,"is_disabled":false,"rental_uris":{"android":"levelo://app?vid=37072477-a60a-4e75-bbc5-20428a0eab38","ios":"levelo://app?vid=37072477-a60a-4e75-bbc5-20428a0eab38"},"vehicle_type_id":"4","last_reported":1731431272,"current_range_meters":8000,"station_id":"","pricing_plan_id":"cebpf4jnsgd1na2vs0mg"},{"bike_id":"262ba107-73ae-44a9-9a8a-997543472825","system_id":"levelo_inurba_marseille","lat":43.255832,"lon":5.382314,"is_reserved":false,"is_disabled":false,"rental_uris":{"android":"levelo://app?vid=262ba107-73ae-44a9-9a8a-997543472825","ios":"levelo://app?vid=262ba107-73ae-44a9-9a8a-997543472825"},"vehicle_type_id":"4","last_reported":1731431272,"current_range_meters":36800,"station_id":"ce4bhih2rcd13ifvqfs0","pricing_plan_id":"cebpf4jnsgd1na2vs0mg"},{"bike_id":"63226e73-6cd6-426f-aa94-34d164d6a1ec","system_id":"levelo_inurba_marseille","lat":43.29624,"lon":5.37714,"is_reserved":false,"is_disabled":false,"rental_uris":{"android":"levelo://app?vid=63226e73-6cd6-426f-aa94-34d164d6a1ec","ios":"levelo://app?vid=63226e73-6cd6-426f-aa94-34d164d6a1ec"},"vehicle_type_id":"4","last_reported":1731431272,"current_range_meters":14400,"station_id":"ce4bgi92rcd13ifvqb90","pricing_plan_id":"cebpf4jnsgd1na2vs0mg"},{"bike_id":"93b37589-7dfd-4be7-862a-ef8f19ecce18","system_id":"levelo_inurba_marseille","lat":43.29523,"lon":5.39039,"is_reserved":false,"is_disabled":false,"rental_uris":{"android":"levelo://app?vid=93b37589-7dfd-4be7-862a-ef8f19ecce18","ios":"levelo://app?vid=93b37589-7dfd-4be7-862a-ef8f19ecce18"},"vehicle_type_id":"4","last_reported":1731431272,"current_range_meters":38000,"station_id":"ce4bh3p2rcd13ifvqdp0","pricing_plan_id":"cebpf4jnsgd1na2vs0mg"},{"bike_id":"d9f39dec-9693-4e15-9d6b-56de7e719d1a","system_id":"levelo_inurba_marseille","lat":43.2439,"lon":5.37066,"is_reserved":false,"is_disabled":false,"rental_uris":{"android":"levelo://app?vid=d9f39dec-9693-4e15-9d6b-56de7e719d1a","ios":"levelo://app?vid=d9f39dec-9693-4e15-9d6b-56de7e719d1a"},"vehicle_type_id":"4","last_reported":1731431272,"current_range_meters":38800,"station_id":"ce4bhhh2rcd13ifvqfk0","pricing_plan_id":"cebpf4jnsgd1na2vs0mg"},{"bike_id":"e378433d-4e52-4597-a8db-7eab70404ee3","system_id":"levelo_inurba_marseille","lat":43.26935,"lon":5.38914,"is_reserved":false,"is_disabled":false,"rental_uris":{"android":"levelo://app?vid=e378433d-4e52-4597-a8db-7eab70404ee3","ios":"levelo://app?vid=e378433d-4e52-4597-a8db-7eab70404ee3"},"vehicle_type_id":"4","last_reported":1731431272,"current_range_meters":28400,"station_id":"ce4bhhh2rcd13ifvqfl0","pricing_plan_id":"cebpf4jnsgd1na2vs0mg"},{"bike_id":"ee7d76c7-b22b-449c-a830-e4b2a688b7b5","system_id":"levelo_inurba_marseille","lat":43.28698,"lon":5.37395,"is_reserved":false,"is_disabled":false,"rental_uris":{"android":"levelo://app?vid=ee7d76c7-b22b-449c-a830-e4b2a688b7b5","ios":"levelo://app?vid=ee7d76c7-b22b-449c-a830-e4b2a688b7b5"},"vehicle_type_id":"4","last_reported":1731431272,"current_range_meters":34000,"station_id":"ce4bh3p2rcd13ifvqdq0","pricing_plan_id":"cebpf4jnsgd1na2vs0mg"},{"bike_id":"f707dc40-7c4e-4339-9a49-394a14d218ec","system_id":"levelo_inurba_marseille","lat":43.23183,"lon":5.39994,"is_reserved":false,"is_disabled":false,"rental_uris":{"android":"levelo://app?vid=f707dc40-7c4e-4339-9a49-394a14d218ec","ios":"levelo://app?vid=f707dc40-7c4e-4339-9a49-394a14d218ec"},"vehicle_type_id":"4","last_reported":1731431272,"current_range_meters":36400,"station_id":"ce4bhn12rcd13ifvqgqg","pricing_plan_id":"cebpf4jnsgd1na2vs0mg"},{"bike_id":"2ee5a6ed-b9a0-46d0-b8e6-1a7fd2bfd2ba","system_id":"levelo_inurba_marseille","lat":43.30592,"lon":5.39358,"is_reserved":false,"is_disabled":false,"rental_uris":{"android":"levelo://app?vid=2ee5a6ed-b9a0-46d0-b8e6-1a7fd2bfd2ba","ios":"levelo://app?vid=2ee5a6ed-b9a0-46d0-b8e6-1a7fd2bfd2ba"},"vehicle_type_id":"4","last_reported":1731431272,"current_range_meters":10800,"station_id":"ce4bh0p2rcd13ifvqd80","pricing_plan_id":"cebpf4jnsgd1na2vs0mg"},{"bike_id":"5229e757-7cad-4554-8e13-95d29f89fd37","system_id":"levelo_inurba_marseille","lat":43.2962,"lon":5.38013,"is_reserved":false,"is_disabled":false,"rental_uris":{"android":"levelo://app?vid=5229e757-7cad-4554-8e13-95d29f89fd37","ios":"levelo://app?vid=5229e757-7cad-4554-8e13-95d29f89fd37"},"vehicle_type_id":"4","last_reported":1731431272,"current_range_meters":20800,"station_id":"ce4bhbp2rcd13ifvqerg","pricing_plan_id":"cebpf4jnsgd1na2vs0mg"},{"bike_id":"f44ce557-1d39-432f-8903-1e3ed4e535ba","system_id":"levelo_inurba_marseille","lat":43.3248,"lon":5.36572,"is_reserved":false,"is_disabled":false,"rental_uris":{"android":"levelo://app?vid=f44ce557-1d39-432f-8903-1e3ed4e535ba","ios":"levelo://app?vid=f44ce557-1d39-432f-8903-1e3ed4e535ba"},"vehicle_type_id":"4","last_reported":1731431272,"current_range_meters":24800,"station_id":"ce4bhs12rcd13ifvqhvg","pricing_plan_id":"cebpf4jnsgd1na2vs0mg"},{"bike_id":"3007d1f4-1a50-41df-80aa-66209b1c0dbb","system_id":"levelo_inurba_marseille","lat":43.25867,"lon":5.399,"is_reserved":false,"is_disabled":false,"rental_uris":{"android":"levelo://app?vid=3007d1f4-1a50-41df-80aa-66209b1c0dbb","ios":"levelo://app?vid=3007d1f4-1a50-41df-80aa-66209b1c0dbb"},"vehicle_type_id":"4","last_reported":1731431272,"current_range_meters":10000,"station_id":"ce4bhl92rcd13ifvqghg","pricing_plan_id":"cebpf4jnsgd1na2vs0mg"},{"bike_id":"e61d76b7-902a-445d-bcc0-945b57c90b8c","system_id":"levelo_inurba_marseille","lat":43.337444,"lon":5.374475,"is_reserved":false,"is_disabled":false,"rental_uris":{"android":"levelo://app?vid=e61d76b7-902a-445d-bcc0-945b57c90b8c","ios":"levelo://app?vid=e61d76b7-902a-445d-bcc0-945b57c90b8c"},"vehicle_type_id":"4","last_reported":1731431272,"current_range_meters":4400,"station_id":"","pricing_plan_id":"cebpf4jnsgd1na2vs0mg"},{"bike_id":"f2270fb9-82c9-4d62-813f-3db24ae6e073","system_id":"levelo_inurba_marseille","lat":43.29848,"lon":5.36283,"is_reserved":false,"is_disabled":false,"rental_uris":{"android":"levelo://app?vid=f2270fb9-82c9-4d62-813f-3db24ae6e073","ios":"levelo://app?vid=f2270fb9-82c9-4d62-813f-3db24ae6e073"},"vehicle_type_id":"4","last_reported":1731431272,"current_range_meters":36000,"station_id":"ce4bgpp2rcd13ifvqc3g","pricing_plan_id":"cebpf4jnsgd1na2vs0mg"},{"bike_id":"984f56f9-dcc1-4dc8-b457-a5daa9fa6158","system_id":"levelo_inurba_marseille","lat":43.31227,"lon":5.40144,"is_reserved":false,"is_disabled":false,"rental_uris":{"android":"levelo://app?vid=984f56f9-dcc1-4dc8-b457-a5daa9fa6158","ios":"levelo://app?vid=984f56f9-dcc1-4dc8-b457-a5daa9fa6158"},"vehicle_type_id":"4","last_reported":1731431272,"current_range_meters":33200,"station_id":"ce4bh012rcd13ifvqd00","pricing_plan_id":"cebpf4jnsgd1na2vs0mg"},{"bike_id":"edc286d6-fdbb-4460-9bb6-286274bad6a0","system_id":"levelo_inurba_marseille","lat":43.27191,"lon":5.40993,"is_reserved":false,"is_disabled":false,"rental_uris":{"android":"levelo://app?vid=edc286d6-fdbb-4460-9bb6-286274bad6a0","ios":"levelo://app?vid=edc286d6-fdbb-4460-9bb6-286274bad6a0"},"vehicle_type_id":"4","last_reported":1731431272,"current_range_meters":32400,"station_id":"ce4bhl12rcd13ifvqgf0","pricing_plan_id":"cebpf4jnsgd1na2vs0mg"},{"bike_id":"4754a273-b152-4fba-9101-4c2b171298a4","system_id":"levelo_inurba_marseille","lat":43.2792,"lon":5.395858,"is_reserved":false,"is_disabled":false,"rental_uris":{"android":"levelo://app?vid=4754a273-b152-4fba-9101-4c2b171298a4","ios":"levelo://app?vid=4754a273-b152-4fba-9101-4c2b171298a4"},"vehicle_type_id":"4","last_reported":1731431272,"current_range_meters":36800,"station_id":"ce4bhf92rcd13ifvqf40","pricing_plan_id":"cebpf4jnsgd1na2vs0mg"},{"bike_id":"5324a7a4-0c20-48c5-aff3-8dbc88268f19","system_id":"levelo_inurba_marseille","lat":43.30141,"lon":5.39873,"is_reserved":false,"is_disabled":false,"rental_uris":{"android":"levelo://app?vid=5324a7a4-0c20-48c5-aff3-8dbc88268f19","ios":"levelo://app?vid=5324a7a4-0c20-48c5-aff3-8dbc88268f19"},"vehicle_type_id":"4","last_reported":1731431272,"current_range_meters":38800,"station_id":"ce4bh0h2rcd13ifvqd40","pricing_plan_id":"cebpf4jnsgd1na2vs0mg"},