{"last_updated":1778810878,"ttl":60,"version":"2.2","data":{"bikes":[{"bike_id":"3516f707-d44b-458c-b8a7-897b4586e405","system_id":"levelo_inurba_marseille","lat":43.28404,"lon":5.3498,"is_reserved":false,"is_disabled":false,"rental_uris":{"android":"levelo://app?vid=3516f707-d44b-458c-b8a7-897b4586e405","ios":"levelo://app?vid=3516f707-d44b-458c-b8a7-897b4586e405"},"vehicle_type_id":"4","last_reported":1778810879,"current_range_meters":2800,"station_id":"ce4bhbh2rcd13ifvqepg","pricing_plan_id":"cebpf4jnsgd1na2vs0mg"},{"bike_id":"4baa9b72-17a6-459d-8a63-49a6eeb5a1bd","system_id":"levelo_inurba_marseille","lat":43.29255,"lon":5.38434,"is_reserved":false,"is_disabled":true,"rental_uris":{"android":"levelo://app?vid=4baa9b72-17a6-459d-8a63-49a6eeb5a1bd","ios":"levelo://app?vid=4baa9b72-17a6-459d-8a63-49a6eeb5a1bd"},"vehicle_type_id":"4","last_reported":1778810879,"current_range_meters":2800,"station_id":"ce4bh692rcd13ifvqea0","pricing_plan_id":"cebpf4jnsgd1na2vs0mg"},{"bike_id":"8e5a079e-98c5-4804-bc13-f15e181290ce","system_id":"levelo_inurba_marseille","lat":43.31715,"lon":5.4241,"is_reserved":false,"is_disabled":false,"rental_uris":{"android":"levelo://app?vid=8e5a079e-98c5-4804-bc13-f15e181290ce","ios":"levelo://app?vid=8e5a079e-98c5-4804-bc13-f15e181290ce"},"vehicle_type_id":"4","last_reported":1778810879,"current_range_meters":2800,"station_id":"ce4bhp92rcd13ifvqhbg","pricing_plan_id":"cebpf4jnsgd1na2vs0mg"},{"bike_id":"070f4be3-7bc8-4497-a12a-27b796f0ae53","system_id":"levelo_inurba_marseille","lat":43.22566,"lon":5.41625,"is_reserved":false,"is_disabled":false,"rental_uris":{"android":"levelo://app?vid=070f4be3-7bc8-4497-a12a-27b796f0ae53","ios":"levelo://app?vid=070f4be3-7bc8-4497-a12a-27b796f0ae53"},"vehicle_type_id":"4","last_reported":1778810879,"current_range_meters":2800,"station_id":"st_d2o4gvlbi1j2169b742g","pricing_plan_id":"cebpf4jnsgd1na2vs0mg"},{"bike_id":"444e590a-d5c6-4ed8-8472-111cbab46855","system_id":"levelo_inurba_marseille","lat":43.24074,"lon":5.37767,"is_reserved":false,"is_disabled":false,"rental_uris":{"android":"levelo://app?vid=444e590a-d5c6-4ed8-8472-111cbab46855","ios":"levelo://app?vid=444e590a-d5c6-4ed8-8472-111cbab46855"},"vehicle_type_id":"4","last_reported":1778810879,"current_range_meters":3200,"station_id":"ce4bhnp2rcd13ifvqgvg","pricing_plan_id":"cebpf4jnsgd1na2vs0mg"},{"bike_id":"1f3f9365-b955-43e2-8796-812d7d10e10e","system_id":"levelo_inurba_marseille","lat":43.28237,"lon":5.39052,"is_reserved":false,"is_disabled":false,"rental_uris":{"android":"levelo://app?vid=1f3f9365-b955-43e2-8796-812d7d10e10e","ios":"levelo://app?vid=1f3f9365-b955-43e2-8796-812d7d10e10e"},"vehicle_type_id":"4","last_reported":1778810879,"current_range_meters":3200,"station_id":"ce4bhn92rcd13ifvqgsg","pricing_plan_id":"cebpf4jnsgd1na2vs0mg"},{"bike_id":"b112f117-e396-49d7-808b-42d249310fa0","system_id":"levelo_inurba_marseille","lat":43.28659,"lon":5.36372,"is_reserved":false,"is_disabled":false,"rental_uris":{"android":"levelo://app?vid=b112f117-e396-49d7-808b-42d249310fa0","ios":"levelo://app?vid=b112f117-e396-49d7-808b-42d249310fa0"},"vehicle_type_id":"4","last_reported":1778810879,"current_range_meters":3200,"station_id":"ce4bhah2rcd13ifvqej0","pricing_plan_id":"cebpf4jnsgd1na2vs0mg"},{"bike_id":"f8a5149b-f19e-4377-9344-32e1511bcbba","system_id":"levelo_inurba_marseille","lat":43.28673,"lon":5.46672,"is_reserved":false,"is_disabled":false,"rental_uris":{"android":"levelo://app?vid=f8a5149b-f19e-4377-9344-32e1511bcbba","ios":"levelo://app?vid=f8a5149b-f19e-4377-9344-32e1511bcbba"},"vehicle_type_id":"4","last_reported":1778810879,"current_range_meters":3200,"station_id":"st_d6tc3vkotcvc738tfjhg","pricing_plan_id":"cebpf4jnsgd1na2vs0mg"},{"bike_id":"063e251d-684c-4baf-a544-856d6726483f","system_id":"levelo_inurba_marseille","lat":43.31272,"lon":5.40161,"is_reserved":false,"is_disabled":false,"rental_uris":{"android":"levelo://app?vid=063e251d-684c-4baf-a544-856d6726483f","ios":"levelo://app?vid=063e251d-684c-4baf-a544-856d6726483f"},"vehicle_type_id":"4","last_reported":1778810879,"current_range_meters":3200,"station_id":"ce4bh092rcd13ifvqd30","pricing_plan_id":"cebpf4jnsgd1na2vs0mg"},{"bike_id":"5e8620f7-476d-479d-b824-0ee8299b38df","system_id":"levelo_inurba_marseille","lat":43.31214,"lon":5.37826,"is_reserved":false,"is_disabled":false,"rental_uris":{"android":"levelo://app?vid=5e8620f7-476d-479d-b824-0ee8299b38df","ios":"levelo://app?vid=5e8620f7-476d-479d-b824-0ee8299b38df"},"vehicle_type_id":"4","last_reported":1778810879,"current_range_meters":3600,"station_id":"","pricing_plan_id":"cebpf4jnsgd1na2vs0mg"},{"bike_id":"0450ae6f-6f17-4c43-8fb9-91bf94b35e18","system_id":"levelo_inurba_marseille","lat":43.30187,"lon":5.36562,"is_reserved":false,"is_disabled":false,"rental_uris":{"android":"levelo://app?vid=0450ae6f-6f17-4c43-8fb9-91bf94b35e18","ios":"levelo://app?vid=0450ae6f-6f17-4c43-8fb9-91bf94b35e18"},"vehicle_type_id":"4","last_reported":1778810879,"current_range_meters":3600,"station_id":"","pricing_plan_id":"cebpf4jnsgd1na2vs0mg"},{"bike_id":"451884af-2111-4fc4-b1be-ddb7a28232bd","system_id":"levelo_inurba_marseille","lat":43.2854,"lon":5.4409,"is_reserved":false,"is_disabled":false,"rental_uris":{"android":"levelo://app?vid=451884af-2111-4fc4-b1be-ddb7a28232bd","ios":"levelo://app?vid=451884af-2111-4fc4-b1be-ddb7a28232bd"},"vehicle_type_id":"4","last_reported":1778810879,"current_range_meters":3600,"station_id":"st_d3j3df2ikq2c7380ej80","pricing_plan_id":"cebpf4jnsgd1na2vs0mg"},{"bike_id":"da9d6cbb-1bc2-4da6-806e-58a26ec7fa3a","system_id":"levelo_inurba_marseille","lat":43.28421,"lon":5.34991,"is_reserved":false,"is_disabled":false,"rental_uris":{"android":"levelo://app?vid=da9d6cbb-1bc2-4da6-806e-58a26ec7fa3a","ios":"levelo://app?vid=da9d6cbb-1bc2-4da6-806e-58a26ec7fa3a"},"vehicle_type_id":"4","last_reported":1778810879,"current_range_meters":3600,"station_id":"ce4bhbh2rcd13ifvqepg","pricing_plan_id":"cebpf4jnsgd1na2vs0mg"},{"bike_id":"75f753fc-9c52-4208-a22b-7f1d28b00c6c","system_id":"levelo_inurba_marseille","lat":43.2472,"lon":5.3931,"is_reserved":false,"is_disabled":false,"rental_uris":{"android":"levelo://app?vid=75f753fc-9c52-4208-a22b-7f1d28b00c6c","ios":"levelo://app?vid=75f753fc-9c52-4208-a22b-7f1d28b00c6c"},"vehicle_type_id":"4","last_reported":1778810879,"current_range_meters":3600,"station_id":"","pricing_plan_id":"cebpf4jnsgd1na2vs0mg"},{"bike_id":"9c861895-7fc9-49d9-b3bd-d641d7630397","system_id":"levelo_inurba_marseille","lat":43.23187,"lon":5.39982,"is_reserved":false,"is_disabled":false,"rental_uris":{"android":"levelo://app?vid=9c861895-7fc9-49d9-b3bd-d641d7630397","ios":"levelo://app?vid=9c861895-7fc9-49d9-b3bd-d641d7630397"},"vehicle_type_id":"4","last_reported":1778810879,"current_range_meters":3600,"station_id":"ce4bhn12rcd13ifvqgqg","pricing_plan_id":"cebpf4jnsgd1na2vs0mg"},{"bike_id":"b20006fd-cc9e-4cc6-b314-37df3e2b2762","system_id":"levelo_inurba_marseille","lat":43.2706,"lon":5.38291,"is_reserved":false,"is_disabled":false,"rental_uris":{"android":"levelo://app?vid=b20006fd-cc9e-4cc6-b314-37df3e2b2762","ios":"levelo://app?vid=b20006fd-cc9e-4cc6-b314-37df3e2b2762"},"vehicle_type_id":"4","last_reported":1778810879,"current_range_meters":3600,"station_id":"st_d3n2fo6cfp8s73cte1j0","pricing_plan_id":"cebpf4jnsgd1na2vs0mg"},{"bike_id":"fd6225b0-472a-430a-b26d-b20a281eb878","system_id":"levelo_inurba_marseille","lat":43.29266,"lon":5.40896,"is_reserved":false,"is_disabled":false,"rental_uris":{"android":"levelo://app?vid=fd6225b0-472a-430a-b26d-b20a281eb878","ios":"levelo://app?vid=fd6225b0-472a-430a-b26d-b20a281eb878"},"vehicle_type_id":"4","last_reported":1778810879,"current_range_meters":4000,"station_id":"ce4bh192rcd13ifvqdc0","pricing_plan_id":"cebpf4jnsgd1na2vs0mg"},{"bike_id":"34fb0973-3cfa-4621-94df-f81f5533c6b5","system_id":"levelo_inurba_marseille","lat":43.29023,"lon":5.38637,"is_reserved":false,"is_disabled":false,"rental_uris":{"android":"levelo://app?vid=34fb0973-3cfa-4621-94df-f81f5533c6b5","ios":"levelo://app?vid=34fb0973-3cfa-4621-94df-f81f5533c6b5"},"vehicle_type_id":"4","last_reported":1778810879,"current_range_meters":4000,"station_id":"ce4bh4p2rcd13ifvqe0g","pricing_plan_id":"cebpf4jnsgd1na2vs0mg"},{"bike_id":"0851f791-575d-4580-b469-9a5c98e28a8c","system_id":"levelo_inurba_marseille","lat":43.29133,"lon":5.42442,"is_reserved":false,"is_disabled":false,"rental_uris":{"android":"levelo://app?vid=0851f791-575d-4580-b469-9a5c98e28a8c","ios":"levelo://app?vid=0851f791-575d-4580-b469-9a5c98e28a8c"},"vehicle_type_id":"4","last_reported":1778810879,"current_range_meters":4000,"station_id":"","pricing_plan_id":"cebpf4jnsgd1na2vs0mg"},{"bike_id":"925734c3-1250-45c0-9661-a26d1053b54b","system_id":"levelo_inurba_marseille","lat":43.2559,"lon":5.38231,"is_reserved":false,"is_disabled":false,"rental_uris":{"android":"levelo://app?vid=925734c3-1250-45c0-9661-a26d1053b54b","ios":"levelo://app?vid=925734c3-1250-45c0-9661-a26d1053b54b"},"vehicle_type_id":"4","last_reported":1778810879,"current_range_meters":4000,"station_id":"ce4bhih2rcd13ifvqfs0","pricing_plan_id":"cebpf4jnsgd1na2vs0mg"},{"bike_id":"db547773-5428-49f8-a749-b92f8f9a342a","system_id":"levelo_inurba_marseille","lat":43.23963,"lon":5.3664,"is_reserved":false,"is_disabled":false,"rental_uris":{"android":"levelo://app?vid=db547773-5428-49f8-a749-b92f8f9a342a","ios":"levelo://app?vid=db547773-5428-49f8-a749-b92f8f9a342a"},"vehicle_type_id":"4","last_reported":1778810879,"current_range_meters":4000,"station_id":"ce4bhi12rcd13ifvqfp0","pricing_plan_id":"cebpf4jnsgd1na2vs0mg"},{"bike_id":"8b467899-d7be-4610-b502-70708c4f8094","system_id":"levelo_inurba_marseille","lat":43.31123,"lon":5.37757,"is_reserved":false,"is_disabled":false,"rental_uris":{"android":"levelo://app?vid=8b467899-d7be-4610-b502-70708c4f8094","ios":"levelo://app?vid=8b467899-d7be-4610-b502-70708c4f8094"},"vehicle_type_id":"4","last_reported":1778810879,"current_range_meters":4000,"station_id":"ce4bgt92rcd13ifvqcg0","pricing_plan_id":"cebpf4jnsgd1na2vs0mg"},{"bike_id":"3491ea88-5a23-493e-b0a6-ee151b21b349","system_id":"levelo_inurba_marseille","lat":43.28223,"lon":5.3904,"is_reserved":false,"is_disabled":false,"rental_uris":{"android":"levelo://app?vid=3491ea88-5a23-493e-b0a6-ee151b21b349","ios":"levelo://app?vid=3491ea88-5a23-493e-b0a6-ee151b21b349"},"vehicle_type_id":"4","last_reported":1778810879,"current_range_meters":4000,"station_id":"ce4bhn92rcd13ifvqgsg","pricing_plan_id":"cebpf4jnsgd1na2vs0mg"},{"bike_id":"1e376547-28d1-4c71-ad38-dccc2473beb9","system_id":"levelo_inurba_marseille","lat":43.28471,"lon":5.48386,"is_reserved":false,"is_disabled":false,"rental_uris":{"android":"levelo://app?vid=1e376547-28d1-4c71-ad38-dccc2473beb9","ios":"levelo://app?vid=1e376547-28d1-4c71-ad38-dccc2473beb9"},"vehicle_type_id":"4","last_reported":1778810879,"current_range_meters":4000,"station_id":"st_d3svhcjqgbts73a3dn0g","pricing_plan_id":"cebpf4jnsgd1na2vs0mg"},{"bike_id":"33b84942-cf5f-4afa-869d-950d91a6d306","system_id":"levelo_inurba_marseille","lat":43.2856,"lon":5.38626,"is_reserved":false,"is_disabled":false,"rental_uris":{"android":"levelo://app?vid=33b84942-cf5f-4afa-869d-950d91a6d306","ios":"levelo://app?vid=33b84942-cf5f-4afa-869d-950d91a6d306"},"vehicle_type_id":"4","last_reported":1778810879,"current_range_meters":4000,"station_id":"","pricing_plan_id":"cebpf4jnsgd1na2vs0mg"},{"bike_id":"e5b4d391-5239-4e67-8337-04ea17f0c662","system_id":"levelo_inurba_marseille","lat":43.27924,"lon":5.39575,"is_reserved":false,"is_disabled":false,"rental_uris":{"android":"levelo://app?vid=e5b4d391-5239-4e67-8337-04ea17f0c662","ios":"levelo://app?vid=e5b4d391-5239-4e67-8337-04ea17f0c662"},"vehicle_type_id":"4","last_reported":1778810879,"current_range_meters":4000,"station_id":"ce4bhf92rcd13ifvqf40","pricing_plan_id":"cebpf4jnsgd1na2vs0mg"},{"bike_id":"87ce4688-a9b6-435d-98b0-56df941a79fe","system_id":"levelo_inurba_marseille","lat":43.28639,"lon":5.39911,"is_reserved":false,"is_disabled":false,"rental_uris":{"android":"levelo://app?vid=87ce4688-a9b6-435d-98b0-56df941a79fe","ios":"levelo://app?vid=87ce4688-a9b6-435d-98b0-56df941a79fe"},"vehicle_type_id":"4","last_reported":1778810879,"current_range_meters":4400,"station_id":"st_d4a7ka997mjs738ck50g","pricing_plan_id":"cebpf4jnsgd1na2vs0mg"},{"bike_id":"9a8510f6-dc7b-4e3e-bb7c-d96ae66f426f","system_id":"levelo_inurba_marseille","lat":43.29923,"lon":5.37459,"is_reserved":false,"is_disabled":false,"rental_uris":{"android":"levelo://app?vid=9a8510f6-dc7b-4e3e-bb7c-d96ae66f426f","ios":"levelo://app?vid=9a8510f6-dc7b-4e3e-bb7c-d96ae66f426f"},"vehicle_type_id":"4","last_reported":1778810879,"current_range_meters":4400,"station_id":"ce4bgjh2rcd13ifvqbg0","pricing_plan_id":"cebpf4jnsgd1na2vs0mg"},{"bike_id":"501d5cea-52c1-4650-8f94-f27184eedc64","system_id":"levelo_inurba_marseille","lat":43.30406,"lon":5.39755,"is_reserved":false,"is_disabled":false,"rental_uris":{"android":"levelo://app?vid=501d5cea-52c1-4650-8f94-f27184eedc64","ios":"levelo://app?vid=501d5cea-52c1-4650-8f94-f27184eedc64"},"vehicle_type_id":"4","last_reported":1778810879,"current_range_meters":4400,"station_id":"ce4bh092rcd13ifvqd20","pricing_plan_id":"cebpf4jnsgd1na2vs0mg"},{"bike_id":"8cbadb2c-15eb-47a5-955d-61b92ae0b932","system_id":"levelo_inurba_marseille","lat":43.30802,"lon":5.38181,"is_reserved":false,"is_disabled":false,"rental_uris":{"android":"levelo://app?vid=8cbadb2c-15eb-47a5-955d-61b92ae0b932","ios":"levelo://app?vid=8cbadb2c-15eb-47a5-955d-61b92ae0b932"},"vehicle_type_id":"4","last_reported":1778810879,"current_range_meters":4400,"station_id":"ce4bgt12rcd13ifvqce0","pricing_plan_id":"cebpf4jnsgd1na2vs0mg"},{"bike_id":"6e5dfbd9-c03a-40ed-aedc-3c2f2a1d6845","system_id":"levelo_inurba_marseille","lat":43.23694,"lon":5.39948,"is_reserved":false,"is_disabled":false,"rental_uris":{"android":"levelo://app?vid=6e5dfbd9-c03a-40ed-aedc-3c2f2a1d6845","ios":"levelo://app?vid=6e5dfbd9-c03a-40ed-aedc-3c2f2a1d6845"},"vehicle_type_id":"4","last_reported":1778810879,"current_range_meters":4400,"station_id":"","pricing_plan_id":"cebpf4jnsgd1na2vs0mg"},{"bike_id":"07901982-752d-4b1b-a3d8-7d8ebd2d57d5","system_id":"levelo_inurba_marseille","lat":43.31891,"lon":5.36832,"is_reserved":false,"is_disabled":false,"rental_uris":{"android":"levelo://app?vid=07901982-752d-4b1b-a3d8-7d8ebd2d57d5","ios":"levelo://app?vid=07901982-752d-4b1b-a3d8-7d8ebd2d57d5"},"vehicle_type_id":"4","last_reported":1778810879,"current_range_meters":4400,"station_id":"st_d6o2h0d0559c73evc1b0","pricing_plan_id":"cebpf4jnsgd1na2vs0mg"},{"bike_id":"2351facd-e0b5-47b2-b77a-87fff66ae3e7","system_id":"levelo_inurba_marseille","lat":43.21749,"lon":5.34606,"is_reserved":false,"is_disabled":false,"rental_uris":{"android":"levelo://app?vid=2351facd-e0b5-47b2-b77a-87fff66ae3e7","ios":"levelo://app?vid=2351facd-e0b5-47b2-b77a-87fff66ae3e7"},"vehicle_type_id":"4","last_reported":1778810879,"current_range_meters":4800,"station_id":"st_cvj6r9ubvosntc0bgbag","pricing_plan_id":"cebpf4jnsgd1na2vs0mg"},{"bike_id":"21630f77-eda1-40f0-8566-04dd068e8503","system_id":"levelo_inurba_marseille","lat":43.3354,"lon":5.37463,"is_reserved":false,"is_disabled":false,"rental_uris":{"android":"levelo://app?vid=21630f77-eda1-40f0-8566-04dd068e8503","ios":"levelo://app?vid=21630f77-eda1-40f0-8566-04dd068e8503"},"vehicle_type_id":"4","last_reported":1778810879,"current_range_meters":4800,"station_id":"st_d46tts09ee8s73dlu43g","pricing_plan_id":"cebpf4jnsgd1na2vs0mg"},{"bike_id":"36171f44-6e4b-499c-9f3d-272981e78653","system_id":"levelo_inurba_marseille","lat":43.26209,"lon":5.37448,"is_reserved":false,"is_disabled":false,"rental_uris":{"android":"levelo://app?vid=36171f44-6e4b-499c-9f3d-272981e78653","ios":"levelo://app?vid=36171f44-6e4b-499c-9f3d-272981e78653"},"vehicle_type_id":"4","last_reported":1778810879,"current_range_meters":4800,"station_id":"ce4bhgp2rcd13ifvqfc0","pricing_plan_id":"cebpf4jnsgd1na2vs0mg"},{"bike_id":"f5883b02-a1d5-44b1-a039-9d551a4d0355","system_id":"levelo_inurba_marseille","lat":43.24649,"lon":5.38886,"is_reserved":false,"is_disabled":false,"rental_uris":{"android":"levelo://app?vid=f5883b02-a1d5-44b1-a039-9d551a4d0355","ios":"levelo://app?vid=f5883b02-a1d5-44b1-a039-9d551a4d0355"},"vehicle_type_id":"4","last_reported":1778810879,"current_range_meters":4800,"station_id":"ce4bhg12rcd13ifvqf60","pricing_plan_id":"cebpf4jnsgd1na2vs0mg"},{"bike_id":"b280a10f-2c1b-4d5d-88dd-1fa8a56e3191","system_id":"levelo_inurba_marseille","lat":43.26576,"lon":5.39028,"is_reserved":false,"is_disabled":false,"rental_uris":{"android":"levelo://app?vid=b280a10f-2c1b-4d5d-88dd-1fa8a56e3191","ios":"levelo://app?vid=b280a10f-2c1b-4d5d-88dd-1fa8a56e3191"},"vehicle_type_id":"4","last_reported":1778810879,"current_range_meters":4800,"station_id":"ce4bhe12rcd13ifvqf30","pricing_plan_id":"cebpf4jnsgd1na2vs0mg"},{"bike_id":"50ecd2a5-280a-4059-9de9-3aee985c1f30","system_id":"levelo_inurba_marseille","lat":43.3172,"lon":5.37726,"is_reserved":false,"is_disabled":false,"rental_uris":{"android":"levelo://app?vid=50ecd2a5-280a-4059-9de9-3aee985c1f30","ios":"levelo://app?vid=50ecd2a5-280a-4059-9de9-3aee985c1f30"},"vehicle_type_id":"4","last_reported":1778810879,"current_range_meters":4800,"station_id":"ce4bgth2rcd13ifvqch0","pricing_plan_id":"cebpf4jnsgd1na2vs0mg"},{"bike_id":"29b4558e-e8d4-4198-958d-0e51be2acce4","system_id":"levelo_inurba_marseille","lat":43.26552,"lon":5.37337,"is_reserved":false,"is_disabled":false,"rental_uris":{"android":"levelo://app?vid=29b4558e-e8d4-4198-958d-0e51be2acce4","ios":"levelo://app?vid=29b4558e-e8d4-4198-958d-0e51be2acce4"},"vehicle_type_id":"4","last_reported":1778810879,"current_range_meters":4800,"station_id":"ce4bhg12rcd13ifvqf70","pricing_plan_id":"cebpf4jnsgd1na2vs0mg"},{"bike_id":"8b1a5088-1d38-4514-8b57-325ca8670dbe","system_id":"levelo_inurba_marseille","lat":43.26208,"lon":5.38792,"is_reserved":false,"is_disabled":false,"rental_uris":{"android":"levelo://app?vid=8b1a5088-1d38-4514-8b57-325ca8670dbe","ios":"levelo://app?vid=8b1a5088-1d38-4514-8b57-325ca8670dbe"},"vehicle_type_id":"4","last_reported":1778810879,"current_range_meters":4800,"station_id":"","pricing_plan_id":"cebpf4jnsgd1na2vs0mg"},{"bike_id":"b06e1bda-e59f-423b-9caf-1f463bac74d5","system_id":"levelo_inurba_marseille","lat":43.316879,"lon":5.404735,"is_reserved":false,"is_disabled":false,"rental_uris":{"android":"levelo://app?vid=b06e1bda-e59f-423b-9caf-1f463bac74d5","ios":"levelo://app?vid=b06e1bda-e59f-423b-9caf-1f463bac74d5"},"vehicle_type_id":"4","last_reported":1778810879,"current_range_meters":4800,"station_id":"ce4bh012rcd13ifvqd00","pricing_plan_id":"cebpf4jnsgd1na2vs0mg"},{"bike_id":"4336eb3e-4dcb-40af-a6f6-5758e7c48f2e","system_id":"levelo_inurba_marseille","lat":43.28869,"lon":5.3585,"is_reserved":false,"is_disabled":false,"rental_uris":{"android":"levelo://app?vid=4336eb3e-4dcb-40af-a6f6-5758e7c48f2e","ios":"levelo://app?vid=4336eb3e-4dcb-40af-a6f6-5758e7c48f2e"},"vehicle_type_id":"4","last_reported":1778810879,"current_range_meters":5600,"station_id":"ce4bhb12rcd13ifvqem0","pricing_plan_id":"cebpf4jnsgd1na2vs0mg"},{"bike_id":"f319d43d-d58c-4aac-9f61-b07539060c76","system_id":"levelo_inurba_marseille","lat":43.33218,"lon":5.43052,"is_reserved":false,"is_disabled":false,"rental_uris":{"android":"levelo://app?vid=f319d43d-d58c-4aac-9f61-b07539060c76","ios":"levelo://app?vid=f319d43d-d58c-4aac-9f61-b07539060c76"},"vehicle_type_id":"4","last_reported":1778810879,"current_range_meters":5600,"station_id":"","pricing_plan_id":"cebpf4jnsgd1na2vs0mg"},{"bike_id":"53f284ab-a313-40aa-a202-303e4c0eb998","system_id":"levelo_inurba_marseille","lat":43.28404,"lon":5.37506,"is_reserved":false,"is_disabled":false,"rental_uris":{"android":"levelo://app?vid=53f284ab-a313-40aa-a202-303e4c0eb998","ios":"levelo://app?vid=53f284ab-a313-40aa-a202-303e4c0eb998"},"vehicle_type_id":"4","last_reported":1778810879,"current_range_meters":5600,"station_id":"ce4bh412rcd13ifvqds0","pricing_plan_id":"cebpf4jnsgd1na2vs0mg"},{"bike_id":"a0e1de9b-c8c9-4704-bf82-35f196db8fe0","system_id":"levelo_inurba_marseille","lat":43.28152,"lon":5.42642,"is_reserved":false,"is_disabled":false,"rental_uris":{"android":"levelo://app?vid=a0e1de9b-c8c9-4704-bf82-35f196db8fe0","ios":"levelo://app?vid=a0e1de9b-c8c9-4704-bf82-35f196db8fe0"},"vehicle_type_id":"4","last_reported":1778810879,"current_range_meters":5600,"station_id":"ce4bhnh2rcd13ifvqgug","pricing_plan_id":"cebpf4jnsgd1na2vs0mg"},{"bike_id":"67f28ee8-75fd-440e-847b-c03a6f3c146e","system_id":"levelo_inurba_marseille","lat":43.25174,"lon":5.37466,"is_reserved":false,"is_disabled":false,"rental_uris":{"android":"levelo://app?vid=67f28ee8-75fd-440e-847b-c03a6f3c146e","ios":"levelo://app?vid=67f28ee8-75fd-440e-847b-c03a6f3c146e"},"vehicle_type_id":"4","last_reported":1778810879,"current_range_meters":5600,"station_id":"","pricing_plan_id":"cebpf4jnsgd1na2vs0mg"},{"bike_id":"c7cc8da8-6564-4f26-9ba4-7dbaf5f793ff","system_id":"levelo_inurba_marseille","lat":43.25453,"lon":5.37691,"is_reserved":false,"is_disabled":false,"rental_uris":{"android":"levelo://app?vid=c7cc8da8-6564-4f26-9ba4-7dbaf5f793ff","ios":"levelo://app?vid=c7cc8da8-6564-4f26-9ba4-7dbaf5f793ff"},"vehicle_type_id":"4","last_reported":1778810879,"current_range_meters":5600,"station_id":"","pricing_plan_id":"cebpf4jnsgd1na2vs0mg"},{"bike_id":"8e8da42d-03bd-4b9b-97b5-52713d72ebe4","system_id":"levelo_inurba_marseille","lat":43.3212,"lon":5.36754,"is_reserved":false,"is_disabled":false,"rental_uris":{"android":"levelo://app?vid=8e8da42d-03bd-4b9b-97b5-52713d72ebe4","ios":"levelo://app?vid=8e8da42d-03bd-4b9b-97b5-52713d72ebe4"},"vehicle_type_id":"4","last_reported":1778810879,"current_range_meters":5600,"station_id":"ce4bhrh2rcd13ifvqhug","pricing_plan_id":"cebpf4jnsgd1na2vs0mg"},{"bike_id":"3b66cbc2-f67c-4859-b959-6ef945b847ce","system_id":"levelo_inurba_marseille","lat":43.24786,"lon":5.37478,"is_reserved":false,"is_disabled":false,"rental_uris":{"android":"levelo://app?vid=3b66cbc2-f67c-4859-b959-6ef945b847ce","ios":"levelo://app?vid=3b66cbc2-f67c-4859-b959-6ef945b847ce"},"vehicle_type_id":"4","last_reported":1778810879,"current_range_meters":5600,"station_id":"ce4bhgh2rcd13ifvqfb0","pricing_plan_id":"cebpf4jnsgd1na2vs0mg"},{"bike_id":"5e70c149-f7fa-4313-9070-5d5d06af8c49","system_id":"levelo_inurba_marseille","lat":43.311075,"lon":5.377722,"is_reserved":false,"is_disabled":false,"rental_uris":{"android":"levelo://app?vid=5e70c149-f7fa-4313-9070-5d5d06af8c49","ios":"levelo://app?vid=5e70c149-f7fa-4313-9070-5d5d06af8c49"},"vehicle_type_id":"4","last_reported":1778810879,"current_range_meters":5600,"station_id":"ce4bgt92rcd13ifvqcg0","pricing_plan_id":"cebpf4jnsgd1na2vs0mg"},{"bike_id":"600ae21f-84ee-4e17-83e0-645ec9d8a39d","system_id":"levelo_inurba_marseille","lat":43.2637,"lon":5.41078,"is_reserved":false,"is_disabled":false,"rental_uris":{"android":"levelo://app?vid=600ae21f-84ee-4e17-83e0-645ec9d8a39d","ios":"levelo://app?vid=600ae21f-84ee-4e17-83e0-645ec9d8a39d"},"vehicle_type_id":"4","last_reported":1778810879,"current_range_meters":6000,"station_id":"st_d4e5ca6na9uc73bfl5fg","pricing_plan_id":"cebpf4jnsgd1na2vs0mg"},{"bike_id":"cf46be16-acd9-4edf-ba5f-56559105c3df","system_id":"levelo_inurba_marseille","lat":43.24821,"lon":5.37465,"is_reserved":false,"is_disabled":false,"rental_uris":{"android":"levelo://app?vid=cf46be16-acd9-4edf-ba5f-56559105c3df","ios":"levelo://app?vid=cf46be16-acd9-4edf-ba5f-56559105c3df"},"vehicle_type_id":"4","last_reported":1778810879,"current_range_meters":6000,"station_id":"ce4bhgh2rcd13ifvqfb0","pricing_plan_id":"cebpf4jnsgd1na2vs0mg"},{"bike_id":"6a26079e-c259-4a56-a844-2c8bca0c51da","system_id":"levelo_inurba_marseille","lat":43.28543,"lon":5.39485,"is_reserved":false,"is_disabled":false,"rental_uris":{"android":"levelo://app?vid=6a26079e-c259-4a56-a844-2c8bca0c51da","ios":"levelo://app?vid=6a26079e-c259-4a56-a844-2c8bca0c51da"},"vehicle_type_id":"4","last_reported":1778810879,"current_range_meters":6000,"station_id":"ce4bh292rcd13ifvqdg0","pricing_plan_id":"cebpf4jnsgd1na2vs0mg"},{"bike_id":"09924bdb-e236-4d6d-86a2-12ee8afd31fd","system_id":"levelo_inurba_marseille","lat":43.25493,"lon":5.3765,"is_reserved":false,"is_disabled":false,"rental_uris":{"android":"levelo://app?vid=09924bdb-e236-4d6d-86a2-12ee8afd31fd","ios":"levelo://app?vid=09924bdb-e236-4d6d-86a2-12ee8afd31fd"},"vehicle_type_id":"4","last_reported":1778810879,"current_range_meters":6000,"station_id":"ce4bhh12rcd13ifvqff0","pricing_plan_id":"cebpf4jnsgd1na2vs0mg"},{"bike_id":"db8fd6e1-3e2e-4ba5-b4dc-e15fa2785925","system_id":"levelo_inurba_marseille","lat":43.25498,"lon":5.3765,"is_reserved":false,"is_disabled":false,"rental_uris":{"android":"levelo://app?vid=db8fd6e1-3e2e-4ba5-b4dc-e15fa2785925","ios":"levelo://app?vid=db8fd6e1-3e2e-4ba5-b4dc-e15fa2785925"},"vehicle_type_id":"4","last_reported":1778810879,"current_range_meters":6000,"station_id":"ce4bhh12rcd13ifvqff0","pricing_plan_id":"cebpf4jnsgd1na2vs0mg"},{"bike_id":"f4749437-504c-459a-ac2b-50ee037c1395","system_id":"levelo_inurba_marseille","lat":43.26014,"lon":5.37567,"is_reserved":false,"is_disabled":false,"rental_uris":{"android":"levelo://app?vid=f4749437-504c-459a-ac2b-50ee037c1395","ios":"levelo://app?vid=f4749437-504c-459a-ac2b-50ee037c1395"},"vehicle_type_id":"4","last_reported":1778810879,"current_range_meters":6000,"station_id":"ce4bhgh2rcd13ifvqfa0","pricing_plan_id":"cebpf4jnsgd1na2vs0mg"},{"bike_id":"988afeef-8fa0-4222-9994-711b55a606f6","system_id":"levelo_inurba_marseille","lat":43.25331,"lon":5.42151,"is_reserved":false,"is_disabled":false,"rental_uris":{"android":"levelo://app?vid=988afeef-8fa0-4222-9994-711b55a606f6","ios":"levelo://app?vid=988afeef-8fa0-4222-9994-711b55a606f6"},"vehicle_type_id":"4","last_reported":1778810879,"current_range_meters":6000,"station_id":"st_d2m65c5bi1j21697t3ng","pricing_plan_id":"cebpf4jnsgd1na2vs0mg"},{"bike_id":"1c4eecf6-c248-4f21-af12-a1da19407bc5","system_id":"levelo_inurba_marseille","lat":43.30791,"lon":5.37643,"is_reserved":false,"is_disabled":false,"rental_uris":{"android":"levelo://app?vid=1c4eecf6-c248-4f21-af12-a1da19407bc5","ios":"levelo://app?vid=1c4eecf6-c248-4f21-af12-a1da19407bc5"},"vehicle_type_id":"4","last_reported":1778810879,"current_range_meters":6000,"station_id":"ce4bgv92rcd13ifvqcq0","pricing_plan_id":"cebpf4jnsgd1na2vs0mg"},{"bike_id":"7c97047b-2262-4fed-8712-0d89900374c4","system_id":"levelo_inurba_marseille","lat":43.24659,"lon":5.38865,"is_reserved":false,"is_disabled":false,"rental_uris":{"android":"levelo://app?vid=7c97047b-2262-4fed-8712-0d89900374c4","ios":"levelo://app?vid=7c97047b-2262-4fed-8712-0d89900374c4"},"vehicle_type_id":"4","last_reported":1778810879,"current_range_meters":6000,"station_id":"ce4bhg12rcd13ifvqf60","pricing_plan_id":"cebpf4jnsgd1na2vs0mg"},{"bike_id":"0f34fb8a-0bdd-4f60-af13-795b8d68e1ca","system_id":"levelo_inurba_marseille","lat":43.29888,"lon":5.38141,"is_reserved":false,"is_disabled":false,"rental_uris":{"android":"levelo://app?vid=0f34fb8a-0bdd-4f60-af13-795b8d68e1ca","ios":"levelo://app?vid=0f34fb8a-0bdd-4f60-af13-795b8d68e1ca"},"vehicle_type_id":"4","last_reported":1778810879,"current_range_meters":6000,"station_id":"ce4bgj12rcd13ifvqbc0","pricing_plan_id":"cebpf4jnsgd1na2vs0mg"},{"bike_id":"e060ee54-6256-40ae-9ad5-aaead461bedc","system_id":"levelo_inurba_marseille","lat":43.28863,"lon":5.39322,"is_reserved":false,"is_disabled":false,"rental_uris":{"android":"levelo://app?vid=e060ee54-6256-40ae-9ad5-aaead461bedc","ios":"levelo://app?vid=e060ee54-6256-40ae-9ad5-aaead461bedc"},"vehicle_type_id":"4","last_reported":1778810879,"current_range_meters":6000,"station_id":"ce4bh2p2rcd13ifvqdi0","pricing_plan_id":"cebpf4jnsgd1na2vs0mg"},{"bike_id":"12fc783a-5743-49f1-a8aa-4c1155b53891","system_id":"levelo_inurba_marseille","lat":43.24488,"lon":5.42493,"is_reserved":false,"is_disabled":false,"rental_uris":{"android":"levelo://app?vid=12fc783a-5743-49f1-a8aa-4c1155b53891","ios":"levelo://app?vid=12fc783a-5743-49f1-a8aa-4c1155b53891"},"vehicle_type_id":"4","last_reported":1778810879,"current_range_meters":6400,"station_id":"st_d4a3vfp97mjs738cd8kg","pricing_plan_id":"cebpf4jnsgd1na2vs0mg"},{"bike_id":"c59ef67e-59cb-436e-be93-b110e102b5eb","system_id":"levelo_inurba_marseille","lat":43.28704,"lon":5.46688,"is_reserved":false,"is_disabled":false,"rental_uris":{"android":"levelo://app?vid=c59ef67e-59cb-436e-be93-b110e102b5eb","ios":"levelo://app?vid=c59ef67e-59cb-436e-be93-b110e102b5eb"},"vehicle_type_id":"4","last_reported":1778810879,"current_range_meters":6400,"station_id":"st_d6tc3vkotcvc738tfjhg","pricing_plan_id":"cebpf4jnsgd1na2vs0mg"},{"bike_id":"f0dfe750-6a85-4630-8635-ed2adbbe38ba","system_id":"levelo_inurba_marseille","lat":43.3137,"lon":5.36703,"is_reserved":false,"is_disabled":false,"rental_uris":{"android":"levelo://app?vid=f0dfe750-6a85-4630-8635-ed2adbbe38ba","ios":"levelo://app?vid=f0dfe750-6a85-4630-8635-ed2adbbe38ba"},"vehicle_type_id":"4","last_reported":1778810879,"current_range_meters":6400,"station_id":"ce4bgr92rcd13ifvqc6g","pricing_plan_id":"cebpf4jnsgd1na2vs0mg"},{"bike_id":"56ebb272-f35a-4495-95fc-289a89d13fb2","system_id":"levelo_inurba_marseille","lat":43.30845,"lon":5.3812,"is_reserved":false,"is_disabled":false,"rental_uris":{"android":"levelo://app?vid=56ebb272-f35a-4495-95fc-289a89d13fb2","ios":"levelo://app?vid=56ebb272-f35a-4495-95fc-289a89d13fb2"},"vehicle_type_id":"4","last_reported":1778810879,"current_range_meters":6400,"station_id":"","pricing_plan_id":"cebpf4jnsgd1na2vs0mg"},{"bike_id":"3a0b52f4-1b47-4413-8330-18f717074337","system_id":"levelo_inurba_marseille","lat":43.28428,"lon":5.37503,"is_reserved":false,"is_disabled":false,"rental_uris":{"android":"levelo://app?vid=3a0b52f4-1b47-4413-8330-18f717074337","ios":"levelo://app?vid=3a0b52f4-1b47-4413-8330-18f717074337"},"vehicle_type_id":"4","last_reported":1778810879,"current_range_meters":6400,"station_id":"ce4bh412rcd13ifvqds0","pricing_plan_id":"cebpf4jnsgd1na2vs0mg"},{"bike_id":"8729db00-a1d9-4736-9fca-f79003d2e8fc","system_id":"levelo_inurba_marseille","lat":43.28539,"lon":5.44097,"is_reserved":false,"is_disabled":false,"rental_uris":{"android":"levelo://app?vid=8729db00-a1d9-4736-9fca-f79003d2e8fc","ios":"levelo://app?vid=8729db00-a1d9-4736-9fca-f79003d2e8fc"},"vehicle_type_id":"4","last_reported":1778810879,"current_range_meters":6400,"station_id":"st_d3j3df2ikq2c7380ej80","pricing_plan_id":"cebpf4jnsgd1na2vs0mg"},{"bike_id":"cc829911-e80c-4481-8d7a-714b6e680c0c","system_id":"levelo_inurba_marseille","lat":43.30313,"lon":5.36878,"is_reserved":false,"is_disabled":false,"rental_uris":{"android":"levelo://app?vid=cc829911-e80c-4481-8d7a-714b6e680c0c","ios":"levelo://app?vid=cc829911-e80c-4481-8d7a-714b6e680c0c"},"vehicle_type_id":"4","last_reported":1778810879,"current_range_meters":6400,"station_id":"ce4bgqh2rcd13ifvqc5g","pricing_plan_id":"cebpf4jnsgd1na2vs0mg"},{"bike_id":"3417cf8f-8380-49cf-9b96-8708c600b7b9","system_id":"levelo_inurba_marseille","lat":43.29874,"lon":5.38921,"is_reserved":false,"is_disabled":true,"rental_uris":{"android":"levelo://app?vid=3417cf8f-8380-49cf-9b96-8708c600b7b9","ios":"levelo://app?vid=3417cf8f-8380-49cf-9b96-8708c600b7b9"},"vehicle_type_id":"4","last_reported":1778810879,"current_range_meters":6400,"station_id":"ce4bh392rcd13ifvqdl0","pricing_plan_id":"cebpf4jnsgd1na2vs0mg"},{"bike_id":"f5e8d085-0bd0-40db-958c-eda5fc60abc3","system_id":"levelo_inurba_marseille","lat":43.26249,"lon":5.38755,"is_reserved":false,"is_disabled":false,"rental_uris":{"android":"levelo://app?vid=f5e8d085-0bd0-40db-958c-eda5fc60abc3","ios":"levelo://app?vid=f5e8d085-0bd0-40db-958c-eda5fc60abc3"},"vehicle_type_id":"4","last_reported":1778810879,"current_range_meters":6400,"station_id":"","pricing_plan_id":"cebpf4jnsgd1na2vs0mg"},{"bike_id":"8c86a52e-0f78-4cb5-9502-6a0f1460eb2f","system_id":"levelo_inurba_marseille","lat":43.30376,"lon":5.42484,"is_reserved":false,"is_disabled":false,"rental_uris":{"android":"levelo://app?vid=8c86a52e-0f78-4cb5-9502-6a0f1460eb2f","ios":"levelo://app?vid=8c86a52e-0f78-4cb5-9502-6a0f1460eb2f"},"vehicle_type_id":"4","last_reported":1778810879,"current_range_meters":6400,"station_id":"ce4bhoh2rcd13ifvqh6g","pricing_plan_id":"cebpf4jnsgd1na2vs0mg"},{"bike_id":"7fbd6be8-999f-43d2-8e8e-a4a691a7c961","system_id":"levelo_inurba_marseille","lat":43.25337,"lon":5.42177,"is_reserved":false,"is_disabled":false,"rental_uris":{"android":"levelo://app?vid=7fbd6be8-999f-43d2-8e8e-a4a691a7c961","ios":"levelo://app?vid=7fbd6be8-999f-43d2-8e8e-a4a691a7c961"},"vehicle_type_id":"4","last_reported":1778810879,"current_range_meters":6400,"station_id":"st_d2m65c5bi1j21697t3ng","pricing_plan_id":"cebpf4jnsgd1na2vs0mg"},{"bike_id":"399e8a02-5579-4dbf-b4de-b68767f02a1e","system_id":"levelo_inurba_marseille","lat":43.26152,"lon":5.37494,"is_reserved":false,"is_disabled":false,"rental_uris":{"android":"levelo://app?vid=399e8a02-5579-4dbf-b4de-b68767f02a1e","ios":"levelo://app?vid=399e8a02-5579-4dbf-b4de-b68767f02a1e"},"vehicle_type_id":"4","last_reported":1778810879,"current_range_meters":6400,"station_id":"ce4bhgp2rcd13ifvqfc0","pricing_plan_id":"cebpf4jnsgd1na2vs0mg"},{"bike_id":"a2a00526-33a2-4133-9639-1bf79490a021","system_id":"levelo_inurba_marseille","lat":43.33166,"lon":5.40665,"is_reserved":false,"is_disabled":false,"rental_uris":{"android":"levelo://app?vid=a2a00526-33a2-4133-9639-1bf79490a021","ios":"levelo://app?vid=a2a00526-33a2-4133-9639-1bf79490a021"},"vehicle_type_id":"4","last_reported":1778810879,"current_range_meters":6400,"station_id":"","pricing_plan_id":"cebpf4jnsgd1na2vs0mg"},{"bike_id":"2ed00092-549c-417c-ba8a-60b91891a54e","system_id":"levelo_inurba_marseille","lat":43.2833,"lon":5.38086,"is_reserved":false,"is_disabled":false,"rental_uris":{"android":"levelo://app?vid=2ed00092-549c-417c-ba8a-60b91891a54e","ios":"levelo://app?vid=2ed00092-549c-417c-ba8a-60b91891a54e"},"vehicle_type_id":"4","last_reported":1778810879,"current_range_meters":6400,"station_id":"ce4bh412rcd13ifvqdr0","pricing_plan_id":"cebpf4jnsgd1na2vs0mg"},{"bike_id":"9fcf9d8d-238f-4a11-b40c-4c58f8f84b59","system_id":"levelo_inurba_marseille","lat":43.23148,"lon":5.43707,"is_reserved":false,"is_disabled":false,"rental_uris":{"android":"levelo://app?vid=9fcf9d8d-238f-4a11-b40c-4c58f8f84b59","ios":"levelo://app?vid=9fcf9d8d-238f-4a11-b40c-4c58f8f84b59"},"vehicle_type_id":"4","last_reported":1778810879,"current_range_meters":6800,"station_id":"ce4bhmp2rcd13ifvqgog","pricing_plan_id":"cebpf4jnsgd1na2vs0mg"},{"bike_id":"8d56b838-55f6-4550-aad6-12a377dcfca4","system_id":"levelo_inurba_marseille","lat":43.273255,"lon":5.390576,"is_reserved":false,"is_disabled":false,"rental_uris":{"android":"levelo://app?vid=8d56b838-55f6-4550-aad6-12a377dcfca4","ios":"levelo://app?vid=8d56b838-55f6-4550-aad6-12a377dcfca4"},"vehicle_type_id":"4","last_reported":1778810879,"current_range_meters":6800,"station_id":"ce4bhgp2rcd13ifvqfe0","pricing_plan_id":"cebpf4jnsgd1na2vs0mg"},{"bike_id":"acba5bf7-a092-48f8-9cf0-0e483e38ab5a","system_id":"levelo_inurba_marseille","lat":43.29626,"lon":5.40598,"is_reserved":false,"is_disabled":false,"rental_uris":{"android":"levelo://app?vid=acba5bf7-a092-48f8-9cf0-0e483e38ab5a","ios":"levelo://app?vid=acba5bf7-a092-48f8-9cf0-0e483e38ab5a"},"vehicle_type_id":"4","last_reported":1778810879,"current_range_meters":6800,"station_id":"ce4bh0h2rcd13ifvqd60","pricing_plan_id":"cebpf4jnsgd1na2vs0mg"},{"bike_id":"17874f6c-4d54-44c9-8cdc-701aa7b888c6","system_id":"levelo_inurba_marseille","lat":43.29598,"lon":5.37462,"is_reserved":false,"is_disabled":true,"rental_uris":{"android":"levelo://app?vid=17874f6c-4d54-44c9-8cdc-701aa7b888c6","ios":"levelo://app?vid=17874f6c-4d54-44c9-8cdc-701aa7b888c6"},"vehicle_type_id":"4","last_reported":1778810879,"current_range_meters":6800,"station_id":"","pricing_plan_id":"cebpf4jnsgd1na2vs0mg"},{"bike_id":"0a2988c4-8a8c-429f-9ab6-c8816af0cf04","system_id":"levelo_inurba_marseille","lat":43.29861,"lon":5.39768,"is_reserved":false,"is_disabled":false,"rental_uris":{"android":"levelo://app?vid=0a2988c4-8a8c-429f-9ab6-c8816af0cf04","ios":"levelo://app?vid=0a2988c4-8a8c-429f-9ab6-c8816af0cf04"},"vehicle_type_id":"4","last_reported":1778810879,"current_range_meters":6800,"station_id":"ce4bh0h2rcd13ifvqd50","pricing_plan_id":"cebpf4jnsgd1na2vs0mg"},{"bike_id":"aad9f584-de40-4638-8e27-42078febf3bb","system_id":"levelo_inurba_marseille","lat":43.31995,"lon":5.38147,"is_reserved":false,"is_disabled":false,"rental_uris":{"android":"levelo://app?vid=aad9f584-de40-4638-8e27-42078febf3bb","ios":"levelo://app?vid=aad9f584-de40-4638-8e27-42078febf3bb"},"vehicle_type_id":"4","last_reported":1778810879,"current_range_meters":6800,"station_id":"ce4bhr12rcd13ifvqhpg","pricing_plan_id":"cebpf4jnsgd1na2vs0mg"},{"bike_id":"0ff13334-8de8-4ff8-b960-30bc16cacca6","system_id":"levelo_inurba_marseille","lat":43.30334,"lon":5.40418,"is_reserved":false,"is_disabled":false,"rental_uris":{"android":"levelo://app?vid=0ff13334-8de8-4ff8-b960-30bc16cacca6","ios":"levelo://app?vid=0ff13334-8de8-4ff8-b960-30bc16cacca6"},"vehicle_type_id":"4","last_reported":1778810879,"current_range_meters":6800,"station_id":"ce4bh012rcd13ifvqd10","pricing_plan_id":"cebpf4jnsgd1na2vs0mg"},{"bike_id":"4c08e552-05b3-492e-9965-80ac08a5dda5","system_id":"levelo_inurba_marseille","lat":43.2758,"lon":5.39538,"is_reserved":false,"is_disabled":false,"rental_uris":{"android":"levelo://app?vid=4c08e552-05b3-492e-9965-80ac08a5dda5","ios":"levelo://app?vid=4c08e552-05b3-492e-9965-80ac08a5dda5"},"vehicle_type_id":"4","last_reported":1778810879,"current_range_meters":6800,"station_id":"","pricing_plan_id":"cebpf4jnsgd1na2vs0mg"},{"bike_id":"04d3d691-3e5e-41ed-a448-313897978df0","system_id":"levelo_inurba_marseille","lat":43.31027,"lon":5.3721,"is_reserved":false,"is_disabled":false,"rental_uris":{"android":"levelo://app?vid=04d3d691-3e5e-41ed-a448-313897978df0","ios":"levelo://app?vid=04d3d691-3e5e-41ed-a448-313897978df0"},"vehicle_type_id":"4","last_reported":1778810879,"current_range_meters":6800,"station_id":"st_d4kl2rp97mjs73e7tdfg","pricing_plan_id":"cebpf4jnsgd1na2vs0mg"},{"bike_id":"d46792ac-f5ff-4481-98df-fd0ffbee973c","system_id":"levelo_inurba_marseille","lat":43.29037,"lon":5.40069,"is_reserved":false,"is_disabled":true,"rental_uris":{"android":"levelo://app?vid=d46792ac-f5ff-4481-98df-fd0ffbee973c","ios":"levelo://app?vid=d46792ac-f5ff-4481-98df-fd0ffbee973c"},"vehicle_type_id":"4","last_reported":1778810879,"current_range_meters":6800,"station_id":"","pricing_plan_id":"cebpf4jnsgd1na2vs0mg"},{"bike_id":"781caba9-8a1d-492f-8f32-6bb508d561ff","system_id":"levelo_inurba_marseille","lat":43.28613,"lon":5.42733,"is_reserved":false,"is_disabled":false,"rental_uris":{"android":"levelo://app?vid=781caba9-8a1d-492f-8f32-6bb508d561ff","ios":"levelo://app?vid=781caba9-8a1d-492f-8f32-6bb508d561ff"},"vehicle_type_id":"4","last_reported":1778810879,"current_range_meters":6800,"station_id":"","pricing_plan_id":"cebpf4jnsgd1na2vs0mg"},{"bike_id":"b38ec2e7-b225-4624-a9d8-c26ecc599591","system_id":"levelo_inurba_marseille","lat":43.28547,"lon":5.39523,"is_reserved":false,"is_disabled":false,"rental_uris":{"android":"levelo://app?vid=b38ec2e7-b225-4624-a9d8-c26ecc599591","ios":"levelo://app?vid=b38ec2e7-b225-4624-a9d8-c26ecc599591"},"vehicle_type_id":"4","last_reported":1778810879,"current_range_meters":7200,"station_id":"ce4bh292rcd13ifvqdg0","pricing_plan_id":"cebpf4jnsgd1na2vs0mg"},{"bike_id":"f081dad8-e43c-45df-a012-7144fff947d7","system_id":"levelo_inurba_marseille","lat":43.28601,"lon":5.35119,"is_reserved":false,"is_disabled":false,"rental_uris":{"android":"levelo://app?vid=f081dad8-e43c-45df-a012-7144fff947d7","ios":"levelo://app?vid=f081dad8-e43c-45df-a012-7144fff947d7"},"vehicle_type_id":"4","last_reported":1778810879,"current_range_meters":7200,"station_id":"ce4bhch2rcd13ifvqeug","pricing_plan_id":"cebpf4jnsgd1na2vs0mg"},{"bike_id":"d406c3ba-1538-473d-9c0d-2befb66cce77","system_id":"levelo_inurba_marseille","lat":43.30961,"lon":5.39044,"is_reserved":false,"is_disabled":false,"rental_uris":{"android":"levelo://app?vid=d406c3ba-1538-473d-9c0d-2befb66cce77","ios":"levelo://app?vid=d406c3ba-1538-473d-9c0d-2befb66cce77"},"vehicle_type_id":"4","last_reported":1778810879,"current_range_meters":7200,"station_id":"ce4bgup2rcd13ifvqco0","pricing_plan_id":"cebpf4jnsgd1na2vs0mg"},{"bike_id":"c62b18ba-aa48-40db-a1b4-06b99deae7f5","system_id":"levelo_inurba_marseille","lat":43.27939,"lon":5.38715,"is_reserved":false,"is_disabled":false,"rental_uris":{"android":"levelo://app?vid=c62b18ba-aa48-40db-a1b4-06b99deae7f5","ios":"levelo://app?vid=c62b18ba-aa48-40db-a1b4-06b99deae7f5"},"vehicle_type_id":"4","last_reported":1778810879,"current_range_meters":7200,"station_id":"ce4bhg12rcd13ifvqf80","pricing_plan_id":"cebpf4jnsgd1na2vs0mg"},{"bike_id":"0def443d-9170-403b-9a2c-00de64d6f603","system_id":"levelo_inurba_marseille","lat":43.28493,"lon":5.38556,"is_reserved":false,"is_disabled":false,"rental_uris":{"android":"levelo://app?vid=0def443d-9170-403b-9a2c-00de64d6f603","ios":"levelo://app?vid=0def443d-9170-403b-9a2c-00de64d6f603"},"vehicle_type_id":"4","last_reported":1778810879,"current_range_meters":7200,"station_id":"ce4bh8p2rcd13ifvqeb0","pricing_plan_id":"cebpf4jnsgd1na2vs0mg"},{"bike_id":"4fb14df7-438c-42fa-8aa0-5f524ef701e9","system_id":"levelo_inurba_marseille","lat":43.25596,"lon":5.41801,"is_reserved":false,"is_disabled":false,"rental_uris":{"android":"levelo://app?vid=4fb14df7-438c-42fa-8aa0-5f524ef701e9","ios":"levelo://app?vid=4fb14df7-438c-42fa-8aa0-5f524ef701e9"},"vehicle_type_id":"4","last_reported":1778810879,"current_range_meters":7200,"station_id":"","pricing_plan_id":"cebpf4jnsgd1na2vs0mg"},{"bike_id":"e2ce1f63-0d73-4c38-b80b-527dbbe87d12","system_id":"levelo_inurba_marseille","lat":43.26197,"lon":5.37445,"is_reserved":false,"is_disabled":false,"rental_uris":{"android":"levelo://app?vid=e2ce1f63-0d73-4c38-b80b-527dbbe87d12","ios":"levelo://app?vid=e2ce1f63-0d73-4c38-b80b-527dbbe87d12"},"vehicle_type_id":"4","last_reported":1778810879,"current_range_meters":7200,"station_id":"ce4bhgp2rcd13ifvqfc0","pricing_plan_id":"cebpf4jnsgd1na2vs0mg"},{"bike_id":"a88bc9ae-d88b-46fc-8169-6fe5eb0d8652","system_id":"levelo_inurba_marseille","lat":43.2846,"lon":5.48405,"is_reserved":false,"is_disabled":false,"rental_uris":{"android":"levelo://app?vid=a88bc9ae-d88b-46fc-8169-6fe5eb0d8652","ios":"levelo://app?vid=a88bc9ae-d88b-46fc-8169-6fe5eb0d8652"},"vehicle_type_id":"4","last_reported":1778810879,"current_range_meters":7200,"station_id":"","pricing_plan_id":"cebpf4jnsgd1na2vs0mg"},{"bike_id":"511c1b75-28d0-408e-8090-dcf02c519f9c","system_id":"levelo_inurba_marseille","lat":43.30497,"lon":5.36606,"is_reserved":false,"is_disabled":false,"rental_uris":{"android":"levelo://app?vid=511c1b75-28d0-408e-8090-dcf02c519f9c","ios":"levelo://app?vid=511c1b75-28d0-408e-8090-dcf02c519f9c"},"vehicle_type_id":"4","last_reported":1778810879,"current_range_meters":7200,"station_id":"","pricing_plan_id":"cebpf4jnsgd1na2vs0mg"},{"bike_id":"98b788f6-0955-4fd7-8e5b-9bd841faaf5e","system_id":"levelo_inurba_marseille","lat":43.3354,"lon":5.37463,"is_reserved":false,"is_disabled":false,"rental_uris":{"android":"levelo://app?vid=98b788f6-0955-4fd7-8e5b-9bd841faaf5e","ios":"levelo://app?vid=98b788f6-0955-4fd7-8e5b-9bd841faaf5e"},"vehicle_type_id":"4","last_reported":1778810879,"current_range_meters":7200,"station_id":"st_d46tts09ee8s73dlu43g","pricing_plan_id":"cebpf4jnsgd1na2vs0mg"},{"bike_id":"ea11b4d1-1979-4d60-80e0-6b6d65088d4f","system_id":"levelo_inurba_marseille","lat":43.27226,"lon":5.39189,"is_reserved":false,"is_disabled":true,"rental_uris":{"android":"levelo://app?vid=ea11b4d1-1979-4d60-80e0-6b6d65088d4f","ios":"levelo://app?vid=ea11b4d1-1979-4d60-80e0-6b6d65088d4f"},"vehicle_type_id":"4","last_reported":1778810879,"current_range_meters":7200,"station_id":"ce4bhhp2rcd13ifvqfm0","pricing_plan_id":"cebpf4jnsgd1na2vs0mg"},{"bike_id":"3770903e-9831-4a06-8226-646ab042500a","system_id":"levelo_inurba_marseille","lat":43.28536,"lon":5.44095,"is_reserved":false,"is_disabled":false,"rental_uris":{"android":"levelo://app?vid=3770903e-9831-4a06-8226-646ab042500a","ios":"levelo://app?vid=3770903e-9831-4a06-8226-646ab042500a"},"vehicle_type_id":"4","last_reported":1778810879,"current_range_meters":7200,"station_id":"st_d3j3df2ikq2c7380ej80","pricing_plan_id":"cebpf4jnsgd1na2vs0mg"},{"bike_id":"d7e97781-7864-4d48-a10e-e09d15b1fad1","system_id":"levelo_inurba_marseille","lat":43.29633,"lon":5.38015,"is_reserved":false,"is_disabled":false,"rental_uris":{"android":"levelo://app?vid=d7e97781-7864-4d48-a10e-e09d15b1fad1","ios":"levelo://app?vid=d7e97781-7864-4d48-a10e-e09d15b1fad1"},"vehicle_type_id":"4","last_reported":1778810879,"current_range_meters":7200,"station_id":"","pricing_plan_id":"cebpf4jnsgd1na2vs0mg"},{"bike_id":"f5c43fa3-ab6d-4af1-9674-22af5bbae61c","system_id":"levelo_inurba_marseille","lat":43.30886,"lon":5.39626,"is_reserved":false,"is_disabled":false,"rental_uris":{"android":"levelo://app?vid=f5c43fa3-ab6d-4af1-9674-22af5bbae61c","ios":"levelo://app?vid=f5c43fa3-ab6d-4af1-9674-22af5bbae61c"},"vehicle_type_id":"4","last_reported":1778810879,"current_range_meters":8000,"station_id":"ce4bh012rcd13ifvqcv0","pricing_plan_id":"cebpf4jnsgd1na2vs0mg"},{"bike_id":"e53adcd6-4f59-4fbc-a29b-267cfe56f44a","system_id":"levelo_inurba_marseille","lat":43.26489,"lon":5.39549,"is_reserved":false,"is_disabled":false,"rental_uris":{"android":"levelo://app?vid=e53adcd6-4f59-4fbc-a29b-267cfe56f44a","ios":"levelo://app?vid=e53adcd6-4f59-4fbc-a29b-267cfe56f44a"},"vehicle_type_id":"4","last_reported":1778810879,"current_range_meters":8000,"station_id":"ce4bhi12rcd13ifvqfq0","pricing_plan_id":"cebpf4jnsgd1na2vs0mg"},{"bike_id":"a4882181-b919-4ecc-b9b3-387fb9d8d338","system_id":"levelo_inurba_marseille","lat":43.28485,"lon":5.38443,"is_reserved":false,"is_disabled":false,"rental_uris":{"android":"levelo://app?vid=a4882181-b919-4ecc-b9b3-387fb9d8d338","ios":"levelo://app?vid=a4882181-b919-4ecc-b9b3-387fb9d8d338"},"vehicle_type_id":"4","last_reported":1778810879,"current_range_meters":8000,"station_id":"ce4bh512rcd13ifvqe3g","pricing_plan_id":"cebpf4jnsgd1na2vs0mg"},{"bike_id":"99d016b5-db26-43a2-b902-f07852d3d0a2","system_id":"levelo_inurba_marseille","lat":43.23122,"lon":5.4373,"is_reserved":false,"is_disabled":false,"rental_uris":{"android":"levelo://app?vid=99d016b5-db26-43a2-b902-f07852d3d0a2","ios":"levelo://app?vid=99d016b5-db26-43a2-b902-f07852d3d0a2"},"vehicle_type_id":"4","last_reported":1778810879,"current_range_meters":8000,"station_id":"ce4bhmp2rcd13ifvqgog","pricing_plan_id":"cebpf4jnsgd1na2vs0mg"},{"bike_id":"39481e13-fb19-40b9-9611-cd35a8bf33b1","system_id":"levelo_inurba_marseille","lat":43.27449,"lon":5.41593,"is_reserved":false,"is_disabled":false,"rental_uris":{"android":"levelo://app?vid=39481e13-fb19-40b9-9611-cd35a8bf33b1","ios":"levelo://app?vid=39481e13-fb19-40b9-9611-cd35a8bf33b1"},"vehicle_type_id":"4","last_reported":1778810879,"current_range_meters":8000,"station_id":"","pricing_plan_id":"cebpf4jnsgd1na2vs0mg"},{"bike_id":"27704a09-2a84-4e44-8cae-7a34ca42d9c1","system_id":"levelo_inurba_marseille","lat":43.26661,"lon":5.37248,"is_reserved":false,"is_disabled":false,"rental_uris":{"android":"levelo://app?vid=27704a09-2a84-4e44-8cae-7a34ca42d9c1","ios":"levelo://app?vid=27704a09-2a84-4e44-8cae-7a34ca42d9c1"},"vehicle_type_id":"4","last_reported":1778810879,"current_range_meters":8000,"station_id":"","pricing_plan_id":"cebpf4jnsgd1na2vs0mg"},{"bike_id":"daf89c1a-ac46-4a29-a9a8-75dba19355f0","system_id":"levelo_inurba_marseille","lat":43.24396,"lon":5.37061,"is_reserved":false,"is_disabled":false,"rental_uris":{"android":"levelo://app?vid=daf89c1a-ac46-4a29-a9a8-75dba19355f0","ios":"levelo://app?vid=daf89c1a-ac46-4a29-a9a8-75dba19355f0"},"vehicle_type_id":"4","last_reported":1778810879,"current_range_meters":8000,"station_id":"ce4bhhh2rcd13ifvqfk0","pricing_plan_id":"cebpf4jnsgd1na2vs0mg"},{"bike_id":"f6256870-c4dd-4b62-b17e-01ae8d80757a","system_id":"levelo_inurba_marseille","lat":43.26226,"lon":5.38768,"is_reserved":false,"is_disabled":false,"rental_uris":{"android":"levelo://app?vid=f6256870-c4dd-4b62-b17e-01ae8d80757a","ios":"levelo://app?vid=f6256870-c4dd-4b62-b17e-01ae8d80757a"},"vehicle_type_id":"4","last_reported":1778810879,"current_range_meters":8000,"station_id":"","pricing_plan_id":"cebpf4jnsgd1na2vs0mg"},{"bike_id":"51f2aac7-f9be-4b98-a404-4dc10e7dae1c","system_id":"levelo_inurba_marseille","lat":43.29837,"lon":5.36296,"is_reserved":false,"is_disabled":false,"rental_uris":{"android":"levelo://app?vid=51f2aac7-f9be-4b98-a404-4dc10e7dae1c","ios":"levelo://app?vid=51f2aac7-f9be-4b98-a404-4dc10e7dae1c"},"vehicle_type_id":"4","last_reported":1778810879,"current_range_meters":8000,"station_id":"ce4bgpp2rcd13ifvqc3g","pricing_plan_id":"cebpf4jnsgd1na2vs0mg"},{"bike_id":"f5f79339-f7bf-4874-a985-2850d221bb5f","system_id":"levelo_inurba_marseille","lat":43.33542,"lon":5.37462,"is_reserved":false,"is_disabled":false,"rental_uris":{"android":"levelo://app?vid=f5f79339-f7bf-4874-a985-2850d221bb5f","ios":"levelo://app?vid=f5f79339-f7bf-4874-a985-2850d221bb5f"},"vehicle_type_id":"4","last_reported":1778810879,"current_range_meters":8000,"station_id":"st_d46tts09ee8s73dlu43g","pricing_plan_id":"cebpf4jnsgd1na2vs0mg"},{"bike_id":"409c3b3b-a922-4e30-9f80-abcbec3d38d4","system_id":"levelo_inurba_marseille","lat":43.29585,"lon":5.38707,"is_reserved":false,"is_disabled":false,"rental_uris":{"android":"levelo://app?vid=409c3b3b-a922-4e30-9f80-abcbec3d38d4","ios":"levelo://app?vid=409c3b3b-a922-4e30-9f80-abcbec3d38d4"},"vehicle_type_id":"4","last_reported":1778810879,"current_range_meters":8000,"station_id":"ce4bgih2rcd13ifvqba0","pricing_plan_id":"cebpf4jnsgd1na2vs0mg"},{"bike_id":"d1a7e548-e76e-4d47-8cad-74f36fcb5ab7","system_id":"levelo_inurba_marseille","lat":43.31351,"lon":5.38493,"is_reserved":false,"is_disabled":false,"rental_uris":{"android":"levelo://app?vid=d1a7e548-e76e-4d47-8cad-74f36fcb5ab7","ios":"levelo://app?vid=d1a7e548-e76e-4d47-8cad-74f36fcb5ab7"},"vehicle_type_id":"4","last_reported":1778810879,"current_range_meters":8000,"station_id":"ce4bgt92rcd13ifvqcf0","pricing_plan_id":"cebpf4jnsgd1na2vs0mg"},{"bike_id":"7f5acffe-f62d-41df-8f26-c6a329dd4663","system_id":"levelo_inurba_marseille","lat":43.30906,"lon":5.39634,"is_reserved":false,"is_disabled":false,"rental_uris":{"android":"levelo://app?vid=7f5acffe-f62d-41df-8f26-c6a329dd4663","ios":"levelo://app?vid=7f5acffe-f62d-41df-8f26-c6a329dd4663"},"vehicle_type_id":"4","last_reported":1778810879,"current_range_meters":8000,"station_id":"ce4bh012rcd13ifvqcv0","pricing_plan_id":"cebpf4jnsgd1na2vs0mg"},{"bike_id":"b942de8b-7ed7-423c-b5f5-c55a01482354","system_id":"levelo_inurba_marseille","lat":43.30308,"lon":5.36896,"is_reserved":false,"is_disabled":false,"rental_uris":{"android":"levelo://app?vid=b942de8b-7ed7-423c-b5f5-c55a01482354","ios":"levelo://app?vid=b942de8b-7ed7-423c-b5f5-c55a01482354"},"vehicle_type_id":"4","last_reported":1778810879,"current_range_meters":8000,"station_id":"ce4bgqh2rcd13ifvqc5g","pricing_plan_id":"cebpf4jnsgd1na2vs0mg"},{"bike_id":"658da880-75f0-4b3a-9be9-ad436002d4d0","system_id":"levelo_inurba_marseille","lat":43.25326,"lon":5.42166,"is_reserved":false,"is_disabled":false,"rental_uris":{"android":"levelo://app?vid=658da880-75f0-4b3a-9be9-ad436002d4d0","ios":"levelo://app?vid=658da880-75f0-4b3a-9be9-ad436002d4d0"},"vehicle_type_id":"4","last_reported":1778810879,"current_range_meters":8000,"station_id":"st_d2m65c5bi1j21697t3ng","pricing_plan_id":"cebpf4jnsgd1na2vs0mg"},{"bike_id":"3125a78f-3ac7-4cbd-b7ab-80700d32dfdb","system_id":"levelo_inurba_marseille","lat":43.29071,"lon":5.37156,"is_reserved":false,"is_disabled":false,"rental_uris":{"android":"levelo://app?vid=3125a78f-3ac7-4cbd-b7ab-80700d32dfdb","ios":"levelo://app?vid=3125a78f-3ac7-4cbd-b7ab-80700d32dfdb"},"vehicle_type_id":"4","last_reported":1778810879,"current_range_meters":8000,"station_id":"ce4bh5p2rcd13ifvqe4g","pricing_plan_id":"cebpf4jnsgd1na2vs0mg"},{"bike_id":"4d1adb8b-faa6-4c2e-8fbc-936628286a75","system_id":"levelo_inurba_marseille","lat":43.26332,"lon":5.40378,"is_reserved":false,"is_disabled":false,"rental_uris":{"android":"levelo://app?vid=4d1adb8b-faa6-4c2e-8fbc-936628286a75","ios":"levelo://app?vid=4d1adb8b-faa6-4c2e-8fbc-936628286a75"},"vehicle_type_id":"4","last_reported":1778810879,"current_range_meters":8000,"station_id":"","pricing_plan_id":"cebpf4jnsgd1na2vs0mg"},{"bike_id":"9275dd93-ac1a-4e6e-ba50-f59f37d5eacf","system_id":"levelo_inurba_marseille","lat":43.24467,"lon":5.4254,"is_reserved":false,"is_disabled":false,"rental_uris":{"android":"levelo://app?vid=9275dd93-ac1a-4e6e-ba50-f59f37d5eacf","ios":"levelo://app?vid=9275dd93-ac1a-4e6e-ba50-f59f37d5eacf"},"vehicle_type_id":"4","last_reported":1778810879,"current_range_meters":8000,"station_id":"st_d4a3vfp97mjs738cd8kg","pricing_plan_id":"cebpf4jnsgd1na2vs0mg"},{"bike_id":"3cf1364d-167c-4411-a0f9-442348727ec0","system_id":"levelo_inurba_marseille","lat":43.29261,"lon":5.36859,"is_reserved":false,"is_disabled":false,"rental_uris":{"android":"levelo://app?vid=3cf1364d-167c-4411-a0f9-442348727ec0","ios":"levelo://app?vid=3cf1364d-167c-4411-a0f9-442348727ec0"},"vehicle_type_id":"4","last_reported":1778810879,"current_range_meters":8000,"station_id":"ce4bhbp2rcd13ifvqesg","pricing_plan_id":"cebpf4jnsgd1na2vs0mg"},{"bike_id":"2b7b4933-8829-463c-a55e-f6264c1ec7c1","system_id":"levelo_inurba_marseille","lat":43.28697,"lon":5.46705,"is_reserved":false,"is_disabled":false,"rental_uris":{"android":"levelo://app?vid=2b7b4933-8829-463c-a55e-f6264c1ec7c1","ios":"levelo://app?vid=2b7b4933-8829-463c-a55e-f6264c1ec7c1"},"vehicle_type_id":"4","last_reported":1778810879,"current_range_meters":8000,"station_id":"st_d6tc3vkotcvc738tfjhg","pricing_plan_id":"cebpf4jnsgd1na2vs0mg"},{"bike_id":"fe944d56-9e4b-4bd5-bb68-a04f1c617363","system_id":"levelo_inurba_marseille","lat":43.28613,"lon":5.35107,"is_reserved":false,"is_disabled":false,"rental_uris":{"android":"levelo://app?vid=fe944d56-9e4b-4bd5-bb68-a04f1c617363","ios":"levelo://app?vid=fe944d56-9e4b-4bd5-bb68-a04f1c617363"},"vehicle_type_id":"4","last_reported":1778810879,"current_range_meters":8000,"station_id":"ce4bhch2rcd13ifvqeug","pricing_plan_id":"cebpf4jnsgd1na2vs0mg"},{"bike_id":"7d5e3739-999a-4364-94f6-8925c1422467","system_id":"levelo_inurba_marseille","lat":43.24056,"lon":5.37799,"is_reserved":false,"is_disabled":false,"rental_uris":{"android":"levelo://app?vid=7d5e3739-999a-4364-94f6-8925c1422467","ios":"levelo://app?vid=7d5e3739-999a-4364-94f6-8925c1422467"},"vehicle_type_id":"4","last_reported":1778810879,"current_range_meters":8400,"station_id":"ce4bhnp2rcd13ifvqgvg","pricing_plan_id":"cebpf4jnsgd1na2vs0mg"},{"bike_id":"0ae4343c-ae62-4d36-a82a-1c301793282f","system_id":"levelo_inurba_marseille","lat":43.30375,"lon":5.42486,"is_reserved":false,"is_disabled":false,"rental_uris":{"android":"levelo://app?vid=0ae4343c-ae62-4d36-a82a-1c301793282f","ios":"levelo://app?vid=0ae4343c-ae62-4d36-a82a-1c301793282f"},"vehicle_type_id":"4","last_reported":1778810879,"current_range_meters":8400,"station_id":"ce4bhoh2rcd13ifvqh6g","pricing_plan_id":"cebpf4jnsgd1na2vs0mg"},{"bike_id":"69ee6bed-5601-48fd-a542-34b0427c1ca0","system_id":"levelo_inurba_marseille","lat":43.25651,"lon":5.38547,"is_reserved":false,"is_disabled":false,"rental_uris":{"android":"levelo://app?vid=69ee6bed-5601-48fd-a542-34b0427c1ca0","ios":"levelo://app?vid=69ee6bed-5601-48fd-a542-34b0427c1ca0"},"vehicle_type_id":"4","last_reported":1778810879,"current_range_meters":8400,"station_id":"","pricing_plan_id":"cebpf4jnsgd1na2vs0mg"},{"bike_id":"c5fa3b16-6a1d-48ed-90c5-0d892f974715","system_id":"levelo_inurba_marseille","lat":43.29841,"lon":5.36272,"is_reserved":false,"is_disabled":false,"rental_uris":{"android":"levelo://app?vid=c5fa3b16-6a1d-48ed-90c5-0d892f974715","ios":"levelo://app?vid=c5fa3b16-6a1d-48ed-90c5-0d892f974715"},"vehicle_type_id":"4","last_reported":1778810879,"current_range_meters":8400,"station_id":"ce4bgpp2rcd13ifvqc3g","pricing_plan_id":"cebpf4jnsgd1na2vs0mg"},{"bike_id":"12bb4237-40aa-4e27-926c-152dfdbc0159","system_id":"levelo_inurba_marseille","lat":43.28501,"lon":5.38505,"is_reserved":false,"is_disabled":false,"rental_uris":{"android":"levelo://app?vid=12bb4237-40aa-4e27-926c-152dfdbc0159","ios":"levelo://app?vid=12bb4237-40aa-4e27-926c-152dfdbc0159"},"vehicle_type_id":"4","last_reported":1778810879,"current_range_meters":8400,"station_id":"ce4bh8p2rcd13ifvqeb0","pricing_plan_id":"cebpf4jnsgd1na2vs0mg"},{"bike_id":"fa59a2f1-3a57-4d10-8122-2871d8480ac9","system_id":"levelo_inurba_marseille","lat":43.27919,"lon":5.39223,"is_reserved":false,"is_disabled":false,"rental_uris":{"android":"levelo://app?vid=fa59a2f1-3a57-4d10-8122-2871d8480ac9","ios":"levelo://app?vid=fa59a2f1-3a57-4d10-8122-2871d8480ac9"},"vehicle_type_id":"4","last_reported":1778810879,"current_range_meters":8400,"station_id":"","pricing_plan_id":"cebpf4jnsgd1na2vs0mg"},{"bike_id":"aa365fb2-d3cb-4b6c-bf81-7166f7fed477","system_id":"levelo_inurba_marseille","lat":43.30134,"lon":5.39871,"is_reserved":false,"is_disabled":false,"rental_uris":{"android":"levelo://app?vid=aa365fb2-d3cb-4b6c-bf81-7166f7fed477","ios":"levelo://app?vid=aa365fb2-d3cb-4b6c-bf81-7166f7fed477"},"vehicle_type_id":"4","last_reported":1778810879,"current_range_meters":8400,"station_id":"ce4bh0h2rcd13ifvqd40","pricing_plan_id":"cebpf4jnsgd1na2vs0mg"},{"bike_id":"5678d171-aa4c-4e18-8510-e7723263d165","system_id":"levelo_inurba_marseille","lat":43.23152,"lon":5.43703,"is_reserved":false,"is_disabled":false,"rental_uris":{"android":"levelo://app?vid=5678d171-aa4c-4e18-8510-e7723263d165","ios":"levelo://app?vid=5678d171-aa4c-4e18-8510-e7723263d165"},"vehicle_type_id":"4","last_reported":1778810879,"current_range_meters":8400,"station_id":"ce4bhmp2rcd13ifvqgog","pricing_plan_id":"cebpf4jnsgd1na2vs0mg"},{"bike_id":"992593cf-8c58-433c-b2f5-8a671b870530","system_id":"levelo_inurba_marseille","lat":43.28905,"lon":5.36249,"is_reserved":false,"is_disabled":false,"rental_uris":{"android":"levelo://app?vid=992593cf-8c58-433c-b2f5-8a671b870530","ios":"levelo://app?vid=992593cf-8c58-433c-b2f5-8a671b870530"},"vehicle_type_id":"4","last_reported":1778810879,"current_range_meters":8400,"station_id":"ce4bhc92rcd13ifvqetg","pricing_plan_id":"cebpf4jnsgd1na2vs0mg"},{"bike_id":"824ef9b0-4b09-45b5-b34a-37d98013db94","system_id":"levelo_inurba_marseille","lat":43.31743,"lon":5.42395,"is_reserved":false,"is_disabled":false,"rental_uris":{"android":"levelo://app?vid=824ef9b0-4b09-45b5-b34a-37d98013db94","ios":"levelo://app?vid=824ef9b0-4b09-45b5-b34a-37d98013db94"},"vehicle_type_id":"4","last_reported":1778810879,"current_range_meters":8400,"station_id":"ce4bhp92rcd13ifvqhbg","pricing_plan_id":"cebpf4jnsgd1na2vs0mg"},{"bike_id":"487f5b2a-e05f-4486-a861-37010242d8f5","system_id":"levelo_inurba_marseille","lat":43.28504,"lon":5.44156,"is_reserved":false,"is_disabled":false,"rental_uris":{"android":"levelo://app?vid=487f5b2a-e05f-4486-a861-37010242d8f5","ios":"levelo://app?vid=487f5b2a-e05f-4486-a861-37010242d8f5"},"vehicle_type_id":"4","last_reported":1778810879,"current_range_meters":8400,"station_id":"","pricing_plan_id":"cebpf4jnsgd1na2vs0mg"},{"bike_id":"1902f9f2-9ba8-46c0-bacf-8cac75c83ba5","system_id":"levelo_inurba_marseille","lat":43.31404,"lon":5.36715,"is_reserved":false,"is_disabled":false,"rental_uris":{"android":"levelo://app?vid=1902f9f2-9ba8-46c0-bacf-8cac75c83ba5","ios":"levelo://app?vid=1902f9f2-9ba8-46c0-bacf-8cac75c83ba5"},"vehicle_type_id":"4","last_reported":1778810879,"current_range_meters":8400,"station_id":"","pricing_plan_id":"cebpf4jnsgd1na2vs0mg"},{"bike_id":"75fbf40b-61b5-48a3-a920-f758ef4ada58","system_id":"levelo_inurba_marseille","lat":43.30142,"lon":5.38093,"is_reserved":false,"is_disabled":false,"rental_uris":{"android":"levelo://app?vid=75fbf40b-61b5-48a3-a920-f758ef4ada58","ios":"levelo://app?vid=75fbf40b-61b5-48a3-a920-f758ef4ada58"},"vehicle_type_id":"4","last_reported":1778810879,"current_range_meters":8400,"station_id":"ce4bgjp2rcd13ifvqbh0","pricing_plan_id":"cebpf4jnsgd1na2vs0mg"},{"bike_id":"7a68a96c-47a2-426f-b9b5-e8fc86cc8d28","system_id":"levelo_inurba_marseille","lat":43.30236,"lon":5.40088,"is_reserved":false,"is_disabled":false,"rental_uris":{"android":"levelo://app?vid=7a68a96c-47a2-426f-b9b5-e8fc86cc8d28","ios":"levelo://app?vid=7a68a96c-47a2-426f-b9b5-e8fc86cc8d28"},"vehicle_type_id":"4","last_reported":1778810879,"current_range_meters":8400,"station_id":"ce4bgvh2rcd13ifvqcs0","pricing_plan_id":"cebpf4jnsgd1na2vs0mg"},{"bike_id":"6b379858-4a6b-45a0-96f4-19512c9626ea","system_id":"levelo_inurba_marseille","lat":43.23195,"lon":5.39977,"is_reserved":false,"is_disabled":false,"rental_uris":{"android":"levelo://app?vid=6b379858-4a6b-45a0-96f4-19512c9626ea","ios":"levelo://app?vid=6b379858-4a6b-45a0-96f4-19512c9626ea"},"vehicle_type_id":"4","last_reported":1778810879,"current_range_meters":8400,"station_id":"ce4bhn12rcd13ifvqgqg","pricing_plan_id":"cebpf4jnsgd1na2vs0mg"},{"bike_id":"3cdb0195-4f96-4947-92dd-52d1afc71788","system_id":"levelo_inurba_marseille","lat":43.22582,"lon":5.41624,"is_reserved":false,"is_disabled":false,"rental_uris":{"android":"levelo://app?vid=3cdb0195-4f96-4947-92dd-52d1afc71788","ios":"levelo://app?vid=3cdb0195-4f96-4947-92dd-52d1afc71788"},"vehicle_type_id":"4","last_reported":1778810879,"current_range_meters":8400,"station_id":"st_d2o4gvlbi1j2169b742g","pricing_plan_id":"cebpf4jnsgd1na2vs0mg"},{"bike_id":"ab5d2c88-2225-4484-b022-e013d40ae356","system_id":"levelo_inurba_marseille","lat":43.27379,"lon":5.36245,"is_reserved":false,"is_disabled":false,"rental_uris":{"android":"levelo://app?vid=ab5d2c88-2225-4484-b022-e013d40ae356","ios":"levelo://app?vid=ab5d2c88-2225-4484-b022-e013d40ae356"},"vehicle_type_id":"4","last_reported":1778810879,"current_range_meters":8400,"station_id":"ce4bhbh2rcd13ifvqeo0","pricing_plan_id":"cebpf4jnsgd1na2vs0mg"},{"bike_id":"7721e457-13f9-4d25-8803-7e0bf53167c3","system_id":"levelo_inurba_marseille","lat":43.29059,"lon":5.35932,"is_reserved":false,"is_disabled":false,"rental_uris":{"android":"levelo://app?vid=7721e457-13f9-4d25-8803-7e0bf53167c3","ios":"levelo://app?vid=7721e457-13f9-4d25-8803-7e0bf53167c3"},"vehicle_type_id":"4","last_reported":1778810879,"current_range_meters":8400,"station_id":"ce4bha92rcd13ifvqeg0","pricing_plan_id":"cebpf4jnsgd1na2vs0mg"},{"bike_id":"af20cc9b-d3fb-4902-b77a-283d964c8cb8","system_id":"levelo_inurba_marseille","lat":43.28697,"lon":5.46684,"is_reserved":false,"is_disabled":false,"rental_uris":{"android":"levelo://app?vid=af20cc9b-d3fb-4902-b77a-283d964c8cb8","ios":"levelo://app?vid=af20cc9b-d3fb-4902-b77a-283d964c8cb8"},"vehicle_type_id":"4","last_reported":1778810879,"current_range_meters":8400,"station_id":"st_d6tc3vkotcvc738tfjhg","pricing_plan_id":"cebpf4jnsgd1na2vs0mg"},{"bike_id":"c8fd3092-953a-42ff-8b04-c0a07bddfbee","system_id":"levelo_inurba_marseille","lat":43.28156,"lon":5.42651,"is_reserved":false,"is_disabled":false,"rental_uris":{"android":"levelo://app?vid=c8fd3092-953a-42ff-8b04-c0a07bddfbee","ios":"levelo://app?vid=c8fd3092-953a-42ff-8b04-c0a07bddfbee"},"vehicle_type_id":"4","last_reported":1778810879,"current_range_meters":8400,"station_id":"ce4bhnh2rcd13ifvqgug","pricing_plan_id":"cebpf4jnsgd1na2vs0mg"},{"bike_id":"e5342490-485a-4302-a5b2-800cb8c2300e","system_id":"levelo_inurba_marseille","lat":43.29978,"lon":5.38665,"is_reserved":false,"is_disabled":false,"rental_uris":{"android":"levelo://app?vid=e5342490-485a-4302-a5b2-800cb8c2300e","ios":"levelo://app?vid=e5342490-485a-4302-a5b2-800cb8c2300e"},"vehicle_type_id":"4","last_reported":1778810879,"current_range_meters":8400,"station_id":"","pricing_plan_id":"cebpf4jnsgd1na2vs0mg"},{"bike_id":"dcb505ac-4cc6-4f11-8d3d-d28754416324","system_id":"levelo_inurba_marseille","lat":43.28409,"lon":5.34999,"is_reserved":false,"is_disabled":false,"rental_uris":{"android":"levelo://app?vid=dcb505ac-4cc6-4f11-8d3d-d28754416324","ios":"levelo://app?vid=dcb505ac-4cc6-4f11-8d3d-d28754416324"},"vehicle_type_id":"4","last_reported":1778810879,"current_range_meters":8400,"station_id":"ce4bhbh2rcd13ifvqepg","pricing_plan_id":"cebpf4jnsgd1na2vs0mg"},{"bike_id":"f829f4b9-58d1-45a6-9014-d64b4b0b3b6f","system_id":"levelo_inurba_marseille","lat":43.29154,"lon":5.37157,"is_reserved":false,"is_disabled":false,"rental_uris":{"android":"levelo://app?vid=f829f4b9-58d1-45a6-9014-d64b4b0b3b6f","ios":"levelo://app?vid=f829f4b9-58d1-45a6-9014-d64b4b0b3b6f"},"vehicle_type_id":"4","last_reported":1778810879,"current_range_meters":8800,"station_id":"ce4bha92rcd13ifvqeh0","pricing_plan_id":"cebpf4jnsgd1na2vs0mg"},{"bike_id":"53d89b78-fbfa-4765-86e4-2d5e25a39c79","system_id":"levelo_inurba_marseille","lat":43.24796,"lon":5.37453,"is_reserved":false,"is_disabled":false,"rental_uris":{"android":"levelo://app?vid=53d89b78-fbfa-4765-86e4-2d5e25a39c79","ios":"levelo://app?vid=53d89b78-fbfa-4765-86e4-2d5e25a39c79"},"vehicle_type_id":"4","last_reported":1778810879,"current_range_meters":8800,"station_id":"ce4bhgh2rcd13ifvqfb0","pricing_plan_id":"cebpf4jnsgd1na2vs0mg"},{"bike_id":"bde9888f-9b59-42e7-a131-a0b960621f11","system_id":"levelo_inurba_marseille","lat":43.23769,"lon":5.36639,"is_reserved":false,"is_disabled":false,"rental_uris":{"android":"levelo://app?vid=bde9888f-9b59-42e7-a131-a0b960621f11","ios":"levelo://app?vid=bde9888f-9b59-42e7-a131-a0b960621f11"},"vehicle_type_id":"4","last_reported":1778810879,"current_range_meters":8800,"station_id":"st_d3nk18o9ro0c73en2l3g","pricing_plan_id":"cebpf4jnsgd1na2vs0mg"},{"bike_id":"f9486792-7bc8-4a09-9e24-bbe0e6455316","system_id":"levelo_inurba_marseille","lat":43.24952,"lon":5.40492,"is_reserved":false,"is_disabled":false,"rental_uris":{"android":"levelo://app?vid=f9486792-7bc8-4a09-9e24-bbe0e6455316","ios":"levelo://app?vid=f9486792-7bc8-4a09-9e24-bbe0e6455316"},"vehicle_type_id":"4","last_reported":1778810879,"current_range_meters":8800,"station_id":"st_d2ngiaodas8pm72gd1h0","pricing_plan_id":"cebpf4jnsgd1na2vs0mg"},{"bike_id":"aacdad64-a862-4132-8565-d2120e3fda67","system_id":"levelo_inurba_marseille","lat":43.31275,"lon":5.40171,"is_reserved":false,"is_disabled":false,"rental_uris":{"android":"levelo://app?vid=aacdad64-a862-4132-8565-d2120e3fda67","ios":"levelo://app?vid=aacdad64-a862-4132-8565-d2120e3fda67"},"vehicle_type_id":"4","last_reported":1778810879,"current_range_meters":8800,"station_id":"ce4bh092rcd13ifvqd30","pricing_plan_id":"cebpf4jnsgd1na2vs0mg"},{"bike_id":"59628517-3f7d-44b2-b364-feacaea8bcf4","system_id":"levelo_inurba_marseille","lat":43.28424,"lon":5.35003,"is_reserved":false,"is_disabled":false,"rental_uris":{"android":"levelo://app?vid=59628517-3f7d-44b2-b364-feacaea8bcf4","ios":"levelo://app?vid=59628517-3f7d-44b2-b364-feacaea8bcf4"},"vehicle_type_id":"4","last_reported":1778810879,"current_range_meters":8800,"station_id":"ce4bhbh2rcd13ifvqepg","pricing_plan_id":"cebpf4jnsgd1na2vs0mg"},{"bike_id":"ce53c828-abe6-4bce-9c28-c4fd91b5e9ce","system_id":"levelo_inurba_marseille","lat":43.28862,"lon":5.39307,"is_reserved":false,"is_disabled":false,"rental_uris":{"android":"levelo://app?vid=ce53c828-abe6-4bce-9c28-c4fd91b5e9ce","ios":"levelo://app?vid=ce53c828-abe6-4bce-9c28-c4fd91b5e9ce"},"vehicle_type_id":"4","last_reported":1778810879,"current_range_meters":8800,"station_id":"ce4bh2p2rcd13ifvqdi0","pricing_plan_id":"cebpf4jnsgd1na2vs0mg"},{"bike_id":"e0b16637-3ef6-48f5-a000-6d4a4719dd04","system_id":"levelo_inurba_marseille","lat":43.2621,"lon":5.37453,"is_reserved":false,"is_disabled":false,"rental_uris":{"android":"levelo://app?vid=e0b16637-3ef6-48f5-a000-6d4a4719dd04","ios":"levelo://app?vid=e0b16637-3ef6-48f5-a000-6d4a4719dd04"},"vehicle_type_id":"4","last_reported":1778810879,"current_range_meters":8800,"station_id":"ce4bhgp2rcd13ifvqfc0","pricing_plan_id":"cebpf4jnsgd1na2vs0mg"},{"bike_id":"542d668d-94a3-43d7-8122-dc170ac76fcb","system_id":"levelo_inurba_marseille","lat":43.24467,"lon":5.42533,"is_reserved":false,"is_disabled":false,"rental_uris":{"android":"levelo://app?vid=542d668d-94a3-43d7-8122-dc170ac76fcb","ios":"levelo://app?vid=542d668d-94a3-43d7-8122-dc170ac76fcb"},"vehicle_type_id":"4","last_reported":1778810879,"current_range_meters":8800,"station_id":"st_d4a3vfp97mjs738cd8kg","pricing_plan_id":"cebpf4jnsgd1na2vs0mg"},{"bike_id":"7e0abb9d-45cd-4f2e-9dc0-1d0641b37ff5","system_id":"levelo_inurba_marseille","lat":43.29266,"lon":5.37629,"is_reserved":false,"is_disabled":true,"rental_uris":{"android":"levelo://app?vid=7e0abb9d-45cd-4f2e-9dc0-1d0641b37ff5","ios":"levelo://app?vid=7e0abb9d-45cd-4f2e-9dc0-1d0641b37ff5"},"vehicle_type_id":"4","last_reported":1778810879,"current_range_meters":8800,"station_id":"ce4bgi12rcd13ifvqb80","pricing_plan_id":"cebpf4jnsgd1na2vs0mg"},{"bike_id":"0ee7e7d5-d25e-446f-bfb7-9c213be9c8fc","system_id":"levelo_inurba_marseille","lat":43.23963,"lon":5.36623,"is_reserved":false,"is_disabled":false,"rental_uris":{"android":"levelo://app?vid=0ee7e7d5-d25e-446f-bfb7-9c213be9c8fc","ios":"levelo://app?vid=0ee7e7d5-d25e-446f-bfb7-9c213be9c8fc"},"vehicle_type_id":"4","last_reported":1778810879,"current_range_meters":8800,"station_id":"ce4bhi12rcd13ifvqfp0","pricing_plan_id":"cebpf4jnsgd1na2vs0mg"},{"bike_id":"cf7b705c-7a37-4054-aa6c-b54b5684440f","system_id":"levelo_inurba_marseille","lat":43.23158,"lon":5.43706,"is_reserved":false,"is_disabled":false,"rental_uris":{"android":"levelo://app?vid=cf7b705c-7a37-4054-aa6c-b54b5684440f","ios":"levelo://app?vid=cf7b705c-7a37-4054-aa6c-b54b5684440f"},"vehicle_type_id":"4","last_reported":1778810879,"current_range_meters":8800,"station_id":"ce4bhmp2rcd13ifvqgog","pricing_plan_id":"cebpf4jnsgd1na2vs0mg"},{"bike_id":"43fd08e9-8801-41b6-946e-6e125f9fb580","system_id":"levelo_inurba_marseille","lat":43.28434,"lon":5.35009,"is_reserved":false,"is_disabled":false,"rental_uris":{"android":"levelo://app?vid=43fd08e9-8801-41b6-946e-6e125f9fb580","ios":"levelo://app?vid=43fd08e9-8801-41b6-946e-6e125f9fb580"},"vehicle_type_id":"4","last_reported":1778810879,"current_range_meters":8800,"station_id":"ce4bhbh2rcd13ifvqepg","pricing_plan_id":"cebpf4jnsgd1na2vs0mg"},{"bike_id":"03e84744-5673-4e78-b03d-059e16e5b07c","system_id":"levelo_inurba_marseille","lat":43.23169,"lon":5.43742,"is_reserved":false,"is_disabled":false,"rental_uris":{"android":"levelo://app?vid=03e84744-5673-4e78-b03d-059e16e5b07c","ios":"levelo://app?vid=03e84744-5673-4e78-b03d-059e16e5b07c"},"vehicle_type_id":"4","last_reported":1778810879,"current_range_meters":8800,"station_id":"ce4bhmp2rcd13ifvqgog","pricing_plan_id":"cebpf4jnsgd1na2vs0mg"},{"bike_id":"fb2045b4-b09b-4da4-b84c-8b811fca3a9d","system_id":"levelo_inurba_marseille","lat":43.29164,"lon":5.38635,"is_reserved":false,"is_disabled":false,"rental_uris":{"android":"levelo://app?vid=fb2045b4-b09b-4da4-b84c-8b811fca3a9d","ios":"levelo://app?vid=fb2045b4-b09b-4da4-b84c-8b811fca3a9d"},"vehicle_type_id":"4","last_reported":1778810879,"current_range_meters":8800,"station_id":"","pricing_plan_id":"cebpf4jnsgd1na2vs0mg"},{"bike_id":"8022b31e-d354-49c2-a69c-c8bc225de3e5","system_id":"levelo_inurba_marseille","lat":43.30142,"lon":5.38783,"is_reserved":false,"is_disabled":false,"rental_uris":{"android":"levelo://app?vid=8022b31e-d354-49c2-a69c-c8bc225de3e5","ios":"levelo://app?vid=8022b31e-d354-49c2-a69c-c8bc225de3e5"},"vehicle_type_id":"4","last_reported":1778810879,"current_range_meters":8800,"station_id":"ce4bghh2rcd13ifvqb60","pricing_plan_id":"cebpf4jnsgd1na2vs0mg"},{"bike_id":"3f9370f5-e1d7-4e52-a0f8-2dee3674c4e9","system_id":"levelo_inurba_marseille","lat":43.3172,"lon":5.37778,"is_reserved":false,"is_disabled":false,"rental_uris":{"android":"levelo://app?vid=3f9370f5-e1d7-4e52-a0f8-2dee3674c4e9","ios":"levelo://app?vid=3f9370f5-e1d7-4e52-a0f8-2dee3674c4e9"},"vehicle_type_id":"4","last_reported":1778810879,"current_range_meters":8800,"station_id":"ce4bgth2rcd13ifvqch0","pricing_plan_id":"cebpf4jnsgd1na2vs0mg"},{"bike_id":"14f10cf8-3c1f-4ae3-ac40-bc26c23ae538","system_id":"levelo_inurba_marseille","lat":43.24736,"lon":5.3922,"is_reserved":false,"is_disabled":false,"rental_uris":{"android":"levelo://app?vid=14f10cf8-3c1f-4ae3-ac40-bc26c23ae538","ios":"levelo://app?vid=14f10cf8-3c1f-4ae3-ac40-bc26c23ae538"},"vehicle_type_id":"4","last_reported":1778810879,"current_range_meters":8800,"station_id":"","pricing_plan_id":"cebpf4jnsgd1na2vs0mg"},{"bike_id":"b92da105-00ff-46b1-bd98-22771d6da483","system_id":"levelo_inurba_marseille","lat":43.24326,"lon":5.38432,"is_reserved":false,"is_disabled":false,"rental_uris":{"android":"levelo://app?vid=b92da105-00ff-46b1-bd98-22771d6da483","ios":"levelo://app?vid=b92da105-00ff-46b1-bd98-22771d6da483"},"vehicle_type_id":"4","last_reported":1778810879,"current_range_meters":8800,"station_id":"","pricing_plan_id":"cebpf4jnsgd1na2vs0mg"},{"bike_id":"bcc7cd70-09d4-41be-81e8-50abbfd58e27","system_id":"levelo_inurba_marseille","lat":43.25595,"lon":5.38201,"is_reserved":false,"is_disabled":false,"rental_uris":{"android":"levelo://app?vid=bcc7cd70-09d4-41be-81e8-50abbfd58e27","ios":"levelo://app?vid=bcc7cd70-09d4-41be-81e8-50abbfd58e27"},"vehicle_type_id":"4","last_reported":1778810879,"current_range_meters":9200,"station_id":"ce4bhih2rcd13ifvqfs0","pricing_plan_id":"cebpf4jnsgd1na2vs0mg"},{"bike_id":"5b0ee32a-a2ec-43aa-bbc3-282ccee7cdc0","system_id":"levelo_inurba_marseille","lat":43.337444,"lon":5.374475,"is_reserved":false,"is_disabled":true,"rental_uris":{"android":"levelo://app?vid=5b0ee32a-a2ec-43aa-bbc3-282ccee7cdc0","ios":"levelo://app?vid=5b0ee32a-a2ec-43aa-bbc3-282ccee7cdc0"},"vehicle_type_id":"4","last_reported":1778810879,"current_range_meters":9200,"station_id":"","pricing_plan_id":"cebpf4jnsgd1na2vs0mg"},{"bike_id":"9b2021d8-c5d8-448d-a392-8636bb8f2d73","system_id":"levelo_inurba_marseille","lat":43.25513,"lon":5.37639,"is_reserved":false,"is_disabled":false,"rental_uris":{"android":"levelo://app?vid=9b2021d8-c5d8-448d-a392-8636bb8f2d73","ios":"levelo://app?vid=9b2021d8-c5d8-448d-a392-8636bb8f2d73"},"vehicle_type_id":"4","last_reported":1778810879,"current_range_meters":9200,"station_id":"ce4bhh12rcd13ifvqff0","pricing_plan_id":"cebpf4jnsgd1na2vs0mg"},{"bike_id":"496cfd2a-05b4-4779-bc7f-5abb7ba16959","system_id":"levelo_inurba_marseille","lat":43.28221,"lon":5.39059,"is_reserved":false,"is_disabled":false,"rental_uris":{"android":"levelo://app?vid=496cfd2a-05b4-4779-bc7f-5abb7ba16959","ios":"levelo://app?vid=496cfd2a-05b4-4779-bc7f-5abb7ba16959"},"vehicle_type_id":"4","last_reported":1778810879,"current_range_meters":9200,"station_id":"ce4bhn92rcd13ifvqgsg","pricing_plan_id":"cebpf4jnsgd1na2vs0mg"},{"bike_id":"41245f3e-8502-4c14-9b14-d511a01ed938","system_id":"levelo_inurba_marseille","lat":43.30141,"lon":5.381,"is_reserved":false,"is_disabled":false,"rental_uris":{"android":"levelo://app?vid=41245f3e-8502-4c14-9b14-d511a01ed938","ios":"levelo://app?vid=41245f3e-8502-4c14-9b14-d511a01ed938"},"vehicle_type_id":"4","last_reported":1778810879,"current_range_meters":9200,"station_id":"ce4bgjp2rcd13ifvqbh0","pricing_plan_id":"cebpf4jnsgd1na2vs0mg"},{"bike_id":"16d0bef7-2d54-40df-9202-da3c1a23605b","system_id":"levelo_inurba_marseille","lat":43.30104,"lon":5.43123,"is_reserved":false,"is_disabled":false,"rental_uris":{"android":"levelo://app?vid=16d0bef7-2d54-40df-9202-da3c1a23605b","ios":"levelo://app?vid=16d0bef7-2d54-40df-9202-da3c1a23605b"},"vehicle_type_id":"4","last_reported":1778810879,"current_range_meters":9200,"station_id":"st_d3js3co5814s73ftftug","pricing_plan_id":"cebpf4jnsgd1na2vs0mg"},{"bike_id":"fb70838e-1cdf-4cbb-a8a2-4473cf1efe4e","system_id":"levelo_inurba_marseille","lat":43.30153,"lon":5.38091,"is_reserved":false,"is_disabled":false,"rental_uris":{"android":"levelo://app?vid=fb70838e-1cdf-4cbb-a8a2-4473cf1efe4e","ios":"levelo://app?vid=fb70838e-1cdf-4cbb-a8a2-4473cf1efe4e"},"vehicle_type_id":"4","last_reported":1778810879,"current_range_meters":9200,"station_id":"ce4bgjp2rcd13ifvqbh0","pricing_plan_id":"cebpf4jnsgd1na2vs0mg"},{"bike_id":"407cb84a-a432-428e-bca1-5a664382f068","system_id":"levelo_inurba_marseille","lat":43.3017,"lon":5.3979,"is_reserved":false,"is_disabled":false,"rental_uris":{"android":"levelo://app?vid=407cb84a-a432-428e-bca1-5a664382f068","ios":"levelo://app?vid=407cb84a-a432-428e-bca1-5a664382f068"},"vehicle_type_id":"4","last_reported":1778810879,"current_range_meters":9200,"station_id":"","pricing_plan_id":"cebpf4jnsgd1na2vs0mg"},{"bike_id":"0f6fb81d-88a6-48b8-af91-732d590048c4","system_id":"levelo_inurba_marseille","lat":43.2834,"lon":5.38133,"is_reserved":false,"is_disabled":false,"rental_uris":{"android":"levelo://app?vid=0f6fb81d-88a6-48b8-af91-732d590048c4","ios":"levelo://app?vid=0f6fb81d-88a6-48b8-af91-732d590048c4"},"vehicle_type_id":"4","last_reported":1778810879,"current_range_meters":9200,"station_id":"ce4bh412rcd13ifvqdr0","pricing_plan_id":"cebpf4jnsgd1na2vs0mg"},{"bike_id":"51664d14-16b2-48cc-bb95-c2f0a523d053","system_id":"levelo_inurba_marseille","lat":43.30024,"lon":5.43042,"is_reserved":false,"is_disabled":false,"rental_uris":{"android":"levelo://app?vid=51664d14-16b2-48cc-bb95-c2f0a523d053","ios":"levelo://app?vid=51664d14-16b2-48cc-bb95-c2f0a523d053"},"vehicle_type_id":"4","last_reported":1778810879,"current_range_meters":9200,"station_id":"","pricing_plan_id":"cebpf4jnsgd1na2vs0mg"},{"bike_id":"5fb2702e-ddb4-4bfc-9173-e5d371dcb492","system_id":"levelo_inurba_marseille","lat":43.28627,"lon":5.35103,"is_reserved":false,"is_disabled":false,"rental_uris":{"android":"levelo://app?vid=5fb2702e-ddb4-4bfc-9173-e5d371dcb492","ios":"levelo://app?vid=5fb2702e-ddb4-4bfc-9173-e5d371dcb492"},"vehicle_type_id":"4","last_reported":1778810879,"current_range_meters":9200,"station_id":"ce4bhch2rcd13ifvqeug","pricing_plan_id":"cebpf4jnsgd1na2vs0mg"},{"bike_id":"5086b699-3dcc-4806-b878-78b08fee24d3","system_id":"levelo_inurba_marseille","lat":43.31075,"lon":5.37169,"is_reserved":false,"is_disabled":false,"rental_uris":{"android":"levelo://app?vid=5086b699-3dcc-4806-b878-78b08fee24d3","ios":"levelo://app?vid=5086b699-3dcc-4806-b878-78b08fee24d3"},"vehicle_type_id":"4","last_reported":1778810879,"current_range_meters":9200,"station_id":"st_d4kl2rp97mjs73e7tdfg","pricing_plan_id":"cebpf4jnsgd1na2vs0mg"},{"bike_id":"63d65d42-3911-40ae-ad92-0b8fba9c9805","system_id":"levelo_inurba_marseille","lat":43.24071,"lon":5.37756,"is_reserved":false,"is_disabled":false,"rental_uris":{"android":"levelo://app?vid=63d65d42-3911-40ae-ad92-0b8fba9c9805","ios":"levelo://app?vid=63d65d42-3911-40ae-ad92-0b8fba9c9805"},"vehicle_type_id":"4","last_reported":1778810879,"current_range_meters":9200,"station_id":"ce4bhnp2rcd13ifvqgvg","pricing_plan_id":"cebpf4jnsgd1na2vs0mg"},{"bike_id":"1a987fee-3a3f-4652-90dd-be3e917ba9ab","system_id":"levelo_inurba_marseille","lat":43.30326,"lon":5.3689,"is_reserved":false,"is_disabled":false,"rental_uris":{"android":"levelo://app?vid=1a987fee-3a3f-4652-90dd-be3e917ba9ab","ios":"levelo://app?vid=1a987fee-3a3f-4652-90dd-be3e917ba9ab"},"vehicle_type_id":"4","last_reported":1778810879,"current_range_meters":9200,"station_id":"ce4bgqh2rcd13ifvqc5g","pricing_plan_id":"cebpf4jnsgd1na2vs0mg"},{"bike_id":"245034ef-13bc-42be-8840-165da39a6c37","system_id":"levelo_inurba_marseille","lat":43.31715,"lon":5.37756,"is_reserved":false,"is_disabled":false,"rental_uris":{"android":"levelo://app?vid=245034ef-13bc-42be-8840-165da39a6c37","ios":"levelo://app?vid=245034ef-13bc-42be-8840-165da39a6c37"},"vehicle_type_id":"4","last_reported":1778810879,"current_range_meters":9200,"station_id":"ce4bgth2rcd13ifvqch0","pricing_plan_id":"cebpf4jnsgd1na2vs0mg"},{"bike_id":"2be2dfbb-5fc9-4d40-99ae-8f0a1bd0747d","system_id":"levelo_inurba_marseille","lat":43.22584,"lon":5.41602,"is_reserved":false,"is_disabled":false,"rental_uris":{"android":"levelo://app?vid=2be2dfbb-5fc9-4d40-99ae-8f0a1bd0747d","ios":"levelo://app?vid=2be2dfbb-5fc9-4d40-99ae-8f0a1bd0747d"},"vehicle_type_id":"4","last_reported":1778810879,"current_range_meters":9200,"station_id":"st_d2o4gvlbi1j2169b742g","pricing_plan_id":"cebpf4jnsgd1na2vs0mg"},{"bike_id":"c0cfd3d3-466f-48d3-8921-1e72b828172f","system_id":"levelo_inurba_marseille","lat":43.24471,"lon":5.42528,"is_reserved":false,"is_disabled":false,"rental_uris":{"android":"levelo://app?vid=c0cfd3d3-466f-48d3-8921-1e72b828172f","ios":"levelo://app?vid=c0cfd3d3-466f-48d3-8921-1e72b828172f"},"vehicle_type_id":"4","last_reported":1778810879,"current_range_meters":9200,"station_id":"st_d4a3vfp97mjs738cd8kg","pricing_plan_id":"cebpf4jnsgd1na2vs0mg"},{"bike_id":"2dad678a-eba2-49e6-88bf-98c3fc40e9cc","system_id":"levelo_inurba_marseille","lat":43.24074,"lon":5.37747,"is_reserved":false,"is_disabled":false,"rental_uris":{"android":"levelo://app?vid=2dad678a-eba2-49e6-88bf-98c3fc40e9cc","ios":"levelo://app?vid=2dad678a-eba2-49e6-88bf-98c3fc40e9cc"},"vehicle_type_id":"4","last_reported":1778810879,"current_range_meters":9200,"station_id":"ce4bhnp2rcd13ifvqgvg","pricing_plan_id":"cebpf4jnsgd1na2vs0mg"},{"bike_id":"59e80b5b-31bb-4f08-bb59-581a034e7f28","system_id":"levelo_inurba_marseille","lat":43.28276,"lon":5.35079,"is_reserved":false,"is_disabled":false,"rental_uris":{"android":"levelo://app?vid=59e80b5b-31bb-4f08-bb59-581a034e7f28","ios":"levelo://app?vid=59e80b5b-31bb-4f08-bb59-581a034e7f28"},"vehicle_type_id":"4","last_reported":1778810879,"current_range_meters":9200,"station_id":"ce4bhbp2rcd13ifvqerg","pricing_plan_id":"cebpf4jnsgd1na2vs0mg"},{"bike_id":"071b32cd-efb7-4b19-8868-73a0bba63276","system_id":"levelo_inurba_marseille","lat":43.24814,"lon":5.37452,"is_reserved":false,"is_disabled":false,"rental_uris":{"android":"levelo://app?vid=071b32cd-efb7-4b19-8868-73a0bba63276","ios":"levelo://app?vid=071b32cd-efb7-4b19-8868-73a0bba63276"},"vehicle_type_id":"4","last_reported":1778810879,"current_range_meters":9600,"station_id":"ce4bhgh2rcd13ifvqfb0","pricing_plan_id":"cebpf4jnsgd1na2vs0mg"},{"bike_id":"e32f6868-cbab-4ffd-9892-2e29eeead741","system_id":"levelo_inurba_marseille","lat":43.30884,"lon":5.39658,"is_reserved":false,"is_disabled":false,"rental_uris":{"android":"levelo://app?vid=e32f6868-cbab-4ffd-9892-2e29eeead741","ios":"levelo://app?vid=e32f6868-cbab-4ffd-9892-2e29eeead741"},"vehicle_type_id":"4","last_reported":1778810879,"current_range_meters":9600,"station_id":"ce4bh012rcd13ifvqcv0","pricing_plan_id":"cebpf4jnsgd1na2vs0mg"},{"bike_id":"24f270e3-6a33-4c20-91d1-50cadf27be12","system_id":"levelo_inurba_marseille","lat":43.26547,"lon":5.37343,"is_reserved":false,"is_disabled":false,"rental_uris":{"android":"levelo://app?vid=24f270e3-6a33-4c20-91d1-50cadf27be12","ios":"levelo://app?vid=24f270e3-6a33-4c20-91d1-50cadf27be12"},"vehicle_type_id":"4","last_reported":1778810879,"current_range_meters":9600,"station_id":"","pricing_plan_id":"cebpf4jnsgd1na2vs0mg"},{"bike_id":"2ad17d08-f228-43c1-ac27-af9161d7c098","system_id":"levelo_inurba_marseille","lat":43.28158,"lon":5.42647,"is_reserved":false,"is_disabled":false,"rental_uris":{"android":"levelo://app?vid=2ad17d08-f228-43c1-ac27-af9161d7c098","ios":"levelo://app?vid=2ad17d08-f228-43c1-ac27-af9161d7c098"},"vehicle_type_id":"4","last_reported":1778810879,"current_range_meters":9600,"station_id":"ce4bhnh2rcd13ifvqgug","pricing_plan_id":"cebpf4jnsgd1na2vs0mg"},{"bike_id":"e11887d7-94e5-48e9-a10f-703ade196405","system_id":"levelo_inurba_marseille","lat":43.28701,"lon":5.37969,"is_reserved":false,"is_disabled":false,"rental_uris":{"android":"levelo://app?vid=e11887d7-94e5-48e9-a10f-703ade196405","ios":"levelo://app?vid=e11887d7-94e5-48e9-a10f-703ade196405"},"vehicle_type_id":"4","last_reported":1778810879,"current_range_meters":9600,"station_id":"ce4bh9p2rcd13ifvqec0","pricing_plan_id":"cebpf4jnsgd1na2vs0mg"},{"bike_id":"4f9bc47f-c8d2-46b0-b717-0bc183208676","system_id":"levelo_inurba_marseille","lat":43.30081,"lon":5.36729,"is_reserved":false,"is_disabled":false,"rental_uris":{"android":"levelo://app?vid=4f9bc47f-c8d2-46b0-b717-0bc183208676","ios":"levelo://app?vid=4f9bc47f-c8d2-46b0-b717-0bc183208676"},"vehicle_type_id":"4","last_reported":1778810879,"current_range_meters":9600,"station_id":"","pricing_plan_id":"cebpf4jnsgd1na2vs0mg"},{"bike_id":"85700384-7ed5-481f-8383-977a4a484f3a","system_id":"levelo_inurba_marseille","lat":43.26417,"lon":5.38741,"is_reserved":false,"is_disabled":false,"rental_uris":{"android":"levelo://app?vid=85700384-7ed5-481f-8383-977a4a484f3a","ios":"levelo://app?vid=85700384-7ed5-481f-8383-977a4a484f3a"},"vehicle_type_id":"4","last_reported":1778810879,"current_range_meters":9600,"station_id":"","pricing_plan_id":"cebpf4jnsgd1na2vs0mg"},{"bike_id":"cefbeb11-85b7-46b3-85c6-aca7465c0a67","system_id":"levelo_inurba_marseille","lat":43.28212,"lon":5.39054,"is_reserved":false,"is_disabled":false,"rental_uris":{"android":"levelo://app?vid=cefbeb11-85b7-46b3-85c6-aca7465c0a67","ios":"levelo://app?vid=cefbeb11-85b7-46b3-85c6-aca7465c0a67"},"vehicle_type_id":"4","last_reported":1778810879,"current_range_meters":9600,"station_id":"ce4bhn92rcd13ifvqgsg","pricing_plan_id":"cebpf4jnsgd1na2vs0mg"},{"bike_id":"88c0458d-410d-486d-8514-53ff65f224d5","system_id":"levelo_inurba_marseille","lat":43.26193,"lon":5.37447,"is_reserved":false,"is_disabled":false,"rental_uris":{"android":"levelo://app?vid=88c0458d-410d-486d-8514-53ff65f224d5","ios":"levelo://app?vid=88c0458d-410d-486d-8514-53ff65f224d5"},"vehicle_type_id":"4","last_reported":1778810879,"current_range_meters":9600,"station_id":"ce4bhgp2rcd13ifvqfc0","pricing_plan_id":"cebpf4jnsgd1na2vs0mg"},{"bike_id":"e159c4b9-6700-4fa7-bb02-c7e0de94a1a8","system_id":"levelo_inurba_marseille","lat":43.22562,"lon":5.41622,"is_reserved":false,"is_disabled":false,"rental_uris":{"android":"levelo://app?vid=e159c4b9-6700-4fa7-bb02-c7e0de94a1a8","ios":"levelo://app?vid=e159c4b9-6700-4fa7-bb02-c7e0de94a1a8"},"vehicle_type_id":"4","last_reported":1778810879,"current_range_meters":9600,"station_id":"st_d2o4gvlbi1j2169b742g","pricing_plan_id":"cebpf4jnsgd1na2vs0mg"},{"bike_id":"9328bcd0-7dba-429b-800d-2edec12305de","system_id":"levelo_inurba_marseille","lat":43.24482,"lon":5.42551,"is_reserved":false,"is_disabled":false,"rental_uris":{"android":"levelo://app?vid=9328bcd0-7dba-429b-800d-2edec12305de","ios":"levelo://app?vid=9328bcd0-7dba-429b-800d-2edec12305de"},"vehicle_type_id":"4","last_reported":1778810879,"current_range_meters":9600,"station_id":"st_d4a3vfp97mjs738cd8kg","pricing_plan_id":"cebpf4jnsgd1na2vs0mg"},{"bike_id":"d74d3f33-a8dc-4d72-b28b-2cf586e298d3","system_id":"levelo_inurba_marseille","lat":43.28535,"lon":5.441,"is_reserved":false,"is_disabled":false,"rental_uris":{"android":"levelo://app?vid=d74d3f33-a8dc-4d72-b28b-2cf586e298d3","ios":"levelo://app?vid=d74d3f33-a8dc-4d72-b28b-2cf586e298d3"},"vehicle_type_id":"4","last_reported":1778810879,"current_range_meters":9600,"station_id":"st_d3j3df2ikq2c7380ej80","pricing_plan_id":"cebpf4jnsgd1na2vs0mg"},{"bike_id":"962bb70c-387d-43a1-9677-28171a29c7a0","system_id":"levelo_inurba_marseille","lat":43.29567,"lon":5.39983,"is_reserved":false,"is_disabled":false,"rental_uris":{"android":"levelo://app?vid=962bb70c-387d-43a1-9677-28171a29c7a0","ios":"levelo://app?vid=962bb70c-387d-43a1-9677-28171a29c7a0"},"vehicle_type_id":"4","last_reported":1778810879,"current_range_meters":10000,"station_id":"ce4bh312rcd13ifvqdj0","pricing_plan_id":"cebpf4jnsgd1na2vs0mg"},{"bike_id":"95905f44-0304-4488-bbde-0604c4131f99","system_id":"levelo_inurba_marseille","lat":43.22569,"lon":5.41629,"is_reserved":false,"is_disabled":false,"rental_uris":{"android":"levelo://app?vid=95905f44-0304-4488-bbde-0604c4131f99","ios":"levelo://app?vid=95905f44-0304-4488-bbde-0604c4131f99"},"vehicle_type_id":"4","last_reported":1778810879,"current_range_meters":10000,"station_id":"st_d2o4gvlbi1j2169b742g","pricing_plan_id":"cebpf4jnsgd1na2vs0mg"},{"bike_id":"4020dd0c-01ce-4494-844b-244bfc2850f4","system_id":"levelo_inurba_marseille","lat":43.3049,"lon":5.37279,"is_reserved":false,"is_disabled":false,"rental_uris":{"android":"levelo://app?vid=4020dd0c-01ce-4494-844b-244bfc2850f4","ios":"levelo://app?vid=4020dd0c-01ce-4494-844b-244bfc2850f4"},"vehicle_type_id":"4","last_reported":1778810879,"current_range_meters":10000,"station_id":"","pricing_plan_id":"cebpf4jnsgd1na2vs0mg"},{"bike_id":"f7dfc745-d667-4d44-b7e7-a953b16da362","system_id":"levelo_inurba_marseille","lat":43.24167,"lon":5.36399,"is_reserved":false,"is_disabled":false,"rental_uris":{"android":"levelo://app?vid=f7dfc745-d667-4d44-b7e7-a953b16da362","ios":"levelo://app?vid=f7dfc745-d667-4d44-b7e7-a953b16da362"},"vehicle_type_id":"4","last_reported":1778810879,"current_range_meters":10000,"station_id":"cpo36qri1sfpv3e86is0","pricing_plan_id":"cebpf4jnsgd1na2vs0mg"},{"bike_id":"922c4ebc-c6f0-4514-8d18-6d2ddcb2b60d","system_id":"levelo_inurba_marseille","lat":43.26573,"lon":5.39019,"is_reserved":false,"is_disabled":false,"rental_uris":{"android":"levelo://app?vid=922c4ebc-c6f0-4514-8d18-6d2ddcb2b60d","ios":"levelo://app?vid=922c4ebc-c6f0-4514-8d18-6d2ddcb2b60d"},"vehicle_type_id":"4","last_reported":1778810879,"current_range_meters":10000,"station_id":"ce4bhe12rcd13ifvqf30","pricing_plan_id":"cebpf4jnsgd1na2vs0mg"},{"bike_id":"7d6b4b13-1a6d-47de-8148-dad4743d54f7","system_id":"levelo_inurba_marseille","lat":43.23969,"lon":5.36631,"is_reserved":false,"is_disabled":false,"rental_uris":{"android":"levelo://app?vid=7d6b4b13-1a6d-47de-8148-dad4743d54f7","ios":"levelo://app?vid=7d6b4b13-1a6d-47de-8148-dad4743d54f7"},"vehicle_type_id":"4","last_reported":1778810879,"current_range_meters":10000,"station_id":"ce4bhi12rcd13ifvqfp0","pricing_plan_id":"cebpf4jnsgd1na2vs0mg"},{"bike_id":"da0bc3e7-9a10-4749-820e-9f1b7b6d4687","system_id":"levelo_inurba_marseille","lat":43.29879,"lon":5.38914,"is_reserved":false,"is_disabled":false,"rental_uris":{"android":"levelo://app?vid=da0bc3e7-9a10-4749-820e-9f1b7b6d4687","ios":"levelo://app?vid=da0bc3e7-9a10-4749-820e-9f1b7b6d4687"},"vehicle_type_id":"4","last_reported":1778810879,"current_range_meters":10000,"station_id":"ce4bh392rcd13ifvqdl0","pricing_plan_id":"cebpf4jnsgd1na2vs0mg"},{"bike_id":"bfd11179-4fd5-4554-adf0-a80a1fbdd46b","system_id":"levelo_inurba_marseille","lat":43.23898,"lon":5.37463,"is_reserved":false,"is_disabled":true,"rental_uris":{"android":"levelo://app?vid=bfd11179-4fd5-4554-adf0-a80a1fbdd46b","ios":"levelo://app?vid=bfd11179-4fd5-4554-adf0-a80a1fbdd46b"},"vehicle_type_id":"4","last_reported":1778810879,"current_range_meters":10000,"station_id":"st_d6sm7csbq4hs73f8fpjg","pricing_plan_id":"cebpf4jnsgd1na2vs0mg"},{"bike_id":"5805231e-bfad-4e6d-89fb-432940ddffa4","system_id":"levelo_inurba_marseille","lat":43.28473,"lon":5.38409,"is_reserved":false,"is_disabled":false,"rental_uris":{"android":"levelo://app?vid=5805231e-bfad-4e6d-89fb-432940ddffa4","ios":"levelo://app?vid=5805231e-bfad-4e6d-89fb-432940ddffa4"},"vehicle_type_id":"4","last_reported":1778810879,"current_range_meters":10000,"station_id":"ce4bh512rcd13ifvqe3g","pricing_plan_id":"cebpf4jnsgd1na2vs0mg"},{"bike_id":"22821d03-9a9a-4a93-855b-675be2e2cc53","system_id":"levelo_inurba_marseille","lat":43.26029,"lon":5.37549,"is_reserved":false,"is_disabled":false,"rental_uris":{"android":"levelo://app?vid=22821d03-9a9a-4a93-855b-675be2e2cc53","ios":"levelo://app?vid=22821d03-9a9a-4a93-855b-675be2e2cc53"},"vehicle_type_id":"4","last_reported":1778810879,"current_range_meters":10000,"station_id":"ce4bhgh2rcd13ifvqfa0","pricing_plan_id":"cebpf4jnsgd1na2vs0mg"},{"bike_id":"8ec7a638-b556-4c93-954a-a11e8ba8109a","system_id":"levelo_inurba_marseille","lat":43.24764,"lon":5.37499,"is_reserved":false,"is_disabled":false,"rental_uris":{"android":"levelo://app?vid=8ec7a638-b556-4c93-954a-a11e8ba8109a","ios":"levelo://app?vid=8ec7a638-b556-4c93-954a-a11e8ba8109a"},"vehicle_type_id":"4","last_reported":1778810879,"current_range_meters":10000,"station_id":"","pricing_plan_id":"cebpf4jnsgd1na2vs0mg"},{"bike_id":"3f31eb34-2034-48e0-acfb-781783e4399a","system_id":"levelo_inurba_marseille","lat":43.30521,"lon":5.36542,"is_reserved":false,"is_disabled":false,"rental_uris":{"android":"levelo://app?vid=3f31eb34-2034-48e0-acfb-781783e4399a","ios":"levelo://app?vid=3f31eb34-2034-48e0-acfb-781783e4399a"},"vehicle_type_id":"4","last_reported":1778810879,"current_range_meters":10000,"station_id":"ce4bgs12rcd13ifvqcag","pricing_plan_id":"cebpf4jnsgd1na2vs0mg"},{"bike_id":"52972f2e-95ed-4903-86b8-869d695f1926","system_id":"levelo_inurba_marseille","lat":43.32046,"lon":5.36828,"is_reserved":false,"is_disabled":false,"rental_uris":{"android":"levelo://app?vid=52972f2e-95ed-4903-86b8-869d695f1926","ios":"levelo://app?vid=52972f2e-95ed-4903-86b8-869d695f1926"},"vehicle_type_id":"4","last_reported":1778810879,"current_range_meters":10000,"station_id":"","pricing_plan_id":"cebpf4jnsgd1na2vs0mg"},{"bike_id":"e0e7175a-ff35-41e3-a2cc-efe2d4f94384","system_id":"levelo_inurba_marseille","lat":43.2619,"lon":5.37441,"is_reserved":false,"is_disabled":false,"rental_uris":{"android":"levelo://app?vid=e0e7175a-ff35-41e3-a2cc-efe2d4f94384","ios":"levelo://app?vid=e0e7175a-ff35-41e3-a2cc-efe2d4f94384"},"vehicle_type_id":"4","last_reported":1778810879,"current_range_meters":10000,"station_id":"ce4bhgp2rcd13ifvqfc0","pricing_plan_id":"cebpf4jnsgd1na2vs0mg"},{"bike_id":"3cf8b857-ccf8-4970-8bde-d220a00ffb3b","system_id":"levelo_inurba_marseille","lat":43.27917,"lon":5.3959,"is_reserved":false,"is_disabled":false,"rental_uris":{"android":"levelo://app?vid=3cf8b857-ccf8-4970-8bde-d220a00ffb3b","ios":"levelo://app?vid=3cf8b857-ccf8-4970-8bde-d220a00ffb3b"},"vehicle_type_id":"4","last_reported":1778810879,"current_range_meters":10000,"station_id":"ce4bhf92rcd13ifvqf40","pricing_plan_id":"cebpf4jnsgd1na2vs0mg"},{"bike_id":"d73b29aa-4c6e-4a2d-96e7-6cb7201818f5","system_id":"levelo_inurba_marseille","lat":43.3354,"lon":5.3747,"is_reserved":false,"is_disabled":false,"rental_uris":{"android":"levelo://app?vid=d73b29aa-4c6e-4a2d-96e7-6cb7201818f5","ios":"levelo://app?vid=d73b29aa-4c6e-4a2d-96e7-6cb7201818f5"},"vehicle_type_id":"4","last_reported":1778810879,"current_range_meters":10000,"station_id":"st_d46tts09ee8s73dlu43g","pricing_plan_id":"cebpf4jnsgd1na2vs0mg"},{"bike_id":"fe0ac0da-2ff6-45c6-a6ca-c142552ce3a0","system_id":"levelo_inurba_marseille","lat":43.26552,"lon":5.38982,"is_reserved":false,"is_disabled":false,"rental_uris":{"android":"levelo://app?vid=fe0ac0da-2ff6-45c6-a6ca-c142552ce3a0","ios":"levelo://app?vid=fe0ac0da-2ff6-45c6-a6ca-c142552ce3a0"},"vehicle_type_id":"4","last_reported":1778810879,"current_range_meters":10000,"station_id":"ce4bhe12rcd13ifvqf30","pricing_plan_id":"cebpf4jnsgd1na2vs0mg"},{"bike_id":"98f12bd4-e0da-4149-bced-c3e88c88c817","system_id":"levelo_inurba_marseille","lat":43.29453,"lon":5.39738,"is_reserved":false,"is_disabled":false,"rental_uris":{"android":"levelo://app?vid=98f12bd4-e0da-4149-bced-c3e88c88c817","ios":"levelo://app?vid=98f12bd4-e0da-4149-bced-c3e88c88c817"},"vehicle_type_id":"4","last_reported":1778810879,"current_range_meters":10000,"station_id":"ce4bh3h2rcd13ifvqdo0","pricing_plan_id":"cebpf4jnsgd1na2vs0mg"},{"bike_id":"36b9cdb6-2c8c-4db3-96fe-a64a6c4f814c","system_id":"levelo_inurba_marseille","lat":43.28704,"lon":5.37379,"is_reserved":false,"is_disabled":false,"rental_uris":{"android":"levelo://app?vid=36b9cdb6-2c8c-4db3-96fe-a64a6c4f814c","ios":"levelo://app?vid=36b9cdb6-2c8c-4db3-96fe-a64a6c4f814c"},"vehicle_type_id":"4","last_reported":1778810879,"current_range_meters":10000,"station_id":"ce4bh3p2rcd13ifvqdq0","pricing_plan_id":"cebpf4jnsgd1na2vs0mg"},{"bike_id":"14dd5302-4f2d-4d64-a78b-c9fc3ca12ebd","system_id":"levelo_inurba_marseille","lat":43.24389,"lon":5.37056,"is_reserved":false,"is_disabled":false,"rental_uris":{"android":"levelo://app?vid=14dd5302-4f2d-4d64-a78b-c9fc3ca12ebd","ios":"levelo://app?vid=14dd5302-4f2d-4d64-a78b-c9fc3ca12ebd"},"vehicle_type_id":"4","last_reported":1778810879,"current_range_meters":10000,"station_id":"ce4bhhh2rcd13ifvqfk0","pricing_plan_id":"cebpf4jnsgd1na2vs0mg"},{"bike_id":"fdb1420c-8cba-495e-8621-8fdd81cc0df7","system_id":"levelo_inurba_marseille","lat":43.27997,"lon":5.41648,"is_reserved":false,"is_disabled":false,"rental_uris":{"android":"levelo://app?vid=fdb1420c-8cba-495e-8621-8fdd81cc0df7","ios":"levelo://app?vid=fdb1420c-8cba-495e-8621-8fdd81cc0df7"},"vehicle_type_id":"4","last_reported":1778810879,"current_range_meters":10000,"station_id":"ce4bho12rcd13ifvqh1g","pricing_plan_id":"cebpf4jnsgd1na2vs0mg"},{"bike_id":"8f2ffae8-9918-467c-9501-6ac8a4d598f0","system_id":"levelo_inurba_marseille","lat":43.24597,"lon":5.40244,"is_reserved":false,"is_disabled":false,"rental_uris":{"android":"levelo://app?vid=8f2ffae8-9918-467c-9501-6ac8a4d598f0","ios":"levelo://app?vid=8f2ffae8-9918-467c-9501-6ac8a4d598f0"},"vehicle_type_id":"4","last_reported":1778810879,"current_range_meters":10000,"station_id":"","pricing_plan_id":"cebpf4jnsgd1na2vs0mg"},{"bike_id":"ca0a990f-13d8-4381-81b8-19663cb75f2b","system_id":"levelo_inurba_marseille","lat":43.28614,"lon":5.35104,"is_reserved":false,"is_disabled":false,"rental_uris":{"android":"levelo://app?vid=ca0a990f-13d8-4381-81b8-19663cb75f2b","ios":"levelo://app?vid=ca0a990f-13d8-4381-81b8-19663cb75f2b"},"vehicle_type_id":"4","last_reported":1778810879,"current_range_meters":10000,"station_id":"ce4bhch2rcd13ifvqeug","pricing_plan_id":"cebpf4jnsgd1na2vs0mg"},{"bike_id":"64a8d44a-7dc0-438b-a689-a19958a2c8f7","system_id":"levelo_inurba_marseille","lat":43.33007,"lon":5.39036,"is_reserved":false,"is_disabled":false,"rental_uris":{"android":"levelo://app?vid=64a8d44a-7dc0-438b-a689-a19958a2c8f7","ios":"levelo://app?vid=64a8d44a-7dc0-438b-a689-a19958a2c8f7"},"vehicle_type_id":"4","last_reported":1778810879,"current_range_meters":10000,"station_id":"ce4bhr92rcd13ifvqhrg","pricing_plan_id":"cebpf4jnsgd1na2vs0mg"},{"bike_id":"ea00ca07-7443-4180-9c35-5c1c2dd062cc","system_id":"levelo_inurba_marseille","lat":43.31869,"lon":5.36819,"is_reserved":false,"is_disabled":false,"rental_uris":{"android":"levelo://app?vid=ea00ca07-7443-4180-9c35-5c1c2dd062cc","ios":"levelo://app?vid=ea00ca07-7443-4180-9c35-5c1c2dd062cc"},"vehicle_type_id":"4","last_reported":1778810879,"current_range_meters":10000,"station_id":"st_d6o2h0d0559c73evc1b0","pricing_plan_id":"cebpf4jnsgd1na2vs0mg"},{"bike_id":"42779844-0336-4bec-91a7-ebe8a8a3b3bf","system_id":"levelo_inurba_marseille","lat":43.29969,"lon":5.36749,"is_reserved":false,"is_disabled":false,"rental_uris":{"android":"levelo://app?vid=42779844-0336-4bec-91a7-ebe8a8a3b3bf","ios":"levelo://app?vid=42779844-0336-4bec-91a7-ebe8a8a3b3bf"},"vehicle_type_id":"4","last_reported":1778810879,"current_range_meters":10000,"station_id":"","pricing_plan_id":"cebpf4jnsgd1na2vs0mg"},{"bike_id":"23b590b0-a987-4af4-8c92-1da489628f7a","system_id":"levelo_inurba_marseille","lat":43.31721,"lon":5.42398,"is_reserved":false,"is_disabled":false,"rental_uris":{"android":"levelo://app?vid=23b590b0-a987-4af4-8c92-1da489628f7a","ios":"levelo://app?vid=23b590b0-a987-4af4-8c92-1da489628f7a"},"vehicle_type_id":"4","last_reported":1778810879,"current_range_meters":10000,"station_id":"ce4bhp92rcd13ifvqhbg","pricing_plan_id":"cebpf4jnsgd1na2vs0mg"},{"bike_id":"e4e24f4a-73a4-4198-84e8-bfce7ee7c808","system_id":"levelo_inurba_marseille","lat":43.29441,"lon":5.39756,"is_reserved":false,"is_disabled":false,"rental_uris":{"android":"levelo://app?vid=e4e24f4a-73a4-4198-84e8-bfce7ee7c808","ios":"levelo://app?vid=e4e24f4a-73a4-4198-84e8-bfce7ee7c808"},"vehicle_type_id":"4","last_reported":1778810879,"current_range_meters":10000,"station_id":"ce4bh3h2rcd13ifvqdo0","pricing_plan_id":"cebpf4jnsgd1na2vs0mg"},{"bike_id":"e7a0aaf7-0db1-4b6d-948e-d3cea63d5b54","system_id":"levelo_inurba_marseille","lat":43.29485,"lon":5.43293,"is_reserved":false,"is_disabled":false,"rental_uris":{"android":"levelo://app?vid=e7a0aaf7-0db1-4b6d-948e-d3cea63d5b54","ios":"levelo://app?vid=e7a0aaf7-0db1-4b6d-948e-d3cea63d5b54"},