{"last_updated":1713298044,"ttl":30,"version":"2.2","data":{"bikes":[{"bike_id":"6571d646-93d9-428f-a1fa-cd6e7768da9d","system_id":"levelo_inurba_marseille","lat":43.31221,"lon":5.3687,"is_reserved":false,"is_disabled":false,"rental_uris":{"android":"levelo://app?vid=6571d646-93d9-428f-a1fa-cd6e7768da9d","ios":"levelo://app?vid=6571d646-93d9-428f-a1fa-cd6e7768da9d"},"vehicle_type_id":"4","last_reported":1713298044,"current_range_meters":0,"station_id":"ce4bgl92rcd13ifvqbq0","pricing_plan_id":"cebpf4jnsgd1na2vs0mg"},{"bike_id":"06c3b566-97c6-4c85-acc1-969e31698190","system_id":"levelo_inurba_marseille","lat":43.309076,"lon":5.368465,"is_reserved":false,"is_disabled":false,"rental_uris":{"android":"levelo://app?vid=06c3b566-97c6-4c85-acc1-969e31698190","ios":"levelo://app?vid=06c3b566-97c6-4c85-acc1-969e31698190"},"vehicle_type_id":"4","last_reported":1713298044,"current_range_meters":15600,"station_id":"ce4bgn92rcd13ifvqbvg","pricing_plan_id":"cebpf4jnsgd1na2vs0mg"},{"bike_id":"62208383-eb95-47c7-94fb-5aff46021764","system_id":"levelo_inurba_marseille","lat":43.31432,"lon":5.37341,"is_reserved":false,"is_disabled":false,"rental_uris":{"android":"levelo://app?vid=62208383-eb95-47c7-94fb-5aff46021764","ios":"levelo://app?vid=62208383-eb95-47c7-94fb-5aff46021764"},"vehicle_type_id":"4","last_reported":1713298044,"current_range_meters":0,"station_id":"","pricing_plan_id":"cebpf4jnsgd1na2vs0mg"},{"bike_id":"558dae53-16a4-43a9-91f5-f183a78b8bdb","system_id":"levelo_inurba_marseille","lat":43.291994,"lon":5.392907,"is_reserved":false,"is_disabled":false,"rental_uris":{"android":"levelo://app?vid=558dae53-16a4-43a9-91f5-f183a78b8bdb","ios":"levelo://app?vid=558dae53-16a4-43a9-91f5-f183a78b8bdb"},"vehicle_type_id":"4","last_reported":1713298044,"current_range_meters":2400,"station_id":"ce4bh192rcd13ifvqdd0","pricing_plan_id":"cebpf4jnsgd1na2vs0mg"},{"bike_id":"b179bbe9-1d9d-4636-add6-94935fbb1644","system_id":"levelo_inurba_marseille","lat":43.311722,"lon":5.387247,"is_reserved":false,"is_disabled":false,"rental_uris":{"android":"levelo://app?vid=b179bbe9-1d9d-4636-add6-94935fbb1644","ios":"levelo://app?vid=b179bbe9-1d9d-4636-add6-94935fbb1644"},"vehicle_type_id":"4","last_reported":1713298044,"current_range_meters":14000,"station_id":"ce4bgv12rcd13ifvqcp0","pricing_plan_id":"cebpf4jnsgd1na2vs0mg"},{"bike_id":"50d71f03-4d9c-4b34-b470-f13e002573fe","system_id":"levelo_inurba_marseille","lat":43.309034,"lon":5.371783,"is_reserved":false,"is_disabled":false,"rental_uris":{"android":"levelo://app?vid=50d71f03-4d9c-4b34-b470-f13e002573fe","ios":"levelo://app?vid=50d71f03-4d9c-4b34-b470-f13e002573fe"},"vehicle_type_id":"4","last_reported":1713298044,"current_range_meters":30000,"station_id":"ce4bguh2rcd13ifvqckg","pricing_plan_id":"cebpf4jnsgd1na2vs0mg"},{"bike_id":"1addac07-b454-4801-a9ad-5bf4646e631c","system_id":"levelo_inurba_marseille","lat":43.305712,"lon":5.365641,"is_reserved":false,"is_disabled":false,"rental_uris":{"android":"levelo://app?vid=1addac07-b454-4801-a9ad-5bf4646e631c","ios":"levelo://app?vid=1addac07-b454-4801-a9ad-5bf4646e631c"},"vehicle_type_id":"4","last_reported":1713298044,"current_range_meters":2800,"station_id":"ce4bgs12rcd13ifvqcag","pricing_plan_id":"cebpf4jnsgd1na2vs0mg"},{"bike_id":"0cb32614-d917-4989-8263-f91f6f319610","system_id":"levelo_inurba_marseille","lat":43.305712,"lon":5.365641,"is_reserved":false,"is_disabled":false,"rental_uris":{"android":"levelo://app?vid=0cb32614-d917-4989-8263-f91f6f319610","ios":"levelo://app?vid=0cb32614-d917-4989-8263-f91f6f319610"},"vehicle_type_id":"4","last_reported":1713298044,"current_range_meters":0,"station_id":"ce4bgs12rcd13ifvqcag","pricing_plan_id":"cebpf4jnsgd1na2vs0mg"},{"bike_id":"52f22b5a-486d-4c62-a4ac-137bfb2f235e","system_id":"levelo_inurba_marseille","lat":43.30554,"lon":5.36534,"is_reserved":false,"is_disabled":false,"rental_uris":{"android":"levelo://app?vid=52f22b5a-486d-4c62-a4ac-137bfb2f235e","ios":"levelo://app?vid=52f22b5a-486d-4c62-a4ac-137bfb2f235e"},"vehicle_type_id":"4","last_reported":1713298044,"current_range_meters":20400,"station_id":"","pricing_plan_id":"cebpf4jnsgd1na2vs0mg"},{"bike_id":"a38838a5-ab55-4724-8432-2d0d254b8291","system_id":"levelo_inurba_marseille","lat":43.30537,"lon":5.367345,"is_reserved":false,"is_disabled":false,"rental_uris":{"android":"levelo://app?vid=a38838a5-ab55-4724-8432-2d0d254b8291","ios":"levelo://app?vid=a38838a5-ab55-4724-8432-2d0d254b8291"},"vehicle_type_id":"4","last_reported":1713298044,"current_range_meters":9600,"station_id":"ce4bgrp2rcd13ifvqc9g","pricing_plan_id":"cebpf4jnsgd1na2vs0mg"},{"bike_id":"7d2c0ed0-5989-4ede-a810-c1d4dca3b4cf","system_id":"levelo_inurba_marseille","lat":43.305368,"lon":5.367343,"is_reserved":false,"is_disabled":false,"rental_uris":{"android":"levelo://app?vid=7d2c0ed0-5989-4ede-a810-c1d4dca3b4cf","ios":"levelo://app?vid=7d2c0ed0-5989-4ede-a810-c1d4dca3b4cf"},"vehicle_type_id":"4","last_reported":1713298044,"current_range_meters":0,"station_id":"ce4bgrp2rcd13ifvqc9g","pricing_plan_id":"cebpf4jnsgd1na2vs0mg"},{"bike_id":"d40e2d51-55fd-4bb7-b25b-12d085ab9865","system_id":"levelo_inurba_marseille","lat":43.311568,"lon":5.377322,"is_reserved":false,"is_disabled":false,"rental_uris":{"android":"levelo://app?vid=d40e2d51-55fd-4bb7-b25b-12d085ab9865","ios":"levelo://app?vid=d40e2d51-55fd-4bb7-b25b-12d085ab9865"},"vehicle_type_id":"4","last_reported":1713298044,"current_range_meters":0,"station_id":"ce4bgt92rcd13ifvqcg0","pricing_plan_id":"cebpf4jnsgd1na2vs0mg"},{"bike_id":"6b67cbd5-8437-4eea-9747-04cdc106a893","system_id":"levelo_inurba_marseille","lat":43.305989,"lon":5.37225,"is_reserved":false,"is_disabled":false,"rental_uris":{"android":"levelo://app?vid=6b67cbd5-8437-4eea-9747-04cdc106a893","ios":"levelo://app?vid=6b67cbd5-8437-4eea-9747-04cdc106a893"},"vehicle_type_id":"4","last_reported":1713298044,"current_range_meters":16800,"station_id":"ce4bgqh2rcd13ifvqc4g","pricing_plan_id":"cebpf4jnsgd1na2vs0mg"},{"bike_id":"ed472146-12c2-4ad9-8af4-a5678b9a4adf","system_id":"levelo_inurba_marseille","lat":43.30604,"lon":5.37223,"is_reserved":false,"is_disabled":false,"rental_uris":{"android":"levelo://app?vid=ed472146-12c2-4ad9-8af4-a5678b9a4adf","ios":"levelo://app?vid=ed472146-12c2-4ad9-8af4-a5678b9a4adf"},"vehicle_type_id":"4","last_reported":1713298044,"current_range_meters":0,"station_id":"ce4bgqh2rcd13ifvqc4g","pricing_plan_id":"cebpf4jnsgd1na2vs0mg"},{"bike_id":"a1070d04-2e51-4fef-95fc-85cf2f20978b","system_id":"levelo_inurba_marseille","lat":43.30607,"lon":5.37252,"is_reserved":false,"is_disabled":false,"rental_uris":{"android":"levelo://app?vid=a1070d04-2e51-4fef-95fc-85cf2f20978b","ios":"levelo://app?vid=a1070d04-2e51-4fef-95fc-85cf2f20978b"},"vehicle_type_id":"4","last_reported":1713298044,"current_range_meters":0,"station_id":"ce4bgqh2rcd13ifvqc4g","pricing_plan_id":"cebpf4jnsgd1na2vs0mg"},{"bike_id":"9be7b82f-9d05-4e37-aade-99d637c7bf2e","system_id":"levelo_inurba_marseille","lat":43.305989,"lon":5.37225,"is_reserved":false,"is_disabled":false,"rental_uris":{"android":"levelo://app?vid=9be7b82f-9d05-4e37-aade-99d637c7bf2e","ios":"levelo://app?vid=9be7b82f-9d05-4e37-aade-99d637c7bf2e"},"vehicle_type_id":"4","last_reported":1713298044,"current_range_meters":19200,"station_id":"ce4bgqh2rcd13ifvqc4g","pricing_plan_id":"cebpf4jnsgd1na2vs0mg"},{"bike_id":"d487d454-c37f-45ac-99ec-37be6db76d63","system_id":"levelo_inurba_marseille","lat":43.311125,"lon":5.377624,"is_reserved":false,"is_disabled":false,"rental_uris":{"android":"levelo://app?vid=d487d454-c37f-45ac-99ec-37be6db76d63","ios":"levelo://app?vid=d487d454-c37f-45ac-99ec-37be6db76d63"},"vehicle_type_id":"4","last_reported":1713298044,"current_range_meters":16800,"station_id":"ce4bgt92rcd13ifvqcg0","pricing_plan_id":"cebpf4jnsgd1na2vs0mg"},{"bike_id":"d7335e67-d7d4-4275-8f45-c0e06720c6da","system_id":"levelo_inurba_marseille","lat":43.311125,"lon":5.377624,"is_reserved":false,"is_disabled":false,"rental_uris":{"android":"levelo://app?vid=d7335e67-d7d4-4275-8f45-c0e06720c6da","ios":"levelo://app?vid=d7335e67-d7d4-4275-8f45-c0e06720c6da"},"vehicle_type_id":"4","last_reported":1713298044,"current_range_meters":20400,"station_id":"ce4bgt92rcd13ifvqcg0","pricing_plan_id":"cebpf4jnsgd1na2vs0mg"},{"bike_id":"662d0f15-bc14-4fba-8ffb-3e1ade9fe039","system_id":"levelo_inurba_marseille","lat":43.311125,"lon":5.377624,"is_reserved":false,"is_disabled":false,"rental_uris":{"android":"levelo://app?vid=662d0f15-bc14-4fba-8ffb-3e1ade9fe039","ios":"levelo://app?vid=662d0f15-bc14-4fba-8ffb-3e1ade9fe039"},"vehicle_type_id":"4","last_reported":1713298044,"current_range_meters":21200,"station_id":"ce4bgt92rcd13ifvqcg0","pricing_plan_id":"cebpf4jnsgd1na2vs0mg"},{"bike_id":"c19018df-32e4-41cd-b341-59573d5f090f","system_id":"levelo_inurba_marseille","lat":43.296131,"lon":5.370773,"is_reserved":false,"is_disabled":false,"rental_uris":{"android":"levelo://app?vid=c19018df-32e4-41cd-b341-59573d5f090f","ios":"levelo://app?vid=c19018df-32e4-41cd-b341-59573d5f090f"},"vehicle_type_id":"4","last_reported":1713298044,"current_range_meters":23600,"station_id":"ce4bgnh2rcd13ifvqc0g","pricing_plan_id":"cebpf4jnsgd1na2vs0mg"},{"bike_id":"ccc6f300-169c-480c-9dc6-78fa347af79c","system_id":"levelo_inurba_marseille","lat":43.31109,"lon":5.37769,"is_reserved":false,"is_disabled":false,"rental_uris":{"android":"levelo://app?vid=ccc6f300-169c-480c-9dc6-78fa347af79c","ios":"levelo://app?vid=ccc6f300-169c-480c-9dc6-78fa347af79c"},"vehicle_type_id":"4","last_reported":1713298044,"current_range_meters":400,"station_id":"ce4bgt92rcd13ifvqcg0","pricing_plan_id":"cebpf4jnsgd1na2vs0mg"},{"bike_id":"0f4fd773-5d9d-43d1-bdb7-329481fa7686","system_id":"levelo_inurba_marseille","lat":43.311125,"lon":5.377624,"is_reserved":false,"is_disabled":false,"rental_uris":{"android":"levelo://app?vid=0f4fd773-5d9d-43d1-bdb7-329481fa7686","ios":"levelo://app?vid=0f4fd773-5d9d-43d1-bdb7-329481fa7686"},"vehicle_type_id":"4","last_reported":1713298044,"current_range_meters":400,"station_id":"ce4bgt92rcd13ifvqcg0","pricing_plan_id":"cebpf4jnsgd1na2vs0mg"},{"bike_id":"ad15013b-1bd7-498e-b69d-9962a626c81c","system_id":"levelo_inurba_marseille","lat":43.307945,"lon":5.376487,"is_reserved":false,"is_disabled":false,"rental_uris":{"android":"levelo://app?vid=ad15013b-1bd7-498e-b69d-9962a626c81c","ios":"levelo://app?vid=ad15013b-1bd7-498e-b69d-9962a626c81c"},"vehicle_type_id":"4","last_reported":1713298044,"current_range_meters":24800,"station_id":"ce4bgv92rcd13ifvqcq0","pricing_plan_id":"cebpf4jnsgd1na2vs0mg"},{"bike_id":"69c23fa1-2fc4-4deb-a0a5-ae6da94a78c1","system_id":"levelo_inurba_marseille","lat":43.307945,"lon":5.376487,"is_reserved":false,"is_disabled":false,"rental_uris":{"android":"levelo://app?vid=69c23fa1-2fc4-4deb-a0a5-ae6da94a78c1","ios":"levelo://app?vid=69c23fa1-2fc4-4deb-a0a5-ae6da94a78c1"},"vehicle_type_id":"4","last_reported":1713298044,"current_range_meters":800,"station_id":"ce4bgv92rcd13ifvqcq0","pricing_plan_id":"cebpf4jnsgd1na2vs0mg"},{"bike_id":"4298bce5-e1aa-481d-8bfd-5a2f04529568","system_id":"levelo_inurba_marseille","lat":43.307945,"lon":5.376487,"is_reserved":false,"is_disabled":false,"rental_uris":{"android":"levelo://app?vid=4298bce5-e1aa-481d-8bfd-5a2f04529568","ios":"levelo://app?vid=4298bce5-e1aa-481d-8bfd-5a2f04529568"},"vehicle_type_id":"4","last_reported":1713298044,"current_range_meters":0,"station_id":"ce4bgv92rcd13ifvqcq0","pricing_plan_id":"cebpf4jnsgd1na2vs0mg"},{"bike_id":"2493bb48-ffe9-4daa-ab80-cead12c5cd68","system_id":"levelo_inurba_marseille","lat":43.303046,"lon":5.368981,"is_reserved":false,"is_disabled":false,"rental_uris":{"android":"levelo://app?vid=2493bb48-ffe9-4daa-ab80-cead12c5cd68","ios":"levelo://app?vid=2493bb48-ffe9-4daa-ab80-cead12c5cd68"},"vehicle_type_id":"4","last_reported":1713298044,"current_range_meters":9600,"station_id":"ce4bgqh2rcd13ifvqc5g","pricing_plan_id":"cebpf4jnsgd1na2vs0mg"},{"bike_id":"ecdcae9d-59ab-4dee-8634-ce1ef12345f1","system_id":"levelo_inurba_marseille","lat":43.315289,"lon":5.380349,"is_reserved":false,"is_disabled":false,"rental_uris":{"android":"levelo://app?vid=ecdcae9d-59ab-4dee-8634-ce1ef12345f1","ios":"levelo://app?vid=ecdcae9d-59ab-4dee-8634-ce1ef12345f1"},"vehicle_type_id":"4","last_reported":1713298044,"current_range_meters":16000,"station_id":"ce4bhsp2rcd13ifvqi50","pricing_plan_id":"cebpf4jnsgd1na2vs0mg"},{"bike_id":"c1c8e9b5-6172-4184-b1a3-119dc2649075","system_id":"levelo_inurba_marseille","lat":43.299717,"lon":5.384845,"is_reserved":false,"is_disabled":false,"rental_uris":{"android":"levelo://app?vid=c1c8e9b5-6172-4184-b1a3-119dc2649075","ios":"levelo://app?vid=c1c8e9b5-6172-4184-b1a3-119dc2649075"},"vehicle_type_id":"4","last_reported":1713298044,"current_range_meters":26800,"station_id":"ce4bgj92rcd13ifvqbd0","pricing_plan_id":"cebpf4jnsgd1na2vs0mg"},{"bike_id":"d641b8d2-7eb0-482c-9300-5a087bf98836","system_id":"levelo_inurba_marseille","lat":43.301939,"lon":5.366286,"is_reserved":false,"is_disabled":false,"rental_uris":{"android":"levelo://app?vid=d641b8d2-7eb0-482c-9300-5a087bf98836","ios":"levelo://app?vid=d641b8d2-7eb0-482c-9300-5a087bf98836"},"vehicle_type_id":"4","last_reported":1713298044,"current_range_meters":15200,"station_id":"ce4bgrh2rcd13ifvqc8g","pricing_plan_id":"cebpf4jnsgd1na2vs0mg"},{"bike_id":"e4ac2eeb-9126-4b0e-bfeb-cf8f6c1823c1","system_id":"levelo_inurba_marseille","lat":43.308012,"lon":5.381511,"is_reserved":false,"is_disabled":false,"rental_uris":{"android":"levelo://app?vid=e4ac2eeb-9126-4b0e-bfeb-cf8f6c1823c1","ios":"levelo://app?vid=e4ac2eeb-9126-4b0e-bfeb-cf8f6c1823c1"},"vehicle_type_id":"4","last_reported":1713298044,"current_range_meters":16000,"station_id":"ce4bgt12rcd13ifvqce0","pricing_plan_id":"cebpf4jnsgd1na2vs0mg"},{"bike_id":"544ac794-bc75-42e5-a023-d57e4f650986","system_id":"levelo_inurba_marseille","lat":43.308012,"lon":5.381511,"is_reserved":false,"is_disabled":false,"rental_uris":{"android":"levelo://app?vid=544ac794-bc75-42e5-a023-d57e4f650986","ios":"levelo://app?vid=544ac794-bc75-42e5-a023-d57e4f650986"},"vehicle_type_id":"4","last_reported":1713298044,"current_range_meters":0,"station_id":"ce4bgt12rcd13ifvqce0","pricing_plan_id":"cebpf4jnsgd1na2vs0mg"},{"bike_id":"e7b0d180-f04c-4c7f-b66f-c57606c5245e","system_id":"levelo_inurba_marseille","lat":43.308012,"lon":5.381511,"is_reserved":false,"is_disabled":false,"rental_uris":{"android":"levelo://app?vid=e7b0d180-f04c-4c7f-b66f-c57606c5245e","ios":"levelo://app?vid=e7b0d180-f04c-4c7f-b66f-c57606c5245e"},"vehicle_type_id":"4","last_reported":1713298044,"current_range_meters":8000,"station_id":"ce4bgt12rcd13ifvqce0","pricing_plan_id":"cebpf4jnsgd1na2vs0mg"},{"bike_id":"92f4b063-325f-4195-95b4-1377e6f863b0","system_id":"levelo_inurba_marseille","lat":43.308012,"lon":5.381511,"is_reserved":false,"is_disabled":false,"rental_uris":{"android":"levelo://app?vid=92f4b063-325f-4195-95b4-1377e6f863b0","ios":"levelo://app?vid=92f4b063-325f-4195-95b4-1377e6f863b0"},"vehicle_type_id":"4","last_reported":1713298044,"current_range_meters":14000,"station_id":"ce4bgt12rcd13ifvqce0","pricing_plan_id":"cebpf4jnsgd1na2vs0mg"},{"bike_id":"3d8e7ad4-e81b-4c7b-b740-143800aded02","system_id":"levelo_inurba_marseille","lat":43.308012,"lon":5.381511,"is_reserved":false,"is_disabled":false,"rental_uris":{"android":"levelo://app?vid=3d8e7ad4-e81b-4c7b-b740-143800aded02","ios":"levelo://app?vid=3d8e7ad4-e81b-4c7b-b740-143800aded02"},"vehicle_type_id":"4","last_reported":1713298044,"current_range_meters":6000,"station_id":"ce4bgt12rcd13ifvqce0","pricing_plan_id":"cebpf4jnsgd1na2vs0mg"},{"bike_id":"732115dd-fc36-4cea-9cd6-0e4cc350a9d7","system_id":"levelo_inurba_marseille","lat":43.324771,"lon":5.36557,"is_reserved":false,"is_disabled":false,"rental_uris":{"android":"levelo://app?vid=732115dd-fc36-4cea-9cd6-0e4cc350a9d7","ios":"levelo://app?vid=732115dd-fc36-4cea-9cd6-0e4cc350a9d7"},"vehicle_type_id":"4","last_reported":1713298044,"current_range_meters":7600,"station_id":"ce4bhs12rcd13ifvqhvg","pricing_plan_id":"cebpf4jnsgd1na2vs0mg"},{"bike_id":"6850d3ac-6118-46b8-87a3-283cb8f13775","system_id":"levelo_inurba_marseille","lat":43.324771,"lon":5.36557,"is_reserved":false,"is_disabled":false,"rental_uris":{"android":"levelo://app?vid=6850d3ac-6118-46b8-87a3-283cb8f13775","ios":"levelo://app?vid=6850d3ac-6118-46b8-87a3-283cb8f13775"},"vehicle_type_id":"4","last_reported":1713298044,"current_range_meters":14400,"station_id":"ce4bhs12rcd13ifvqhvg","pricing_plan_id":"cebpf4jnsgd1na2vs0mg"},{"bike_id":"3bf0dbf7-1a46-4454-85d4-d6199fac68a8","system_id":"levelo_inurba_marseille","lat":43.324771,"lon":5.36557,"is_reserved":false,"is_disabled":false,"rental_uris":{"android":"levelo://app?vid=3bf0dbf7-1a46-4454-85d4-d6199fac68a8","ios":"levelo://app?vid=3bf0dbf7-1a46-4454-85d4-d6199fac68a8"},"vehicle_type_id":"4","last_reported":1713298044,"current_range_meters":8800,"station_id":"ce4bhs12rcd13ifvqhvg","pricing_plan_id":"cebpf4jnsgd1na2vs0mg"},{"bike_id":"fb961c54-d86e-4c51-9812-a80fd53cb14f","system_id":"levelo_inurba_marseille","lat":43.310668,"lon":5.383516,"is_reserved":false,"is_disabled":false,"rental_uris":{"android":"levelo://app?vid=fb961c54-d86e-4c51-9812-a80fd53cb14f","ios":"levelo://app?vid=fb961c54-d86e-4c51-9812-a80fd53cb14f"},"vehicle_type_id":"4","last_reported":1713298044,"current_range_meters":0,"station_id":"ce4bgv92rcd13ifvqcr0","pricing_plan_id":"cebpf4jnsgd1na2vs0mg"},{"bike_id":"9580b911-b158-4b19-9fc1-da13ce02fb9e","system_id":"levelo_inurba_marseille","lat":43.310804,"lon":5.38359,"is_reserved":false,"is_disabled":false,"rental_uris":{"android":"levelo://app?vid=9580b911-b158-4b19-9fc1-da13ce02fb9e","ios":"levelo://app?vid=9580b911-b158-4b19-9fc1-da13ce02fb9e"},"vehicle_type_id":"4","last_reported":1713298044,"current_range_meters":24800,"station_id":"ce4bgv92rcd13ifvqcr0","pricing_plan_id":"cebpf4jnsgd1na2vs0mg"},{"bike_id":"e67152fe-28df-43ad-a7af-4d27057439ca","system_id":"levelo_inurba_marseille","lat":43.310804,"lon":5.38359,"is_reserved":false,"is_disabled":false,"rental_uris":{"android":"levelo://app?vid=e67152fe-28df-43ad-a7af-4d27057439ca","ios":"levelo://app?vid=e67152fe-28df-43ad-a7af-4d27057439ca"},"vehicle_type_id":"4","last_reported":1713298044,"current_range_meters":6000,"station_id":"ce4bgv92rcd13ifvqcr0","pricing_plan_id":"cebpf4jnsgd1na2vs0mg"},{"bike_id":"215fc47b-2eca-42c5-8431-b9309fadfbd5","system_id":"levelo_inurba_marseille","lat":43.310804,"lon":5.38359,"is_reserved":false,"is_disabled":false,"rental_uris":{"android":"levelo://app?vid=215fc47b-2eca-42c5-8431-b9309fadfbd5","ios":"levelo://app?vid=215fc47b-2eca-42c5-8431-b9309fadfbd5"},"vehicle_type_id":"4","last_reported":1713298044,"current_range_meters":3200,"station_id":"ce4bgv92rcd13ifvqcr0","pricing_plan_id":"cebpf4jnsgd1na2vs0mg"},{"bike_id":"35078515-f0f3-4e9b-b29e-6f6ea9649c58","system_id":"levelo_inurba_marseille","lat":43.310804,"lon":5.38359,"is_reserved":false,"is_disabled":false,"rental_uris":{"android":"levelo://app?vid=35078515-f0f3-4e9b-b29e-6f6ea9649c58","ios":"levelo://app?vid=35078515-f0f3-4e9b-b29e-6f6ea9649c58"},"vehicle_type_id":"4","last_reported":1713298044,"current_range_meters":2800,"station_id":"ce4bgv92rcd13ifvqcr0","pricing_plan_id":"cebpf4jnsgd1na2vs0mg"},{"bike_id":"5e0422c4-4db2-4cd5-8ec6-f1a5f73617e2","system_id":"levelo_inurba_marseille","lat":43.305674,"lon":5.381366,"is_reserved":false,"is_disabled":false,"rental_uris":{"android":"levelo://app?vid=5e0422c4-4db2-4cd5-8ec6-f1a5f73617e2","ios":"levelo://app?vid=5e0422c4-4db2-4cd5-8ec6-f1a5f73617e2"},"vehicle_type_id":"4","last_reported":1713298044,"current_range_meters":22800,"station_id":"","pricing_plan_id":"cebpf4jnsgd1na2vs0mg"},{"bike_id":"9c7ce43e-d0dd-4762-9131-d050d56a780a","system_id":"levelo_inurba_marseille","lat":43.319894,"lon":5.381395,"is_reserved":false,"is_disabled":false,"rental_uris":{"android":"levelo://app?vid=9c7ce43e-d0dd-4762-9131-d050d56a780a","ios":"levelo://app?vid=9c7ce43e-d0dd-4762-9131-d050d56a780a"},"vehicle_type_id":"4","last_reported":1713298044,"current_range_meters":10000,"station_id":"ce4bhr12rcd13ifvqhpg","pricing_plan_id":"cebpf4jnsgd1na2vs0mg"},{"bike_id":"d022893b-5ec7-430d-a3e4-e8108bbd57b3","system_id":"levelo_inurba_marseille","lat":43.31997,"lon":5.38146,"is_reserved":false,"is_disabled":false,"rental_uris":{"android":"levelo://app?vid=d022893b-5ec7-430d-a3e4-e8108bbd57b3","ios":"levelo://app?vid=d022893b-5ec7-430d-a3e4-e8108bbd57b3"},"vehicle_type_id":"4","last_reported":1713298044,"current_range_meters":2400,"station_id":"ce4bhr12rcd13ifvqhpg","pricing_plan_id":"cebpf4jnsgd1na2vs0mg"},{"bike_id":"c63dc825-06b9-402d-8174-3b17e34f8d5c","system_id":"levelo_inurba_marseille","lat":43.31994,"lon":5.3815,"is_reserved":false,"is_disabled":false,"rental_uris":{"android":"levelo://app?vid=c63dc825-06b9-402d-8174-3b17e34f8d5c","ios":"levelo://app?vid=c63dc825-06b9-402d-8174-3b17e34f8d5c"},"vehicle_type_id":"4","last_reported":1713298044,"current_range_meters":11200,"station_id":"ce4bhr12rcd13ifvqhpg","pricing_plan_id":"cebpf4jnsgd1na2vs0mg"},{"bike_id":"d1928dcd-a1e5-4342-9479-8b973099efc0","system_id":"levelo_inurba_marseille","lat":43.32002,"lon":5.38145,"is_reserved":false,"is_disabled":false,"rental_uris":{"android":"levelo://app?vid=d1928dcd-a1e5-4342-9479-8b973099efc0","ios":"levelo://app?vid=d1928dcd-a1e5-4342-9479-8b973099efc0"},"vehicle_type_id":"4","last_reported":1713298044,"current_range_meters":1600,"station_id":"ce4bhr12rcd13ifvqhpg","pricing_plan_id":"cebpf4jnsgd1na2vs0mg"},{"bike_id":"334e3407-4f9b-4b57-a5ef-39033f25d948","system_id":"levelo_inurba_marseille","lat":43.319935,"lon":5.381699,"is_reserved":false,"is_disabled":false,"rental_uris":{"android":"levelo://app?vid=334e3407-4f9b-4b57-a5ef-39033f25d948","ios":"levelo://app?vid=334e3407-4f9b-4b57-a5ef-39033f25d948"},"vehicle_type_id":"4","last_reported":1713298044,"current_range_meters":0,"station_id":"ce4bhr12rcd13ifvqhpg","pricing_plan_id":"cebpf4jnsgd1na2vs0mg"},{"bike_id":"f00613ec-f56b-4110-b7f4-e096c4497746","system_id":"levelo_inurba_marseille","lat":43.32001,"lon":5.38151,"is_reserved":false,"is_disabled":false,"rental_uris":{"android":"levelo://app?vid=f00613ec-f56b-4110-b7f4-e096c4497746","ios":"levelo://app?vid=f00613ec-f56b-4110-b7f4-e096c4497746"},"vehicle_type_id":"4","last_reported":1713298044,"current_range_meters":26400,"station_id":"ce4bhr12rcd13ifvqhpg","pricing_plan_id":"cebpf4jnsgd1na2vs0mg"},{"bike_id":"252b1aad-2087-4bec-b4ef-898ffb9e27a1","system_id":"levelo_inurba_marseille","lat":43.31999,"lon":5.38156,"is_reserved":false,"is_disabled":false,"rental_uris":{"android":"levelo://app?vid=252b1aad-2087-4bec-b4ef-898ffb9e27a1","ios":"levelo://app?vid=252b1aad-2087-4bec-b4ef-898ffb9e27a1"},"vehicle_type_id":"4","last_reported":1713298044,"current_range_meters":10400,"station_id":"ce4bhr12rcd13ifvqhpg","pricing_plan_id":"cebpf4jnsgd1na2vs0mg"},{"bike_id":"425f6628-b6f6-493e-90a9-d0a9dadab5d7","system_id":"levelo_inurba_marseille","lat":43.319935,"lon":5.381699,"is_reserved":false,"is_disabled":false,"rental_uris":{"android":"levelo://app?vid=425f6628-b6f6-493e-90a9-d0a9dadab5d7","ios":"levelo://app?vid=425f6628-b6f6-493e-90a9-d0a9dadab5d7"},"vehicle_type_id":"4","last_reported":1713298044,"current_range_meters":12000,"station_id":"ce4bhr12rcd13ifvqhpg","pricing_plan_id":"cebpf4jnsgd1na2vs0mg"},{"bike_id":"82cbbd9b-fccb-4f3a-afab-6019d13cedda","system_id":"levelo_inurba_marseille","lat":43.32002,"lon":5.38156,"is_reserved":false,"is_disabled":false,"rental_uris":{"android":"levelo://app?vid=82cbbd9b-fccb-4f3a-afab-6019d13cedda","ios":"levelo://app?vid=82cbbd9b-fccb-4f3a-afab-6019d13cedda"},"vehicle_type_id":"4","last_reported":1713298044,"current_range_meters":0,"station_id":"ce4bhr12rcd13ifvqhpg","pricing_plan_id":"cebpf4jnsgd1na2vs0mg"},{"bike_id":"421a1cfb-93e0-4e6b-9822-b334fc47623d","system_id":"levelo_inurba_marseille","lat":43.32,"lon":5.3816,"is_reserved":false,"is_disabled":false,"rental_uris":{"android":"levelo://app?vid=421a1cfb-93e0-4e6b-9822-b334fc47623d","ios":"levelo://app?vid=421a1cfb-93e0-4e6b-9822-b334fc47623d"},"vehicle_type_id":"4","last_reported":1713298044,"current_range_meters":1600,"station_id":"ce4bhr12rcd13ifvqhpg","pricing_plan_id":"cebpf4jnsgd1na2vs0mg"},{"bike_id":"7ee3d897-03ac-4ea2-9f37-61801fb1ead6","system_id":"levelo_inurba_marseille","lat":43.313571,"lon":5.384829,"is_reserved":false,"is_disabled":false,"rental_uris":{"android":"levelo://app?vid=7ee3d897-03ac-4ea2-9f37-61801fb1ead6","ios":"levelo://app?vid=7ee3d897-03ac-4ea2-9f37-61801fb1ead6"},"vehicle_type_id":"4","last_reported":1713298044,"current_range_meters":24800,"station_id":"ce4bgt92rcd13ifvqcf0","pricing_plan_id":"cebpf4jnsgd1na2vs0mg"},{"bike_id":"9812ec43-be9a-4240-8b97-ca166a88cfa7","system_id":"levelo_inurba_marseille","lat":43.313571,"lon":5.384829,"is_reserved":false,"is_disabled":false,"rental_uris":{"android":"levelo://app?vid=9812ec43-be9a-4240-8b97-ca166a88cfa7","ios":"levelo://app?vid=9812ec43-be9a-4240-8b97-ca166a88cfa7"},"vehicle_type_id":"4","last_reported":1713298044,"current_range_meters":13200,"station_id":"ce4bgt92rcd13ifvqcf0","pricing_plan_id":"cebpf4jnsgd1na2vs0mg"},{"bike_id":"6d427520-a15e-4f25-88b0-6415d482c8cc","system_id":"levelo_inurba_marseille","lat":43.29939,"lon":5.36545,"is_reserved":false,"is_disabled":false,"rental_uris":{"android":"levelo://app?vid=6d427520-a15e-4f25-88b0-6415d482c8cc","ios":"levelo://app?vid=6d427520-a15e-4f25-88b0-6415d482c8cc"},"vehicle_type_id":"4","last_reported":1713298044,"current_range_meters":12000,"station_id":"ce4bgm92rcd13ifvqbr0","pricing_plan_id":"cebpf4jnsgd1na2vs0mg"},{"bike_id":"b08cf7ea-39a7-495c-bed5-e2b0541d2c9d","system_id":"levelo_inurba_marseille","lat":43.299724,"lon":5.371829,"is_reserved":false,"is_disabled":false,"rental_uris":{"android":"levelo://app?vid=b08cf7ea-39a7-495c-bed5-e2b0541d2c9d","ios":"levelo://app?vid=b08cf7ea-39a7-495c-bed5-e2b0541d2c9d"},"vehicle_type_id":"4","last_reported":1713298044,"current_range_meters":17200,"station_id":"ce4bgr92rcd13ifvqc7g","pricing_plan_id":"cebpf4jnsgd1na2vs0mg"},{"bike_id":"096d89d8-af61-47aa-9d95-a42c82d47187","system_id":"levelo_inurba_marseille","lat":43.299222,"lon":5.365554,"is_reserved":false,"is_disabled":false,"rental_uris":{"android":"levelo://app?vid=096d89d8-af61-47aa-9d95-a42c82d47187","ios":"levelo://app?vid=096d89d8-af61-47aa-9d95-a42c82d47187"},"vehicle_type_id":"4","last_reported":1713298044,"current_range_meters":18000,"station_id":"ce4bgm92rcd13ifvqbr0","pricing_plan_id":"cebpf4jnsgd1na2vs0mg"},{"bike_id":"324fe3e5-fe31-4b5e-bbc1-3824c2d0f7d1","system_id":"levelo_inurba_marseille","lat":43.299347,"lon":5.365308,"is_reserved":false,"is_disabled":false,"rental_uris":{"android":"levelo://app?vid=324fe3e5-fe31-4b5e-bbc1-3824c2d0f7d1","ios":"levelo://app?vid=324fe3e5-fe31-4b5e-bbc1-3824c2d0f7d1"},"vehicle_type_id":"4","last_reported":1713298044,"current_range_meters":14800,"station_id":"ce4bgm92rcd13ifvqbr0","pricing_plan_id":"cebpf4jnsgd1na2vs0mg"},{"bike_id":"5aef1b8b-6cd3-4dba-a25c-3087e1ce0118","system_id":"levelo_inurba_marseille","lat":43.299753,"lon":5.371885,"is_reserved":false,"is_disabled":false,"rental_uris":{"android":"levelo://app?vid=5aef1b8b-6cd3-4dba-a25c-3087e1ce0118","ios":"levelo://app?vid=5aef1b8b-6cd3-4dba-a25c-3087e1ce0118"},"vehicle_type_id":"4","last_reported":1713298044,"current_range_meters":0,"station_id":"ce4bgr92rcd13ifvqc7g","pricing_plan_id":"cebpf4jnsgd1na2vs0mg"},{"bike_id":"cadc84db-80af-44c2-a1f3-b89b6f84c4cc","system_id":"levelo_inurba_marseille","lat":43.299724,"lon":5.371829,"is_reserved":false,"is_disabled":false,"rental_uris":{"android":"levelo://app?vid=cadc84db-80af-44c2-a1f3-b89b6f84c4cc","ios":"levelo://app?vid=cadc84db-80af-44c2-a1f3-b89b6f84c4cc"},"vehicle_type_id":"4","last_reported":1713298044,"current_range_meters":800,"station_id":"ce4bgr92rcd13ifvqc7g","pricing_plan_id":"cebpf4jnsgd1na2vs0mg"},{"bike_id":"2554a6bb-a5e5-4ee7-b4fd-b711df9f9218","system_id":"levelo_inurba_marseille","lat":43.299288,"lon":5.365324,"is_reserved":false,"is_disabled":false,"rental_uris":{"android":"levelo://app?vid=2554a6bb-a5e5-4ee7-b4fd-b711df9f9218","ios":"levelo://app?vid=2554a6bb-a5e5-4ee7-b4fd-b711df9f9218"},"vehicle_type_id":"4","last_reported":1713298044,"current_range_meters":25600,"station_id":"ce4bgm92rcd13ifvqbr0","pricing_plan_id":"cebpf4jnsgd1na2vs0mg"},{"bike_id":"79b1484c-7ca2-4a8d-b15b-2987062d3cb2","system_id":"levelo_inurba_marseille","lat":43.299987,"lon":5.376523,"is_reserved":false,"is_disabled":false,"rental_uris":{"android":"levelo://app?vid=79b1484c-7ca2-4a8d-b15b-2987062d3cb2","ios":"levelo://app?vid=79b1484c-7ca2-4a8d-b15b-2987062d3cb2"},"vehicle_type_id":"4","last_reported":1713298044,"current_range_meters":28400,"station_id":"","pricing_plan_id":"cebpf4jnsgd1na2vs0mg"},{"bike_id":"98e269de-cd29-43f7-8799-216bc7904d72","system_id":"levelo_inurba_marseille","lat":43.305364,"lon":5.384119,"is_reserved":false,"is_disabled":false,"rental_uris":{"android":"levelo://app?vid=98e269de-cd29-43f7-8799-216bc7904d72","ios":"levelo://app?vid=98e269de-cd29-43f7-8799-216bc7904d72"},"vehicle_type_id":"4","last_reported":1713298044,"current_range_meters":28400,"station_id":"ce4bgg92rcd13ifvqb30","pricing_plan_id":"cebpf4jnsgd1na2vs0mg"},{"bike_id":"143e3c11-544e-4d1d-902a-83e26c66598f","system_id":"levelo_inurba_marseille","lat":43.305364,"lon":5.384119,"is_reserved":false,"is_disabled":false,"rental_uris":{"android":"levelo://app?vid=143e3c11-544e-4d1d-902a-83e26c66598f","ios":"levelo://app?vid=143e3c11-544e-4d1d-902a-83e26c66598f"},"vehicle_type_id":"4","last_reported":1713298044,"current_range_meters":6000,"station_id":"ce4bgg92rcd13ifvqb30","pricing_plan_id":"cebpf4jnsgd1na2vs0mg"},{"bike_id":"2284633d-c3b7-439b-be82-2a95601b2bac","system_id":"levelo_inurba_marseille","lat":43.311722,"lon":5.387247,"is_reserved":false,"is_disabled":false,"rental_uris":{"android":"levelo://app?vid=2284633d-c3b7-439b-be82-2a95601b2bac","ios":"levelo://app?vid=2284633d-c3b7-439b-be82-2a95601b2bac"},"vehicle_type_id":"4","last_reported":1713298044,"current_range_meters":19200,"station_id":"ce4bgv12rcd13ifvqcp0","pricing_plan_id":"cebpf4jnsgd1na2vs0mg"},{"bike_id":"12a2f38f-b8c1-49b4-a882-fa3802887125","system_id":"levelo_inurba_marseille","lat":43.305364,"lon":5.384119,"is_reserved":false,"is_disabled":false,"rental_uris":{"android":"levelo://app?vid=12a2f38f-b8c1-49b4-a882-fa3802887125","ios":"levelo://app?vid=12a2f38f-b8c1-49b4-a882-fa3802887125"},"vehicle_type_id":"4","last_reported":1713298044,"current_range_meters":17600,"station_id":"ce4bgg92rcd13ifvqb30","pricing_plan_id":"cebpf4jnsgd1na2vs0mg"},{"bike_id":"36b5b520-13ec-4a71-b0e2-4053fd4c6d5d","system_id":"levelo_inurba_marseille","lat":43.31181,"lon":5.38704,"is_reserved":false,"is_disabled":false,"rental_uris":{"android":"levelo://app?vid=36b5b520-13ec-4a71-b0e2-4053fd4c6d5d","ios":"levelo://app?vid=36b5b520-13ec-4a71-b0e2-4053fd4c6d5d"},"vehicle_type_id":"4","last_reported":1713298044,"current_range_meters":0,"station_id":"ce4bgv12rcd13ifvqcp0","pricing_plan_id":"cebpf4jnsgd1na2vs0mg"},{"bike_id":"b70318e4-61f7-43e6-b74f-8d2ea022c24c","system_id":"levelo_inurba_marseille","lat":43.299243,"lon":5.374807,"is_reserved":false,"is_disabled":false,"rental_uris":{"android":"levelo://app?vid=b70318e4-61f7-43e6-b74f-8d2ea022c24c","ios":"levelo://app?vid=b70318e4-61f7-43e6-b74f-8d2ea022c24c"},"vehicle_type_id":"4","last_reported":1713298044,"current_range_meters":0,"station_id":"ce4bgjh2rcd13ifvqbg0","pricing_plan_id":"cebpf4jnsgd1na2vs0mg"},{"bike_id":"1d60b6ca-8026-4935-b072-3ac064af196c","system_id":"levelo_inurba_marseille","lat":43.31166,"lon":5.38716,"is_reserved":false,"is_disabled":false,"rental_uris":{"android":"levelo://app?vid=1d60b6ca-8026-4935-b072-3ac064af196c","ios":"levelo://app?vid=1d60b6ca-8026-4935-b072-3ac064af196c"},"vehicle_type_id":"4","last_reported":1713298044,"current_range_meters":9200,"station_id":"ce4bgv12rcd13ifvqcp0","pricing_plan_id":"cebpf4jnsgd1na2vs0mg"},{"bike_id":"53332bc6-3e9c-4734-ab27-22e6d18009c3","system_id":"levelo_inurba_marseille","lat":43.311683,"lon":5.387207,"is_reserved":false,"is_disabled":false,"rental_uris":{"android":"levelo://app?vid=53332bc6-3e9c-4734-ab27-22e6d18009c3","ios":"levelo://app?vid=53332bc6-3e9c-4734-ab27-22e6d18009c3"},"vehicle_type_id":"4","last_reported":1713298044,"current_range_meters":0,"station_id":"ce4bgv12rcd13ifvqcp0","pricing_plan_id":"cebpf4jnsgd1na2vs0mg"},{"bike_id":"1e45cd76-aace-4eb6-81db-3c88211a4173","system_id":"levelo_inurba_marseille","lat":43.311722,"lon":5.387247,"is_reserved":false,"is_disabled":false,"rental_uris":{"android":"levelo://app?vid=1e45cd76-aace-4eb6-81db-3c88211a4173","ios":"levelo://app?vid=1e45cd76-aace-4eb6-81db-3c88211a4173"},"vehicle_type_id":"4","last_reported":1713298044,"current_range_meters":15200,"station_id":"ce4bgv12rcd13ifvqcp0","pricing_plan_id":"cebpf4jnsgd1na2vs0mg"},{"bike_id":"b1a3a71e-2f4f-48a3-a709-47344eb53b00","system_id":"levelo_inurba_marseille","lat":43.311722,"lon":5.387247,"is_reserved":false,"is_disabled":false,"rental_uris":{"android":"levelo://app?vid=b1a3a71e-2f4f-48a3-a709-47344eb53b00","ios":"levelo://app?vid=b1a3a71e-2f4f-48a3-a709-47344eb53b00"},"vehicle_type_id":"4","last_reported":1713298044,"current_range_meters":16000,"station_id":"ce4bgv12rcd13ifvqcp0","pricing_plan_id":"cebpf4jnsgd1na2vs0mg"},{"bike_id":"c2584501-b6d1-4af2-a46e-cadf777598ff","system_id":"levelo_inurba_marseille","lat":43.311722,"lon":5.387247,"is_reserved":false,"is_disabled":false,"rental_uris":{"android":"levelo://app?vid=c2584501-b6d1-4af2-a46e-cadf777598ff","ios":"levelo://app?vid=c2584501-b6d1-4af2-a46e-cadf777598ff"},"vehicle_type_id":"4","last_reported":1713298044,"current_range_meters":6800,"station_id":"ce4bgv12rcd13ifvqcp0","pricing_plan_id":"cebpf4jnsgd1na2vs0mg"},{"bike_id":"b577ee42-a7ea-43a8-b0e2-ef1329a60042","system_id":"levelo_inurba_marseille","lat":43.297794,"lon":5.370888,"is_reserved":false,"is_disabled":false,"rental_uris":{"android":"levelo://app?vid=b577ee42-a7ea-43a8-b0e2-ef1329a60042","ios":"levelo://app?vid=b577ee42-a7ea-43a8-b0e2-ef1329a60042"},"vehicle_type_id":"4","last_reported":1713298044,"current_range_meters":28400,"station_id":"ce4bgop2rcd13ifvqc1g","pricing_plan_id":"cebpf4jnsgd1na2vs0mg"},{"bike_id":"4fc868a1-d2ca-415b-8f36-db9a2c0944bd","system_id":"levelo_inurba_marseille","lat":43.32288,"lon":5.38266,"is_reserved":false,"is_disabled":false,"rental_uris":{"android":"levelo://app?vid=4fc868a1-d2ca-415b-8f36-db9a2c0944bd","ios":"levelo://app?vid=4fc868a1-d2ca-415b-8f36-db9a2c0944bd"},"vehicle_type_id":"4","last_reported":1713298044,"current_range_meters":0,"station_id":"ce4bhr12rcd13ifvqhqg","pricing_plan_id":"cebpf4jnsgd1na2vs0mg"},{"bike_id":"acb55e99-0734-4b04-acff-f91cf1e147a9","system_id":"levelo_inurba_marseille","lat":43.297774,"lon":5.370875,"is_reserved":false,"is_disabled":false,"rental_uris":{"android":"levelo://app?vid=acb55e99-0734-4b04-acff-f91cf1e147a9","ios":"levelo://app?vid=acb55e99-0734-4b04-acff-f91cf1e147a9"},"vehicle_type_id":"4","last_reported":1713298044,"current_range_meters":10800,"station_id":"ce4bgop2rcd13ifvqc1g","pricing_plan_id":"cebpf4jnsgd1na2vs0mg"},{"bike_id":"5442c3f7-4cf1-4b6e-99cd-8eef7dd431a2","system_id":"levelo_inurba_marseille","lat":43.32285,"lon":5.38279,"is_reserved":false,"is_disabled":false,"rental_uris":{"android":"levelo://app?vid=5442c3f7-4cf1-4b6e-99cd-8eef7dd431a2","ios":"levelo://app?vid=5442c3f7-4cf1-4b6e-99cd-8eef7dd431a2"},"vehicle_type_id":"4","last_reported":1713298044,"current_range_meters":25600,"station_id":"ce4bhr12rcd13ifvqhqg","pricing_plan_id":"cebpf4jnsgd1na2vs0mg"},{"bike_id":"68d61b33-8e0d-45ae-a4ca-21d1e19dcd45","system_id":"levelo_inurba_marseille","lat":43.322872,"lon":5.382756,"is_reserved":false,"is_disabled":false,"rental_uris":{"android":"levelo://app?vid=68d61b33-8e0d-45ae-a4ca-21d1e19dcd45","ios":"levelo://app?vid=68d61b33-8e0d-45ae-a4ca-21d1e19dcd45"},"vehicle_type_id":"4","last_reported":1713298044,"current_range_meters":10400,"station_id":"ce4bhr12rcd13ifvqhqg","pricing_plan_id":"cebpf4jnsgd1na2vs0mg"},{"bike_id":"ef255d38-5859-4d91-b98f-edc1282dd85c","system_id":"levelo_inurba_marseille","lat":43.322872,"lon":5.382756,"is_reserved":false,"is_disabled":false,"rental_uris":{"android":"levelo://app?vid=ef255d38-5859-4d91-b98f-edc1282dd85c","ios":"levelo://app?vid=ef255d38-5859-4d91-b98f-edc1282dd85c"},"vehicle_type_id":"4","last_reported":1713298044,"current_range_meters":24800,"station_id":"ce4bhr12rcd13ifvqhqg","pricing_plan_id":"cebpf4jnsgd1na2vs0mg"},{"bike_id":"e55fda42-46da-4f9c-9e83-c63387550ce8","system_id":"levelo_inurba_marseille","lat":43.297163,"lon":5.365866,"is_reserved":false,"is_disabled":false,"rental_uris":{"android":"levelo://app?vid=e55fda42-46da-4f9c-9e83-c63387550ce8","ios":"levelo://app?vid=e55fda42-46da-4f9c-9e83-c63387550ce8"},"vehicle_type_id":"4","last_reported":1713298044,"current_range_meters":8800,"station_id":"ce4bgn12rcd13ifvqbt0","pricing_plan_id":"cebpf4jnsgd1na2vs0mg"},{"bike_id":"d327421d-0b5b-4265-bf6e-10f3aae9537b","system_id":"levelo_inurba_marseille","lat":43.297163,"lon":5.365866,"is_reserved":false,"is_disabled":false,"rental_uris":{"android":"levelo://app?vid=d327421d-0b5b-4265-bf6e-10f3aae9537b","ios":"levelo://app?vid=d327421d-0b5b-4265-bf6e-10f3aae9537b"},"vehicle_type_id":"4","last_reported":1713298044,"current_range_meters":10400,"station_id":"ce4bgn12rcd13ifvqbt0","pricing_plan_id":"cebpf4jnsgd1na2vs0mg"},{"bike_id":"7be813e1-ccca-40c6-91ca-ef158d125c05","system_id":"levelo_inurba_marseille","lat":43.297163,"lon":5.365866,"is_reserved":false,"is_disabled":false,"rental_uris":{"android":"levelo://app?vid=7be813e1-ccca-40c6-91ca-ef158d125c05","ios":"levelo://app?vid=7be813e1-ccca-40c6-91ca-ef158d125c05"},"vehicle_type_id":"4","last_reported":1713298044,"current_range_meters":6800,"station_id":"ce4bgn12rcd13ifvqbt0","pricing_plan_id":"cebpf4jnsgd1na2vs0mg"},{"bike_id":"bfa13ddf-8ba7-402b-86b8-f80987482f16","system_id":"levelo_inurba_marseille","lat":43.297163,"lon":5.365866,"is_reserved":false,"is_disabled":false,"rental_uris":{"android":"levelo://app?vid=bfa13ddf-8ba7-402b-86b8-f80987482f16","ios":"levelo://app?vid=bfa13ddf-8ba7-402b-86b8-f80987482f16"},"vehicle_type_id":"4","last_reported":1713298044,"current_range_meters":7200,"station_id":"ce4bgn12rcd13ifvqbt0","pricing_plan_id":"cebpf4jnsgd1na2vs0mg"},{"bike_id":"c14fbc31-b5f1-4160-b150-0f9204374b2d","system_id":"levelo_inurba_marseille","lat":43.299724,"lon":5.371829,"is_reserved":false,"is_disabled":false,"rental_uris":{"android":"levelo://app?vid=c14fbc31-b5f1-4160-b150-0f9204374b2d","ios":"levelo://app?vid=c14fbc31-b5f1-4160-b150-0f9204374b2d"},"vehicle_type_id":"4","last_reported":1713298044,"current_range_meters":19600,"station_id":"ce4bgr92rcd13ifvqc7g","pricing_plan_id":"cebpf4jnsgd1na2vs0mg"},{"bike_id":"3c1a1530-5ab9-4802-9e74-7a5817146419","system_id":"levelo_inurba_marseille","lat":43.297163,"lon":5.365866,"is_reserved":false,"is_disabled":false,"rental_uris":{"android":"levelo://app?vid=3c1a1530-5ab9-4802-9e74-7a5817146419","ios":"levelo://app?vid=3c1a1530-5ab9-4802-9e74-7a5817146419"},"vehicle_type_id":"4","last_reported":1713298044,"current_range_meters":10000,"station_id":"ce4bgn12rcd13ifvqbt0","pricing_plan_id":"cebpf4jnsgd1na2vs0mg"},{"bike_id":"4fc4dd2e-9b9b-4e8e-963a-96f555b94c48","system_id":"levelo_inurba_marseille","lat":43.297163,"lon":5.365866,"is_reserved":false,"is_disabled":false,"rental_uris":{"android":"levelo://app?vid=4fc4dd2e-9b9b-4e8e-963a-96f555b94c48","ios":"levelo://app?vid=4fc4dd2e-9b9b-4e8e-963a-96f555b94c48"},"vehicle_type_id":"4","last_reported":1713298044,"current_range_meters":21200,"station_id":"ce4bgn12rcd13ifvqbt0","pricing_plan_id":"cebpf4jnsgd1na2vs0mg"},{"bike_id":"7fab1e62-b689-4420-9f28-d932b29908f2","system_id":"levelo_inurba_marseille","lat":43.297163,"lon":5.365866,"is_reserved":false,"is_disabled":false,"rental_uris":{"android":"levelo://app?vid=7fab1e62-b689-4420-9f28-d932b29908f2","ios":"levelo://app?vid=7fab1e62-b689-4420-9f28-d932b29908f2"},"vehicle_type_id":"4","last_reported":1713298044,"current_range_meters":1600,"station_id":"ce4bgn12rcd13ifvqbt0","pricing_plan_id":"cebpf4jnsgd1na2vs0mg"},{"bike_id":"26c06353-8d8f-4227-8408-4a41017321fd","system_id":"levelo_inurba_marseille","lat":43.297163,"lon":5.365866,"is_reserved":false,"is_disabled":false,"rental_uris":{"android":"levelo://app?vid=26c06353-8d8f-4227-8408-4a41017321fd","ios":"levelo://app?vid=26c06353-8d8f-4227-8408-4a41017321fd"},"vehicle_type_id":"4","last_reported":1713298044,"current_range_meters":2000,"station_id":"ce4bgn12rcd13ifvqbt0","pricing_plan_id":"cebpf4jnsgd1na2vs0mg"},{"bike_id":"edb43358-8118-4363-a73b-528eb80b41e2","system_id":"levelo_inurba_marseille","lat":43.296,"lon":5.367403,"is_reserved":false,"is_disabled":false,"rental_uris":{"android":"levelo://app?vid=edb43358-8118-4363-a73b-528eb80b41e2","ios":"levelo://app?vid=edb43358-8118-4363-a73b-528eb80b41e2"},"vehicle_type_id":"4","last_reported":1713298044,"current_range_meters":0,"station_id":"ce4bgph2rcd13ifvqc2g","pricing_plan_id":"cebpf4jnsgd1na2vs0mg"},{"bike_id":"a85b95a5-c2f9-49e4-acf6-b603ef02494e","system_id":"levelo_inurba_marseille","lat":43.29573,"lon":5.367355,"is_reserved":false,"is_disabled":false,"rental_uris":{"android":"levelo://app?vid=a85b95a5-c2f9-49e4-acf6-b603ef02494e","ios":"levelo://app?vid=a85b95a5-c2f9-49e4-acf6-b603ef02494e"},"vehicle_type_id":"4","last_reported":1713298044,"current_range_meters":0,"station_id":"ce4bgph2rcd13ifvqc2g","pricing_plan_id":"cebpf4jnsgd1na2vs0mg"},{"bike_id":"80c65c49-6eae-4a7d-be23-40d1a4104eaf","system_id":"levelo_inurba_marseille","lat":43.297184,"lon":5.377003,"is_reserved":false,"is_disabled":false,"rental_uris":{"android":"levelo://app?vid=80c65c49-6eae-4a7d-be23-40d1a4104eaf","ios":"levelo://app?vid=80c65c49-6eae-4a7d-be23-40d1a4104eaf"},"vehicle_type_id":"4","last_reported":1713298044,"current_range_meters":0,"station_id":"ce4bgkh2rcd13ifvqbl0","pricing_plan_id":"cebpf4jnsgd1na2vs0mg"},{"bike_id":"44566065-1d65-4b9e-b598-26ede3ce21c5","system_id":"levelo_inurba_marseille","lat":43.299028,"lon":5.381509,"is_reserved":false,"is_disabled":false,"rental_uris":{"android":"levelo://app?vid=44566065-1d65-4b9e-b598-26ede3ce21c5","ios":"levelo://app?vid=44566065-1d65-4b9e-b598-26ede3ce21c5"},"vehicle_type_id":"4","last_reported":1713298044,"current_range_meters":8800,"station_id":"ce4bgj12rcd13ifvqbc0","pricing_plan_id":"cebpf4jnsgd1na2vs0mg"},{"bike_id":"0b4ea251-7aac-4f83-b1c9-3da51fa6657f","system_id":"levelo_inurba_marseille","lat":43.299028,"lon":5.381509,"is_reserved":false,"is_disabled":false,"rental_uris":{"android":"levelo://app?vid=0b4ea251-7aac-4f83-b1c9-3da51fa6657f","ios":"levelo://app?vid=0b4ea251-7aac-4f83-b1c9-3da51fa6657f"},"vehicle_type_id":"4","last_reported":1713298044,"current_range_meters":0,"station_id":"ce4bgj12rcd13ifvqbc0","pricing_plan_id":"cebpf4jnsgd1na2vs0mg"},{"bike_id":"0be653b8-c1d8-4fdc-8344-70e44b76290c","system_id":"levelo_inurba_marseille","lat":43.31754,"lon":5.3901,"is_reserved":false,"is_disabled":false,"rental_uris":{"android":"levelo://app?vid=0be653b8-c1d8-4fdc-8344-70e44b76290c","ios":"levelo://app?vid=0be653b8-c1d8-4fdc-8344-70e44b76290c"},"vehicle_type_id":"4","last_reported":1713298044,"current_range_meters":15200,"station_id":"ce4bhqp2rcd13ifvqhng","pricing_plan_id":"cebpf4jnsgd1na2vs0mg"},{"bike_id":"d700fe8c-f0ca-46cf-89ef-dc19397dd4b1","system_id":"levelo_inurba_marseille","lat":43.317611,"lon":5.390116,"is_reserved":false,"is_disabled":false,"rental_uris":{"android":"levelo://app?vid=d700fe8c-f0ca-46cf-89ef-dc19397dd4b1","ios":"levelo://app?vid=d700fe8c-f0ca-46cf-89ef-dc19397dd4b1"},"vehicle_type_id":"4","last_reported":1713298044,"current_range_meters":17200,"station_id":"ce4bhqp2rcd13ifvqhng","pricing_plan_id":"cebpf4jnsgd1na2vs0mg"},{"bike_id":"c1f9238c-c066-42fa-881a-71ff39872ee5","system_id":"levelo_inurba_marseille","lat":43.31755,"lon":5.39018,"is_reserved":false,"is_disabled":false,"rental_uris":{"android":"levelo://app?vid=c1f9238c-c066-42fa-881a-71ff39872ee5","ios":"levelo://app?vid=c1f9238c-c066-42fa-881a-71ff39872ee5"},"vehicle_type_id":"4","last_reported":1713298044,"current_range_meters":9600,"station_id":"ce4bhqp2rcd13ifvqhng","pricing_plan_id":"cebpf4jnsgd1na2vs0mg"},{"bike_id":"78269ca7-602f-46d4-8d85-b94199ba6512","system_id":"levelo_inurba_marseille","lat":43.317563,"lon":5.390183,"is_reserved":false,"is_disabled":false,"rental_uris":{"android":"levelo://app?vid=78269ca7-602f-46d4-8d85-b94199ba6512","ios":"levelo://app?vid=78269ca7-602f-46d4-8d85-b94199ba6512"},"vehicle_type_id":"4","last_reported":1713298044,"current_range_meters":8400,"station_id":"ce4bhqp2rcd13ifvqhng","pricing_plan_id":"cebpf4jnsgd1na2vs0mg"},{"bike_id":"90f153bd-2190-4088-b137-9ad520e813ac","system_id":"levelo_inurba_marseille","lat":43.31757,"lon":5.39018,"is_reserved":false,"is_disabled":false,"rental_uris":{"android":"levelo://app?vid=90f153bd-2190-4088-b137-9ad520e813ac","ios":"levelo://app?vid=90f153bd-2190-4088-b137-9ad520e813ac"},"vehicle_type_id":"4","last_reported":1713298044,"current_range_meters":17600,"station_id":"ce4bhqp2rcd13ifvqhng","pricing_plan_id":"cebpf4jnsgd1na2vs0mg"},{"bike_id":"ed8d703c-c8f5-4e25-9e80-5e5a9265951c","system_id":"levelo_inurba_marseille","lat":43.31758,"lon":5.39018,"is_reserved":false,"is_disabled":false,"rental_uris":{"android":"levelo://app?vid=ed8d703c-c8f5-4e25-9e80-5e5a9265951c","ios":"levelo://app?vid=ed8d703c-c8f5-4e25-9e80-5e5a9265951c"},"vehicle_type_id":"4","last_reported":1713298044,"current_range_meters":21200,"station_id":"ce4bhqp2rcd13ifvqhng","pricing_plan_id":"cebpf4jnsgd1na2vs0mg"},{"bike_id":"afd389c0-7a1f-4448-8f6a-70ecd567a42f","system_id":"levelo_inurba_marseille","lat":43.317557,"lon":5.390201,"is_reserved":false,"is_disabled":false,"rental_uris":{"android":"levelo://app?vid=afd389c0-7a1f-4448-8f6a-70ecd567a42f","ios":"levelo://app?vid=afd389c0-7a1f-4448-8f6a-70ecd567a42f"},"vehicle_type_id":"4","last_reported":1713298044,"current_range_meters":18400,"station_id":"ce4bhqp2rcd13ifvqhng","pricing_plan_id":"cebpf4jnsgd1na2vs0mg"},{"bike_id":"455dc1c8-9851-440a-8443-3c79108420c7","system_id":"levelo_inurba_marseille","lat":43.317551,"lon":5.390221,"is_reserved":false,"is_disabled":false,"rental_uris":{"android":"levelo://app?vid=455dc1c8-9851-440a-8443-3c79108420c7","ios":"levelo://app?vid=455dc1c8-9851-440a-8443-3c79108420c7"},"vehicle_type_id":"4","last_reported":1713298044,"current_range_meters":1600,"station_id":"ce4bhqp2rcd13ifvqhng","pricing_plan_id":"cebpf4jnsgd1na2vs0mg"},{"bike_id":"64e79c7c-35ca-4ed5-b140-a7eb9aa5d972","system_id":"levelo_inurba_marseille","lat":43.31759,"lon":5.39022,"is_reserved":false,"is_disabled":false,"rental_uris":{"android":"levelo://app?vid=64e79c7c-35ca-4ed5-b140-a7eb9aa5d972","ios":"levelo://app?vid=64e79c7c-35ca-4ed5-b140-a7eb9aa5d972"},"vehicle_type_id":"4","last_reported":1713298044,"current_range_meters":3200,"station_id":"ce4bhqp2rcd13ifvqhng","pricing_plan_id":"cebpf4jnsgd1na2vs0mg"},{"bike_id":"ef3fb784-1dd5-4bd2-b279-308a01ddd37f","system_id":"levelo_inurba_marseille","lat":43.317557,"lon":5.390173,"is_reserved":false,"is_disabled":false,"rental_uris":{"android":"levelo://app?vid=ef3fb784-1dd5-4bd2-b279-308a01ddd37f","ios":"levelo://app?vid=ef3fb784-1dd5-4bd2-b279-308a01ddd37f"},"vehicle_type_id":"4","last_reported":1713298044,"current_range_meters":22000,"station_id":"ce4bhqp2rcd13ifvqhng","pricing_plan_id":"cebpf4jnsgd1na2vs0mg"},{"bike_id":"427afb0d-4139-4aeb-8ed2-57d22a6dc413","system_id":"levelo_inurba_marseille","lat":43.31755,"lon":5.39028,"is_reserved":false,"is_disabled":false,"rental_uris":{"android":"levelo://app?vid=427afb0d-4139-4aeb-8ed2-57d22a6dc413","ios":"levelo://app?vid=427afb0d-4139-4aeb-8ed2-57d22a6dc413"},"vehicle_type_id":"4","last_reported":1713298044,"current_range_meters":1600,"station_id":"ce4bhqp2rcd13ifvqhng","pricing_plan_id":"cebpf4jnsgd1na2vs0mg"},{"bike_id":"c1f73a24-8788-475f-97f8-a0920c069a92","system_id":"levelo_inurba_marseille","lat":43.304274,"lon":5.388873,"is_reserved":false,"is_disabled":false,"rental_uris":{"android":"levelo://app?vid=c1f73a24-8788-475f-97f8-a0920c069a92","ios":"levelo://app?vid=c1f73a24-8788-475f-97f8-a0920c069a92"},"vehicle_type_id":"4","last_reported":1713298044,"current_range_meters":21200,"station_id":"ce4bgk12rcd13ifvqbi0","pricing_plan_id":"cebpf4jnsgd1na2vs0mg"},{"bike_id":"191e5b71-b248-4d47-88c0-f4de1c6e1821","system_id":"levelo_inurba_marseille","lat":43.304274,"lon":5.388873,"is_reserved":false,"is_disabled":false,"rental_uris":{"android":"levelo://app?vid=191e5b71-b248-4d47-88c0-f4de1c6e1821","ios":"levelo://app?vid=191e5b71-b248-4d47-88c0-f4de1c6e1821"},"vehicle_type_id":"4","last_reported":1713298044,"current_range_meters":2000,"station_id":"ce4bgk12rcd13ifvqbi0","pricing_plan_id":"cebpf4jnsgd1na2vs0mg"},{"bike_id":"7707e206-bbd0-4045-bc1d-15cb55d265b7","system_id":"levelo_inurba_marseille","lat":43.29792,"lon":5.38102,"is_reserved":false,"is_disabled":false,"rental_uris":{"android":"levelo://app?vid=7707e206-bbd0-4045-bc1d-15cb55d265b7","ios":"levelo://app?vid=7707e206-bbd0-4045-bc1d-15cb55d265b7"},"vehicle_type_id":"4","last_reported":1713298044,"current_range_meters":30000,"station_id":"ce4bgip2rcd13ifvqbb0","pricing_plan_id":"cebpf4jnsgd1na2vs0mg"},{"bike_id":"93b0d8dc-3241-4495-a778-dcd0a18d00a0","system_id":"levelo_inurba_marseille","lat":43.295748,"lon":5.37522,"is_reserved":false,"is_disabled":false,"rental_uris":{"android":"levelo://app?vid=93b0d8dc-3241-4495-a778-dcd0a18d00a0","ios":"levelo://app?vid=93b0d8dc-3241-4495-a778-dcd0a18d00a0"},"vehicle_type_id":"4","last_reported":1713298044,"current_range_meters":3200,"station_id":"ce4bgh92rcd13ifvqb50","pricing_plan_id":"cebpf4jnsgd1na2vs0mg"},{"bike_id":"ad6fbf1c-70f8-424f-9f01-dc971f5057dc","system_id":"levelo_inurba_marseille","lat":43.30441,"lon":5.38898,"is_reserved":false,"is_disabled":false,"rental_uris":{"android":"levelo://app?vid=ad6fbf1c-70f8-424f-9f01-dc971f5057dc","ios":"levelo://app?vid=ad6fbf1c-70f8-424f-9f01-dc971f5057dc"},"vehicle_type_id":"4","last_reported":1713298044,"current_range_meters":0,"station_id":"ce4bgk12rcd13ifvqbi0","pricing_plan_id":"cebpf4jnsgd1na2vs0mg"},{"bike_id":"55ca89bf-90e0-43a1-aea5-18ec51acff5e","system_id":"levelo_inurba_marseille","lat":43.2963,"lon":5.3773,"is_reserved":false,"is_disabled":false,"rental_uris":{"android":"levelo://app?vid=55ca89bf-90e0-43a1-aea5-18ec51acff5e","ios":"levelo://app?vid=55ca89bf-90e0-43a1-aea5-18ec51acff5e"},"vehicle_type_id":"4","last_reported":1713298044,"current_range_meters":0,"station_id":"ce4bgi92rcd13ifvqb90","pricing_plan_id":"cebpf4jnsgd1na2vs0mg"},{"bike_id":"b2045a61-de2c-46d1-820c-072b45134f1d","system_id":"levelo_inurba_marseille","lat":43.304274,"lon":5.388873,"is_reserved":false,"is_disabled":false,"rental_uris":{"android":"levelo://app?vid=b2045a61-de2c-46d1-820c-072b45134f1d","ios":"levelo://app?vid=b2045a61-de2c-46d1-820c-072b45134f1d"},"vehicle_type_id":"4","last_reported":1713298044,"current_range_meters":20800,"station_id":"ce4bgk12rcd13ifvqbi0","pricing_plan_id":"cebpf4jnsgd1na2vs0mg"},{"bike_id":"254919b5-ec82-4d99-90e2-ee3dfd5bef32","system_id":"levelo_inurba_marseille","lat":43.299243,"lon":5.37481,"is_reserved":false,"is_disabled":false,"rental_uris":{"android":"levelo://app?vid=254919b5-ec82-4d99-90e2-ee3dfd5bef32","ios":"levelo://app?vid=254919b5-ec82-4d99-90e2-ee3dfd5bef32"},"vehicle_type_id":"4","last_reported":1713298044,"current_range_meters":20000,"station_id":"ce4bgjh2rcd13ifvqbg0","pricing_plan_id":"cebpf4jnsgd1na2vs0mg"},{"bike_id":"8da31fef-c018-4460-a8a8-2ddc96a9ccff","system_id":"levelo_inurba_marseille","lat":43.304278,"lon":5.388868,"is_reserved":false,"is_disabled":false,"rental_uris":{"android":"levelo://app?vid=8da31fef-c018-4460-a8a8-2ddc96a9ccff","ios":"levelo://app?vid=8da31fef-c018-4460-a8a8-2ddc96a9ccff"},"vehicle_type_id":"4","last_reported":1713298044,"current_range_meters":31200,"station_id":"ce4bgk12rcd13ifvqbi0","pricing_plan_id":"cebpf4jnsgd1na2vs0mg"},{"bike_id":"f196b82c-c2ca-4db7-8b40-82a41e575fba","system_id":"levelo_inurba_marseille","lat":43.296263,"lon":5.377094,"is_reserved":false,"is_disabled":false,"rental_uris":{"android":"levelo://app?vid=f196b82c-c2ca-4db7-8b40-82a41e575fba","ios":"levelo://app?vid=f196b82c-c2ca-4db7-8b40-82a41e575fba"},"vehicle_type_id":"4","last_reported":1713298044,"current_range_meters":28400,"station_id":"ce4bgi92rcd13ifvqb90","pricing_plan_id":"cebpf4jnsgd1na2vs0mg"},{"bike_id":"a5e332a6-a3e8-4cea-a57c-2f0cf86debb9","system_id":"levelo_inurba_marseille","lat":43.299717,"lon":5.384845,"is_reserved":false,"is_disabled":false,"rental_uris":{"android":"levelo://app?vid=a5e332a6-a3e8-4cea-a57c-2f0cf86debb9","ios":"levelo://app?vid=a5e332a6-a3e8-4cea-a57c-2f0cf86debb9"},"vehicle_type_id":"4","last_reported":1713298044,"current_range_meters":0,"station_id":"ce4bgj92rcd13ifvqbd0","pricing_plan_id":"cebpf4jnsgd1na2vs0mg"},{"bike_id":"10c5bf31-32b0-43d3-b427-49345265ec9c","system_id":"levelo_inurba_marseille","lat":43.299724,"lon":5.384848,"is_reserved":false,"is_disabled":false,"rental_uris":{"android":"levelo://app?vid=10c5bf31-32b0-43d3-b427-49345265ec9c","ios":"levelo://app?vid=10c5bf31-32b0-43d3-b427-49345265ec9c"},"vehicle_type_id":"4","last_reported":1713298044,"current_range_meters":4800,"station_id":"ce4bgj92rcd13ifvqbd0","pricing_plan_id":"cebpf4jnsgd1na2vs0mg"},{"bike_id":"ed2d7f71-ed1f-4354-ba0c-19e42aed02b8","system_id":"levelo_inurba_marseille","lat":43.299222,"lon":5.365554,"is_reserved":false,"is_disabled":false,"rental_uris":{"android":"levelo://app?vid=ed2d7f71-ed1f-4354-ba0c-19e42aed02b8","ios":"levelo://app?vid=ed2d7f71-ed1f-4354-ba0c-19e42aed02b8"},"vehicle_type_id":"4","last_reported":1713298044,"current_range_meters":3600,"station_id":"ce4bgm92rcd13ifvqbr0","pricing_plan_id":"cebpf4jnsgd1na2vs0mg"},{"bike_id":"316fc5de-5224-47af-aaf3-8437e60246c2","system_id":"levelo_inurba_marseille","lat":43.279087,"lon":5.380114,"is_reserved":false,"is_disabled":false,"rental_uris":{"android":"levelo://app?vid=316fc5de-5224-47af-aaf3-8437e60246c2","ios":"levelo://app?vid=316fc5de-5224-47af-aaf3-8437e60246c2"},"vehicle_type_id":"4","last_reported":1713298044,"current_range_meters":400,"station_id":"ce4bhf92rcd13ifvqf50","pricing_plan_id":"cebpf4jnsgd1na2vs0mg"},{"bike_id":"9c9fd23b-8b6a-4fd0-9a35-339ebbca5f20","system_id":"levelo_inurba_marseille","lat":43.318281,"lon":5.391309,"is_reserved":false,"is_disabled":false,"rental_uris":{"android":"levelo://app?vid=9c9fd23b-8b6a-4fd0-9a35-339ebbca5f20","ios":"levelo://app?vid=9c9fd23b-8b6a-4fd0-9a35-339ebbca5f20"},"vehicle_type_id":"4","last_reported":1713298044,"current_range_meters":12800,"station_id":"","pricing_plan_id":"cebpf4jnsgd1na2vs0mg"},{"bike_id":"eccc45d1-4228-4d4f-b5b6-6d20197350c2","system_id":"levelo_inurba_marseille","lat":43.32367,"lon":5.388836,"is_reserved":false,"is_disabled":false,"rental_uris":{"android":"levelo://app?vid=eccc45d1-4228-4d4f-b5b6-6d20197350c2","ios":"levelo://app?vid=eccc45d1-4228-4d4f-b5b6-6d20197350c2"},"vehicle_type_id":"4","last_reported":1713298044,"current_range_meters":14800,"station_id":"ce4bhqp2rcd13ifvqhog","pricing_plan_id":"cebpf4jnsgd1na2vs0mg"},{"bike_id":"426c9628-f34b-41bc-8c6f-7f869f5292be","system_id":"levelo_inurba_marseille","lat":43.32372,"lon":5.38882,"is_reserved":false,"is_disabled":false,"rental_uris":{"android":"levelo://app?vid=426c9628-f34b-41bc-8c6f-7f869f5292be","ios":"levelo://app?vid=426c9628-f34b-41bc-8c6f-7f869f5292be"},"vehicle_type_id":"4","last_reported":1713298044,"current_range_meters":2400,"station_id":"ce4bhqp2rcd13ifvqhog","pricing_plan_id":"cebpf4jnsgd1na2vs0mg"},{"bike_id":"c2c80858-6471-44a7-a10e-6bab49267680","system_id":"levelo_inurba_marseille","lat":43.32367,"lon":5.388836,"is_reserved":false,"is_disabled":false,"rental_uris":{"android":"levelo://app?vid=c2c80858-6471-44a7-a10e-6bab49267680","ios":"levelo://app?vid=c2c80858-6471-44a7-a10e-6bab49267680"},"vehicle_type_id":"4","last_reported":1713298044,"current_range_meters":16800,"station_id":"ce4bhqp2rcd13ifvqhog","pricing_plan_id":"cebpf4jnsgd1na2vs0mg"},{"bike_id":"3c722733-05f4-4714-9cb1-3ed8b82e3eb7","system_id":"levelo_inurba_marseille","lat":43.3237,"lon":5.38885,"is_reserved":false,"is_disabled":false,"rental_uris":{"android":"levelo://app?vid=3c722733-05f4-4714-9cb1-3ed8b82e3eb7","ios":"levelo://app?vid=3c722733-05f4-4714-9cb1-3ed8b82e3eb7"},"vehicle_type_id":"4","last_reported":1713298044,"current_range_meters":5200,"station_id":"ce4bhqp2rcd13ifvqhog","pricing_plan_id":"cebpf4jnsgd1na2vs0mg"},{"bike_id":"ce23a27f-7b8e-4c39-a78f-ae8f3857897f","system_id":"levelo_inurba_marseille","lat":43.32367,"lon":5.388836,"is_reserved":false,"is_disabled":false,"rental_uris":{"android":"levelo://app?vid=ce23a27f-7b8e-4c39-a78f-ae8f3857897f","ios":"levelo://app?vid=ce23a27f-7b8e-4c39-a78f-ae8f3857897f"},"vehicle_type_id":"4","last_reported":1713298044,"current_range_meters":0,"station_id":"ce4bhqp2rcd13ifvqhog","pricing_plan_id":"cebpf4jnsgd1na2vs0mg"},{"bike_id":"b28dad6a-1e4b-458f-932a-d274310376e0","system_id":"levelo_inurba_marseille","lat":43.32367,"lon":5.388836,"is_reserved":false,"is_disabled":false,"rental_uris":{"android":"levelo://app?vid=b28dad6a-1e4b-458f-932a-d274310376e0","ios":"levelo://app?vid=b28dad6a-1e4b-458f-932a-d274310376e0"},"vehicle_type_id":"4","last_reported":1713298044,"current_range_meters":0,"station_id":"ce4bhqp2rcd13ifvqhog","pricing_plan_id":"cebpf4jnsgd1na2vs0mg"},{"bike_id":"47a0dc67-d91d-45c6-9d7b-b95c2bdf2283","system_id":"levelo_inurba_marseille","lat":43.32367,"lon":5.38895,"is_reserved":false,"is_disabled":false,"rental_uris":{"android":"levelo://app?vid=47a0dc67-d91d-45c6-9d7b-b95c2bdf2283","ios":"levelo://app?vid=47a0dc67-d91d-45c6-9d7b-b95c2bdf2283"},"vehicle_type_id":"4","last_reported":1713298044,"current_range_meters":4400,"station_id":"ce4bhqp2rcd13ifvqhog","pricing_plan_id":"cebpf4jnsgd1na2vs0mg"},{"bike_id":"095b53e6-66f2-4f07-b069-1c23b24fcd36","system_id":"levelo_inurba_marseille","lat":43.29601,"lon":5.381084,"is_reserved":false,"is_disabled":false,"rental_uris":{"android":"levelo://app?vid=095b53e6-66f2-4f07-b069-1c23b24fcd36","ios":"levelo://app?vid=095b53e6-66f2-4f07-b069-1c23b24fcd36"},"vehicle_type_id":"4","last_reported":1713298044,"current_range_meters":0,"station_id":"ce4bgl12rcd13ifvqbo0","pricing_plan_id":"cebpf4jnsgd1na2vs0mg"},{"bike_id":"57b16734-c144-4773-b775-60957e946155","system_id":"levelo_inurba_marseille","lat":43.29602,"lon":5.381084,"is_reserved":false,"is_disabled":false,"rental_uris":{"android":"levelo://app?vid=57b16734-c144-4773-b775-60957e946155","ios":"levelo://app?vid=57b16734-c144-4773-b775-60957e946155"},"vehicle_type_id":"4","last_reported":1713298044,"current_range_meters":12400,"station_id":"ce4bgl12rcd13ifvqbo0","pricing_plan_id":"cebpf4jnsgd1na2vs0mg"},{"bike_id":"92a5f144-2a3e-4a37-bce9-1264203aaa4b","system_id":"levelo_inurba_marseille","lat":43.293259,"lon":5.371586,"is_reserved":false,"is_disabled":false,"rental_uris":{"android":"levelo://app?vid=92a5f144-2a3e-4a37-bce9-1264203aaa4b","ios":"levelo://app?vid=92a5f144-2a3e-4a37-bce9-1264203aaa4b"},"vehicle_type_id":"4","last_reported":1713298044,"current_range_meters":30000,"station_id":"ce4bgh92rcd13ifvqb40","pricing_plan_id":"cebpf4jnsgd1na2vs0mg"},{"bike_id":"638d13dd-fb4d-4cb1-b349-44da81992b3c","system_id":"levelo_inurba_marseille","lat":43.29313,"lon":5.37175,"is_reserved":false,"is_disabled":false,"rental_uris":{"android":"levelo://app?vid=638d13dd-fb4d-4cb1-b349-44da81992b3c","ios":"levelo://app?vid=638d13dd-fb4d-4cb1-b349-44da81992b3c"},"vehicle_type_id":"4","last_reported":1713298044,"current_range_meters":10400,"station_id":"ce4bgh92rcd13ifvqb40","pricing_plan_id":"cebpf4jnsgd1na2vs0mg"},{"bike_id":"1a618111-35dd-406d-9570-14a3e83da299","system_id":"levelo_inurba_marseille","lat":43.293138,"lon":5.371827,"is_reserved":false,"is_disabled":false,"rental_uris":{"android":"levelo://app?vid=1a618111-35dd-406d-9570-14a3e83da299","ios":"levelo://app?vid=1a618111-35dd-406d-9570-14a3e83da299"},"vehicle_type_id":"4","last_reported":1713298044,"current_range_meters":2000,"station_id":"ce4bgh92rcd13ifvqb40","pricing_plan_id":"cebpf4jnsgd1na2vs0mg"},{"bike_id":"44c6020b-99d3-4077-9e19-7bc4510eca0c","system_id":"levelo_inurba_marseille","lat":43.29311,"lon":5.37174,"is_reserved":false,"is_disabled":false,"rental_uris":{"android":"levelo://app?vid=44c6020b-99d3-4077-9e19-7bc4510eca0c","ios":"levelo://app?vid=44c6020b-99d3-4077-9e19-7bc4510eca0c"},"vehicle_type_id":"4","last_reported":1713298044,"current_range_meters":18400,"station_id":"ce4bgh92rcd13ifvqb40","pricing_plan_id":"cebpf4jnsgd1na2vs0mg"},{"bike_id":"5bca02f8-407a-4a4a-88b6-c8be6abc1241","system_id":"levelo_inurba_marseille","lat":43.29309,"lon":5.37184,"is_reserved":false,"is_disabled":false,"rental_uris":{"android":"levelo://app?vid=5bca02f8-407a-4a4a-88b6-c8be6abc1241","ios":"levelo://app?vid=5bca02f8-407a-4a4a-88b6-c8be6abc1241"},"vehicle_type_id":"4","last_reported":1713298044,"current_range_meters":12400,"station_id":"ce4bgh92rcd13ifvqb40","pricing_plan_id":"cebpf4jnsgd1na2vs0mg"},{"bike_id":"243d4e5c-c005-4d54-b8b3-20de8516a5cd","system_id":"levelo_inurba_marseille","lat":43.29309,"lon":5.37185,"is_reserved":false,"is_disabled":false,"rental_uris":{"android":"levelo://app?vid=243d4e5c-c005-4d54-b8b3-20de8516a5cd","ios":"levelo://app?vid=243d4e5c-c005-4d54-b8b3-20de8516a5cd"},"vehicle_type_id":"4","last_reported":1713298044,"current_range_meters":0,"station_id":"ce4bgh92rcd13ifvqb40","pricing_plan_id":"cebpf4jnsgd1na2vs0mg"},{"bike_id":"a9dc53a9-24d4-4217-b584-77bab926082e","system_id":"levelo_inurba_marseille","lat":43.29308,"lon":5.37181,"is_reserved":false,"is_disabled":false,"rental_uris":{"android":"levelo://app?vid=a9dc53a9-24d4-4217-b584-77bab926082e","ios":"levelo://app?vid=a9dc53a9-24d4-4217-b584-77bab926082e"},"vehicle_type_id":"4","last_reported":1713298044,"current_range_meters":400,"station_id":"ce4bgh92rcd13ifvqb40","pricing_plan_id":"cebpf4jnsgd1na2vs0mg"},{"bike_id":"9be7d450-487d-481c-a410-c9a87cd4bfc6","system_id":"levelo_inurba_marseille","lat":43.293075,"lon":5.371885,"is_reserved":false,"is_disabled":false,"rental_uris":{"android":"levelo://app?vid=9be7d450-487d-481c-a410-c9a87cd4bfc6","ios":"levelo://app?vid=9be7d450-487d-481c-a410-c9a87cd4bfc6"},"vehicle_type_id":"4","last_reported":1713298044,"current_range_meters":18800,"station_id":"ce4bgh92rcd13ifvqb40","pricing_plan_id":"cebpf4jnsgd1na2vs0mg"},{"bike_id":"7ff002b3-60a1-458b-9567-37b344a8c033","system_id":"levelo_inurba_marseille","lat":43.292749,"lon":5.368402,"is_reserved":false,"is_disabled":false,"rental_uris":{"android":"levelo://app?vid=7ff002b3-60a1-458b-9567-37b344a8c033","ios":"levelo://app?vid=7ff002b3-60a1-458b-9567-37b344a8c033"},"vehicle_type_id":"4","last_reported":1713298044,"current_range_meters":5600,"station_id":"ce4bhbp2rcd13ifvqesg","pricing_plan_id":"cebpf4jnsgd1na2vs0mg"},{"bike_id":"05da6d87-6c1f-45fb-8cce-91a5b7d31595","system_id":"levelo_inurba_marseille","lat":43.29303,"lon":5.37181,"is_reserved":false,"is_disabled":false,"rental_uris":{"android":"levelo://app?vid=05da6d87-6c1f-45fb-8cce-91a5b7d31595","ios":"levelo://app?vid=05da6d87-6c1f-45fb-8cce-91a5b7d31595"},"vehicle_type_id":"4","last_reported":1713298044,"current_range_meters":17600,"station_id":"ce4bgh92rcd13ifvqb40","pricing_plan_id":"cebpf4jnsgd1na2vs0mg"},{"bike_id":"645c5c43-644c-470e-b494-c125c83b59fa","system_id":"levelo_inurba_marseille","lat":43.292749,"lon":5.368402,"is_reserved":false,"is_disabled":false,"rental_uris":{"android":"levelo://app?vid=645c5c43-644c-470e-b494-c125c83b59fa","ios":"levelo://app?vid=645c5c43-644c-470e-b494-c125c83b59fa"},"vehicle_type_id":"4","last_reported":1713298044,"current_range_meters":12800,"station_id":"ce4bhbp2rcd13ifvqesg","pricing_plan_id":"cebpf4jnsgd1na2vs0mg"},{"bike_id":"a525370d-e676-403f-a99d-35ac2a39b87b","system_id":"levelo_inurba_marseille","lat":43.29297,"lon":5.371697,"is_reserved":false,"is_disabled":false,"rental_uris":{"android":"levelo://app?vid=a525370d-e676-403f-a99d-35ac2a39b87b","ios":"levelo://app?vid=a525370d-e676-403f-a99d-35ac2a39b87b"},"vehicle_type_id":"4","last_reported":1713298044,"current_range_meters":27200,"station_id":"ce4bgh92rcd13ifvqb40","pricing_plan_id":"cebpf4jnsgd1na2vs0mg"},{"bike_id":"8834edb3-d679-4ea7-a57e-72c0720b91c2","system_id":"levelo_inurba_marseille","lat":43.292749,"lon":5.368402,"is_reserved":false,"is_disabled":false,"rental_uris":{"android":"levelo://app?vid=8834edb3-d679-4ea7-a57e-72c0720b91c2","ios":"levelo://app?vid=8834edb3-d679-4ea7-a57e-72c0720b91c2"},"vehicle_type_id":"4","last_reported":1713298044,"current_range_meters":3600,"station_id":"ce4bhbp2rcd13ifvqesg","pricing_plan_id":"cebpf4jnsgd1na2vs0mg"},{"bike_id":"f7ebd147-06a2-4381-a593-4e64dd38f622","system_id":"levelo_inurba_marseille","lat":43.305994,"lon":5.393687,"is_reserved":false,"is_disabled":false,"rental_uris":{"android":"levelo://app?vid=f7ebd147-06a2-4381-a593-4e64dd38f622","ios":"levelo://app?vid=f7ebd147-06a2-4381-a593-4e64dd38f622"},"vehicle_type_id":"4","last_reported":1713298044,"current_range_meters":30400,"station_id":"ce4bh0p2rcd13ifvqd80","pricing_plan_id":"cebpf4jnsgd1na2vs0mg"},{"bike_id":"1c57c41b-66b3-4933-9856-ff2b08c2518a","system_id":"levelo_inurba_marseille","lat":43.305994,"lon":5.393687,"is_reserved":false,"is_disabled":false,"rental_uris":{"android":"levelo://app?vid=1c57c41b-66b3-4933-9856-ff2b08c2518a","ios":"levelo://app?vid=1c57c41b-66b3-4933-9856-ff2b08c2518a"},"vehicle_type_id":"4","last_reported":1713298044,"current_range_meters":31200,"station_id":"ce4bh0p2rcd13ifvqd80","pricing_plan_id":"cebpf4jnsgd1na2vs0mg"},{"bike_id":"fc985a2c-01f4-412e-b516-c034b1a86a11","system_id":"levelo_inurba_marseille","lat":43.305994,"lon":5.393687,"is_reserved":false,"is_disabled":false,"rental_uris":{"android":"levelo://app?vid=fc985a2c-01f4-412e-b516-c034b1a86a11","ios":"levelo://app?vid=fc985a2c-01f4-412e-b516-c034b1a86a11"},"vehicle_type_id":"4","last_reported":1713298044,"current_range_meters":26400,"station_id":"ce4bh0p2rcd13ifvqd80","pricing_plan_id":"cebpf4jnsgd1na2vs0mg"},{"bike_id":"46eff108-a337-4e46-b719-18bcc01736c0","system_id":"levelo_inurba_marseille","lat":43.305994,"lon":5.393687,"is_reserved":false,"is_disabled":false,"rental_uris":{"android":"levelo://app?vid=46eff108-a337-4e46-b719-18bcc01736c0","ios":"levelo://app?vid=46eff108-a337-4e46-b719-18bcc01736c0"},"vehicle_type_id":"4","last_reported":1713298044,"current_range_meters":0,"station_id":"ce4bh0p2rcd13ifvqd80","pricing_plan_id":"cebpf4jnsgd1na2vs0mg"},{"bike_id":"ad1ceca6-32cf-416c-ad4d-64a96fddb19f","system_id":"levelo_inurba_marseille","lat":43.305994,"lon":5.393687,"is_reserved":false,"is_disabled":false,"rental_uris":{"android":"levelo://app?vid=ad1ceca6-32cf-416c-ad4d-64a96fddb19f","ios":"levelo://app?vid=ad1ceca6-32cf-416c-ad4d-64a96fddb19f"},"vehicle_type_id":"4","last_reported":1713298044,"current_range_meters":16000,"station_id":"ce4bh0p2rcd13ifvqd80","pricing_plan_id":"cebpf4jnsgd1na2vs0mg"},{"bike_id":"a8ccdf6e-f0d5-4771-a049-d80eff0cec97","system_id":"levelo_inurba_marseille","lat":43.305994,"lon":5.393687,"is_reserved":false,"is_disabled":false,"rental_uris":{"android":"levelo://app?vid=a8ccdf6e-f0d5-4771-a049-d80eff0cec97","ios":"levelo://app?vid=a8ccdf6e-f0d5-4771-a049-d80eff0cec97"},"vehicle_type_id":"4","last_reported":1713298044,"current_range_meters":0,"station_id":"ce4bh0p2rcd13ifvqd80","pricing_plan_id":"cebpf4jnsgd1na2vs0mg"},{"bike_id":"8fe5d32f-5789-4689-9357-c0add438c370","system_id":"levelo_inurba_marseille","lat":43.303002,"lon":5.392142,"is_reserved":false,"is_disabled":false,"rental_uris":{"android":"levelo://app?vid=8fe5d32f-5789-4689-9357-c0add438c370","ios":"levelo://app?vid=8fe5d32f-5789-4689-9357-c0add438c370"},"vehicle_type_id":"4","last_reported":1713298044,"current_range_meters":30000,"station_id":"ce4bgkh2rcd13ifvqbk0","pricing_plan_id":"cebpf4jnsgd1na2vs0mg"},{"bike_id":"b9a51437-2ff7-4fd4-a13d-e2fe1ebca1db","system_id":"levelo_inurba_marseille","lat":43.303002,"lon":5.392142,"is_reserved":false,"is_disabled":false,"rental_uris":{"android":"levelo://app?vid=b9a51437-2ff7-4fd4-a13d-e2fe1ebca1db","ios":"levelo://app?vid=b9a51437-2ff7-4fd4-a13d-e2fe1ebca1db"},"vehicle_type_id":"4","last_reported":1713298044,"current_range_meters":11600,"station_id":"ce4bgkh2rcd13ifvqbk0","pricing_plan_id":"cebpf4jnsgd1na2vs0mg"},{"bike_id":"dafc026b-11bb-482b-914b-bdea567db816","system_id":"levelo_inurba_marseille","lat":43.303002,"lon":5.392142,"is_reserved":false,"is_disabled":false,"rental_uris":{"android":"levelo://app?vid=dafc026b-11bb-482b-914b-bdea567db816","ios":"levelo://app?vid=dafc026b-11bb-482b-914b-bdea567db816"},"vehicle_type_id":"4","last_reported":1713298044,"current_range_meters":10000,"station_id":"ce4bgkh2rcd13ifvqbk0","pricing_plan_id":"cebpf4jnsgd1na2vs0mg"},{"bike_id":"fc6748d3-25a2-4db7-b9a1-4aa2a38255f3","system_id":"levelo_inurba_marseille","lat":43.303002,"lon":5.392142,"is_reserved":false,"is_disabled":false,"rental_uris":{"android":"levelo://app?vid=fc6748d3-25a2-4db7-b9a1-4aa2a38255f3","ios":"levelo://app?vid=fc6748d3-25a2-4db7-b9a1-4aa2a38255f3"},"vehicle_type_id":"4","last_reported":1713298044,"current_range_meters":7600,"station_id":"ce4bgkh2rcd13ifvqbk0","pricing_plan_id":"cebpf4jnsgd1na2vs0mg"},{"bike_id":"1af9435b-dc29-4195-b33f-15f563dc6fa4","system_id":"levelo_inurba_marseille","lat":43.303002,"lon":5.392142,"is_reserved":false,"is_disabled":false,"rental_uris":{"android":"levelo://app?vid=1af9435b-dc29-4195-b33f-15f563dc6fa4","ios":"levelo://app?vid=1af9435b-dc29-4195-b33f-15f563dc6fa4"},"vehicle_type_id":"4","last_reported":1713298044,"current_range_meters":4800,"station_id":"ce4bgkh2rcd13ifvqbk0","pricing_plan_id":"cebpf4jnsgd1na2vs0mg"},{"bike_id":"a5828bba-67ed-4ef6-829e-164428f7d3d7","system_id":"levelo_inurba_marseille","lat":43.302973,"lon":5.39214,"is_reserved":false,"is_disabled":false,"rental_uris":{"android":"levelo://app?vid=a5828bba-67ed-4ef6-829e-164428f7d3d7","ios":"levelo://app?vid=a5828bba-67ed-4ef6-829e-164428f7d3d7"},"vehicle_type_id":"4","last_reported":1713298044,"current_range_meters":12400,"station_id":"ce4bgkh2rcd13ifvqbk0","pricing_plan_id":"cebpf4jnsgd1na2vs0mg"},{"bike_id":"170cf310-0898-4476-8181-0a6a84ccd5ac","system_id":"levelo_inurba_marseille","lat":43.2936,"lon":5.37835,"is_reserved":false,"is_disabled":false,"rental_uris":{"android":"levelo://app?vid=170cf310-0898-4476-8181-0a6a84ccd5ac","ios":"levelo://app?vid=170cf310-0898-4476-8181-0a6a84ccd5ac"},"vehicle_type_id":"4","last_reported":1713298044,"current_range_meters":16000,"station_id":"ce4bgjh2rcd13ifvqbf0","pricing_plan_id":"cebpf4jnsgd1na2vs0mg"},{"bike_id":"4a55112f-7f17-4bcb-97d5-1ec80d9de8ec","system_id":"levelo_inurba_marseille","lat":43.296337,"lon":5.384517,"is_reserved":false,"is_disabled":false,"rental_uris":{"android":"levelo://app?vid=4a55112f-7f17-4bcb-97d5-1ec80d9de8ec","ios":"levelo://app?vid=4a55112f-7f17-4bcb-97d5-1ec80d9de8ec"},"vehicle_type_id":"4","last_reported":1713298044,"current_range_meters":15200,"station_id":"ce4bh012rcd13ifvqcv0","pricing_plan_id":"cebpf4jnsgd1na2vs0mg"},{"bike_id":"e039539c-7f6a-42a4-8b24-4b40a052a411","system_id":"levelo_inurba_marseille","lat":43.293694,"lon":5.378442,"is_reserved":false,"is_disabled":false,"rental_uris":{"android":"levelo://app?vid=e039539c-7f6a-42a4-8b24-4b40a052a411","ios":"levelo://app?vid=e039539c-7f6a-42a4-8b24-4b40a052a411"},"vehicle_type_id":"4","last_reported":1713298044,"current_range_meters":8800,"station_id":"","pricing_plan_id":"cebpf4jnsgd1na2vs0mg"},{"bike_id":"c986284c-618a-4d53-945a-cc0298b2a72a","system_id":"levelo_inurba_marseille","lat":43.303002,"lon":5.392142,"is_reserved":false,"is_disabled":false,"rental_uris":{"android":"levelo://app?vid=c986284c-618a-4d53-945a-cc0298b2a72a","ios":"levelo://app?vid=c986284c-618a-4d53-945a-cc0298b2a72a"},"vehicle_type_id":"4","last_reported":1713298044,"current_range_meters":7200,"station_id":"ce4bgkh2rcd13ifvqbk0","pricing_plan_id":"cebpf4jnsgd1na2vs0mg"},{"bike_id":"5c136aa4-9346-4e47-905b-2d99afe07867","system_id":"levelo_inurba_marseille","lat":43.300852,"lon":5.390859,"is_reserved":false,"is_disabled":false,"rental_uris":{"android":"levelo://app?vid=5c136aa4-9346-4e47-905b-2d99afe07867","ios":"levelo://app?vid=5c136aa4-9346-4e47-905b-2d99afe07867"},"vehicle_type_id":"4","last_reported":1713298044,"current_range_meters":17200,"station_id":"ce4bh192rcd13ifvqdb0","pricing_plan_id":"cebpf4jnsgd1na2vs0mg"},{"bike_id":"d486ddaf-86cd-4260-b4da-169926ceb2be","system_id":"levelo_inurba_marseille","lat":43.292311,"lon":5.360731,"is_reserved":false,"is_disabled":false,"rental_uris":{"android":"levelo://app?vid=d486ddaf-86cd-4260-b4da-169926ceb2be","ios":"levelo://app?vid=d486ddaf-86cd-4260-b4da-169926ceb2be"},"vehicle_type_id":"4","last_reported":1713298044,"current_range_meters":5200,"station_id":"ce4bhbh2rcd13ifvqeqg","pricing_plan_id":"cebpf4jnsgd1na2vs0mg"},{"bike_id":"4a2b7c83-c8d1-4c22-b2e9-ca782fdd2272","system_id":"levelo_inurba_marseille","lat":43.300852,"lon":5.390859,"is_reserved":false,"is_disabled":false,"rental_uris":{"android":"levelo://app?vid=4a2b7c83-c8d1-4c22-b2e9-ca782fdd2272","ios":"levelo://app?vid=4a2b7c83-c8d1-4c22-b2e9-ca782fdd2272"},"vehicle_type_id":"4","last_reported":1713298044,"current_range_meters":13600,"station_id":"ce4bh192rcd13ifvqdb0","pricing_plan_id":"cebpf4jnsgd1na2vs0mg"},{"bike_id":"3512ec6f-7e08-47bc-a3ff-a7045a2924d8","system_id":"levelo_inurba_marseille","lat":43.291675,"lon":5.371583,"is_reserved":false,"is_disabled":false,"rental_uris":{"android":"levelo://app?vid=3512ec6f-7e08-47bc-a3ff-a7045a2924d8","ios":"levelo://app?vid=3512ec6f-7e08-47bc-a3ff-a7045a2924d8"},"vehicle_type_id":"4","last_reported":1713298044,"current_range_meters":0,"station_id":"ce4bha92rcd13ifvqeh0","pricing_plan_id":"cebpf4jnsgd1na2vs0mg"},{"bike_id":"138caa63-9ad8-4807-bd6a-3f4582dc1c5e","system_id":"levelo_inurba_marseille","lat":43.298764,"lon":5.388973,"is_reserved":false,"is_disabled":false,"rental_uris":{"android":"levelo://app?vid=138caa63-9ad8-4807-bd6a-3f4582dc1c5e","ios":"levelo://app?vid=138caa63-9ad8-4807-bd6a-3f4582dc1c5e"},"vehicle_type_id":"4","last_reported":1713298044,"current_range_meters":7600,"station_id":"ce4bh392rcd13ifvqdl0","pricing_plan_id":"cebpf4jnsgd1na2vs0mg"},{"bike_id":"0219833f-f7c2-41d1-af23-7294ef0bf8fa","system_id":"levelo_inurba_marseille","lat":43.298764,"lon":5.388973,"is_reserved":false,"is_disabled":false,"rental_uris":{"android":"levelo://app?vid=0219833f-f7c2-41d1-af23-7294ef0bf8fa","ios":"levelo://app?vid=0219833f-f7c2-41d1-af23-7294ef0bf8fa"},"vehicle_type_id":"4","last_reported":1713298044,"current_range_meters":19600,"station_id":"ce4bh392rcd13ifvqdl0","pricing_plan_id":"cebpf4jnsgd1na2vs0mg"},{"bike_id":"1c7b0bf3-2cdf-4733-9207-a78a2efc0f3f","system_id":"levelo_inurba_marseille","lat":43.29878,"lon":5.3891,"is_reserved":false,"is_disabled":false,"rental_uris":{"android":"levelo://app?vid=1c7b0bf3-2cdf-4733-9207-a78a2efc0f3f","ios":"levelo://app?vid=1c7b0bf3-2cdf-4733-9207-a78a2efc0f3f"},"vehicle_type_id":"4","last_reported":1713298044,"current_range_meters":25200,"station_id":"ce4bh392rcd13ifvqdl0","pricing_plan_id":"cebpf4jnsgd1na2vs0mg"},{"bike_id":"0b2656e1-15fa-4172-80d0-5d66bbd42976","system_id":"levelo_inurba_marseille","lat":43.298787,"lon":5.389138,"is_reserved":false,"is_disabled":false,"rental_uris":{"android":"levelo://app?vid=0b2656e1-15fa-4172-80d0-5d66bbd42976","ios":"levelo://app?vid=0b2656e1-15fa-4172-80d0-5d66bbd42976"},"vehicle_type_id":"4","last_reported":1713298044,"current_range_meters":14000,"station_id":"ce4bh392rcd13ifvqdl0","pricing_plan_id":"cebpf4jnsgd1na2vs0mg"},{"bike_id":"f55ddd19-516c-4e0a-b6c9-0fb6f1b24bdd","system_id":"levelo_inurba_marseille","lat":43.298764,"lon":5.388973,"is_reserved":false,"is_disabled":false,"rental_uris":{"android":"levelo://app?vid=f55ddd19-516c-4e0a-b6c9-0fb6f1b24bdd","ios":"levelo://app?vid=f55ddd19-516c-4e0a-b6c9-0fb6f1b24bdd"},"vehicle_type_id":"4","last_reported":1713298044,"current_range_meters":2400,"station_id":"ce4bh392rcd13ifvqdl0","pricing_plan_id":"cebpf4jnsgd1na2vs0mg"},{"bike_id":"ccac7258-4fa3-4583-bc3a-f7988b2c71eb","system_id":"levelo_inurba_marseille","lat":43.309047,"lon":5.396551,"is_reserved":false,"is_disabled":false,"rental_uris":{"android":"levelo://app?vid=ccac7258-4fa3-4583-bc3a-f7988b2c71eb","ios":"levelo://app?vid=ccac7258-4fa3-4583-bc3a-f7988b2c71eb"},"vehicle_type_id":"4","last_reported":1713298044,"current_range_meters":9600,"station_id":"ce4bh012rcd13ifvqcv0","pricing_plan_id":"cebpf4jnsgd1na2vs0mg"},{"bike_id":"79ea102b-51c4-4ad9-8593-04068fc9f439","system_id":"levelo_inurba_marseille","lat":43.30889,"lon":5.39641,"is_reserved":false,"is_disabled":false,"rental_uris":{"android":"levelo://app?vid=79ea102b-51c4-4ad9-8593-04068fc9f439","ios":"levelo://app?vid=79ea102b-51c4-4ad9-8593-04068fc9f439"},"vehicle_type_id":"4","last_reported":1713298044,"current_range_meters":31200,"station_id":"ce4bh012rcd13ifvqcv0","pricing_plan_id":"cebpf4jnsgd1na2vs0mg"},{"bike_id":"3480276b-cb29-483d-8361-c5f8967b17cd","system_id":"levelo_inurba_marseille","lat":43.30888,"lon":5.39642,"is_reserved":false,"is_disabled":false,"rental_uris":{"android":"levelo://app?vid=3480276b-cb29-483d-8361-c5f8967b17cd","ios":"levelo://app?vid=3480276b-cb29-483d-8361-c5f8967b17cd"},"vehicle_type_id":"4","last_reported":1713298044,"current_range_meters":22000,"station_id":"ce4bh012rcd13ifvqcv0","pricing_plan_id":"cebpf4jnsgd1na2vs0mg"},{"bike_id":"526bd114-1afe-43fd-94d8-88378818bf4a","system_id":"levelo_inurba_marseille","lat":43.309047,"lon":5.396551,"is_reserved":false,"is_disabled":false,"rental_uris":{"android":"levelo://app?vid=526bd114-1afe-43fd-94d8-88378818bf4a","ios":"levelo://app?vid=526bd114-1afe-43fd-94d8-88378818bf4a"},"vehicle_type_id":"4","last_reported":1713298044,"current_range_meters":23200,"station_id":"ce4bh012rcd13ifvqcv0","pricing_plan_id":"cebpf4jnsgd1na2vs0mg"},{"bike_id":"d8c06d14-bb8d-46bb-b3f1-a0b9bf0f9fe2","system_id":"levelo_inurba_marseille","lat":43.313291,"lon":5.396838,"is_reserved":false,"is_disabled":false,"rental_uris":{"android":"levelo://app?vid=d8c06d14-bb8d-46bb-b3f1-a0b9bf0f9fe2","ios":"levelo://app?vid=d8c06d14-bb8d-46bb-b3f1-a0b9bf0f9fe2"},"vehicle_type_id":"4","last_reported":1713298044,"current_range_meters":12000,"station_id":"ce4bgvp2rcd13ifvqcu0","pricing_plan_id":"cebpf4jnsgd1na2vs0mg"},{"bike_id":"4335df12-a355-4cc5-9887-a15e53995467","system_id":"levelo_inurba_marseille","lat":43.31325,"lon":5.39692,"is_reserved":false,"is_disabled":false,"rental_uris":{"android":"levelo://app?vid=4335df12-a355-4cc5-9887-a15e53995467","ios":"levelo://app?vid=4335df12-a355-4cc5-9887-a15e53995467"},"vehicle_type_id":"4","last_reported":1713298044,"current_range_meters":5600,"station_id":"ce4bgvp2rcd13ifvqcu0","pricing_plan_id":"cebpf4jnsgd1na2vs0mg"},{"bike_id":"f03a9a57-6e85-4131-8d64-321137bbaa9b","system_id":"levelo_inurba_marseille","lat":43.3133,"lon":5.39693,"is_reserved":false,"is_disabled":false,"rental_uris":{"android":"levelo://app?vid=f03a9a57-6e85-4131-8d64-321137bbaa9b","ios":"levelo://app?vid=f03a9a57-6e85-4131-8d64-321137bbaa9b"},"vehicle_type_id":"4","last_reported":1713298044,"current_range_meters":0,"station_id":"ce4bgvp2rcd13ifvqcu0","pricing_plan_id":"cebpf4jnsgd1na2vs0mg"},{"bike_id":"703c458b-7e66-4fa0-a317-e740b77ad2d8","system_id":"levelo_inurba_marseille","lat":43.308912,"lon":5.396475,"is_reserved":false,"is_disabled":false,"rental_uris":{"android":"levelo://app?vid=703c458b-7e66-4fa0-a317-e740b77ad2d8","ios":"levelo://app?vid=703c458b-7e66-4fa0-a317-e740b77ad2d8"},"vehicle_type_id":"4","last_reported":1713298044,"current_range_meters":9200,"station_id":"ce4bh012rcd13ifvqcv0","pricing_plan_id":"cebpf4jnsgd1na2vs0mg"},{"bike_id":"10de1db6-c334-4abb-85e8-1840a1d7f3ee","system_id":"levelo_inurba_marseille","lat":43.308759,"lon":5.39644,"is_reserved":false,"is_disabled":false,"rental_uris":{"android":"levelo://app?vid=10de1db6-c334-4abb-85e8-1840a1d7f3ee","ios":"levelo://app?vid=10de1db6-c334-4abb-85e8-1840a1d7f3ee"},"vehicle_type_id":"4","last_reported":1713298044,"current_range_meters":17600,"station_id":"ce4bh012rcd13ifvqcv0","pricing_plan_id":"cebpf4jnsgd1na2vs0mg"},{"bike_id":"82b2f9b4-2307-4a6e-b425-df72fed23079","system_id":"levelo_inurba_marseille","lat":43.309047,"lon":5.396551,"is_reserved":false,"is_disabled":false,"rental_uris":{"android":"levelo://app?vid=82b2f9b4-2307-4a6e-b425-df72fed23079","ios":"levelo://app?vid=82b2f9b4-2307-4a6e-b425-df72fed23079"},"vehicle_type_id":"4","last_reported":1713298044,"current_range_meters":31200,"station_id":"ce4bh012rcd13ifvqcv0","pricing_plan_id":"cebpf4jnsgd1na2vs0mg"},{"bike_id":"727eeda0-23c2-41be-a7a5-56ed63dd5ea4","system_id":"levelo_inurba_marseille","lat":43.291994,"lon":5.357886,"is_reserved":false,"is_disabled":false,"rental_uris":{"android":"levelo://app?vid=727eeda0-23c2-41be-a7a5-56ed63dd5ea4","ios":"levelo://app?vid=727eeda0-23c2-41be-a7a5-56ed63dd5ea4"},"vehicle_type_id":"4","last_reported":1713298044,"current_range_meters":19600,"station_id":"ce4bhb12rcd13ifvqel0","pricing_plan_id":"cebpf4jnsgd1na2vs0mg"},{"bike_id":"31174619-56d9-4ad5-ae86-df885e76f661","system_id":"levelo_inurba_marseille","lat":43.309047,"lon":5.396551,"is_reserved":false,"is_disabled":false,"rental_uris":{"android":"levelo://app?vid=31174619-56d9-4ad5-ae86-df885e76f661","ios":"levelo://app?vid=31174619-56d9-4ad5-ae86-df885e76f661"},"vehicle_type_id":"4","last_reported":1713298044,"current_range_meters":31200,"station_id":"ce4bh012rcd13ifvqcv0","pricing_plan_id":"cebpf4jnsgd1na2vs0mg"},{"bike_id":"a680442e-8028-4fc1-b687-e24fcbdc99fe","system_id":"levelo_inurba_marseille","lat":43.308783,"lon":5.396523,"is_reserved":false,"is_disabled":false,"rental_uris":{"android":"levelo://app?vid=a680442e-8028-4fc1-b687-e24fcbdc99fe","ios":"levelo://app?vid=a680442e-8028-4fc1-b687-e24fcbdc99fe"},"vehicle_type_id":"4","last_reported":1713298044,"current_range_meters":4000,"station_id":"ce4bh012rcd13ifvqcv0","pricing_plan_id":"cebpf4jnsgd1na2vs0mg"},{"bike_id":"0e094063-62c6-49a4-9d8f-35e044b3a48f","system_id":"levelo_inurba_marseille","lat":43.3133,"lon":5.39701,"is_reserved":false,"is_disabled":false,"rental_uris":{"android":"levelo://app?vid=0e094063-62c6-49a4-9d8f-35e044b3a48f","ios":"levelo://app?vid=0e094063-62c6-49a4-9d8f-35e044b3a48f"},"vehicle_type_id":"4","last_reported":1713298044,"current_range_meters":18000,"station_id":"ce4bgvp2rcd13ifvqcu0","pricing_plan_id":"cebpf4jnsgd1na2vs0mg"},{"bike_id":"c527a466-0f32-4e6b-8b1a-efcb1c1e807f","system_id":"levelo_inurba_marseille","lat":43.30893,"lon":5.39656,"is_reserved":false,"is_disabled":false,"rental_uris":{"android":"levelo://app?vid=c527a466-0f32-4e6b-8b1a-efcb1c1e807f","ios":"levelo://app?vid=c527a466-0f32-4e6b-8b1a-efcb1c1e807f"},"vehicle_type_id":"4","last_reported":1713298044,"current_range_meters":31200,"station_id":"ce4bh012rcd13ifvqcv0","pricing_plan_id":"cebpf4jnsgd1na2vs0mg"},{"bike_id":"836b0e45-7d9f-43f2-8f7e-2ee5170cc957","system_id":"levelo_inurba_marseille","lat":43.309038,"lon":5.396546,"is_reserved":false,"is_disabled":false,"rental_uris":{"android":"levelo://app?vid=836b0e45-7d9f-43f2-8f7e-2ee5170cc957","ios":"levelo://app?vid=836b0e45-7d9f-43f2-8f7e-2ee5170cc957"},"vehicle_type_id":"4","last_reported":1713298044,"current_range_meters":30800,"station_id":"ce4bh012rcd13ifvqcv0","pricing_plan_id":"cebpf4jnsgd1na2vs0mg"},{"bike_id":"c491ee7e-8dc0-460b-beba-0594b547e041","system_id":"levelo_inurba_marseille","lat":43.309038,"lon":5.396546,"is_reserved":false,"is_disabled":false,"rental_uris":{"android":"levelo://app?vid=c491ee7e-8dc0-460b-beba-0594b547e041","ios":"levelo://app?vid=c491ee7e-8dc0-460b-beba-0594b547e041"},"vehicle_type_id":"4","last_reported":1713298044,"current_range_meters":8000,"station_id":"ce4bh012rcd13ifvqcv0","pricing_plan_id":"cebpf4jnsgd1na2vs0mg"},{"bike_id":"2e021c31-cee2-442e-bccc-7ca205e87a39","system_id":"levelo_inurba_marseille","lat":43.30884,"lon":5.39659,"is_reserved":false,"is_disabled":false,"rental_uris":{"android":"levelo://app?vid=2e021c31-cee2-442e-bccc-7ca205e87a39","ios":"levelo://app?vid=2e021c31-cee2-442e-bccc-7ca205e87a39"},"vehicle_type_id":"4","last_reported":1713298044,"current_range_meters":19600,"station_id":"ce4bh012rcd13ifvqcv0","pricing_plan_id":"cebpf4jnsgd1na2vs0mg"},{"bike_id":"ae8c1dae-10b5-4410-bc22-5f190c98e76f","system_id":"levelo_inurba_marseille","lat":43.309047,"lon":5.396551,"is_reserved":false,"is_disabled":false,"rental_uris":{"android":"levelo://app?vid=ae8c1dae-10b5-4410-bc22-5f190c98e76f","ios":"levelo://app?vid=ae8c1dae-10b5-4410-bc22-5f190c98e76f"},"vehicle_type_id":"4","last_reported":1713298044,"current_range_meters":26000,"station_id":"ce4bh012rcd13ifvqcv0","pricing_plan_id":"cebpf4jnsgd1na2vs0mg"},{"bike_id":"7a9e99b8-8fbc-486f-9101-bb428699d0c5","system_id":"levelo_inurba_marseille","lat":43.309047,"lon":5.396551,"is_reserved":false,"is_disabled":false,"rental_uris":{"android":"levelo://app?vid=7a9e99b8-8fbc-486f-9101-bb428699d0c5","ios":"levelo://app?vid=7a9e99b8-8fbc-486f-9101-bb428699d0c5"},"vehicle_type_id":"4","last_reported":1713298044,"current_range_meters":31200,"station_id":"ce4bh012rcd13ifvqcv0","pricing_plan_id":"cebpf4jnsgd1na2vs0mg"},{"bike_id":"30e6d694-e6fe-4703-b927-5c7a693e2151","system_id":"levelo_inurba_marseille","lat":43.308827,"lon":5.396608,"is_reserved":false,"is_disabled":false,"rental_uris":{"android":"levelo://app?vid=30e6d694-e6fe-4703-b927-5c7a693e2151","ios":"levelo://app?vid=30e6d694-e6fe-4703-b927-5c7a693e2151"},"vehicle_type_id":"4","last_reported":1713298044,"current_range_meters":12800,"station_id":"ce4bh012rcd13ifvqcv0","pricing_plan_id":"cebpf4jnsgd1na2vs0mg"},{"bike_id":"926b5fca-d41c-445d-99b2-ac44ab483bfc","system_id":"levelo_inurba_marseille","lat":43.309047,"lon":5.396551,"is_reserved":false,"is_disabled":false,"rental_uris":{"android":"levelo://app?vid=926b5fca-d41c-445d-99b2-ac44ab483bfc","ios":"levelo://app?vid=926b5fca-d41c-445d-99b2-ac44ab483bfc"},"vehicle_type_id":"4","last_reported":1713298044,"current_range_meters":28000,"station_id":"ce4bh012rcd13ifvqcv0","pricing_plan_id":"cebpf4jnsgd1na2vs0mg"},{"bike_id":"21203241-0750-4d56-b01b-325793d5590e","system_id":"levelo_inurba_marseille","lat":43.309047,"lon":5.396551,"is_reserved":false,"is_disabled":false,"rental_uris":{"android":"levelo://app?vid=21203241-0750-4d56-b01b-325793d5590e","ios":"levelo://app?vid=21203241-0750-4d56-b01b-325793d5590e"},"vehicle_type_id":"4","last_reported":1713298044,"current_range_meters":1600,"station_id":"ce4bh012rcd13ifvqcv0","pricing_plan_id":"cebpf4jnsgd1na2vs0mg"},{"bike_id":"64837d9a-a8d4-4bee-bd19-2c91778f813d","system_id":"levelo_inurba_marseille","lat":43.29529,"lon":5.385581,"is_reserved":false,"is_disabled":false,"rental_uris":{"android":"levelo://app?vid=64837d9a-a8d4-4bee-bd19-2c91778f813d","ios":"levelo://app?vid=64837d9a-a8d4-4bee-bd19-2c91778f813d"},"vehicle_type_id":"4","last_reported":1713298044,"current_range_meters":10400,"station_id":"ce4bgih2rcd13ifvqba0","pricing_plan_id":"cebpf4jnsgd1na2vs0mg"},{"bike_id":"fbb786c4-789a-459f-aac6-c01cba05f181","system_id":"levelo_inurba_marseille","lat":43.30642,"lon":5.401031,"is_reserved":false,"is_disabled":false,"rental_uris":{"android":"levelo://app?vid=fbb786c4-789a-459f-aac6-c01cba05f181","ios":"levelo://app?vid=fbb786c4-789a-459f-aac6-c01cba05f181"},"vehicle_type_id":"4","last_reported":1713298044,"current_range_meters":12000,"station_id":"ce4bh112rcd13ifvqda0","pricing_plan_id":"cebpf4jnsgd1na2vs0mg"},{"bike_id":"97c52a3b-35a5-4805-86c4-103e4d0fa476","system_id":"levelo_inurba_marseille","lat":43.29529,"lon":5.385581,"is_reserved":false,"is_disabled":false,"rental_uris":{"android":"levelo://app?vid=97c52a3b-35a5-4805-86c4-103e4d0fa476","ios":"levelo://app?vid=97c52a3b-35a5-4805-86c4-103e4d0fa476"},"vehicle_type_id":"4","last_reported":1713298044,"current_range_meters":21200,"station_id":"ce4bgih2rcd13ifvqba0","pricing_plan_id":"cebpf4jnsgd1na2vs0mg"},{"bike_id":"98c123bf-2b5e-440c-8dff-345941245341","system_id":"levelo_inurba_marseille","lat":43.29529,"lon":5.385581,"is_reserved":false,"is_disabled":false,"rental_uris":{"android":"levelo://app?vid=98c123bf-2b5e-440c-8dff-345941245341","ios":"levelo://app?vid=98c123bf-2b5e-440c-8dff-345941245341"},"vehicle_type_id":"4","last_reported":1713298044,"current_range_meters":6800,"station_id":"ce4bgih2rcd13ifvqba0","pricing_plan_id":"cebpf4jnsgd1na2vs0mg"},{"bike_id":"f576117b-49c6-4ec3-a5a8-83d1a6731266","system_id":"levelo_inurba_marseille","lat":43.29528,"lon":5.38549,"is_reserved":false,"is_disabled":false,"rental_uris":{"android":"levelo://app?vid=f576117b-49c6-4ec3-a5a8-83d1a6731266","ios":"levelo://app?vid=f576117b-49c6-4ec3-a5a8-83d1a6731266"},"vehicle_type_id":"4","last_reported":1713298044,"current_range_meters":6400,"station_id":"ce4bgih2rcd13ifvqba0","pricing_plan_id":"cebpf4jnsgd1na2vs0mg"},{"bike_id":"c357e6b9-1898-49ac-bf88-430b5982d78a","system_id":"levelo_inurba_marseille","lat":43.302008,"lon":5.394694,"is_reserved":false,"is_disabled":false,"rental_uris":{"android":"levelo://app?vid=c357e6b9-1898-49ac-bf88-430b5982d78a","ios":"levelo://app?vid=c357e6b9-1898-49ac-bf88-430b5982d78a"},"vehicle_type_id":"4","last_reported":1713298044,"current_range_meters":30800,"station_id":"ce4bh0p2rcd13ifvqd70","pricing_plan_id":"cebpf4jnsgd1na2vs0mg"},{"bike_id":"67378943-fe24-4aa8-89f9-2563a6372b7f","system_id":"levelo_inurba_marseille","lat":43.302008,"lon":5.394694,"is_reserved":false,"is_disabled":false,"rental_uris":{"android":"levelo://app?vid=67378943-fe24-4aa8-89f9-2563a6372b7f","ios":"levelo://app?vid=67378943-fe24-4aa8-89f9-2563a6372b7f"},"vehicle_type_id":"4","last_reported":1713298044,"current_range_meters":26800,"station_id":"ce4bh0p2rcd13ifvqd70","pricing_plan_id":"cebpf4jnsgd1na2vs0mg"},{"bike_id":"3bab066a-051c-4a33-a70d-4a52b0e078a0","system_id":"levelo_inurba_marseille","lat":43.290624,"lon":5.359245,"is_reserved":false,"is_disabled":false,"rental_uris":{"android":"levelo://app?vid=3bab066a-051c-4a33-a70d-4a52b0e078a0","ios":"levelo://app?vid=3bab066a-051c-4a33-a70d-4a52b0e078a0"},"vehicle_type_id":"4","last_reported":1713298044,"current_range_meters":12000,"station_id":"ce4bha92rcd13ifvqeg0","pricing_plan_id":"cebpf4jnsgd1na2vs0mg"},{"bike_id":"1f9ceb20-ae42-4c29-a362-fb8a15b40302","system_id":"levelo_inurba_marseille","lat":43.290624,"lon":5.359245,"is_reserved":false,"is_disabled":false,"rental_uris":{"android":"levelo://app?vid=1f9ceb20-ae42-4c29-a362-fb8a15b40302","ios":"levelo://app?vid=1f9ceb20-ae42-4c29-a362-fb8a15b40302"},"vehicle_type_id":"4","last_reported":1713298044,"current_range_meters":14000,"station_id":"ce4bha92rcd13ifvqeg0","pricing_plan_id":"cebpf4jnsgd1na2vs0mg"},{"bike_id":"0881a3ba-1cb1-43b7-bd3b-9bd36a7a5e8f","system_id":"levelo_inurba_marseille","lat":43.290631,"lon":5.359244,"is_reserved":false,"is_disabled":false,"rental_uris":{"android":"levelo://app?vid=0881a3ba-1cb1-43b7-bd3b-9bd36a7a5e8f","ios":"levelo://app?vid=0881a3ba-1cb1-43b7-bd3b-9bd36a7a5e8f"},"vehicle_type_id":"4","last_reported":1713298044,"current_range_meters":12800,"station_id":"ce4bha92rcd13ifvqeg0","pricing_plan_id":"cebpf4jnsgd1na2vs0mg"},{"bike_id":"763a6221-ac5d-43f9-b07d-12f6706159be","system_id":"levelo_inurba_marseille","lat":43.287184,"lon":5.37937,"is_reserved":false,"is_disabled":false,"rental_uris":{"android":"levelo://app?vid=763a6221-ac5d-43f9-b07d-12f6706159be","ios":"levelo://app?vid=763a6221-ac5d-43f9-b07d-12f6706159be"},"vehicle_type_id":"4","last_reported":1713298044,"current_range_meters":30400,"station_id":"ce4bh9p2rcd13ifvqec0","pricing_plan_id":"cebpf4jnsgd1na2vs0mg"},{"bike_id":"6ddba848-e78d-4049-b159-557739513b34","system_id":"levelo_inurba_marseille","lat":43.29417,"lon":5.38629,"is_reserved":false,"is_disabled":false,"rental_uris":{"android":"levelo://app?vid=6ddba848-e78d-4049-b159-557739513b34","ios":"levelo://app?vid=6ddba848-e78d-4049-b159-557739513b34"},"vehicle_type_id":"4","last_reported":1713298044,"current_range_meters":6000,"station_id":"ce4bh2p2rcd13ifvqdi0","pricing_plan_id":"cebpf4jnsgd1na2vs0mg"},{"bike_id":"8595cfb5-4d0b-4842-a879-95a935576dfe","system_id":"levelo_inurba_marseille","lat":43.294162,"lon":5.386292,"is_reserved":false,"is_disabled":false,"rental_uris":{"android":"levelo://app?vid=8595cfb5-4d0b-4842-a879-95a935576dfe","ios":"levelo://app?vid=8595cfb5-4d0b-4842-a879-95a935576dfe"},"vehicle_type_id":"4","last_reported":1713298044,"current_range_meters":2400,"station_id":"ce4bh2h2rcd13ifvqdh0","pricing_plan_id":"cebpf4jnsgd1na2vs0mg"},{"bike_id":"ff2eb203-129d-4323-92b2-a5de74f8e48d","system_id":"levelo_inurba_marseille","lat":43.289468,"lon":5.363719,"is_reserved":false,"is_disabled":false,"rental_uris":{"android":"levelo://app?vid=ff2eb203-129d-4323-92b2-a5de74f8e48d","ios":"levelo://app?vid=ff2eb203-129d-4323-92b2-a5de74f8e48d"},"vehicle_type_id":"4","last_reported":1713298044,"current_range_meters":6000,"station_id":"ce4bhc92rcd13ifvqetg","pricing_plan_id":"cebpf4jnsgd1na2vs0mg"},{"bike_id":"fea566dc-a675-4d37-bfc9-07f2ca9cde37","system_id":"levelo_inurba_marseille","lat":43.289184,"lon":5.366408,"is_reserved":false,"is_disabled":false,"rental_uris":{"android":"levelo://app?vid=fea566dc-a675-4d37-bfc9-07f2ca9cde37","ios":"levelo://app?vid=fea566dc-a675-4d37-bfc9-07f2ca9cde37"},"vehicle_type_id":"4","last_reported":1713298044,"current_range_meters":800,"station_id":"ce4bhap2rcd13ifvqek0","pricing_plan_id":"cebpf4jnsgd1na2vs0mg"},{"bike_id":"fa0b8869-5085-4f3e-83e0-a8fecc29bef6","system_id":"levelo_inurba_marseille","lat":43.289184,"lon":5.366408,"is_reserved":false,"is_disabled":false,"rental_uris":{"android":"levelo://app?vid=fa0b8869-5085-4f3e-83e0-a8fecc29bef6","ios":"levelo://app?vid=fa0b8869-5085-4f3e-83e0-a8fecc29bef6"},"vehicle_type_id":"4","last_reported":1713298044,"current_range_meters":1600,"station_id":"ce4bhap2rcd13ifvqek0","pricing_plan_id":"cebpf4jnsgd1na2vs0mg"},{"bike_id":"6d6c3705-4513-4936-8177-a5d108f73af1","system_id":"levelo_inurba_marseille","lat":43.289184,"lon":5.366408,"is_reserved":false,"is_disabled":false,"rental_uris":{"android":"levelo://app?vid=6d6c3705-4513-4936-8177-a5d108f73af1","ios":"levelo://app?vid=6d6c3705-4513-4936-8177-a5d108f73af1"},"vehicle_type_id":"4","last_reported":1713298044,"current_range_meters":6000,"station_id":"ce4bhap2rcd13ifvqek0","pricing_plan_id":"cebpf4jnsgd1na2vs0mg"},{"bike_id":"c5f165b7-eb90-4418-9769-a0bb60a4aad3","system_id":"levelo_inurba_marseille","lat":43.289468,"lon":5.363719,"is_reserved":false,"is_disabled":false,"rental_uris":{"android":"levelo://app?vid=c5f165b7-eb90-4418-9769-a0bb60a4aad3","ios":"levelo://app?vid=c5f165b7-eb90-4418-9769-a0bb60a4aad3"},"vehicle_type_id":"4","last_reported":1713298044,"current_range_meters":29200,"station_id":"ce4bhc92rcd13ifvqetg","pricing_plan_id":"cebpf4jnsgd1na2vs0mg"},{"bike_id":"3f937063-6129-4453-956a-523b2dd80815","system_id":"levelo_inurba_marseille","lat":43.309034,"lon":5.371783,"is_reserved":false,"is_disabled":false,"rental_uris":{"android":"levelo://app?vid=3f937063-6129-4453-956a-523b2dd80815","ios":"levelo://app?vid=3f937063-6129-4453-956a-523b2dd80815"},"vehicle_type_id":"4","last_reported":1713298044,"current_range_meters":30800,"station_id":"ce4bguh2rcd13ifvqckg","pricing_plan_id":"cebpf4jnsgd1na2vs0mg"},{"bike_id":"49d65905-3c6f-4e22-aace-963258a813a6","system_id":"levelo_inurba_marseille","lat":43.30426,"lon":5.39744,"is_reserved":false,"is_disabled":false,"rental_uris":{"android":"levelo://app?vid=49d65905-3c6f-4e22-aace-963258a813a6","ios":"levelo://app?vid=49d65905-3c6f-4e22-aace-963258a813a6"},"vehicle_type_id":"4","last_reported":1713298044,"current_range_meters":23600,"station_id":"","pricing_plan_id":"cebpf4jnsgd1na2vs0mg"},{"bike_id":"5ae1e59f-c79a-4ed1-9223-a41ff9e63828","system_id":"levelo_inurba_marseille","lat":43.295713,"lon":5.399639,"is_reserved":false,"is_disabled":false,"rental_uris":{"android":"levelo://app?vid=5ae1e59f-c79a-4ed1-9223-a41ff9e63828","ios":"levelo://app?vid=5ae1e59f-c79a-4ed1-9223-a41ff9e63828"},"vehicle_type_id":"4","last_reported":1713298044,"current_range_meters":30400,"station_id":"ce4bh312rcd13ifvqdj0","pricing_plan_id":"cebpf4jnsgd1na2vs0mg"},{"bike_id":"49a18de1-93c6-48da-b534-00811de1f0f8","system_id":"levelo_inurba_marseille","lat":43.304274,"lon":5.397513,"is_reserved":false,"is_disabled":false,"rental_uris":{"android":"levelo://app?vid=49a18de1-93c6-48da-b534-00811de1f0f8","ios":"levelo://app?vid=49a18de1-93c6-48da-b534-00811de1f0f8"},"vehicle_type_id":"4","last_reported":1713298044,"current_range_meters":17200,"station_id":"ce4bh092rcd13ifvqd20","pricing_plan_id":"cebpf4jnsgd1na2vs0mg"},{"bike_id":"152dc5ac-71c9-45e2-8bb5-c8ab9620b592","system_id":"levelo_inurba_marseille","lat":43.29264,"lon":5.38448,"is_reserved":false,"is_disabled":false,"rental_uris":{"android":"levelo://app?vid=152dc5ac-71c9-45e2-8bb5-c8ab9620b592","ios":"levelo://app?vid=152dc5ac-71c9-45e2-8bb5-c8ab9620b592"},"vehicle_type_id":"4","last_reported":1713298044,"current_range_meters":24800,"station_id":"","pricing_plan_id":"cebpf4jnsgd1na2vs0mg"},{"bike_id":"8f2b32b9-e6ce-416e-ba3b-dc74d2cf6513","system_id":"levelo_inurba_marseille","lat":43.290104,"lon":5.356111,"is_reserved":false,"is_disabled":false,"rental_uris":{"android":"levelo://app?vid=8f2b32b9-e6ce-416e-ba3b-dc74d2cf6513","ios":"levelo://app?vid=8f2b32b9-e6ce-416e-ba3b-dc74d2cf6513"},"vehicle_type_id":"4","last_reported":1713298044,"current_range_meters":8800,"station_id":"ce4bhb92rcd13ifvqen0","pricing_plan_id":"cebpf4jnsgd1na2vs0mg"},{"bike_id":"5b5d1373-75eb-48f7-8ca7-d9d019510118","system_id":"levelo_inurba_marseille","lat":43.290995,"lon":5.381361,"is_reserved":false,"is_disabled":false,"rental_uris":{"android":"levelo://app?vid=5b5d1373-75eb-48f7-8ca7-d9d019510118","ios":"levelo://app?vid=5b5d1373-75eb-48f7-8ca7-d9d019510118"},"vehicle_type_id":"4","last_reported":1713298044,"current_range_meters":0,"station_id":"ce4bh512rcd13ifvqe2g","pricing_plan_id":"cebpf4jnsgd1na2vs0mg"},{"bike_id":"0de565b8-ffbc-4dca-a355-6e3d4b510c11","system_id":"levelo_inurba_marseille","lat":43.290995,"lon":5.381361,"is_reserved":false,"is_disabled":false,"rental_uris":{"android":"levelo://app?vid=0de565b8-ffbc-4dca-a355-6e3d4b510c11","ios":"levelo://app?vid=0de565b8-ffbc-4dca-a355-6e3d4b510c11"},"vehicle_type_id":"4","last_reported":1713298044,"current_range_meters":11600,"station_id":"ce4bh512rcd13ifvqe2g","pricing_plan_id":"cebpf4jnsgd1na2vs0mg"},{"bike_id":"e0f032eb-260a-4300-ae9d-808b620dac46","system_id":"levelo_inurba_marseille","lat":43.290995,"lon":5.381361,"is_reserved":false,"is_disabled":false,"rental_uris":{"android":"levelo://app?vid=e0f032eb-260a-4300-ae9d-808b620dac46","ios":"levelo://app?vid=e0f032eb-260a-4300-ae9d-808b620dac46"},"vehicle_type_id":"4","last_reported":1713298044,"current_range_meters":12400,"station_id":"ce4bh512rcd13ifvqe2g","pricing_plan_id":"cebpf4jnsgd1na2vs0mg"},{"bike_id":"aac2dff8-e4ad-45c8-8bf6-c284bd541c5d","system_id":"levelo_inurba_marseille","lat":43.290995,"lon":5.381361,"is_reserved":false,"is_disabled":false,"rental_uris":{"android":"levelo://app?vid=aac2dff8-e4ad-45c8-8bf6-c284bd541c5d","ios":"levelo://app?vid=aac2dff8-e4ad-45c8-8bf6-c284bd541c5d"},"vehicle_type_id":"4","last_reported":1713298044,"current_range_meters":30400,"station_id":"ce4bh512rcd13ifvqe2g","pricing_plan_id":"cebpf4jnsgd1na2vs0mg"},{"bike_id":"8184995f-2be2-44d2-9374-5ebe645d072c","system_id":"levelo_inurba_marseille","lat":43.290995,"lon":5.381361,"is_reserved":false,"is_disabled":false,"rental_uris":{"android":"levelo://app?vid=8184995f-2be2-44d2-9374-5ebe645d072c","ios":"levelo://app?vid=8184995f-2be2-44d2-9374-5ebe645d072c"},