{"last_updated":1737025624,"ttl":60,"version":"2.2","data":{"bikes":[{"bike_id":"909d5553-ae7c-42ee-9da7-81fe2065447e","system_id":"levelo_inurba_marseille","lat":43.25859,"lon":5.39919,"is_reserved":false,"is_disabled":false,"rental_uris":{"android":"levelo://app?vid=909d5553-ae7c-42ee-9da7-81fe2065447e","ios":"levelo://app?vid=909d5553-ae7c-42ee-9da7-81fe2065447e"},"vehicle_type_id":"4","last_reported":1737025624,"current_range_meters":18000,"station_id":"ce4bhl92rcd13ifvqghg","pricing_plan_id":"cebpf4jnsgd1na2vs0mg"},{"bike_id":"b2eaa126-7acc-44c8-9643-d17bf52104fb","system_id":"levelo_inurba_marseille","lat":43.30346,"lon":5.40396,"is_reserved":false,"is_disabled":false,"rental_uris":{"android":"levelo://app?vid=b2eaa126-7acc-44c8-9643-d17bf52104fb","ios":"levelo://app?vid=b2eaa126-7acc-44c8-9643-d17bf52104fb"},"vehicle_type_id":"4","last_reported":1737025624,"current_range_meters":27600,"station_id":"ce4bh012rcd13ifvqd10","pricing_plan_id":"cebpf4jnsgd1na2vs0mg"},{"bike_id":"b21098d7-eecb-4a66-8acd-8f412d3266eb","system_id":"levelo_inurba_marseille","lat":43.25497,"lon":5.37666,"is_reserved":false,"is_disabled":false,"rental_uris":{"android":"levelo://app?vid=b21098d7-eecb-4a66-8acd-8f412d3266eb","ios":"levelo://app?vid=b21098d7-eecb-4a66-8acd-8f412d3266eb"},"vehicle_type_id":"4","last_reported":1737025624,"current_range_meters":37600,"station_id":"ce4bhh12rcd13ifvqff0","pricing_plan_id":"cebpf4jnsgd1na2vs0mg"},{"bike_id":"452c98f5-e0c1-4fd8-9ef5-eb1656e0e828","system_id":"levelo_inurba_marseille","lat":43.32566,"lon":5.41438,"is_reserved":false,"is_disabled":false,"rental_uris":{"android":"levelo://app?vid=452c98f5-e0c1-4fd8-9ef5-eb1656e0e828","ios":"levelo://app?vid=452c98f5-e0c1-4fd8-9ef5-eb1656e0e828"},"vehicle_type_id":"4","last_reported":1737025624,"current_range_meters":31200,"station_id":"ce4bhq12rcd13ifvqhhg","pricing_plan_id":"cebpf4jnsgd1na2vs0mg"},{"bike_id":"204905f4-a78c-4076-b317-88addf7d0aa8","system_id":"levelo_inurba_marseille","lat":43.30152,"lon":5.38095,"is_reserved":false,"is_disabled":false,"rental_uris":{"android":"levelo://app?vid=204905f4-a78c-4076-b317-88addf7d0aa8","ios":"levelo://app?vid=204905f4-a78c-4076-b317-88addf7d0aa8"},"vehicle_type_id":"4","last_reported":1737025624,"current_range_meters":38800,"station_id":"ce4bgjp2rcd13ifvqbh0","pricing_plan_id":"cebpf4jnsgd1na2vs0mg"},{"bike_id":"a9302831-a977-42c7-a552-458f0d4a525a","system_id":"levelo_inurba_marseille","lat":43.29214,"lon":5.38022,"is_reserved":false,"is_disabled":false,"rental_uris":{"android":"levelo://app?vid=a9302831-a977-42c7-a552-458f0d4a525a","ios":"levelo://app?vid=a9302831-a977-42c7-a552-458f0d4a525a"},"vehicle_type_id":"4","last_reported":1737025624,"current_range_meters":32000,"station_id":"","pricing_plan_id":"cebpf4jnsgd1na2vs0mg"},{"bike_id":"231531ce-159c-430d-a73a-34d518b1b8d8","system_id":"levelo_inurba_marseille","lat":43.25931,"lon":5.40916,"is_reserved":false,"is_disabled":false,"rental_uris":{"android":"levelo://app?vid=231531ce-159c-430d-a73a-34d518b1b8d8","ios":"levelo://app?vid=231531ce-159c-430d-a73a-34d518b1b8d8"},"vehicle_type_id":"4","last_reported":1737025624,"current_range_meters":37600,"station_id":"ce4bhm92rcd13ifvqglg","pricing_plan_id":"cebpf4jnsgd1na2vs0mg"},{"bike_id":"ba23a898-51b9-41b9-805c-e1d89be30189","system_id":"levelo_inurba_marseille","lat":43.26053,"lon":5.39397,"is_reserved":false,"is_disabled":false,"rental_uris":{"android":"levelo://app?vid=ba23a898-51b9-41b9-805c-e1d89be30189","ios":"levelo://app?vid=ba23a898-51b9-41b9-805c-e1d89be30189"},"vehicle_type_id":"4","last_reported":1737025624,"current_range_meters":25600,"station_id":"ce4bhh92rcd13ifvqfj0","pricing_plan_id":"cebpf4jnsgd1na2vs0mg"},{"bike_id":"6d540c0f-98a4-4311-9d97-d8f4a0c4b88a","system_id":"levelo_inurba_marseille","lat":43.23191,"lon":5.40003,"is_reserved":false,"is_disabled":false,"rental_uris":{"android":"levelo://app?vid=6d540c0f-98a4-4311-9d97-d8f4a0c4b88a","ios":"levelo://app?vid=6d540c0f-98a4-4311-9d97-d8f4a0c4b88a"},"vehicle_type_id":"4","last_reported":1737025624,"current_range_meters":18800,"station_id":"ce4bhn12rcd13ifvqgqg","pricing_plan_id":"cebpf4jnsgd1na2vs0mg"},{"bike_id":"fa2a03be-b9a8-4a7b-bcf6-bdd836cf0e2e","system_id":"levelo_inurba_marseille","lat":43.29281,"lon":5.37451,"is_reserved":false,"is_disabled":false,"rental_uris":{"android":"levelo://app?vid=fa2a03be-b9a8-4a7b-bcf6-bdd836cf0e2e","ios":"levelo://app?vid=fa2a03be-b9a8-4a7b-bcf6-bdd836cf0e2e"},"vehicle_type_id":"4","last_reported":1737025624,"current_range_meters":17200,"station_id":"ce4bgi12rcd13ifvqb70","pricing_plan_id":"cebpf4jnsgd1na2vs0mg"},{"bike_id":"03519357-cc71-4610-a101-c7e9590195a2","system_id":"levelo_inurba_marseille","lat":43.23157,"lon":5.43704,"is_reserved":false,"is_disabled":false,"rental_uris":{"android":"levelo://app?vid=03519357-cc71-4610-a101-c7e9590195a2","ios":"levelo://app?vid=03519357-cc71-4610-a101-c7e9590195a2"},"vehicle_type_id":"4","last_reported":1737025624,"current_range_meters":36400,"station_id":"ce4bhmp2rcd13ifvqgog","pricing_plan_id":"cebpf4jnsgd1na2vs0mg"},{"bike_id":"59590efe-7589-4f56-8017-b47e9dc1601a","system_id":"levelo_inurba_marseille","lat":43.2747,"lon":5.42482,"is_reserved":false,"is_disabled":false,"rental_uris":{"android":"levelo://app?vid=59590efe-7589-4f56-8017-b47e9dc1601a","ios":"levelo://app?vid=59590efe-7589-4f56-8017-b47e9dc1601a"},"vehicle_type_id":"4","last_reported":1737025624,"current_range_meters":34800,"station_id":"ce4bhn92rcd13ifvqgrg","pricing_plan_id":"cebpf4jnsgd1na2vs0mg"},{"bike_id":"4fa358ca-b741-467a-a03f-b8033021b471","system_id":"levelo_inurba_marseille","lat":43.33778,"lon":5.37427,"is_reserved":false,"is_disabled":false,"rental_uris":{"android":"levelo://app?vid=4fa358ca-b741-467a-a03f-b8033021b471","ios":"levelo://app?vid=4fa358ca-b741-467a-a03f-b8033021b471"},"vehicle_type_id":"4","last_reported":1737025624,"current_range_meters":38800,"station_id":"","pricing_plan_id":"cebpf4jnsgd1na2vs0mg"},{"bike_id":"2b2cb29b-656b-412b-b107-6e49fdf15518","system_id":"levelo_inurba_marseille","lat":43.27484,"lon":5.42467,"is_reserved":false,"is_disabled":true,"rental_uris":{"android":"levelo://app?vid=2b2cb29b-656b-412b-b107-6e49fdf15518","ios":"levelo://app?vid=2b2cb29b-656b-412b-b107-6e49fdf15518"},"vehicle_type_id":"4","last_reported":1737025624,"current_range_meters":0,"station_id":"ce4bhn92rcd13ifvqgrg","pricing_plan_id":"cebpf4jnsgd1na2vs0mg"},{"bike_id":"3aa82675-a9bd-4d27-89d0-649dc1627e4f","system_id":"levelo_inurba_marseille","lat":43.25074,"lon":5.39566,"is_reserved":false,"is_disabled":false,"rental_uris":{"android":"levelo://app?vid=3aa82675-a9bd-4d27-89d0-649dc1627e4f","ios":"levelo://app?vid=3aa82675-a9bd-4d27-89d0-649dc1627e4f"},"vehicle_type_id":"4","last_reported":1737025624,"current_range_meters":23200,"station_id":"ce4bhm12rcd13ifvqgkg","pricing_plan_id":"cebpf4jnsgd1na2vs0mg"},{"bike_id":"c8cfc202-d733-4989-9330-14558b81f152","system_id":"levelo_inurba_marseille","lat":43.30958,"lon":5.39062,"is_reserved":false,"is_disabled":false,"rental_uris":{"android":"levelo://app?vid=c8cfc202-d733-4989-9330-14558b81f152","ios":"levelo://app?vid=c8cfc202-d733-4989-9330-14558b81f152"},"vehicle_type_id":"4","last_reported":1737025624,"current_range_meters":24000,"station_id":"ce4bgup2rcd13ifvqco0","pricing_plan_id":"cebpf4jnsgd1na2vs0mg"},{"bike_id":"b9d506f3-d5fd-4d37-904a-7c52215a265a","system_id":"levelo_inurba_marseille","lat":43.24185,"lon":5.39727,"is_reserved":false,"is_disabled":false,"rental_uris":{"android":"levelo://app?vid=b9d506f3-d5fd-4d37-904a-7c52215a265a","ios":"levelo://app?vid=b9d506f3-d5fd-4d37-904a-7c52215a265a"},"vehicle_type_id":"4","last_reported":1737025624,"current_range_meters":30000,"station_id":"ce4bhn12rcd13ifvqgpg","pricing_plan_id":"cebpf4jnsgd1na2vs0mg"},{"bike_id":"6c2f797b-7813-43c5-9f55-324a846683af","system_id":"levelo_inurba_marseille","lat":43.29607,"lon":5.37728,"is_reserved":false,"is_disabled":false,"rental_uris":{"android":"levelo://app?vid=6c2f797b-7813-43c5-9f55-324a846683af","ios":"levelo://app?vid=6c2f797b-7813-43c5-9f55-324a846683af"},"vehicle_type_id":"4","last_reported":1737025624,"current_range_meters":10800,"station_id":"ce4bgi92rcd13ifvqb90","pricing_plan_id":"cebpf4jnsgd1na2vs0mg"},{"bike_id":"67c6acf5-226f-49f4-bff9-0f3bc8866ab4","system_id":"levelo_inurba_marseille","lat":43.24086,"lon":5.37751,"is_reserved":false,"is_disabled":false,"rental_uris":{"android":"levelo://app?vid=67c6acf5-226f-49f4-bff9-0f3bc8866ab4","ios":"levelo://app?vid=67c6acf5-226f-49f4-bff9-0f3bc8866ab4"},"vehicle_type_id":"4","last_reported":1737025624,"current_range_meters":28800,"station_id":"ce4bhnp2rcd13ifvqgvg","pricing_plan_id":"cebpf4jnsgd1na2vs0mg"},{"bike_id":"c36500eb-77b4-4129-8dbf-d39ef4e62741","system_id":"levelo_inurba_marseille","lat":43.30432,"lon":5.38896,"is_reserved":false,"is_disabled":false,"rental_uris":{"android":"levelo://app?vid=c36500eb-77b4-4129-8dbf-d39ef4e62741","ios":"levelo://app?vid=c36500eb-77b4-4129-8dbf-d39ef4e62741"},"vehicle_type_id":"4","last_reported":1737025624,"current_range_meters":33200,"station_id":"ce4bgk12rcd13ifvqbi0","pricing_plan_id":"cebpf4jnsgd1na2vs0mg"},{"bike_id":"0e842b39-329d-48e2-b781-7e3babc96cf4","system_id":"levelo_inurba_marseille","lat":43.22932,"lon":5.35383,"is_reserved":false,"is_disabled":false,"rental_uris":{"android":"levelo://app?vid=0e842b39-329d-48e2-b781-7e3babc96cf4","ios":"levelo://app?vid=0e842b39-329d-48e2-b781-7e3babc96cf4"},"vehicle_type_id":"4","last_reported":1737025624,"current_range_meters":16400,"station_id":"cpo3532slgdg3j2ikp40","pricing_plan_id":"cebpf4jnsgd1na2vs0mg"},{"bike_id":"66d86647-f3d9-43c2-8067-2511dcc8853d","system_id":"levelo_inurba_marseille","lat":43.269437,"lon":5.40259,"is_reserved":false,"is_disabled":true,"rental_uris":{"android":"levelo://app?vid=66d86647-f3d9-43c2-8067-2511dcc8853d","ios":"levelo://app?vid=66d86647-f3d9-43c2-8067-2511dcc8853d"},"vehicle_type_id":"4","last_reported":1737025624,"current_range_meters":38800,"station_id":"cjm6bp8fraef2m0cb0m0","pricing_plan_id":"cebpf4jnsgd1na2vs0mg"},{"bike_id":"937aee79-546f-48bc-976c-15c2eb35c2f7","system_id":"levelo_inurba_marseille","lat":43.28707,"lon":5.39992,"is_reserved":false,"is_disabled":false,"rental_uris":{"android":"levelo://app?vid=937aee79-546f-48bc-976c-15c2eb35c2f7","ios":"levelo://app?vid=937aee79-546f-48bc-976c-15c2eb35c2f7"},"vehicle_type_id":"4","last_reported":1737025624,"current_range_meters":28800,"station_id":"ce4bho92rcd13ifvqh3g","pricing_plan_id":"cebpf4jnsgd1na2vs0mg"},{"bike_id":"f69c2850-419f-41b3-b97b-c35338fc5f53","system_id":"levelo_inurba_marseille","lat":43.30144,"lon":5.38771,"is_reserved":false,"is_disabled":false,"rental_uris":{"android":"levelo://app?vid=f69c2850-419f-41b3-b97b-c35338fc5f53","ios":"levelo://app?vid=f69c2850-419f-41b3-b97b-c35338fc5f53"},"vehicle_type_id":"4","last_reported":1737025624,"current_range_meters":18800,"station_id":"ce4bghh2rcd13ifvqb60","pricing_plan_id":"cebpf4jnsgd1na2vs0mg"},{"bike_id":"0e7c3373-583a-438f-8dea-9a5760a26114","system_id":"levelo_inurba_marseille","lat":43.30927,"lon":5.37135,"is_reserved":false,"is_disabled":false,"rental_uris":{"android":"levelo://app?vid=0e7c3373-583a-438f-8dea-9a5760a26114","ios":"levelo://app?vid=0e7c3373-583a-438f-8dea-9a5760a26114"},"vehicle_type_id":"4","last_reported":1737025624,"current_range_meters":21600,"station_id":"ce4bguh2rcd13ifvqckg","pricing_plan_id":"cebpf4jnsgd1na2vs0mg"},{"bike_id":"8b6182c3-3c5e-4a05-80f5-f25cf3a13217","system_id":"levelo_inurba_marseille","lat":43.2455,"lon":5.39523,"is_reserved":false,"is_disabled":false,"rental_uris":{"android":"levelo://app?vid=8b6182c3-3c5e-4a05-80f5-f25cf3a13217","ios":"levelo://app?vid=8b6182c3-3c5e-4a05-80f5-f25cf3a13217"},"vehicle_type_id":"4","last_reported":1737025624,"current_range_meters":24400,"station_id":"ce4bhlp2rcd13ifvqgjg","pricing_plan_id":"cebpf4jnsgd1na2vs0mg"},{"bike_id":"b3888c95-de46-4170-b14f-9aa1dba6db78","system_id":"levelo_inurba_marseille","lat":43.259,"lon":5.40947,"is_reserved":false,"is_disabled":false,"rental_uris":{"android":"levelo://app?vid=b3888c95-de46-4170-b14f-9aa1dba6db78","ios":"levelo://app?vid=b3888c95-de46-4170-b14f-9aa1dba6db78"},"vehicle_type_id":"4","last_reported":1737025624,"current_range_meters":30000,"station_id":"ce4bhm92rcd13ifvqglg","pricing_plan_id":"cebpf4jnsgd1na2vs0mg"},{"bike_id":"bfe5bccb-9d40-443b-a959-6968a94fedaa","system_id":"levelo_inurba_marseille","lat":43.29622,"lon":5.37723,"is_reserved":false,"is_disabled":false,"rental_uris":{"android":"levelo://app?vid=bfe5bccb-9d40-443b-a959-6968a94fedaa","ios":"levelo://app?vid=bfe5bccb-9d40-443b-a959-6968a94fedaa"},"vehicle_type_id":"4","last_reported":1737025624,"current_range_meters":26000,"station_id":"ce4bgi92rcd13ifvqb90","pricing_plan_id":"cebpf4jnsgd1na2vs0mg"},{"bike_id":"21991245-c0ed-460a-96c0-efd1586188d9","system_id":"levelo_inurba_marseille","lat":43.2604,"lon":5.37548,"is_reserved":false,"is_disabled":false,"rental_uris":{"android":"levelo://app?vid=21991245-c0ed-460a-96c0-efd1586188d9","ios":"levelo://app?vid=21991245-c0ed-460a-96c0-efd1586188d9"},"vehicle_type_id":"4","last_reported":1737025624,"current_range_meters":38400,"station_id":"ce4bhgh2rcd13ifvqfa0","pricing_plan_id":"cebpf4jnsgd1na2vs0mg"},{"bike_id":"8ff49768-a461-474a-93bf-77c4018d3af7","system_id":"levelo_inurba_marseille","lat":43.29369,"lon":5.37845,"is_reserved":false,"is_disabled":false,"rental_uris":{"android":"levelo://app?vid=8ff49768-a461-474a-93bf-77c4018d3af7","ios":"levelo://app?vid=8ff49768-a461-474a-93bf-77c4018d3af7"},"vehicle_type_id":"4","last_reported":1737025624,"current_range_meters":30400,"station_id":"ce4bgjh2rcd13ifvqbf0","pricing_plan_id":"cebpf4jnsgd1na2vs0mg"},{"bike_id":"b96abaf4-0fa5-4720-8999-93f7ce59d4e6","system_id":"levelo_inurba_marseille","lat":43.270716,"lon":5.422804,"is_reserved":false,"is_disabled":false,"rental_uris":{"android":"levelo://app?vid=b96abaf4-0fa5-4720-8999-93f7ce59d4e6","ios":"levelo://app?vid=b96abaf4-0fa5-4720-8999-93f7ce59d4e6"},"vehicle_type_id":"4","last_reported":1737025624,"current_range_meters":35200,"station_id":"ce4bhk92rcd13ifvqgb0","pricing_plan_id":"cebpf4jnsgd1na2vs0mg"},{"bike_id":"be58c4b8-2e49-4f2f-be91-b2c23f30012b","system_id":"levelo_inurba_marseille","lat":43.23964,"lon":5.36636,"is_reserved":false,"is_disabled":false,"rental_uris":{"android":"levelo://app?vid=be58c4b8-2e49-4f2f-be91-b2c23f30012b","ios":"levelo://app?vid=be58c4b8-2e49-4f2f-be91-b2c23f30012b"},"vehicle_type_id":"4","last_reported":1737025624,"current_range_meters":24400,"station_id":"ce4bhi12rcd13ifvqfp0","pricing_plan_id":"cebpf4jnsgd1na2vs0mg"},{"bike_id":"dd39fab2-6e20-4b11-b292-3c6182110004","system_id":"levelo_inurba_marseille","lat":43.2902,"lon":5.38635,"is_reserved":false,"is_disabled":false,"rental_uris":{"android":"levelo://app?vid=dd39fab2-6e20-4b11-b292-3c6182110004","ios":"levelo://app?vid=dd39fab2-6e20-4b11-b292-3c6182110004"},"vehicle_type_id":"4","last_reported":1737025624,"current_range_meters":19200,"station_id":"ce4bh4p2rcd13ifvqe0g","pricing_plan_id":"cebpf4jnsgd1na2vs0mg"},{"bike_id":"1890ecc8-ed87-4c6d-bf90-3deb7f1c3f75","system_id":"levelo_inurba_marseille","lat":43.29806,"lon":5.38093,"is_reserved":false,"is_disabled":false,"rental_uris":{"android":"levelo://app?vid=1890ecc8-ed87-4c6d-bf90-3deb7f1c3f75","ios":"levelo://app?vid=1890ecc8-ed87-4c6d-bf90-3deb7f1c3f75"},"vehicle_type_id":"4","last_reported":1737025624,"current_range_meters":4400,"station_id":"ce4bgip2rcd13ifvqbb0","pricing_plan_id":"cebpf4jnsgd1na2vs0mg"},{"bike_id":"f811c6a5-7416-44f3-9c13-a07e45f8acbd","system_id":"levelo_inurba_marseille","lat":43.25488,"lon":5.37663,"is_reserved":false,"is_disabled":false,"rental_uris":{"android":"levelo://app?vid=f811c6a5-7416-44f3-9c13-a07e45f8acbd","ios":"levelo://app?vid=f811c6a5-7416-44f3-9c13-a07e45f8acbd"},"vehicle_type_id":"4","last_reported":1737025624,"current_range_meters":18800,"station_id":"ce4bhh12rcd13ifvqff0","pricing_plan_id":"cebpf4jnsgd1na2vs0mg"},{"bike_id":"3ded76a8-388a-45a9-8e5f-d9e35103059f","system_id":"levelo_inurba_marseille","lat":43.30269,"lon":5.37712,"is_reserved":false,"is_disabled":false,"rental_uris":{"android":"levelo://app?vid=3ded76a8-388a-45a9-8e5f-d9e35103059f","ios":"levelo://app?vid=3ded76a8-388a-45a9-8e5f-d9e35103059f"},"vehicle_type_id":"4","last_reported":1737025624,"current_range_meters":16400,"station_id":"ce4bguh2rcd13ifvqcj0","pricing_plan_id":"cebpf4jnsgd1na2vs0mg"},{"bike_id":"20a1526a-6b93-4b78-8a18-19c12791dc6f","system_id":"levelo_inurba_marseille","lat":43.30255,"lon":5.37751,"is_reserved":false,"is_disabled":false,"rental_uris":{"android":"levelo://app?vid=20a1526a-6b93-4b78-8a18-19c12791dc6f","ios":"levelo://app?vid=20a1526a-6b93-4b78-8a18-19c12791dc6f"},"vehicle_type_id":"4","last_reported":1737025624,"current_range_meters":26000,"station_id":"ce4bguh2rcd13ifvqcj0","pricing_plan_id":"cebpf4jnsgd1na2vs0mg"},{"bike_id":"8089509a-a1d1-4daf-a7dd-fed1315bcbf4","system_id":"levelo_inurba_marseille","lat":43.31225,"lon":5.36869,"is_reserved":false,"is_disabled":false,"rental_uris":{"android":"levelo://app?vid=8089509a-a1d1-4daf-a7dd-fed1315bcbf4","ios":"levelo://app?vid=8089509a-a1d1-4daf-a7dd-fed1315bcbf4"},"vehicle_type_id":"4","last_reported":1737025624,"current_range_meters":17600,"station_id":"ce4bgl92rcd13ifvqbq0","pricing_plan_id":"cebpf4jnsgd1na2vs0mg"},{"bike_id":"bef5c741-75bd-4f8f-a849-078d09ab7470","system_id":"levelo_inurba_marseille","lat":43.29901,"lon":5.43652,"is_reserved":false,"is_disabled":false,"rental_uris":{"android":"levelo://app?vid=bef5c741-75bd-4f8f-a849-078d09ab7470","ios":"levelo://app?vid=bef5c741-75bd-4f8f-a849-078d09ab7470"},"vehicle_type_id":"4","last_reported":1737025624,"current_range_meters":38800,"station_id":"ce4bhpp2rcd13ifvqhfg","pricing_plan_id":"cebpf4jnsgd1na2vs0mg"},{"bike_id":"476fb5e4-f794-4909-8dc0-33aa8bb34965","system_id":"levelo_inurba_marseille","lat":43.3013,"lon":5.39869,"is_reserved":false,"is_disabled":true,"rental_uris":{"android":"levelo://app?vid=476fb5e4-f794-4909-8dc0-33aa8bb34965","ios":"levelo://app?vid=476fb5e4-f794-4909-8dc0-33aa8bb34965"},"vehicle_type_id":"4","last_reported":1737025624,"current_range_meters":800,"station_id":"ce4bh0h2rcd13ifvqd40","pricing_plan_id":"cebpf4jnsgd1na2vs0mg"},{"bike_id":"426b760b-5b29-4f7d-aca9-7a9b7c2cd94a","system_id":"levelo_inurba_marseille","lat":43.24064,"lon":5.37732,"is_reserved":false,"is_disabled":false,"rental_uris":{"android":"levelo://app?vid=426b760b-5b29-4f7d-aca9-7a9b7c2cd94a","ios":"levelo://app?vid=426b760b-5b29-4f7d-aca9-7a9b7c2cd94a"},"vehicle_type_id":"4","last_reported":1737025624,"current_range_meters":27600,"station_id":"ce4bhnp2rcd13ifvqgvg","pricing_plan_id":"cebpf4jnsgd1na2vs0mg"},{"bike_id":"5dc5ff4a-6f97-4551-b16e-6accac849217","system_id":"levelo_inurba_marseille","lat":43.305356,"lon":5.367008,"is_reserved":false,"is_disabled":false,"rental_uris":{"android":"levelo://app?vid=5dc5ff4a-6f97-4551-b16e-6accac849217","ios":"levelo://app?vid=5dc5ff4a-6f97-4551-b16e-6accac849217"},"vehicle_type_id":"4","last_reported":1737025624,"current_range_meters":38400,"station_id":"ce4bgrp2rcd13ifvqc9g","pricing_plan_id":"cebpf4jnsgd1na2vs0mg"},{"bike_id":"ff4eb2b7-c198-4fa6-bc2f-688d060a5b9b","system_id":"levelo_inurba_marseille","lat":43.32663,"lon":5.40996,"is_reserved":false,"is_disabled":false,"rental_uris":{"android":"levelo://app?vid=ff4eb2b7-c198-4fa6-bc2f-688d060a5b9b","ios":"levelo://app?vid=ff4eb2b7-c198-4fa6-bc2f-688d060a5b9b"},"vehicle_type_id":"4","last_reported":1737025624,"current_range_meters":39200,"station_id":"ce4bhpp2rcd13ifvqhgg","pricing_plan_id":"cebpf4jnsgd1na2vs0mg"},{"bike_id":"ee28e867-21e8-4831-b259-c94c83f948c2","system_id":"levelo_inurba_marseille","lat":43.29577,"lon":5.36751,"is_reserved":false,"is_disabled":false,"rental_uris":{"android":"levelo://app?vid=ee28e867-21e8-4831-b259-c94c83f948c2","ios":"levelo://app?vid=ee28e867-21e8-4831-b259-c94c83f948c2"},"vehicle_type_id":"4","last_reported":1737025624,"current_range_meters":28400,"station_id":"ce4bgph2rcd13ifvqc2g","pricing_plan_id":"cebpf4jnsgd1na2vs0mg"},{"bike_id":"273275e8-abb5-42b5-9006-2c30cd91a336","system_id":"levelo_inurba_marseille","lat":43.29604,"lon":5.37704,"is_reserved":false,"is_disabled":false,"rental_uris":{"android":"levelo://app?vid=273275e8-abb5-42b5-9006-2c30cd91a336","ios":"levelo://app?vid=273275e8-abb5-42b5-9006-2c30cd91a336"},"vehicle_type_id":"4","last_reported":1737025624,"current_range_meters":38000,"station_id":"ce4bgi92rcd13ifvqb90","pricing_plan_id":"cebpf4jnsgd1na2vs0mg"},{"bike_id":"fa53afd0-c3c0-46c2-be7e-d056eb14f6b8","system_id":"levelo_inurba_marseille","lat":43.26053,"lon":5.39365,"is_reserved":false,"is_disabled":false,"rental_uris":{"android":"levelo://app?vid=fa53afd0-c3c0-46c2-be7e-d056eb14f6b8","ios":"levelo://app?vid=fa53afd0-c3c0-46c2-be7e-d056eb14f6b8"},"vehicle_type_id":"4","last_reported":1737025624,"current_range_meters":38800,"station_id":"ce4bhh92rcd13ifvqfj0","pricing_plan_id":"cebpf4jnsgd1na2vs0mg"},{"bike_id":"2fb6d3ea-bbe7-46b6-bd6c-8defdff1cb3a","system_id":"levelo_inurba_marseille","lat":43.31326,"lon":5.36716,"is_reserved":false,"is_disabled":false,"rental_uris":{"android":"levelo://app?vid=2fb6d3ea-bbe7-46b6-bd6c-8defdff1cb3a","ios":"levelo://app?vid=2fb6d3ea-bbe7-46b6-bd6c-8defdff1cb3a"},"vehicle_type_id":"4","last_reported":1737025624,"current_range_meters":38800,"station_id":"ce4bgr92rcd13ifvqc6g","pricing_plan_id":"cebpf4jnsgd1na2vs0mg"},{"bike_id":"e36c44c7-838f-4b35-8fbf-4f418ba89f6f","system_id":"levelo_inurba_marseille","lat":43.2952,"lon":5.37494,"is_reserved":false,"is_disabled":false,"rental_uris":{"android":"levelo://app?vid=e36c44c7-838f-4b35-8fbf-4f418ba89f6f","ios":"levelo://app?vid=e36c44c7-838f-4b35-8fbf-4f418ba89f6f"},"vehicle_type_id":"4","last_reported":1737025624,"current_range_meters":25200,"station_id":"ce4bgkp2rcd13ifvqbmg","pricing_plan_id":"cebpf4jnsgd1na2vs0mg"},{"bike_id":"155dbf4b-d6fe-46aa-9097-9994452a5158","system_id":"levelo_inurba_marseille","lat":43.23078,"lon":5.35491,"is_reserved":false,"is_disabled":false,"rental_uris":{"android":"levelo://app?vid=155dbf4b-d6fe-46aa-9097-9994452a5158","ios":"levelo://app?vid=155dbf4b-d6fe-46aa-9097-9994452a5158"},"vehicle_type_id":"4","last_reported":1737025624,"current_range_meters":9200,"station_id":"cpo3342slgdg3j2ifvpg","pricing_plan_id":"cebpf4jnsgd1na2vs0mg"},{"bike_id":"d28eb562-9401-4c73-a785-28169d8131d7","system_id":"levelo_inurba_marseille","lat":43.30087,"lon":5.39011,"is_reserved":false,"is_disabled":false,"rental_uris":{"android":"levelo://app?vid=d28eb562-9401-4c73-a785-28169d8131d7","ios":"levelo://app?vid=d28eb562-9401-4c73-a785-28169d8131d7"},"vehicle_type_id":"4","last_reported":1737025624,"current_range_meters":28000,"station_id":"","pricing_plan_id":"cebpf4jnsgd1na2vs0mg"},{"bike_id":"80bc6287-ce2b-4ae4-b9d5-67d3150daa6d","system_id":"levelo_inurba_marseille","lat":43.27166,"lon":5.40996,"is_reserved":false,"is_disabled":false,"rental_uris":{"android":"levelo://app?vid=80bc6287-ce2b-4ae4-b9d5-67d3150daa6d","ios":"levelo://app?vid=80bc6287-ce2b-4ae4-b9d5-67d3150daa6d"},"vehicle_type_id":"4","last_reported":1737025624,"current_range_meters":25200,"station_id":"ce4bhl12rcd13ifvqgf0","pricing_plan_id":"cebpf4jnsgd1na2vs0mg"},{"bike_id":"fedfa1a7-997d-435d-b7b7-1cdfb17634c4","system_id":"levelo_inurba_marseille","lat":43.31249,"lon":5.36873,"is_reserved":false,"is_disabled":false,"rental_uris":{"android":"levelo://app?vid=fedfa1a7-997d-435d-b7b7-1cdfb17634c4","ios":"levelo://app?vid=fedfa1a7-997d-435d-b7b7-1cdfb17634c4"},"vehicle_type_id":"4","last_reported":1737025624,"current_range_meters":27200,"station_id":"ce4bgl92rcd13ifvqbq0","pricing_plan_id":"cebpf4jnsgd1na2vs0mg"},{"bike_id":"98342f93-7bf2-4304-817a-494cc685e2f4","system_id":"levelo_inurba_marseille","lat":43.33714,"lon":5.39199,"is_reserved":false,"is_disabled":false,"rental_uris":{"android":"levelo://app?vid=98342f93-7bf2-4304-817a-494cc685e2f4","ios":"levelo://app?vid=98342f93-7bf2-4304-817a-494cc685e2f4"},"vehicle_type_id":"4","last_reported":1737025624,"current_range_meters":38800,"station_id":"ce4bhr92rcd13ifvqhsg","pricing_plan_id":"cebpf4jnsgd1na2vs0mg"},{"bike_id":"06b44c87-2fce-450c-a5c8-21aaaf3ce9fc","system_id":"levelo_inurba_marseille","lat":43.29925,"lon":5.37456,"is_reserved":false,"is_disabled":false,"rental_uris":{"android":"levelo://app?vid=06b44c87-2fce-450c-a5c8-21aaaf3ce9fc","ios":"levelo://app?vid=06b44c87-2fce-450c-a5c8-21aaaf3ce9fc"},"vehicle_type_id":"4","last_reported":1737025624,"current_range_meters":37600,"station_id":"ce4bgjh2rcd13ifvqbg0","pricing_plan_id":"cebpf4jnsgd1na2vs0mg"},{"bike_id":"0e148415-5fb7-4b85-bd8d-2efc964f268e","system_id":"levelo_inurba_marseille","lat":43.33717,"lon":5.39213,"is_reserved":false,"is_disabled":false,"rental_uris":{"android":"levelo://app?vid=0e148415-5fb7-4b85-bd8d-2efc964f268e","ios":"levelo://app?vid=0e148415-5fb7-4b85-bd8d-2efc964f268e"},"vehicle_type_id":"4","last_reported":1737025624,"current_range_meters":38000,"station_id":"ce4bhr92rcd13ifvqhsg","pricing_plan_id":"cebpf4jnsgd1na2vs0mg"},{"bike_id":"c7437ba1-2911-4673-a9b2-52800ffe0f0b","system_id":"levelo_inurba_marseille","lat":43.30944,"lon":5.39076,"is_reserved":false,"is_disabled":false,"rental_uris":{"android":"levelo://app?vid=c7437ba1-2911-4673-a9b2-52800ffe0f0b","ios":"levelo://app?vid=c7437ba1-2911-4673-a9b2-52800ffe0f0b"},"vehicle_type_id":"4","last_reported":1737025624,"current_range_meters":38800,"station_id":"ce4bgup2rcd13ifvqco0","pricing_plan_id":"cebpf4jnsgd1na2vs0mg"},{"bike_id":"0de1c0c3-224c-470c-9c40-92abbb1e542e","system_id":"levelo_inurba_marseille","lat":43.2741,"lon":5.39423,"is_reserved":false,"is_disabled":true,"rental_uris":{"android":"levelo://app?vid=0de1c0c3-224c-470c-9c40-92abbb1e542e","ios":"levelo://app?vid=0de1c0c3-224c-470c-9c40-92abbb1e542e"},"vehicle_type_id":"4","last_reported":1737025624,"current_range_meters":25200,"station_id":"ce4bhdp2rcd13ifvqf20","pricing_plan_id":"cebpf4jnsgd1na2vs0mg"},{"bike_id":"1f149e26-9d4e-4970-96ec-1b76430b914b","system_id":"levelo_inurba_marseille","lat":43.24393,"lon":5.37061,"is_reserved":false,"is_disabled":false,"rental_uris":{"android":"levelo://app?vid=1f149e26-9d4e-4970-96ec-1b76430b914b","ios":"levelo://app?vid=1f149e26-9d4e-4970-96ec-1b76430b914b"},"vehicle_type_id":"4","last_reported":1737025624,"current_range_meters":38800,"station_id":"ce4bhhh2rcd13ifvqfk0","pricing_plan_id":"cebpf4jnsgd1na2vs0mg"},{"bike_id":"c34507d0-b3b3-41e5-8b3b-6af5ab99c404","system_id":"levelo_inurba_marseille","lat":43.29575,"lon":5.37524,"is_reserved":false,"is_disabled":false,"rental_uris":{"android":"levelo://app?vid=c34507d0-b3b3-41e5-8b3b-6af5ab99c404","ios":"levelo://app?vid=c34507d0-b3b3-41e5-8b3b-6af5ab99c404"},"vehicle_type_id":"4","last_reported":1737025624,"current_range_meters":17200,"station_id":"ce4bgh92rcd13ifvqb50","pricing_plan_id":"cebpf4jnsgd1na2vs0mg"},{"bike_id":"bf1d84cd-cac4-4ea2-b8fc-2585c34c6bbe","system_id":"levelo_inurba_marseille","lat":43.27223,"lon":5.39183,"is_reserved":false,"is_disabled":false,"rental_uris":{"android":"levelo://app?vid=bf1d84cd-cac4-4ea2-b8fc-2585c34c6bbe","ios":"levelo://app?vid=bf1d84cd-cac4-4ea2-b8fc-2585c34c6bbe"},"vehicle_type_id":"4","last_reported":1737025624,"current_range_meters":22000,"station_id":"ce4bhhp2rcd13ifvqfm0","pricing_plan_id":"cebpf4jnsgd1na2vs0mg"},{"bike_id":"e052f47d-c314-4142-a490-846c18d74eff","system_id":"levelo_inurba_marseille","lat":43.28698,"lon":5.37971,"is_reserved":false,"is_disabled":true,"rental_uris":{"android":"levelo://app?vid=e052f47d-c314-4142-a490-846c18d74eff","ios":"levelo://app?vid=e052f47d-c314-4142-a490-846c18d74eff"},"vehicle_type_id":"4","last_reported":1737025624,"current_range_meters":27600,"station_id":"ce4bh9p2rcd13ifvqec0","pricing_plan_id":"cebpf4jnsgd1na2vs0mg"},{"bike_id":"51a867de-4072-4eed-982d-a9c5581da22e","system_id":"levelo_inurba_marseille","lat":43.28041,"lon":5.36941,"is_reserved":false,"is_disabled":false,"rental_uris":{"android":"levelo://app?vid=51a867de-4072-4eed-982d-a9c5581da22e","ios":"levelo://app?vid=51a867de-4072-4eed-982d-a9c5581da22e"},"vehicle_type_id":"4","last_reported":1737025624,"current_range_meters":38400,"station_id":"ce4bha12rcd13ifvqef0","pricing_plan_id":"cebpf4jnsgd1na2vs0mg"},{"bike_id":"2c839bfc-228b-4afd-9c45-0e54b8f36672","system_id":"levelo_inurba_marseille","lat":43.24641,"lon":5.38901,"is_reserved":false,"is_disabled":false,"rental_uris":{"android":"levelo://app?vid=2c839bfc-228b-4afd-9c45-0e54b8f36672","ios":"levelo://app?vid=2c839bfc-228b-4afd-9c45-0e54b8f36672"},"vehicle_type_id":"4","last_reported":1737025624,"current_range_meters":38800,"station_id":"ce4bhg12rcd13ifvqf60","pricing_plan_id":"cebpf4jnsgd1na2vs0mg"},{"bike_id":"4d8eb31b-74b2-47f2-be20-308942dd430c","system_id":"levelo_inurba_marseille","lat":43.27918,"lon":5.39602,"is_reserved":false,"is_disabled":false,"rental_uris":{"android":"levelo://app?vid=4d8eb31b-74b2-47f2-be20-308942dd430c","ios":"levelo://app?vid=4d8eb31b-74b2-47f2-be20-308942dd430c"},"vehicle_type_id":"4","last_reported":1737025624,"current_range_meters":23200,"station_id":"ce4bhf92rcd13ifvqf40","pricing_plan_id":"cebpf4jnsgd1na2vs0mg"},{"bike_id":"707ed4b6-32ec-456f-af9b-99b730072abe","system_id":"levelo_inurba_marseille","lat":43.29564,"lon":5.37526,"is_reserved":false,"is_disabled":false,"rental_uris":{"android":"levelo://app?vid=707ed4b6-32ec-456f-af9b-99b730072abe","ios":"levelo://app?vid=707ed4b6-32ec-456f-af9b-99b730072abe"},"vehicle_type_id":"4","last_reported":1737025624,"current_range_meters":22800,"station_id":"ce4bgh92rcd13ifvqb50","pricing_plan_id":"cebpf4jnsgd1na2vs0mg"},{"bike_id":"c08d356f-21e2-44af-84ad-f5db0e638d77","system_id":"levelo_inurba_marseille","lat":43.29087,"lon":5.38173,"is_reserved":false,"is_disabled":false,"rental_uris":{"android":"levelo://app?vid=c08d356f-21e2-44af-84ad-f5db0e638d77","ios":"levelo://app?vid=c08d356f-21e2-44af-84ad-f5db0e638d77"},"vehicle_type_id":"4","last_reported":1737025624,"current_range_meters":38000,"station_id":"ce4bh512rcd13ifvqe2g","pricing_plan_id":"cebpf4jnsgd1na2vs0mg"},{"bike_id":"2766686f-7696-4a1d-bceb-e3abea7dd924","system_id":"levelo_inurba_marseille","lat":43.31209,"lon":5.36849,"is_reserved":false,"is_disabled":false,"rental_uris":{"android":"levelo://app?vid=2766686f-7696-4a1d-bceb-e3abea7dd924","ios":"levelo://app?vid=2766686f-7696-4a1d-bceb-e3abea7dd924"},"vehicle_type_id":"4","last_reported":1737025624,"current_range_meters":33600,"station_id":"ce4bgl92rcd13ifvqbq0","pricing_plan_id":"cebpf4jnsgd1na2vs0mg"},{"bike_id":"a15980ac-c225-4e68-8982-6cc8c4cbfd79","system_id":"levelo_inurba_marseille","lat":43.23198,"lon":5.35561,"is_reserved":false,"is_disabled":false,"rental_uris":{"android":"levelo://app?vid=a15980ac-c225-4e68-8982-6cc8c4cbfd79","ios":"levelo://app?vid=a15980ac-c225-4e68-8982-6cc8c4cbfd79"},"vehicle_type_id":"4","last_reported":1737025624,"current_range_meters":38800,"station_id":"ce4bhu92rcd13ifvqi70","pricing_plan_id":"cebpf4jnsgd1na2vs0mg"},{"bike_id":"390ab92d-b8c8-4fa3-a463-67c40cf8a73a","system_id":"levelo_inurba_marseille","lat":43.27181,"lon":5.40988,"is_reserved":false,"is_disabled":false,"rental_uris":{"android":"levelo://app?vid=390ab92d-b8c8-4fa3-a463-67c40cf8a73a","ios":"levelo://app?vid=390ab92d-b8c8-4fa3-a463-67c40cf8a73a"},"vehicle_type_id":"4","last_reported":1737025624,"current_range_meters":39200,"station_id":"ce4bhl12rcd13ifvqgf0","pricing_plan_id":"cebpf4jnsgd1na2vs0mg"},{"bike_id":"344bd4d4-3a8a-47e1-aaad-a2c9867ce43b","system_id":"levelo_inurba_marseille","lat":43.27375,"lon":5.36247,"is_reserved":false,"is_disabled":false,"rental_uris":{"android":"levelo://app?vid=344bd4d4-3a8a-47e1-aaad-a2c9867ce43b","ios":"levelo://app?vid=344bd4d4-3a8a-47e1-aaad-a2c9867ce43b"},"vehicle_type_id":"4","last_reported":1737025624,"current_range_meters":38000,"station_id":"ce4bhbh2rcd13ifvqeo0","pricing_plan_id":"cebpf4jnsgd1na2vs0mg"},{"bike_id":"b6f06bf3-b439-40e0-b0fa-7a9a9dc9a110","system_id":"levelo_inurba_marseille","lat":43.28995,"lon":5.38138,"is_reserved":false,"is_disabled":false,"rental_uris":{"android":"levelo://app?vid=b6f06bf3-b439-40e0-b0fa-7a9a9dc9a110","ios":"levelo://app?vid=b6f06bf3-b439-40e0-b0fa-7a9a9dc9a110"},"vehicle_type_id":"4","last_reported":1737025624,"current_range_meters":38000,"station_id":"ce4bh4p2rcd13ifvqe1g","pricing_plan_id":"cebpf4jnsgd1na2vs0mg"},{"bike_id":"cbf10109-5b21-4345-a3aa-d36f8ea618d1","system_id":"levelo_inurba_marseille","lat":43.30278,"lon":5.37707,"is_reserved":false,"is_disabled":false,"rental_uris":{"android":"levelo://app?vid=cbf10109-5b21-4345-a3aa-d36f8ea618d1","ios":"levelo://app?vid=cbf10109-5b21-4345-a3aa-d36f8ea618d1"},"vehicle_type_id":"4","last_reported":1737025624,"current_range_meters":24400,"station_id":"ce4bguh2rcd13ifvqcj0","pricing_plan_id":"cebpf4jnsgd1na2vs0mg"},{"bike_id":"c93d49e0-cc2d-4f5c-bb53-ac3308613c89","system_id":"levelo_inurba_marseille","lat":43.29725,"lon":5.37684,"is_reserved":false,"is_disabled":false,"rental_uris":{"android":"levelo://app?vid=c93d49e0-cc2d-4f5c-bb53-ac3308613c89","ios":"levelo://app?vid=c93d49e0-cc2d-4f5c-bb53-ac3308613c89"},"vehicle_type_id":"4","last_reported":1737025624,"current_range_meters":25200,"station_id":"ce4bgkh2rcd13ifvqbl0","pricing_plan_id":"cebpf4jnsgd1na2vs0mg"},{"bike_id":"0e3ed56c-7c3e-45fd-93ad-34ae823f72d2","system_id":"levelo_inurba_marseille","lat":43.3055,"lon":5.36541,"is_reserved":false,"is_disabled":false,"rental_uris":{"android":"levelo://app?vid=0e3ed56c-7c3e-45fd-93ad-34ae823f72d2","ios":"levelo://app?vid=0e3ed56c-7c3e-45fd-93ad-34ae823f72d2"},"vehicle_type_id":"4","last_reported":1737025624,"current_range_meters":38000,"station_id":"ce4bgs12rcd13ifvqcag","pricing_plan_id":"cebpf4jnsgd1na2vs0mg"},{"bike_id":"51bb6953-dea8-4e82-96bf-52696267905f","system_id":"levelo_inurba_marseille","lat":43.230577,"lon":5.354922,"is_reserved":false,"is_disabled":false,"rental_uris":{"android":"levelo://app?vid=51bb6953-dea8-4e82-96bf-52696267905f","ios":"levelo://app?vid=51bb6953-dea8-4e82-96bf-52696267905f"},"vehicle_type_id":"4","last_reported":1737025624,"current_range_meters":37600,"station_id":"cpo3342slgdg3j2ifvpg","pricing_plan_id":"cebpf4jnsgd1na2vs0mg"},{"bike_id":"9ba2974b-252f-405a-82ea-0cc04cb2cc50","system_id":"levelo_inurba_marseille","lat":43.24079,"lon":5.37671,"is_reserved":false,"is_disabled":false,"rental_uris":{"android":"levelo://app?vid=9ba2974b-252f-405a-82ea-0cc04cb2cc50","ios":"levelo://app?vid=9ba2974b-252f-405a-82ea-0cc04cb2cc50"},"vehicle_type_id":"4","last_reported":1737025624,"current_range_meters":38800,"station_id":"ce4bhnp2rcd13ifvqgvg","pricing_plan_id":"cebpf4jnsgd1na2vs0mg"},{"bike_id":"3bea599d-9d1d-4ce1-a78c-b94821d3e8a3","system_id":"levelo_inurba_marseille","lat":43.25016,"lon":5.3894,"is_reserved":false,"is_disabled":false,"rental_uris":{"android":"levelo://app?vid=3bea599d-9d1d-4ce1-a78c-b94821d3e8a3","ios":"levelo://app?vid=3bea599d-9d1d-4ce1-a78c-b94821d3e8a3"},"vehicle_type_id":"4","last_reported":1737025624,"current_range_meters":37600,"station_id":"ce4bhgp2rcd13ifvqfd0","pricing_plan_id":"cebpf4jnsgd1na2vs0mg"},{"bike_id":"739bec92-a424-4427-8102-4eb53432799d","system_id":"levelo_inurba_marseille","lat":43.29964,"lon":5.37174,"is_reserved":false,"is_disabled":false,"rental_uris":{"android":"levelo://app?vid=739bec92-a424-4427-8102-4eb53432799d","ios":"levelo://app?vid=739bec92-a424-4427-8102-4eb53432799d"},"vehicle_type_id":"4","last_reported":1737025624,"current_range_meters":20000,"station_id":"ce4bgr92rcd13ifvqc7g","pricing_plan_id":"cebpf4jnsgd1na2vs0mg"},{"bike_id":"b2aeb265-f63f-4a31-8f48-d82ce6074995","system_id":"levelo_inurba_marseille","lat":43.27066,"lon":5.40263,"is_reserved":false,"is_disabled":false,"rental_uris":{"android":"levelo://app?vid=b2aeb265-f63f-4a31-8f48-d82ce6074995","ios":"levelo://app?vid=b2aeb265-f63f-4a31-8f48-d82ce6074995"},"vehicle_type_id":"4","last_reported":1737025624,"current_range_meters":10000,"station_id":"ce4bhk92rcd13ifvqgc0","pricing_plan_id":"cebpf4jnsgd1na2vs0mg"},{"bike_id":"f6b5a21b-caca-4bab-9767-62a516c88435","system_id":"levelo_inurba_marseille","lat":43.24647,"lon":5.38924,"is_reserved":false,"is_disabled":false,"rental_uris":{"android":"levelo://app?vid=f6b5a21b-caca-4bab-9767-62a516c88435","ios":"levelo://app?vid=f6b5a21b-caca-4bab-9767-62a516c88435"},"vehicle_type_id":"4","last_reported":1737025624,"current_range_meters":38800,"station_id":"ce4bhg12rcd13ifvqf60","pricing_plan_id":"cebpf4jnsgd1na2vs0mg"},{"bike_id":"26bf88bc-9ab6-4d8a-bd3b-8823091c5a70","system_id":"levelo_inurba_marseille","lat":43.28155,"lon":5.426533,"is_reserved":false,"is_disabled":false,"rental_uris":{"android":"levelo://app?vid=26bf88bc-9ab6-4d8a-bd3b-8823091c5a70","ios":"levelo://app?vid=26bf88bc-9ab6-4d8a-bd3b-8823091c5a70"},"vehicle_type_id":"4","last_reported":1737025624,"current_range_meters":18800,"station_id":"ce4bhnh2rcd13ifvqgug","pricing_plan_id":"cebpf4jnsgd1na2vs0mg"},{"bike_id":"49e1a9b9-6707-421f-887d-7010b1079e38","system_id":"levelo_inurba_marseille","lat":43.3096,"lon":5.36937,"is_reserved":false,"is_disabled":false,"rental_uris":{"android":"levelo://app?vid=49e1a9b9-6707-421f-887d-7010b1079e38","ios":"levelo://app?vid=49e1a9b9-6707-421f-887d-7010b1079e38"},"vehicle_type_id":"4","last_reported":1737025624,"current_range_meters":27200,"station_id":"","pricing_plan_id":"cebpf4jnsgd1na2vs0mg"},{"bike_id":"cb57f13e-0f96-498a-b9ca-57c0b42e7a64","system_id":"levelo_inurba_marseille","lat":43.23962,"lon":5.36651,"is_reserved":false,"is_disabled":false,"rental_uris":{"android":"levelo://app?vid=cb57f13e-0f96-498a-b9ca-57c0b42e7a64","ios":"levelo://app?vid=cb57f13e-0f96-498a-b9ca-57c0b42e7a64"},"vehicle_type_id":"4","last_reported":1737025624,"current_range_meters":19600,"station_id":"ce4bhi12rcd13ifvqfp0","pricing_plan_id":"cebpf4jnsgd1na2vs0mg"},{"bike_id":"ad3243cb-ca74-48dd-80a1-833143c229ad","system_id":"levelo_inurba_marseille","lat":43.25687,"lon":5.41126,"is_reserved":false,"is_disabled":false,"rental_uris":{"android":"levelo://app?vid=ad3243cb-ca74-48dd-80a1-833143c229ad","ios":"levelo://app?vid=ad3243cb-ca74-48dd-80a1-833143c229ad"},"vehicle_type_id":"4","last_reported":1737025624,"current_range_meters":29600,"station_id":"ce4bhkp2rcd13ifvqgd0","pricing_plan_id":"cebpf4jnsgd1na2vs0mg"},{"bike_id":"8a1b1997-d919-46e0-b966-259d925ab944","system_id":"levelo_inurba_marseille","lat":43.29315,"lon":5.37155,"is_reserved":false,"is_disabled":false,"rental_uris":{"android":"levelo://app?vid=8a1b1997-d919-46e0-b966-259d925ab944","ios":"levelo://app?vid=8a1b1997-d919-46e0-b966-259d925ab944"},"vehicle_type_id":"4","last_reported":1737025624,"current_range_meters":8000,"station_id":"ce4bgh92rcd13ifvqb40","pricing_plan_id":"cebpf4jnsgd1na2vs0mg"},{"bike_id":"e5b9252e-eebf-4c90-b028-b53cc4934330","system_id":"levelo_inurba_marseille","lat":43.30364,"lon":5.41896,"is_reserved":false,"is_disabled":true,"rental_uris":{"android":"levelo://app?vid=e5b9252e-eebf-4c90-b028-b53cc4934330","ios":"levelo://app?vid=e5b9252e-eebf-4c90-b028-b53cc4934330"},"vehicle_type_id":"4","last_reported":1737025624,"current_range_meters":14000,"station_id":"ce4bhop2rcd13ifvqh7g","pricing_plan_id":"cebpf4jnsgd1na2vs0mg"},{"bike_id":"b0d9cfb0-5a2b-4f25-8ec3-d507abc35283","system_id":"levelo_inurba_marseille","lat":43.25929,"lon":5.40898,"is_reserved":false,"is_disabled":false,"rental_uris":{"android":"levelo://app?vid=b0d9cfb0-5a2b-4f25-8ec3-d507abc35283","ios":"levelo://app?vid=b0d9cfb0-5a2b-4f25-8ec3-d507abc35283"},"vehicle_type_id":"4","last_reported":1737025624,"current_range_meters":28400,"station_id":"ce4bhm92rcd13ifvqglg","pricing_plan_id":"cebpf4jnsgd1na2vs0mg"},{"bike_id":"5685b1ca-51df-4b0c-81b2-5fc50125a990","system_id":"levelo_inurba_marseille","lat":43.29549,"lon":5.37509,"is_reserved":false,"is_disabled":false,"rental_uris":{"android":"levelo://app?vid=5685b1ca-51df-4b0c-81b2-5fc50125a990","ios":"levelo://app?vid=5685b1ca-51df-4b0c-81b2-5fc50125a990"},"vehicle_type_id":"4","last_reported":1737025624,"current_range_meters":29600,"station_id":"ce4bgkp2rcd13ifvqbmg","pricing_plan_id":"cebpf4jnsgd1na2vs0mg"},{"bike_id":"93af35ad-738e-40e4-afcb-6d3589d7e732","system_id":"levelo_inurba_marseille","lat":43.23161,"lon":5.43666,"is_reserved":false,"is_disabled":false,"rental_uris":{"android":"levelo://app?vid=93af35ad-738e-40e4-afcb-6d3589d7e732","ios":"levelo://app?vid=93af35ad-738e-40e4-afcb-6d3589d7e732"},"vehicle_type_id":"4","last_reported":1737025624,"current_range_meters":24000,"station_id":"ce4bhmp2rcd13ifvqgog","pricing_plan_id":"cebpf4jnsgd1na2vs0mg"},{"bike_id":"7933f2f0-2e0f-422d-873c-ec932075e5a3","system_id":"levelo_inurba_marseille","lat":43.26179,"lon":5.37487,"is_reserved":false,"is_disabled":false,"rental_uris":{"android":"levelo://app?vid=7933f2f0-2e0f-422d-873c-ec932075e5a3","ios":"levelo://app?vid=7933f2f0-2e0f-422d-873c-ec932075e5a3"},"vehicle_type_id":"4","last_reported":1737025624,"current_range_meters":6400,"station_id":"ce4bhgp2rcd13ifvqfc0","pricing_plan_id":"cebpf4jnsgd1na2vs0mg"},{"bike_id":"d1b53a96-266e-4b04-a3ed-285008bed597","system_id":"levelo_inurba_marseille","lat":43.2594,"lon":5.40888,"is_reserved":false,"is_disabled":false,"rental_uris":{"android":"levelo://app?vid=d1b53a96-266e-4b04-a3ed-285008bed597","ios":"levelo://app?vid=d1b53a96-266e-4b04-a3ed-285008bed597"},"vehicle_type_id":"4","last_reported":1737025624,"current_range_meters":31200,"station_id":"ce4bhm92rcd13ifvqglg","pricing_plan_id":"cebpf4jnsgd1na2vs0mg"},{"bike_id":"694c8607-ec28-4cae-ab91-6356b18201b5","system_id":"levelo_inurba_marseille","lat":43.32534,"lon":5.41457,"is_reserved":false,"is_disabled":false,"rental_uris":{"android":"levelo://app?vid=694c8607-ec28-4cae-ab91-6356b18201b5","ios":"levelo://app?vid=694c8607-ec28-4cae-ab91-6356b18201b5"},"vehicle_type_id":"4","last_reported":1737025624,"current_range_meters":38400,"station_id":"ce4bhq12rcd13ifvqhhg","pricing_plan_id":"cebpf4jnsgd1na2vs0mg"},{"bike_id":"cd61c03b-d4f0-48f7-b777-75cd85668d7f","system_id":"levelo_inurba_marseille","lat":43.31375,"lon":5.36791,"is_reserved":false,"is_disabled":false,"rental_uris":{"android":"levelo://app?vid=cd61c03b-d4f0-48f7-b777-75cd85668d7f","ios":"levelo://app?vid=cd61c03b-d4f0-48f7-b777-75cd85668d7f"},"vehicle_type_id":"4","last_reported":1737025624,"current_range_meters":15200,"station_id":"ce4bgr92rcd13ifvqc6g","pricing_plan_id":"cebpf4jnsgd1na2vs0mg"},{"bike_id":"af21ee5b-f7eb-47bd-9d98-3e2b3e6fd530","system_id":"levelo_inurba_marseille","lat":43.31995,"lon":5.38151,"is_reserved":false,"is_disabled":false,"rental_uris":{"android":"levelo://app?vid=af21ee5b-f7eb-47bd-9d98-3e2b3e6fd530","ios":"levelo://app?vid=af21ee5b-f7eb-47bd-9d98-3e2b3e6fd530"},"vehicle_type_id":"4","last_reported":1737025624,"current_range_meters":36800,"station_id":"ce4bhr12rcd13ifvqhpg","pricing_plan_id":"cebpf4jnsgd1na2vs0mg"},{"bike_id":"001dbcb9-52ae-40c7-940b-0cf504e0a3a9","system_id":"levelo_inurba_marseille","lat":43.28716,"lon":5.37964,"is_reserved":false,"is_disabled":false,"rental_uris":{"android":"levelo://app?vid=001dbcb9-52ae-40c7-940b-0cf504e0a3a9","ios":"levelo://app?vid=001dbcb9-52ae-40c7-940b-0cf504e0a3a9"},"vehicle_type_id":"4","last_reported":1737025624,"current_range_meters":30000,"station_id":"ce4bh9p2rcd13ifvqec0","pricing_plan_id":"cebpf4jnsgd1na2vs0mg"},{"bike_id":"4aa3f937-cdd8-4b4c-a839-f6f2b47e8b14","system_id":"levelo_inurba_marseille","lat":43.30548,"lon":5.36735,"is_reserved":false,"is_disabled":false,"rental_uris":{"android":"levelo://app?vid=4aa3f937-cdd8-4b4c-a839-f6f2b47e8b14","ios":"levelo://app?vid=4aa3f937-cdd8-4b4c-a839-f6f2b47e8b14"},"vehicle_type_id":"4","last_reported":1737025624,"current_range_meters":20000,"station_id":"ce4bgrp2rcd13ifvqc9g","pricing_plan_id":"cebpf4jnsgd1na2vs0mg"},{"bike_id":"a09a941d-cd7f-4a74-ae80-30df2fc74a04","system_id":"levelo_inurba_marseille","lat":43.27152,"lon":5.41004,"is_reserved":false,"is_disabled":false,"rental_uris":{"android":"levelo://app?vid=a09a941d-cd7f-4a74-ae80-30df2fc74a04","ios":"levelo://app?vid=a09a941d-cd7f-4a74-ae80-30df2fc74a04"},"vehicle_type_id":"4","last_reported":1737025624,"current_range_meters":39200,"station_id":"ce4bhl12rcd13ifvqgf0","pricing_plan_id":"cebpf4jnsgd1na2vs0mg"},{"bike_id":"2e44782b-12ab-45ec-9e3e-10e74a3216a9","system_id":"levelo_inurba_marseille","lat":43.29096,"lon":5.38118,"is_reserved":false,"is_disabled":false,"rental_uris":{"android":"levelo://app?vid=2e44782b-12ab-45ec-9e3e-10e74a3216a9","ios":"levelo://app?vid=2e44782b-12ab-45ec-9e3e-10e74a3216a9"},"vehicle_type_id":"4","last_reported":1737025624,"current_range_meters":3200,"station_id":"ce4bh512rcd13ifvqe2g","pricing_plan_id":"cebpf4jnsgd1na2vs0mg"},{"bike_id":"da0cb2f5-9383-4c02-89f3-757178aa1871","system_id":"levelo_inurba_marseille","lat":43.30541,"lon":5.36548,"is_reserved":false,"is_disabled":false,"rental_uris":{"android":"levelo://app?vid=da0cb2f5-9383-4c02-89f3-757178aa1871","ios":"levelo://app?vid=da0cb2f5-9383-4c02-89f3-757178aa1871"},"vehicle_type_id":"4","last_reported":1737025624,"current_range_meters":30400,"station_id":"ce4bgs12rcd13ifvqcag","pricing_plan_id":"cebpf4jnsgd1na2vs0mg"},{"bike_id":"3d4c5d50-1462-4ff5-81d5-0928edd2d834","system_id":"levelo_inurba_marseille","lat":43.29516,"lon":5.37548,"is_reserved":false,"is_disabled":false,"rental_uris":{"android":"levelo://app?vid=3d4c5d50-1462-4ff5-81d5-0928edd2d834","ios":"levelo://app?vid=3d4c5d50-1462-4ff5-81d5-0928edd2d834"},"vehicle_type_id":"4","last_reported":1737025624,"current_range_meters":19200,"station_id":"ce4bgkp2rcd13ifvqbmg","pricing_plan_id":"cebpf4jnsgd1na2vs0mg"},{"bike_id":"cca7fd62-78f5-405f-9185-7346c0067ca2","system_id":"levelo_inurba_marseille","lat":43.30954,"lon":5.39056,"is_reserved":false,"is_disabled":false,"rental_uris":{"android":"levelo://app?vid=cca7fd62-78f5-405f-9185-7346c0067ca2","ios":"levelo://app?vid=cca7fd62-78f5-405f-9185-7346c0067ca2"},"vehicle_type_id":"4","last_reported":1737025624,"current_range_meters":27200,"station_id":"ce4bgup2rcd13ifvqco0","pricing_plan_id":"cebpf4jnsgd1na2vs0mg"},{"bike_id":"cc1aa1c6-582b-4f1c-9ede-677c82c95ac5","system_id":"levelo_inurba_marseille","lat":43.29786,"lon":5.37097,"is_reserved":false,"is_disabled":false,"rental_uris":{"android":"levelo://app?vid=cc1aa1c6-582b-4f1c-9ede-677c82c95ac5","ios":"levelo://app?vid=cc1aa1c6-582b-4f1c-9ede-677c82c95ac5"},"vehicle_type_id":"4","last_reported":1737025624,"current_range_meters":38800,"station_id":"ce4bgop2rcd13ifvqc1g","pricing_plan_id":"cebpf4jnsgd1na2vs0mg"},{"bike_id":"1a17a578-cbbc-4dd9-8ec3-8d2b87bc098c","system_id":"levelo_inurba_marseille","lat":43.29111,"lon":5.4002,"is_reserved":false,"is_disabled":false,"rental_uris":{"android":"levelo://app?vid=1a17a578-cbbc-4dd9-8ec3-8d2b87bc098c","ios":"levelo://app?vid=1a17a578-cbbc-4dd9-8ec3-8d2b87bc098c"},"vehicle_type_id":"4","last_reported":1737025624,"current_range_meters":38800,"station_id":"","pricing_plan_id":"cebpf4jnsgd1na2vs0mg"},{"bike_id":"7a26b63c-652f-4d2d-8353-1a9dfb4e945a","system_id":"levelo_inurba_marseille","lat":43.33706,"lon":5.39198,"is_reserved":false,"is_disabled":false,"rental_uris":{"android":"levelo://app?vid=7a26b63c-652f-4d2d-8353-1a9dfb4e945a","ios":"levelo://app?vid=7a26b63c-652f-4d2d-8353-1a9dfb4e945a"},"vehicle_type_id":"4","last_reported":1737025624,"current_range_meters":38800,"station_id":"ce4bhr92rcd13ifvqhsg","pricing_plan_id":"cebpf4jnsgd1na2vs0mg"},{"bike_id":"6816f2cb-ba75-43f5-8f74-1ecf534e9e80","system_id":"levelo_inurba_marseille","lat":43.30566,"lon":5.36544,"is_reserved":false,"is_disabled":false,"rental_uris":{"android":"levelo://app?vid=6816f2cb-ba75-43f5-8f74-1ecf534e9e80","ios":"levelo://app?vid=6816f2cb-ba75-43f5-8f74-1ecf534e9e80"},"vehicle_type_id":"4","last_reported":1737025624,"current_range_meters":35600,"station_id":"ce4bgs12rcd13ifvqcag","pricing_plan_id":"cebpf4jnsgd1na2vs0mg"},{"bike_id":"d91f02f5-11ff-4967-912e-790fc10f9a8b","system_id":"levelo_inurba_marseille","lat":43.30262,"lon":5.3773,"is_reserved":false,"is_disabled":false,"rental_uris":{"android":"levelo://app?vid=d91f02f5-11ff-4967-912e-790fc10f9a8b","ios":"levelo://app?vid=d91f02f5-11ff-4967-912e-790fc10f9a8b"},"vehicle_type_id":"4","last_reported":1737025624,"current_range_meters":24800,"station_id":"ce4bguh2rcd13ifvqcj0","pricing_plan_id":"cebpf4jnsgd1na2vs0mg"},{"bike_id":"56b8e9bc-f750-4815-bc98-9098414d16db","system_id":"levelo_inurba_marseille","lat":43.23199,"lon":5.35569,"is_reserved":false,"is_disabled":true,"rental_uris":{"android":"levelo://app?vid=56b8e9bc-f750-4815-bc98-9098414d16db","ios":"levelo://app?vid=56b8e9bc-f750-4815-bc98-9098414d16db"},"vehicle_type_id":"4","last_reported":1737025624,"current_range_meters":0,"station_id":"ce4bhu92rcd13ifvqi70","pricing_plan_id":"cebpf4jnsgd1na2vs0mg"},{"bike_id":"f2ac1cd4-34fc-43b6-85b9-ad77cbc9ae3c","system_id":"levelo_inurba_marseille","lat":43.30143,"lon":5.37444,"is_reserved":false,"is_disabled":false,"rental_uris":{"android":"levelo://app?vid=f2ac1cd4-34fc-43b6-85b9-ad77cbc9ae3c","ios":"levelo://app?vid=f2ac1cd4-34fc-43b6-85b9-ad77cbc9ae3c"},"vehicle_type_id":"4","last_reported":1737025624,"current_range_meters":38800,"station_id":"ce4bgs92rcd13ifvqcc0","pricing_plan_id":"cebpf4jnsgd1na2vs0mg"},{"bike_id":"886c2bbb-1b99-4795-80cb-99bf8240c559","system_id":"levelo_inurba_marseille","lat":43.24649,"lon":5.38925,"is_reserved":false,"is_disabled":false,"rental_uris":{"android":"levelo://app?vid=886c2bbb-1b99-4795-80cb-99bf8240c559","ios":"levelo://app?vid=886c2bbb-1b99-4795-80cb-99bf8240c559"},"vehicle_type_id":"4","last_reported":1737025624,"current_range_meters":23200,"station_id":"ce4bhg12rcd13ifvqf60","pricing_plan_id":"cebpf4jnsgd1na2vs0mg"},{"bike_id":"d6247053-8f10-4bf3-b1a0-36e4e978aeac","system_id":"levelo_inurba_marseille","lat":43.27203,"lon":5.39182,"is_reserved":false,"is_disabled":false,"rental_uris":{"android":"levelo://app?vid=d6247053-8f10-4bf3-b1a0-36e4e978aeac","ios":"levelo://app?vid=d6247053-8f10-4bf3-b1a0-36e4e978aeac"},"vehicle_type_id":"4","last_reported":1737025624,"current_range_meters":20400,"station_id":"ce4bhhp2rcd13ifvqfm0","pricing_plan_id":"cebpf4jnsgd1na2vs0mg"},{"bike_id":"0670b4f0-1f45-4258-9a91-28f01f5ea4c3","system_id":"levelo_inurba_marseille","lat":43.28153,"lon":5.42639,"is_reserved":false,"is_disabled":false,"rental_uris":{"android":"levelo://app?vid=0670b4f0-1f45-4258-9a91-28f01f5ea4c3","ios":"levelo://app?vid=0670b4f0-1f45-4258-9a91-28f01f5ea4c3"},"vehicle_type_id":"4","last_reported":1737025624,"current_range_meters":12800,"station_id":"ce4bhnh2rcd13ifvqgug","pricing_plan_id":"cebpf4jnsgd1na2vs0mg"},{"bike_id":"1c0d8f9b-899d-4d74-b0db-ecdfd7073347","system_id":"levelo_inurba_marseille","lat":43.25118,"lon":5.40317,"is_reserved":false,"is_disabled":false,"rental_uris":{"android":"levelo://app?vid=1c0d8f9b-899d-4d74-b0db-ecdfd7073347","ios":"levelo://app?vid=1c0d8f9b-899d-4d74-b0db-ecdfd7073347"},"vehicle_type_id":"4","last_reported":1737025624,"current_range_meters":34800,"station_id":"ce4bhlh2rcd13ifvqgig","pricing_plan_id":"cebpf4jnsgd1na2vs0mg"},{"bike_id":"a3396f47-7c45-47c3-a4fa-78d7bd54f962","system_id":"levelo_inurba_marseille","lat":43.28288,"lon":5.40899,"is_reserved":false,"is_disabled":false,"rental_uris":{"android":"levelo://app?vid=a3396f47-7c45-47c3-a4fa-78d7bd54f962","ios":"levelo://app?vid=a3396f47-7c45-47c3-a4fa-78d7bd54f962"},"vehicle_type_id":"4","last_reported":1737025624,"current_range_meters":28400,"station_id":"","pricing_plan_id":"cebpf4jnsgd1na2vs0mg"},{"bike_id":"26425482-ac11-4df9-94c9-77bac75c56a7","system_id":"levelo_inurba_marseille","lat":43.290236,"lon":5.400011,"is_reserved":false,"is_disabled":false,"rental_uris":{"android":"levelo://app?vid=26425482-ac11-4df9-94c9-77bac75c56a7","ios":"levelo://app?vid=26425482-ac11-4df9-94c9-77bac75c56a7"},"vehicle_type_id":"4","last_reported":1737025624,"current_range_meters":36400,"station_id":"ce4bh392rcd13ifvqdm0","pricing_plan_id":"cebpf4jnsgd1na2vs0mg"},{"bike_id":"843b7b62-c298-4475-adce-4503fd3057b1","system_id":"levelo_inurba_marseille","lat":43.30115,"lon":5.39869,"is_reserved":false,"is_disabled":false,"rental_uris":{"android":"levelo://app?vid=843b7b62-c298-4475-adce-4503fd3057b1","ios":"levelo://app?vid=843b7b62-c298-4475-adce-4503fd3057b1"},"vehicle_type_id":"4","last_reported":1737025624,"current_range_meters":8000,"station_id":"ce4bh0h2rcd13ifvqd40","pricing_plan_id":"cebpf4jnsgd1na2vs0mg"},{"bike_id":"995c884a-0499-46b1-9a44-bb0a781664c5","system_id":"levelo_inurba_marseille","lat":43.259,"lon":5.40878,"is_reserved":false,"is_disabled":false,"rental_uris":{"android":"levelo://app?vid=995c884a-0499-46b1-9a44-bb0a781664c5","ios":"levelo://app?vid=995c884a-0499-46b1-9a44-bb0a781664c5"},"vehicle_type_id":"4","last_reported":1737025624,"current_range_meters":38800,"station_id":"ce4bhm92rcd13ifvqglg","pricing_plan_id":"cebpf4jnsgd1na2vs0mg"},{"bike_id":"22465212-93af-4e0b-b803-6ee82bba56d5","system_id":"levelo_inurba_marseille","lat":43.33761,"lon":5.37491,"is_reserved":false,"is_disabled":false,"rental_uris":{"android":"levelo://app?vid=22465212-93af-4e0b-b803-6ee82bba56d5","ios":"levelo://app?vid=22465212-93af-4e0b-b803-6ee82bba56d5"},"vehicle_type_id":"4","last_reported":1737025624,"current_range_meters":32800,"station_id":"","pricing_plan_id":"cebpf4jnsgd1na2vs0mg"},{"bike_id":"60c48e84-151f-4edd-83cd-789ff87c7f63","system_id":"levelo_inurba_marseille","lat":43.28729,"lon":5.3738,"is_reserved":false,"is_disabled":false,"rental_uris":{"android":"levelo://app?vid=60c48e84-151f-4edd-83cd-789ff87c7f63","ios":"levelo://app?vid=60c48e84-151f-4edd-83cd-789ff87c7f63"},"vehicle_type_id":"4","last_reported":1737025624,"current_range_meters":25200,"station_id":"ce4bh3p2rcd13ifvqdq0","pricing_plan_id":"cebpf4jnsgd1na2vs0mg"},{"bike_id":"dffa7608-1b33-42bb-9ad8-7f65390a45e4","system_id":"levelo_inurba_marseille","lat":43.29253,"lon":5.40178,"is_reserved":false,"is_disabled":true,"rental_uris":{"android":"levelo://app?vid=dffa7608-1b33-42bb-9ad8-7f65390a45e4","ios":"levelo://app?vid=dffa7608-1b33-42bb-9ad8-7f65390a45e4"},"vehicle_type_id":"4","last_reported":1737025624,"current_range_meters":38800,"station_id":"","pricing_plan_id":"cebpf4jnsgd1na2vs0mg"},{"bike_id":"7eb33b08-969b-4d1e-b1a6-89a0f841df57","system_id":"levelo_inurba_marseille","lat":43.29087,"lon":5.38131,"is_reserved":false,"is_disabled":false,"rental_uris":{"android":"levelo://app?vid=7eb33b08-969b-4d1e-b1a6-89a0f841df57","ios":"levelo://app?vid=7eb33b08-969b-4d1e-b1a6-89a0f841df57"},"vehicle_type_id":"4","last_reported":1737025624,"current_range_meters":30800,"station_id":"ce4bh512rcd13ifvqe2g","pricing_plan_id":"cebpf4jnsgd1na2vs0mg"},{"bike_id":"6a347207-180d-4e7c-93f5-4bea3bb7b491","system_id":"levelo_inurba_marseille","lat":43.32368,"lon":5.38884,"is_reserved":false,"is_disabled":false,"rental_uris":{"android":"levelo://app?vid=6a347207-180d-4e7c-93f5-4bea3bb7b491","ios":"levelo://app?vid=6a347207-180d-4e7c-93f5-4bea3bb7b491"},"vehicle_type_id":"4","last_reported":1737025624,"current_range_meters":33600,"station_id":"ce4bhqp2rcd13ifvqhog","pricing_plan_id":"cebpf4jnsgd1na2vs0mg"},{"bike_id":"b6d85b3a-17cd-4bed-b9f4-537df8e32082","system_id":"levelo_inurba_marseille","lat":43.29032,"lon":5.38637,"is_reserved":false,"is_disabled":false,"rental_uris":{"android":"levelo://app?vid=b6d85b3a-17cd-4bed-b9f4-537df8e32082","ios":"levelo://app?vid=b6d85b3a-17cd-4bed-b9f4-537df8e32082"},"vehicle_type_id":"4","last_reported":1737025624,"current_range_meters":38400,"station_id":"ce4bh4p2rcd13ifvqe0g","pricing_plan_id":"cebpf4jnsgd1na2vs0mg"},{"bike_id":"8ea1e7e9-0f2a-4dd7-89ec-43af818b1ec4","system_id":"levelo_inurba_marseille","lat":43.319,"lon":5.40744,"is_reserved":false,"is_disabled":false,"rental_uris":{"android":"levelo://app?vid=8ea1e7e9-0f2a-4dd7-89ec-43af818b1ec4","ios":"levelo://app?vid=8ea1e7e9-0f2a-4dd7-89ec-43af818b1ec4"},"vehicle_type_id":"4","last_reported":1737025624,"current_range_meters":10000,"station_id":"ce4bhq12rcd13ifvqhig","pricing_plan_id":"cebpf4jnsgd1na2vs0mg"},{"bike_id":"8949aca5-2f6e-45b7-8bc9-20e9801a8a4e","system_id":"levelo_inurba_marseille","lat":43.28026,"lon":5.38576,"is_reserved":false,"is_disabled":false,"rental_uris":{"android":"levelo://app?vid=8949aca5-2f6e-45b7-8bc9-20e9801a8a4e","ios":"levelo://app?vid=8949aca5-2f6e-45b7-8bc9-20e9801a8a4e"},"vehicle_type_id":"4","last_reported":1737025624,"current_range_meters":38800,"station_id":"","pricing_plan_id":"cebpf4jnsgd1na2vs0mg"},{"bike_id":"0c74b65d-6a6b-4f50-a23b-6454b7a923c5","system_id":"levelo_inurba_marseille","lat":43.305378,"lon":5.366988,"is_reserved":false,"is_disabled":false,"rental_uris":{"android":"levelo://app?vid=0c74b65d-6a6b-4f50-a23b-6454b7a923c5","ios":"levelo://app?vid=0c74b65d-6a6b-4f50-a23b-6454b7a923c5"},"vehicle_type_id":"4","last_reported":1737025624,"current_range_meters":27600,"station_id":"ce4bgrp2rcd13ifvqc9g","pricing_plan_id":"cebpf4jnsgd1na2vs0mg"},{"bike_id":"21d03a75-e24d-418b-aea6-29dc0e8be537","system_id":"levelo_inurba_marseille","lat":43.30555,"lon":5.36563,"is_reserved":false,"is_disabled":false,"rental_uris":{"android":"levelo://app?vid=21d03a75-e24d-418b-aea6-29dc0e8be537","ios":"levelo://app?vid=21d03a75-e24d-418b-aea6-29dc0e8be537"},"vehicle_type_id":"4","last_reported":1737025624,"current_range_meters":29600,"station_id":"ce4bgs12rcd13ifvqcag","pricing_plan_id":"cebpf4jnsgd1na2vs0mg"},{"bike_id":"6b101398-c839-47ae-acf9-206d25f6e16e","system_id":"levelo_inurba_marseille","lat":43.30276,"lon":5.37704,"is_reserved":false,"is_disabled":false,"rental_uris":{"android":"levelo://app?vid=6b101398-c839-47ae-acf9-206d25f6e16e","ios":"levelo://app?vid=6b101398-c839-47ae-acf9-206d25f6e16e"},"vehicle_type_id":"4","last_reported":1737025624,"current_range_meters":33200,"station_id":"ce4bguh2rcd13ifvqcj0","pricing_plan_id":"cebpf4jnsgd1na2vs0mg"},{"bike_id":"92887c71-bfa3-4c53-aedc-a0b1307add74","system_id":"levelo_inurba_marseille","lat":43.30139,"lon":5.38069,"is_reserved":false,"is_disabled":false,"rental_uris":{"android":"levelo://app?vid=92887c71-bfa3-4c53-aedc-a0b1307add74","ios":"levelo://app?vid=92887c71-bfa3-4c53-aedc-a0b1307add74"},"vehicle_type_id":"4","last_reported":1737025624,"current_range_meters":18000,"station_id":"ce4bgjp2rcd13ifvqbh0","pricing_plan_id":"cebpf4jnsgd1na2vs0mg"},{"bike_id":"917148ce-4c9d-450a-97ee-d2deee4d50c3","system_id":"levelo_inurba_marseille","lat":43.32439,"lon":5.36581,"is_reserved":false,"is_disabled":false,"rental_uris":{"android":"levelo://app?vid=917148ce-4c9d-450a-97ee-d2deee4d50c3","ios":"levelo://app?vid=917148ce-4c9d-450a-97ee-d2deee4d50c3"},"vehicle_type_id":"4","last_reported":1737025624,"current_range_meters":11200,"station_id":"ce4bhs12rcd13ifvqhvg","pricing_plan_id":"cebpf4jnsgd1na2vs0mg"},{"bike_id":"1789f462-080f-4ca8-a4cc-e0a2cc6279ff","system_id":"levelo_inurba_marseille","lat":43.30955,"lon":5.39048,"is_reserved":false,"is_disabled":true,"rental_uris":{"android":"levelo://app?vid=1789f462-080f-4ca8-a4cc-e0a2cc6279ff","ios":"levelo://app?vid=1789f462-080f-4ca8-a4cc-e0a2cc6279ff"},"vehicle_type_id":"4","last_reported":1737025624,"current_range_meters":0,"station_id":"ce4bgup2rcd13ifvqco0","pricing_plan_id":"cebpf4jnsgd1na2vs0mg"},{"bike_id":"5f73b1c5-bb2a-4fac-9eb7-14c830fab3ce","system_id":"levelo_inurba_marseille","lat":43.2984,"lon":5.36269,"is_reserved":false,"is_disabled":false,"rental_uris":{"android":"levelo://app?vid=5f73b1c5-bb2a-4fac-9eb7-14c830fab3ce","ios":"levelo://app?vid=5f73b1c5-bb2a-4fac-9eb7-14c830fab3ce"},"vehicle_type_id":"4","last_reported":1737025624,"current_range_meters":28000,"station_id":"ce4bgpp2rcd13ifvqc3g","pricing_plan_id":"cebpf4jnsgd1na2vs0mg"},{"bike_id":"738bcc5b-74a3-45e1-9475-7137ecbe17f5","system_id":"levelo_inurba_marseille","lat":43.26062,"lon":5.39393,"is_reserved":false,"is_disabled":false,"rental_uris":{"android":"levelo://app?vid=738bcc5b-74a3-45e1-9475-7137ecbe17f5","ios":"levelo://app?vid=738bcc5b-74a3-45e1-9475-7137ecbe17f5"},"vehicle_type_id":"4","last_reported":1737025624,"current_range_meters":34000,"station_id":"ce4bhh92rcd13ifvqfj0","pricing_plan_id":"cebpf4jnsgd1na2vs0mg"},{"bike_id":"6a7366d7-ed8c-4629-bf0c-70c2abcda36d","system_id":"levelo_inurba_marseille","lat":43.23194,"lon":5.35555,"is_reserved":false,"is_disabled":false,"rental_uris":{"android":"levelo://app?vid=6a7366d7-ed8c-4629-bf0c-70c2abcda36d","ios":"levelo://app?vid=6a7366d7-ed8c-4629-bf0c-70c2abcda36d"},"vehicle_type_id":"4","last_reported":1737025624,"current_range_meters":11600,"station_id":"ce4bhu92rcd13ifvqi70","pricing_plan_id":"cebpf4jnsgd1na2vs0mg"},{"bike_id":"753eac77-207d-448b-a7cb-5ef78c37c033","system_id":"levelo_inurba_marseille","lat":43.30312,"lon":5.37648,"is_reserved":false,"is_disabled":false,"rental_uris":{"android":"levelo://app?vid=753eac77-207d-448b-a7cb-5ef78c37c033","ios":"levelo://app?vid=753eac77-207d-448b-a7cb-5ef78c37c033"},"vehicle_type_id":"4","last_reported":1737025624,"current_range_meters":16000,"station_id":"ce4bguh2rcd13ifvqcj0","pricing_plan_id":"cebpf4jnsgd1na2vs0mg"},{"bike_id":"2d7f3353-743b-41e1-85f2-e32181d4ae48","system_id":"levelo_inurba_marseille","lat":43.32,"lon":5.38165,"is_reserved":false,"is_disabled":false,"rental_uris":{"android":"levelo://app?vid=2d7f3353-743b-41e1-85f2-e32181d4ae48","ios":"levelo://app?vid=2d7f3353-743b-41e1-85f2-e32181d4ae48"},"vehicle_type_id":"4","last_reported":1737025624,"current_range_meters":33600,"station_id":"ce4bhr12rcd13ifvqhpg","pricing_plan_id":"cebpf4jnsgd1na2vs0mg"},{"bike_id":"7e3ee2e7-7482-4133-a472-006dba3905fa","system_id":"levelo_inurba_marseille","lat":43.25513,"lon":5.37691,"is_reserved":false,"is_disabled":false,"rental_uris":{"android":"levelo://app?vid=7e3ee2e7-7482-4133-a472-006dba3905fa","ios":"levelo://app?vid=7e3ee2e7-7482-4133-a472-006dba3905fa"},"vehicle_type_id":"4","last_reported":1737025624,"current_range_meters":28000,"station_id":"ce4bhh12rcd13ifvqff0","pricing_plan_id":"cebpf4jnsgd1na2vs0mg"},{"bike_id":"d6248787-bad6-4726-aab8-dd8572187026","system_id":"levelo_inurba_marseille","lat":43.30262,"lon":5.37727,"is_reserved":false,"is_disabled":false,"rental_uris":{"android":"levelo://app?vid=d6248787-bad6-4726-aab8-dd8572187026","ios":"levelo://app?vid=d6248787-bad6-4726-aab8-dd8572187026"},"vehicle_type_id":"4","last_reported":1737025624,"current_range_meters":34000,"station_id":"ce4bguh2rcd13ifvqcj0","pricing_plan_id":"cebpf4jnsgd1na2vs0mg"},{"bike_id":"4f5ca9e0-e2a1-4664-b4a6-59bf7aee58ce","system_id":"levelo_inurba_marseille","lat":43.32658,"lon":5.40993,"is_reserved":false,"is_disabled":false,"rental_uris":{"android":"levelo://app?vid=4f5ca9e0-e2a1-4664-b4a6-59bf7aee58ce","ios":"levelo://app?vid=4f5ca9e0-e2a1-4664-b4a6-59bf7aee58ce"},"vehicle_type_id":"4","last_reported":1737025624,"current_range_meters":19200,"station_id":"ce4bhpp2rcd13ifvqhgg","pricing_plan_id":"cebpf4jnsgd1na2vs0mg"},{"bike_id":"0d56d9f6-53f9-4f2e-a17a-459ac7c6344a","system_id":"levelo_inurba_marseille","lat":43.29194,"lon":5.35809,"is_reserved":false,"is_disabled":false,"rental_uris":{"android":"levelo://app?vid=0d56d9f6-53f9-4f2e-a17a-459ac7c6344a","ios":"levelo://app?vid=0d56d9f6-53f9-4f2e-a17a-459ac7c6344a"},"vehicle_type_id":"4","last_reported":1737025624,"current_range_meters":28800,"station_id":"ce4bhb12rcd13ifvqel0","pricing_plan_id":"cebpf4jnsgd1na2vs0mg"},{"bike_id":"b583689d-4b3b-4fec-a4c3-0358dd755494","system_id":"levelo_inurba_marseille","lat":43.26693,"lon":5.38253,"is_reserved":false,"is_disabled":false,"rental_uris":{"android":"levelo://app?vid=b583689d-4b3b-4fec-a4c3-0358dd755494","ios":"levelo://app?vid=b583689d-4b3b-4fec-a4c3-0358dd755494"},"vehicle_type_id":"4","last_reported":1737025624,"current_range_meters":38400,"station_id":"ce4bhg92rcd13ifvqf90","pricing_plan_id":"cebpf4jnsgd1na2vs0mg"},{"bike_id":"03c89c13-0ec7-4a1c-a716-72ad83f27566","system_id":"levelo_inurba_marseille","lat":43.28268,"lon":5.35064,"is_reserved":false,"is_disabled":false,"rental_uris":{"android":"levelo://app?vid=03c89c13-0ec7-4a1c-a716-72ad83f27566","ios":"levelo://app?vid=03c89c13-0ec7-4a1c-a716-72ad83f27566"},"vehicle_type_id":"4","last_reported":1737025624,"current_range_meters":27200,"station_id":"ce4bhbp2rcd13ifvqerg","pricing_plan_id":"cebpf4jnsgd1na2vs0mg"},{"bike_id":"5d42a98e-bef8-43af-946e-751274f82d4c","system_id":"levelo_inurba_marseille","lat":43.23653,"lon":5.43619,"is_reserved":false,"is_disabled":true,"rental_uris":{"android":"levelo://app?vid=5d42a98e-bef8-43af-946e-751274f82d4c","ios":"levelo://app?vid=5d42a98e-bef8-43af-946e-751274f82d4c"},"vehicle_type_id":"4","last_reported":1737025624,"current_range_meters":32000,"station_id":"","pricing_plan_id":"cebpf4jnsgd1na2vs0mg"},{"bike_id":"b71cb508-0b8e-4e4f-bed8-38d98b2efa2d","system_id":"levelo_inurba_marseille","lat":43.29838,"lon":5.36271,"is_reserved":false,"is_disabled":false,"rental_uris":{"android":"levelo://app?vid=b71cb508-0b8e-4e4f-bed8-38d98b2efa2d","ios":"levelo://app?vid=b71cb508-0b8e-4e4f-bed8-38d98b2efa2d"},"vehicle_type_id":"4","last_reported":1737025624,"current_range_meters":35200,"station_id":"ce4bgpp2rcd13ifvqc3g","pricing_plan_id":"cebpf4jnsgd1na2vs0mg"},{"bike_id":"6bb0c2df-6198-4645-b80a-340391eb447c","system_id":"levelo_inurba_marseille","lat":43.28166,"lon":5.42621,"is_reserved":false,"is_disabled":false,"rental_uris":{"android":"levelo://app?vid=6bb0c2df-6198-4645-b80a-340391eb447c","ios":"levelo://app?vid=6bb0c2df-6198-4645-b80a-340391eb447c"},"vehicle_type_id":"4","last_reported":1737025624,"current_range_meters":30400,"station_id":"ce4bhnh2rcd13ifvqgug","pricing_plan_id":"cebpf4jnsgd1na2vs0mg"},{"bike_id":"6c02ae22-4e33-4b73-a0d5-7fa499611cc2","system_id":"levelo_inurba_marseille","lat":43.231582,"lon":5.436941,"is_reserved":false,"is_disabled":false,"rental_uris":{"android":"levelo://app?vid=6c02ae22-4e33-4b73-a0d5-7fa499611cc2","ios":"levelo://app?vid=6c02ae22-4e33-4b73-a0d5-7fa499611cc2"},"vehicle_type_id":"4","last_reported":1737025624,"current_range_meters":35200,"station_id":"ce4bhmp2rcd13ifvqgog","pricing_plan_id":"cebpf4jnsgd1na2vs0mg"},{"bike_id":"e368b60e-b1fd-4ca5-a2f0-fcc4115e234a","system_id":"levelo_inurba_marseille","lat":43.2787,"lon":5.38021,"is_reserved":false,"is_disabled":false,"rental_uris":{"android":"levelo://app?vid=e368b60e-b1fd-4ca5-a2f0-fcc4115e234a","ios":"levelo://app?vid=e368b60e-b1fd-4ca5-a2f0-fcc4115e234a"},"vehicle_type_id":"4","last_reported":1737025624,"current_range_meters":39200,"station_id":"ce4bhf92rcd13ifvqf50","pricing_plan_id":"cebpf4jnsgd1na2vs0mg"},{"bike_id":"f3000f12-d78d-46d5-99ca-8a4e13f94f9e","system_id":"levelo_inurba_marseille","lat":43.25482,"lon":5.37669,"is_reserved":false,"is_disabled":false,"rental_uris":{"android":"levelo://app?vid=f3000f12-d78d-46d5-99ca-8a4e13f94f9e","ios":"levelo://app?vid=f3000f12-d78d-46d5-99ca-8a4e13f94f9e"},"vehicle_type_id":"4","last_reported":1737025624,"current_range_meters":38800,"station_id":"ce4bhh12rcd13ifvqff0","pricing_plan_id":"cebpf4jnsgd1na2vs0mg"},{"bike_id":"133cc338-2cd1-4934-acb9-fb687e9c6d5f","system_id":"levelo_inurba_marseille","lat":43.29697,"lon":5.37285,"is_reserved":false,"is_disabled":false,"rental_uris":{"android":"levelo://app?vid=133cc338-2cd1-4934-acb9-fb687e9c6d5f","ios":"levelo://app?vid=133cc338-2cd1-4934-acb9-fb687e9c6d5f"},"vehicle_type_id":"4","last_reported":1737025624,"current_range_meters":37600,"station_id":"ce4bgk12rcd13ifvqbj0","pricing_plan_id":"cebpf4jnsgd1na2vs0mg"},{"bike_id":"6003524c-18e4-4d25-8fc7-903f93c12173","system_id":"levelo_inurba_marseille","lat":43.30125,"lon":5.3879,"is_reserved":false,"is_disabled":true,"rental_uris":{"android":"levelo://app?vid=6003524c-18e4-4d25-8fc7-903f93c12173","ios":"levelo://app?vid=6003524c-18e4-4d25-8fc7-903f93c12173"},"vehicle_type_id":"4","last_reported":1737025624,"current_range_meters":38800,"station_id":"ce4bghh2rcd13ifvqb60","pricing_plan_id":"cebpf4jnsgd1na2vs0mg"},{"bike_id":"ad85abad-809e-4160-8548-6f9c0ed9a3d3","system_id":"levelo_inurba_marseille","lat":43.29922,"lon":5.36535,"is_reserved":false,"is_disabled":false,"rental_uris":{"android":"levelo://app?vid=ad85abad-809e-4160-8548-6f9c0ed9a3d3","ios":"levelo://app?vid=ad85abad-809e-4160-8548-6f9c0ed9a3d3"},"vehicle_type_id":"4","last_reported":1737025624,"current_range_meters":37600,"station_id":"ce4bgm92rcd13ifvqbr0","pricing_plan_id":"cebpf4jnsgd1na2vs0mg"},{"bike_id":"89f30ead-0a8b-459a-bdc1-f0908a634560","system_id":"levelo_inurba_marseille","lat":43.29621,"lon":5.37173,"is_reserved":false,"is_disabled":false,"rental_uris":{"android":"levelo://app?vid=89f30ead-0a8b-459a-bdc1-f0908a634560","ios":"levelo://app?vid=89f30ead-0a8b-459a-bdc1-f0908a634560"},"vehicle_type_id":"4","last_reported":1737025624,"current_range_meters":12800,"station_id":"ce4bgnh2rcd13ifvqc0g","pricing_plan_id":"cebpf4jnsgd1na2vs0mg"},{"bike_id":"ad15c152-e46b-46c3-9ed0-7473f2973f71","system_id":"levelo_inurba_marseille","lat":43.29869,"lon":5.39728,"is_reserved":false,"is_disabled":false,"rental_uris":{"android":"levelo://app?vid=ad15c152-e46b-46c3-9ed0-7473f2973f71","ios":"levelo://app?vid=ad15c152-e46b-46c3-9ed0-7473f2973f71"},"vehicle_type_id":"4","last_reported":1737025624,"current_range_meters":14800,"station_id":"ce4bh0h2rcd13ifvqd50","pricing_plan_id":"cebpf4jnsgd1na2vs0mg"},{"bike_id":"b4aad00c-cb30-4149-b33b-cd525b616d74","system_id":"levelo_inurba_marseille","lat":43.29531,"lon":5.37499,"is_reserved":false,"is_disabled":false,"rental_uris":{"android":"levelo://app?vid=b4aad00c-cb30-4149-b33b-cd525b616d74","ios":"levelo://app?vid=b4aad00c-cb30-4149-b33b-cd525b616d74"},"vehicle_type_id":"4","last_reported":1737025624,"current_range_meters":20800,"station_id":"ce4bgkp2rcd13ifvqbmg","pricing_plan_id":"cebpf4jnsgd1na2vs0mg"},{"bike_id":"e21a33db-4ff7-44b2-a73f-b5c05a38c476","system_id":"levelo_inurba_marseille","lat":43.25485,"lon":5.37657,"is_reserved":false,"is_disabled":false,"rental_uris":{"android":"levelo://app?vid=e21a33db-4ff7-44b2-a73f-b5c05a38c476","ios":"levelo://app?vid=e21a33db-4ff7-44b2-a73f-b5c05a38c476"},"vehicle_type_id":"4","last_reported":1737025624,"current_range_meters":38400,"station_id":"ce4bhh12rcd13ifvqff0","pricing_plan_id":"cebpf4jnsgd1na2vs0mg"},{"bike_id":"b6cc3290-8d97-4a09-b52c-61d9cb4c3b4e","system_id":"levelo_inurba_marseille","lat":43.305428,"lon":5.366908,"is_reserved":false,"is_disabled":false,"rental_uris":{"android":"levelo://app?vid=b6cc3290-8d97-4a09-b52c-61d9cb4c3b4e","ios":"levelo://app?vid=b6cc3290-8d97-4a09-b52c-61d9cb4c3b4e"},"vehicle_type_id":"4","last_reported":1737025624,"current_range_meters":32800,"station_id":"ce4bgrp2rcd13ifvqc9g","pricing_plan_id":"cebpf4jnsgd1na2vs0mg"},{"bike_id":"30279267-2c15-4b66-8941-f3b2637bc5b8","system_id":"levelo_inurba_marseille","lat":43.24159,"lon":5.39764,"is_reserved":false,"is_disabled":false,"rental_uris":{"android":"levelo://app?vid=30279267-2c15-4b66-8941-f3b2637bc5b8","ios":"levelo://app?vid=30279267-2c15-4b66-8941-f3b2637bc5b8"},"vehicle_type_id":"4","last_reported":1737025624,"current_range_meters":27600,"station_id":"ce4bhn12rcd13ifvqgpg","pricing_plan_id":"cebpf4jnsgd1na2vs0mg"},{"bike_id":"436208d9-22ee-4b59-8ade-7d37f5f818f8","system_id":"levelo_inurba_marseille","lat":43.30326,"lon":5.39118,"is_reserved":false,"is_disabled":true,"rental_uris":{"android":"levelo://app?vid=436208d9-22ee-4b59-8ade-7d37f5f818f8","ios":"levelo://app?vid=436208d9-22ee-4b59-8ade-7d37f5f818f8"},"vehicle_type_id":"4","last_reported":1737025624,"current_range_meters":3600,"station_id":"ce4bgkh2rcd13ifvqbk0","pricing_plan_id":"cebpf4jnsgd1na2vs0mg"},{"bike_id":"583918cb-ac81-4254-8800-1b69153f873e","system_id":"levelo_inurba_marseille","lat":43.2315,"lon":5.43716,"is_reserved":false,"is_disabled":false,"rental_uris":{"android":"levelo://app?vid=583918cb-ac81-4254-8800-1b69153f873e","ios":"levelo://app?vid=583918cb-ac81-4254-8800-1b69153f873e"},"vehicle_type_id":"4","last_reported":1737025624,"current_range_meters":28400,"station_id":"ce4bhmp2rcd13ifvqgog","pricing_plan_id":"cebpf4jnsgd1na2vs0mg"},{"bike_id":"98768946-b663-453c-9c00-005495f05d8d","system_id":"levelo_inurba_marseille","lat":43.269615,"lon":5.392533,"is_reserved":false,"is_disabled":false,"rental_uris":{"android":"levelo://app?vid=98768946-b663-453c-9c00-005495f05d8d","ios":"levelo://app?vid=98768946-b663-453c-9c00-005495f05d8d"},"vehicle_type_id":"4","last_reported":1737025624,"current_range_meters":22000,"station_id":"ce4bhh12rcd13ifvqfg0","pricing_plan_id":"cebpf4jnsgd1na2vs0mg"},{"bike_id":"b66c8a7c-98ac-480c-a383-f54813a2d5aa","system_id":"levelo_inurba_marseille","lat":43.25828,"lon":5.3945,"is_reserved":false,"is_disabled":false,"rental_uris":{"android":"levelo://app?vid=b66c8a7c-98ac-480c-a383-f54813a2d5aa","ios":"levelo://app?vid=b66c8a7c-98ac-480c-a383-f54813a2d5aa"},"vehicle_type_id":"4","last_reported":1737025624,"current_range_meters":39200,"station_id":"ce4bhip2rcd13ifvqft0","pricing_plan_id":"cebpf4jnsgd1na2vs0mg"},{"bike_id":"e17b6980-3f7c-4d79-b8d3-f4bf7717c3e6","system_id":"levelo_inurba_marseille","lat":43.24687,"lon":5.38145,"is_reserved":false,"is_disabled":false,"rental_uris":{"android":"levelo://app?vid=e17b6980-3f7c-4d79-b8d3-f4bf7717c3e6","ios":"levelo://app?vid=e17b6980-3f7c-4d79-b8d3-f4bf7717c3e6"},"vehicle_type_id":"4","last_reported":1737025624,"current_range_meters":23200,"station_id":"ce4bhih2rcd13ifvqfr0","pricing_plan_id":"cebpf4jnsgd1na2vs0mg"},{"bike_id":"ccfe53f0-8dfd-4f5f-b4c7-b77b106d12b3","system_id":"levelo_inurba_marseille","lat":43.24655,"lon":5.38179,"is_reserved":false,"is_disabled":false,"rental_uris":{"android":"levelo://app?vid=ccfe53f0-8dfd-4f5f-b4c7-b77b106d12b3","ios":"levelo://app?vid=ccfe53f0-8dfd-4f5f-b4c7-b77b106d12b3"},"vehicle_type_id":"4","last_reported":1737025624,"current_range_meters":39200,"station_id":"ce4bhih2rcd13ifvqfr0","pricing_plan_id":"cebpf4jnsgd1na2vs0mg"},{"bike_id":"f502b863-3e0c-43df-b90d-ca375f733852","system_id":"levelo_inurba_marseille","lat":43.30576,"lon":5.36514,"is_reserved":false,"is_disabled":false,"rental_uris":{"android":"levelo://app?vid=f502b863-3e0c-43df-b90d-ca375f733852","ios":"levelo://app?vid=f502b863-3e0c-43df-b90d-ca375f733852"},"vehicle_type_id":"4","last_reported":1737025624,"current_range_meters":22000,"station_id":"ce4bgs12rcd13ifvqcag","pricing_plan_id":"cebpf4jnsgd1na2vs0mg"},{"bike_id":"6ce1567f-2b20-42d1-80d2-0abf181b2c5d","system_id":"levelo_inurba_marseille","lat":43.29056,"lon":5.37993,"is_reserved":false,"is_disabled":false,"rental_uris":{"android":"levelo://app?vid=6ce1567f-2b20-42d1-80d2-0abf181b2c5d","ios":"levelo://app?vid=6ce1567f-2b20-42d1-80d2-0abf181b2c5d"},"vehicle_type_id":"4","last_reported":1737025624,"current_range_meters":32400,"station_id":"","pricing_plan_id":"cebpf4jnsgd1na2vs0mg"},{"bike_id":"98c7f46d-51b5-4520-b1da-5976f39fe891","system_id":"levelo_inurba_marseille","lat":43.22932,"lon":5.35384,"is_reserved":false,"is_disabled":false,"rental_uris":{"android":"levelo://app?vid=98c7f46d-51b5-4520-b1da-5976f39fe891","ios":"levelo://app?vid=98c7f46d-51b5-4520-b1da-5976f39fe891"},"vehicle_type_id":"4","last_reported":1737025624,"current_range_meters":20000,"station_id":"cpo3532slgdg3j2ikp40","pricing_plan_id":"cebpf4jnsgd1na2vs0mg"},{"bike_id":"ad438cbd-b0e7-4927-a33d-b41377690113","system_id":"levelo_inurba_marseille","lat":43.295246,"lon":5.375069,"is_reserved":false,"is_disabled":false,"rental_uris":{"android":"levelo://app?vid=ad438cbd-b0e7-4927-a33d-b41377690113","ios":"levelo://app?vid=ad438cbd-b0e7-4927-a33d-b41377690113"},"vehicle_type_id":"4","last_reported":1737025624,"current_range_meters":33200,"station_id":"ce4bgkp2rcd13ifvqbmg","pricing_plan_id":"cebpf4jnsgd1na2vs0mg"},{"bike_id":"c101e9d6-6586-4057-bcf2-225072af234f","system_id":"levelo_inurba_marseille","lat":43.30891,"lon":5.37209,"is_reserved":false,"is_disabled":false,"rental_uris":{"android":"levelo://app?vid=c101e9d6-6586-4057-bcf2-225072af234f","ios":"levelo://app?vid=c101e9d6-6586-4057-bcf2-225072af234f"},"vehicle_type_id":"4","last_reported":1737025624,"current_range_meters":28800,"station_id":"ce4bguh2rcd13ifvqckg","pricing_plan_id":"cebpf4jnsgd1na2vs0mg"},{"bike_id":"44721705-52d0-4eba-b0b2-b41ea9586411","system_id":"levelo_inurba_marseille","lat":43.23194,"lon":5.35559,"is_reserved":false,"is_disabled":false,"rental_uris":{"android":"levelo://app?vid=44721705-52d0-4eba-b0b2-b41ea9586411","ios":"levelo://app?vid=44721705-52d0-4eba-b0b2-b41ea9586411"},"vehicle_type_id":"4","last_reported":1737025624,"current_range_meters":34800,"station_id":"ce4bhu92rcd13ifvqi70","pricing_plan_id":"cebpf4jnsgd1na2vs0mg"},{"bike_id":"24170ccc-3bf5-420f-8934-aaa38745f2ac","system_id":"levelo_inurba_marseille","lat":43.27494,"lon":5.42478,"is_reserved":false,"is_disabled":true,"rental_uris":{"android":"levelo://app?vid=24170ccc-3bf5-420f-8934-aaa38745f2ac","ios":"levelo://app?vid=24170ccc-3bf5-420f-8934-aaa38745f2ac"},"vehicle_type_id":"4","last_reported":1737025624,"current_range_meters":0,"station_id":"ce4bhn92rcd13ifvqgrg","pricing_plan_id":"cebpf4jnsgd1na2vs0mg"},{"bike_id":"5d48a0a6-c1d7-4848-98aa-39b09efe2a2a","system_id":"levelo_inurba_marseille","lat":43.30138,"lon":5.37432,"is_reserved":false,"is_disabled":false,"rental_uris":{"android":"levelo://app?vid=5d48a0a6-c1d7-4848-98aa-39b09efe2a2a","ios":"levelo://app?vid=5d48a0a6-c1d7-4848-98aa-39b09efe2a2a"},"vehicle_type_id":"4","last_reported":1737025624,"current_range_meters":38800,"station_id":"ce4bgs92rcd13ifvqcc0","pricing_plan_id":"cebpf4jnsgd1na2vs0mg"},{"bike_id":"c3e900b9-6619-4acc-8f92-27e9eda19f6d","system_id":"levelo_inurba_marseille","lat":43.28945,"lon":5.36602,"is_reserved":false,"is_disabled":true,"rental_uris":{"android":"levelo://app?vid=c3e900b9-6619-4acc-8f92-27e9eda19f6d","ios":"levelo://app?vid=c3e900b9-6619-4acc-8f92-27e9eda19f6d"},"vehicle_type_id":"4","last_reported":1737025624,"current_range_meters":0,"station_id":"ce4bhap2rcd13ifvqek0","pricing_plan_id":"cebpf4jnsgd1na2vs0mg"},{"bike_id":"cdaad3f4-277a-4f8c-98ff-d90d4eb032cc","system_id":"levelo_inurba_marseille","lat":43.31223,"lon":5.36858,"is_reserved":false,"is_disabled":false,"rental_uris":{"android":"levelo://app?vid=cdaad3f4-277a-4f8c-98ff-d90d4eb032cc","ios":"levelo://app?vid=cdaad3f4-277a-4f8c-98ff-d90d4eb032cc"},"vehicle_type_id":"4","last_reported":1737025624,"current_range_meters":10000,"station_id":"ce4bgl92rcd13ifvqbq0","pricing_plan_id":"cebpf4jnsgd1na2vs0mg"},{"bike_id":"5565ba63-8c08-4156-ad24-a446e77f076d","system_id":"levelo_inurba_marseille","lat":43.25514,"lon":5.37649,"is_reserved":false,"is_disabled":false,"rental_uris":{"android":"levelo://app?vid=5565ba63-8c08-4156-ad24-a446e77f076d","ios":"levelo://app?vid=5565ba63-8c08-4156-ad24-a446e77f076d"},"vehicle_type_id":"4","last_reported":1737025624,"current_range_meters":35600,"station_id":"ce4bhh12rcd13ifvqff0","pricing_plan_id":"cebpf4jnsgd1na2vs0mg"},{"bike_id":"3677afbf-68f9-4979-899f-7e1aaf00ce96","system_id":"levelo_inurba_marseille","lat":43.27954,"lon":5.41043,"is_reserved":false,"is_disabled":true,"rental_uris":{"android":"levelo://app?vid=3677afbf-68f9-4979-899f-7e1aaf00ce96","ios":"levelo://app?vid=3677afbf-68f9-4979-899f-7e1aaf00ce96"},"vehicle_type_id":"4","last_reported":1737025624,"current_range_meters":28400,"station_id":"ce4bhnp2rcd13ifvqh0g","pricing_plan_id":"cebpf4jnsgd1na2vs0mg"},{"bike_id":"e1f9a0b5-1419-4e67-ab24-a72ee45dfd85","system_id":"levelo_inurba_marseille","lat":43.2416,"lon":5.36411,"is_reserved":false,"is_disabled":false,"rental_uris":{"android":"levelo://app?vid=e1f9a0b5-1419-4e67-ab24-a72ee45dfd85","ios":"levelo://app?vid=e1f9a0b5-1419-4e67-ab24-a72ee45dfd85"},"vehicle_type_id":"4","last_reported":1737025624,"current_range_meters":22000,"station_id":"cpo36qri1sfpv3e86is0","pricing_plan_id":"cebpf4jnsgd1na2vs0mg"},{"bike_id":"e14fe674-d6e2-440f-88d5-ccc7cbea8f91","system_id":"levelo_inurba_marseille","lat":43.27494,"lon":5.42481,"is_reserved":false,"is_disabled":false,"rental_uris":{"android":"levelo://app?vid=e14fe674-d6e2-440f-88d5-ccc7cbea8f91","ios":"levelo://app?vid=e14fe674-d6e2-440f-88d5-ccc7cbea8f91"},"vehicle_type_id":"4","last_reported":1737025624,"current_range_meters":28400,"station_id":"ce4bhn92rcd13ifvqgrg","pricing_plan_id":"cebpf4jnsgd1na2vs0mg"},{"bike_id":"93bc7e9d-3047-482e-a396-1037e95fe874","system_id":"levelo_inurba_marseille","lat":43.32389,"lon":5.38148,"is_reserved":false,"is_disabled":false,"rental_uris":{"android":"levelo://app?vid=93bc7e9d-3047-482e-a396-1037e95fe874","ios":"levelo://app?vid=93bc7e9d-3047-482e-a396-1037e95fe874"},"vehicle_type_id":"4","last_reported":1737025624,"current_range_meters":18000,"station_id":"","pricing_plan_id":"cebpf4jnsgd1na2vs0mg"},{"bike_id":"1f0594a4-3ffd-4d41-80fb-d6812ea0d488","system_id":"levelo_inurba_marseille","lat":43.32455,"lon":5.36544,"is_reserved":false,"is_disabled":false,"rental_uris":{"android":"levelo://app?vid=1f0594a4-3ffd-4d41-80fb-d6812ea0d488","ios":"levelo://app?vid=1f0594a4-3ffd-4d41-80fb-d6812ea0d488"},"vehicle_type_id":"4","last_reported":1737025624,"current_range_meters":24400,"station_id":"ce4bhs12rcd13ifvqhvg","pricing_plan_id":"cebpf4jnsgd1na2vs0mg"},{"bike_id":"f7a93299-4b31-44c2-976e-82f7878bc418","system_id":"levelo_inurba_marseille","lat":43.25493,"lon":5.37663,"is_reserved":false,"is_disabled":false,"rental_uris":{"android":"levelo://app?vid=f7a93299-4b31-44c2-976e-82f7878bc418","ios":"levelo://app?vid=f7a93299-4b31-44c2-976e-82f7878bc418"},"vehicle_type_id":"4","last_reported":1737025624,"current_range_meters":39200,"station_id":"ce4bhh12rcd13ifvqff0","pricing_plan_id":"cebpf4jnsgd1na2vs0mg"},{"bike_id":"31f00ed0-b0ca-427a-9039-ac29c940ea2c","system_id":"levelo_inurba_marseille","lat":43.23188,"lon":5.35555,"is_reserved":false,"is_disabled":false,"rental_uris":{"android":"levelo://app?vid=31f00ed0-b0ca-427a-9039-ac29c940ea2c","ios":"levelo://app?vid=31f00ed0-b0ca-427a-9039-ac29c940ea2c"},"vehicle_type_id":"4","last_reported":1737025624,"current_range_meters":19600,"station_id":"ce4bhu92rcd13ifvqi70","pricing_plan_id":"cebpf4jnsgd1na2vs0mg"},{"bike_id":"186148b5-7eaa-47ac-a8e1-dd900de40200","system_id":"levelo_inurba_marseille","lat":43.29727,"lon":5.37676,"is_reserved":false,"is_disabled":true,"rental_uris":{"android":"levelo://app?vid=186148b5-7eaa-47ac-a8e1-dd900de40200","ios":"levelo://app?vid=186148b5-7eaa-47ac-a8e1-dd900de40200"},"vehicle_type_id":"4","last_reported":1737025624,"current_range_meters":38800,"station_id":"ce4bgkh2rcd13ifvqbl0","pricing_plan_id":"cebpf4jnsgd1na2vs0mg"},{"bike_id":"f9e5a463-34b8-4457-a6c7-8559edf448f8","system_id":"levelo_inurba_marseille","lat":43.27944,"lon":5.41056,"is_reserved":false,"is_disabled":false,"rental_uris":{"android":"levelo://app?vid=f9e5a463-34b8-4457-a6c7-8559edf448f8","ios":"levelo://app?vid=f9e5a463-34b8-4457-a6c7-8559edf448f8"},"vehicle_type_id":"4","last_reported":1737025624,"current_range_meters":33200,"station_id":"ce4bhnp2rcd13ifvqh0g","pricing_plan_id":"cebpf4jnsgd1na2vs0mg"},{"bike_id":"f4f9016c-8c85-4d85-a48f-08592c344b92","system_id":"levelo_inurba_marseille","lat":43.33797,"lon":5.37431,"is_reserved":false,"is_disabled":false,"rental_uris":{"android":"levelo://app?vid=f4f9016c-8c85-4d85-a48f-08592c344b92","ios":"levelo://app?vid=f4f9016c-8c85-4d85-a48f-08592c344b92"},"vehicle_type_id":"4","last_reported":1737025624,"current_range_meters":36800,"station_id":"","pricing_plan_id":"cebpf4jnsgd1na2vs0mg"},{"bike_id":"8ccdb8e3-5350-4cab-8a81-1bd6181a6c06","system_id":"levelo_inurba_marseille","lat":43.23195,"lon":5.35562,"is_reserved":false,"is_disabled":false,"rental_uris":{"android":"levelo://app?vid=8ccdb8e3-5350-4cab-8a81-1bd6181a6c06","ios":"levelo://app?vid=8ccdb8e3-5350-4cab-8a81-1bd6181a6c06"},"vehicle_type_id":"4","last_reported":1737025624,"current_range_meters":30000,"station_id":"ce4bhu92rcd13ifvqi70","pricing_plan_id":"cebpf4jnsgd1na2vs0mg"},{"bike_id":"481dc877-f116-42ef-854c-605d03cb6d5f","system_id":"levelo_inurba_marseille","lat":43.25874,"lon":5.39897,"is_reserved":false,"is_disabled":false,"rental_uris":{"android":"levelo://app?vid=481dc877-f116-42ef-854c-605d03cb6d5f","ios":"levelo://app?vid=481dc877-f116-42ef-854c-605d03cb6d5f"},"vehicle_type_id":"4","last_reported":1737025624,"current_range_meters":6400,"station_id":"ce4bhl92rcd13ifvqghg","pricing_plan_id":"cebpf4jnsgd1na2vs0mg"},{"bike_id":"debf1d68-8b1d-4b6b-9d17-2e6033da6eb8","system_id":"levelo_inurba_marseille","lat":43.33771,"lon":5.3743,"is_reserved":false,"is_disabled":false,"rental_uris":{"android":"levelo://app?vid=debf1d68-8b1d-4b6b-9d17-2e6033da6eb8","ios":"levelo://app?vid=debf1d68-8b1d-4b6b-9d17-2e6033da6eb8"},"vehicle_type_id":"4","last_reported":1737025624,"current_range_meters":38800,"station_id":"","pricing_plan_id":"cebpf4jnsgd1na2vs0mg"},{"bike_id":"500b8658-baf5-4bce-b6fe-d831d0682564","system_id":"levelo_inurba_marseille","lat":43.29623,"lon":5.3717,"is_reserved":false,"is_disabled":false,"rental_uris":{"android":"levelo://app?vid=500b8658-baf5-4bce-b6fe-d831d0682564","ios":"levelo://app?vid=500b8658-baf5-4bce-b6fe-d831d0682564"},"vehicle_type_id":"4","last_reported":1737025624,"current_range_meters":37600,"station_id":"ce4bgnh2rcd13ifvqc0g","pricing_plan_id":"cebpf4jnsgd1na2vs0mg"},{"bike_id":"8e0d9b16-404a-4dce-bf9d-69f53390b4c0","system_id":"levelo_inurba_marseille","lat":43.3254,"lon":5.41451,"is_reserved":false,"is_disabled":false,"rental_uris":{"android":"levelo://app?vid=8e0d9b16-404a-4dce-bf9d-69f53390b4c0","ios":"levelo://app?vid=8e0d9b16-404a-4dce-bf9d-69f53390b4c0"},"vehicle_type_id":"4","last_reported":1737025624,"current_range_meters":18800,"station_id":"ce4bhq12rcd13ifvqhhg","pricing_plan_id":"cebpf4jnsgd1na2vs0mg"},{"bike_id":"f5863b18-13a1-4c6e-92de-5668ea912ad3","system_id":"levelo_inurba_marseille","lat":43.26209,"lon":5.40467,"is_reserved":false,"is_disabled":false,"rental_uris":{"android":"levelo://app?vid=f5863b18-13a1-4c6e-92de-5668ea912ad3","ios":"levelo://app?vid=f5863b18-13a1-4c6e-92de-5668ea912ad3"},"vehicle_type_id":"4","last_reported":1737025624,"current_range_meters":3200,"station_id":"","pricing_plan_id":"cebpf4jnsgd1na2vs0mg"},{"bike_id":"a8fad254-19bb-48fe-801d-9e93d4767cef","system_id":"levelo_inurba_marseille","lat":43.31426,"lon":5.37407,"is_reserved":false,"is_disabled":false,"rental_uris":{"android":"levelo://app?vid=a8fad254-19bb-48fe-801d-9e93d4767cef","ios":"levelo://app?vid=a8fad254-19bb-48fe-801d-9e93d4767cef"},"vehicle_type_id":"4","last_reported":1737025624,"current_range_meters":3600,"station_id":"","pricing_plan_id":"cebpf4jnsgd1na2vs0mg"},{"bike_id":"ff61b838-1779-4f2d-9998-97679a733954","system_id":"levelo_inurba_marseille","lat":43.29575,"lon":5.39993,"is_reserved":false,"is_disabled":false,"rental_uris":{"android":"levelo://app?vid=ff61b838-1779-4f2d-9998-97679a733954","ios":"levelo://app?vid=ff61b838-1779-4f2d-9998-97679a733954"},"vehicle_type_id":"4","last_reported":1737025624,"current_range_meters":37600,"station_id":"ce4bh312rcd13ifvqdj0","pricing_plan_id":"cebpf4jnsgd1na2vs0mg"},{"bike_id":"e0fa3002-91fa-4175-b4a5-384242cc9125","system_id":"levelo_inurba_marseille","lat":43.31879,"lon":5.40744,"is_reserved":false,"is_disabled":false,"rental_uris":{"android":"levelo://app?vid=e0fa3002-91fa-4175-b4a5-384242cc9125","ios":"levelo://app?vid=e0fa3002-91fa-4175-b4a5-384242cc9125"},"vehicle_type_id":"4","last_reported":1737025624,"current_range_meters":30000,"station_id":"ce4bhq12rcd13ifvqhig","pricing_plan_id":"cebpf4jnsgd1na2vs0mg"},{"bike_id":"1e8963bf-a6ac-4652-9f38-178a774a00d3","system_id":"levelo_inurba_marseille","lat":43.3096,"lon":5.39064,"is_reserved":false,"is_disabled":false,"rental_uris":{"android":"levelo://app?vid=1e8963bf-a6ac-4652-9f38-178a774a00d3","ios":"levelo://app?vid=1e8963bf-a6ac-4652-9f38-178a774a00d3"},"vehicle_type_id":"4","last_reported":1737025624,"current_range_meters":17600,"station_id":"ce4bgup2rcd13ifvqco0","pricing_plan_id":"cebpf4jnsgd1na2vs0mg"},{"bike_id":"6d7035bc-03fb-481d-bb1e-5df61a4e2711","system_id":"levelo_inurba_marseille","lat":43.25499,"lon":5.37652,"is_reserved":false,"is_disabled":false,"rental_uris":{"android":"levelo://app?vid=6d7035bc-03fb-481d-bb1e-5df61a4e2711","ios":"levelo://app?vid=6d7035bc-03fb-481d-bb1e-5df61a4e2711"},"vehicle_type_id":"4","last_reported":1737025624,"current_range_meters":38800,"station_id":"ce4bhh12rcd13ifvqff0","pricing_plan_id":"cebpf4jnsgd1na2vs0mg"},{"bike_id":"c3f25f82-caf1-4aab-8a94-4b24f78b7159","system_id":"levelo_inurba_marseille","lat":43.30538,"lon":5.36545,"is_reserved":false,"is_disabled":false,"rental_uris":{"android":"levelo://app?vid=c3f25f82-caf1-4aab-8a94-4b24f78b7159","ios":"levelo://app?vid=c3f25f82-caf1-4aab-8a94-4b24f78b7159"},"vehicle_type_id":"4","last_reported":1737025624,"current_range_meters":24400,"station_id":"ce4bgs12rcd13ifvqcag","pricing_plan_id":"cebpf4jnsgd1na2vs0mg"},{"bike_id":"01b5991f-bcde-4812-b196-830ad45235ae","system_id":"levelo_inurba_marseille","lat":43.27208,"lon":5.39191,"is_reserved":false,"is_disabled":false,"rental_uris":{"android":"levelo://app?vid=01b5991f-bcde-4812-b196-830ad45235ae","ios":"levelo://app?vid=01b5991f-bcde-4812-b196-830ad45235ae"},"vehicle_type_id":"4","last_reported":1737025624,"current_range_meters":33600,"station_id":"ce4bhhp2rcd13ifvqfm0","pricing_plan_id":"cebpf4jnsgd1na2vs0mg"},{"bike_id":"1c713dbf-563c-4b9a-a220-f807249fec34","system_id":"levelo_inurba_marseille","lat":43.29581,"lon":5.3907,"is_reserved":false,"is_disabled":false,"rental_uris":{"android":"levelo://app?vid=1c713dbf-563c-4b9a-a220-f807249fec34","ios":"levelo://app?vid=1c713dbf-563c-4b9a-a220-f807249fec34"},"vehicle_type_id":"4","last_reported":1737025624,"current_range_meters":34000,"station_id":"ce4bh3p2rcd13ifvqdp0","pricing_plan_id":"cebpf4jnsgd1na2vs0mg"},{"bike_id":"27ae7d99-ba76-46da-ab68-27bee002a7d3","system_id":"levelo_inurba_marseille","lat":43.29624,"lon":5.37155,"is_reserved":false,"is_disabled":false,"rental_uris":{"android":"levelo://app?vid=27ae7d99-ba76-46da-ab68-27bee002a7d3","ios":"levelo://app?vid=27ae7d99-ba76-46da-ab68-27bee002a7d3"},"vehicle_type_id":"4","last_reported":1737025624,"current_range_meters":39200,"station_id":"ce4bgnh2rcd13ifvqc0g","pricing_plan_id":"cebpf4jnsgd1na2vs0mg"},{"bike_id":"ea98811a-14fb-46ff-a8f1-3655790db70b","system_id":"levelo_inurba_marseille","lat":43.30281,"lon":5.37751,"is_reserved":false,"is_disabled":false,"rental_uris":{"android":"levelo://app?vid=ea98811a-14fb-46ff-a8f1-3655790db70b","ios":"levelo://app?vid=ea98811a-14fb-46ff-a8f1-3655790db70b"},"vehicle_type_id":"4","last_reported":1737025624,"current_range_meters":32400,"station_id":"ce4bguh2rcd13ifvqcj0","pricing_plan_id":"cebpf4jnsgd1na2vs0mg"},{"bike_id":"9167c02e-40ee-4242-9c5f-98078e997aa9","system_id":"levelo_inurba_marseille","lat":43.30155,"lon":5.38078,"is_reserved":false,"is_disabled":false,"rental_uris":{"android":"levelo://app?vid=9167c02e-40ee-4242-9c5f-98078e997aa9","ios":"levelo://app?vid=9167c02e-40ee-4242-9c5f-98078e997aa9"},"vehicle_type_id":"4","last_reported":1737025624,"current_range_meters":37600,"station_id":"ce4bgjp2rcd13ifvqbh0","pricing_plan_id":"cebpf4jnsgd1na2vs0mg"},{"bike_id":"66a4f70c-477f-4fef-b25f-228f2ecbce2b","system_id":"levelo_inurba_marseille","lat":43.2837,"lon":5.38623,"is_reserved":false,"is_disabled":false,"rental_uris":{"android":"levelo://app?vid=66a4f70c-477f-4fef-b25f-228f2ecbce2b","ios":"levelo://app?vid=66a4f70c-477f-4fef-b25f-228f2ecbce2b"},"vehicle_type_id":"4","last_reported":1737025624,"current_range_meters":38800,"station_id":"ce4bh492rcd13ifvqdvg","pricing_plan_id":"cebpf4jnsgd1na2vs0mg"},{"bike_id":"9abe2b17-1bf5-467b-a63e-155a8326a1a5","system_id":"levelo_inurba_marseille","lat":43.27663,"lon":5.38903,"is_reserved":false,"is_disabled":false,"rental_uris":{"android":"levelo://app?vid=9abe2b17-1bf5-467b-a63e-155a8326a1a5","ios":"levelo://app?vid=9abe2b17-1bf5-467b-a63e-155a8326a1a5"},"vehicle_type_id":"4","last_reported":1737025624,"current_range_meters":6800,"station_id":"ce4bhi12rcd13ifvqfo0","pricing_plan_id":"cebpf4jnsgd1na2vs0mg"},{"bike_id":"2d72bbd9-ad22-4193-9e3e-1826cb532c67","system_id":"levelo_inurba_marseille","lat":43.337187,"lon":5.391964,"is_reserved":false,"is_disabled":false,"rental_uris":{"android":"levelo://app?vid=2d72bbd9-ad22-4193-9e3e-1826cb532c67","ios":"levelo://app?vid=2d72bbd9-ad22-4193-9e3e-1826cb532c67"},"vehicle_type_id":"4","last_reported":1737025624,"current_range_meters":38800,"station_id":"ce4bhr92rcd13ifvqhsg","pricing_plan_id":"cebpf4jnsgd1na2vs0mg"},{"bike_id":"c34b27b5-88a9-408e-ad0b-e13a237af707","system_id":"levelo_inurba_marseille","lat":43.30535,"lon":5.36708,"is_reserved":false,"is_disabled":false,"rental_uris":{"android":"levelo://app?vid=c34b27b5-88a9-408e-ad0b-e13a237af707","ios":"levelo://app?vid=c34b27b5-88a9-408e-ad0b-e13a237af707"},"vehicle_type_id":"4","last_reported":1737025624,"current_range_meters":38800,"station_id":"ce4bgrp2rcd13ifvqc9g","pricing_plan_id":"cebpf4jnsgd1na2vs0mg"},{"bike_id":"31a2f2b4-75b5-4b88-9256-df87dadf8654","system_id":"levelo_inurba_marseille","lat":43.29509,"lon":5.37524,"is_reserved":false,"is_disabled":false,"rental_uris":{"android":"levelo://app?vid=31a2f2b4-75b5-4b88-9256-df87dadf8654","ios":"levelo://app?vid=31a2f2b4-75b5-4b88-9256-df87dadf8654"},"vehicle_type_id":"4","last_reported":1737025624,"current_range_meters":37600,"station_id":"ce4bgkp2rcd13ifvqbmg","pricing_plan_id":"cebpf4jnsgd1na2vs0mg"},{"bike_id":"1359090f-f83b-4c77-88d9-bb562d515f09","system_id":"levelo_inurba_marseille","lat":43.27997,"lon":5.38661,"is_reserved":false,"is_disabled":false,"rental_uris":{"android":"levelo://app?vid=1359090f-f83b-4c77-88d9-bb562d515f09","ios":"levelo://app?vid=1359090f-f83b-4c77-88d9-bb562d515f09"},"vehicle_type_id":"4","last_reported":1737025624,"current_range_meters":38800,"station_id":"","pricing_plan_id":"cebpf4jnsgd1na2vs0mg"},{"bike_id":"a85734f7-971f-4e7f-b16f-e0535ecbe77b","system_id":"levelo_inurba_marseille","lat":43.24077,"lon":5.3777,"is_reserved":false,"is_disabled":false,"rental_uris":{"android":"levelo://app?vid=a85734f7-971f-4e7f-b16f-e0535ecbe77b","ios":"levelo://app?vid=a85734f7-971f-4e7f-b16f-e0535ecbe77b"},"vehicle_type_id":"4","last_reported":1737025624,"current_range_meters":38800,"station_id":"ce4bhnp2rcd13ifvqgvg","pricing_plan_id":"cebpf4jnsgd1na2vs0mg"},{"bike_id":"0fc6d91e-7999-48ab-a5ae-fe1c1d962765","system_id":"levelo_inurba_marseille","lat":43.27612,"lon":5.36106,"is_reserved":false,"is_disabled":false,"rental_uris":{"android":"levelo://app?vid=0fc6d91e-7999-48ab-a5ae-fe1c1d962765","ios":"levelo://app?vid=0fc6d91e-7999-48ab-a5ae-fe1c1d962765"},"vehicle_type_id":"4","last_reported":1737025624,"current_range_meters":22400,"station_id":"ce4bgj92rcd13ifvqbe0","pricing_plan_id":"cebpf4jnsgd1na2vs0mg"},{"bike_id":"de7a3373-349a-4ac5-8838-ec8fa2f36ccf","system_id":"levelo_inurba_marseille","lat":43.30949,"lon":5.39062,"is_reserved":false,"is_disabled":false,"rental_uris":{"android":"levelo://app?vid=de7a3373-349a-4ac5-8838-ec8fa2f36ccf","ios":"levelo://app?vid=de7a3373-349a-4ac5-8838-ec8fa2f36ccf"},"vehicle_type_id":"4","last_reported":1737025624,"current_range_meters":16800,"station_id":"ce4bgup2rcd13ifvqco0","pricing_plan_id":"cebpf4jnsgd1na2vs0mg"},{"bike_id":"2abf12b0-06cd-4e03-bbda-b8872a0c0a21","system_id":"levelo_inurba_marseille","lat":43.26954,"lon":5.38645,"is_reserved":false,"is_disabled":false,"rental_uris":{"android":"levelo://app?vid=2abf12b0-06cd-4e03-bbda-b8872a0c0a21","ios":"levelo://app?vid=2abf12b0-06cd-4e03-bbda-b8872a0c0a21"},"vehicle_type_id":"4","last_reported":1737025624,"current_range_meters":30800,"station_id":"ce4bhh92rcd13ifvqfh0","pricing_plan_id":"cebpf4jnsgd1na2vs0mg"},{"bike_id":"552376cc-f535-4381-bf86-4a91d7b20f52","system_id":"levelo_inurba_marseille","lat":43.26681,"lon":5.38271,"is_reserved":false,"is_disabled":false,"rental_uris":{"android":"levelo://app?vid=552376cc-f535-4381-bf86-4a91d7b20f52","ios":"levelo://app?vid=552376cc-f535-4381-bf86-4a91d7b20f52"},"vehicle_type_id":"4","last_reported":1737025624,"current_range_meters":38400,"station_id":"ce4bhg92rcd13ifvqf90","pricing_plan_id":"cebpf4jnsgd1na2vs0mg"},{"bike_id":"f02354c6-38ab-4156-b5bf-eacecdc9e604","system_id":"levelo_inurba_marseille","lat":43.2944,"lon":5.39758,"is_reserved":false,"is_disabled":false,"rental_uris":{"android":"levelo://app?vid=f02354c6-38ab-4156-b5bf-eacecdc9e604","ios":"levelo://app?vid=f02354c6-38ab-4156-b5bf-eacecdc9e604"},"vehicle_type_id":"4","last_reported":1737025624,"current_range_meters":35200,"station_id":"ce4bh3h2rcd13ifvqdo0","pricing_plan_id":"cebpf4jnsgd1na2vs0mg"},{"bike_id":"e602dd6e-ca36-407d-bbec-5df186a373a6","system_id":"levelo_inurba_marseille","lat":43.23965,"lon":5.36632,"is_reserved":false,"is_disabled":false,"rental_uris":{"android":"levelo://app?vid=e602dd6e-ca36-407d-bbec-5df186a373a6","ios":"levelo://app?vid=e602dd6e-ca36-407d-bbec-5df186a373a6"},"vehicle_type_id":"4","last_reported":1737025624,"current_range_meters":29600,"station_id":"ce4bhi12rcd13ifvqfp0","pricing_plan_id":"cebpf4jnsgd1na2vs0mg"},{"bike_id":"dff66d82-0f40-4e7e-8a12-edb160627962","system_id":"levelo_inurba_marseille","lat":43.29258,"lon":5.40905,"is_reserved":false,"is_disabled":false,"rental_uris":{"android":"levelo://app?vid=dff66d82-0f40-4e7e-8a12-edb160627962","ios":"levelo://app?vid=dff66d82-0f40-4e7e-8a12-edb160627962"},"vehicle_type_id":"4","last_reported":1737025624,"current_range_meters":31200,"station_id":"ce4bh192rcd13ifvqdc0","pricing_plan_id":"cebpf4jnsgd1na2vs0mg"},{"bike_id":"30030e51-a67b-46fa-aaca-3eeccfed2c86","system_id":"levelo_inurba_marseille","lat":43.30535,"lon":5.3656,"is_reserved":false,"is_disabled":false,"rental_uris":{"android":"levelo://app?vid=30030e51-a67b-46fa-aaca-3eeccfed2c86","ios":"levelo://app?vid=30030e51-a67b-46fa-aaca-3eeccfed2c86"},"vehicle_type_id":"4","last_reported":1737025624,"current_range_meters":22800,"station_id":"ce4bgs12rcd13ifvqcag","pricing_plan_id":"cebpf4jnsgd1na2vs0mg"},{"bike_id":"2b9de45d-8a8d-43a1-9f90-d9fb879a5c3a","system_id":"levelo_inurba_marseille","lat":43.29922,"lon":5.37483,"is_reserved":false,"is_disabled":false,"rental_uris":{"android":"levelo://app?vid=2b9de45d-8a8d-43a1-9f90-d9fb879a5c3a","ios":"levelo://app?vid=2b9de45d-8a8d-43a1-9f90-d9fb879a5c3a"},"vehicle_type_id":"4","last_reported":1737025624,"current_range_meters":38800,"station_id":"ce4bgjh2rcd13ifvqbg0","pricing_plan_id":"cebpf4jnsgd1na2vs0mg"},{"bike_id":"93265de4-2e40-4c04-a419-9157b33f0179","system_id":"levelo_inurba_marseille","lat":43.29738,"lon":5.37663,"is_reserved":false,"is_disabled":false,"rental_uris":{"android":"levelo://app?vid=93265de4-2e40-4c04-a419-9157b33f0179","ios":"levelo://app?vid=93265de4-2e40-4c04-a419-9157b33f0179"},"vehicle_type_id":"4","last_reported":1737025624,"current_range_meters":38800,"station_id":"ce4bgkh2rcd13ifvqbl0","pricing_plan_id":"cebpf4jnsgd1na2vs0mg"},{"bike_id":"020e4cf3-a3a7-4e65-b03e-fc9b2a4e48e0","system_id":"levelo_inurba_marseille","lat":43.31354,"lon":5.36732,"is_reserved":false,"is_disabled":false,"rental_uris":{"android":"levelo://app?vid=020e4cf3-a3a7-4e65-b03e-fc9b2a4e48e0","ios":"levelo://app?vid=020e4cf3-a3a7-4e65-b03e-fc9b2a4e48e0"},"vehicle_type_id":"4","last_reported":1737025624,"current_range_meters":16400,"station_id":"ce4bgr92rcd13ifvqc6g","pricing_plan_id":"cebpf4jnsgd1na2vs0mg"},{"bike_id":"d76b83ba-fd8a-4b24-8cf1-08fc91fe2112","system_id":"levelo_inurba_marseille","lat":43.29624,"lon":5.37736,"is_reserved":false,"is_disabled":false,"rental_uris":{"android":"levelo://app?vid=d76b83ba-fd8a-4b24-8cf1-08fc91fe2112","ios":"levelo://app?vid=d76b83ba-fd8a-4b24-8cf1-08fc91fe2112"},"vehicle_type_id":"4","last_reported":1737025624,"current_range_meters":38800,"station_id":"ce4bgi92rcd13ifvqb90","pricing_plan_id":"cebpf4jnsgd1na2vs0mg"},