{"last_updated":1742404150,"ttl":60,"version":"2.2","data":{"bikes":[{"bike_id":"599a4779-06c3-4852-869c-608e6207c49d","system_id":"levelo_inurba_marseille","lat":43.29872,"lon":5.39739,"is_reserved":false,"is_disabled":false,"rental_uris":{"android":"levelo://app?vid=599a4779-06c3-4852-869c-608e6207c49d","ios":"levelo://app?vid=599a4779-06c3-4852-869c-608e6207c49d"},"vehicle_type_id":"4","last_reported":1742404150,"current_range_meters":2800,"station_id":"ce4bh0h2rcd13ifvqd50","pricing_plan_id":"cebpf4jnsgd1na2vs0mg"},{"bike_id":"47418a83-6367-4723-ba3b-1aa94fd0b1e0","system_id":"levelo_inurba_marseille","lat":43.28142,"lon":5.43645,"is_reserved":false,"is_disabled":false,"rental_uris":{"android":"levelo://app?vid=47418a83-6367-4723-ba3b-1aa94fd0b1e0","ios":"levelo://app?vid=47418a83-6367-4723-ba3b-1aa94fd0b1e0"},"vehicle_type_id":"4","last_reported":1742404150,"current_range_meters":2800,"station_id":"","pricing_plan_id":"cebpf4jnsgd1na2vs0mg"},{"bike_id":"8600fc0e-cac5-4d15-b21f-bcef0ddf590e","system_id":"levelo_inurba_marseille","lat":43.28002,"lon":5.41663,"is_reserved":false,"is_disabled":false,"rental_uris":{"android":"levelo://app?vid=8600fc0e-cac5-4d15-b21f-bcef0ddf590e","ios":"levelo://app?vid=8600fc0e-cac5-4d15-b21f-bcef0ddf590e"},"vehicle_type_id":"4","last_reported":1742404150,"current_range_meters":2800,"station_id":"ce4bho12rcd13ifvqh1g","pricing_plan_id":"cebpf4jnsgd1na2vs0mg"},{"bike_id":"a9d7564f-e75c-483f-9c07-105cf5a07fd7","system_id":"levelo_inurba_marseille","lat":43.240789,"lon":5.377584,"is_reserved":false,"is_disabled":false,"rental_uris":{"android":"levelo://app?vid=a9d7564f-e75c-483f-9c07-105cf5a07fd7","ios":"levelo://app?vid=a9d7564f-e75c-483f-9c07-105cf5a07fd7"},"vehicle_type_id":"4","last_reported":1742404150,"current_range_meters":2800,"station_id":"","pricing_plan_id":"cebpf4jnsgd1na2vs0mg"},{"bike_id":"fa09bcb6-930a-4163-90c6-b35da654edfc","system_id":"levelo_inurba_marseille","lat":43.27374,"lon":5.36261,"is_reserved":false,"is_disabled":false,"rental_uris":{"android":"levelo://app?vid=fa09bcb6-930a-4163-90c6-b35da654edfc","ios":"levelo://app?vid=fa09bcb6-930a-4163-90c6-b35da654edfc"},"vehicle_type_id":"4","last_reported":1742404150,"current_range_meters":2800,"station_id":"ce4bhbh2rcd13ifvqeo0","pricing_plan_id":"cebpf4jnsgd1na2vs0mg"},{"bike_id":"4557e539-e1ea-4680-b967-601a10cfaeff","system_id":"levelo_inurba_marseille","lat":43.28997,"lon":5.3715,"is_reserved":false,"is_disabled":false,"rental_uris":{"android":"levelo://app?vid=4557e539-e1ea-4680-b967-601a10cfaeff","ios":"levelo://app?vid=4557e539-e1ea-4680-b967-601a10cfaeff"},"vehicle_type_id":"4","last_reported":1742404150,"current_range_meters":2800,"station_id":"","pricing_plan_id":"cebpf4jnsgd1na2vs0mg"},{"bike_id":"ac8acac2-b3c2-415f-a6ff-85488d005bb2","system_id":"levelo_inurba_marseille","lat":43.248,"lon":5.3745,"is_reserved":false,"is_disabled":false,"rental_uris":{"android":"levelo://app?vid=ac8acac2-b3c2-415f-a6ff-85488d005bb2","ios":"levelo://app?vid=ac8acac2-b3c2-415f-a6ff-85488d005bb2"},"vehicle_type_id":"4","last_reported":1742404150,"current_range_meters":2000,"station_id":"ce4bhgh2rcd13ifvqfb0","pricing_plan_id":"cebpf4jnsgd1na2vs0mg"},{"bike_id":"1ed711f8-1c47-4fc9-9a74-49d1c8b117f3","system_id":"levelo_inurba_marseille","lat":43.28421,"lon":5.37513,"is_reserved":false,"is_disabled":false,"rental_uris":{"android":"levelo://app?vid=1ed711f8-1c47-4fc9-9a74-49d1c8b117f3","ios":"levelo://app?vid=1ed711f8-1c47-4fc9-9a74-49d1c8b117f3"},"vehicle_type_id":"4","last_reported":1742404150,"current_range_meters":3200,"station_id":"ce4bh412rcd13ifvqds0","pricing_plan_id":"cebpf4jnsgd1na2vs0mg"},{"bike_id":"bc684fb0-b3cc-485b-a02f-cf532253de5c","system_id":"levelo_inurba_marseille","lat":43.25579,"lon":5.3823,"is_reserved":false,"is_disabled":false,"rental_uris":{"android":"levelo://app?vid=bc684fb0-b3cc-485b-a02f-cf532253de5c","ios":"levelo://app?vid=bc684fb0-b3cc-485b-a02f-cf532253de5c"},"vehicle_type_id":"4","last_reported":1742404150,"current_range_meters":3200,"station_id":"ce4bhih2rcd13ifvqfs0","pricing_plan_id":"cebpf4jnsgd1na2vs0mg"},{"bike_id":"73e76bed-394b-49e6-a65a-f7abed5787a9","system_id":"levelo_inurba_marseille","lat":43.23166,"lon":5.43695,"is_reserved":false,"is_disabled":true,"rental_uris":{"android":"levelo://app?vid=73e76bed-394b-49e6-a65a-f7abed5787a9","ios":"levelo://app?vid=73e76bed-394b-49e6-a65a-f7abed5787a9"},"vehicle_type_id":"4","last_reported":1742404150,"current_range_meters":3200,"station_id":"ce4bhmp2rcd13ifvqgog","pricing_plan_id":"cebpf4jnsgd1na2vs0mg"},{"bike_id":"8b9d162a-8e1c-4edf-84b6-11fab136c74b","system_id":"levelo_inurba_marseille","lat":43.27972,"lon":5.38734,"is_reserved":false,"is_disabled":false,"rental_uris":{"android":"levelo://app?vid=8b9d162a-8e1c-4edf-84b6-11fab136c74b","ios":"levelo://app?vid=8b9d162a-8e1c-4edf-84b6-11fab136c74b"},"vehicle_type_id":"4","last_reported":1742404150,"current_range_meters":3200,"station_id":"ce4bhg12rcd13ifvqf80","pricing_plan_id":"cebpf4jnsgd1na2vs0mg"},{"bike_id":"3aea41c8-26f6-4b95-b0a4-a203fabe2e4e","system_id":"levelo_inurba_marseille","lat":43.23194,"lon":5.35549,"is_reserved":false,"is_disabled":false,"rental_uris":{"android":"levelo://app?vid=3aea41c8-26f6-4b95-b0a4-a203fabe2e4e","ios":"levelo://app?vid=3aea41c8-26f6-4b95-b0a4-a203fabe2e4e"},"vehicle_type_id":"4","last_reported":1742404150,"current_range_meters":3200,"station_id":"ce4bhu92rcd13ifvqi70","pricing_plan_id":"cebpf4jnsgd1na2vs0mg"},{"bike_id":"6368f354-6da7-4884-a394-062f1a963ed6","system_id":"levelo_inurba_marseille","lat":43.29288,"lon":5.42811,"is_reserved":false,"is_disabled":false,"rental_uris":{"android":"levelo://app?vid=6368f354-6da7-4884-a394-062f1a963ed6","ios":"levelo://app?vid=6368f354-6da7-4884-a394-062f1a963ed6"},"vehicle_type_id":"4","last_reported":1742404150,"current_range_meters":3200,"station_id":"","pricing_plan_id":"cebpf4jnsgd1na2vs0mg"},{"bike_id":"415990b4-a98f-415b-b5a3-16a3a04d6734","system_id":"levelo_inurba_marseille","lat":43.29575,"lon":5.39981,"is_reserved":false,"is_disabled":false,"rental_uris":{"android":"levelo://app?vid=415990b4-a98f-415b-b5a3-16a3a04d6734","ios":"levelo://app?vid=415990b4-a98f-415b-b5a3-16a3a04d6734"},"vehicle_type_id":"4","last_reported":1742404150,"current_range_meters":3200,"station_id":"ce4bh312rcd13ifvqdj0","pricing_plan_id":"cebpf4jnsgd1na2vs0mg"},{"bike_id":"4d014085-0b96-48d3-af53-a8faa081084c","system_id":"levelo_inurba_marseille","lat":43.29198,"lon":5.39324,"is_reserved":false,"is_disabled":false,"rental_uris":{"android":"levelo://app?vid=4d014085-0b96-48d3-af53-a8faa081084c","ios":"levelo://app?vid=4d014085-0b96-48d3-af53-a8faa081084c"},"vehicle_type_id":"4","last_reported":1742404150,"current_range_meters":3600,"station_id":"ce4bh192rcd13ifvqdd0","pricing_plan_id":"cebpf4jnsgd1na2vs0mg"},{"bike_id":"313b0ddc-4b35-41ef-8f71-16492245204f","system_id":"levelo_inurba_marseille","lat":43.27813,"lon":5.40714,"is_reserved":false,"is_disabled":false,"rental_uris":{"android":"levelo://app?vid=313b0ddc-4b35-41ef-8f71-16492245204f","ios":"levelo://app?vid=313b0ddc-4b35-41ef-8f71-16492245204f"},"vehicle_type_id":"4","last_reported":1742404150,"current_range_meters":3200,"station_id":"ce4bhnh2rcd13ifvqgtg","pricing_plan_id":"cebpf4jnsgd1na2vs0mg"},{"bike_id":"4f6d11f4-8d23-4e35-8c59-e818e64ce7ab","system_id":"levelo_inurba_marseille","lat":43.29528,"lon":5.43899,"is_reserved":false,"is_disabled":false,"rental_uris":{"android":"levelo://app?vid=4f6d11f4-8d23-4e35-8c59-e818e64ce7ab","ios":"levelo://app?vid=4f6d11f4-8d23-4e35-8c59-e818e64ce7ab"},"vehicle_type_id":"4","last_reported":1742404150,"current_range_meters":3600,"station_id":"","pricing_plan_id":"cebpf4jnsgd1na2vs0mg"},{"bike_id":"8a2aee9f-027f-415a-9d5c-83912e4bbe0d","system_id":"levelo_inurba_marseille","lat":43.31762,"lon":5.39021,"is_reserved":false,"is_disabled":false,"rental_uris":{"android":"levelo://app?vid=8a2aee9f-027f-415a-9d5c-83912e4bbe0d","ios":"levelo://app?vid=8a2aee9f-027f-415a-9d5c-83912e4bbe0d"},"vehicle_type_id":"4","last_reported":1742404150,"current_range_meters":3600,"station_id":"ce4bhqp2rcd13ifvqhng","pricing_plan_id":"cebpf4jnsgd1na2vs0mg"},{"bike_id":"e7aef694-bffd-4e4b-b091-b4f0ad6c2746","system_id":"levelo_inurba_marseille","lat":43.26564,"lon":5.39005,"is_reserved":false,"is_disabled":false,"rental_uris":{"android":"levelo://app?vid=e7aef694-bffd-4e4b-b091-b4f0ad6c2746","ios":"levelo://app?vid=e7aef694-bffd-4e4b-b091-b4f0ad6c2746"},"vehicle_type_id":"4","last_reported":1742404150,"current_range_meters":3600,"station_id":"ce4bhe12rcd13ifvqf30","pricing_plan_id":"cebpf4jnsgd1na2vs0mg"},{"bike_id":"fa54565a-f27e-4225-afc2-64dd4eda7495","system_id":"levelo_inurba_marseille","lat":43.29872,"lon":5.39738,"is_reserved":false,"is_disabled":false,"rental_uris":{"android":"levelo://app?vid=fa54565a-f27e-4225-afc2-64dd4eda7495","ios":"levelo://app?vid=fa54565a-f27e-4225-afc2-64dd4eda7495"},"vehicle_type_id":"4","last_reported":1742404150,"current_range_meters":3200,"station_id":"ce4bh0h2rcd13ifvqd50","pricing_plan_id":"cebpf4jnsgd1na2vs0mg"},{"bike_id":"e582d1fe-4879-4f27-8671-77ca2ba0d27e","system_id":"levelo_inurba_marseille","lat":43.24766,"lon":5.3744,"is_reserved":false,"is_disabled":false,"rental_uris":{"android":"levelo://app?vid=e582d1fe-4879-4f27-8671-77ca2ba0d27e","ios":"levelo://app?vid=e582d1fe-4879-4f27-8671-77ca2ba0d27e"},"vehicle_type_id":"4","last_reported":1742404150,"current_range_meters":4000,"station_id":"ce4bhgh2rcd13ifvqfb0","pricing_plan_id":"cebpf4jnsgd1na2vs0mg"},{"bike_id":"adc3bbf6-2e0f-4fc7-a766-a528d6d9ebe5","system_id":"levelo_inurba_marseille","lat":43.25123,"lon":5.40337,"is_reserved":false,"is_disabled":false,"rental_uris":{"android":"levelo://app?vid=adc3bbf6-2e0f-4fc7-a766-a528d6d9ebe5","ios":"levelo://app?vid=adc3bbf6-2e0f-4fc7-a766-a528d6d9ebe5"},"vehicle_type_id":"4","last_reported":1742404150,"current_range_meters":4000,"station_id":"ce4bhlh2rcd13ifvqgig","pricing_plan_id":"cebpf4jnsgd1na2vs0mg"},{"bike_id":"1760c89b-ab38-4250-bf2e-b5ac7927bc62","system_id":"levelo_inurba_marseille","lat":43.29259,"lon":5.3844,"is_reserved":false,"is_disabled":false,"rental_uris":{"android":"levelo://app?vid=1760c89b-ab38-4250-bf2e-b5ac7927bc62","ios":"levelo://app?vid=1760c89b-ab38-4250-bf2e-b5ac7927bc62"},"vehicle_type_id":"4","last_reported":1742404150,"current_range_meters":4000,"station_id":"ce4bh692rcd13ifvqea0","pricing_plan_id":"cebpf4jnsgd1na2vs0mg"},{"bike_id":"3c0f86bf-2134-4462-a7ab-79aaede557c9","system_id":"levelo_inurba_marseille","lat":43.31715,"lon":5.43705,"is_reserved":false,"is_disabled":false,"rental_uris":{"android":"levelo://app?vid=3c0f86bf-2134-4462-a7ab-79aaede557c9","ios":"levelo://app?vid=3c0f86bf-2134-4462-a7ab-79aaede557c9"},"vehicle_type_id":"4","last_reported":1742404150,"current_range_meters":4000,"station_id":"ce4bhp92rcd13ifvqhcg","pricing_plan_id":"cebpf4jnsgd1na2vs0mg"},{"bike_id":"4a392c3c-3d22-4caf-a453-9319d911229c","system_id":"levelo_inurba_marseille","lat":43.28109,"lon":5.37832,"is_reserved":false,"is_disabled":false,"rental_uris":{"android":"levelo://app?vid=4a392c3c-3d22-4caf-a453-9319d911229c","ios":"levelo://app?vid=4a392c3c-3d22-4caf-a453-9319d911229c"},"vehicle_type_id":"4","last_reported":1742404150,"current_range_meters":4000,"station_id":"ce4bha12rcd13ifvqee0","pricing_plan_id":"cebpf4jnsgd1na2vs0mg"},{"bike_id":"d835339a-815c-4f2d-bc5f-06df97638758","system_id":"levelo_inurba_marseille","lat":43.31405,"lon":5.38551,"is_reserved":false,"is_disabled":false,"rental_uris":{"android":"levelo://app?vid=d835339a-815c-4f2d-bc5f-06df97638758","ios":"levelo://app?vid=d835339a-815c-4f2d-bc5f-06df97638758"},"vehicle_type_id":"4","last_reported":1742404150,"current_range_meters":4000,"station_id":"","pricing_plan_id":"cebpf4jnsgd1na2vs0mg"},{"bike_id":"18bbd283-5c32-4d66-bc41-47414795c507","system_id":"levelo_inurba_marseille","lat":43.261943,"lon":5.374447,"is_reserved":false,"is_disabled":false,"rental_uris":{"android":"levelo://app?vid=18bbd283-5c32-4d66-bc41-47414795c507","ios":"levelo://app?vid=18bbd283-5c32-4d66-bc41-47414795c507"},"vehicle_type_id":"4","last_reported":1742404150,"current_range_meters":4400,"station_id":"ce4bh412rcd13ifvqdr0","pricing_plan_id":"cebpf4jnsgd1na2vs0mg"},{"bike_id":"97820cc4-93f7-472f-a6a3-bb0b3708ecd1","system_id":"levelo_inurba_marseille","lat":43.26548,"lon":5.37304,"is_reserved":false,"is_disabled":true,"rental_uris":{"android":"levelo://app?vid=97820cc4-93f7-472f-a6a3-bb0b3708ecd1","ios":"levelo://app?vid=97820cc4-93f7-472f-a6a3-bb0b3708ecd1"},"vehicle_type_id":"4","last_reported":1742404150,"current_range_meters":4400,"station_id":"ce4bhg12rcd13ifvqf70","pricing_plan_id":"cebpf4jnsgd1na2vs0mg"},{"bike_id":"8528cfd6-758c-4197-aaac-800294acfea6","system_id":"levelo_inurba_marseille","lat":43.25855,"lon":5.39898,"is_reserved":false,"is_disabled":false,"rental_uris":{"android":"levelo://app?vid=8528cfd6-758c-4197-aaac-800294acfea6","ios":"levelo://app?vid=8528cfd6-758c-4197-aaac-800294acfea6"},"vehicle_type_id":"4","last_reported":1742404150,"current_range_meters":4400,"station_id":"ce4bhl92rcd13ifvqghg","pricing_plan_id":"cebpf4jnsgd1na2vs0mg"},{"bike_id":"5a1cd899-4e0d-4ee6-833d-d3757b812ef0","system_id":"levelo_inurba_marseille","lat":43.25578,"lon":5.38228,"is_reserved":false,"is_disabled":false,"rental_uris":{"android":"levelo://app?vid=5a1cd899-4e0d-4ee6-833d-d3757b812ef0","ios":"levelo://app?vid=5a1cd899-4e0d-4ee6-833d-d3757b812ef0"},"vehicle_type_id":"4","last_reported":1742404150,"current_range_meters":4800,"station_id":"ce4bhih2rcd13ifvqfs0","pricing_plan_id":"cebpf4jnsgd1na2vs0mg"},{"bike_id":"8beacb06-191c-4078-8acc-085abaf3a4f4","system_id":"levelo_inurba_marseille","lat":43.28032,"lon":5.44163,"is_reserved":false,"is_disabled":false,"rental_uris":{"android":"levelo://app?vid=8beacb06-191c-4078-8acc-085abaf3a4f4","ios":"levelo://app?vid=8beacb06-191c-4078-8acc-085abaf3a4f4"},"vehicle_type_id":"4","last_reported":1742404150,"current_range_meters":4800,"station_id":"","pricing_plan_id":"cebpf4jnsgd1na2vs0mg"},{"bike_id":"97c3be9e-ff61-4495-a439-a8f2cb993632","system_id":"levelo_inurba_marseille","lat":43.32287,"lon":5.3827,"is_reserved":false,"is_disabled":false,"rental_uris":{"android":"levelo://app?vid=97c3be9e-ff61-4495-a439-a8f2cb993632","ios":"levelo://app?vid=97c3be9e-ff61-4495-a439-a8f2cb993632"},"vehicle_type_id":"4","last_reported":1742404150,"current_range_meters":4800,"station_id":"ce4bhr12rcd13ifvqhqg","pricing_plan_id":"cebpf4jnsgd1na2vs0mg"},{"bike_id":"6e836711-e185-438e-a5b9-e188bca9d9fe","system_id":"levelo_inurba_marseille","lat":43.23178,"lon":5.39993,"is_reserved":false,"is_disabled":false,"rental_uris":{"android":"levelo://app?vid=6e836711-e185-438e-a5b9-e188bca9d9fe","ios":"levelo://app?vid=6e836711-e185-438e-a5b9-e188bca9d9fe"},"vehicle_type_id":"4","last_reported":1742404150,"current_range_meters":4800,"station_id":"ce4bhn12rcd13ifvqgqg","pricing_plan_id":"cebpf4jnsgd1na2vs0mg"},{"bike_id":"c6c8dd2d-5b6e-4c3a-8293-f6b60960b982","system_id":"levelo_inurba_marseille","lat":43.29418,"lon":5.38625,"is_reserved":false,"is_disabled":false,"rental_uris":{"android":"levelo://app?vid=c6c8dd2d-5b6e-4c3a-8293-f6b60960b982","ios":"levelo://app?vid=c6c8dd2d-5b6e-4c3a-8293-f6b60960b982"},"vehicle_type_id":"4","last_reported":1742404150,"current_range_meters":4800,"station_id":"","pricing_plan_id":"cebpf4jnsgd1na2vs0mg"},{"bike_id":"8763b2fb-df4c-43b9-b66c-3b696e0664a4","system_id":"levelo_inurba_marseille","lat":43.27998,"lon":5.41666,"is_reserved":false,"is_disabled":false,"rental_uris":{"android":"levelo://app?vid=8763b2fb-df4c-43b9-b66c-3b696e0664a4","ios":"levelo://app?vid=8763b2fb-df4c-43b9-b66c-3b696e0664a4"},"vehicle_type_id":"4","last_reported":1742404150,"current_range_meters":5600,"station_id":"ce4bho12rcd13ifvqh1g","pricing_plan_id":"cebpf4jnsgd1na2vs0mg"},{"bike_id":"843080a1-35c2-49de-9a59-6bf7b67ac296","system_id":"levelo_inurba_marseille","lat":43.27077,"lon":5.42285,"is_reserved":false,"is_disabled":false,"rental_uris":{"android":"levelo://app?vid=843080a1-35c2-49de-9a59-6bf7b67ac296","ios":"levelo://app?vid=843080a1-35c2-49de-9a59-6bf7b67ac296"},"vehicle_type_id":"4","last_reported":1742404150,"current_range_meters":5600,"station_id":"ce4bhk92rcd13ifvqgb0","pricing_plan_id":"cebpf4jnsgd1na2vs0mg"},{"bike_id":"b5ee0a4d-7fec-44f5-be3b-0a8fbe112d34","system_id":"levelo_inurba_marseille","lat":43.29792,"lon":5.38108,"is_reserved":false,"is_disabled":false,"rental_uris":{"android":"levelo://app?vid=b5ee0a4d-7fec-44f5-be3b-0a8fbe112d34","ios":"levelo://app?vid=b5ee0a4d-7fec-44f5-be3b-0a8fbe112d34"},"vehicle_type_id":"4","last_reported":1742404150,"current_range_meters":5600,"station_id":"ce4bgip2rcd13ifvqbb0","pricing_plan_id":"cebpf4jnsgd1na2vs0mg"},{"bike_id":"d6f24f61-29b9-4f4a-b669-f67ddc75ce4f","system_id":"levelo_inurba_marseille","lat":43.307906,"lon":5.381691,"is_reserved":false,"is_disabled":false,"rental_uris":{"android":"levelo://app?vid=d6f24f61-29b9-4f4a-b669-f67ddc75ce4f","ios":"levelo://app?vid=d6f24f61-29b9-4f4a-b669-f67ddc75ce4f"},"vehicle_type_id":"4","last_reported":1742404150,"current_range_meters":5600,"station_id":"ce4bgt12rcd13ifvqce0","pricing_plan_id":"cebpf4jnsgd1na2vs0mg"},{"bike_id":"dd8419bd-cf17-4608-999b-08aad10dc248","system_id":"levelo_inurba_marseille","lat":43.27829,"lon":5.39198,"is_reserved":false,"is_disabled":false,"rental_uris":{"android":"levelo://app?vid=dd8419bd-cf17-4608-999b-08aad10dc248","ios":"levelo://app?vid=dd8419bd-cf17-4608-999b-08aad10dc248"},"vehicle_type_id":"4","last_reported":1742404150,"current_range_meters":5600,"station_id":"ce4bhjp2rcd13ifvqga0","pricing_plan_id":"cebpf4jnsgd1na2vs0mg"},{"bike_id":"f9f39aea-f08f-42ce-be81-48cd7085a980","system_id":"levelo_inurba_marseille","lat":43.27982,"lon":5.4166,"is_reserved":false,"is_disabled":false,"rental_uris":{"android":"levelo://app?vid=f9f39aea-f08f-42ce-be81-48cd7085a980","ios":"levelo://app?vid=f9f39aea-f08f-42ce-be81-48cd7085a980"},"vehicle_type_id":"4","last_reported":1742404150,"current_range_meters":5600,"station_id":"ce4bho12rcd13ifvqh1g","pricing_plan_id":"cebpf4jnsgd1na2vs0mg"},{"bike_id":"ea28acd0-36df-4e22-930e-210ae842664e","system_id":"levelo_inurba_marseille","lat":43.24651,"lon":5.38893,"is_reserved":false,"is_disabled":false,"rental_uris":{"android":"levelo://app?vid=ea28acd0-36df-4e22-930e-210ae842664e","ios":"levelo://app?vid=ea28acd0-36df-4e22-930e-210ae842664e"},"vehicle_type_id":"4","last_reported":1742404150,"current_range_meters":5600,"station_id":"ce4bhg12rcd13ifvqf60","pricing_plan_id":"cebpf4jnsgd1na2vs0mg"},{"bike_id":"a95b65eb-adc2-467c-b477-fb712f178bb6","system_id":"levelo_inurba_marseille","lat":43.28433,"lon":5.39211,"is_reserved":false,"is_disabled":false,"rental_uris":{"android":"levelo://app?vid=a95b65eb-adc2-467c-b477-fb712f178bb6","ios":"levelo://app?vid=a95b65eb-adc2-467c-b477-fb712f178bb6"},"vehicle_type_id":"4","last_reported":1742404150,"current_range_meters":4400,"station_id":"ce4bhoh2rcd13ifvqh5g","pricing_plan_id":"cebpf4jnsgd1na2vs0mg"},{"bike_id":"8ea6bb01-be5d-4d89-beb1-442564dc3ac5","system_id":"levelo_inurba_marseille","lat":43.28572,"lon":5.39492,"is_reserved":false,"is_disabled":false,"rental_uris":{"android":"levelo://app?vid=8ea6bb01-be5d-4d89-beb1-442564dc3ac5","ios":"levelo://app?vid=8ea6bb01-be5d-4d89-beb1-442564dc3ac5"},"vehicle_type_id":"4","last_reported":1742404150,"current_range_meters":6000,"station_id":"ce4bh292rcd13ifvqdg0","pricing_plan_id":"cebpf4jnsgd1na2vs0mg"},{"bike_id":"1182911d-a127-40b8-9f4d-4fd92a91ae7c","system_id":"levelo_inurba_marseille","lat":43.29962,"lon":5.41332,"is_reserved":false,"is_disabled":false,"rental_uris":{"android":"levelo://app?vid=1182911d-a127-40b8-9f4d-4fd92a91ae7c","ios":"levelo://app?vid=1182911d-a127-40b8-9f4d-4fd92a91ae7c"},"vehicle_type_id":"4","last_reported":1742404150,"current_range_meters":6000,"station_id":"ce4bhp12rcd13ifvqh9g","pricing_plan_id":"cebpf4jnsgd1na2vs0mg"},{"bike_id":"a6f4a409-0868-48cb-9b84-91c12b3aa1b4","system_id":"levelo_inurba_marseille","lat":43.27061,"lon":5.40269,"is_reserved":false,"is_disabled":false,"rental_uris":{"android":"levelo://app?vid=a6f4a409-0868-48cb-9b84-91c12b3aa1b4","ios":"levelo://app?vid=a6f4a409-0868-48cb-9b84-91c12b3aa1b4"},"vehicle_type_id":"4","last_reported":1742404150,"current_range_meters":6000,"station_id":"ce4bhk92rcd13ifvqgc0","pricing_plan_id":"cebpf4jnsgd1na2vs0mg"},{"bike_id":"dab80843-f295-4515-a416-9599fe3fe7db","system_id":"levelo_inurba_marseille","lat":43.26949,"lon":5.38627,"is_reserved":false,"is_disabled":false,"rental_uris":{"android":"levelo://app?vid=dab80843-f295-4515-a416-9599fe3fe7db","ios":"levelo://app?vid=dab80843-f295-4515-a416-9599fe3fe7db"},"vehicle_type_id":"4","last_reported":1742404150,"current_range_meters":6000,"station_id":"ce4bhh92rcd13ifvqfh0","pricing_plan_id":"cebpf4jnsgd1na2vs0mg"},{"bike_id":"466f7066-a301-49b8-a1fc-e9757a595da1","system_id":"levelo_inurba_marseille","lat":43.30618,"lon":5.37254,"is_reserved":false,"is_disabled":false,"rental_uris":{"android":"levelo://app?vid=466f7066-a301-49b8-a1fc-e9757a595da1","ios":"levelo://app?vid=466f7066-a301-49b8-a1fc-e9757a595da1"},"vehicle_type_id":"4","last_reported":1742404150,"current_range_meters":6000,"station_id":"ce4bgqh2rcd13ifvqc4g","pricing_plan_id":"cebpf4jnsgd1na2vs0mg"},{"bike_id":"a874a56a-d12f-4aa2-bd60-46c3838ca0d2","system_id":"levelo_inurba_marseille","lat":43.29895,"lon":5.38907,"is_reserved":false,"is_disabled":false,"rental_uris":{"android":"levelo://app?vid=a874a56a-d12f-4aa2-bd60-46c3838ca0d2","ios":"levelo://app?vid=a874a56a-d12f-4aa2-bd60-46c3838ca0d2"},"vehicle_type_id":"4","last_reported":1742404150,"current_range_meters":6000,"station_id":"ce4bh392rcd13ifvqdl0","pricing_plan_id":"cebpf4jnsgd1na2vs0mg"},{"bike_id":"2fc9495d-c829-4229-a4db-5c8674880d7a","system_id":"levelo_inurba_marseille","lat":43.23058,"lon":5.35487,"is_reserved":false,"is_disabled":false,"rental_uris":{"android":"levelo://app?vid=2fc9495d-c829-4229-a4db-5c8674880d7a","ios":"levelo://app?vid=2fc9495d-c829-4229-a4db-5c8674880d7a"},"vehicle_type_id":"4","last_reported":1742404150,"current_range_meters":6000,"station_id":"cpo3342slgdg3j2ifvpg","pricing_plan_id":"cebpf4jnsgd1na2vs0mg"},{"bike_id":"0b60e72b-d8b1-4266-9b63-b94b87c1ad4b","system_id":"levelo_inurba_marseille","lat":43.23202,"lon":5.39992,"is_reserved":false,"is_disabled":false,"rental_uris":{"android":"levelo://app?vid=0b60e72b-d8b1-4266-9b63-b94b87c1ad4b","ios":"levelo://app?vid=0b60e72b-d8b1-4266-9b63-b94b87c1ad4b"},"vehicle_type_id":"4","last_reported":1742404150,"current_range_meters":6400,"station_id":"ce4bhn12rcd13ifvqgqg","pricing_plan_id":"cebpf4jnsgd1na2vs0mg"},{"bike_id":"b627c9ad-3c9c-4e71-ac51-64e10127430c","system_id":"levelo_inurba_marseille","lat":43.27939,"lon":5.38039,"is_reserved":false,"is_disabled":false,"rental_uris":{"android":"levelo://app?vid=b627c9ad-3c9c-4e71-ac51-64e10127430c","ios":"levelo://app?vid=b627c9ad-3c9c-4e71-ac51-64e10127430c"},"vehicle_type_id":"4","last_reported":1742404150,"current_range_meters":6400,"station_id":"ce4bhf92rcd13ifvqf50","pricing_plan_id":"cebpf4jnsgd1na2vs0mg"},{"bike_id":"b7fe0a32-1a3f-409b-9c7f-fb33f87f180a","system_id":"levelo_inurba_marseille","lat":43.28175,"lon":5.42653,"is_reserved":false,"is_disabled":false,"rental_uris":{"android":"levelo://app?vid=b7fe0a32-1a3f-409b-9c7f-fb33f87f180a","ios":"levelo://app?vid=b7fe0a32-1a3f-409b-9c7f-fb33f87f180a"},"vehicle_type_id":"4","last_reported":1742404150,"current_range_meters":6400,"station_id":"ce4bhnh2rcd13ifvqgug","pricing_plan_id":"cebpf4jnsgd1na2vs0mg"},{"bike_id":"03d0489c-e71e-4c26-8dc3-9f0cdd82c578","system_id":"levelo_inurba_marseille","lat":43.29584,"lon":5.36748,"is_reserved":false,"is_disabled":false,"rental_uris":{"android":"levelo://app?vid=03d0489c-e71e-4c26-8dc3-9f0cdd82c578","ios":"levelo://app?vid=03d0489c-e71e-4c26-8dc3-9f0cdd82c578"},"vehicle_type_id":"4","last_reported":1742404150,"current_range_meters":6400,"station_id":"ce4bgph2rcd13ifvqc2g","pricing_plan_id":"cebpf4jnsgd1na2vs0mg"},{"bike_id":"9ae796bc-d523-4ae2-81a3-e354f3f71109","system_id":"levelo_inurba_marseille","lat":43.32358,"lon":5.38876,"is_reserved":false,"is_disabled":false,"rental_uris":{"android":"levelo://app?vid=9ae796bc-d523-4ae2-81a3-e354f3f71109","ios":"levelo://app?vid=9ae796bc-d523-4ae2-81a3-e354f3f71109"},"vehicle_type_id":"4","last_reported":1742404150,"current_range_meters":6400,"station_id":"ce4bhqp2rcd13ifvqhog","pricing_plan_id":"cebpf4jnsgd1na2vs0mg"},{"bike_id":"6ae6f76c-6a01-4d75-9d3f-dfa610803a78","system_id":"levelo_inurba_marseille","lat":43.23067,"lon":5.35494,"is_reserved":false,"is_disabled":false,"rental_uris":{"android":"levelo://app?vid=6ae6f76c-6a01-4d75-9d3f-dfa610803a78","ios":"levelo://app?vid=6ae6f76c-6a01-4d75-9d3f-dfa610803a78"},"vehicle_type_id":"4","last_reported":1742404150,"current_range_meters":6400,"station_id":"cpo3342slgdg3j2ifvpg","pricing_plan_id":"cebpf4jnsgd1na2vs0mg"},{"bike_id":"d789b1ea-83c8-4690-a966-57602b70f6d1","system_id":"levelo_inurba_marseille","lat":43.27619,"lon":5.36108,"is_reserved":false,"is_disabled":false,"rental_uris":{"android":"levelo://app?vid=d789b1ea-83c8-4690-a966-57602b70f6d1","ios":"levelo://app?vid=d789b1ea-83c8-4690-a966-57602b70f6d1"},"vehicle_type_id":"4","last_reported":1742404150,"current_range_meters":6000,"station_id":"ce4bgj92rcd13ifvqbe0","pricing_plan_id":"cebpf4jnsgd1na2vs0mg"},{"bike_id":"59bd41c3-bdda-4534-ac9a-849e105ee028","system_id":"levelo_inurba_marseille","lat":43.24999,"lon":5.38932,"is_reserved":false,"is_disabled":false,"rental_uris":{"android":"levelo://app?vid=59bd41c3-bdda-4534-ac9a-849e105ee028","ios":"levelo://app?vid=59bd41c3-bdda-4534-ac9a-849e105ee028"},"vehicle_type_id":"4","last_reported":1742404150,"current_range_meters":6400,"station_id":"ce4bhgp2rcd13ifvqfd0","pricing_plan_id":"cebpf4jnsgd1na2vs0mg"},{"bike_id":"eacb735c-cc7d-44a9-9df5-b7bba7c1ba85","system_id":"levelo_inurba_marseille","lat":43.30788,"lon":5.37635,"is_reserved":false,"is_disabled":false,"rental_uris":{"android":"levelo://app?vid=eacb735c-cc7d-44a9-9df5-b7bba7c1ba85","ios":"levelo://app?vid=eacb735c-cc7d-44a9-9df5-b7bba7c1ba85"},"vehicle_type_id":"4","last_reported":1742404150,"current_range_meters":6400,"station_id":"ce4bgv92rcd13ifvqcq0","pricing_plan_id":"cebpf4jnsgd1na2vs0mg"},{"bike_id":"2150dd07-4c88-47f9-8dd8-e9d3ef709f3a","system_id":"levelo_inurba_marseille","lat":43.30805,"lon":5.43528,"is_reserved":false,"is_disabled":false,"rental_uris":{"android":"levelo://app?vid=2150dd07-4c88-47f9-8dd8-e9d3ef709f3a","ios":"levelo://app?vid=2150dd07-4c88-47f9-8dd8-e9d3ef709f3a"},"vehicle_type_id":"4","last_reported":1742404150,"current_range_meters":6400,"station_id":"ce4bhph2rcd13ifvqheg","pricing_plan_id":"cebpf4jnsgd1na2vs0mg"},{"bike_id":"69ed5ff2-f1e8-4d65-a987-2f40b86d9b67","system_id":"levelo_inurba_marseille","lat":43.269828,"lon":5.3923,"is_reserved":false,"is_disabled":false,"rental_uris":{"android":"levelo://app?vid=69ed5ff2-f1e8-4d65-a987-2f40b86d9b67","ios":"levelo://app?vid=69ed5ff2-f1e8-4d65-a987-2f40b86d9b67"},"vehicle_type_id":"4","last_reported":1742404150,"current_range_meters":6800,"station_id":"ce4bhh12rcd13ifvqfg0","pricing_plan_id":"cebpf4jnsgd1na2vs0mg"},{"bike_id":"c1ccf0a5-89fe-4d49-a5d7-808fb720c652","system_id":"levelo_inurba_marseille","lat":43.26025,"lon":5.41738,"is_reserved":false,"is_disabled":false,"rental_uris":{"android":"levelo://app?vid=c1ccf0a5-89fe-4d49-a5d7-808fb720c652","ios":"levelo://app?vid=c1ccf0a5-89fe-4d49-a5d7-808fb720c652"},"vehicle_type_id":"4","last_reported":1742404150,"current_range_meters":6800,"station_id":"","pricing_plan_id":"cebpf4jnsgd1na2vs0mg"},{"bike_id":"ca1c0a28-8faf-435f-9d8b-370c3a07ff34","system_id":"levelo_inurba_marseille","lat":43.24166,"lon":5.3641,"is_reserved":false,"is_disabled":false,"rental_uris":{"android":"levelo://app?vid=ca1c0a28-8faf-435f-9d8b-370c3a07ff34","ios":"levelo://app?vid=ca1c0a28-8faf-435f-9d8b-370c3a07ff34"},"vehicle_type_id":"4","last_reported":1742404150,"current_range_meters":6800,"station_id":"cpo36qri1sfpv3e86is0","pricing_plan_id":"cebpf4jnsgd1na2vs0mg"},{"bike_id":"700425af-d7e2-4b81-a8f7-cd8eab740a32","system_id":"levelo_inurba_marseille","lat":43.27851,"lon":5.40742,"is_reserved":false,"is_disabled":false,"rental_uris":{"android":"levelo://app?vid=700425af-d7e2-4b81-a8f7-cd8eab740a32","ios":"levelo://app?vid=700425af-d7e2-4b81-a8f7-cd8eab740a32"},"vehicle_type_id":"4","last_reported":1742404150,"current_range_meters":6800,"station_id":"ce4bhnh2rcd13ifvqgtg","pricing_plan_id":"cebpf4jnsgd1na2vs0mg"},{"bike_id":"34b74241-1e6e-458b-a83f-9bda30270e74","system_id":"levelo_inurba_marseille","lat":43.2781,"lon":5.4075,"is_reserved":false,"is_disabled":false,"rental_uris":{"android":"levelo://app?vid=34b74241-1e6e-458b-a83f-9bda30270e74","ios":"levelo://app?vid=34b74241-1e6e-458b-a83f-9bda30270e74"},"vehicle_type_id":"4","last_reported":1742404150,"current_range_meters":6800,"station_id":"ce4bhnh2rcd13ifvqgtg","pricing_plan_id":"cebpf4jnsgd1na2vs0mg"},{"bike_id":"9ccbd9fb-625e-4db9-a792-2841f1cd2930","system_id":"levelo_inurba_marseille","lat":43.26687,"lon":5.38273,"is_reserved":false,"is_disabled":false,"rental_uris":{"android":"levelo://app?vid=9ccbd9fb-625e-4db9-a792-2841f1cd2930","ios":"levelo://app?vid=9ccbd9fb-625e-4db9-a792-2841f1cd2930"},"vehicle_type_id":"4","last_reported":1742404150,"current_range_meters":6400,"station_id":"ce4bhg92rcd13ifvqf90","pricing_plan_id":"cebpf4jnsgd1na2vs0mg"},{"bike_id":"7ab226b2-8152-46ce-8030-e159ed6b5d3e","system_id":"levelo_inurba_marseille","lat":43.29796,"lon":5.40408,"is_reserved":false,"is_disabled":false,"rental_uris":{"android":"levelo://app?vid=7ab226b2-8152-46ce-8030-e159ed6b5d3e","ios":"levelo://app?vid=7ab226b2-8152-46ce-8030-e159ed6b5d3e"},"vehicle_type_id":"4","last_reported":1742404150,"current_range_meters":6800,"station_id":"ce4bh112rcd13ifvqd90","pricing_plan_id":"cebpf4jnsgd1na2vs0mg"},{"bike_id":"b914c546-78ee-4624-a575-a4df7c1a12da","system_id":"levelo_inurba_marseille","lat":43.29334,"lon":5.41166,"is_reserved":false,"is_disabled":false,"rental_uris":{"android":"levelo://app?vid=b914c546-78ee-4624-a575-a4df7c1a12da","ios":"levelo://app?vid=b914c546-78ee-4624-a575-a4df7c1a12da"},"vehicle_type_id":"4","last_reported":1742404150,"current_range_meters":6800,"station_id":"","pricing_plan_id":"cebpf4jnsgd1na2vs0mg"},{"bike_id":"e7727825-1550-4ac5-83b8-e36a5d869f96","system_id":"levelo_inurba_marseille","lat":43.26228,"lon":5.40441,"is_reserved":false,"is_disabled":false,"rental_uris":{"android":"levelo://app?vid=e7727825-1550-4ac5-83b8-e36a5d869f96","ios":"levelo://app?vid=e7727825-1550-4ac5-83b8-e36a5d869f96"},"vehicle_type_id":"4","last_reported":1742404150,"current_range_meters":6800,"station_id":"ce4bhmh2rcd13ifvqgmg","pricing_plan_id":"cebpf4jnsgd1na2vs0mg"},{"bike_id":"bea732db-f51c-42b0-b346-3cf7b7553394","system_id":"levelo_inurba_marseille","lat":43.255882,"lon":5.382298,"is_reserved":false,"is_disabled":false,"rental_uris":{"android":"levelo://app?vid=bea732db-f51c-42b0-b346-3cf7b7553394","ios":"levelo://app?vid=bea732db-f51c-42b0-b346-3cf7b7553394"},"vehicle_type_id":"4","last_reported":1742404150,"current_range_meters":7200,"station_id":"ce4bhih2rcd13ifvqfs0","pricing_plan_id":"cebpf4jnsgd1na2vs0mg"},{"bike_id":"29177bd9-b05a-46e3-a7c6-0bab8134bba2","system_id":"levelo_inurba_marseille","lat":43.27185,"lon":5.40985,"is_reserved":false,"is_disabled":false,"rental_uris":{"android":"levelo://app?vid=29177bd9-b05a-46e3-a7c6-0bab8134bba2","ios":"levelo://app?vid=29177bd9-b05a-46e3-a7c6-0bab8134bba2"},"vehicle_type_id":"4","last_reported":1742404150,"current_range_meters":7200,"station_id":"ce4bhl12rcd13ifvqgf0","pricing_plan_id":"cebpf4jnsgd1na2vs0mg"},{"bike_id":"a342afa1-fe1b-4de5-8f98-f3f81167fac6","system_id":"levelo_inurba_marseille","lat":43.22935,"lon":5.35382,"is_reserved":false,"is_disabled":false,"rental_uris":{"android":"levelo://app?vid=a342afa1-fe1b-4de5-8f98-f3f81167fac6","ios":"levelo://app?vid=a342afa1-fe1b-4de5-8f98-f3f81167fac6"},"vehicle_type_id":"4","last_reported":1742404150,"current_range_meters":7200,"station_id":"cpo3532slgdg3j2ikp40","pricing_plan_id":"cebpf4jnsgd1na2vs0mg"},{"bike_id":"6a25dbb1-f546-40b9-a9ef-eec64f40c6fa","system_id":"levelo_inurba_marseille","lat":43.28933,"lon":5.38412,"is_reserved":false,"is_disabled":false,"rental_uris":{"android":"levelo://app?vid=6a25dbb1-f546-40b9-a9ef-eec64f40c6fa","ios":"levelo://app?vid=6a25dbb1-f546-40b9-a9ef-eec64f40c6fa"},"vehicle_type_id":"4","last_reported":1742404150,"current_range_meters":6000,"station_id":"ce4bh612rcd13ifvqe6g","pricing_plan_id":"cebpf4jnsgd1na2vs0mg"},{"bike_id":"89192445-acf9-4672-b4cf-a8df562eba3d","system_id":"levelo_inurba_marseille","lat":43.29309,"lon":5.37443,"is_reserved":false,"is_disabled":false,"rental_uris":{"android":"levelo://app?vid=89192445-acf9-4672-b4cf-a8df562eba3d","ios":"levelo://app?vid=89192445-acf9-4672-b4cf-a8df562eba3d"},"vehicle_type_id":"4","last_reported":1742404150,"current_range_meters":7200,"station_id":"ce4bgi12rcd13ifvqb70","pricing_plan_id":"cebpf4jnsgd1na2vs0mg"},{"bike_id":"4156866b-a0ed-4dcf-b9d2-e7765ca102e2","system_id":"levelo_inurba_marseille","lat":43.3059,"lon":5.36737,"is_reserved":false,"is_disabled":true,"rental_uris":{"android":"levelo://app?vid=4156866b-a0ed-4dcf-b9d2-e7765ca102e2","ios":"levelo://app?vid=4156866b-a0ed-4dcf-b9d2-e7765ca102e2"},"vehicle_type_id":"4","last_reported":1742404150,"current_range_meters":7200,"station_id":"ce4bgrp2rcd13ifvqc9g","pricing_plan_id":"cebpf4jnsgd1na2vs0mg"},{"bike_id":"914b4bfe-53fc-49be-b3d3-4c51fdd65e80","system_id":"levelo_inurba_marseille","lat":43.31496,"lon":5.37315,"is_reserved":false,"is_disabled":false,"rental_uris":{"android":"levelo://app?vid=914b4bfe-53fc-49be-b3d3-4c51fdd65e80","ios":"levelo://app?vid=914b4bfe-53fc-49be-b3d3-4c51fdd65e80"},"vehicle_type_id":"4","last_reported":1742404150,"current_range_meters":7200,"station_id":"ce4bgt12rcd13ifvqcd0","pricing_plan_id":"cebpf4jnsgd1na2vs0mg"},{"bike_id":"8143cbda-a0ba-4887-8510-2a68b2135bdd","system_id":"levelo_inurba_marseille","lat":43.2996,"lon":5.41323,"is_reserved":false,"is_disabled":false,"rental_uris":{"android":"levelo://app?vid=8143cbda-a0ba-4887-8510-2a68b2135bdd","ios":"levelo://app?vid=8143cbda-a0ba-4887-8510-2a68b2135bdd"},"vehicle_type_id":"4","last_reported":1742404150,"current_range_meters":7200,"station_id":"ce4bhp12rcd13ifvqh9g","pricing_plan_id":"cebpf4jnsgd1na2vs0mg"},{"bike_id":"80199900-8dce-4757-bbc9-50ebf2191700","system_id":"levelo_inurba_marseille","lat":43.2696,"lon":5.40263,"is_reserved":false,"is_disabled":false,"rental_uris":{"android":"levelo://app?vid=80199900-8dce-4757-bbc9-50ebf2191700","ios":"levelo://app?vid=80199900-8dce-4757-bbc9-50ebf2191700"},"vehicle_type_id":"4","last_reported":1742404150,"current_range_meters":7200,"station_id":"cjm6bp8fraef2m0cb0m0","pricing_plan_id":"cebpf4jnsgd1na2vs0mg"},{"bike_id":"d285866e-f34d-49b6-a123-aec9c92aec22","system_id":"levelo_inurba_marseille","lat":43.29266,"lon":5.38451,"is_reserved":false,"is_disabled":false,"rental_uris":{"android":"levelo://app?vid=d285866e-f34d-49b6-a123-aec9c92aec22","ios":"levelo://app?vid=d285866e-f34d-49b6-a123-aec9c92aec22"},"vehicle_type_id":"4","last_reported":1742404150,"current_range_meters":7200,"station_id":"ce4bh692rcd13ifvqea0","pricing_plan_id":"cebpf4jnsgd1na2vs0mg"},{"bike_id":"26420a88-894b-454e-b388-58d560c907a9","system_id":"levelo_inurba_marseille","lat":43.28276,"lon":5.35062,"is_reserved":false,"is_disabled":false,"rental_uris":{"android":"levelo://app?vid=26420a88-894b-454e-b388-58d560c907a9","ios":"levelo://app?vid=26420a88-894b-454e-b388-58d560c907a9"},"vehicle_type_id":"4","last_reported":1742404150,"current_range_meters":8000,"station_id":"ce4bhbp2rcd13ifvqerg","pricing_plan_id":"cebpf4jnsgd1na2vs0mg"},{"bike_id":"4f70ebff-4208-422e-8c95-09d5bebf9c84","system_id":"levelo_inurba_marseille","lat":43.27958,"lon":5.39615,"is_reserved":false,"is_disabled":false,"rental_uris":{"android":"levelo://app?vid=4f70ebff-4208-422e-8c95-09d5bebf9c84","ios":"levelo://app?vid=4f70ebff-4208-422e-8c95-09d5bebf9c84"},"vehicle_type_id":"4","last_reported":1742404150,"current_range_meters":8000,"station_id":"ce4bhf92rcd13ifvqf40","pricing_plan_id":"cebpf4jnsgd1na2vs0mg"},{"bike_id":"1163a891-a888-48f3-b149-6f737ca37e67","system_id":"levelo_inurba_marseille","lat":43.25502,"lon":5.37666,"is_reserved":false,"is_disabled":false,"rental_uris":{"android":"levelo://app?vid=1163a891-a888-48f3-b149-6f737ca37e67","ios":"levelo://app?vid=1163a891-a888-48f3-b149-6f737ca37e67"},"vehicle_type_id":"4","last_reported":1742404150,"current_range_meters":8000,"station_id":"ce4bhh12rcd13ifvqff0","pricing_plan_id":"cebpf4jnsgd1na2vs0mg"},{"bike_id":"6ab5f6b3-3980-4268-9f14-c46b00a01e70","system_id":"levelo_inurba_marseille","lat":43.314953,"lon":5.373024,"is_reserved":false,"is_disabled":false,"rental_uris":{"android":"levelo://app?vid=6ab5f6b3-3980-4268-9f14-c46b00a01e70","ios":"levelo://app?vid=6ab5f6b3-3980-4268-9f14-c46b00a01e70"},"vehicle_type_id":"4","last_reported":1742404150,"current_range_meters":7200,"station_id":"ce4bhhh2rcd13ifvqfk0","pricing_plan_id":"cebpf4jnsgd1na2vs0mg"},{"bike_id":"6b162ed9-3599-4156-a34b-2df90433ae5c","system_id":"levelo_inurba_marseille","lat":43.24166,"lon":5.39722,"is_reserved":false,"is_disabled":false,"rental_uris":{"android":"levelo://app?vid=6b162ed9-3599-4156-a34b-2df90433ae5c","ios":"levelo://app?vid=6b162ed9-3599-4156-a34b-2df90433ae5c"},"vehicle_type_id":"4","last_reported":1742404150,"current_range_meters":8000,"station_id":"ce4bhn12rcd13ifvqgpg","pricing_plan_id":"cebpf4jnsgd1na2vs0mg"},{"bike_id":"20df28b8-63d2-4593-9af7-4b359afeb27a","system_id":"levelo_inurba_marseille","lat":43.27585,"lon":5.38449,"is_reserved":false,"is_disabled":false,"rental_uris":{"android":"levelo://app?vid=20df28b8-63d2-4593-9af7-4b359afeb27a","ios":"levelo://app?vid=20df28b8-63d2-4593-9af7-4b359afeb27a"},"vehicle_type_id":"4","last_reported":1742404150,"current_range_meters":8000,"station_id":"ce4bhh92rcd13ifvqfi0","pricing_plan_id":"cebpf4jnsgd1na2vs0mg"},{"bike_id":"1fe8cbb2-e61f-4748-8f3f-eff906305549","system_id":"levelo_inurba_marseille","lat":43.230675,"lon":5.354974,"is_reserved":false,"is_disabled":false,"rental_uris":{"android":"levelo://app?vid=1fe8cbb2-e61f-4748-8f3f-eff906305549","ios":"levelo://app?vid=1fe8cbb2-e61f-4748-8f3f-eff906305549"},"vehicle_type_id":"4","last_reported":1742404150,"current_range_meters":8400,"station_id":"cpo3342slgdg3j2ifvpg","pricing_plan_id":"cebpf4jnsgd1na2vs0mg"},{"bike_id":"10eed6fd-0341-4510-a4a6-4c8769f4a4be","system_id":"levelo_inurba_marseille","lat":43.26698,"lon":5.38272,"is_reserved":false,"is_disabled":false,"rental_uris":{"android":"levelo://app?vid=10eed6fd-0341-4510-a4a6-4c8769f4a4be","ios":"levelo://app?vid=10eed6fd-0341-4510-a4a6-4c8769f4a4be"},"vehicle_type_id":"4","last_reported":1742404150,"current_range_meters":8400,"station_id":"ce4bhg92rcd13ifvqf90","pricing_plan_id":"cebpf4jnsgd1na2vs0mg"},{"bike_id":"e8ca296b-d8c0-4f4f-8452-45e3daae8750","system_id":"levelo_inurba_marseille","lat":43.2418,"lon":5.39739,"is_reserved":false,"is_disabled":false,"rental_uris":{"android":"levelo://app?vid=e8ca296b-d8c0-4f4f-8452-45e3daae8750","ios":"levelo://app?vid=e8ca296b-d8c0-4f4f-8452-45e3daae8750"},"vehicle_type_id":"4","last_reported":1742404150,"current_range_meters":8400,"station_id":"ce4bhn12rcd13ifvqgpg","pricing_plan_id":"cebpf4jnsgd1na2vs0mg"},{"bike_id":"ed32af05-a93a-40af-b3e3-3171404acc80","system_id":"levelo_inurba_marseille","lat":43.27363,"lon":5.36209,"is_reserved":false,"is_disabled":false,"rental_uris":{"android":"levelo://app?vid=ed32af05-a93a-40af-b3e3-3171404acc80","ios":"levelo://app?vid=ed32af05-a93a-40af-b3e3-3171404acc80"},"vehicle_type_id":"4","last_reported":1742404150,"current_range_meters":8400,"station_id":"","pricing_plan_id":"cebpf4jnsgd1na2vs0mg"},{"bike_id":"ab17e897-de92-4365-a700-2a37611cfc8d","system_id":"levelo_inurba_marseille","lat":43.30322,"lon":5.40432,"is_reserved":false,"is_disabled":false,"rental_uris":{"android":"levelo://app?vid=ab17e897-de92-4365-a700-2a37611cfc8d","ios":"levelo://app?vid=ab17e897-de92-4365-a700-2a37611cfc8d"},"vehicle_type_id":"4","last_reported":1742404150,"current_range_meters":8000,"station_id":"ce4bh012rcd13ifvqd10","pricing_plan_id":"cebpf4jnsgd1na2vs0mg"},{"bike_id":"41a15b1a-d0fc-4245-87b0-18dc806674c7","system_id":"levelo_inurba_marseille","lat":43.30589,"lon":5.39357,"is_reserved":false,"is_disabled":false,"rental_uris":{"android":"levelo://app?vid=41a15b1a-d0fc-4245-87b0-18dc806674c7","ios":"levelo://app?vid=41a15b1a-d0fc-4245-87b0-18dc806674c7"},"vehicle_type_id":"4","last_reported":1742404150,"current_range_meters":8400,"station_id":"ce4bh0p2rcd13ifvqd80","pricing_plan_id":"cebpf4jnsgd1na2vs0mg"},{"bike_id":"4858167e-edc8-4792-9d1c-05670cc1275f","system_id":"levelo_inurba_marseille","lat":43.2928,"lon":5.42735,"is_reserved":false,"is_disabled":false,"rental_uris":{"android":"levelo://app?vid=4858167e-edc8-4792-9d1c-05670cc1275f","ios":"levelo://app?vid=4858167e-edc8-4792-9d1c-05670cc1275f"},"vehicle_type_id":"4","last_reported":1742404150,"current_range_meters":8400,"station_id":"","pricing_plan_id":"cebpf4jnsgd1na2vs0mg"},{"bike_id":"0f9d1fb3-d131-4f38-9821-6d188bda5940","system_id":"levelo_inurba_marseille","lat":43.27057,"lon":5.40262,"is_reserved":false,"is_disabled":false,"rental_uris":{"android":"levelo://app?vid=0f9d1fb3-d131-4f38-9821-6d188bda5940","ios":"levelo://app?vid=0f9d1fb3-d131-4f38-9821-6d188bda5940"},"vehicle_type_id":"4","last_reported":1742404150,"current_range_meters":8400,"station_id":"ce4bhk92rcd13ifvqgc0","pricing_plan_id":"cebpf4jnsgd1na2vs0mg"},{"bike_id":"cc09778d-e31c-4068-bdf8-5ece30046225","system_id":"levelo_inurba_marseille","lat":43.28574,"lon":5.39503,"is_reserved":false,"is_disabled":false,"rental_uris":{"android":"levelo://app?vid=cc09778d-e31c-4068-bdf8-5ece30046225","ios":"levelo://app?vid=cc09778d-e31c-4068-bdf8-5ece30046225"},"vehicle_type_id":"4","last_reported":1742404150,"current_range_meters":8400,"station_id":"ce4bh292rcd13ifvqdg0","pricing_plan_id":"cebpf4jnsgd1na2vs0mg"},{"bike_id":"c88fbe28-9402-4ce3-9d2b-7ab1e41f63e4","system_id":"levelo_inurba_marseille","lat":43.27626,"lon":5.36118,"is_reserved":false,"is_disabled":false,"rental_uris":{"android":"levelo://app?vid=c88fbe28-9402-4ce3-9d2b-7ab1e41f63e4","ios":"levelo://app?vid=c88fbe28-9402-4ce3-9d2b-7ab1e41f63e4"},"vehicle_type_id":"4","last_reported":1742404150,"current_range_meters":8400,"station_id":"ce4bgj92rcd13ifvqbe0","pricing_plan_id":"cebpf4jnsgd1na2vs0mg"},{"bike_id":"87330e03-1cf9-4918-b08d-6735525c7a28","system_id":"levelo_inurba_marseille","lat":43.2931,"lon":5.37467,"is_reserved":false,"is_disabled":false,"rental_uris":{"android":"levelo://app?vid=87330e03-1cf9-4918-b08d-6735525c7a28","ios":"levelo://app?vid=87330e03-1cf9-4918-b08d-6735525c7a28"},"vehicle_type_id":"4","last_reported":1742404150,"current_range_meters":10000,"station_id":"ce4bgi12rcd13ifvqb70","pricing_plan_id":"cebpf4jnsgd1na2vs0mg"},{"bike_id":"4fa0322d-b201-409d-9218-57726b4a4ca2","system_id":"levelo_inurba_marseille","lat":43.30638,"lon":5.40073,"is_reserved":false,"is_disabled":false,"rental_uris":{"android":"levelo://app?vid=4fa0322d-b201-409d-9218-57726b4a4ca2","ios":"levelo://app?vid=4fa0322d-b201-409d-9218-57726b4a4ca2"},"vehicle_type_id":"4","last_reported":1742404150,"current_range_meters":8400,"station_id":"ce4bh112rcd13ifvqda0","pricing_plan_id":"cebpf4jnsgd1na2vs0mg"},{"bike_id":"7f2b9c28-ac4b-434c-841d-6decda9af732","system_id":"levelo_inurba_marseille","lat":43.29269,"lon":5.36841,"is_reserved":false,"is_disabled":false,"rental_uris":{"android":"levelo://app?vid=7f2b9c28-ac4b-434c-841d-6decda9af732","ios":"levelo://app?vid=7f2b9c28-ac4b-434c-841d-6decda9af732"},"vehicle_type_id":"4","last_reported":1742404150,"current_range_meters":8400,"station_id":"ce4bhbp2rcd13ifvqesg","pricing_plan_id":"cebpf4jnsgd1na2vs0mg"},{"bike_id":"45233882-6a89-4b02-addd-28d39958200a","system_id":"levelo_inurba_marseille","lat":43.32364,"lon":5.3672,"is_reserved":false,"is_disabled":false,"rental_uris":{"android":"levelo://app?vid=45233882-6a89-4b02-addd-28d39958200a","ios":"levelo://app?vid=45233882-6a89-4b02-addd-28d39958200a"},"vehicle_type_id":"4","last_reported":1742404150,"current_range_meters":8800,"station_id":"ce4bhsh2rcd13ifvqi2g","pricing_plan_id":"cebpf4jnsgd1na2vs0mg"},{"bike_id":"25793b0d-d8a7-4fb7-bbd3-bb61178801a0","system_id":"levelo_inurba_marseille","lat":43.30995,"lon":5.37009,"is_reserved":false,"is_disabled":false,"rental_uris":{"android":"levelo://app?vid=25793b0d-d8a7-4fb7-bbd3-bb61178801a0","ios":"levelo://app?vid=25793b0d-d8a7-4fb7-bbd3-bb61178801a0"},"vehicle_type_id":"4","last_reported":1742404150,"current_range_meters":8800,"station_id":"","pricing_plan_id":"cebpf4jnsgd1na2vs0mg"},{"bike_id":"0f4829ba-d94f-4f90-ae2c-64b5564cd9b4","system_id":"levelo_inurba_marseille","lat":43.26804,"lon":5.40269,"is_reserved":false,"is_disabled":false,"rental_uris":{"android":"levelo://app?vid=0f4829ba-d94f-4f90-ae2c-64b5564cd9b4","ios":"levelo://app?vid=0f4829ba-d94f-4f90-ae2c-64b5564cd9b4"},"vehicle_type_id":"4","last_reported":1742404150,"current_range_meters":8800,"station_id":"ce501612rcd8frsf0b60","pricing_plan_id":"cebpf4jnsgd1na2vs0mg"},{"bike_id":"3fb7611c-8847-4787-9697-6047e7303542","system_id":"levelo_inurba_marseille","lat":43.30433,"lon":5.38886,"is_reserved":false,"is_disabled":false,"rental_uris":{"android":"levelo://app?vid=3fb7611c-8847-4787-9697-6047e7303542","ios":"levelo://app?vid=3fb7611c-8847-4787-9697-6047e7303542"},"vehicle_type_id":"4","last_reported":1742404150,"current_range_meters":8800,"station_id":"ce4bgk12rcd13ifvqbi0","pricing_plan_id":"cebpf4jnsgd1na2vs0mg"},{"bike_id":"f900da6c-7e5c-4ec1-bb80-501e71312a52","system_id":"levelo_inurba_marseille","lat":43.27377,"lon":5.36255,"is_reserved":false,"is_disabled":false,"rental_uris":{"android":"levelo://app?vid=f900da6c-7e5c-4ec1-bb80-501e71312a52","ios":"levelo://app?vid=f900da6c-7e5c-4ec1-bb80-501e71312a52"},"vehicle_type_id":"4","last_reported":1742404150,"current_range_meters":8800,"station_id":"ce4bhbh2rcd13ifvqeo0","pricing_plan_id":"cebpf4jnsgd1na2vs0mg"},{"bike_id":"ee6c91ae-48e5-4aa7-bc90-dbfd5be48dab","system_id":"levelo_inurba_marseille","lat":43.26555,"lon":5.37286,"is_reserved":false,"is_disabled":false,"rental_uris":{"android":"levelo://app?vid=ee6c91ae-48e5-4aa7-bc90-dbfd5be48dab","ios":"levelo://app?vid=ee6c91ae-48e5-4aa7-bc90-dbfd5be48dab"},"vehicle_type_id":"4","last_reported":1742404150,"current_range_meters":8800,"station_id":"ce4bhg12rcd13ifvqf70","pricing_plan_id":"cebpf4jnsgd1na2vs0mg"},{"bike_id":"07475d5e-2e71-469f-ad61-3de83f9c820b","system_id":"levelo_inurba_marseille","lat":43.2721,"lon":5.39181,"is_reserved":false,"is_disabled":false,"rental_uris":{"android":"levelo://app?vid=07475d5e-2e71-469f-ad61-3de83f9c820b","ios":"levelo://app?vid=07475d5e-2e71-469f-ad61-3de83f9c820b"},"vehicle_type_id":"4","last_reported":1742404150,"current_range_meters":8800,"station_id":"ce4bhhp2rcd13ifvqfm0","pricing_plan_id":"cebpf4jnsgd1na2vs0mg"},{"bike_id":"ca5ec2af-d9c0-4bf6-a9d8-72576ec4b622","system_id":"levelo_inurba_marseille","lat":43.27933,"lon":5.39613,"is_reserved":false,"is_disabled":false,"rental_uris":{"android":"levelo://app?vid=ca5ec2af-d9c0-4bf6-a9d8-72576ec4b622","ios":"levelo://app?vid=ca5ec2af-d9c0-4bf6-a9d8-72576ec4b622"},"vehicle_type_id":"4","last_reported":1742404150,"current_range_meters":9200,"station_id":"ce4bhf92rcd13ifvqf40","pricing_plan_id":"cebpf4jnsgd1na2vs0mg"},{"bike_id":"ebd45e7b-1c45-4b94-a31a-e5fdc9535d41","system_id":"levelo_inurba_marseille","lat":43.23963,"lon":5.36637,"is_reserved":false,"is_disabled":false,"rental_uris":{"android":"levelo://app?vid=ebd45e7b-1c45-4b94-a31a-e5fdc9535d41","ios":"levelo://app?vid=ebd45e7b-1c45-4b94-a31a-e5fdc9535d41"},"vehicle_type_id":"4","last_reported":1742404150,"current_range_meters":9200,"station_id":"ce4bhi12rcd13ifvqfp0","pricing_plan_id":"cebpf4jnsgd1na2vs0mg"},{"bike_id":"f9ff2843-6a11-4e3b-9e65-9998fbe82454","system_id":"levelo_inurba_marseille","lat":43.25118,"lon":5.40321,"is_reserved":false,"is_disabled":false,"rental_uris":{"android":"levelo://app?vid=f9ff2843-6a11-4e3b-9e65-9998fbe82454","ios":"levelo://app?vid=f9ff2843-6a11-4e3b-9e65-9998fbe82454"},"vehicle_type_id":"4","last_reported":1742404150,"current_range_meters":9200,"station_id":"ce4bhlh2rcd13ifvqgig","pricing_plan_id":"cebpf4jnsgd1na2vs0mg"},{"bike_id":"3ba5e193-1f6b-4dee-afd3-3a5d0ff7b050","system_id":"levelo_inurba_marseille","lat":43.30644,"lon":5.40098,"is_reserved":false,"is_disabled":false,"rental_uris":{"android":"levelo://app?vid=3ba5e193-1f6b-4dee-afd3-3a5d0ff7b050","ios":"levelo://app?vid=3ba5e193-1f6b-4dee-afd3-3a5d0ff7b050"},"vehicle_type_id":"4","last_reported":1742404150,"current_range_meters":9200,"station_id":"ce4bh112rcd13ifvqda0","pricing_plan_id":"cebpf4jnsgd1na2vs0mg"},{"bike_id":"71c5e16d-2b90-4e7f-be6a-331ba2adb40e","system_id":"levelo_inurba_marseille","lat":43.31332,"lon":5.39692,"is_reserved":false,"is_disabled":false,"rental_uris":{"android":"levelo://app?vid=71c5e16d-2b90-4e7f-be6a-331ba2adb40e","ios":"levelo://app?vid=71c5e16d-2b90-4e7f-be6a-331ba2adb40e"},"vehicle_type_id":"4","last_reported":1742404150,"current_range_meters":8800,"station_id":"ce4bgvp2rcd13ifvqcu0","pricing_plan_id":"cebpf4jnsgd1na2vs0mg"},{"bike_id":"dff22bde-84fd-490a-8837-d6c39b979395","system_id":"levelo_inurba_marseille","lat":43.28611,"lon":5.37067,"is_reserved":false,"is_disabled":false,"rental_uris":{"android":"levelo://app?vid=dff22bde-84fd-490a-8837-d6c39b979395","ios":"levelo://app?vid=dff22bde-84fd-490a-8837-d6c39b979395"},"vehicle_type_id":"4","last_reported":1742404150,"current_range_meters":9200,"station_id":"ce4bht12rcd13ifvqi60","pricing_plan_id":"cebpf4jnsgd1na2vs0mg"},{"bike_id":"5accfb84-789e-40de-8efb-5f6efb7f476a","system_id":"levelo_inurba_marseille","lat":43.24659,"lon":5.3889,"is_reserved":false,"is_disabled":false,"rental_uris":{"android":"levelo://app?vid=5accfb84-789e-40de-8efb-5f6efb7f476a","ios":"levelo://app?vid=5accfb84-789e-40de-8efb-5f6efb7f476a"},"vehicle_type_id":"4","last_reported":1742404150,"current_range_meters":9200,"station_id":"ce4bhg12rcd13ifvqf60","pricing_plan_id":"cebpf4jnsgd1na2vs0mg"},{"bike_id":"056c9455-af36-4790-b851-b2581cd69543","system_id":"levelo_inurba_marseille","lat":43.2625,"lon":5.40464,"is_reserved":false,"is_disabled":false,"rental_uris":{"android":"levelo://app?vid=056c9455-af36-4790-b851-b2581cd69543","ios":"levelo://app?vid=056c9455-af36-4790-b851-b2581cd69543"},"vehicle_type_id":"4","last_reported":1742404150,"current_range_meters":9200,"station_id":"ce4bhmh2rcd13ifvqgmg","pricing_plan_id":"cebpf4jnsgd1na2vs0mg"},{"bike_id":"bf896e57-d852-4435-957c-5965876fdecc","system_id":"levelo_inurba_marseille","lat":43.29367,"lon":5.37836,"is_reserved":false,"is_disabled":false,"rental_uris":{"android":"levelo://app?vid=bf896e57-d852-4435-957c-5965876fdecc","ios":"levelo://app?vid=bf896e57-d852-4435-957c-5965876fdecc"},"vehicle_type_id":"4","last_reported":1742404150,"current_range_meters":9200,"station_id":"ce4bgjh2rcd13ifvqbf0","pricing_plan_id":"cebpf4jnsgd1na2vs0mg"},{"bike_id":"054b79e5-3c6c-4562-a1d6-d64bd099ac6b","system_id":"levelo_inurba_marseille","lat":43.24679,"lon":5.38154,"is_reserved":false,"is_disabled":false,"rental_uris":{"android":"levelo://app?vid=054b79e5-3c6c-4562-a1d6-d64bd099ac6b","ios":"levelo://app?vid=054b79e5-3c6c-4562-a1d6-d64bd099ac6b"},"vehicle_type_id":"4","last_reported":1742404150,"current_range_meters":9200,"station_id":"ce4bhih2rcd13ifvqfr0","pricing_plan_id":"cebpf4jnsgd1na2vs0mg"},{"bike_id":"150cd226-fa17-47b2-b5c9-097c59dbefbf","system_id":"levelo_inurba_marseille","lat":43.27084,"lon":5.42293,"is_reserved":false,"is_disabled":false,"rental_uris":{"android":"levelo://app?vid=150cd226-fa17-47b2-b5c9-097c59dbefbf","ios":"levelo://app?vid=150cd226-fa17-47b2-b5c9-097c59dbefbf"},"vehicle_type_id":"4","last_reported":1742404150,"current_range_meters":4000,"station_id":"ce4bhk92rcd13ifvqgb0","pricing_plan_id":"cebpf4jnsgd1na2vs0mg"},{"bike_id":"dab99b3f-ce6f-4338-a040-babb7227e6ea","system_id":"levelo_inurba_marseille","lat":43.24177,"lon":5.39741,"is_reserved":false,"is_disabled":false,"rental_uris":{"android":"levelo://app?vid=dab99b3f-ce6f-4338-a040-babb7227e6ea","ios":"levelo://app?vid=dab99b3f-ce6f-4338-a040-babb7227e6ea"},"vehicle_type_id":"4","last_reported":1742404150,"current_range_meters":9600,"station_id":"ce4bhn12rcd13ifvqgpg","pricing_plan_id":"cebpf4jnsgd1na2vs0mg"},{"bike_id":"f7317967-208e-4ff6-92ee-920ec06830c4","system_id":"levelo_inurba_marseille","lat":43.25735,"lon":5.41129,"is_reserved":false,"is_disabled":false,"rental_uris":{"android":"levelo://app?vid=f7317967-208e-4ff6-92ee-920ec06830c4","ios":"levelo://app?vid=f7317967-208e-4ff6-92ee-920ec06830c4"},"vehicle_type_id":"4","last_reported":1742404150,"current_range_meters":9600,"station_id":"ce4bhkp2rcd13ifvqgd0","pricing_plan_id":"cebpf4jnsgd1na2vs0mg"},{"bike_id":"2fc59438-bcd7-4fcb-af90-ed004623bdc8","system_id":"levelo_inurba_marseille","lat":43.26238,"lon":5.40457,"is_reserved":false,"is_disabled":false,"rental_uris":{"android":"levelo://app?vid=2fc59438-bcd7-4fcb-af90-ed004623bdc8","ios":"levelo://app?vid=2fc59438-bcd7-4fcb-af90-ed004623bdc8"},"vehicle_type_id":"4","last_reported":1742404150,"current_range_meters":9600,"station_id":"ce4bhmh2rcd13ifvqgmg","pricing_plan_id":"cebpf4jnsgd1na2vs0mg"},{"bike_id":"2e790726-9fdc-4dde-9c40-b947baf846b3","system_id":"levelo_inurba_marseille","lat":43.27055,"lon":5.40266,"is_reserved":false,"is_disabled":false,"rental_uris":{"android":"levelo://app?vid=2e790726-9fdc-4dde-9c40-b947baf846b3","ios":"levelo://app?vid=2e790726-9fdc-4dde-9c40-b947baf846b3"},"vehicle_type_id":"4","last_reported":1742404150,"current_range_meters":9600,"station_id":"ce4bhk92rcd13ifvqgc0","pricing_plan_id":"cebpf4jnsgd1na2vs0mg"},{"bike_id":"e3b1536c-a12f-40a3-a5b9-850d247b7192","system_id":"levelo_inurba_marseille","lat":43.30142,"lon":5.38767,"is_reserved":false,"is_disabled":false,"rental_uris":{"android":"levelo://app?vid=e3b1536c-a12f-40a3-a5b9-850d247b7192","ios":"levelo://app?vid=e3b1536c-a12f-40a3-a5b9-850d247b7192"},"vehicle_type_id":"4","last_reported":1742404150,"current_range_meters":9600,"station_id":"ce4bghh2rcd13ifvqb60","pricing_plan_id":"cebpf4jnsgd1na2vs0mg"},{"bike_id":"d45aa902-4bcb-471b-8a0f-8cdc3416ec8c","system_id":"levelo_inurba_marseille","lat":43.27617,"lon":5.36108,"is_reserved":false,"is_disabled":false,"rental_uris":{"android":"levelo://app?vid=d45aa902-4bcb-471b-8a0f-8cdc3416ec8c","ios":"levelo://app?vid=d45aa902-4bcb-471b-8a0f-8cdc3416ec8c"},"vehicle_type_id":"4","last_reported":1742404150,"current_range_meters":9600,"station_id":"ce4bgj92rcd13ifvqbe0","pricing_plan_id":"cebpf4jnsgd1na2vs0mg"},{"bike_id":"3455258b-4135-46b9-9a26-10bf95160e40","system_id":"levelo_inurba_marseille","lat":43.23194,"lon":5.35552,"is_reserved":false,"is_disabled":false,"rental_uris":{"android":"levelo://app?vid=3455258b-4135-46b9-9a26-10bf95160e40","ios":"levelo://app?vid=3455258b-4135-46b9-9a26-10bf95160e40"},"vehicle_type_id":"4","last_reported":1742404150,"current_range_meters":9600,"station_id":"ce4bhu92rcd13ifvqi70","pricing_plan_id":"cebpf4jnsgd1na2vs0mg"},{"bike_id":"b3ab2806-f410-4cce-8b04-fb1a4b877921","system_id":"levelo_inurba_marseille","lat":43.24198,"lon":5.39754,"is_reserved":false,"is_disabled":false,"rental_uris":{"android":"levelo://app?vid=b3ab2806-f410-4cce-8b04-fb1a4b877921","ios":"levelo://app?vid=b3ab2806-f410-4cce-8b04-fb1a4b877921"},"vehicle_type_id":"4","last_reported":1742404150,"current_range_meters":9600,"station_id":"ce4bhn12rcd13ifvqgpg","pricing_plan_id":"cebpf4jnsgd1na2vs0mg"},{"bike_id":"3da64548-8b6a-42d6-898f-dc427d7ab309","system_id":"levelo_inurba_marseille","lat":43.27952,"lon":5.41041,"is_reserved":false,"is_disabled":false,"rental_uris":{"android":"levelo://app?vid=3da64548-8b6a-42d6-898f-dc427d7ab309","ios":"levelo://app?vid=3da64548-8b6a-42d6-898f-dc427d7ab309"},"vehicle_type_id":"4","last_reported":1742404150,"current_range_meters":9600,"station_id":"ce4bhnp2rcd13ifvqh0g","pricing_plan_id":"cebpf4jnsgd1na2vs0mg"},{"bike_id":"fe43f2e2-68ef-4fcd-bb23-84fd515f2ed0","system_id":"levelo_inurba_marseille","lat":43.296343,"lon":5.40596,"is_reserved":false,"is_disabled":false,"rental_uris":{"android":"levelo://app?vid=fe43f2e2-68ef-4fcd-bb23-84fd515f2ed0","ios":"levelo://app?vid=fe43f2e2-68ef-4fcd-bb23-84fd515f2ed0"},"vehicle_type_id":"4","last_reported":1742404150,"current_range_meters":9600,"station_id":"ce4bh092rcd13ifvqd30","pricing_plan_id":"cebpf4jnsgd1na2vs0mg"},{"bike_id":"1fea0b3c-94ab-41af-b18e-d9bbaa7dda49","system_id":"levelo_inurba_marseille","lat":43.31703,"lon":5.43689,"is_reserved":false,"is_disabled":false,"rental_uris":{"android":"levelo://app?vid=1fea0b3c-94ab-41af-b18e-d9bbaa7dda49","ios":"levelo://app?vid=1fea0b3c-94ab-41af-b18e-d9bbaa7dda49"},"vehicle_type_id":"4","last_reported":1742404150,"current_range_meters":6000,"station_id":"ce4bhp92rcd13ifvqhcg","pricing_plan_id":"cebpf4jnsgd1na2vs0mg"},{"bike_id":"a7e8f474-cfb2-4366-a039-9f3309f18bd1","system_id":"levelo_inurba_marseille","lat":43.28158,"lon":5.42647,"is_reserved":false,"is_disabled":false,"rental_uris":{"android":"levelo://app?vid=a7e8f474-cfb2-4366-a039-9f3309f18bd1","ios":"levelo://app?vid=a7e8f474-cfb2-4366-a039-9f3309f18bd1"},"vehicle_type_id":"4","last_reported":1742404150,"current_range_meters":9600,"station_id":"ce4bhnh2rcd13ifvqgug","pricing_plan_id":"cebpf4jnsgd1na2vs0mg"},{"bike_id":"cd6f1262-06b9-4383-8718-dbf3ba4fd41e","system_id":"levelo_inurba_marseille","lat":43.26247,"lon":5.40462,"is_reserved":false,"is_disabled":false,"rental_uris":{"android":"levelo://app?vid=cd6f1262-06b9-4383-8718-dbf3ba4fd41e","ios":"levelo://app?vid=cd6f1262-06b9-4383-8718-dbf3ba4fd41e"},"vehicle_type_id":"4","last_reported":1742404150,"current_range_meters":10000,"station_id":"ce4bhmh2rcd13ifvqgmg","pricing_plan_id":"cebpf4jnsgd1na2vs0mg"},{"bike_id":"8424fb62-d7b1-4106-bde7-4674c214620b","system_id":"levelo_inurba_marseille","lat":43.29375,"lon":5.37836,"is_reserved":false,"is_disabled":false,"rental_uris":{"android":"levelo://app?vid=8424fb62-d7b1-4106-bde7-4674c214620b","ios":"levelo://app?vid=8424fb62-d7b1-4106-bde7-4674c214620b"},"vehicle_type_id":"4","last_reported":1742404150,"current_range_meters":10000,"station_id":"ce4bgjh2rcd13ifvqbf0","pricing_plan_id":"cebpf4jnsgd1na2vs0mg"},{"bike_id":"71f2cd9d-ef15-44a1-a9cf-33002d842832","system_id":"levelo_inurba_marseille","lat":43.24672,"lon":5.38149,"is_reserved":false,"is_disabled":false,"rental_uris":{"android":"levelo://app?vid=71f2cd9d-ef15-44a1-a9cf-33002d842832","ios":"levelo://app?vid=71f2cd9d-ef15-44a1-a9cf-33002d842832"},"vehicle_type_id":"4","last_reported":1742404150,"current_range_meters":9600,"station_id":"ce4bhih2rcd13ifvqfr0","pricing_plan_id":"cebpf4jnsgd1na2vs0mg"},{"bike_id":"bfd67b10-fd7c-4b25-bc6e-0830b23c1f4b","system_id":"levelo_inurba_marseille","lat":43.25851,"lon":5.3941,"is_reserved":false,"is_disabled":false,"rental_uris":{"android":"levelo://app?vid=bfd67b10-fd7c-4b25-bc6e-0830b23c1f4b","ios":"levelo://app?vid=bfd67b10-fd7c-4b25-bc6e-0830b23c1f4b"},"vehicle_type_id":"4","last_reported":1742404150,"current_range_meters":10000,"station_id":"ce4bhip2rcd13ifvqft0","pricing_plan_id":"cebpf4jnsgd1na2vs0mg"},{"bike_id":"21ea3f9d-8819-4ef8-8fcf-36e2bc873b0a","system_id":"levelo_inurba_marseille","lat":43.30422,"lon":5.38874,"is_reserved":false,"is_disabled":false,"rental_uris":{"android":"levelo://app?vid=21ea3f9d-8819-4ef8-8fcf-36e2bc873b0a","ios":"levelo://app?vid=21ea3f9d-8819-4ef8-8fcf-36e2bc873b0a"},"vehicle_type_id":"4","last_reported":1742404150,"current_range_meters":10000,"station_id":"ce4bgk12rcd13ifvqbi0","pricing_plan_id":"cebpf4jnsgd1na2vs0mg"},{"bike_id":"3d325f35-941b-4bfa-a493-3a36d7e81be8","system_id":"levelo_inurba_marseille","lat":43.26558,"lon":5.37284,"is_reserved":false,"is_disabled":false,"rental_uris":{"android":"levelo://app?vid=3d325f35-941b-4bfa-a493-3a36d7e81be8","ios":"levelo://app?vid=3d325f35-941b-4bfa-a493-3a36d7e81be8"},"vehicle_type_id":"4","last_reported":1742404150,"current_range_meters":10800,"station_id":"ce4bhg12rcd13ifvqf70","pricing_plan_id":"cebpf4jnsgd1na2vs0mg"},{"bike_id":"5fcb8309-0208-48b4-b28d-ff6e405d3efe","system_id":"levelo_inurba_marseille","lat":43.25001,"lon":5.38915,"is_reserved":false,"is_disabled":false,"rental_uris":{"android":"levelo://app?vid=5fcb8309-0208-48b4-b28d-ff6e405d3efe","ios":"levelo://app?vid=5fcb8309-0208-48b4-b28d-ff6e405d3efe"},"vehicle_type_id":"4","last_reported":1742404150,"current_range_meters":10000,"station_id":"ce4bhgp2rcd13ifvqfd0","pricing_plan_id":"cebpf4jnsgd1na2vs0mg"},{"bike_id":"ab18898c-649d-448c-bdaf-6026652e76a0","system_id":"levelo_inurba_marseille","lat":43.29266,"lon":5.38425,"is_reserved":false,"is_disabled":false,"rental_uris":{"android":"levelo://app?vid=ab18898c-649d-448c-bdaf-6026652e76a0","ios":"levelo://app?vid=ab18898c-649d-448c-bdaf-6026652e76a0"},"vehicle_type_id":"4","last_reported":1742404150,"current_range_meters":10000,"station_id":"ce4bh692rcd13ifvqea0","pricing_plan_id":"cebpf4jnsgd1na2vs0mg"},{"bike_id":"0cf839ab-e587-4ab8-b08d-84e42ef6ef98","system_id":"levelo_inurba_marseille","lat":43.23965,"lon":5.36633,"is_reserved":false,"is_disabled":false,"rental_uris":{"android":"levelo://app?vid=0cf839ab-e587-4ab8-b08d-84e42ef6ef98","ios":"levelo://app?vid=0cf839ab-e587-4ab8-b08d-84e42ef6ef98"},"vehicle_type_id":"4","last_reported":1742404150,"current_range_meters":10000,"station_id":"ce4bhi12rcd13ifvqfp0","pricing_plan_id":"cebpf4jnsgd1na2vs0mg"},{"bike_id":"27969a7d-1514-4c05-ad37-9348241bd221","system_id":"levelo_inurba_marseille","lat":43.26196,"lon":5.37452,"is_reserved":false,"is_disabled":false,"rental_uris":{"android":"levelo://app?vid=27969a7d-1514-4c05-ad37-9348241bd221","ios":"levelo://app?vid=27969a7d-1514-4c05-ad37-9348241bd221"},"vehicle_type_id":"4","last_reported":1742404150,"current_range_meters":10000,"station_id":"ce4bhgp2rcd13ifvqfc0","pricing_plan_id":"cebpf4jnsgd1na2vs0mg"},{"bike_id":"963a17fa-4222-4f93-b414-09c4cce8d25a","system_id":"levelo_inurba_marseille","lat":43.28407,"lon":5.38485,"is_reserved":false,"is_disabled":false,"rental_uris":{"android":"levelo://app?vid=963a17fa-4222-4f93-b414-09c4cce8d25a","ios":"levelo://app?vid=963a17fa-4222-4f93-b414-09c4cce8d25a"},"vehicle_type_id":"4","last_reported":1742404150,"current_range_meters":10000,"station_id":"","pricing_plan_id":"cebpf4jnsgd1na2vs0mg"},{"bike_id":"6cc3105f-200d-4a53-b63e-23af0913f914","system_id":"levelo_inurba_marseille","lat":43.29273,"lon":5.36852,"is_reserved":false,"is_disabled":false,"rental_uris":{"android":"levelo://app?vid=6cc3105f-200d-4a53-b63e-23af0913f914","ios":"levelo://app?vid=6cc3105f-200d-4a53-b63e-23af0913f914"},"vehicle_type_id":"4","last_reported":1742404150,"current_range_meters":10800,"station_id":"ce4bhbp2rcd13ifvqesg","pricing_plan_id":"cebpf4jnsgd1na2vs0mg"},{"bike_id":"65ef99b1-ad21-4372-975a-d7b91287669d","system_id":"levelo_inurba_marseille","lat":43.25096,"lon":5.3952,"is_reserved":false,"is_disabled":false,"rental_uris":{"android":"levelo://app?vid=65ef99b1-ad21-4372-975a-d7b91287669d","ios":"levelo://app?vid=65ef99b1-ad21-4372-975a-d7b91287669d"},"vehicle_type_id":"4","last_reported":1742404150,"current_range_meters":10000,"station_id":"ce4bhm12rcd13ifvqgkg","pricing_plan_id":"cebpf4jnsgd1na2vs0mg"},{"bike_id":"88ccd002-5cc7-4436-b03a-a5333eda4374","system_id":"levelo_inurba_marseille","lat":43.26707,"lon":5.38264,"is_reserved":false,"is_disabled":false,"rental_uris":{"android":"levelo://app?vid=88ccd002-5cc7-4436-b03a-a5333eda4374","ios":"levelo://app?vid=88ccd002-5cc7-4436-b03a-a5333eda4374"},"vehicle_type_id":"4","last_reported":1742404150,"current_range_meters":10800,"station_id":"ce4bhg92rcd13ifvqf90","pricing_plan_id":"cebpf4jnsgd1na2vs0mg"},{"bike_id":"7dbf6370-5c5c-43f2-9c66-4d7ff54708fa","system_id":"levelo_inurba_marseille","lat":43.31127,"lon":5.3778,"is_reserved":false,"is_disabled":false,"rental_uris":{"android":"levelo://app?vid=7dbf6370-5c5c-43f2-9c66-4d7ff54708fa","ios":"levelo://app?vid=7dbf6370-5c5c-43f2-9c66-4d7ff54708fa"},"vehicle_type_id":"4","last_reported":1742404150,"current_range_meters":10800,"station_id":"ce4bgt92rcd13ifvqcg0","pricing_plan_id":"cebpf4jnsgd1na2vs0mg"},{"bike_id":"08534ccd-5ac2-44d4-8378-a9385057f97c","system_id":"levelo_inurba_marseille","lat":43.30929,"lon":5.40147,"is_reserved":false,"is_disabled":false,"rental_uris":{"android":"levelo://app?vid=08534ccd-5ac2-44d4-8378-a9385057f97c","ios":"levelo://app?vid=08534ccd-5ac2-44d4-8378-a9385057f97c"},"vehicle_type_id":"4","last_reported":1742404150,"current_range_meters":10800,"station_id":"ce4bgvp2rcd13ifvqct0","pricing_plan_id":"cebpf4jnsgd1na2vs0mg"},{"bike_id":"149a7237-4b0c-4c09-b5e1-e29dc8e198e1","system_id":"levelo_inurba_marseille","lat":43.31285,"lon":5.40161,"is_reserved":false,"is_disabled":false,"rental_uris":{"android":"levelo://app?vid=149a7237-4b0c-4c09-b5e1-e29dc8e198e1","ios":"levelo://app?vid=149a7237-4b0c-4c09-b5e1-e29dc8e198e1"},"vehicle_type_id":"4","last_reported":1742404150,"current_range_meters":10800,"station_id":"ce4bh092rcd13ifvqd30","pricing_plan_id":"cebpf4jnsgd1na2vs0mg"},{"bike_id":"1637be3a-b7a9-4128-a9c2-fe42ffb244c9","system_id":"levelo_inurba_marseille","lat":43.29525,"lon":5.39398,"is_reserved":false,"is_disabled":false,"rental_uris":{"android":"levelo://app?vid=1637be3a-b7a9-4128-a9c2-fe42ffb244c9","ios":"levelo://app?vid=1637be3a-b7a9-4128-a9c2-fe42ffb244c9"},"vehicle_type_id":"4","last_reported":1742404150,"current_range_meters":10800,"station_id":"ce4bh292rcd13ifvqdf0","pricing_plan_id":"cebpf4jnsgd1na2vs0mg"},{"bike_id":"b81f5100-48cd-484a-a38f-77673abf4225","system_id":"levelo_inurba_marseille","lat":43.28625,"lon":5.35103,"is_reserved":false,"is_disabled":false,"rental_uris":{"android":"levelo://app?vid=b81f5100-48cd-484a-a38f-77673abf4225","ios":"levelo://app?vid=b81f5100-48cd-484a-a38f-77673abf4225"},"vehicle_type_id":"4","last_reported":1742404150,"current_range_meters":10800,"station_id":"ce4bhch2rcd13ifvqeug","pricing_plan_id":"cebpf4jnsgd1na2vs0mg"},{"bike_id":"7c3a20db-12fe-4e16-b909-cc5ca5874de1","system_id":"levelo_inurba_marseille","lat":43.295769,"lon":5.375293,"is_reserved":false,"is_disabled":false,"rental_uris":{"android":"levelo://app?vid=7c3a20db-12fe-4e16-b909-cc5ca5874de1","ios":"levelo://app?vid=7c3a20db-12fe-4e16-b909-cc5ca5874de1"},"vehicle_type_id":"4","last_reported":1742404150,"current_range_meters":10800,"station_id":"ce4bgkp2rcd13ifvqbmg","pricing_plan_id":"cebpf4jnsgd1na2vs0mg"},{"bike_id":"c93751f9-b1bc-4856-a06c-46fc3efee4bb","system_id":"levelo_inurba_marseille","lat":43.27102,"lon":5.42292,"is_reserved":false,"is_disabled":false,"rental_uris":{"android":"levelo://app?vid=c93751f9-b1bc-4856-a06c-46fc3efee4bb","ios":"levelo://app?vid=c93751f9-b1bc-4856-a06c-46fc3efee4bb"},"vehicle_type_id":"4","last_reported":1742404150,"current_range_meters":10800,"station_id":"ce4bhk92rcd13ifvqgb0","pricing_plan_id":"cebpf4jnsgd1na2vs0mg"},{"bike_id":"061b69e8-36ec-41c5-a6e2-3facdf86d499","system_id":"levelo_inurba_marseille","lat":43.29266,"lon":5.37621,"is_reserved":false,"is_disabled":false,"rental_uris":{"android":"levelo://app?vid=061b69e8-36ec-41c5-a6e2-3facdf86d499","ios":"levelo://app?vid=061b69e8-36ec-41c5-a6e2-3facdf86d499"},"vehicle_type_id":"4","last_reported":1742404150,"current_range_meters":11200,"station_id":"ce4bgi12rcd13ifvqb80","pricing_plan_id":"cebpf4jnsgd1na2vs0mg"},{"bike_id":"e2f2ddd5-2c90-4bd5-9948-f6824751cb16","system_id":"levelo_inurba_marseille","lat":43.25581,"lon":5.38239,"is_reserved":false,"is_disabled":false,"rental_uris":{"android":"levelo://app?vid=e2f2ddd5-2c90-4bd5-9948-f6824751cb16","ios":"levelo://app?vid=e2f2ddd5-2c90-4bd5-9948-f6824751cb16"},"vehicle_type_id":"4","last_reported":1742404150,"current_range_meters":11200,"station_id":"ce4bhih2rcd13ifvqfs0","pricing_plan_id":"cebpf4jnsgd1na2vs0mg"},{"bike_id":"a8b8dae1-87ef-4f8a-a2c8-fe9fd9bf0f77","system_id":"levelo_inurba_marseille","lat":43.23525,"lon":5.37746,"is_reserved":false,"is_disabled":false,"rental_uris":{"android":"levelo://app?vid=a8b8dae1-87ef-4f8a-a2c8-fe9fd9bf0f77","ios":"levelo://app?vid=a8b8dae1-87ef-4f8a-a2c8-fe9fd9bf0f77"},"vehicle_type_id":"4","last_reported":1742404150,"current_range_meters":11200,"station_id":"","pricing_plan_id":"cebpf4jnsgd1na2vs0mg"},{"bike_id":"a93ccb8b-3bbb-4863-8fd9-c409c10d541d","system_id":"levelo_inurba_marseille","lat":43.29726,"lon":5.37698,"is_reserved":false,"is_disabled":false,"rental_uris":{"android":"levelo://app?vid=a93ccb8b-3bbb-4863-8fd9-c409c10d541d","ios":"levelo://app?vid=a93ccb8b-3bbb-4863-8fd9-c409c10d541d"},"vehicle_type_id":"4","last_reported":1742404150,"current_range_meters":11200,"station_id":"ce4bgkh2rcd13ifvqbl0","pricing_plan_id":"cebpf4jnsgd1na2vs0mg"},{"bike_id":"01928943-0d1c-4794-9145-7101ae036f39","system_id":"levelo_inurba_marseille","lat":43.27053,"lon":5.40263,"is_reserved":false,"is_disabled":false,"rental_uris":{"android":"levelo://app?vid=01928943-0d1c-4794-9145-7101ae036f39","ios":"levelo://app?vid=01928943-0d1c-4794-9145-7101ae036f39"},"vehicle_type_id":"4","last_reported":1742404150,"current_range_meters":11200,"station_id":"ce4bhk92rcd13ifvqgc0","pricing_plan_id":"cebpf4jnsgd1na2vs0mg"},{"bike_id":"9cd6c24a-3717-40a7-8304-3757eb6bd942","system_id":"levelo_inurba_marseille","lat":43.31266,"lon":5.40167,"is_reserved":false,"is_disabled":false,"rental_uris":{"android":"levelo://app?vid=9cd6c24a-3717-40a7-8304-3757eb6bd942","ios":"levelo://app?vid=9cd6c24a-3717-40a7-8304-3757eb6bd942"},"vehicle_type_id":"4","last_reported":1742404150,"current_range_meters":11200,"station_id":"ce4bh092rcd13ifvqd30","pricing_plan_id":"cebpf4jnsgd1na2vs0mg"},{"bike_id":"c388158d-7fb8-46fb-9db5-58b9e615de66","system_id":"levelo_inurba_marseille","lat":43.29888,"lon":5.38907,"is_reserved":false,"is_disabled":false,"rental_uris":{"android":"levelo://app?vid=c388158d-7fb8-46fb-9db5-58b9e615de66","ios":"levelo://app?vid=c388158d-7fb8-46fb-9db5-58b9e615de66"},"vehicle_type_id":"4","last_reported":1742404150,"current_range_meters":11200,"station_id":"ce4bh392rcd13ifvqdl0","pricing_plan_id":"cebpf4jnsgd1na2vs0mg"},{"bike_id":"fc30f9f6-037a-4ba4-9711-585db4a7f319","system_id":"levelo_inurba_marseille","lat":43.29177,"lon":5.37154,"is_reserved":false,"is_disabled":false,"rental_uris":{"android":"levelo://app?vid=fc30f9f6-037a-4ba4-9711-585db4a7f319","ios":"levelo://app?vid=fc30f9f6-037a-4ba4-9711-585db4a7f319"},"vehicle_type_id":"4","last_reported":1742404150,"current_range_meters":11200,"station_id":"ce4bha92rcd13ifvqeh0","pricing_plan_id":"cebpf4jnsgd1na2vs0mg"},{"bike_id":"80a93d4e-2074-4f0d-a0ab-759580371ac6","system_id":"levelo_inurba_marseille","lat":43.27838,"lon":5.39201,"is_reserved":false,"is_disabled":false,"rental_uris":{"android":"levelo://app?vid=80a93d4e-2074-4f0d-a0ab-759580371ac6","ios":"levelo://app?vid=80a93d4e-2074-4f0d-a0ab-759580371ac6"},"vehicle_type_id":"4","last_reported":1742404150,"current_range_meters":11200,"station_id":"ce4bhjp2rcd13ifvqga0","pricing_plan_id":"cebpf4jnsgd1na2vs0mg"},{"bike_id":"ee0f687c-08bb-4e36-98a2-e3de6b954481","system_id":"levelo_inurba_marseille","lat":43.24181,"lon":5.39745,"is_reserved":false,"is_disabled":false,"rental_uris":{"android":"levelo://app?vid=ee0f687c-08bb-4e36-98a2-e3de6b954481","ios":"levelo://app?vid=ee0f687c-08bb-4e36-98a2-e3de6b954481"},"vehicle_type_id":"4","last_reported":1742404150,"current_range_meters":11200,"station_id":"ce4bhn12rcd13ifvqgpg","pricing_plan_id":"cebpf4jnsgd1na2vs0mg"},{"bike_id":"73bcf2fb-cc43-4b2f-92b4-dab358c64b09","system_id":"levelo_inurba_marseille","lat":43.2929,"lon":5.40121,"is_reserved":false,"is_disabled":false,"rental_uris":{"android":"levelo://app?vid=73bcf2fb-cc43-4b2f-92b4-dab358c64b09","ios":"levelo://app?vid=73bcf2fb-cc43-4b2f-92b4-dab358c64b09"},"vehicle_type_id":"4","last_reported":1742404150,"current_range_meters":10800,"station_id":"ce4bh312rcd13ifvqdk0","pricing_plan_id":"cebpf4jnsgd1na2vs0mg"},{"bike_id":"139da64d-71cc-4356-a526-bd67eb09713b","system_id":"levelo_inurba_marseille","lat":43.3043,"lon":5.39741,"is_reserved":false,"is_disabled":false,"rental_uris":{"android":"levelo://app?vid=139da64d-71cc-4356-a526-bd67eb09713b","ios":"levelo://app?vid=139da64d-71cc-4356-a526-bd67eb09713b"},"vehicle_type_id":"4","last_reported":1742404150,"current_range_meters":11200,"station_id":"ce4bh092rcd13ifvqd20","pricing_plan_id":"cebpf4jnsgd1na2vs0mg"},{"bike_id":"02f43b01-3b74-45fa-a40e-2df823c84cda","system_id":"levelo_inurba_marseille","lat":43.24193,"lon":5.39708,"is_reserved":false,"is_disabled":false,"rental_uris":{"android":"levelo://app?vid=02f43b01-3b74-45fa-a40e-2df823c84cda","ios":"levelo://app?vid=02f43b01-3b74-45fa-a40e-2df823c84cda"},"vehicle_type_id":"4","last_reported":1742404150,"current_range_meters":11200,"station_id":"ce4bhn12rcd13ifvqgpg","pricing_plan_id":"cebpf4jnsgd1na2vs0mg"},{"bike_id":"9d26c008-8ec1-4269-9cd2-f45774f03ccb","system_id":"levelo_inurba_marseille","lat":43.2795,"lon":5.37945,"is_reserved":false,"is_disabled":false,"rental_uris":{"android":"levelo://app?vid=9d26c008-8ec1-4269-9cd2-f45774f03ccb","ios":"levelo://app?vid=9d26c008-8ec1-4269-9cd2-f45774f03ccb"},"vehicle_type_id":"4","last_reported":1742404150,"current_range_meters":11200,"station_id":"","pricing_plan_id":"cebpf4jnsgd1na2vs0mg"},{"bike_id":"6b467574-69f1-40a2-a88f-6859ed54971d","system_id":"levelo_inurba_marseille","lat":43.33427,"lon":5.40067,"is_reserved":false,"is_disabled":false,"rental_uris":{"android":"levelo://app?vid=6b467574-69f1-40a2-a88f-6859ed54971d","ios":"levelo://app?vid=6b467574-69f1-40a2-a88f-6859ed54971d"},"vehicle_type_id":"4","last_reported":1742404150,"current_range_meters":11200,"station_id":"","pricing_plan_id":"cebpf4jnsgd1na2vs0mg"},{"bike_id":"3bbfa2b1-9e55-4858-baed-81eb0c554ec6","system_id":"levelo_inurba_marseille","lat":43.26561,"lon":5.37288,"is_reserved":false,"is_disabled":false,"rental_uris":{"android":"levelo://app?vid=3bbfa2b1-9e55-4858-baed-81eb0c554ec6","ios":"levelo://app?vid=3bbfa2b1-9e55-4858-baed-81eb0c554ec6"},"vehicle_type_id":"4","last_reported":1742404150,"current_range_meters":11600,"station_id":"ce4bhg12rcd13ifvqf70","pricing_plan_id":"cebpf4jnsgd1na2vs0mg"},{"bike_id":"38700e88-0eed-4189-a7cd-49878612c994","system_id":"levelo_inurba_marseille","lat":43.31553,"lon":5.38915,"is_reserved":false,"is_disabled":false,"rental_uris":{"android":"levelo://app?vid=38700e88-0eed-4189-a7cd-49878612c994","ios":"levelo://app?vid=38700e88-0eed-4189-a7cd-49878612c994"},"vehicle_type_id":"4","last_reported":1742404150,"current_range_meters":11600,"station_id":"","pricing_plan_id":"cebpf4jnsgd1na2vs0mg"},{"bike_id":"60e536d0-c8c7-48fe-86f8-a430f9d9ff96","system_id":"levelo_inurba_marseille","lat":43.29268,"lon":5.38432,"is_reserved":false,"is_disabled":false,"rental_uris":{"android":"levelo://app?vid=60e536d0-c8c7-48fe-86f8-a430f9d9ff96","ios":"levelo://app?vid=60e536d0-c8c7-48fe-86f8-a430f9d9ff96"},"vehicle_type_id":"4","last_reported":1742404150,"current_range_meters":11600,"station_id":"ce4bh692rcd13ifvqea0","pricing_plan_id":"cebpf4jnsgd1na2vs0mg"},{"bike_id":"01f1211d-3605-4232-9cf2-d792e6257903","system_id":"levelo_inurba_marseille","lat":43.31121,"lon":5.37759,"is_reserved":false,"is_disabled":false,"rental_uris":{"android":"levelo://app?vid=01f1211d-3605-4232-9cf2-d792e6257903","ios":"levelo://app?vid=01f1211d-3605-4232-9cf2-d792e6257903"},"vehicle_type_id":"4","last_reported":1742404150,"current_range_meters":12000,"station_id":"ce4bgt92rcd13ifvqcg0","pricing_plan_id":"cebpf4jnsgd1na2vs0mg"},{"bike_id":"fd65bcb6-2393-469f-af7b-9c0981040f8a","system_id":"levelo_inurba_marseille","lat":43.29196,"lon":5.35807,"is_reserved":false,"is_disabled":false,"rental_uris":{"android":"levelo://app?vid=fd65bcb6-2393-469f-af7b-9c0981040f8a","ios":"levelo://app?vid=fd65bcb6-2393-469f-af7b-9c0981040f8a"},"vehicle_type_id":"4","last_reported":1742404150,"current_range_meters":11600,"station_id":"ce4bhb12rcd13ifvqel0","pricing_plan_id":"cebpf4jnsgd1na2vs0mg"},{"bike_id":"25659cb7-740d-47ce-950e-76e16afe6cf5","system_id":"levelo_inurba_marseille","lat":43.294159,"lon":5.386345,"is_reserved":false,"is_disabled":false,"rental_uris":{"android":"levelo://app?vid=25659cb7-740d-47ce-950e-76e16afe6cf5","ios":"levelo://app?vid=25659cb7-740d-47ce-950e-76e16afe6cf5"},"vehicle_type_id":"4","last_reported":1742404150,"current_range_meters":12000,"station_id":"ce4bh3h2rcd13ifvqdo0","pricing_plan_id":"cebpf4jnsgd1na2vs0mg"},{"bike_id":"176d2e0b-da43-4b98-b92e-b45d4ab12b2f","system_id":"levelo_inurba_marseille","lat":43.30217,"lon":5.38433,"is_reserved":false,"is_disabled":false,"rental_uris":{"android":"levelo://app?vid=176d2e0b-da43-4b98-b92e-b45d4ab12b2f","ios":"levelo://app?vid=176d2e0b-da43-4b98-b92e-b45d4ab12b2f"},"vehicle_type_id":"4","last_reported":1742404150,"current_range_meters":12000,"station_id":"","pricing_plan_id":"cebpf4jnsgd1na2vs0mg"},{"bike_id":"615b073c-c105-46ea-b384-81a2b67d1b4c","system_id":"levelo_inurba_marseille","lat":43.32289,"lon":5.38265,"is_reserved":false,"is_disabled":false,"rental_uris":{"android":"levelo://app?vid=615b073c-c105-46ea-b384-81a2b67d1b4c","ios":"levelo://app?vid=615b073c-c105-46ea-b384-81a2b67d1b4c"},"vehicle_type_id":"4","last_reported":1742404150,"current_range_meters":12000,"station_id":"ce4bhr12rcd13ifvqhqg","pricing_plan_id":"cebpf4jnsgd1na2vs0mg"},{"bike_id":"0394f83d-3dc9-46b6-8ddc-5d29a1abf0d1","system_id":"levelo_inurba_marseille","lat":43.3019,"lon":5.3662,"is_reserved":false,"is_disabled":false,"rental_uris":{"android":"levelo://app?vid=0394f83d-3dc9-46b6-8ddc-5d29a1abf0d1","ios":"levelo://app?vid=0394f83d-3dc9-46b6-8ddc-5d29a1abf0d1"},"vehicle_type_id":"4","last_reported":1742404150,"current_range_meters":12400,"station_id":"ce4bgrh2rcd13ifvqc8g","pricing_plan_id":"cebpf4jnsgd1na2vs0mg"},{"bike_id":"671210b1-9e8f-4893-953f-985ab8b97e34","system_id":"levelo_inurba_marseille","lat":43.32126,"lon":5.36786,"is_reserved":false,"is_disabled":false,"rental_uris":{"android":"levelo://app?vid=671210b1-9e8f-4893-953f-985ab8b97e34","ios":"levelo://app?vid=671210b1-9e8f-4893-953f-985ab8b97e34"},"vehicle_type_id":"4","last_reported":1742404150,"current_range_meters":12400,"station_id":"ce4bhrh2rcd13ifvqhug","pricing_plan_id":"cebpf4jnsgd1na2vs0mg"},{"bike_id":"477b3b7f-28c2-49ea-8f4e-2b4d1861b94d","system_id":"levelo_inurba_marseille","lat":43.25585,"lon":5.38251,"is_reserved":false,"is_disabled":false,"rental_uris":{"android":"levelo://app?vid=477b3b7f-28c2-49ea-8f4e-2b4d1861b94d","ios":"levelo://app?vid=477b3b7f-28c2-49ea-8f4e-2b4d1861b94d"},"vehicle_type_id":"4","last_reported":1742404150,"current_range_meters":12400,"station_id":"ce4bhih2rcd13ifvqfs0","pricing_plan_id":"cebpf4jnsgd1na2vs0mg"},{"bike_id":"e4bde134-4172-48cf-9124-dfe26081bed3","system_id":"levelo_inurba_marseille","lat":43.30249,"lon":5.40046,"is_reserved":false,"is_disabled":false,"rental_uris":{"android":"levelo://app?vid=e4bde134-4172-48cf-9124-dfe26081bed3","ios":"levelo://app?vid=e4bde134-4172-48cf-9124-dfe26081bed3"},"vehicle_type_id":"4","last_reported":1742404150,"current_range_meters":12000,"station_id":"ce4bgvh2rcd13ifvqcs0","pricing_plan_id":"cebpf4jnsgd1na2vs0mg"},{"bike_id":"94ffa62a-c0a8-48b0-83e4-7237e17e0e07","system_id":"levelo_inurba_marseille","lat":43.2795,"lon":5.41043,"is_reserved":false,"is_disabled":false,"rental_uris":{"android":"levelo://app?vid=94ffa62a-c0a8-48b0-83e4-7237e17e0e07","ios":"levelo://app?vid=94ffa62a-c0a8-48b0-83e4-7237e17e0e07"},"vehicle_type_id":"4","last_reported":1742404150,"current_range_meters":12400,"station_id":"ce4bhnp2rcd13ifvqh0g","pricing_plan_id":"cebpf4jnsgd1na2vs0mg"},{"bike_id":"7c23dcb0-31a4-457d-8cd5-05a913c017d4","system_id":"levelo_inurba_marseille","lat":43.33044,"lon":5.39032,"is_reserved":false,"is_disabled":false,"rental_uris":{"android":"levelo://app?vid=7c23dcb0-31a4-457d-8cd5-05a913c017d4","ios":"levelo://app?vid=7c23dcb0-31a4-457d-8cd5-05a913c017d4"},"vehicle_type_id":"4","last_reported":1742404150,"current_range_meters":12400,"station_id":"ce4bhr92rcd13ifvqhrg","pricing_plan_id":"cebpf4jnsgd1na2vs0mg"},{"bike_id":"5e444cf2-3066-4fa6-9dff-ea86574e4e76","system_id":"levelo_inurba_marseille","lat":43.29875,"lon":5.3973,"is_reserved":false,"is_disabled":false,"rental_uris":{"android":"levelo://app?vid=5e444cf2-3066-4fa6-9dff-ea86574e4e76","ios":"levelo://app?vid=5e444cf2-3066-4fa6-9dff-ea86574e4e76"},"vehicle_type_id":"4","last_reported":1742404150,"current_range_meters":12000,"station_id":"ce4bh0h2rcd13ifvqd50","pricing_plan_id":"cebpf4jnsgd1na2vs0mg"},{"bike_id":"96df89bc-1b6a-4bcb-99cd-6ce8f0a45c84","system_id":"levelo_inurba_marseille","lat":43.28466,"lon":5.35892,"is_reserved":false,"is_disabled":false,"rental_uris":{"android":"levelo://app?vid=96df89bc-1b6a-4bcb-99cd-6ce8f0a45c84","ios":"levelo://app?vid=96df89bc-1b6a-4bcb-99cd-6ce8f0a45c84"},"vehicle_type_id":"4","last_reported":1742404150,"current_range_meters":12800,"station_id":"ce4bhah2rcd13ifvqei0","pricing_plan_id":"cebpf4jnsgd1na2vs0mg"},{"bike_id":"9a407e55-d314-42fc-8c32-c5b5dcba6239","system_id":"levelo_inurba_marseille","lat":43.26228,"lon":5.40474,"is_reserved":false,"is_disabled":false,"rental_uris":{"android":"levelo://app?vid=9a407e55-d314-42fc-8c32-c5b5dcba6239","ios":"levelo://app?vid=9a407e55-d314-42fc-8c32-c5b5dcba6239"},"vehicle_type_id":"4","last_reported":1742404150,"current_range_meters":12800,"station_id":"ce4bhmh2rcd13ifvqgmg","pricing_plan_id":"cebpf4jnsgd1na2vs0mg"},{"bike_id":"50052a34-cd4d-455e-89a2-d030d8c6c1ad","system_id":"levelo_inurba_marseille","lat":43.24133,"lon":5.38917,"is_reserved":false,"is_disabled":false,"rental_uris":{"android":"levelo://app?vid=50052a34-cd4d-455e-89a2-d030d8c6c1ad","ios":"levelo://app?vid=50052a34-cd4d-455e-89a2-d030d8c6c1ad"},"vehicle_type_id":"4","last_reported":1742404150,"current_range_meters":12800,"station_id":"","pricing_plan_id":"cebpf4jnsgd1na2vs0mg"},{"bike_id":"429bb950-cb9b-4250-bc78-7311a2d7eceb","system_id":"levelo_inurba_marseille","lat":43.25119,"lon":5.40313,"is_reserved":false,"is_disabled":false,"rental_uris":{"android":"levelo://app?vid=429bb950-cb9b-4250-bc78-7311a2d7eceb","ios":"levelo://app?vid=429bb950-cb9b-4250-bc78-7311a2d7eceb"},"vehicle_type_id":"4","last_reported":1742404150,"current_range_meters":12400,"station_id":"ce4bhlh2rcd13ifvqgig","pricing_plan_id":"cebpf4jnsgd1na2vs0mg"},{"bike_id":"934ec32b-b6dd-4d66-bd2c-48956c0ab1fb","system_id":"levelo_inurba_marseille","lat":43.28069,"lon":5.39642,"is_reserved":false,"is_disabled":false,"rental_uris":{"android":"levelo://app?vid=934ec32b-b6dd-4d66-bd2c-48956c0ab1fb","ios":"levelo://app?vid=934ec32b-b6dd-4d66-bd2c-48956c0ab1fb"},"vehicle_type_id":"4","last_reported":1742404150,"current_range_meters":12800,"station_id":"ce4bho12rcd13ifvqh2g","pricing_plan_id":"cebpf4jnsgd1na2vs0mg"},{"bike_id":"50318b6f-fcdb-4c72-bb4f-3869ef37bf49","system_id":"levelo_inurba_marseille","lat":43.29608,"lon":5.37712,"is_reserved":false,"is_disabled":false,"rental_uris":{"android":"levelo://app?vid=50318b6f-fcdb-4c72-bb4f-3869ef37bf49","ios":"levelo://app?vid=50318b6f-fcdb-4c72-bb4f-3869ef37bf49"},"vehicle_type_id":"4","last_reported":1742404150,"current_range_meters":12800,"station_id":"ce4bgi92rcd13ifvqb90","pricing_plan_id":"cebpf4jnsgd1na2vs0mg"},{"bike_id":"9abe8b8a-3f29-4552-9afb-83fb226b35c6","system_id":"levelo_inurba_marseille","lat":43.292268,"lon":5.40125,"is_reserved":false,"is_disabled":false,"rental_uris":{"android":"levelo://app?vid=9abe8b8a-3f29-4552-9afb-83fb226b35c6","ios":"levelo://app?vid=9abe8b8a-3f29-4552-9afb-83fb226b35c6"},"vehicle_type_id":"4","last_reported":1742404150,"current_range_meters":12800,"station_id":"ce4bh312rcd13ifvqdj0","pricing_plan_id":"cebpf4jnsgd1na2vs0mg"},{"bike_id":"3d6e5bb2-49a5-4ae9-ac7c-7c3250491a49","system_id":"levelo_inurba_marseille","lat":43.28917,"lon":5.35962,"is_reserved":false,"is_disabled":false,"rental_uris":{"android":"levelo://app?vid=3d6e5bb2-49a5-4ae9-ac7c-7c3250491a49","ios":"levelo://app?vid=3d6e5bb2-49a5-4ae9-ac7c-7c3250491a49"},"vehicle_type_id":"4","last_reported":1742404150,"current_range_meters":12800,"station_id":"","pricing_plan_id":"cebpf4jnsgd1na2vs0mg"},{"bike_id":"0af285be-0294-4c23-9728-cedd0c1ca6b2","system_id":"levelo_inurba_marseille","lat":43.232,"lon":5.4003,"is_reserved":false,"is_disabled":false,"rental_uris":{"android":"levelo://app?vid=0af285be-0294-4c23-9728-cedd0c1ca6b2","ios":"levelo://app?vid=0af285be-0294-4c23-9728-cedd0c1ca6b2"},"vehicle_type_id":"4","last_reported":1742404150,"current_range_meters":12800,"station_id":"ce4bhn12rcd13ifvqgqg","pricing_plan_id":"cebpf4jnsgd1na2vs0mg"},{"bike_id":"471b8c1a-1a85-4080-b533-fb41f3dbfd81","system_id":"levelo_inurba_marseille","lat":43.23191,"lon":5.35567,"is_reserved":false,"is_disabled":false,"rental_uris":{"android":"levelo://app?vid=471b8c1a-1a85-4080-b533-fb41f3dbfd81","ios":"levelo://app?vid=471b8c1a-1a85-4080-b533-fb41f3dbfd81"},"vehicle_type_id":"4","last_reported":1742404150,"current_range_meters":12800,"station_id":"ce4bhu92rcd13ifvqi70","pricing_plan_id":"cebpf4jnsgd1na2vs0mg"},{"bike_id":"2841284f-de3f-4cd5-a5a2-d8c36e4314ed","system_id":"levelo_inurba_marseille","lat":43.28933,"lon":5.36634,"is_reserved":false,"is_disabled":false,"rental_uris":{"android":"levelo://app?vid=2841284f-de3f-4cd5-a5a2-d8c36e4314ed","ios":"levelo://app?vid=2841284f-de3f-4cd5-a5a2-d8c36e4314ed"},"vehicle_type_id":"4","last_reported":1742404150,"current_range_meters":12800,"station_id":"ce4bhap2rcd13ifvqek0","pricing_plan_id":"cebpf4jnsgd1na2vs0mg"},{"bike_id":"140e5d7f-c3a3-477e-8c17-b04aeec512ba","system_id":"levelo_inurba_marseille","lat":43.29417,"lon":5.38624,"is_reserved":false,"is_disabled":false,"rental_uris":{"android":"levelo://app?vid=140e5d7f-c3a3-477e-8c17-b04aeec512ba","ios":"levelo://app?vid=140e5d7f-c3a3-477e-8c17-b04aeec512ba"},"vehicle_type_id":"4","last_reported":1742404150,"current_range_meters":12800,"station_id":"ce4bh2h2rcd13ifvqdh0","pricing_plan_id":"cebpf4jnsgd1na2vs0mg"},{"bike_id":"815d7014-c6fe-4564-82ce-d8b51f90d2f6","system_id":"levelo_inurba_marseille","lat":43.3373,"lon":5.39191,"is_reserved":false,"is_disabled":false,"rental_uris":{"android":"levelo://app?vid=815d7014-c6fe-4564-82ce-d8b51f90d2f6","ios":"levelo://app?vid=815d7014-c6fe-4564-82ce-d8b51f90d2f6"},"vehicle_type_id":"4","last_reported":1742404150,"current_range_meters":12800,"station_id":"ce4bhr92rcd13ifvqhsg","pricing_plan_id":"cebpf4jnsgd1na2vs0mg"},{"bike_id":"cf05a194-6fba-4fdf-b62f-8195f1a28222","system_id":"levelo_inurba_marseille","lat":43.25588,"lon":5.38247,"is_reserved":false,"is_disabled":false,"rental_uris":{"android":"levelo://app?vid=cf05a194-6fba-4fdf-b62f-8195f1a28222","ios":"levelo://app?vid=cf05a194-6fba-4fdf-b62f-8195f1a28222"},"vehicle_type_id":"4","last_reported":1742404150,"current_range_meters":12800,"station_id":"ce4bhih2rcd13ifvqfs0","pricing_plan_id":"cebpf4jnsgd1na2vs0mg"},{"bike_id":"c405ab68-223f-47db-99ed-c18c10d1f19e","system_id":"levelo_inurba_marseille","lat":43.28616,"lon":5.35107,"is_reserved":false,"is_disabled":false,"rental_uris":{"android":"levelo://app?vid=c405ab68-223f-47db-99ed-c18c10d1f19e","ios":"levelo://app?vid=c405ab68-223f-47db-99ed-c18c10d1f19e"},"vehicle_type_id":"4","last_reported":1742404150,"current_range_meters":12800,"station_id":"ce4bhch2rcd13ifvqeug","pricing_plan_id":"cebpf4jnsgd1na2vs0mg"},{"bike_id":"e9f5fb7d-bee6-4edd-8aad-89c7f4a4787b","system_id":"levelo_inurba_marseille","lat":43.29488,"lon":5.39024,"is_reserved":false,"is_disabled":false,"rental_uris":{"android":"levelo://app?vid=e9f5fb7d-bee6-4edd-8aad-89c7f4a4787b","ios":"levelo://app?vid=e9f5fb7d-bee6-4edd-8aad-89c7f4a4787b"},"vehicle_type_id":"4","last_reported":1742404150,"current_range_meters":13600,"station_id":"ce4bh3p2rcd13ifvqdp0","pricing_plan_id":"cebpf4jnsgd1na2vs0mg"},{"bike_id":"6c7e51d2-e2f9-4032-b4ac-95afc513e72e","system_id":"levelo_inurba_marseille","lat":43.27439,"lon":5.363,"is_reserved":false,"is_disabled":false,"rental_uris":{"android":"levelo://app?vid=6c7e51d2-e2f9-4032-b4ac-95afc513e72e","ios":"levelo://app?vid=6c7e51d2-e2f9-4032-b4ac-95afc513e72e"},"vehicle_type_id":"4","last_reported":1742404150,"current_range_meters":13600,"station_id":"","pricing_plan_id":"cebpf4jnsgd1na2vs0mg"},{"bike_id":"333aabb0-685b-4295-a71b-4adc1c008628","system_id":"levelo_inurba_marseille","lat":43.31487,"lon":5.37307,"is_reserved":false,"is_disabled":false,"rental_uris":{"android":"levelo://app?vid=333aabb0-685b-4295-a71b-4adc1c008628","ios":"levelo://app?vid=333aabb0-685b-4295-a71b-4adc1c008628"},"vehicle_type_id":"4","last_reported":1742404150,"current_range_meters":13600,"station_id":"ce4bgt12rcd13ifvqcd0","pricing_plan_id":"cebpf4jnsgd1na2vs0mg"},{"bike_id":"017dbb2f-7efc-4e62-ac50-99dd902efb38","system_id":"levelo_inurba_marseille","lat":43.2893,"lon":5.36636,"is_reserved":false,"is_disabled":false,"rental_uris":{"android":"levelo://app?vid=017dbb2f-7efc-4e62-ac50-99dd902efb38","ios":"levelo://app?vid=017dbb2f-7efc-4e62-ac50-99dd902efb38"},"vehicle_type_id":"4","last_reported":1742404150,"current_range_meters":13600,"station_id":"ce4bhap2rcd13ifvqek0","pricing_plan_id":"cebpf4jnsgd1na2vs0mg"},{"bike_id":"52802b63-8223-4569-bd44-fa9b675f74c2","system_id":"levelo_inurba_marseille","lat":43.29046,"lon":5.35907,"is_reserved":false,"is_disabled":false,"rental_uris":{"android":"levelo://app?vid=52802b63-8223-4569-bd44-fa9b675f74c2","ios":"levelo://app?vid=52802b63-8223-4569-bd44-fa9b675f74c2"},"vehicle_type_id":"4","last_reported":1742404150,"current_range_meters":13600,"station_id":"ce4bha92rcd13ifvqeg0","pricing_plan_id":"cebpf4jnsgd1na2vs0mg"},{"bike_id":"7b29e999-0840-4ae6-9af9-fd9a2269b234","system_id":"levelo_inurba_marseille","lat":43.31325,"lon":5.397,"is_reserved":false,"is_disabled":false,"rental_uris":{"android":"levelo://app?vid=7b29e999-0840-4ae6-9af9-fd9a2269b234","ios":"levelo://app?vid=7b29e999-0840-4ae6-9af9-fd9a2269b234"},"vehicle_type_id":"4","last_reported":1742404150,"current_range_meters":13600,"station_id":"ce4bgvp2rcd13ifvqcu0","pricing_plan_id":"cebpf4jnsgd1na2vs0mg"},{"bike_id":"d7645557-54c5-44ed-8c44-41e433a350da","system_id":"levelo_inurba_marseille","lat":43.29481,"lon":5.35566,"is_reserved":false,"is_disabled":false,"rental_uris":{"android":"levelo://app?vid=d7645557-54c5-44ed-8c44-41e433a350da","ios":"levelo://app?vid=d7645557-54c5-44ed-8c44-41e433a350da"},"vehicle_type_id":"4","last_reported":1742404150,"current_range_meters":13600,"station_id":"","pricing_plan_id":"cebpf4jnsgd1na2vs0mg"},{"bike_id":"9e319fa3-48a3-41cf-8ec9-fd13de0b6481","system_id":"levelo_inurba_marseille","lat":43.27944,"lon":5.41044,"is_reserved":false,"is_disabled":false,"rental_uris":{"android":"levelo://app?vid=9e319fa3-48a3-41cf-8ec9-fd13de0b6481","ios":"levelo://app?vid=9e319fa3-48a3-41cf-8ec9-fd13de0b6481"},"vehicle_type_id":"4","last_reported":1742404150,"current_range_meters":14000,"station_id":"ce4bhnp2rcd13ifvqh0g","pricing_plan_id":"cebpf4jnsgd1na2vs0mg"},{"bike_id":"cb6062cd-3cfa-4917-b79b-5707b99e3c03","system_id":"levelo_inurba_marseille","lat":43.321185,"lon":5.367534,"is_reserved":false,"is_disabled":false,"rental_uris":{"android":"levelo://app?vid=cb6062cd-3cfa-4917-b79b-5707b99e3c03","ios":"levelo://app?vid=cb6062cd-3cfa-4917-b79b-5707b99e3c03"},"vehicle_type_id":"4","last_reported":1742404150,"current_range_meters":14000,"station_id":"ce4bho92rcd13ifvqh3g","pricing_plan_id":"cebpf4jnsgd1na2vs0mg"},{"bike_id":"08f5fdec-a33c-49db-864f-89f0718e881a","system_id":"levelo_inurba_marseille","lat":43.31281,"lon":5.40161,"is_reserved":false,"is_disabled":false,"rental_uris":{"android":"levelo://app?vid=08f5fdec-a33c-49db-864f-89f0718e881a","ios":"levelo://app?vid=08f5fdec-a33c-49db-864f-89f0718e881a"},"vehicle_type_id":"4","last_reported":1742404150,"current_range_meters":14000,"station_id":"ce4bh092rcd13ifvqd30","pricing_plan_id":"cebpf4jnsgd1na2vs0mg"},{"bike_id":"884f3629-ae1f-4f3f-8af8-9bf2e5a3bf27","system_id":"levelo_inurba_marseille","lat":43.29568,"lon":5.39971,"is_reserved":false,"is_disabled":false,"rental_uris":{"android":"levelo://app?vid=884f3629-ae1f-4f3f-8af8-9bf2e5a3bf27","ios":"levelo://app?vid=884f3629-ae1f-4f3f-8af8-9bf2e5a3bf27"},"vehicle_type_id":"4","last_reported":1742404150,"current_range_meters":14000,"station_id":"ce4bh312rcd13ifvqdj0","pricing_plan_id":"cebpf4jnsgd1na2vs0mg"},{"bike_id":"97dd13d0-3243-4e9a-860a-4ba843374c39","system_id":"levelo_inurba_marseille","lat":43.2987,"lon":5.39744,"is_reserved":false,"is_disabled":false,"rental_uris":{"android":"levelo://app?vid=97dd13d0-3243-4e9a-860a-4ba843374c39","ios":"levelo://app?vid=97dd13d0-3243-4e9a-860a-4ba843374c39"},"vehicle_type_id":"4","last_reported":1742404150,"current_range_meters":14000,"station_id":"ce4bh0h2rcd13ifvqd50","pricing_plan_id":"cebpf4jnsgd1na2vs0mg"},{"bike_id":"4edbd50e-0c89-4426-845e-3ee502be9b01","system_id":"levelo_inurba_marseille","lat":43.29539,"lon":5.39394,"is_reserved":false,"is_disabled":false,"rental_uris":{"android":"levelo://app?vid=4edbd50e-0c89-4426-845e-3ee502be9b01","ios":"levelo://app?vid=4edbd50e-0c89-4426-845e-3ee502be9b01"},"vehicle_type_id":"4","last_reported":1742404150,"current_range_meters":14000,"station_id":"ce4bh292rcd13ifvqdf0","pricing_plan_id":"cebpf4jnsgd1na2vs0mg"},{"bike_id":"7eedf9e4-2844-4eb7-a904-fb1293c5269d","system_id":"levelo_inurba_marseille","lat":43.29527,"lon":5.39402,"is_reserved":false,"is_disabled":false,"rental_uris":{"android":"levelo://app?vid=7eedf9e4-2844-4eb7-a904-fb1293c5269d","ios":"levelo://app?vid=7eedf9e4-2844-4eb7-a904-fb1293c5269d"},"vehicle_type_id":"4","last_reported":1742404150,"current_range_meters":14000,"station_id":"ce4bh292rcd13ifvqdf0","pricing_plan_id":"cebpf4jnsgd1na2vs0mg"},{"bike_id":"9d412045-b70d-44e7-b664-b0ee25c204ff","system_id":"levelo_inurba_marseille","lat":43.32305,"lon":5.38276,"is_reserved":false,"is_disabled":false,"rental_uris":{"android":"levelo://app?vid=9d412045-b70d-44e7-b664-b0ee25c204ff","ios":"levelo://app?vid=9d412045-b70d-44e7-b664-b0ee25c204ff"},"vehicle_type_id":"4","last_reported":1742404150,"current_range_meters":14000,"station_id":"ce4bhr12rcd13ifvqhqg","pricing_plan_id":"cebpf4jnsgd1na2vs0mg"},{"bike_id":"67470a30-edc9-4f2a-b40a-aa82cf1d3885","system_id":"levelo_inurba_marseille","lat":43.27994,"lon":5.41666,"is_reserved":false,"is_disabled":false,"rental_uris":{"android":"levelo://app?vid=67470a30-edc9-4f2a-b40a-aa82cf1d3885","ios":"levelo://app?vid=67470a30-edc9-4f2a-b40a-aa82cf1d3885"},"vehicle_type_id":"4","last_reported":1742404150,"current_range_meters":14400,"station_id":"ce4bho12rcd13ifvqh1g","pricing_plan_id":"cebpf4jnsgd1na2vs0mg"},{"bike_id":"03884f18-ee42-4472-9e46-077b1c697977","system_id":"levelo_inurba_marseille","lat":43.2512,"lon":5.40352,"is_reserved":false,"is_disabled":false,"rental_uris":{"android":"levelo://app?vid=03884f18-ee42-4472-9e46-077b1c697977","ios":"levelo://app?vid=03884f18-ee42-4472-9e46-077b1c697977"},"vehicle_type_id":"4","last_reported":1742404150,"current_range_meters":14400,"station_id":"ce4bhlh2rcd13ifvqgig","pricing_plan_id":"cebpf4jnsgd1na2vs0mg"},{"bike_id":"6daf25a8-dd22-40a7-9772-3d05bf6670ed","system_id":"levelo_inurba_marseille","lat":43.29965,"lon":5.385,"is_reserved":false,"is_disabled":false,"rental_uris":{"android":"levelo://app?vid=6daf25a8-dd22-40a7-9772-3d05bf6670ed","ios":"levelo://app?vid=6daf25a8-dd22-40a7-9772-3d05bf6670ed"},"vehicle_type_id":"4","last_reported":1742404150,"current_range_meters":14800,"station_id":"ce4bgj92rcd13ifvqbd0","pricing_plan_id":"cebpf4jnsgd1na2vs0mg"},{"bike_id":"934b3ccb-20f1-465a-bf51-12367cac895e","system_id":"levelo_inurba_marseille","lat":43.24662,"lon":5.38162,"is_reserved":false,"is_disabled":false,"rental_uris":{"android":"levelo://app?vid=934b3ccb-20f1-465a-bf51-12367cac895e","ios":"levelo://app?vid=934b3ccb-20f1-465a-bf51-12367cac895e"},"vehicle_type_id":"4","last_reported":1742404150,"current_range_meters":14800,"station_id":"ce4bhih2rcd13ifvqfr0","pricing_plan_id":"cebpf4jnsgd1na2vs0mg"},{"bike_id":"30ee4130-41a4-4c86-9be5-e913e3ebc51f","system_id":"levelo_inurba_marseille","lat":43.28942,"lon":5.36637,"is_reserved":false,"is_disabled":false,"rental_uris":{"android":"levelo://app?vid=30ee4130-41a4-4c86-9be5-e913e3ebc51f","ios":"levelo://app?vid=30ee4130-41a4-4c86-9be5-e913e3ebc51f"},"vehicle_type_id":"4","last_reported":1742404150,"current_range_meters":14800,"station_id":"ce4bhap2rcd13ifvqek0","pricing_plan_id":"cebpf4jnsgd1na2vs0mg"},{"bike_id":"9bdaafaf-f946-422d-ae92-593129bbbc5b","system_id":"levelo_inurba_marseille","lat":43.30444,"lon":5.38897,"is_reserved":false,"is_disabled":false,"rental_uris":{"android":"levelo://app?vid=9bdaafaf-f946-422d-ae92-593129bbbc5b","ios":"levelo://app?vid=9bdaafaf-f946-422d-ae92-593129bbbc5b"},"vehicle_type_id":"4","last_reported":1742404150,"current_range_meters":14800,"station_id":"ce4bgk12rcd13ifvqbi0","pricing_plan_id":"cebpf4jnsgd1na2vs0mg"},{"bike_id":"6b96fb55-a0d2-4fb9-8ab6-e629cc24a115","system_id":"levelo_inurba_marseille","lat":43.299768,"lon":5.398209,"is_reserved":false,"is_disabled":false,"rental_uris":{"android":"levelo://app?vid=6b96fb55-a0d2-4fb9-8ab6-e629cc24a115","ios":"levelo://app?vid=6b96fb55-a0d2-4fb9-8ab6-e629cc24a115"},"vehicle_type_id":"4","last_reported":1742404150,"current_range_meters":14800,"station_id":"ce4bh0h2rcd13ifvqd50","pricing_plan_id":"cebpf4jnsgd1na2vs0mg"},{"bike_id":"d413d1e0-a490-49ff-bd97-7218ce5fa910","system_id":"levelo_inurba_marseille","lat":43.30212,"lon":5.39914,"is_reserved":false,"is_disabled":false,"rental_uris":{"android":"levelo://app?vid=d413d1e0-a490-49ff-bd97-7218ce5fa910","ios":"levelo://app?vid=d413d1e0-a490-49ff-bd97-7218ce5fa910"},"vehicle_type_id":"4","last_reported":1742404150,"current_range_meters":14800,"station_id":"ce4bh0h2rcd13ifvqd40","pricing_plan_id":"cebpf4jnsgd1na2vs0mg"},{"bike_id":"c7210af5-67f3-4e72-8bc5-994f8ca2f7f8","system_id":"levelo_inurba_marseille","lat":43.29417,"lon":5.38625,"is_reserved":false,"is_disabled":false,"rental_uris":{"android":"levelo://app?vid=c7210af5-67f3-4e72-8bc5-994f8ca2f7f8","ios":"levelo://app?vid=c7210af5-67f3-4e72-8bc5-994f8ca2f7f8"},"vehicle_type_id":"4","last_reported":1742404150,"current_range_meters":14800,"station_id":"ce4bh2h2rcd13ifvqdh0","pricing_plan_id":"cebpf4jnsgd1na2vs0mg"},{"bike_id":"c8aafbc9-77d7-4d42-9c32-5864e9ae590f","system_id":"levelo_inurba_marseille","lat":43.26935,"lon":5.38919,"is_reserved":false,"is_disabled":false,"rental_uris":{"android":"levelo://app?vid=c8aafbc9-77d7-4d42-9c32-5864e9ae590f","ios":"levelo://app?vid=c8aafbc9-77d7-4d42-9c32-5864e9ae590f"},"vehicle_type_id":"4","last_reported":1742404150,"current_range_meters":15200,"station_id":"ce4bhhh2rcd13ifvqfl0","pricing_plan_id":"cebpf4jnsgd1na2vs0mg"},{"bike_id":"8f59a3b1-4a45-40cb-be2e-247d019669f4","system_id":"levelo_inurba_marseille","lat":43.2943,"lon":5.39754,"is_reserved":false,"is_disabled":false,"rental_uris":{"android":"levelo://app?vid=8f59a3b1-4a45-40cb-be2e-247d019669f4","ios":"levelo://app?vid=8f59a3b1-4a45-40cb-be2e-247d019669f4"},"vehicle_type_id":"4","last_reported":1742404150,"current_range_meters":15200,"station_id":"ce4bh3h2rcd13ifvqdo0","pricing_plan_id":"cebpf4jnsgd1na2vs0mg"},{"bike_id":"7b5b1f9a-f98b-4c7a-812b-6448549e867b","system_id":"levelo_inurba_marseille","lat":43.29301,"lon":5.37462,"is_reserved":false,"is_disabled":false,"rental_uris":{"android":"levelo://app?vid=7b5b1f9a-f98b-4c7a-812b-6448549e867b","ios":"levelo://app?vid=7b5b1f9a-f98b-4c7a-812b-6448549e867b"},"vehicle_type_id":"4","last_reported":1742404150,"current_range_meters":15200,"station_id":"ce4bgi12rcd13ifvqb70","pricing_plan_id":"cebpf4jnsgd1na2vs0mg"},