{"last_updated":1747206646,"ttl":60,"version":"2.2","data":{"bikes":[{"bike_id":"c0b9fd4f-e181-46ce-b0bf-f5119973334f","system_id":"levelo_inurba_marseille","lat":43.33771,"lon":5.37424,"is_reserved":false,"is_disabled":false,"rental_uris":{"android":"levelo://app?vid=c0b9fd4f-e181-46ce-b0bf-f5119973334f","ios":"levelo://app?vid=c0b9fd4f-e181-46ce-b0bf-f5119973334f"},"vehicle_type_id":"4","last_reported":1747206647,"current_range_meters":20000,"station_id":"","pricing_plan_id":"cebpf4jnsgd1na2vs0mg"},{"bike_id":"07f266ab-abd1-4687-81d8-7ca73d126827","system_id":"levelo_inurba_marseille","lat":43.26471,"lon":5.38346,"is_reserved":false,"is_disabled":true,"rental_uris":{"android":"levelo://app?vid=07f266ab-abd1-4687-81d8-7ca73d126827","ios":"levelo://app?vid=07f266ab-abd1-4687-81d8-7ca73d126827"},"vehicle_type_id":"4","last_reported":1747206647,"current_range_meters":0,"station_id":"","pricing_plan_id":"cebpf4jnsgd1na2vs0mg"},{"bike_id":"fc2577e7-1497-425b-9d4f-ab8d7dc843c6","system_id":"levelo_inurba_marseille","lat":43.33771,"lon":5.37485,"is_reserved":false,"is_disabled":true,"rental_uris":{"android":"levelo://app?vid=fc2577e7-1497-425b-9d4f-ab8d7dc843c6","ios":"levelo://app?vid=fc2577e7-1497-425b-9d4f-ab8d7dc843c6"},"vehicle_type_id":"4","last_reported":1747206647,"current_range_meters":0,"station_id":"","pricing_plan_id":"cebpf4jnsgd1na2vs0mg"},{"bike_id":"bce6dd6c-5f15-4ae5-8f21-e71db397b253","system_id":"levelo_inurba_marseille","lat":43.305465,"lon":5.365433,"is_reserved":false,"is_disabled":true,"rental_uris":{"android":"levelo://app?vid=bce6dd6c-5f15-4ae5-8f21-e71db397b253","ios":"levelo://app?vid=bce6dd6c-5f15-4ae5-8f21-e71db397b253"},"vehicle_type_id":"4","last_reported":1747206647,"current_range_meters":0,"station_id":"","pricing_plan_id":"cebpf4jnsgd1na2vs0mg"},{"bike_id":"90c44a2d-f579-4c42-9fbe-770127c4b9ba","system_id":"levelo_inurba_marseille","lat":43.25355,"lon":5.37613,"is_reserved":false,"is_disabled":true,"rental_uris":{"android":"levelo://app?vid=90c44a2d-f579-4c42-9fbe-770127c4b9ba","ios":"levelo://app?vid=90c44a2d-f579-4c42-9fbe-770127c4b9ba"},"vehicle_type_id":"4","last_reported":1747206647,"current_range_meters":0,"station_id":"","pricing_plan_id":"cebpf4jnsgd1na2vs0mg"},{"bike_id":"0fedde00-40eb-40d2-8fc2-e61ecce46b7b","system_id":"levelo_inurba_marseille","lat":43.282889,"lon":5.432534,"is_reserved":false,"is_disabled":true,"rental_uris":{"android":"levelo://app?vid=0fedde00-40eb-40d2-8fc2-e61ecce46b7b","ios":"levelo://app?vid=0fedde00-40eb-40d2-8fc2-e61ecce46b7b"},"vehicle_type_id":"4","last_reported":1747206647,"current_range_meters":0,"station_id":"","pricing_plan_id":"cebpf4jnsgd1na2vs0mg"},{"bike_id":"727c4684-f63f-4c08-83b6-b043d1b81a1c","system_id":"levelo_inurba_marseille","lat":43.300048,"lon":5.475807,"is_reserved":false,"is_disabled":true,"rental_uris":{"android":"levelo://app?vid=727c4684-f63f-4c08-83b6-b043d1b81a1c","ios":"levelo://app?vid=727c4684-f63f-4c08-83b6-b043d1b81a1c"},"vehicle_type_id":"4","last_reported":1747206647,"current_range_meters":0,"station_id":"","pricing_plan_id":"cebpf4jnsgd1na2vs0mg"},{"bike_id":"d19ebaab-ef98-4efa-b952-7192b9b2f014","system_id":"levelo_inurba_marseille","lat":43.261491,"lon":5.392114,"is_reserved":false,"is_disabled":true,"rental_uris":{"android":"levelo://app?vid=d19ebaab-ef98-4efa-b952-7192b9b2f014","ios":"levelo://app?vid=d19ebaab-ef98-4efa-b952-7192b9b2f014"},"vehicle_type_id":"4","last_reported":1747206647,"current_range_meters":0,"station_id":"","pricing_plan_id":"cebpf4jnsgd1na2vs0mg"},{"bike_id":"8ba8222b-0151-4df0-9ee0-aa112762a939","system_id":"levelo_inurba_marseille","lat":43.247537,"lon":5.406538,"is_reserved":false,"is_disabled":true,"rental_uris":{"android":"levelo://app?vid=8ba8222b-0151-4df0-9ee0-aa112762a939","ios":"levelo://app?vid=8ba8222b-0151-4df0-9ee0-aa112762a939"},"vehicle_type_id":"4","last_reported":1747206647,"current_range_meters":0,"station_id":"","pricing_plan_id":"cebpf4jnsgd1na2vs0mg"},{"bike_id":"792567c6-0442-4011-aff0-9c05e25deb48","system_id":"levelo_inurba_marseille","lat":43.28071,"lon":5.44168,"is_reserved":false,"is_disabled":true,"rental_uris":{"android":"levelo://app?vid=792567c6-0442-4011-aff0-9c05e25deb48","ios":"levelo://app?vid=792567c6-0442-4011-aff0-9c05e25deb48"},"vehicle_type_id":"4","last_reported":1747206647,"current_range_meters":0,"station_id":"","pricing_plan_id":"cebpf4jnsgd1na2vs0mg"},{"bike_id":"326433f3-0a93-45f7-9a9f-41fbc422298c","system_id":"levelo_inurba_marseille","lat":43.30525,"lon":5.36512,"is_reserved":false,"is_disabled":true,"rental_uris":{"android":"levelo://app?vid=326433f3-0a93-45f7-9a9f-41fbc422298c","ios":"levelo://app?vid=326433f3-0a93-45f7-9a9f-41fbc422298c"},"vehicle_type_id":"4","last_reported":1747206647,"current_range_meters":0,"station_id":"","pricing_plan_id":"cebpf4jnsgd1na2vs0mg"},{"bike_id":"281a54cf-32d6-4996-aafc-de8e61395037","system_id":"levelo_inurba_marseille","lat":43.295679,"lon":5.363024,"is_reserved":false,"is_disabled":true,"rental_uris":{"android":"levelo://app?vid=281a54cf-32d6-4996-aafc-de8e61395037","ios":"levelo://app?vid=281a54cf-32d6-4996-aafc-de8e61395037"},"vehicle_type_id":"4","last_reported":1747206647,"current_range_meters":0,"station_id":"ce4bgs12rcd13ifvqcag","pricing_plan_id":"cebpf4jnsgd1na2vs0mg"},{"bike_id":"6b556ba3-0d42-4943-8045-95dde59e8279","system_id":"levelo_inurba_marseille","lat":43.30956,"lon":5.3902,"is_reserved":false,"is_disabled":true,"rental_uris":{"android":"levelo://app?vid=6b556ba3-0d42-4943-8045-95dde59e8279","ios":"levelo://app?vid=6b556ba3-0d42-4943-8045-95dde59e8279"},"vehicle_type_id":"4","last_reported":1747206647,"current_range_meters":0,"station_id":"ce4bgup2rcd13ifvqco0","pricing_plan_id":"cebpf4jnsgd1na2vs0mg"},{"bike_id":"464e2362-792d-4720-8f6f-9a969d7e5e4f","system_id":"levelo_inurba_marseille","lat":43.3133,"lon":5.39697,"is_reserved":false,"is_disabled":true,"rental_uris":{"android":"levelo://app?vid=464e2362-792d-4720-8f6f-9a969d7e5e4f","ios":"levelo://app?vid=464e2362-792d-4720-8f6f-9a969d7e5e4f"},"vehicle_type_id":"4","last_reported":1747206647,"current_range_meters":0,"station_id":"ce4bgvp2rcd13ifvqcu0","pricing_plan_id":"cebpf4jnsgd1na2vs0mg"},{"bike_id":"7ad2937c-3657-4570-bad9-8247a4a43bef","system_id":"levelo_inurba_marseille","lat":43.26549,"lon":5.3728,"is_reserved":false,"is_disabled":true,"rental_uris":{"android":"levelo://app?vid=7ad2937c-3657-4570-bad9-8247a4a43bef","ios":"levelo://app?vid=7ad2937c-3657-4570-bad9-8247a4a43bef"},"vehicle_type_id":"4","last_reported":1747206647,"current_range_meters":0,"station_id":"ce4bhg12rcd13ifvqf70","pricing_plan_id":"cebpf4jnsgd1na2vs0mg"},{"bike_id":"782a9d60-28bd-4d2c-ac39-696339c69e70","system_id":"levelo_inurba_marseille","lat":43.27951,"lon":5.38709,"is_reserved":false,"is_disabled":true,"rental_uris":{"android":"levelo://app?vid=782a9d60-28bd-4d2c-ac39-696339c69e70","ios":"levelo://app?vid=782a9d60-28bd-4d2c-ac39-696339c69e70"},"vehicle_type_id":"4","last_reported":1747206647,"current_range_meters":0,"station_id":"ce4bhg12rcd13ifvqf80","pricing_plan_id":"cebpf4jnsgd1na2vs0mg"},{"bike_id":"f72aa20d-5253-46e0-994c-d74537360958","system_id":"levelo_inurba_marseille","lat":43.26057,"lon":5.39395,"is_reserved":false,"is_disabled":false,"rental_uris":{"android":"levelo://app?vid=f72aa20d-5253-46e0-994c-d74537360958","ios":"levelo://app?vid=f72aa20d-5253-46e0-994c-d74537360958"},"vehicle_type_id":"4","last_reported":1747206647,"current_range_meters":0,"station_id":"ce4bhh92rcd13ifvqfj0","pricing_plan_id":"cebpf4jnsgd1na2vs0mg"},{"bike_id":"7d648bb7-ab7e-409a-add7-d4a17f03de12","system_id":"levelo_inurba_marseille","lat":43.23147,"lon":5.43713,"is_reserved":false,"is_disabled":true,"rental_uris":{"android":"levelo://app?vid=7d648bb7-ab7e-409a-add7-d4a17f03de12","ios":"levelo://app?vid=7d648bb7-ab7e-409a-add7-d4a17f03de12"},"vehicle_type_id":"4","last_reported":1747206647,"current_range_meters":0,"station_id":"ce4bhmp2rcd13ifvqgog","pricing_plan_id":"cebpf4jnsgd1na2vs0mg"},{"bike_id":"e78ed1c1-195a-4763-adfc-d9bd46dfb54f","system_id":"levelo_inurba_marseille","lat":43.27824,"lon":5.40698,"is_reserved":false,"is_disabled":true,"rental_uris":{"android":"levelo://app?vid=e78ed1c1-195a-4763-adfc-d9bd46dfb54f","ios":"levelo://app?vid=e78ed1c1-195a-4763-adfc-d9bd46dfb54f"},"vehicle_type_id":"4","last_reported":1747206647,"current_range_meters":0,"station_id":"ce4bhnh2rcd13ifvqgtg","pricing_plan_id":"cebpf4jnsgd1na2vs0mg"},{"bike_id":"54715999-78c0-40df-8009-96dc643b2198","system_id":"levelo_inurba_marseille","lat":43.28131,"lon":5.4266,"is_reserved":false,"is_disabled":true,"rental_uris":{"android":"levelo://app?vid=54715999-78c0-40df-8009-96dc643b2198","ios":"levelo://app?vid=54715999-78c0-40df-8009-96dc643b2198"},"vehicle_type_id":"4","last_reported":1747206647,"current_range_meters":0,"station_id":"ce4bhnh2rcd13ifvqgug","pricing_plan_id":"cebpf4jnsgd1na2vs0mg"},{"bike_id":"c7ebfe34-fa25-4abe-ac04-f3b98e67a0d3","system_id":"levelo_inurba_marseille","lat":43.27947,"lon":5.41065,"is_reserved":false,"is_disabled":true,"rental_uris":{"android":"levelo://app?vid=c7ebfe34-fa25-4abe-ac04-f3b98e67a0d3","ios":"levelo://app?vid=c7ebfe34-fa25-4abe-ac04-f3b98e67a0d3"},"vehicle_type_id":"4","last_reported":1747206647,"current_range_meters":0,"station_id":"ce4bhnp2rcd13ifvqh0g","pricing_plan_id":"cebpf4jnsgd1na2vs0mg"},{"bike_id":"a305c6b5-033b-4996-bd4c-c0c714e9f037","system_id":"levelo_inurba_marseille","lat":43.2293,"lon":5.3539,"is_reserved":false,"is_disabled":true,"rental_uris":{"android":"levelo://app?vid=a305c6b5-033b-4996-bd4c-c0c714e9f037","ios":"levelo://app?vid=a305c6b5-033b-4996-bd4c-c0c714e9f037"},"vehicle_type_id":"4","last_reported":1747206647,"current_range_meters":0,"station_id":"cpo3532slgdg3j2ikp40","pricing_plan_id":"cebpf4jnsgd1na2vs0mg"},{"bike_id":"49c47ed7-52af-4f8e-abc1-3485cf2c06af","system_id":"levelo_inurba_marseille","lat":43.22509,"lon":5.34763,"is_reserved":false,"is_disabled":true,"rental_uris":{"android":"levelo://app?vid=49c47ed7-52af-4f8e-abc1-3485cf2c06af","ios":"levelo://app?vid=49c47ed7-52af-4f8e-abc1-3485cf2c06af"},"vehicle_type_id":"4","last_reported":1747206647,"current_range_meters":0,"station_id":"st_cvj5dfep6f1abm77gieg","pricing_plan_id":"cebpf4jnsgd1na2vs0mg"},{"bike_id":"8aecad1a-6a65-4d9a-bc60-67a3daa52852","system_id":"levelo_inurba_marseille","lat":43.217414,"lon":5.346103,"is_reserved":false,"is_disabled":true,"rental_uris":{"android":"levelo://app?vid=8aecad1a-6a65-4d9a-bc60-67a3daa52852","ios":"levelo://app?vid=8aecad1a-6a65-4d9a-bc60-67a3daa52852"},"vehicle_type_id":"4","last_reported":1747206647,"current_range_meters":0,"station_id":"st_cvj6r9ubvosntc0bgbag","pricing_plan_id":"cebpf4jnsgd1na2vs0mg"},{"bike_id":"986c18d8-74d7-4caf-9a65-ed5970f61353","system_id":"levelo_inurba_marseille","lat":43.211878,"lon":5.350783,"is_reserved":false,"is_disabled":true,"rental_uris":{"android":"levelo://app?vid=986c18d8-74d7-4caf-9a65-ed5970f61353","ios":"levelo://app?vid=986c18d8-74d7-4caf-9a65-ed5970f61353"},"vehicle_type_id":"4","last_reported":1747206647,"current_range_meters":0,"station_id":"st_cvj6sg6p6f1abm77japg","pricing_plan_id":"cebpf4jnsgd1na2vs0mg"},{"bike_id":"388e8245-f37d-4035-8342-45f000e14ae4","system_id":"levelo_inurba_marseille","lat":43.23755,"lon":5.36274,"is_reserved":false,"is_disabled":true,"rental_uris":{"android":"levelo://app?vid=388e8245-f37d-4035-8342-45f000e14ae4","ios":"levelo://app?vid=388e8245-f37d-4035-8342-45f000e14ae4"},"vehicle_type_id":"4","last_reported":1747206647,"current_range_meters":400,"station_id":"","pricing_plan_id":"cebpf4jnsgd1na2vs0mg"},{"bike_id":"97fbce1b-1020-44d8-950b-a0c99f0606ff","system_id":"levelo_inurba_marseille","lat":43.251944,"lon":5.375837,"is_reserved":false,"is_disabled":true,"rental_uris":{"android":"levelo://app?vid=97fbce1b-1020-44d8-950b-a0c99f0606ff","ios":"levelo://app?vid=97fbce1b-1020-44d8-950b-a0c99f0606ff"},"vehicle_type_id":"4","last_reported":1747206647,"current_range_meters":800,"station_id":"","pricing_plan_id":"cebpf4jnsgd1na2vs0mg"},{"bike_id":"23cd9e42-8b40-4ee5-b565-9fe81eb64db7","system_id":"levelo_inurba_marseille","lat":43.2535,"lon":5.37612,"is_reserved":false,"is_disabled":true,"rental_uris":{"android":"levelo://app?vid=23cd9e42-8b40-4ee5-b565-9fe81eb64db7","ios":"levelo://app?vid=23cd9e42-8b40-4ee5-b565-9fe81eb64db7"},"vehicle_type_id":"4","last_reported":1747206647,"current_range_meters":1200,"station_id":"","pricing_plan_id":"cebpf4jnsgd1na2vs0mg"},{"bike_id":"e2d041cb-aea3-459c-9597-774dc8a981b5","system_id":"levelo_inurba_marseille","lat":43.26557,"lon":5.37311,"is_reserved":false,"is_disabled":true,"rental_uris":{"android":"levelo://app?vid=e2d041cb-aea3-459c-9597-774dc8a981b5","ios":"levelo://app?vid=e2d041cb-aea3-459c-9597-774dc8a981b5"},"vehicle_type_id":"4","last_reported":1747206647,"current_range_meters":1200,"station_id":"ce4bhg12rcd13ifvqf70","pricing_plan_id":"cebpf4jnsgd1na2vs0mg"},{"bike_id":"8655de25-8561-46f8-a07c-c09faabebe42","system_id":"levelo_inurba_marseille","lat":43.26683,"lon":5.38269,"is_reserved":false,"is_disabled":true,"rental_uris":{"android":"levelo://app?vid=8655de25-8561-46f8-a07c-c09faabebe42","ios":"levelo://app?vid=8655de25-8561-46f8-a07c-c09faabebe42"},"vehicle_type_id":"4","last_reported":1747206647,"current_range_meters":1200,"station_id":"ce4bhg92rcd13ifvqf90","pricing_plan_id":"cebpf4jnsgd1na2vs0mg"},{"bike_id":"3688351a-e7ae-46e1-86bf-36b7470cfece","system_id":"levelo_inurba_marseille","lat":43.304173,"lon":5.41283,"is_reserved":false,"is_disabled":true,"rental_uris":{"android":"levelo://app?vid=3688351a-e7ae-46e1-86bf-36b7470cfece","ios":"levelo://app?vid=3688351a-e7ae-46e1-86bf-36b7470cfece"},"vehicle_type_id":"4","last_reported":1747206647,"current_range_meters":1200,"station_id":"ce4bhop2rcd13ifvqh8g","pricing_plan_id":"cebpf4jnsgd1na2vs0mg"},{"bike_id":"1ba5ead2-2e31-461f-a34f-3e096c610c38","system_id":"levelo_inurba_marseille","lat":43.33616,"lon":5.40983,"is_reserved":false,"is_disabled":true,"rental_uris":{"android":"levelo://app?vid=1ba5ead2-2e31-461f-a34f-3e096c610c38","ios":"levelo://app?vid=1ba5ead2-2e31-461f-a34f-3e096c610c38"},"vehicle_type_id":"4","last_reported":1747206647,"current_range_meters":1200,"station_id":"ce4bhqh2rcd13ifvqhmg","pricing_plan_id":"cebpf4jnsgd1na2vs0mg"},{"bike_id":"3071c56b-ce80-4fb6-b5b1-b157555fc3f4","system_id":"levelo_inurba_marseille","lat":43.24545,"lon":5.39524,"is_reserved":false,"is_disabled":true,"rental_uris":{"android":"levelo://app?vid=3071c56b-ce80-4fb6-b5b1-b157555fc3f4","ios":"levelo://app?vid=3071c56b-ce80-4fb6-b5b1-b157555fc3f4"},"vehicle_type_id":"4","last_reported":1747206647,"current_range_meters":1600,"station_id":"ce4bhlp2rcd13ifvqgjg","pricing_plan_id":"cebpf4jnsgd1na2vs0mg"},{"bike_id":"6861c2ae-b8dd-4ed0-86d9-03af359f7503","system_id":"levelo_inurba_marseille","lat":43.24082,"lon":5.37756,"is_reserved":false,"is_disabled":true,"rental_uris":{"android":"levelo://app?vid=6861c2ae-b8dd-4ed0-86d9-03af359f7503","ios":"levelo://app?vid=6861c2ae-b8dd-4ed0-86d9-03af359f7503"},"vehicle_type_id":"4","last_reported":1747206647,"current_range_meters":1600,"station_id":"ce4bhnp2rcd13ifvqgvg","pricing_plan_id":"cebpf4jnsgd1na2vs0mg"},{"bike_id":"a500437a-7dc1-4e39-86ec-74b8dfba2ab6","system_id":"levelo_inurba_marseille","lat":43.2894,"lon":5.36634,"is_reserved":false,"is_disabled":true,"rental_uris":{"android":"levelo://app?vid=a500437a-7dc1-4e39-86ec-74b8dfba2ab6","ios":"levelo://app?vid=a500437a-7dc1-4e39-86ec-74b8dfba2ab6"},"vehicle_type_id":"4","last_reported":1747206647,"current_range_meters":2000,"station_id":"ce4bhap2rcd13ifvqek0","pricing_plan_id":"cebpf4jnsgd1na2vs0mg"},{"bike_id":"d5c8b463-3e44-4449-b922-7e252189f18c","system_id":"levelo_inurba_marseille","lat":43.29227,"lon":5.36069,"is_reserved":false,"is_disabled":true,"rental_uris":{"android":"levelo://app?vid=d5c8b463-3e44-4449-b922-7e252189f18c","ios":"levelo://app?vid=d5c8b463-3e44-4449-b922-7e252189f18c"},"vehicle_type_id":"4","last_reported":1747206647,"current_range_meters":2000,"station_id":"ce4bhbh2rcd13ifvqeqg","pricing_plan_id":"cebpf4jnsgd1na2vs0mg"},{"bike_id":"01321899-3bf3-4523-8d90-d0e402745f15","system_id":"levelo_inurba_marseille","lat":43.27491,"lon":5.42449,"is_reserved":false,"is_disabled":true,"rental_uris":{"android":"levelo://app?vid=01321899-3bf3-4523-8d90-d0e402745f15","ios":"levelo://app?vid=01321899-3bf3-4523-8d90-d0e402745f15"},"vehicle_type_id":"4","last_reported":1747206647,"current_range_meters":2000,"station_id":"ce4bhn92rcd13ifvqgrg","pricing_plan_id":"cebpf4jnsgd1na2vs0mg"},{"bike_id":"65f07d6c-0d43-4fa8-ad97-6853a7f2d82c","system_id":"levelo_inurba_marseille","lat":43.33603,"lon":5.41026,"is_reserved":false,"is_disabled":true,"rental_uris":{"android":"levelo://app?vid=65f07d6c-0d43-4fa8-ad97-6853a7f2d82c","ios":"levelo://app?vid=65f07d6c-0d43-4fa8-ad97-6853a7f2d82c"},"vehicle_type_id":"4","last_reported":1747206647,"current_range_meters":2000,"station_id":"ce4bhqh2rcd13ifvqhmg","pricing_plan_id":"cebpf4jnsgd1na2vs0mg"},{"bike_id":"05d2789c-c375-4a33-b9b8-063859fa4697","system_id":"levelo_inurba_marseille","lat":43.29621,"lon":5.3715,"is_reserved":false,"is_disabled":false,"rental_uris":{"android":"levelo://app?vid=05d2789c-c375-4a33-b9b8-063859fa4697","ios":"levelo://app?vid=05d2789c-c375-4a33-b9b8-063859fa4697"},"vehicle_type_id":"4","last_reported":1747206647,"current_range_meters":2800,"station_id":"ce4bgnh2rcd13ifvqc0g","pricing_plan_id":"cebpf4jnsgd1na2vs0mg"},{"bike_id":"08b31aaa-ab5d-4132-a631-b32ebb5fee96","system_id":"levelo_inurba_marseille","lat":43.30544,"lon":5.36552,"is_reserved":false,"is_disabled":false,"rental_uris":{"android":"levelo://app?vid=08b31aaa-ab5d-4132-a631-b32ebb5fee96","ios":"levelo://app?vid=08b31aaa-ab5d-4132-a631-b32ebb5fee96"},"vehicle_type_id":"4","last_reported":1747206647,"current_range_meters":2800,"station_id":"ce4bgs12rcd13ifvqcag","pricing_plan_id":"cebpf4jnsgd1na2vs0mg"},{"bike_id":"87e86929-38ff-48a6-acf3-803b4ed45b58","system_id":"levelo_inurba_marseille","lat":43.25939,"lon":5.409,"is_reserved":false,"is_disabled":false,"rental_uris":{"android":"levelo://app?vid=87e86929-38ff-48a6-acf3-803b4ed45b58","ios":"levelo://app?vid=87e86929-38ff-48a6-acf3-803b4ed45b58"},"vehicle_type_id":"4","last_reported":1747206647,"current_range_meters":2800,"station_id":"ce4bhm92rcd13ifvqglg","pricing_plan_id":"cebpf4jnsgd1na2vs0mg"},{"bike_id":"6af1a4e4-97af-41a0-9c37-0e5f2211215f","system_id":"levelo_inurba_marseille","lat":43.240723,"lon":5.37752,"is_reserved":false,"is_disabled":false,"rental_uris":{"android":"levelo://app?vid=6af1a4e4-97af-41a0-9c37-0e5f2211215f","ios":"levelo://app?vid=6af1a4e4-97af-41a0-9c37-0e5f2211215f"},"vehicle_type_id":"4","last_reported":1747206647,"current_range_meters":2800,"station_id":"ce4bhnp2rcd13ifvqgvg","pricing_plan_id":"cebpf4jnsgd1na2vs0mg"},{"bike_id":"387fc765-d9dd-44d7-aa52-b450df94d1ed","system_id":"levelo_inurba_marseille","lat":43.30423,"lon":5.3974,"is_reserved":false,"is_disabled":false,"rental_uris":{"android":"levelo://app?vid=387fc765-d9dd-44d7-aa52-b450df94d1ed","ios":"levelo://app?vid=387fc765-d9dd-44d7-aa52-b450df94d1ed"},"vehicle_type_id":"4","last_reported":1747206647,"current_range_meters":3200,"station_id":"ce4bh092rcd13ifvqd20","pricing_plan_id":"cebpf4jnsgd1na2vs0mg"},{"bike_id":"e96a7a12-fffb-4f7a-93cc-4bc2ab0fc8c9","system_id":"levelo_inurba_marseille","lat":43.2907,"lon":5.37159,"is_reserved":false,"is_disabled":false,"rental_uris":{"android":"levelo://app?vid=e96a7a12-fffb-4f7a-93cc-4bc2ab0fc8c9","ios":"levelo://app?vid=e96a7a12-fffb-4f7a-93cc-4bc2ab0fc8c9"},"vehicle_type_id":"4","last_reported":1747206647,"current_range_meters":3200,"station_id":"ce4bh5p2rcd13ifvqe4g","pricing_plan_id":"cebpf4jnsgd1na2vs0mg"},{"bike_id":"d4f630b7-c083-42ce-bf9c-d500c2e7fe22","system_id":"levelo_inurba_marseille","lat":43.26677,"lon":5.38262,"is_reserved":false,"is_disabled":false,"rental_uris":{"android":"levelo://app?vid=d4f630b7-c083-42ce-bf9c-d500c2e7fe22","ios":"levelo://app?vid=d4f630b7-c083-42ce-bf9c-d500c2e7fe22"},"vehicle_type_id":"4","last_reported":1747206647,"current_range_meters":3200,"station_id":"ce4bhg92rcd13ifvqf90","pricing_plan_id":"cebpf4jnsgd1na2vs0mg"},{"bike_id":"4b165aa7-e7f9-4671-908e-998891ceb87a","system_id":"levelo_inurba_marseille","lat":43.25001,"lon":5.3892,"is_reserved":false,"is_disabled":false,"rental_uris":{"android":"levelo://app?vid=4b165aa7-e7f9-4671-908e-998891ceb87a","ios":"levelo://app?vid=4b165aa7-e7f9-4671-908e-998891ceb87a"},"vehicle_type_id":"4","last_reported":1747206647,"current_range_meters":3600,"station_id":"ce4bhgp2rcd13ifvqfd0","pricing_plan_id":"cebpf4jnsgd1na2vs0mg"},{"bike_id":"ba815a7c-66a0-4a5e-8962-fb5137064b93","system_id":"levelo_inurba_marseille","lat":43.31883,"lon":5.40726,"is_reserved":false,"is_disabled":false,"rental_uris":{"android":"levelo://app?vid=ba815a7c-66a0-4a5e-8962-fb5137064b93","ios":"levelo://app?vid=ba815a7c-66a0-4a5e-8962-fb5137064b93"},"vehicle_type_id":"4","last_reported":1747206647,"current_range_meters":3600,"station_id":"ce4bhq12rcd13ifvqhig","pricing_plan_id":"cebpf4jnsgd1na2vs0mg"},{"bike_id":"bf7c062a-919e-4c12-b4f5-03150c3a5554","system_id":"levelo_inurba_marseille","lat":43.33716,"lon":5.39186,"is_reserved":false,"is_disabled":false,"rental_uris":{"android":"levelo://app?vid=bf7c062a-919e-4c12-b4f5-03150c3a5554","ios":"levelo://app?vid=bf7c062a-919e-4c12-b4f5-03150c3a5554"},"vehicle_type_id":"4","last_reported":1747206647,"current_range_meters":3600,"station_id":"ce4bhr92rcd13ifvqhsg","pricing_plan_id":"cebpf4jnsgd1na2vs0mg"},{"bike_id":"e26e9919-9fe2-45be-90e7-e482e38d1ab0","system_id":"levelo_inurba_marseille","lat":43.24069,"lon":5.37762,"is_reserved":false,"is_disabled":false,"rental_uris":{"android":"levelo://app?vid=e26e9919-9fe2-45be-90e7-e482e38d1ab0","ios":"levelo://app?vid=e26e9919-9fe2-45be-90e7-e482e38d1ab0"},"vehicle_type_id":"4","last_reported":1747206647,"current_range_meters":4000,"station_id":"ce4bhnp2rcd13ifvqgvg","pricing_plan_id":"cebpf4jnsgd1na2vs0mg"},{"bike_id":"c2d49a17-eb35-4957-ad06-8f06b81c9427","system_id":"levelo_inurba_marseille","lat":43.24078,"lon":5.37753,"is_reserved":false,"is_disabled":false,"rental_uris":{"android":"levelo://app?vid=c2d49a17-eb35-4957-ad06-8f06b81c9427","ios":"levelo://app?vid=c2d49a17-eb35-4957-ad06-8f06b81c9427"},"vehicle_type_id":"4","last_reported":1747206647,"current_range_meters":4000,"station_id":"ce4bhnp2rcd13ifvqgvg","pricing_plan_id":"cebpf4jnsgd1na2vs0mg"},{"bike_id":"abe19c7b-dd48-4f23-ad5b-10c07cbeffa6","system_id":"levelo_inurba_marseille","lat":43.29594,"lon":5.3786,"is_reserved":false,"is_disabled":false,"rental_uris":{"android":"levelo://app?vid=abe19c7b-dd48-4f23-ad5b-10c07cbeffa6","ios":"levelo://app?vid=abe19c7b-dd48-4f23-ad5b-10c07cbeffa6"},"vehicle_type_id":"4","last_reported":1747206647,"current_range_meters":4400,"station_id":"","pricing_plan_id":"cebpf4jnsgd1na2vs0mg"},{"bike_id":"5c8520e4-07b7-4129-8290-ee893320f306","system_id":"levelo_inurba_marseille","lat":43.31389,"lon":5.38508,"is_reserved":false,"is_disabled":false,"rental_uris":{"android":"levelo://app?vid=5c8520e4-07b7-4129-8290-ee893320f306","ios":"levelo://app?vid=5c8520e4-07b7-4129-8290-ee893320f306"},"vehicle_type_id":"4","last_reported":1747206647,"current_range_meters":4400,"station_id":"ce4bgt92rcd13ifvqcf0","pricing_plan_id":"cebpf4jnsgd1na2vs0mg"},{"bike_id":"7c0fa145-dac0-4147-85c2-7d9c1f30376f","system_id":"levelo_inurba_marseille","lat":43.30588,"lon":5.39354,"is_reserved":false,"is_disabled":false,"rental_uris":{"android":"levelo://app?vid=7c0fa145-dac0-4147-85c2-7d9c1f30376f","ios":"levelo://app?vid=7c0fa145-dac0-4147-85c2-7d9c1f30376f"},"vehicle_type_id":"4","last_reported":1747206647,"current_range_meters":4400,"station_id":"ce4bh0p2rcd13ifvqd80","pricing_plan_id":"cebpf4jnsgd1na2vs0mg"},{"bike_id":"73284dc4-f3fd-43d2-af5a-acd57db7e32f","system_id":"levelo_inurba_marseille","lat":43.27492,"lon":5.4245,"is_reserved":false,"is_disabled":false,"rental_uris":{"android":"levelo://app?vid=73284dc4-f3fd-43d2-af5a-acd57db7e32f","ios":"levelo://app?vid=73284dc4-f3fd-43d2-af5a-acd57db7e32f"},"vehicle_type_id":"4","last_reported":1747206647,"current_range_meters":4400,"station_id":"ce4bhn92rcd13ifvqgrg","pricing_plan_id":"cebpf4jnsgd1na2vs0mg"},{"bike_id":"7ce609d8-d928-43e8-940e-5b7ef78de615","system_id":"levelo_inurba_marseille","lat":43.24009,"lon":5.37691,"is_reserved":false,"is_disabled":false,"rental_uris":{"android":"levelo://app?vid=7ce609d8-d928-43e8-940e-5b7ef78de615","ios":"levelo://app?vid=7ce609d8-d928-43e8-940e-5b7ef78de615"},"vehicle_type_id":"4","last_reported":1747206647,"current_range_meters":4800,"station_id":"","pricing_plan_id":"cebpf4jnsgd1na2vs0mg"},{"bike_id":"cd8535ab-977c-447b-b532-7c4a645242f2","system_id":"levelo_inurba_marseille","lat":43.278395,"lon":5.392265,"is_reserved":false,"is_disabled":false,"rental_uris":{"android":"levelo://app?vid=cd8535ab-977c-447b-b532-7c4a645242f2","ios":"levelo://app?vid=cd8535ab-977c-447b-b532-7c4a645242f2"},"vehicle_type_id":"4","last_reported":1747206647,"current_range_meters":4800,"station_id":"ce4bhjp2rcd13ifvqga0","pricing_plan_id":"cebpf4jnsgd1na2vs0mg"},{"bike_id":"94317e06-bddc-4d0b-985e-077197fac53b","system_id":"levelo_inurba_marseille","lat":43.25932,"lon":5.4091,"is_reserved":false,"is_disabled":false,"rental_uris":{"android":"levelo://app?vid=94317e06-bddc-4d0b-985e-077197fac53b","ios":"levelo://app?vid=94317e06-bddc-4d0b-985e-077197fac53b"},"vehicle_type_id":"4","last_reported":1747206647,"current_range_meters":4800,"station_id":"ce4bhm92rcd13ifvqglg","pricing_plan_id":"cebpf4jnsgd1na2vs0mg"},{"bike_id":"74ce7741-5813-4b25-8268-d773ddb37d17","system_id":"levelo_inurba_marseille","lat":43.30201,"lon":5.45421,"is_reserved":false,"is_disabled":false,"rental_uris":{"android":"levelo://app?vid=74ce7741-5813-4b25-8268-d773ddb37d17","ios":"levelo://app?vid=74ce7741-5813-4b25-8268-d773ddb37d17"},"vehicle_type_id":"4","last_reported":1747206647,"current_range_meters":5600,"station_id":"","pricing_plan_id":"cebpf4jnsgd1na2vs0mg"},{"bike_id":"a3a01fd2-3561-4d8f-b6c8-8dbbc12fd969","system_id":"levelo_inurba_marseille","lat":43.29912,"lon":5.37482,"is_reserved":false,"is_disabled":false,"rental_uris":{"android":"levelo://app?vid=a3a01fd2-3561-4d8f-b6c8-8dbbc12fd969","ios":"levelo://app?vid=a3a01fd2-3561-4d8f-b6c8-8dbbc12fd969"},"vehicle_type_id":"4","last_reported":1747206647,"current_range_meters":5600,"station_id":"ce4bgjh2rcd13ifvqbg0","pricing_plan_id":"cebpf4jnsgd1na2vs0mg"},{"bike_id":"f0461f09-2cb2-4b60-be17-9880adc6dc06","system_id":"levelo_inurba_marseille","lat":43.30917,"lon":5.36848,"is_reserved":false,"is_disabled":false,"rental_uris":{"android":"levelo://app?vid=f0461f09-2cb2-4b60-be17-9880adc6dc06","ios":"levelo://app?vid=f0461f09-2cb2-4b60-be17-9880adc6dc06"},"vehicle_type_id":"4","last_reported":1747206647,"current_range_meters":5600,"station_id":"ce4bgn92rcd13ifvqbvg","pricing_plan_id":"cebpf4jnsgd1na2vs0mg"},{"bike_id":"de1c15b0-29d0-4080-abf5-06f0e107f8bc","system_id":"levelo_inurba_marseille","lat":43.30884,"lon":5.37186,"is_reserved":false,"is_disabled":false,"rental_uris":{"android":"levelo://app?vid=de1c15b0-29d0-4080-abf5-06f0e107f8bc","ios":"levelo://app?vid=de1c15b0-29d0-4080-abf5-06f0e107f8bc"},"vehicle_type_id":"4","last_reported":1747206647,"current_range_meters":6000,"station_id":"ce4bguh2rcd13ifvqckg","pricing_plan_id":"cebpf4jnsgd1na2vs0mg"},{"bike_id":"4c674abf-7a28-4d8d-bdde-7442318de42a","system_id":"levelo_inurba_marseille","lat":43.279022,"lon":5.380025,"is_reserved":false,"is_disabled":false,"rental_uris":{"android":"levelo://app?vid=4c674abf-7a28-4d8d-bdde-7442318de42a","ios":"levelo://app?vid=4c674abf-7a28-4d8d-bdde-7442318de42a"},"vehicle_type_id":"4","last_reported":1747206647,"current_range_meters":6000,"station_id":"ce4bhf92rcd13ifvqf50","pricing_plan_id":"cebpf4jnsgd1na2vs0mg"},{"bike_id":"217dd50a-9bcb-4157-afa8-30a01e059b82","system_id":"levelo_inurba_marseille","lat":43.28947,"lon":5.36396,"is_reserved":false,"is_disabled":false,"rental_uris":{"android":"levelo://app?vid=217dd50a-9bcb-4157-afa8-30a01e059b82","ios":"levelo://app?vid=217dd50a-9bcb-4157-afa8-30a01e059b82"},"vehicle_type_id":"4","last_reported":1747206647,"current_range_meters":6400,"station_id":"ce4bhc92rcd13ifvqetg","pricing_plan_id":"cebpf4jnsgd1na2vs0mg"},{"bike_id":"597e7865-b942-4532-81ea-d2c26c4cbf33","system_id":"levelo_inurba_marseille","lat":43.240744,"lon":5.377627,"is_reserved":false,"is_disabled":false,"rental_uris":{"android":"levelo://app?vid=597e7865-b942-4532-81ea-d2c26c4cbf33","ios":"levelo://app?vid=597e7865-b942-4532-81ea-d2c26c4cbf33"},"vehicle_type_id":"4","last_reported":1747206647,"current_range_meters":6400,"station_id":"ce4bhnp2rcd13ifvqgvg","pricing_plan_id":"cebpf4jnsgd1na2vs0mg"},{"bike_id":"44ad2e06-bd4f-40aa-901e-6007bafa06bf","system_id":"levelo_inurba_marseille","lat":43.34143,"lon":5.40907,"is_reserved":false,"is_disabled":false,"rental_uris":{"android":"levelo://app?vid=44ad2e06-bd4f-40aa-901e-6007bafa06bf","ios":"levelo://app?vid=44ad2e06-bd4f-40aa-901e-6007bafa06bf"},"vehicle_type_id":"4","last_reported":1747206647,"current_range_meters":6400,"station_id":"ce4bhqh2rcd13ifvqhlg","pricing_plan_id":"cebpf4jnsgd1na2vs0mg"},{"bike_id":"e42e17e5-d574-40b9-811b-e914acd6632f","system_id":"levelo_inurba_marseille","lat":43.23051,"lon":5.35482,"is_reserved":false,"is_disabled":false,"rental_uris":{"android":"levelo://app?vid=e42e17e5-d574-40b9-811b-e914acd6632f","ios":"levelo://app?vid=e42e17e5-d574-40b9-811b-e914acd6632f"},"vehicle_type_id":"4","last_reported":1747206647,"current_range_meters":6400,"station_id":"cpo3342slgdg3j2ifvpg","pricing_plan_id":"cebpf4jnsgd1na2vs0mg"},{"bike_id":"2efedd4d-27ff-4201-8465-15f499458bc0","system_id":"levelo_inurba_marseille","lat":43.28933,"lon":5.3839,"is_reserved":false,"is_disabled":false,"rental_uris":{"android":"levelo://app?vid=2efedd4d-27ff-4201-8465-15f499458bc0","ios":"levelo://app?vid=2efedd4d-27ff-4201-8465-15f499458bc0"},"vehicle_type_id":"4","last_reported":1747206647,"current_range_meters":6800,"station_id":"ce4bh612rcd13ifvqe6g","pricing_plan_id":"cebpf4jnsgd1na2vs0mg"},{"bike_id":"0a6b087a-11d2-44c9-a2fe-690690e2af04","system_id":"levelo_inurba_marseille","lat":43.24171,"lon":5.39709,"is_reserved":false,"is_disabled":false,"rental_uris":{"android":"levelo://app?vid=0a6b087a-11d2-44c9-a2fe-690690e2af04","ios":"levelo://app?vid=0a6b087a-11d2-44c9-a2fe-690690e2af04"},"vehicle_type_id":"4","last_reported":1747206647,"current_range_meters":6800,"station_id":"ce4bhn12rcd13ifvqgpg","pricing_plan_id":"cebpf4jnsgd1na2vs0mg"},{"bike_id":"56bea2d5-1851-4bc0-b9ec-2abbd891bd8c","system_id":"levelo_inurba_marseille","lat":43.24164,"lon":5.3639,"is_reserved":false,"is_disabled":false,"rental_uris":{"android":"levelo://app?vid=56bea2d5-1851-4bc0-b9ec-2abbd891bd8c","ios":"levelo://app?vid=56bea2d5-1851-4bc0-b9ec-2abbd891bd8c"},"vehicle_type_id":"4","last_reported":1747206647,"current_range_meters":6800,"station_id":"cpo36qri1sfpv3e86is0","pricing_plan_id":"cebpf4jnsgd1na2vs0mg"},{"bike_id":"4ee8ffff-9271-43aa-886e-175c833d2b03","system_id":"levelo_inurba_marseille","lat":43.28944,"lon":5.36396,"is_reserved":false,"is_disabled":false,"rental_uris":{"android":"levelo://app?vid=4ee8ffff-9271-43aa-886e-175c833d2b03","ios":"levelo://app?vid=4ee8ffff-9271-43aa-886e-175c833d2b03"},"vehicle_type_id":"4","last_reported":1747206647,"current_range_meters":7200,"station_id":"ce4bhc92rcd13ifvqetg","pricing_plan_id":"cebpf4jnsgd1na2vs0mg"},{"bike_id":"23bfae5d-adbc-487a-a024-c8962e33e86d","system_id":"levelo_inurba_marseille","lat":43.246485,"lon":5.388963,"is_reserved":false,"is_disabled":false,"rental_uris":{"android":"levelo://app?vid=23bfae5d-adbc-487a-a024-c8962e33e86d","ios":"levelo://app?vid=23bfae5d-adbc-487a-a024-c8962e33e86d"},"vehicle_type_id":"4","last_reported":1747206647,"current_range_meters":7200,"station_id":"ce4bhg12rcd13ifvqf60","pricing_plan_id":"cebpf4jnsgd1na2vs0mg"},{"bike_id":"35b5cea5-eb5e-4949-bb0d-c4b66c729e32","system_id":"levelo_inurba_marseille","lat":43.33598,"lon":5.41029,"is_reserved":false,"is_disabled":false,"rental_uris":{"android":"levelo://app?vid=35b5cea5-eb5e-4949-bb0d-c4b66c729e32","ios":"levelo://app?vid=35b5cea5-eb5e-4949-bb0d-c4b66c729e32"},"vehicle_type_id":"4","last_reported":1747206647,"current_range_meters":7200,"station_id":"ce4bhqh2rcd13ifvqhmg","pricing_plan_id":"cebpf4jnsgd1na2vs0mg"},{"bike_id":"3e298fff-a6c8-4c84-a257-9c58614d0496","system_id":"levelo_inurba_marseille","lat":43.320855,"lon":5.44094,"is_reserved":false,"is_disabled":false,"rental_uris":{"android":"levelo://app?vid=3e298fff-a6c8-4c84-a257-9c58614d0496","ios":"levelo://app?vid=3e298fff-a6c8-4c84-a257-9c58614d0496"},"vehicle_type_id":"4","last_reported":1747206647,"current_range_meters":8000,"station_id":"","pricing_plan_id":"cebpf4jnsgd1na2vs0mg"},{"bike_id":"f1aa1a7d-6acb-41ba-a65a-8505f810c9e1","system_id":"levelo_inurba_marseille","lat":43.29568,"lon":5.39984,"is_reserved":false,"is_disabled":false,"rental_uris":{"android":"levelo://app?vid=f1aa1a7d-6acb-41ba-a65a-8505f810c9e1","ios":"levelo://app?vid=f1aa1a7d-6acb-41ba-a65a-8505f810c9e1"},"vehicle_type_id":"4","last_reported":1747206647,"current_range_meters":8000,"station_id":"ce4bh312rcd13ifvqdj0","pricing_plan_id":"cebpf4jnsgd1na2vs0mg"},{"bike_id":"4dc60c80-7973-4d17-a577-816b06071d96","system_id":"levelo_inurba_marseille","lat":43.29038,"lon":5.39969,"is_reserved":false,"is_disabled":false,"rental_uris":{"android":"levelo://app?vid=4dc60c80-7973-4d17-a577-816b06071d96","ios":"levelo://app?vid=4dc60c80-7973-4d17-a577-816b06071d96"},"vehicle_type_id":"4","last_reported":1747206647,"current_range_meters":8000,"station_id":"ce4bh392rcd13ifvqdm0","pricing_plan_id":"cebpf4jnsgd1na2vs0mg"},{"bike_id":"14b2350c-4806-4280-9021-1c3743d7bfd4","system_id":"levelo_inurba_marseille","lat":43.28724,"lon":5.37922,"is_reserved":false,"is_disabled":false,"rental_uris":{"android":"levelo://app?vid=14b2350c-4806-4280-9021-1c3743d7bfd4","ios":"levelo://app?vid=14b2350c-4806-4280-9021-1c3743d7bfd4"},"vehicle_type_id":"4","last_reported":1747206647,"current_range_meters":8000,"station_id":"ce4bh9p2rcd13ifvqec0","pricing_plan_id":"cebpf4jnsgd1na2vs0mg"},{"bike_id":"8659fe7c-9900-4a8b-ab94-18401f89122c","system_id":"levelo_inurba_marseille","lat":43.27962,"lon":5.38733,"is_reserved":false,"is_disabled":false,"rental_uris":{"android":"levelo://app?vid=8659fe7c-9900-4a8b-ab94-18401f89122c","ios":"levelo://app?vid=8659fe7c-9900-4a8b-ab94-18401f89122c"},"vehicle_type_id":"4","last_reported":1747206647,"current_range_meters":8000,"station_id":"ce4bhg12rcd13ifvqf80","pricing_plan_id":"cebpf4jnsgd1na2vs0mg"},{"bike_id":"31d3d2a6-6f3f-4769-93e3-6ca1634c83df","system_id":"levelo_inurba_marseille","lat":43.25583,"lon":5.38225,"is_reserved":false,"is_disabled":false,"rental_uris":{"android":"levelo://app?vid=31d3d2a6-6f3f-4769-93e3-6ca1634c83df","ios":"levelo://app?vid=31d3d2a6-6f3f-4769-93e3-6ca1634c83df"},"vehicle_type_id":"4","last_reported":1747206647,"current_range_meters":8000,"station_id":"ce4bhih2rcd13ifvqfs0","pricing_plan_id":"cebpf4jnsgd1na2vs0mg"},{"bike_id":"698e4987-f00f-498f-9056-cee638f39c2b","system_id":"levelo_inurba_marseille","lat":43.27497,"lon":5.42443,"is_reserved":false,"is_disabled":false,"rental_uris":{"android":"levelo://app?vid=698e4987-f00f-498f-9056-cee638f39c2b","ios":"levelo://app?vid=698e4987-f00f-498f-9056-cee638f39c2b"},"vehicle_type_id":"4","last_reported":1747206647,"current_range_meters":8000,"station_id":"ce4bhn92rcd13ifvqgrg","pricing_plan_id":"cebpf4jnsgd1na2vs0mg"},{"bike_id":"5de1e8df-cec1-47cf-b554-41f6e726d337","system_id":"levelo_inurba_marseille","lat":43.27408,"lon":5.40612,"is_reserved":false,"is_disabled":false,"rental_uris":{"android":"levelo://app?vid=5de1e8df-cec1-47cf-b554-41f6e726d337","ios":"levelo://app?vid=5de1e8df-cec1-47cf-b554-41f6e726d337"},"vehicle_type_id":"4","last_reported":1747206647,"current_range_meters":8400,"station_id":"","pricing_plan_id":"cebpf4jnsgd1na2vs0mg"},{"bike_id":"1c2646a7-ada5-4c18-86a9-0d620507f469","system_id":"levelo_inurba_marseille","lat":43.30904,"lon":5.36843,"is_reserved":false,"is_disabled":false,"rental_uris":{"android":"levelo://app?vid=1c2646a7-ada5-4c18-86a9-0d620507f469","ios":"levelo://app?vid=1c2646a7-ada5-4c18-86a9-0d620507f469"},"vehicle_type_id":"4","last_reported":1747206647,"current_range_meters":8400,"station_id":"ce4bgn92rcd13ifvqbvg","pricing_plan_id":"cebpf4jnsgd1na2vs0mg"},{"bike_id":"fe287aec-61bd-487b-9146-4b66407f6270","system_id":"levelo_inurba_marseille","lat":43.30279,"lon":5.37705,"is_reserved":false,"is_disabled":false,"rental_uris":{"android":"levelo://app?vid=fe287aec-61bd-487b-9146-4b66407f6270","ios":"levelo://app?vid=fe287aec-61bd-487b-9146-4b66407f6270"},"vehicle_type_id":"4","last_reported":1747206647,"current_range_meters":8400,"station_id":"ce4bguh2rcd13ifvqcj0","pricing_plan_id":"cebpf4jnsgd1na2vs0mg"},{"bike_id":"f37b7848-b34f-4203-8cd6-ee4ac88ff930","system_id":"levelo_inurba_marseille","lat":43.23978,"lon":5.36601,"is_reserved":false,"is_disabled":false,"rental_uris":{"android":"levelo://app?vid=f37b7848-b34f-4203-8cd6-ee4ac88ff930","ios":"levelo://app?vid=f37b7848-b34f-4203-8cd6-ee4ac88ff930"},"vehicle_type_id":"4","last_reported":1747206647,"current_range_meters":8400,"station_id":"ce4bhi12rcd13ifvqfp0","pricing_plan_id":"cebpf4jnsgd1na2vs0mg"},{"bike_id":"922114da-edb8-4929-be14-c85644a1e92c","system_id":"levelo_inurba_marseille","lat":43.25581,"lon":5.3824,"is_reserved":false,"is_disabled":false,"rental_uris":{"android":"levelo://app?vid=922114da-edb8-4929-be14-c85644a1e92c","ios":"levelo://app?vid=922114da-edb8-4929-be14-c85644a1e92c"},"vehicle_type_id":"4","last_reported":1747206647,"current_range_meters":8400,"station_id":"ce4bhih2rcd13ifvqfs0","pricing_plan_id":"cebpf4jnsgd1na2vs0mg"},{"bike_id":"dfb423ca-5aff-49db-9e19-40444dccc9a2","system_id":"levelo_inurba_marseille","lat":43.30912,"lon":5.36847,"is_reserved":false,"is_disabled":false,"rental_uris":{"android":"levelo://app?vid=dfb423ca-5aff-49db-9e19-40444dccc9a2","ios":"levelo://app?vid=dfb423ca-5aff-49db-9e19-40444dccc9a2"},"vehicle_type_id":"4","last_reported":1747206647,"current_range_meters":8800,"station_id":"ce4bgn92rcd13ifvqbvg","pricing_plan_id":"cebpf4jnsgd1na2vs0mg"},{"bike_id":"31bbd2a3-3187-4cf6-ac4f-ef100a38b191","system_id":"levelo_inurba_marseille","lat":43.31494,"lon":5.37302,"is_reserved":false,"is_disabled":false,"rental_uris":{"android":"levelo://app?vid=31bbd2a3-3187-4cf6-ac4f-ef100a38b191","ios":"levelo://app?vid=31bbd2a3-3187-4cf6-ac4f-ef100a38b191"},"vehicle_type_id":"4","last_reported":1747206647,"current_range_meters":8800,"station_id":"ce4bgt12rcd13ifvqcd0","pricing_plan_id":"cebpf4jnsgd1na2vs0mg"},{"bike_id":"247b05da-95ca-40ee-a7b6-9df0494a63ac","system_id":"levelo_inurba_marseille","lat":43.31686,"lon":5.40471,"is_reserved":false,"is_disabled":false,"rental_uris":{"android":"levelo://app?vid=247b05da-95ca-40ee-a7b6-9df0494a63ac","ios":"levelo://app?vid=247b05da-95ca-40ee-a7b6-9df0494a63ac"},"vehicle_type_id":"4","last_reported":1747206647,"current_range_meters":8800,"station_id":"ce4bh012rcd13ifvqd00","pricing_plan_id":"cebpf4jnsgd1na2vs0mg"},{"bike_id":"cc15ebc6-0ee0-4285-b34e-ff79866d71da","system_id":"levelo_inurba_marseille","lat":43.24389,"lon":5.37057,"is_reserved":false,"is_disabled":false,"rental_uris":{"android":"levelo://app?vid=cc15ebc6-0ee0-4285-b34e-ff79866d71da","ios":"levelo://app?vid=cc15ebc6-0ee0-4285-b34e-ff79866d71da"},"vehicle_type_id":"4","last_reported":1747206647,"current_range_meters":8800,"station_id":"ce4bhhh2rcd13ifvqfk0","pricing_plan_id":"cebpf4jnsgd1na2vs0mg"},{"bike_id":"d7f5faf6-c753-4edf-890f-1842e2889581","system_id":"levelo_inurba_marseille","lat":43.27487,"lon":5.4246,"is_reserved":false,"is_disabled":false,"rental_uris":{"android":"levelo://app?vid=d7f5faf6-c753-4edf-890f-1842e2889581","ios":"levelo://app?vid=d7f5faf6-c753-4edf-890f-1842e2889581"},"vehicle_type_id":"4","last_reported":1747206647,"current_range_meters":8800,"station_id":"ce4bhn92rcd13ifvqgrg","pricing_plan_id":"cebpf4jnsgd1na2vs0mg"},{"bike_id":"060d34f9-d5e7-4c03-bb96-9e6501866e6d","system_id":"levelo_inurba_marseille","lat":43.24092,"lon":5.37728,"is_reserved":false,"is_disabled":false,"rental_uris":{"android":"levelo://app?vid=060d34f9-d5e7-4c03-bb96-9e6501866e6d","ios":"levelo://app?vid=060d34f9-d5e7-4c03-bb96-9e6501866e6d"},"vehicle_type_id":"4","last_reported":1747206647,"current_range_meters":8800,"station_id":"ce4bhnp2rcd13ifvqgvg","pricing_plan_id":"cebpf4jnsgd1na2vs0mg"},{"bike_id":"3c855199-68ef-4b73-91c5-9c5620ddd198","system_id":"levelo_inurba_marseille","lat":43.31368,"lon":5.36727,"is_reserved":false,"is_disabled":false,"rental_uris":{"android":"levelo://app?vid=3c855199-68ef-4b73-91c5-9c5620ddd198","ios":"levelo://app?vid=3c855199-68ef-4b73-91c5-9c5620ddd198"},"vehicle_type_id":"4","last_reported":1747206647,"current_range_meters":9200,"station_id":"ce4bgr92rcd13ifvqc6g","pricing_plan_id":"cebpf4jnsgd1na2vs0mg"},{"bike_id":"6a9d7c9a-6960-45ba-9697-1410a8a6bbda","system_id":"levelo_inurba_marseille","lat":43.24651,"lon":5.38892,"is_reserved":false,"is_disabled":false,"rental_uris":{"android":"levelo://app?vid=6a9d7c9a-6960-45ba-9697-1410a8a6bbda","ios":"levelo://app?vid=6a9d7c9a-6960-45ba-9697-1410a8a6bbda"},"vehicle_type_id":"4","last_reported":1747206647,"current_range_meters":9200,"station_id":"ce4bhg12rcd13ifvqf60","pricing_plan_id":"cebpf4jnsgd1na2vs0mg"},{"bike_id":"385372be-e21b-4593-a513-fa986869cb56","system_id":"levelo_inurba_marseille","lat":43.26954,"lon":5.38633,"is_reserved":false,"is_disabled":false,"rental_uris":{"android":"levelo://app?vid=385372be-e21b-4593-a513-fa986869cb56","ios":"levelo://app?vid=385372be-e21b-4593-a513-fa986869cb56"},"vehicle_type_id":"4","last_reported":1747206647,"current_range_meters":9200,"station_id":"ce4bhh92rcd13ifvqfh0","pricing_plan_id":"cebpf4jnsgd1na2vs0mg"},{"bike_id":"bae0709b-c933-441a-ab47-3aad58f66d78","system_id":"levelo_inurba_marseille","lat":43.2175,"lon":5.34601,"is_reserved":false,"is_disabled":false,"rental_uris":{"android":"levelo://app?vid=bae0709b-c933-441a-ab47-3aad58f66d78","ios":"levelo://app?vid=bae0709b-c933-441a-ab47-3aad58f66d78"},"vehicle_type_id":"4","last_reported":1747206647,"current_range_meters":9200,"station_id":"st_cvj6r9ubvosntc0bgbag","pricing_plan_id":"cebpf4jnsgd1na2vs0mg"},{"bike_id":"828f3d72-4b62-4490-a898-df9e30d9cf9b","system_id":"levelo_inurba_marseille","lat":43.30774,"lon":5.41326,"is_reserved":false,"is_disabled":false,"rental_uris":{"android":"levelo://app?vid=828f3d72-4b62-4490-a898-df9e30d9cf9b","ios":"levelo://app?vid=828f3d72-4b62-4490-a898-df9e30d9cf9b"},"vehicle_type_id":"4","last_reported":1747206647,"current_range_meters":9600,"station_id":"","pricing_plan_id":"cebpf4jnsgd1na2vs0mg"},{"bike_id":"1a756a3f-746a-48dc-bcdf-2b46e89774ea","system_id":"levelo_inurba_marseille","lat":43.272033,"lon":5.39194,"is_reserved":false,"is_disabled":false,"rental_uris":{"android":"levelo://app?vid=1a756a3f-746a-48dc-bcdf-2b46e89774ea","ios":"levelo://app?vid=1a756a3f-746a-48dc-bcdf-2b46e89774ea"},"vehicle_type_id":"4","last_reported":1747206647,"current_range_meters":9600,"station_id":"ce4bhhp2rcd13ifvqfm0","pricing_plan_id":"cebpf4jnsgd1na2vs0mg"},{"bike_id":"054446bf-210e-4292-b624-3606464b59ab","system_id":"levelo_inurba_marseille","lat":43.240715,"lon":5.377649,"is_reserved":false,"is_disabled":false,"rental_uris":{"android":"levelo://app?vid=054446bf-210e-4292-b624-3606464b59ab","ios":"levelo://app?vid=054446bf-210e-4292-b624-3606464b59ab"},"vehicle_type_id":"4","last_reported":1747206647,"current_range_meters":9600,"station_id":"ce4bhnp2rcd13ifvqgvg","pricing_plan_id":"cebpf4jnsgd1na2vs0mg"},{"bike_id":"a1065979-6c4d-49d2-a406-7b539c5cffbd","system_id":"levelo_inurba_marseille","lat":43.321062,"lon":5.367737,"is_reserved":false,"is_disabled":false,"rental_uris":{"android":"levelo://app?vid=a1065979-6c4d-49d2-a406-7b539c5cffbd","ios":"levelo://app?vid=a1065979-6c4d-49d2-a406-7b539c5cffbd"},"vehicle_type_id":"4","last_reported":1747206647,"current_range_meters":9600,"station_id":"ce4bhrh2rcd13ifvqhug","pricing_plan_id":"cebpf4jnsgd1na2vs0mg"},{"bike_id":"c02543be-8f58-4976-bc39-0ca876bf2e14","system_id":"levelo_inurba_marseille","lat":43.27681,"lon":5.38865,"is_reserved":false,"is_disabled":false,"rental_uris":{"android":"levelo://app?vid=c02543be-8f58-4976-bc39-0ca876bf2e14","ios":"levelo://app?vid=c02543be-8f58-4976-bc39-0ca876bf2e14"},"vehicle_type_id":"4","last_reported":1747206647,"current_range_meters":10000,"station_id":"ce4bhi12rcd13ifvqfo0","pricing_plan_id":"cebpf4jnsgd1na2vs0mg"},{"bike_id":"3e1f9958-030a-417b-9c1c-5a4380fe872b","system_id":"levelo_inurba_marseille","lat":43.24082,"lon":5.37743,"is_reserved":false,"is_disabled":false,"rental_uris":{"android":"levelo://app?vid=3e1f9958-030a-417b-9c1c-5a4380fe872b","ios":"levelo://app?vid=3e1f9958-030a-417b-9c1c-5a4380fe872b"},"vehicle_type_id":"4","last_reported":1747206647,"current_range_meters":10000,"station_id":"ce4bhnp2rcd13ifvqgvg","pricing_plan_id":"cebpf4jnsgd1na2vs0mg"},{"bike_id":"c6462f78-49f9-495d-a3fd-2afe139b99f8","system_id":"levelo_inurba_marseille","lat":43.24069,"lon":5.37766,"is_reserved":false,"is_disabled":false,"rental_uris":{"android":"levelo://app?vid=c6462f78-49f9-495d-a3fd-2afe139b99f8","ios":"levelo://app?vid=c6462f78-49f9-495d-a3fd-2afe139b99f8"},"vehicle_type_id":"4","last_reported":1747206647,"current_range_meters":10000,"station_id":"ce4bhnp2rcd13ifvqgvg","pricing_plan_id":"cebpf4jnsgd1na2vs0mg"},{"bike_id":"7b8207a0-bd11-48b9-9bbc-3edee66b010a","system_id":"levelo_inurba_marseille","lat":43.287,"lon":5.399778,"is_reserved":false,"is_disabled":false,"rental_uris":{"android":"levelo://app?vid=7b8207a0-bd11-48b9-9bbc-3edee66b010a","ios":"levelo://app?vid=7b8207a0-bd11-48b9-9bbc-3edee66b010a"},"vehicle_type_id":"4","last_reported":1747206647,"current_range_meters":10000,"station_id":"ce4bho92rcd13ifvqh3g","pricing_plan_id":"cebpf4jnsgd1na2vs0mg"},{"bike_id":"d559a899-b1bd-4a71-a12e-4458bcd0cdbf","system_id":"levelo_inurba_marseille","lat":43.230451,"lon":5.354959,"is_reserved":false,"is_disabled":false,"rental_uris":{"android":"levelo://app?vid=d559a899-b1bd-4a71-a12e-4458bcd0cdbf","ios":"levelo://app?vid=d559a899-b1bd-4a71-a12e-4458bcd0cdbf"},"vehicle_type_id":"4","last_reported":1747206647,"current_range_meters":10000,"station_id":"cpo3342slgdg3j2ifvpg","pricing_plan_id":"cebpf4jnsgd1na2vs0mg"},{"bike_id":"979c69d0-b0e5-455e-8955-ad49b53889d7","system_id":"levelo_inurba_marseille","lat":43.275,"lon":5.42452,"is_reserved":false,"is_disabled":false,"rental_uris":{"android":"levelo://app?vid=979c69d0-b0e5-455e-8955-ad49b53889d7","ios":"levelo://app?vid=979c69d0-b0e5-455e-8955-ad49b53889d7"},"vehicle_type_id":"4","last_reported":1747206647,"current_range_meters":10800,"station_id":"ce4bhn92rcd13ifvqgrg","pricing_plan_id":"cebpf4jnsgd1na2vs0mg"},{"bike_id":"6e43ed00-c8f2-48e4-ac42-601bc2e40964","system_id":"levelo_inurba_marseille","lat":43.24076,"lon":5.37759,"is_reserved":false,"is_disabled":false,"rental_uris":{"android":"levelo://app?vid=6e43ed00-c8f2-48e4-ac42-601bc2e40964","ios":"levelo://app?vid=6e43ed00-c8f2-48e4-ac42-601bc2e40964"},"vehicle_type_id":"4","last_reported":1747206647,"current_range_meters":10800,"station_id":"ce4bhnp2rcd13ifvqgvg","pricing_plan_id":"cebpf4jnsgd1na2vs0mg"},{"bike_id":"2e43e736-edcd-4d93-a618-dcf7713e40bd","system_id":"levelo_inurba_marseille","lat":43.240723,"lon":5.37751,"is_reserved":false,"is_disabled":false,"rental_uris":{"android":"levelo://app?vid=2e43e736-edcd-4d93-a618-dcf7713e40bd","ios":"levelo://app?vid=2e43e736-edcd-4d93-a618-dcf7713e40bd"},"vehicle_type_id":"4","last_reported":1747206647,"current_range_meters":10800,"station_id":"ce4bhnp2rcd13ifvqgvg","pricing_plan_id":"cebpf4jnsgd1na2vs0mg"},{"bike_id":"4821750a-72fd-4a71-957e-987850a371e2","system_id":"levelo_inurba_marseille","lat":43.301315,"lon":5.476493,"is_reserved":false,"is_disabled":false,"rental_uris":{"android":"levelo://app?vid=4821750a-72fd-4a71-957e-987850a371e2","ios":"levelo://app?vid=4821750a-72fd-4a71-957e-987850a371e2"},"vehicle_type_id":"4","last_reported":1747206647,"current_range_meters":11200,"station_id":"","pricing_plan_id":"cebpf4jnsgd1na2vs0mg"},{"bike_id":"2d9c08c0-bf40-45c9-b1a8-d15c183a79bf","system_id":"levelo_inurba_marseille","lat":43.2417,"lon":5.39728,"is_reserved":false,"is_disabled":false,"rental_uris":{"android":"levelo://app?vid=2d9c08c0-bf40-45c9-b1a8-d15c183a79bf","ios":"levelo://app?vid=2d9c08c0-bf40-45c9-b1a8-d15c183a79bf"},"vehicle_type_id":"4","last_reported":1747206647,"current_range_meters":11200,"station_id":"ce4bhn12rcd13ifvqgpg","pricing_plan_id":"cebpf4jnsgd1na2vs0mg"},{"bike_id":"80e2ea7f-511c-4555-b6e4-0b32fa4ec3f0","system_id":"levelo_inurba_marseille","lat":43.30532,"lon":5.36551,"is_reserved":false,"is_disabled":false,"rental_uris":{"android":"levelo://app?vid=80e2ea7f-511c-4555-b6e4-0b32fa4ec3f0","ios":"levelo://app?vid=80e2ea7f-511c-4555-b6e4-0b32fa4ec3f0"},"vehicle_type_id":"4","last_reported":1747206647,"current_range_meters":11600,"station_id":"ce4bgs12rcd13ifvqcag","pricing_plan_id":"cebpf4jnsgd1na2vs0mg"},{"bike_id":"46cf62cd-1ef6-43ec-a6ee-8b5c28460002","system_id":"levelo_inurba_marseille","lat":43.24671,"lon":5.38162,"is_reserved":false,"is_disabled":false,"rental_uris":{"android":"levelo://app?vid=46cf62cd-1ef6-43ec-a6ee-8b5c28460002","ios":"levelo://app?vid=46cf62cd-1ef6-43ec-a6ee-8b5c28460002"},"vehicle_type_id":"4","last_reported":1747206647,"current_range_meters":11600,"station_id":"ce4bhih2rcd13ifvqfr0","pricing_plan_id":"cebpf4jnsgd1na2vs0mg"},{"bike_id":"ab6e94c4-ca4d-4e20-b6c7-db581927b295","system_id":"levelo_inurba_marseille","lat":43.32338,"lon":5.40618,"is_reserved":false,"is_disabled":false,"rental_uris":{"android":"levelo://app?vid=ab6e94c4-ca4d-4e20-b6c7-db581927b295","ios":"levelo://app?vid=ab6e94c4-ca4d-4e20-b6c7-db581927b295"},"vehicle_type_id":"4","last_reported":1747206647,"current_range_meters":11600,"station_id":"ce4bhq92rcd13ifvqhjg","pricing_plan_id":"cebpf4jnsgd1na2vs0mg"},{"bike_id":"5c8b9c5b-5c2a-483e-865d-ae36047d40b5","system_id":"levelo_inurba_marseille","lat":43.300069,"lon":5.476376,"is_reserved":false,"is_disabled":false,"rental_uris":{"android":"levelo://app?vid=5c8b9c5b-5c2a-483e-865d-ae36047d40b5","ios":"levelo://app?vid=5c8b9c5b-5c2a-483e-865d-ae36047d40b5"},"vehicle_type_id":"4","last_reported":1747206647,"current_range_meters":12000,"station_id":"","pricing_plan_id":"cebpf4jnsgd1na2vs0mg"},{"bike_id":"940b3909-b6f0-4f89-adfd-175725c0aab3","system_id":"levelo_inurba_marseille","lat":43.25937,"lon":5.40899,"is_reserved":false,"is_disabled":false,"rental_uris":{"android":"levelo://app?vid=940b3909-b6f0-4f89-adfd-175725c0aab3","ios":"levelo://app?vid=940b3909-b6f0-4f89-adfd-175725c0aab3"},"vehicle_type_id":"4","last_reported":1747206647,"current_range_meters":12000,"station_id":"ce4bhm92rcd13ifvqglg","pricing_plan_id":"cebpf4jnsgd1na2vs0mg"},{"bike_id":"df677f49-53b7-4097-ab77-6e24d1bf0519","system_id":"levelo_inurba_marseille","lat":43.24173,"lon":5.39726,"is_reserved":false,"is_disabled":false,"rental_uris":{"android":"levelo://app?vid=df677f49-53b7-4097-ab77-6e24d1bf0519","ios":"levelo://app?vid=df677f49-53b7-4097-ab77-6e24d1bf0519"},"vehicle_type_id":"4","last_reported":1747206647,"current_range_meters":12000,"station_id":"ce4bhn12rcd13ifvqgpg","pricing_plan_id":"cebpf4jnsgd1na2vs0mg"},{"bike_id":"bde90a37-2d6b-457f-8bcd-143ff5e24dfb","system_id":"levelo_inurba_marseille","lat":43.34137,"lon":5.40902,"is_reserved":false,"is_disabled":false,"rental_uris":{"android":"levelo://app?vid=bde90a37-2d6b-457f-8bcd-143ff5e24dfb","ios":"levelo://app?vid=bde90a37-2d6b-457f-8bcd-143ff5e24dfb"},"vehicle_type_id":"4","last_reported":1747206647,"current_range_meters":12000,"station_id":"ce4bhqh2rcd13ifvqhlg","pricing_plan_id":"cebpf4jnsgd1na2vs0mg"},{"bike_id":"7395c0f9-eb26-4cbc-9f9b-9c1edf7364f4","system_id":"levelo_inurba_marseille","lat":43.32957,"lon":5.40554,"is_reserved":false,"is_disabled":false,"rental_uris":{"android":"levelo://app?vid=7395c0f9-eb26-4cbc-9f9b-9c1edf7364f4","ios":"levelo://app?vid=7395c0f9-eb26-4cbc-9f9b-9c1edf7364f4"},"vehicle_type_id":"4","last_reported":1747206647,"current_range_meters":12400,"station_id":"","pricing_plan_id":"cebpf4jnsgd1na2vs0mg"},{"bike_id":"f57e6f12-c038-4a7e-8f40-23ed2bed5616","system_id":"levelo_inurba_marseille","lat":43.300011,"lon":5.475924,"is_reserved":false,"is_disabled":false,"rental_uris":{"android":"levelo://app?vid=f57e6f12-c038-4a7e-8f40-23ed2bed5616","ios":"levelo://app?vid=f57e6f12-c038-4a7e-8f40-23ed2bed5616"},"vehicle_type_id":"4","last_reported":1747206647,"current_range_meters":12400,"station_id":"","pricing_plan_id":"cebpf4jnsgd1na2vs0mg"},{"bike_id":"43493fd9-7b95-4912-b7ec-cb4654b49139","system_id":"levelo_inurba_marseille","lat":43.24406,"lon":5.37056,"is_reserved":false,"is_disabled":false,"rental_uris":{"android":"levelo://app?vid=43493fd9-7b95-4912-b7ec-cb4654b49139","ios":"levelo://app?vid=43493fd9-7b95-4912-b7ec-cb4654b49139"},"vehicle_type_id":"4","last_reported":1747206647,"current_range_meters":12400,"station_id":"ce4bhhh2rcd13ifvqfk0","pricing_plan_id":"cebpf4jnsgd1na2vs0mg"},{"bike_id":"e369228c-c097-4437-8116-55287676ee32","system_id":"levelo_inurba_marseille","lat":43.28148,"lon":5.4263,"is_reserved":false,"is_disabled":false,"rental_uris":{"android":"levelo://app?vid=e369228c-c097-4437-8116-55287676ee32","ios":"levelo://app?vid=e369228c-c097-4437-8116-55287676ee32"},"vehicle_type_id":"4","last_reported":1747206647,"current_range_meters":12400,"station_id":"ce4bhnh2rcd13ifvqgug","pricing_plan_id":"cebpf4jnsgd1na2vs0mg"},{"bike_id":"12bff91b-a6a3-4ea6-9522-036de7929875","system_id":"levelo_inurba_marseille","lat":43.24068,"lon":5.37762,"is_reserved":false,"is_disabled":false,"rental_uris":{"android":"levelo://app?vid=12bff91b-a6a3-4ea6-9522-036de7929875","ios":"levelo://app?vid=12bff91b-a6a3-4ea6-9522-036de7929875"},"vehicle_type_id":"4","last_reported":1747206647,"current_range_meters":12400,"station_id":"ce4bhnp2rcd13ifvqgvg","pricing_plan_id":"cebpf4jnsgd1na2vs0mg"},{"bike_id":"301a3a6f-3f8e-4707-9290-d6655e615c25","system_id":"levelo_inurba_marseille","lat":43.317187,"lon":5.42389,"is_reserved":false,"is_disabled":false,"rental_uris":{"android":"levelo://app?vid=301a3a6f-3f8e-4707-9290-d6655e615c25","ios":"levelo://app?vid=301a3a6f-3f8e-4707-9290-d6655e615c25"},"vehicle_type_id":"4","last_reported":1747206647,"current_range_meters":12400,"station_id":"ce4bhp92rcd13ifvqhbg","pricing_plan_id":"cebpf4jnsgd1na2vs0mg"},{"bike_id":"55a82d97-745b-41fd-8dda-f8ea9e4d2f06","system_id":"levelo_inurba_marseille","lat":43.33577,"lon":5.42811,"is_reserved":false,"is_disabled":false,"rental_uris":{"android":"levelo://app?vid=55a82d97-745b-41fd-8dda-f8ea9e4d2f06","ios":"levelo://app?vid=55a82d97-745b-41fd-8dda-f8ea9e4d2f06"},"vehicle_type_id":"4","last_reported":1747206647,"current_range_meters":12800,"station_id":"","pricing_plan_id":"cebpf4jnsgd1na2vs0mg"},{"bike_id":"42cfaabc-d4d4-405c-ab84-52ce3ce3032a","system_id":"levelo_inurba_marseille","lat":43.31724,"lon":5.43621,"is_reserved":false,"is_disabled":false,"rental_uris":{"android":"levelo://app?vid=42cfaabc-d4d4-405c-ab84-52ce3ce3032a","ios":"levelo://app?vid=42cfaabc-d4d4-405c-ab84-52ce3ce3032a"},"vehicle_type_id":"4","last_reported":1747206647,"current_range_meters":12800,"station_id":"","pricing_plan_id":"cebpf4jnsgd1na2vs0mg"},{"bike_id":"60c84a62-1404-431e-800a-ce5301a4ff62","system_id":"levelo_inurba_marseille","lat":43.29928,"lon":5.37485,"is_reserved":false,"is_disabled":false,"rental_uris":{"android":"levelo://app?vid=60c84a62-1404-431e-800a-ce5301a4ff62","ios":"levelo://app?vid=60c84a62-1404-431e-800a-ce5301a4ff62"},"vehicle_type_id":"4","last_reported":1747206647,"current_range_meters":13600,"station_id":"ce4bgjh2rcd13ifvqbg0","pricing_plan_id":"cebpf4jnsgd1na2vs0mg"},{"bike_id":"356eb65b-4211-494a-b4a2-fba28f60c55b","system_id":"levelo_inurba_marseille","lat":43.31261,"lon":5.40152,"is_reserved":false,"is_disabled":false,"rental_uris":{"android":"levelo://app?vid=356eb65b-4211-494a-b4a2-fba28f60c55b","ios":"levelo://app?vid=356eb65b-4211-494a-b4a2-fba28f60c55b"},"vehicle_type_id":"4","last_reported":1747206647,"current_range_meters":14000,"station_id":"ce4bh092rcd13ifvqd30","pricing_plan_id":"cebpf4jnsgd1na2vs0mg"},{"bike_id":"df6ae9e5-49bf-4a9a-94d3-2e740ae73492","system_id":"levelo_inurba_marseille","lat":43.24075,"lon":5.37757,"is_reserved":false,"is_disabled":false,"rental_uris":{"android":"levelo://app?vid=df6ae9e5-49bf-4a9a-94d3-2e740ae73492","ios":"levelo://app?vid=df6ae9e5-49bf-4a9a-94d3-2e740ae73492"},"vehicle_type_id":"4","last_reported":1747206647,"current_range_meters":14000,"station_id":"ce4bhnp2rcd13ifvqgvg","pricing_plan_id":"cebpf4jnsgd1na2vs0mg"},{"bike_id":"9b0e9951-368f-4106-a854-dbb4c65ad257","system_id":"levelo_inurba_marseille","lat":43.31883,"lon":5.40731,"is_reserved":false,"is_disabled":false,"rental_uris":{"android":"levelo://app?vid=9b0e9951-368f-4106-a854-dbb4c65ad257","ios":"levelo://app?vid=9b0e9951-368f-4106-a854-dbb4c65ad257"},"vehicle_type_id":"4","last_reported":1747206647,"current_range_meters":14000,"station_id":"ce4bhq12rcd13ifvqhig","pricing_plan_id":"cebpf4jnsgd1na2vs0mg"},{"bike_id":"1e297e0e-a907-489c-9a22-1dfb89bfb64f","system_id":"levelo_inurba_marseille","lat":43.292542,"lon":5.364341,"is_reserved":false,"is_disabled":false,"rental_uris":{"android":"levelo://app?vid=1e297e0e-a907-489c-9a22-1dfb89bfb64f","ios":"levelo://app?vid=1e297e0e-a907-489c-9a22-1dfb89bfb64f"},"vehicle_type_id":"4","last_reported":1747206647,"current_range_meters":14400,"station_id":"","pricing_plan_id":"cebpf4jnsgd1na2vs0mg"},{"bike_id":"0c893fb7-8626-4706-85bf-f404b871dea5","system_id":"levelo_inurba_marseille","lat":43.281163,"lon":5.446026,"is_reserved":false,"is_disabled":false,"rental_uris":{"android":"levelo://app?vid=0c893fb7-8626-4706-85bf-f404b871dea5","ios":"levelo://app?vid=0c893fb7-8626-4706-85bf-f404b871dea5"},"vehicle_type_id":"4","last_reported":1747206647,"current_range_meters":14400,"station_id":"","pricing_plan_id":"cebpf4jnsgd1na2vs0mg"},{"bike_id":"62c9167f-50f3-44fa-92a0-f2084407125b","system_id":"levelo_inurba_marseille","lat":43.31354,"lon":5.36705,"is_reserved":false,"is_disabled":false,"rental_uris":{"android":"levelo://app?vid=62c9167f-50f3-44fa-92a0-f2084407125b","ios":"levelo://app?vid=62c9167f-50f3-44fa-92a0-f2084407125b"},"vehicle_type_id":"4","last_reported":1747206647,"current_range_meters":14400,"station_id":"ce4bgr92rcd13ifvqc6g","pricing_plan_id":"cebpf4jnsgd1na2vs0mg"},{"bike_id":"b0046931-c1fd-4b5b-be81-ef7875d23321","system_id":"levelo_inurba_marseille","lat":43.30555,"lon":5.36529,"is_reserved":false,"is_disabled":false,"rental_uris":{"android":"levelo://app?vid=b0046931-c1fd-4b5b-be81-ef7875d23321","ios":"levelo://app?vid=b0046931-c1fd-4b5b-be81-ef7875d23321"},"vehicle_type_id":"4","last_reported":1747206647,"current_range_meters":14400,"station_id":"ce4bgs12rcd13ifvqcag","pricing_plan_id":"cebpf4jnsgd1na2vs0mg"},{"bike_id":"1dffea47-932b-472d-a926-7c8a262923fb","system_id":"levelo_inurba_marseille","lat":43.25938,"lon":5.40889,"is_reserved":false,"is_disabled":false,"rental_uris":{"android":"levelo://app?vid=1dffea47-932b-472d-a926-7c8a262923fb","ios":"levelo://app?vid=1dffea47-932b-472d-a926-7c8a262923fb"},"vehicle_type_id":"4","last_reported":1747206647,"current_range_meters":14400,"station_id":"ce4bhm92rcd13ifvqglg","pricing_plan_id":"cebpf4jnsgd1na2vs0mg"},{"bike_id":"977d0951-40d5-4b1e-8806-1af2c81bb348","system_id":"levelo_inurba_marseille","lat":43.22935,"lon":5.3538,"is_reserved":false,"is_disabled":false,"rental_uris":{"android":"levelo://app?vid=977d0951-40d5-4b1e-8806-1af2c81bb348","ios":"levelo://app?vid=977d0951-40d5-4b1e-8806-1af2c81bb348"},"vehicle_type_id":"4","last_reported":1747206647,"current_range_meters":15200,"station_id":"cpo3532slgdg3j2ikp40","pricing_plan_id":"cebpf4jnsgd1na2vs0mg"},{"bike_id":"0ee57cd3-b290-46af-a35a-6f306772e452","system_id":"levelo_inurba_marseille","lat":43.30662,"lon":5.40273,"is_reserved":false,"is_disabled":false,"rental_uris":{"android":"levelo://app?vid=0ee57cd3-b290-46af-a35a-6f306772e452","ios":"levelo://app?vid=0ee57cd3-b290-46af-a35a-6f306772e452"},"vehicle_type_id":"4","last_reported":1747206647,"current_range_meters":16000,"station_id":"","pricing_plan_id":"cebpf4jnsgd1na2vs0mg"},{"bike_id":"2c1fdc34-e4b4-4f8a-bc39-aaf37032785d","system_id":"levelo_inurba_marseille","lat":43.30949,"lon":5.39024,"is_reserved":false,"is_disabled":false,"rental_uris":{"android":"levelo://app?vid=2c1fdc34-e4b4-4f8a-bc39-aaf37032785d","ios":"levelo://app?vid=2c1fdc34-e4b4-4f8a-bc39-aaf37032785d"},"vehicle_type_id":"4","last_reported":1747206647,"current_range_meters":16000,"station_id":"ce4bgup2rcd13ifvqco0","pricing_plan_id":"cebpf4jnsgd1na2vs0mg"},{"bike_id":"4a888f2e-03ba-4d13-80d2-8887648be561","system_id":"levelo_inurba_marseille","lat":43.240646,"lon":5.377555,"is_reserved":false,"is_disabled":false,"rental_uris":{"android":"levelo://app?vid=4a888f2e-03ba-4d13-80d2-8887648be561","ios":"levelo://app?vid=4a888f2e-03ba-4d13-80d2-8887648be561"},"vehicle_type_id":"4","last_reported":1747206647,"current_range_meters":16000,"station_id":"ce4bhnp2rcd13ifvqgvg","pricing_plan_id":"cebpf4jnsgd1na2vs0mg"},{"bike_id":"ffe53d02-a538-4c1a-9a5c-588c2097d334","system_id":"levelo_inurba_marseille","lat":43.22949,"lon":5.35371,"is_reserved":false,"is_disabled":false,"rental_uris":{"android":"levelo://app?vid=ffe53d02-a538-4c1a-9a5c-588c2097d334","ios":"levelo://app?vid=ffe53d02-a538-4c1a-9a5c-588c2097d334"},"vehicle_type_id":"4","last_reported":1747206647,"current_range_meters":16000,"station_id":"cpo3532slgdg3j2ikp40","pricing_plan_id":"cebpf4jnsgd1na2vs0mg"},{"bike_id":"8351836e-b7bd-40b0-b096-00d565b4f770","system_id":"levelo_inurba_marseille","lat":43.24799,"lon":5.37456,"is_reserved":false,"is_disabled":false,"rental_uris":{"android":"levelo://app?vid=8351836e-b7bd-40b0-b096-00d565b4f770","ios":"levelo://app?vid=8351836e-b7bd-40b0-b096-00d565b4f770"},"vehicle_type_id":"4","last_reported":1747206647,"current_range_meters":16400,"station_id":"ce4bhgh2rcd13ifvqfb0","pricing_plan_id":"cebpf4jnsgd1na2vs0mg"},{"bike_id":"a09ad32e-8a3c-4dfa-88b0-0fb80cc0e9ed","system_id":"levelo_inurba_marseille","lat":43.24073,"lon":5.37761,"is_reserved":false,"is_disabled":false,"rental_uris":{"android":"levelo://app?vid=a09ad32e-8a3c-4dfa-88b0-0fb80cc0e9ed","ios":"levelo://app?vid=a09ad32e-8a3c-4dfa-88b0-0fb80cc0e9ed"},"vehicle_type_id":"4","last_reported":1747206647,"current_range_meters":16400,"station_id":"ce4bhnp2rcd13ifvqgvg","pricing_plan_id":"cebpf4jnsgd1na2vs0mg"},{"bike_id":"83af0112-53b4-40e0-996d-ec583d59cf98","system_id":"levelo_inurba_marseille","lat":43.27938,"lon":5.41044,"is_reserved":false,"is_disabled":false,"rental_uris":{"android":"levelo://app?vid=83af0112-53b4-40e0-996d-ec583d59cf98","ios":"levelo://app?vid=83af0112-53b4-40e0-996d-ec583d59cf98"},"vehicle_type_id":"4","last_reported":1747206647,"current_range_meters":16400,"station_id":"ce4bhnp2rcd13ifvqh0g","pricing_plan_id":"cebpf4jnsgd1na2vs0mg"},{"bike_id":"c5a6038e-e242-4c42-a6da-186787771b16","system_id":"levelo_inurba_marseille","lat":43.217579,"lon":5.346048,"is_reserved":false,"is_disabled":false,"rental_uris":{"android":"levelo://app?vid=c5a6038e-e242-4c42-a6da-186787771b16","ios":"levelo://app?vid=c5a6038e-e242-4c42-a6da-186787771b16"},"vehicle_type_id":"4","last_reported":1747206647,"current_range_meters":16400,"station_id":"st_cvj6r9ubvosntc0bgbag","pricing_plan_id":"cebpf4jnsgd1na2vs0mg"},{"bike_id":"8f752f51-5b06-47aa-a622-a5be7e309a6a","system_id":"levelo_inurba_marseille","lat":43.315012,"lon":5.373152,"is_reserved":false,"is_disabled":false,"rental_uris":{"android":"levelo://app?vid=8f752f51-5b06-47aa-a622-a5be7e309a6a","ios":"levelo://app?vid=8f752f51-5b06-47aa-a622-a5be7e309a6a"},"vehicle_type_id":"4","last_reported":1747206647,"current_range_meters":17200,"station_id":"ce4bgt12rcd13ifvqcd0","pricing_plan_id":"cebpf4jnsgd1na2vs0mg"},{"bike_id":"8bf18d0f-cfea-4848-ad1d-69af505e0495","system_id":"levelo_inurba_marseille","lat":43.313587,"lon":5.384859,"is_reserved":false,"is_disabled":false,"rental_uris":{"android":"levelo://app?vid=8bf18d0f-cfea-4848-ad1d-69af505e0495","ios":"levelo://app?vid=8bf18d0f-cfea-4848-ad1d-69af505e0495"},"vehicle_type_id":"4","last_reported":1747206647,"current_range_meters":17200,"station_id":"ce4bgt92rcd13ifvqcf0","pricing_plan_id":"cebpf4jnsgd1na2vs0mg"},{"bike_id":"f20dbe16-2d5d-4031-8093-85d83e38f595","system_id":"levelo_inurba_marseille","lat":43.23154,"lon":5.43703,"is_reserved":false,"is_disabled":false,"rental_uris":{"android":"levelo://app?vid=f20dbe16-2d5d-4031-8093-85d83e38f595","ios":"levelo://app?vid=f20dbe16-2d5d-4031-8093-85d83e38f595"},"vehicle_type_id":"4","last_reported":1747206647,"current_range_meters":17200,"station_id":"ce4bhmp2rcd13ifvqgog","pricing_plan_id":"cebpf4jnsgd1na2vs0mg"},{"bike_id":"c77744cd-dd85-473a-952b-e9873b6afa4f","system_id":"levelo_inurba_marseille","lat":43.33234,"lon":5.40376,"is_reserved":false,"is_disabled":false,"rental_uris":{"android":"levelo://app?vid=c77744cd-dd85-473a-952b-e9873b6afa4f","ios":"levelo://app?vid=c77744cd-dd85-473a-952b-e9873b6afa4f"},"vehicle_type_id":"4","last_reported":1747206647,"current_range_meters":17600,"station_id":"","pricing_plan_id":"cebpf4jnsgd1na2vs0mg"},{"bike_id":"3ce887c3-5e58-4eb9-af7c-6d346f44dac8","system_id":"levelo_inurba_marseille","lat":43.2834,"lon":5.38094,"is_reserved":false,"is_disabled":false,"rental_uris":{"android":"levelo://app?vid=3ce887c3-5e58-4eb9-af7c-6d346f44dac8","ios":"levelo://app?vid=3ce887c3-5e58-4eb9-af7c-6d346f44dac8"},"vehicle_type_id":"4","last_reported":1747206647,"current_range_meters":17600,"station_id":"ce4bh412rcd13ifvqdr0","pricing_plan_id":"cebpf4jnsgd1na2vs0mg"},{"bike_id":"69757105-9188-4d0d-87fa-3cb5b4a9e6c7","system_id":"levelo_inurba_marseille","lat":43.23147,"lon":5.43702,"is_reserved":false,"is_disabled":false,"rental_uris":{"android":"levelo://app?vid=69757105-9188-4d0d-87fa-3cb5b4a9e6c7","ios":"levelo://app?vid=69757105-9188-4d0d-87fa-3cb5b4a9e6c7"},"vehicle_type_id":"4","last_reported":1747206647,"current_range_meters":17600,"station_id":"ce4bhmp2rcd13ifvqgog","pricing_plan_id":"cebpf4jnsgd1na2vs0mg"},{"bike_id":"5b2bf2cc-e79c-4a99-a91f-20d49657d90b","system_id":"levelo_inurba_marseille","lat":43.24165,"lon":5.39738,"is_reserved":false,"is_disabled":false,"rental_uris":{"android":"levelo://app?vid=5b2bf2cc-e79c-4a99-a91f-20d49657d90b","ios":"levelo://app?vid=5b2bf2cc-e79c-4a99-a91f-20d49657d90b"},"vehicle_type_id":"4","last_reported":1747206647,"current_range_meters":17600,"station_id":"ce4bhn12rcd13ifvqgpg","pricing_plan_id":"cebpf4jnsgd1na2vs0mg"},{"bike_id":"3315caf7-376f-4460-bd73-ddce057d5263","system_id":"levelo_inurba_marseille","lat":43.24082,"lon":5.37751,"is_reserved":false,"is_disabled":false,"rental_uris":{"android":"levelo://app?vid=3315caf7-376f-4460-bd73-ddce057d5263","ios":"levelo://app?vid=3315caf7-376f-4460-bd73-ddce057d5263"},"vehicle_type_id":"4","last_reported":1747206647,"current_range_meters":17600,"station_id":"ce4bhnp2rcd13ifvqgvg","pricing_plan_id":"cebpf4jnsgd1na2vs0mg"},{"bike_id":"1bc59beb-28fc-48d7-9840-4cc53fd6fb3a","system_id":"levelo_inurba_marseille","lat":43.336,"lon":5.41025,"is_reserved":false,"is_disabled":false,"rental_uris":{"android":"levelo://app?vid=1bc59beb-28fc-48d7-9840-4cc53fd6fb3a","ios":"levelo://app?vid=1bc59beb-28fc-48d7-9840-4cc53fd6fb3a"},"vehicle_type_id":"4","last_reported":1747206647,"current_range_meters":17600,"station_id":"ce4bhqh2rcd13ifvqhmg","pricing_plan_id":"cebpf4jnsgd1na2vs0mg"},{"bike_id":"b16cff59-9e32-4049-b5bb-488809e787c1","system_id":"levelo_inurba_marseille","lat":43.23194,"lon":5.35553,"is_reserved":false,"is_disabled":false,"rental_uris":{"android":"levelo://app?vid=b16cff59-9e32-4049-b5bb-488809e787c1","ios":"levelo://app?vid=b16cff59-9e32-4049-b5bb-488809e787c1"},"vehicle_type_id":"4","last_reported":1747206647,"current_range_meters":17600,"station_id":"ce4bhu92rcd13ifvqi70","pricing_plan_id":"cebpf4jnsgd1na2vs0mg"},{"bike_id":"5647a91f-31a6-41fb-82bb-83893a94fc73","system_id":"levelo_inurba_marseille","lat":43.21189,"lon":5.35064,"is_reserved":false,"is_disabled":false,"rental_uris":{"android":"levelo://app?vid=5647a91f-31a6-41fb-82bb-83893a94fc73","ios":"levelo://app?vid=5647a91f-31a6-41fb-82bb-83893a94fc73"},"vehicle_type_id":"4","last_reported":1747206647,"current_range_meters":17600,"station_id":"st_cvj6sg6p6f1abm77japg","pricing_plan_id":"cebpf4jnsgd1na2vs0mg"},{"bike_id":"861efec3-4f98-42fd-9e8a-0d73c7bf13e5","system_id":"levelo_inurba_marseille","lat":43.30906,"lon":5.36861,"is_reserved":false,"is_disabled":false,"rental_uris":{"android":"levelo://app?vid=861efec3-4f98-42fd-9e8a-0d73c7bf13e5","ios":"levelo://app?vid=861efec3-4f98-42fd-9e8a-0d73c7bf13e5"},"vehicle_type_id":"4","last_reported":1747206647,"current_range_meters":18000,"station_id":"","pricing_plan_id":"cebpf4jnsgd1na2vs0mg"},{"bike_id":"e30fb7f1-50f4-4c8e-a4d3-c9e8b0698ce2","system_id":"levelo_inurba_marseille","lat":43.31212,"lon":5.36839,"is_reserved":false,"is_disabled":false,"rental_uris":{"android":"levelo://app?vid=e30fb7f1-50f4-4c8e-a4d3-c9e8b0698ce2","ios":"levelo://app?vid=e30fb7f1-50f4-4c8e-a4d3-c9e8b0698ce2"},"vehicle_type_id":"4","last_reported":1747206647,"current_range_meters":18000,"station_id":"ce4bgl92rcd13ifvqbq0","pricing_plan_id":"cebpf4jnsgd1na2vs0mg"},{"bike_id":"e409cd08-b9c4-4d62-aefb-05d029e2c480","system_id":"levelo_inurba_marseille","lat":43.30639,"lon":5.4281,"is_reserved":false,"is_disabled":false,"rental_uris":{"android":"levelo://app?vid=e409cd08-b9c4-4d62-aefb-05d029e2c480","ios":"levelo://app?vid=e409cd08-b9c4-4d62-aefb-05d029e2c480"},"vehicle_type_id":"4","last_reported":1747206647,"current_range_meters":18800,"station_id":"","pricing_plan_id":"cebpf4jnsgd1na2vs0mg"},{"bike_id":"b7c7fc05-04f7-4a31-97bd-f8ebf1d4193e","system_id":"levelo_inurba_marseille","lat":43.291671,"lon":5.371613,"is_reserved":false,"is_disabled":false,"rental_uris":{"android":"levelo://app?vid=b7c7fc05-04f7-4a31-97bd-f8ebf1d4193e","ios":"levelo://app?vid=b7c7fc05-04f7-4a31-97bd-f8ebf1d4193e"},"vehicle_type_id":"4","last_reported":1747206647,"current_range_meters":18800,"station_id":"ce4bha92rcd13ifvqeh0","pricing_plan_id":"cebpf4jnsgd1na2vs0mg"},{"bike_id":"9f8571cc-40dd-4356-8390-0a7ed62e2808","system_id":"levelo_inurba_marseille","lat":43.23155,"lon":5.43717,"is_reserved":false,"is_disabled":false,"rental_uris":{"android":"levelo://app?vid=9f8571cc-40dd-4356-8390-0a7ed62e2808","ios":"levelo://app?vid=9f8571cc-40dd-4356-8390-0a7ed62e2808"},"vehicle_type_id":"4","last_reported":1747206647,"current_range_meters":18800,"station_id":"ce4bhmp2rcd13ifvqgog","pricing_plan_id":"cebpf4jnsgd1na2vs0mg"},{"bike_id":"000c0b13-a9a2-4019-bac1-98362dbbca8f","system_id":"levelo_inurba_marseille","lat":43.24086,"lon":5.37757,"is_reserved":false,"is_disabled":false,"rental_uris":{"android":"levelo://app?vid=000c0b13-a9a2-4019-bac1-98362dbbca8f","ios":"levelo://app?vid=000c0b13-a9a2-4019-bac1-98362dbbca8f"},"vehicle_type_id":"4","last_reported":1747206647,"current_range_meters":18800,"station_id":"ce4bhnp2rcd13ifvqgvg","pricing_plan_id":"cebpf4jnsgd1na2vs0mg"},{"bike_id":"57b5fc33-81ba-4ed9-9686-445995c12d89","system_id":"levelo_inurba_marseille","lat":43.34136,"lon":5.40888,"is_reserved":false,"is_disabled":false,"rental_uris":{"android":"levelo://app?vid=57b5fc33-81ba-4ed9-9686-445995c12d89","ios":"levelo://app?vid=57b5fc33-81ba-4ed9-9686-445995c12d89"},"vehicle_type_id":"4","last_reported":1747206647,"current_range_meters":18800,"station_id":"ce4bhqh2rcd13ifvqhlg","pricing_plan_id":"cebpf4jnsgd1na2vs0mg"},{"bike_id":"ac0112c9-313e-422c-910b-a3523b05b0c9","system_id":"levelo_inurba_marseille","lat":43.23047,"lon":5.35487,"is_reserved":false,"is_disabled":false,"rental_uris":{"android":"levelo://app?vid=ac0112c9-313e-422c-910b-a3523b05b0c9","ios":"levelo://app?vid=ac0112c9-313e-422c-910b-a3523b05b0c9"},"vehicle_type_id":"4","last_reported":1747206647,"current_range_meters":18800,"station_id":"cpo3342slgdg3j2ifvpg","pricing_plan_id":"cebpf4jnsgd1na2vs0mg"},{"bike_id":"5d370f72-1749-4f0b-9815-d32525a7fd58","system_id":"levelo_inurba_marseille","lat":43.325307,"lon":5.393713,"is_reserved":false,"is_disabled":false,"rental_uris":{"android":"levelo://app?vid=5d370f72-1749-4f0b-9815-d32525a7fd58","ios":"levelo://app?vid=5d370f72-1749-4f0b-9815-d32525a7fd58"},"vehicle_type_id":"4","last_reported":1747206647,"current_range_meters":19200,"station_id":"","pricing_plan_id":"cebpf4jnsgd1na2vs0mg"},{"bike_id":"fdf5099d-3cb8-4fb5-90c4-f9dcbc7c2a8c","system_id":"levelo_inurba_marseille","lat":43.25937,"lon":5.40901,"is_reserved":false,"is_disabled":false,"rental_uris":{"android":"levelo://app?vid=fdf5099d-3cb8-4fb5-90c4-f9dcbc7c2a8c","ios":"levelo://app?vid=fdf5099d-3cb8-4fb5-90c4-f9dcbc7c2a8c"},"vehicle_type_id":"4","last_reported":1747206647,"current_range_meters":19200,"station_id":"ce4bhm92rcd13ifvqglg","pricing_plan_id":"cebpf4jnsgd1na2vs0mg"},{"bike_id":"644511a3-94a8-4d9e-a99e-a8a4681f0634","system_id":"levelo_inurba_marseille","lat":43.241712,"lon":5.397401,"is_reserved":false,"is_disabled":false,"rental_uris":{"android":"levelo://app?vid=644511a3-94a8-4d9e-a99e-a8a4681f0634","ios":"levelo://app?vid=644511a3-94a8-4d9e-a99e-a8a4681f0634"},"vehicle_type_id":"4","last_reported":1747206647,"current_range_meters":19200,"station_id":"ce4bhn12rcd13ifvqgpg","pricing_plan_id":"cebpf4jnsgd1na2vs0mg"},{"bike_id":"118621ce-88da-4567-910c-12f06357351d","system_id":"levelo_inurba_marseille","lat":43.31349,"lon":5.36706,"is_reserved":false,"is_disabled":false,"rental_uris":{"android":"levelo://app?vid=118621ce-88da-4567-910c-12f06357351d","ios":"levelo://app?vid=118621ce-88da-4567-910c-12f06357351d"},"vehicle_type_id":"4","last_reported":1747206647,"current_range_meters":19600,"station_id":"ce4bgr92rcd13ifvqc6g","pricing_plan_id":"cebpf4jnsgd1na2vs0mg"},{"bike_id":"6ff34463-0ff6-4afa-b2a9-f47415177113","system_id":"levelo_inurba_marseille","lat":43.28568,"lon":5.39489,"is_reserved":false,"is_disabled":false,"rental_uris":{"android":"levelo://app?vid=6ff34463-0ff6-4afa-b2a9-f47415177113","ios":"levelo://app?vid=6ff34463-0ff6-4afa-b2a9-f47415177113"},"vehicle_type_id":"4","last_reported":1747206647,"current_range_meters":19600,"station_id":"ce4bh292rcd13ifvqdg0","pricing_plan_id":"cebpf4jnsgd1na2vs0mg"},{"bike_id":"246e44ec-bd5e-42a9-a9da-c7405f6e66ff","system_id":"levelo_inurba_marseille","lat":43.28846,"lon":5.39294,"is_reserved":false,"is_disabled":false,"rental_uris":{"android":"levelo://app?vid=246e44ec-bd5e-42a9-a9da-c7405f6e66ff","ios":"levelo://app?vid=246e44ec-bd5e-42a9-a9da-c7405f6e66ff"},"vehicle_type_id":"4","last_reported":1747206647,"current_range_meters":19600,"station_id":"ce4bh2p2rcd13ifvqdi0","pricing_plan_id":"cebpf4jnsgd1na2vs0mg"},{"bike_id":"5a10247b-c7b6-4dd1-82b4-cced81e287b3","system_id":"levelo_inurba_marseille","lat":43.27207,"lon":5.39169,"is_reserved":false,"is_disabled":false,"rental_uris":{"android":"levelo://app?vid=5a10247b-c7b6-4dd1-82b4-cced81e287b3","ios":"levelo://app?vid=5a10247b-c7b6-4dd1-82b4-cced81e287b3"},"vehicle_type_id":"4","last_reported":1747206647,"current_range_meters":19600,"station_id":"ce4bhhp2rcd13ifvqfm0","pricing_plan_id":"cebpf4jnsgd1na2vs0mg"},{"bike_id":"457b66cf-a660-4412-b1f6-3e48dafef727","system_id":"levelo_inurba_marseille","lat":43.25934,"lon":5.40907,"is_reserved":false,"is_disabled":false,"rental_uris":{"android":"levelo://app?vid=457b66cf-a660-4412-b1f6-3e48dafef727","ios":"levelo://app?vid=457b66cf-a660-4412-b1f6-3e48dafef727"},"vehicle_type_id":"4","last_reported":1747206647,"current_range_meters":19600,"station_id":"ce4bhm92rcd13ifvqglg","pricing_plan_id":"cebpf4jnsgd1na2vs0mg"},{"bike_id":"c785251c-780d-4a50-9ca1-3185167bc6d2","system_id":"levelo_inurba_marseille","lat":43.23154,"lon":5.4371,"is_reserved":false,"is_disabled":false,"rental_uris":{"android":"levelo://app?vid=c785251c-780d-4a50-9ca1-3185167bc6d2","ios":"levelo://app?vid=c785251c-780d-4a50-9ca1-3185167bc6d2"},"vehicle_type_id":"4","last_reported":1747206647,"current_range_meters":19600,"station_id":"ce4bhmp2rcd13ifvqgog","pricing_plan_id":"cebpf4jnsgd1na2vs0mg"},{"bike_id":"b3828433-24fc-4862-9579-5588962ef70b","system_id":"levelo_inurba_marseille","lat":43.24177,"lon":5.39723,"is_reserved":false,"is_disabled":false,"rental_uris":{"android":"levelo://app?vid=b3828433-24fc-4862-9579-5588962ef70b","ios":"levelo://app?vid=b3828433-24fc-4862-9579-5588962ef70b"},"vehicle_type_id":"4","last_reported":1747206647,"current_range_meters":19600,"station_id":"ce4bhn12rcd13ifvqgpg","pricing_plan_id":"cebpf4jnsgd1na2vs0mg"},{"bike_id":"5d179472-fc2b-4285-9319-125eaf9cd086","system_id":"levelo_inurba_marseille","lat":43.32048,"lon":5.41541,"is_reserved":false,"is_disabled":false,"rental_uris":{"android":"levelo://app?vid=5d179472-fc2b-4285-9319-125eaf9cd086","ios":"levelo://app?vid=5d179472-fc2b-4285-9319-125eaf9cd086"},"vehicle_type_id":"4","last_reported":1747206647,"current_range_meters":19600,"station_id":"ce4bhq92rcd13ifvqhkg","pricing_plan_id":"cebpf4jnsgd1na2vs0mg"},{"bike_id":"cd15b410-e5eb-468f-885c-74fdc00b6bb7","system_id":"levelo_inurba_marseille","lat":43.2119,"lon":5.35066,"is_reserved":false,"is_disabled":false,"rental_uris":{"android":"levelo://app?vid=cd15b410-e5eb-468f-885c-74fdc00b6bb7","ios":"levelo://app?vid=cd15b410-e5eb-468f-885c-74fdc00b6bb7"},"vehicle_type_id":"4","last_reported":1747206647,"current_range_meters":19600,"station_id":"st_cvj6sg6p6f1abm77japg","pricing_plan_id":"cebpf4jnsgd1na2vs0mg"},{"bike_id":"75f5ff6c-ebcc-4149-b4a6-92e797104198","system_id":"levelo_inurba_marseille","lat":43.30901,"lon":5.3684,"is_reserved":false,"is_disabled":false,"rental_uris":{"android":"levelo://app?vid=75f5ff6c-ebcc-4149-b4a6-92e797104198","ios":"levelo://app?vid=75f5ff6c-ebcc-4149-b4a6-92e797104198"},"vehicle_type_id":"4","last_reported":1747206647,"current_range_meters":20000,"station_id":"ce4bgn92rcd13ifvqbvg","pricing_plan_id":"cebpf4jnsgd1na2vs0mg"},{"bike_id":"8c32ae4c-85e3-47df-af02-7e8ca739be33","system_id":"levelo_inurba_marseille","lat":43.30538,"lon":5.365405,"is_reserved":false,"is_disabled":false,"rental_uris":{"android":"levelo://app?vid=8c32ae4c-85e3-47df-af02-7e8ca739be33","ios":"levelo://app?vid=8c32ae4c-85e3-47df-af02-7e8ca739be33"},"vehicle_type_id":"4","last_reported":1747206647,"current_range_meters":20000,"station_id":"ce4bgs12rcd13ifvqcag","pricing_plan_id":"cebpf4jnsgd1na2vs0mg"},{"bike_id":"afa755f5-b833-4d05-a3a6-3cd537de82a0","system_id":"levelo_inurba_marseille","lat":43.25708,"lon":5.41083,"is_reserved":false,"is_disabled":false,"rental_uris":{"android":"levelo://app?vid=afa755f5-b833-4d05-a3a6-3cd537de82a0","ios":"levelo://app?vid=afa755f5-b833-4d05-a3a6-3cd537de82a0"},"vehicle_type_id":"4","last_reported":1747206647,"current_range_meters":20000,"station_id":"ce4bhkp2rcd13ifvqgd0","pricing_plan_id":"cebpf4jnsgd1na2vs0mg"},{"bike_id":"63b3b2cf-7c68-4841-b62c-5b9e97830b38","system_id":"levelo_inurba_marseille","lat":43.25938,"lon":5.40897,"is_reserved":false,"is_disabled":false,"rental_uris":{"android":"levelo://app?vid=63b3b2cf-7c68-4841-b62c-5b9e97830b38","ios":"levelo://app?vid=63b3b2cf-7c68-4841-b62c-5b9e97830b38"},"vehicle_type_id":"4","last_reported":1747206647,"current_range_meters":20000,"station_id":"ce4bhm92rcd13ifvqglg","pricing_plan_id":"cebpf4jnsgd1na2vs0mg"},{"bike_id":"ddc157e8-8e33-47e5-8b6e-9ea2b526b9c1","system_id":"levelo_inurba_marseille","lat":43.24061,"lon":5.37732,"is_reserved":false,"is_disabled":false,"rental_uris":{"android":"levelo://app?vid=ddc157e8-8e33-47e5-8b6e-9ea2b526b9c1","ios":"levelo://app?vid=ddc157e8-8e33-47e5-8b6e-9ea2b526b9c1"},"vehicle_type_id":"4","last_reported":1747206647,"current_range_meters":20000,"station_id":"ce4bhnp2rcd13ifvqgvg","pricing_plan_id":"cebpf4jnsgd1na2vs0mg"},{"bike_id":"6ce2464c-231f-40ec-9d8d-d13ec4609768","system_id":"levelo_inurba_marseille","lat":43.24077,"lon":5.37759,"is_reserved":false,"is_disabled":false,"rental_uris":{"android":"levelo://app?vid=6ce2464c-231f-40ec-9d8d-d13ec4609768","ios":"levelo://app?vid=6ce2464c-231f-40ec-9d8d-d13ec4609768"},"vehicle_type_id":"4","last_reported":1747206647,"current_range_meters":20000,"station_id":"ce4bhnp2rcd13ifvqgvg","pricing_plan_id":"cebpf4jnsgd1na2vs0mg"},{"bike_id":"50313156-ab91-4130-9e30-4c1b7c1c6d35","system_id":"levelo_inurba_marseille","lat":43.33606,"lon":5.41028,"is_reserved":false,"is_disabled":false,"rental_uris":{"android":"levelo://app?vid=50313156-ab91-4130-9e30-4c1b7c1c6d35","ios":"levelo://app?vid=50313156-ab91-4130-9e30-4c1b7c1c6d35"},"vehicle_type_id":"4","last_reported":1747206647,"current_range_meters":20000,"station_id":"ce4bhqh2rcd13ifvqhmg","pricing_plan_id":"cebpf4jnsgd1na2vs0mg"},{"bike_id":"f5f0b93d-da4e-4e32-ba28-d256659e6915","system_id":"levelo_inurba_marseille","lat":43.32542,"lon":5.41523,"is_reserved":false,"is_disabled":false,"rental_uris":{"android":"levelo://app?vid=f5f0b93d-da4e-4e32-ba28-d256659e6915","ios":"levelo://app?vid=f5f0b93d-da4e-4e32-ba28-d256659e6915"},"vehicle_type_id":"4","last_reported":1747206647,"current_range_meters":20400,"station_id":"","pricing_plan_id":"cebpf4jnsgd1na2vs0mg"},{"bike_id":"a92bc8df-c1a7-427b-adae-d77b61ba3cfa","system_id":"levelo_inurba_marseille","lat":43.24803,"lon":5.37452,"is_reserved":false,"is_disabled":false,"rental_uris":{"android":"levelo://app?vid=a92bc8df-c1a7-427b-adae-d77b61ba3cfa","ios":"levelo://app?vid=a92bc8df-c1a7-427b-adae-d77b61ba3cfa"},"vehicle_type_id":"4","last_reported":1747206647,"current_range_meters":20400,"station_id":"ce4bhgh2rcd13ifvqfb0","pricing_plan_id":"cebpf4jnsgd1na2vs0mg"},{"bike_id":"1a2ceb73-e2f9-4677-9d13-a443689f2a74","system_id":"levelo_inurba_marseille","lat":43.24803,"lon":5.37452,"is_reserved":false,"is_disabled":false,"rental_uris":{"android":"levelo://app?vid=1a2ceb73-e2f9-4677-9d13-a443689f2a74","ios":"levelo://app?vid=1a2ceb73-e2f9-4677-9d13-a443689f2a74"},"vehicle_type_id":"4","last_reported":1747206647,"current_range_meters":20400,"station_id":"ce4bhgh2rcd13ifvqfb0","pricing_plan_id":"cebpf4jnsgd1na2vs0mg"},{"bike_id":"e4c481be-5f45-4f0e-8048-679624364af6","system_id":"levelo_inurba_marseille","lat":43.23151,"lon":5.43703,"is_reserved":false,"is_disabled":false,"rental_uris":{"android":"levelo://app?vid=e4c481be-5f45-4f0e-8048-679624364af6","ios":"levelo://app?vid=e4c481be-5f45-4f0e-8048-679624364af6"},"vehicle_type_id":"4","last_reported":1747206647,"current_range_meters":20400,"station_id":"ce4bhmp2rcd13ifvqgog","pricing_plan_id":"cebpf4jnsgd1na2vs0mg"},{"bike_id":"297a85b0-fa8c-489e-bd98-6fd7f3aae510","system_id":"levelo_inurba_marseille","lat":43.24173,"lon":5.39728,"is_reserved":false,"is_disabled":false,"rental_uris":{"android":"levelo://app?vid=297a85b0-fa8c-489e-bd98-6fd7f3aae510","ios":"levelo://app?vid=297a85b0-fa8c-489e-bd98-6fd7f3aae510"},"vehicle_type_id":"4","last_reported":1747206647,"current_range_meters":20400,"station_id":"ce4bhn12rcd13ifvqgpg","pricing_plan_id":"cebpf4jnsgd1na2vs0mg"},{"bike_id":"94e86d9f-e5ad-4c64-9870-ec4e6a5db585","system_id":"levelo_inurba_marseille","lat":43.33606,"lon":5.41029,"is_reserved":false,"is_disabled":false,"rental_uris":{"android":"levelo://app?vid=94e86d9f-e5ad-4c64-9870-ec4e6a5db585","ios":"levelo://app?vid=94e86d9f-e5ad-4c64-9870-ec4e6a5db585"},"vehicle_type_id":"4","last_reported":1747206647,"current_range_meters":20400,"station_id":"ce4bhqh2rcd13ifvqhmg","pricing_plan_id":"cebpf4jnsgd1na2vs0mg"},{"bike_id":"74e465a6-62f1-45be-9144-40f0ae71c9e6","system_id":"levelo_inurba_marseille","lat":43.323641,"lon":5.367603,"is_reserved":false,"is_disabled":false,"rental_uris":{"android":"levelo://app?vid=74e465a6-62f1-45be-9144-40f0ae71c9e6","ios":"levelo://app?vid=74e465a6-62f1-45be-9144-40f0ae71c9e6"},"vehicle_type_id":"4","last_reported":1747206647,"current_range_meters":20400,"station_id":"ce4bhsh2rcd13ifvqi2g","pricing_plan_id":"cebpf4jnsgd1na2vs0mg"},{"bike_id":"08a93b84-f9e2-4480-b23a-2ee7a592645e","system_id":"levelo_inurba_marseille","lat":43.21747,"lon":5.34608,"is_reserved":false,"is_disabled":false,"rental_uris":{"android":"levelo://app?vid=08a93b84-f9e2-4480-b23a-2ee7a592645e","ios":"levelo://app?vid=08a93b84-f9e2-4480-b23a-2ee7a592645e"},"vehicle_type_id":"4","last_reported":1747206647,"current_range_meters":20400,"station_id":"st_cvj6r9ubvosntc0bgbag","pricing_plan_id":"cebpf4jnsgd1na2vs0mg"},{"bike_id":"64824209-6cba-4c12-875a-1502c403c27a","system_id":"levelo_inurba_marseille","lat":43.211704,"lon":5.350823,"is_reserved":false,"is_disabled":false,"rental_uris":{"android":"levelo://app?vid=64824209-6cba-4c12-875a-1502c403c27a","ios":"levelo://app?vid=64824209-6cba-4c12-875a-1502c403c27a"},"vehicle_type_id":"4","last_reported":1747206647,"current_range_meters":20400,"station_id":"st_cvj6sg6p6f1abm77japg","pricing_plan_id":"cebpf4jnsgd1na2vs0mg"},{"bike_id":"5fc608f3-4fe9-4fec-8844-fcff5dc95419","system_id":"levelo_inurba_marseille","lat":43.295805,"lon":5.367853,"is_reserved":false,"is_disabled":false,"rental_uris":{"android":"levelo://app?vid=5fc608f3-4fe9-4fec-8844-fcff5dc95419","ios":"levelo://app?vid=5fc608f3-4fe9-4fec-8844-fcff5dc95419"},"vehicle_type_id":"4","last_reported":1747206647,"current_range_meters":20800,"station_id":"ce4bgn12rcd13ifvqbt0","pricing_plan_id":"cebpf4jnsgd1na2vs0mg"},{"bike_id":"be5fcfe5-35ec-4805-8b5b-b62d7ace1234","system_id":"levelo_inurba_marseille","lat":43.3089,"lon":5.372,"is_reserved":false,"is_disabled":false,"rental_uris":{"android":"levelo://app?vid=be5fcfe5-35ec-4805-8b5b-b62d7ace1234","ios":"levelo://app?vid=be5fcfe5-35ec-4805-8b5b-b62d7ace1234"},"vehicle_type_id":"4","last_reported":1747206647,"current_range_meters":20800,"station_id":"ce4bguh2rcd13ifvqckg","pricing_plan_id":"cebpf4jnsgd1na2vs0mg"},{"bike_id":"c67a46ee-1e3b-4b84-a7f0-f8f0f133709d","system_id":"levelo_inurba_marseille","lat":43.244566,"lon":5.372272,"is_reserved":false,"is_disabled":false,"rental_uris":{"android":"levelo://app?vid=c67a46ee-1e3b-4b84-a7f0-f8f0f133709d","ios":"levelo://app?vid=c67a46ee-1e3b-4b84-a7f0-f8f0f133709d"},"vehicle_type_id":"4","last_reported":1747206647,"current_range_meters":20800,"station_id":"ce4bhhh2rcd13ifvqfk0","pricing_plan_id":"cebpf4jnsgd1na2vs0mg"},{"bike_id":"21aa3c4a-ebb2-49a1-b3eb-a045dc525ea3","system_id":"levelo_inurba_marseille","lat":43.258251,"lon":5.394221,"is_reserved":false,"is_disabled":false,"rental_uris":{"android":"levelo://app?vid=21aa3c4a-ebb2-49a1-b3eb-a045dc525ea3","ios":"levelo://app?vid=21aa3c4a-ebb2-49a1-b3eb-a045dc525ea3"},"vehicle_type_id":"4","last_reported":1747206647,"current_range_meters":20800,"station_id":"ce4bhip2rcd13ifvqft0","pricing_plan_id":"cebpf4jnsgd1na2vs0mg"},{"bike_id":"e1c5a51e-0706-4dc3-b93e-67d5389c361d","system_id":"levelo_inurba_marseille","lat":43.23152,"lon":5.43704,"is_reserved":false,"is_disabled":false,"rental_uris":{"android":"levelo://app?vid=e1c5a51e-0706-4dc3-b93e-67d5389c361d","ios":"levelo://app?vid=e1c5a51e-0706-4dc3-b93e-67d5389c361d"},"vehicle_type_id":"4","last_reported":1747206647,"current_range_meters":20800,"station_id":"ce4bhmp2rcd13ifvqgog","pricing_plan_id":"cebpf4jnsgd1na2vs0mg"},{"bike_id":"31e180a1-f8c3-4073-b506-124e2e7b7677","system_id":"levelo_inurba_marseille","lat":43.33577,"lon":5.40997,"is_reserved":false,"is_disabled":false,"rental_uris":{"android":"levelo://app?vid=31e180a1-f8c3-4073-b506-124e2e7b7677","ios":"levelo://app?vid=31e180a1-f8c3-4073-b506-124e2e7b7677"},"vehicle_type_id":"4","last_reported":1747206647,"current_range_meters":20800,"station_id":"ce4bhqh2rcd13ifvqhmg","pricing_plan_id":"cebpf4jnsgd1na2vs0mg"},{"bike_id":"61aa1782-49d9-4762-bea1-94c390716a66","system_id":"levelo_inurba_marseille","lat":43.336092,"lon":5.410332,"is_reserved":false,"is_disabled":false,"rental_uris":{"android":"levelo://app?vid=61aa1782-49d9-4762-bea1-94c390716a66","ios":"levelo://app?vid=61aa1782-49d9-4762-bea1-94c390716a66"},"vehicle_type_id":"4","last_reported":1747206647,"current_range_meters":20800,"station_id":"ce4bhqh2rcd13ifvqhmg","pricing_plan_id":"cebpf4jnsgd1na2vs0mg"},{"bike_id":"ca121c84-3763-4c94-a725-484cabd4a1b8","system_id":"levelo_inurba_marseille","lat":43.31228,"lon":5.368455,"is_reserved":false,"is_disabled":false,"rental_uris":{"android":"levelo://app?vid=ca121c84-3763-4c94-a725-484cabd4a1b8","ios":"levelo://app?vid=ca121c84-3763-4c94-a725-484cabd4a1b8"},"vehicle_type_id":"4","last_reported":1747206647,"current_range_meters":21600,"station_id":"ce4bgl92rcd13ifvqbq0","pricing_plan_id":"cebpf4jnsgd1na2vs0mg"},{"bike_id":"13c9dde3-370f-4898-921a-52334846866b","system_id":"levelo_inurba_marseille","lat":43.312208,"lon":5.368563,"is_reserved":false,"is_disabled":false,"rental_uris":{"android":"levelo://app?vid=13c9dde3-370f-4898-921a-52334846866b","ios":"levelo://app?vid=13c9dde3-370f-4898-921a-52334846866b"},"vehicle_type_id":"4","last_reported":1747206647,"current_range_meters":21600,"station_id":"ce4bgl92rcd13ifvqbq0","pricing_plan_id":"cebpf4jnsgd1na2vs0mg"},{"bike_id":"df769b97-0baa-46a8-94d8-2e95cf2e1386","system_id":"levelo_inurba_marseille","lat":43.28478,"lon":5.38424,"is_reserved":false,"is_disabled":false,"rental_uris":{"android":"levelo://app?vid=df769b97-0baa-46a8-94d8-2e95cf2e1386","ios":"levelo://app?vid=df769b97-0baa-46a8-94d8-2e95cf2e1386"},"vehicle_type_id":"4","last_reported":1747206647,"current_range_meters":21600,"station_id":"ce4bh512rcd13ifvqe3g","pricing_plan_id":"cebpf4jnsgd1na2vs0mg"},{"bike_id":"b6960b49-015b-4a25-9ec2-ca7c0eb487d1","system_id":"levelo_inurba_marseille","lat":43.239625,"lon":5.366531,"is_reserved":false,"is_disabled":false,"rental_uris":{"android":"levelo://app?vid=b6960b49-015b-4a25-9ec2-ca7c0eb487d1","ios":"levelo://app?vid=b6960b49-015b-4a25-9ec2-ca7c0eb487d1"},"vehicle_type_id":"4","last_reported":1747206647,"current_range_meters":21600,"station_id":"ce4bhi12rcd13ifvqfp0","pricing_plan_id":"cebpf4jnsgd1na2vs0mg"},{"bike_id":"80bfba84-9e06-451e-b6fe-dcc5a55c6167","system_id":"levelo_inurba_marseille","lat":43.2749,"lon":5.42445,"is_reserved":false,"is_disabled":false,"rental_uris":{"android":"levelo://app?vid=80bfba84-9e06-451e-b6fe-dcc5a55c6167","ios":"levelo://app?vid=80bfba84-9e06-451e-b6fe-dcc5a55c6167"},"vehicle_type_id":"4","last_reported":1747206647,"current_range_meters":21600,"station_id":"ce4bhn92rcd13ifvqgrg","pricing_plan_id":"cebpf4jnsgd1na2vs0mg"},{"bike_id":"71d24be1-ad21-429b-a17c-a6edaaf1532c","system_id":"levelo_inurba_marseille","lat":43.32526,"lon":5.41361,"is_reserved":false,"is_disabled":false,"rental_uris":{"android":"levelo://app?vid=71d24be1-ad21-429b-a17c-a6edaaf1532c","ios":"levelo://app?vid=71d24be1-ad21-429b-a17c-a6edaaf1532c"},"vehicle_type_id":"4","last_reported":1747206647,"current_range_meters":21600,"station_id":"ce4bhq12rcd13ifvqhhg","pricing_plan_id":"cebpf4jnsgd1na2vs0mg"},{"bike_id":"def2aa14-8fea-48c2-9e53-91c1ba85147e","system_id":"levelo_inurba_marseille","lat":43.2416,"lon":5.36378,"is_reserved":false,"is_disabled":false,"rental_uris":{"android":"levelo://app?vid=def2aa14-8fea-48c2-9e53-91c1ba85147e","ios":"levelo://app?vid=def2aa14-8fea-48c2-9e53-91c1ba85147e"},"vehicle_type_id":"4","last_reported":1747206647,"current_range_meters":21600,"station_id":"cpo36qri1sfpv3e86is0","pricing_plan_id":"cebpf4jnsgd1na2vs0mg"},{"bike_id":"8975d198-6f55-44c6-8766-7957d054c5a6","system_id":"levelo_inurba_marseille","lat":43.24997,"lon":5.38928,"is_reserved":false,"is_disabled":false,"rental_uris":{"android":"levelo://app?vid=8975d198-6f55-44c6-8766-7957d054c5a6","ios":"levelo://app?vid=8975d198-6f55-44c6-8766-7957d054c5a6"},"vehicle_type_id":"4","last_reported":1747206647,"current_range_meters":22000,"station_id":"ce4bhgp2rcd13ifvqfd0","pricing_plan_id":"cebpf4jnsgd1na2vs0mg"},{"bike_id":"d631d0cf-a817-41ac-a729-88e833f7c0bc","system_id":"levelo_inurba_marseille","lat":43.26789,"lon":5.39405,"is_reserved":false,"is_disabled":false,"rental_uris":{"android":"levelo://app?vid=d631d0cf-a817-41ac-a729-88e833f7c0bc","ios":"levelo://app?vid=d631d0cf-a817-41ac-a729-88e833f7c0bc"},"vehicle_type_id":"4","last_reported":1747206647,"current_range_meters":22000,"station_id":"ce4bhh12rcd13ifvqfg0","pricing_plan_id":"cebpf4jnsgd1na2vs0mg"},{"bike_id":"9ecd09c7-8045-453d-9540-71ae7bf1302c","system_id":"levelo_inurba_marseille","lat":43.26791,"lon":5.39412,"is_reserved":false,"is_disabled":false,"rental_uris":{"android":"levelo://app?vid=9ecd09c7-8045-453d-9540-71ae7bf1302c","ios":"levelo://app?vid=9ecd09c7-8045-453d-9540-71ae7bf1302c"},"vehicle_type_id":"4","last_reported":1747206647,"current_range_meters":22000,"station_id":"ce4bhh12rcd13ifvqfg0","pricing_plan_id":"cebpf4jnsgd1na2vs0mg"},{"bike_id":"1939973f-b8bb-4e0a-b4da-05f61fdd1655","system_id":"levelo_inurba_marseille","lat":43.25718,"lon":5.41111,"is_reserved":false,"is_disabled":false,"rental_uris":{"android":"levelo://app?vid=1939973f-b8bb-4e0a-b4da-05f61fdd1655","ios":"levelo://app?vid=1939973f-b8bb-4e0a-b4da-05f61fdd1655"},"vehicle_type_id":"4","last_reported":1747206647,"current_range_meters":22000,"station_id":"ce4bhkp2rcd13ifvqgd0","pricing_plan_id":"cebpf4jnsgd1na2vs0mg"},{"bike_id":"1f5d37ae-4519-4dca-8b90-96ba9c0b0f6d","system_id":"levelo_inurba_marseille","lat":43.32538,"lon":5.41423,"is_reserved":false,"is_disabled":false,"rental_uris":{"android":"levelo://app?vid=1f5d37ae-4519-4dca-8b90-96ba9c0b0f6d","ios":"levelo://app?vid=1f5d37ae-4519-4dca-8b90-96ba9c0b0f6d"},"vehicle_type_id":"4","last_reported":1747206647,"current_range_meters":22000,"station_id":"ce4bhq12rcd13ifvqhhg","pricing_plan_id":"cebpf4jnsgd1na2vs0mg"},{"bike_id":"6ecd8063-24d6-4a83-b93a-58e4daab09ff","system_id":"levelo_inurba_marseille","lat":43.30545,"lon":5.367169,"is_reserved":false,"is_disabled":false,"rental_uris":{"android":"levelo://app?vid=6ecd8063-24d6-4a83-b93a-58e4daab09ff","ios":"levelo://app?vid=6ecd8063-24d6-4a83-b93a-58e4daab09ff"},"vehicle_type_id":"4","last_reported":1747206647,"current_range_meters":22400,"station_id":"ce4bgrp2rcd13ifvqc9g","pricing_plan_id":"cebpf4jnsgd1na2vs0mg"},{"bike_id":"6de159f5-e89f-4406-a17b-ae04b3b93e77","system_id":"levelo_inurba_marseille","lat":43.31687,"lon":5.40467,"is_reserved":false,"is_disabled":false,"rental_uris":{"android":"levelo://app?vid=6de159f5-e89f-4406-a17b-ae04b3b93e77","ios":"levelo://app?vid=6de159f5-e89f-4406-a17b-ae04b3b93e77"},"vehicle_type_id":"4","last_reported":1747206647,"current_range_meters":22400,"station_id":"ce4bh012rcd13ifvqd00","pricing_plan_id":"cebpf4jnsgd1na2vs0mg"},{"bike_id":"a9f201ce-d9e0-4283-abe8-a0cf0d1b4ad4","system_id":"levelo_inurba_marseille","lat":43.24997,"lon":5.38924,"is_reserved":false,"is_disabled":false,"rental_uris":{"android":"levelo://app?vid=a9f201ce-d9e0-4283-abe8-a0cf0d1b4ad4","ios":"levelo://app?vid=a9f201ce-d9e0-4283-abe8-a0cf0d1b4ad4"},"vehicle_type_id":"4","last_reported":1747206647,"current_range_meters":22400,"station_id":"ce4bhgp2rcd13ifvqfd0","pricing_plan_id":"cebpf4jnsgd1na2vs0mg"},{"bike_id":"c166d098-9946-4d9c-9559-20332a8e8495","system_id":"levelo_inurba_marseille","lat":43.26787,"lon":5.39409,"is_reserved":false,"is_disabled":false,"rental_uris":{"android":"levelo://app?vid=c166d098-9946-4d9c-9559-20332a8e8495","ios":"levelo://app?vid=c166d098-9946-4d9c-9559-20332a8e8495"},"vehicle_type_id":"4","last_reported":1747206647,"current_range_meters":22400,"station_id":"ce4bhh12rcd13ifvqfg0","pricing_plan_id":"cebpf4jnsgd1na2vs0mg"},{"bike_id":"f8b1959f-3139-4509-a0d1-93140f737f23","system_id":"levelo_inurba_marseille","lat":43.25932,"lon":5.40906,"is_reserved":false,"is_disabled":false,"rental_uris":{"android":"levelo://app?vid=f8b1959f-3139-4509-a0d1-93140f737f23","ios":"levelo://app?vid=f8b1959f-3139-4509-a0d1-93140f737f23"},"vehicle_type_id":"4","last_reported":1747206647,"current_range_meters":22400,"station_id":"ce4bhm92rcd13ifvqglg","pricing_plan_id":"cebpf4jnsgd1na2vs0mg"},{"bike_id":"47df9c06-7813-4b0f-8d65-2815f595352f","system_id":"levelo_inurba_marseille","lat":43.25939,"lon":5.40899,"is_reserved":false,"is_disabled":false,"rental_uris":{"android":"levelo://app?vid=47df9c06-7813-4b0f-8d65-2815f595352f","ios":"levelo://app?vid=47df9c06-7813-4b0f-8d65-2815f595352f"},"vehicle_type_id":"4","last_reported":1747206647,"current_range_meters":22400,"station_id":"ce4bhm92rcd13ifvqglg","pricing_plan_id":"cebpf4jnsgd1na2vs0mg"},{"bike_id":"356ddd74-2ee4-423c-9d07-29a1e63ee3ec","system_id":"levelo_inurba_marseille","lat":43.27491,"lon":5.4245,"is_reserved":false,"is_disabled":false,"rental_uris":{"android":"levelo://app?vid=356ddd74-2ee4-423c-9d07-29a1e63ee3ec","ios":"levelo://app?vid=356ddd74-2ee4-423c-9d07-29a1e63ee3ec"},"vehicle_type_id":"4","last_reported":1747206647,"current_range_meters":22400,"station_id":"ce4bhn92rcd13ifvqgrg","pricing_plan_id":"cebpf4jnsgd1na2vs0mg"},{"bike_id":"e592421d-b850-41cd-9ad3-d199ccea82fe","system_id":"levelo_inurba_marseille","lat":43.24081,"lon":5.37752,"is_reserved":false,"is_disabled":false,"rental_uris":{"android":"levelo://app?vid=e592421d-b850-41cd-9ad3-d199ccea82fe","ios":"levelo://app?vid=e592421d-b850-41cd-9ad3-d199ccea82fe"},"vehicle_type_id":"4","last_reported":1747206647,"current_range_meters":22400,"station_id":"ce4bhnp2rcd13ifvqgvg","pricing_plan_id":"cebpf4jnsgd1na2vs0mg"},{"bike_id":"0b9ce976-5b7e-4ea7-b277-1de60cc79cd4","system_id":"levelo_inurba_marseille","lat":43.311059,"lon":5.424301,"is_reserved":false,"is_disabled":false,"rental_uris":{"android":"levelo://app?vid=0b9ce976-5b7e-4ea7-b277-1de60cc79cd4","ios":"levelo://app?vid=0b9ce976-5b7e-4ea7-b277-1de60cc79cd4"},"vehicle_type_id":"4","last_reported":1747206647,"current_range_meters":22400,"station_id":"ce4bhp92rcd13ifvqhag","pricing_plan_id":"cebpf4jnsgd1na2vs0mg"},{"bike_id":"fc4a2a91-2090-42e4-827a-8953545bc346","system_id":"levelo_inurba_marseille","lat":43.22926,"lon":5.3538,"is_reserved":false,"is_disabled":false,"rental_uris":{"android":"levelo://app?vid=fc4a2a91-2090-42e4-827a-8953545bc346","ios":"levelo://app?vid=fc4a2a91-2090-42e4-827a-8953545bc346"},"vehicle_type_id":"4","last_reported":1747206647,"current_range_meters":22400,"station_id":"cpo3532slgdg3j2ikp40","pricing_plan_id":"cebpf4jnsgd1na2vs0mg"},{"bike_id":"9a402898-f116-408b-8709-c62dd77d2b5d","system_id":"levelo_inurba_marseille","lat":43.29372,"lon":5.42816,"is_reserved":false,"is_disabled":false,"rental_uris":{"android":"levelo://app?vid=9a402898-f116-408b-8709-c62dd77d2b5d","ios":"levelo://app?vid=9a402898-f116-408b-8709-c62dd77d2b5d"},"vehicle_type_id":"4","last_reported":1747206647,"current_range_meters":22800,"station_id":"","pricing_plan_id":"cebpf4jnsgd1na2vs0mg"},{"bike_id":"433c1201-71d8-44e3-9781-f6d31fb00b68","system_id":"levelo_inurba_marseille","lat":43.31083,"lon":5.36967,"is_reserved":false,"is_disabled":false,"rental_uris":{"android":"levelo://app?vid=433c1201-71d8-44e3-9781-f6d31fb00b68","ios":"levelo://app?vid=433c1201-71d8-44e3-9781-f6d31fb00b68"},"vehicle_type_id":"4","last_reported":1747206647,"current_range_meters":22800,"station_id":"","pricing_plan_id":"cebpf4jnsgd1na2vs0mg"},{"bike_id":"a9d31fe0-2508-42cc-8e0b-6f6a14799b08","system_id":"levelo_inurba_marseille","lat":43.30156,"lon":5.37246,"is_reserved":false,"is_disabled":false,"rental_uris":{"android":"levelo://app?vid=a9d31fe0-2508-42cc-8e0b-6f6a14799b08","ios":"levelo://app?vid=a9d31fe0-2508-42cc-8e0b-6f6a14799b08"},"vehicle_type_id":"4","last_reported":1747206647,"current_range_meters":22800,"station_id":"","pricing_plan_id":"cebpf4jnsgd1na2vs0mg"},