{"last_updated":1762081644,"ttl":60,"version":"2.2","data":{"bikes":[{"bike_id":"421898f5-6c6d-4850-a304-3c0cc5951bee","system_id":"levelo_inurba_marseille","lat":43.28499,"lon":5.42197,"is_reserved":false,"is_disabled":false,"rental_uris":{"android":"levelo://app?vid=421898f5-6c6d-4850-a304-3c0cc5951bee","ios":"levelo://app?vid=421898f5-6c6d-4850-a304-3c0cc5951bee"},"vehicle_type_id":"4","last_reported":1762081644,"current_range_meters":2800,"station_id":"","pricing_plan_id":"cebpf4jnsgd1na2vs0mg"},{"bike_id":"e866eab0-536f-4780-83bd-9243ac25a752","system_id":"levelo_inurba_marseille","lat":43.281275,"lon":5.383277,"is_reserved":false,"is_disabled":false,"rental_uris":{"android":"levelo://app?vid=e866eab0-536f-4780-83bd-9243ac25a752","ios":"levelo://app?vid=e866eab0-536f-4780-83bd-9243ac25a752"},"vehicle_type_id":"4","last_reported":1762081644,"current_range_meters":2800,"station_id":"","pricing_plan_id":"cebpf4jnsgd1na2vs0mg"},{"bike_id":"ad9109f0-a47b-41ab-9a71-455a6b341dfc","system_id":"levelo_inurba_marseille","lat":43.28478,"lon":5.48402,"is_reserved":false,"is_disabled":false,"rental_uris":{"android":"levelo://app?vid=ad9109f0-a47b-41ab-9a71-455a6b341dfc","ios":"levelo://app?vid=ad9109f0-a47b-41ab-9a71-455a6b341dfc"},"vehicle_type_id":"4","last_reported":1762081644,"current_range_meters":3200,"station_id":"st_d3svhcjqgbts73a3dn0g","pricing_plan_id":"cebpf4jnsgd1na2vs0mg"},{"bike_id":"ef52b4f1-c772-49d1-b011-8c4c445ead6a","system_id":"levelo_inurba_marseille","lat":43.30885,"lon":5.39659,"is_reserved":false,"is_disabled":false,"rental_uris":{"android":"levelo://app?vid=ef52b4f1-c772-49d1-b011-8c4c445ead6a","ios":"levelo://app?vid=ef52b4f1-c772-49d1-b011-8c4c445ead6a"},"vehicle_type_id":"4","last_reported":1762081644,"current_range_meters":3200,"station_id":"ce4bh012rcd13ifvqcv0","pricing_plan_id":"cebpf4jnsgd1na2vs0mg"},{"bike_id":"4ae82769-2f9e-4c25-a073-dec417896630","system_id":"levelo_inurba_marseille","lat":43.22571,"lon":5.41652,"is_reserved":false,"is_disabled":false,"rental_uris":{"android":"levelo://app?vid=4ae82769-2f9e-4c25-a073-dec417896630","ios":"levelo://app?vid=4ae82769-2f9e-4c25-a073-dec417896630"},"vehicle_type_id":"4","last_reported":1762081644,"current_range_meters":3200,"station_id":"st_d2o4gvlbi1j2169b742g","pricing_plan_id":"cebpf4jnsgd1na2vs0mg"},{"bike_id":"77a4689c-d0b7-4a84-886b-54e5d2a55151","system_id":"levelo_inurba_marseille","lat":43.29095,"lon":5.3813,"is_reserved":false,"is_disabled":false,"rental_uris":{"android":"levelo://app?vid=77a4689c-d0b7-4a84-886b-54e5d2a55151","ios":"levelo://app?vid=77a4689c-d0b7-4a84-886b-54e5d2a55151"},"vehicle_type_id":"4","last_reported":1762081644,"current_range_meters":3600,"station_id":"ce4bh512rcd13ifvqe2g","pricing_plan_id":"cebpf4jnsgd1na2vs0mg"},{"bike_id":"583aeea9-9fee-436f-b17c-0b6fd804ae51","system_id":"levelo_inurba_marseille","lat":43.2378,"lon":5.36633,"is_reserved":false,"is_disabled":false,"rental_uris":{"android":"levelo://app?vid=583aeea9-9fee-436f-b17c-0b6fd804ae51","ios":"levelo://app?vid=583aeea9-9fee-436f-b17c-0b6fd804ae51"},"vehicle_type_id":"4","last_reported":1762081644,"current_range_meters":3600,"station_id":"st_d3nk18o9ro0c73en2l3g","pricing_plan_id":"cebpf4jnsgd1na2vs0mg"},{"bike_id":"e1196ee9-9c25-4674-a5fe-d3b7ddaa8e88","system_id":"levelo_inurba_marseille","lat":43.2257,"lon":5.41655,"is_reserved":false,"is_disabled":false,"rental_uris":{"android":"levelo://app?vid=e1196ee9-9c25-4674-a5fe-d3b7ddaa8e88","ios":"levelo://app?vid=e1196ee9-9c25-4674-a5fe-d3b7ddaa8e88"},"vehicle_type_id":"4","last_reported":1762081644,"current_range_meters":4000,"station_id":"st_d2o4gvlbi1j2169b742g","pricing_plan_id":"cebpf4jnsgd1na2vs0mg"},{"bike_id":"235b9c4f-2f42-4a3b-889d-f430bcc2d5e1","system_id":"levelo_inurba_marseille","lat":43.29064,"lon":5.37162,"is_reserved":false,"is_disabled":false,"rental_uris":{"android":"levelo://app?vid=235b9c4f-2f42-4a3b-889d-f430bcc2d5e1","ios":"levelo://app?vid=235b9c4f-2f42-4a3b-889d-f430bcc2d5e1"},"vehicle_type_id":"4","last_reported":1762081644,"current_range_meters":4000,"station_id":"ce4bh5p2rcd13ifvqe4g","pricing_plan_id":"cebpf4jnsgd1na2vs0mg"},{"bike_id":"c5c62ca3-6f2a-47ce-9c49-97c2dc098855","system_id":"levelo_inurba_marseille","lat":43.28394,"lon":5.375133,"is_reserved":false,"is_disabled":false,"rental_uris":{"android":"levelo://app?vid=c5c62ca3-6f2a-47ce-9c49-97c2dc098855","ios":"levelo://app?vid=c5c62ca3-6f2a-47ce-9c49-97c2dc098855"},"vehicle_type_id":"4","last_reported":1762081644,"current_range_meters":4400,"station_id":"ce4bhbh2rcd13ifvqeqg","pricing_plan_id":"cebpf4jnsgd1na2vs0mg"},{"bike_id":"c16ca171-3e5e-49d0-a567-1645c2374376","system_id":"levelo_inurba_marseille","lat":43.30532,"lon":5.36563,"is_reserved":false,"is_disabled":true,"rental_uris":{"android":"levelo://app?vid=c16ca171-3e5e-49d0-a567-1645c2374376","ios":"levelo://app?vid=c16ca171-3e5e-49d0-a567-1645c2374376"},"vehicle_type_id":"4","last_reported":1762081644,"current_range_meters":4400,"station_id":"ce4bgs12rcd13ifvqcag","pricing_plan_id":"cebpf4jnsgd1na2vs0mg"},{"bike_id":"df4d91e2-f5d7-41f4-ae09-8161d06b9d54","system_id":"levelo_inurba_marseille","lat":43.292983,"lon":5.374652,"is_reserved":false,"is_disabled":false,"rental_uris":{"android":"levelo://app?vid=df4d91e2-f5d7-41f4-ae09-8161d06b9d54","ios":"levelo://app?vid=df4d91e2-f5d7-41f4-ae09-8161d06b9d54"},"vehicle_type_id":"4","last_reported":1762081644,"current_range_meters":4400,"station_id":"","pricing_plan_id":"cebpf4jnsgd1na2vs0mg"},{"bike_id":"a4dac4fa-66e6-48be-a654-6e17cdc7ca0b","system_id":"levelo_inurba_marseille","lat":43.337571,"lon":5.374323,"is_reserved":false,"is_disabled":false,"rental_uris":{"android":"levelo://app?vid=a4dac4fa-66e6-48be-a654-6e17cdc7ca0b","ios":"levelo://app?vid=a4dac4fa-66e6-48be-a654-6e17cdc7ca0b"},"vehicle_type_id":"4","last_reported":1762081644,"current_range_meters":4800,"station_id":"","pricing_plan_id":"cebpf4jnsgd1na2vs0mg"},{"bike_id":"8a759722-19f7-4a56-9646-2c26a5e7e25d","system_id":"levelo_inurba_marseille","lat":43.27971,"lon":5.38739,"is_reserved":false,"is_disabled":true,"rental_uris":{"android":"levelo://app?vid=8a759722-19f7-4a56-9646-2c26a5e7e25d","ios":"levelo://app?vid=8a759722-19f7-4a56-9646-2c26a5e7e25d"},"vehicle_type_id":"4","last_reported":1762081644,"current_range_meters":4800,"station_id":"ce4bhg12rcd13ifvqf80","pricing_plan_id":"cebpf4jnsgd1na2vs0mg"},{"bike_id":"c7bf698d-bcf3-43f9-a2fa-3b7a05be67c9","system_id":"levelo_inurba_marseille","lat":43.29975,"lon":5.37175,"is_reserved":false,"is_disabled":false,"rental_uris":{"android":"levelo://app?vid=c7bf698d-bcf3-43f9-a2fa-3b7a05be67c9","ios":"levelo://app?vid=c7bf698d-bcf3-43f9-a2fa-3b7a05be67c9"},"vehicle_type_id":"4","last_reported":1762081644,"current_range_meters":5600,"station_id":"ce4bgr92rcd13ifvqc7g","pricing_plan_id":"cebpf4jnsgd1na2vs0mg"},{"bike_id":"1148e149-c524-4b44-805a-9f1dfa48a003","system_id":"levelo_inurba_marseille","lat":43.288565,"lon":5.358518,"is_reserved":false,"is_disabled":false,"rental_uris":{"android":"levelo://app?vid=1148e149-c524-4b44-805a-9f1dfa48a003","ios":"levelo://app?vid=1148e149-c524-4b44-805a-9f1dfa48a003"},"vehicle_type_id":"4","last_reported":1762081644,"current_range_meters":5600,"station_id":"ce4bhb12rcd13ifvqem0","pricing_plan_id":"cebpf4jnsgd1na2vs0mg"},{"bike_id":"d62a4e30-2a8a-47de-9d7a-fd92f829db09","system_id":"levelo_inurba_marseille","lat":43.29598,"lon":5.36966,"is_reserved":false,"is_disabled":false,"rental_uris":{"android":"levelo://app?vid=d62a4e30-2a8a-47de-9d7a-fd92f829db09","ios":"levelo://app?vid=d62a4e30-2a8a-47de-9d7a-fd92f829db09"},"vehicle_type_id":"4","last_reported":1762081644,"current_range_meters":5600,"station_id":"","pricing_plan_id":"cebpf4jnsgd1na2vs0mg"},{"bike_id":"92bde275-5f3a-4ae1-9acd-3c5de6e83a4d","system_id":"levelo_inurba_marseille","lat":43.28152,"lon":5.42637,"is_reserved":false,"is_disabled":false,"rental_uris":{"android":"levelo://app?vid=92bde275-5f3a-4ae1-9acd-3c5de6e83a4d","ios":"levelo://app?vid=92bde275-5f3a-4ae1-9acd-3c5de6e83a4d"},"vehicle_type_id":"4","last_reported":1762081644,"current_range_meters":6000,"station_id":"ce4bhnh2rcd13ifvqgug","pricing_plan_id":"cebpf4jnsgd1na2vs0mg"},{"bike_id":"27abc7d1-dd85-495f-9415-aa00cef4846e","system_id":"levelo_inurba_marseille","lat":43.27773,"lon":5.39536,"is_reserved":false,"is_disabled":false,"rental_uris":{"android":"levelo://app?vid=27abc7d1-dd85-495f-9415-aa00cef4846e","ios":"levelo://app?vid=27abc7d1-dd85-495f-9415-aa00cef4846e"},"vehicle_type_id":"4","last_reported":1762081644,"current_range_meters":6000,"station_id":"","pricing_plan_id":"cebpf4jnsgd1na2vs0mg"},{"bike_id":"7964de6c-fad0-4fd1-8a21-0815ea287c4c","system_id":"levelo_inurba_marseille","lat":43.28151,"lon":5.42622,"is_reserved":false,"is_disabled":true,"rental_uris":{"android":"levelo://app?vid=7964de6c-fad0-4fd1-8a21-0815ea287c4c","ios":"levelo://app?vid=7964de6c-fad0-4fd1-8a21-0815ea287c4c"},"vehicle_type_id":"4","last_reported":1762081644,"current_range_meters":6400,"station_id":"ce4bhnh2rcd13ifvqgug","pricing_plan_id":"cebpf4jnsgd1na2vs0mg"},{"bike_id":"995c398a-192b-4e7d-923c-0e5720d4a0ab","system_id":"levelo_inurba_marseille","lat":43.21752,"lon":5.34606,"is_reserved":false,"is_disabled":false,"rental_uris":{"android":"levelo://app?vid=995c398a-192b-4e7d-923c-0e5720d4a0ab","ios":"levelo://app?vid=995c398a-192b-4e7d-923c-0e5720d4a0ab"},"vehicle_type_id":"4","last_reported":1762081644,"current_range_meters":6400,"station_id":"st_cvj6r9ubvosntc0bgbag","pricing_plan_id":"cebpf4jnsgd1na2vs0mg"},{"bike_id":"52b117f2-4c01-4f66-887d-006722496528","system_id":"levelo_inurba_marseille","lat":43.30863,"lon":5.37148,"is_reserved":false,"is_disabled":false,"rental_uris":{"android":"levelo://app?vid=52b117f2-4c01-4f66-887d-006722496528","ios":"levelo://app?vid=52b117f2-4c01-4f66-887d-006722496528"},"vehicle_type_id":"4","last_reported":1762081644,"current_range_meters":6400,"station_id":"","pricing_plan_id":"cebpf4jnsgd1na2vs0mg"},{"bike_id":"fca252be-68c3-40cc-92d4-0eb23191f310","system_id":"levelo_inurba_marseille","lat":43.31884,"lon":5.407405,"is_reserved":false,"is_disabled":false,"rental_uris":{"android":"levelo://app?vid=fca252be-68c3-40cc-92d4-0eb23191f310","ios":"levelo://app?vid=fca252be-68c3-40cc-92d4-0eb23191f310"},"vehicle_type_id":"4","last_reported":1762081644,"current_range_meters":6400,"station_id":"ce4bhq12rcd13ifvqhig","pricing_plan_id":"cebpf4jnsgd1na2vs0mg"},{"bike_id":"0d53681a-2462-4979-9106-982e825913ab","system_id":"levelo_inurba_marseille","lat":43.295487,"lon":5.366056,"is_reserved":false,"is_disabled":false,"rental_uris":{"android":"levelo://app?vid=0d53681a-2462-4979-9106-982e825913ab","ios":"levelo://app?vid=0d53681a-2462-4979-9106-982e825913ab"},"vehicle_type_id":"4","last_reported":1762081644,"current_range_meters":6800,"station_id":"","pricing_plan_id":"cebpf4jnsgd1na2vs0mg"},{"bike_id":"dcb5f4d6-a57a-45ea-b185-de3fe952058c","system_id":"levelo_inurba_marseille","lat":43.28094,"lon":5.37828,"is_reserved":false,"is_disabled":true,"rental_uris":{"android":"levelo://app?vid=dcb5f4d6-a57a-45ea-b185-de3fe952058c","ios":"levelo://app?vid=dcb5f4d6-a57a-45ea-b185-de3fe952058c"},"vehicle_type_id":"4","last_reported":1762081644,"current_range_meters":6800,"station_id":"ce4bha12rcd13ifvqee0","pricing_plan_id":"cebpf4jnsgd1na2vs0mg"},{"bike_id":"d06d5f37-8997-45cc-a3ad-19402710b6ae","system_id":"levelo_inurba_marseille","lat":43.29277,"lon":5.40112,"is_reserved":false,"is_disabled":false,"rental_uris":{"android":"levelo://app?vid=d06d5f37-8997-45cc-a3ad-19402710b6ae","ios":"levelo://app?vid=d06d5f37-8997-45cc-a3ad-19402710b6ae"},"vehicle_type_id":"4","last_reported":1762081644,"current_range_meters":6800,"station_id":"ce4bh312rcd13ifvqdk0","pricing_plan_id":"cebpf4jnsgd1na2vs0mg"},{"bike_id":"e2c17d9c-3bb4-4673-8c70-02ddf7c3b245","system_id":"levelo_inurba_marseille","lat":43.29899,"lon":5.3973,"is_reserved":false,"is_disabled":false,"rental_uris":{"android":"levelo://app?vid=e2c17d9c-3bb4-4673-8c70-02ddf7c3b245","ios":"levelo://app?vid=e2c17d9c-3bb4-4673-8c70-02ddf7c3b245"},"vehicle_type_id":"4","last_reported":1762081644,"current_range_meters":6800,"station_id":"ce4bh0h2rcd13ifvqd50","pricing_plan_id":"cebpf4jnsgd1na2vs0mg"},{"bike_id":"fe211fee-df04-4312-bc0a-d625bf6086ab","system_id":"levelo_inurba_marseille","lat":43.29159,"lon":5.403,"is_reserved":false,"is_disabled":true,"rental_uris":{"android":"levelo://app?vid=fe211fee-df04-4312-bc0a-d625bf6086ab","ios":"levelo://app?vid=fe211fee-df04-4312-bc0a-d625bf6086ab"},"vehicle_type_id":"4","last_reported":1762081644,"current_range_meters":7200,"station_id":"","pricing_plan_id":"cebpf4jnsgd1na2vs0mg"},{"bike_id":"b1e81361-2b17-4ef1-8a58-6def5753471b","system_id":"levelo_inurba_marseille","lat":43.33753,"lon":5.37484,"is_reserved":false,"is_disabled":false,"rental_uris":{"android":"levelo://app?vid=b1e81361-2b17-4ef1-8a58-6def5753471b","ios":"levelo://app?vid=b1e81361-2b17-4ef1-8a58-6def5753471b"},"vehicle_type_id":"4","last_reported":1762081644,"current_range_meters":8000,"station_id":"","pricing_plan_id":"cebpf4jnsgd1na2vs0mg"},{"bike_id":"74b15735-564b-4f09-952a-ba8cccb96884","system_id":"levelo_inurba_marseille","lat":43.29828,"lon":5.44063,"is_reserved":false,"is_disabled":false,"rental_uris":{"android":"levelo://app?vid=74b15735-564b-4f09-952a-ba8cccb96884","ios":"levelo://app?vid=74b15735-564b-4f09-952a-ba8cccb96884"},"vehicle_type_id":"4","last_reported":1762081644,"current_range_meters":8000,"station_id":"st_d3jp68qikq2c7381ktn0","pricing_plan_id":"cebpf4jnsgd1na2vs0mg"},{"bike_id":"603f84c7-55e1-4d19-8f37-178ddadc668f","system_id":"levelo_inurba_marseille","lat":43.21189,"lon":5.35081,"is_reserved":false,"is_disabled":false,"rental_uris":{"android":"levelo://app?vid=603f84c7-55e1-4d19-8f37-178ddadc668f","ios":"levelo://app?vid=603f84c7-55e1-4d19-8f37-178ddadc668f"},"vehicle_type_id":"4","last_reported":1762081644,"current_range_meters":8400,"station_id":"","pricing_plan_id":"cebpf4jnsgd1na2vs0mg"},{"bike_id":"1da56141-654f-442c-b20c-6c2bd52c2965","system_id":"levelo_inurba_marseille","lat":43.31253,"lon":5.38176,"is_reserved":false,"is_disabled":true,"rental_uris":{"android":"levelo://app?vid=1da56141-654f-442c-b20c-6c2bd52c2965","ios":"levelo://app?vid=1da56141-654f-442c-b20c-6c2bd52c2965"},"vehicle_type_id":"4","last_reported":1762081644,"current_range_meters":8800,"station_id":"","pricing_plan_id":"cebpf4jnsgd1na2vs0mg"},{"bike_id":"ed890a36-02ef-4914-b497-b0b60f616f2a","system_id":"levelo_inurba_marseille","lat":43.28169,"lon":5.42622,"is_reserved":false,"is_disabled":false,"rental_uris":{"android":"levelo://app?vid=ed890a36-02ef-4914-b497-b0b60f616f2a","ios":"levelo://app?vid=ed890a36-02ef-4914-b497-b0b60f616f2a"},"vehicle_type_id":"4","last_reported":1762081644,"current_range_meters":8800,"station_id":"ce4bhnh2rcd13ifvqgug","pricing_plan_id":"cebpf4jnsgd1na2vs0mg"},{"bike_id":"77cf13d5-5c06-4119-bdad-ad1edf67fc69","system_id":"levelo_inurba_marseille","lat":43.308912,"lon":5.396375,"is_reserved":false,"is_disabled":false,"rental_uris":{"android":"levelo://app?vid=77cf13d5-5c06-4119-bdad-ad1edf67fc69","ios":"levelo://app?vid=77cf13d5-5c06-4119-bdad-ad1edf67fc69"},"vehicle_type_id":"4","last_reported":1762081644,"current_range_meters":8800,"station_id":"ce4bh012rcd13ifvqcv0","pricing_plan_id":"cebpf4jnsgd1na2vs0mg"},{"bike_id":"a8c37853-0b1d-4686-a393-5126f07eea8e","system_id":"levelo_inurba_marseille","lat":43.288147,"lon":5.391652,"is_reserved":false,"is_disabled":false,"rental_uris":{"android":"levelo://app?vid=a8c37853-0b1d-4686-a393-5126f07eea8e","ios":"levelo://app?vid=a8c37853-0b1d-4686-a393-5126f07eea8e"},"vehicle_type_id":"4","last_reported":1762081644,"current_range_meters":8800,"station_id":"","pricing_plan_id":"cebpf4jnsgd1na2vs0mg"},{"bike_id":"13f03332-ddce-42ad-82d3-6d3b2e6cbcd9","system_id":"levelo_inurba_marseille","lat":43.30677,"lon":5.43176,"is_reserved":false,"is_disabled":false,"rental_uris":{"android":"levelo://app?vid=13f03332-ddce-42ad-82d3-6d3b2e6cbcd9","ios":"levelo://app?vid=13f03332-ddce-42ad-82d3-6d3b2e6cbcd9"},"vehicle_type_id":"4","last_reported":1762081644,"current_range_meters":8800,"station_id":"","pricing_plan_id":"cebpf4jnsgd1na2vs0mg"},{"bike_id":"afba2e7c-0dbc-4820-b93f-fdd58168ba1f","system_id":"levelo_inurba_marseille","lat":43.28765,"lon":5.385455,"is_reserved":false,"is_disabled":false,"rental_uris":{"android":"levelo://app?vid=afba2e7c-0dbc-4820-b93f-fdd58168ba1f","ios":"levelo://app?vid=afba2e7c-0dbc-4820-b93f-fdd58168ba1f"},"vehicle_type_id":"4","last_reported":1762081644,"current_range_meters":9200,"station_id":"","pricing_plan_id":"cebpf4jnsgd1na2vs0mg"},{"bike_id":"6b996f84-e8ff-43f9-aaaf-6f51753ee96d","system_id":"levelo_inurba_marseille","lat":43.27317,"lon":5.39097,"is_reserved":false,"is_disabled":false,"rental_uris":{"android":"levelo://app?vid=6b996f84-e8ff-43f9-aaaf-6f51753ee96d","ios":"levelo://app?vid=6b996f84-e8ff-43f9-aaaf-6f51753ee96d"},"vehicle_type_id":"4","last_reported":1762081644,"current_range_meters":9200,"station_id":"ce4bhgp2rcd13ifvqfe0","pricing_plan_id":"cebpf4jnsgd1na2vs0mg"},{"bike_id":"867cecb1-8ca9-4b7e-b665-d97dc18f5eef","system_id":"levelo_inurba_marseille","lat":43.301146,"lon":5.374368,"is_reserved":false,"is_disabled":false,"rental_uris":{"android":"levelo://app?vid=867cecb1-8ca9-4b7e-b665-d97dc18f5eef","ios":"levelo://app?vid=867cecb1-8ca9-4b7e-b665-d97dc18f5eef"},"vehicle_type_id":"4","last_reported":1762081644,"current_range_meters":9600,"station_id":"ce4bgs92rcd13ifvqcc0","pricing_plan_id":"cebpf4jnsgd1na2vs0mg"},{"bike_id":"eab41510-ebd9-49c0-9897-0b2e8a240776","system_id":"levelo_inurba_marseille","lat":43.298983,"lon":5.365489,"is_reserved":false,"is_disabled":false,"rental_uris":{"android":"levelo://app?vid=eab41510-ebd9-49c0-9897-0b2e8a240776","ios":"levelo://app?vid=eab41510-ebd9-49c0-9897-0b2e8a240776"},"vehicle_type_id":"4","last_reported":1762081644,"current_range_meters":10000,"station_id":"ce4bgm92rcd13ifvqbr0","pricing_plan_id":"cebpf4jnsgd1na2vs0mg"},{"bike_id":"0c3bfe72-1bfa-4fe4-8ec1-abc531b0b6c5","system_id":"levelo_inurba_marseille","lat":43.265523,"lon":5.372898,"is_reserved":false,"is_disabled":true,"rental_uris":{"android":"levelo://app?vid=0c3bfe72-1bfa-4fe4-8ec1-abc531b0b6c5","ios":"levelo://app?vid=0c3bfe72-1bfa-4fe4-8ec1-abc531b0b6c5"},"vehicle_type_id":"4","last_reported":1762081644,"current_range_meters":10000,"station_id":"ce4bhg12rcd13ifvqf70","pricing_plan_id":"cebpf4jnsgd1na2vs0mg"},{"bike_id":"53886b36-d562-49d4-adfa-d741b185674a","system_id":"levelo_inurba_marseille","lat":43.286602,"lon":5.363386,"is_reserved":false,"is_disabled":false,"rental_uris":{"android":"levelo://app?vid=53886b36-d562-49d4-adfa-d741b185674a","ios":"levelo://app?vid=53886b36-d562-49d4-adfa-d741b185674a"},"vehicle_type_id":"4","last_reported":1762081644,"current_range_meters":10000,"station_id":"ce4bhah2rcd13ifvqej0","pricing_plan_id":"cebpf4jnsgd1na2vs0mg"},{"bike_id":"c475d3b9-d267-42f4-9587-e5143d59c67f","system_id":"levelo_inurba_marseille","lat":43.3133,"lon":5.39688,"is_reserved":false,"is_disabled":false,"rental_uris":{"android":"levelo://app?vid=c475d3b9-d267-42f4-9587-e5143d59c67f","ios":"levelo://app?vid=c475d3b9-d267-42f4-9587-e5143d59c67f"},"vehicle_type_id":"4","last_reported":1762081644,"current_range_meters":10800,"station_id":"ce4bgvp2rcd13ifvqcu0","pricing_plan_id":"cebpf4jnsgd1na2vs0mg"},{"bike_id":"471bb1a8-de2f-4704-a691-50ec7926caf6","system_id":"levelo_inurba_marseille","lat":43.29577,"lon":5.36741,"is_reserved":false,"is_disabled":false,"rental_uris":{"android":"levelo://app?vid=471bb1a8-de2f-4704-a691-50ec7926caf6","ios":"levelo://app?vid=471bb1a8-de2f-4704-a691-50ec7926caf6"},"vehicle_type_id":"4","last_reported":1762081644,"current_range_meters":10800,"station_id":"ce4bgph2rcd13ifvqc2g","pricing_plan_id":"cebpf4jnsgd1na2vs0mg"},{"bike_id":"1d29646a-da1f-4f66-b008-0838ffb2fa84","system_id":"levelo_inurba_marseille","lat":43.29995,"lon":5.37226,"is_reserved":false,"is_disabled":false,"rental_uris":{"android":"levelo://app?vid=1d29646a-da1f-4f66-b008-0838ffb2fa84","ios":"levelo://app?vid=1d29646a-da1f-4f66-b008-0838ffb2fa84"},"vehicle_type_id":"4","last_reported":1762081644,"current_range_meters":10800,"station_id":"ce4bgr92rcd13ifvqc7g","pricing_plan_id":"cebpf4jnsgd1na2vs0mg"},{"bike_id":"ccbb9b89-ebba-4c6c-b9fe-acafe29ddb47","system_id":"levelo_inurba_marseille","lat":43.33462,"lon":5.42781,"is_reserved":false,"is_disabled":false,"rental_uris":{"android":"levelo://app?vid=ccbb9b89-ebba-4c6c-b9fe-acafe29ddb47","ios":"levelo://app?vid=ccbb9b89-ebba-4c6c-b9fe-acafe29ddb47"},"vehicle_type_id":"4","last_reported":1762081644,"current_range_meters":11200,"station_id":"","pricing_plan_id":"cebpf4jnsgd1na2vs0mg"},{"bike_id":"80e6ae70-2dea-421d-a1fb-e3b4d9c42ecf","system_id":"levelo_inurba_marseille","lat":43.29561,"lon":5.37529,"is_reserved":false,"is_disabled":false,"rental_uris":{"android":"levelo://app?vid=80e6ae70-2dea-421d-a1fb-e3b4d9c42ecf","ios":"levelo://app?vid=80e6ae70-2dea-421d-a1fb-e3b4d9c42ecf"},"vehicle_type_id":"4","last_reported":1762081644,"current_range_meters":11200,"station_id":"ce4bgh92rcd13ifvqb50","pricing_plan_id":"cebpf4jnsgd1na2vs0mg"},{"bike_id":"148ff3a5-2a80-419c-8f1b-9d1335123e77","system_id":"levelo_inurba_marseille","lat":43.307473,"lon":5.382459,"is_reserved":false,"is_disabled":false,"rental_uris":{"android":"levelo://app?vid=148ff3a5-2a80-419c-8f1b-9d1335123e77","ios":"levelo://app?vid=148ff3a5-2a80-419c-8f1b-9d1335123e77"},"vehicle_type_id":"4","last_reported":1762081644,"current_range_meters":11200,"station_id":"","pricing_plan_id":"cebpf4jnsgd1na2vs0mg"},{"bike_id":"87bf0f62-f5e5-4586-abe4-d7bb497c069f","system_id":"levelo_inurba_marseille","lat":43.32362,"lon":5.36744,"is_reserved":false,"is_disabled":false,"rental_uris":{"android":"levelo://app?vid=87bf0f62-f5e5-4586-abe4-d7bb497c069f","ios":"levelo://app?vid=87bf0f62-f5e5-4586-abe4-d7bb497c069f"},"vehicle_type_id":"4","last_reported":1762081644,"current_range_meters":12000,"station_id":"ce4bhsh2rcd13ifvqi2g","pricing_plan_id":"cebpf4jnsgd1na2vs0mg"},{"bike_id":"730ca9ac-fea7-459e-bf1a-e3eab4e2c977","system_id":"levelo_inurba_marseille","lat":43.24659,"lon":5.38157,"is_reserved":false,"is_disabled":false,"rental_uris":{"android":"levelo://app?vid=730ca9ac-fea7-459e-bf1a-e3eab4e2c977","ios":"levelo://app?vid=730ca9ac-fea7-459e-bf1a-e3eab4e2c977"},"vehicle_type_id":"4","last_reported":1762081644,"current_range_meters":12000,"station_id":"ce4bhih2rcd13ifvqfr0","pricing_plan_id":"cebpf4jnsgd1na2vs0mg"},{"bike_id":"45833a00-bb86-4c87-99c2-814a719ac317","system_id":"levelo_inurba_marseille","lat":43.22934,"lon":5.3535,"is_reserved":false,"is_disabled":false,"rental_uris":{"android":"levelo://app?vid=45833a00-bb86-4c87-99c2-814a719ac317","ios":"levelo://app?vid=45833a00-bb86-4c87-99c2-814a719ac317"},"vehicle_type_id":"4","last_reported":1762081644,"current_range_meters":12000,"station_id":"cpo3532slgdg3j2ikp40","pricing_plan_id":"cebpf4jnsgd1na2vs0mg"},{"bike_id":"b3cf442c-3b1e-44cb-98b9-63f79a656d81","system_id":"levelo_inurba_marseille","lat":43.260834,"lon":5.393937,"is_reserved":false,"is_disabled":false,"rental_uris":{"android":"levelo://app?vid=b3cf442c-3b1e-44cb-98b9-63f79a656d81","ios":"levelo://app?vid=b3cf442c-3b1e-44cb-98b9-63f79a656d81"},"vehicle_type_id":"4","last_reported":1762081644,"current_range_meters":12000,"station_id":"ce4bhh92rcd13ifvqfj0","pricing_plan_id":"cebpf4jnsgd1na2vs0mg"},{"bike_id":"7b0eaa70-7657-4098-8e47-f6fae1ad1d21","system_id":"levelo_inurba_marseille","lat":43.25862,"lon":5.39894,"is_reserved":false,"is_disabled":false,"rental_uris":{"android":"levelo://app?vid=7b0eaa70-7657-4098-8e47-f6fae1ad1d21","ios":"levelo://app?vid=7b0eaa70-7657-4098-8e47-f6fae1ad1d21"},"vehicle_type_id":"4","last_reported":1762081644,"current_range_meters":12000,"station_id":"ce4bhl92rcd13ifvqghg","pricing_plan_id":"cebpf4jnsgd1na2vs0mg"},{"bike_id":"41598790-345d-414f-9e87-720cb432f278","system_id":"levelo_inurba_marseille","lat":43.29477,"lon":5.36227,"is_reserved":false,"is_disabled":false,"rental_uris":{"android":"levelo://app?vid=41598790-345d-414f-9e87-720cb432f278","ios":"levelo://app?vid=41598790-345d-414f-9e87-720cb432f278"},"vehicle_type_id":"4","last_reported":1762081644,"current_range_meters":12000,"station_id":"","pricing_plan_id":"cebpf4jnsgd1na2vs0mg"},{"bike_id":"5d6b6a51-451b-42f8-996a-cf350c8520a3","system_id":"levelo_inurba_marseille","lat":43.29784,"lon":5.38106,"is_reserved":false,"is_disabled":false,"rental_uris":{"android":"levelo://app?vid=5d6b6a51-451b-42f8-996a-cf350c8520a3","ios":"levelo://app?vid=5d6b6a51-451b-42f8-996a-cf350c8520a3"},"vehicle_type_id":"4","last_reported":1762081644,"current_range_meters":12000,"station_id":"ce4bgip2rcd13ifvqbb0","pricing_plan_id":"cebpf4jnsgd1na2vs0mg"},{"bike_id":"09aa8f06-ffeb-4dc5-b1e3-4dfaaa5d105e","system_id":"levelo_inurba_marseille","lat":43.27068,"lon":5.38327,"is_reserved":false,"is_disabled":false,"rental_uris":{"android":"levelo://app?vid=09aa8f06-ffeb-4dc5-b1e3-4dfaaa5d105e","ios":"levelo://app?vid=09aa8f06-ffeb-4dc5-b1e3-4dfaaa5d105e"},"vehicle_type_id":"4","last_reported":1762081644,"current_range_meters":12000,"station_id":"st_d3n2fo6cfp8s73cte1j0","pricing_plan_id":"cebpf4jnsgd1na2vs0mg"},{"bike_id":"cdcfa7af-5c53-4a1e-bd12-22de38b14978","system_id":"levelo_inurba_marseille","lat":43.2463,"lon":5.43138,"is_reserved":false,"is_disabled":false,"rental_uris":{"android":"levelo://app?vid=cdcfa7af-5c53-4a1e-bd12-22de38b14978","ios":"levelo://app?vid=cdcfa7af-5c53-4a1e-bd12-22de38b14978"},"vehicle_type_id":"4","last_reported":1762081644,"current_range_meters":12400,"station_id":"st_d2m6c4gdas8pm72e190g","pricing_plan_id":"cebpf4jnsgd1na2vs0mg"},{"bike_id":"12a18d4a-7b67-4876-88d1-1820554fc400","system_id":"levelo_inurba_marseille","lat":43.29733,"lon":5.38081,"is_reserved":false,"is_disabled":false,"rental_uris":{"android":"levelo://app?vid=12a18d4a-7b67-4876-88d1-1820554fc400","ios":"levelo://app?vid=12a18d4a-7b67-4876-88d1-1820554fc400"},"vehicle_type_id":"4","last_reported":1762081644,"current_range_meters":12400,"station_id":"","pricing_plan_id":"cebpf4jnsgd1na2vs0mg"},{"bike_id":"1e027cd5-7542-4267-b3ee-f71de8a5c74d","system_id":"levelo_inurba_marseille","lat":43.290237,"lon":5.3815,"is_reserved":false,"is_disabled":false,"rental_uris":{"android":"levelo://app?vid=1e027cd5-7542-4267-b3ee-f71de8a5c74d","ios":"levelo://app?vid=1e027cd5-7542-4267-b3ee-f71de8a5c74d"},"vehicle_type_id":"4","last_reported":1762081644,"current_range_meters":12400,"station_id":"","pricing_plan_id":"cebpf4jnsgd1na2vs0mg"},{"bike_id":"c4f2ef56-a448-4bb1-9320-6136c50246c9","system_id":"levelo_inurba_marseille","lat":43.24802,"lon":5.37453,"is_reserved":false,"is_disabled":true,"rental_uris":{"android":"levelo://app?vid=c4f2ef56-a448-4bb1-9320-6136c50246c9","ios":"levelo://app?vid=c4f2ef56-a448-4bb1-9320-6136c50246c9"},"vehicle_type_id":"4","last_reported":1762081644,"current_range_meters":12400,"station_id":"ce4bhgh2rcd13ifvqfb0","pricing_plan_id":"cebpf4jnsgd1na2vs0mg"},{"bike_id":"8826ede5-ae30-4091-839e-dd39c3609359","system_id":"levelo_inurba_marseille","lat":43.29803,"lon":5.39383,"is_reserved":false,"is_disabled":true,"rental_uris":{"android":"levelo://app?vid=8826ede5-ae30-4091-839e-dd39c3609359","ios":"levelo://app?vid=8826ede5-ae30-4091-839e-dd39c3609359"},"vehicle_type_id":"4","last_reported":1762081644,"current_range_meters":12400,"station_id":"chh1huq6cuj3fo74tm60","pricing_plan_id":"cebpf4jnsgd1na2vs0mg"},{"bike_id":"6fe8defd-7365-4870-9fd8-a61adc4c20bd","system_id":"levelo_inurba_marseille","lat":43.298679,"lon":5.397361,"is_reserved":false,"is_disabled":true,"rental_uris":{"android":"levelo://app?vid=6fe8defd-7365-4870-9fd8-a61adc4c20bd","ios":"levelo://app?vid=6fe8defd-7365-4870-9fd8-a61adc4c20bd"},"vehicle_type_id":"4","last_reported":1762081644,"current_range_meters":12800,"station_id":"ce4bh0h2rcd13ifvqd50","pricing_plan_id":"cebpf4jnsgd1na2vs0mg"},{"bike_id":"c7d57f9b-8ba9-4435-ac3b-54d333c0b4c7","system_id":"levelo_inurba_marseille","lat":43.32334,"lon":5.36712,"is_reserved":false,"is_disabled":false,"rental_uris":{"android":"levelo://app?vid=c7d57f9b-8ba9-4435-ac3b-54d333c0b4c7","ios":"levelo://app?vid=c7d57f9b-8ba9-4435-ac3b-54d333c0b4c7"},"vehicle_type_id":"4","last_reported":1762081644,"current_range_meters":12800,"station_id":"ce4bhsh2rcd13ifvqi2g","pricing_plan_id":"cebpf4jnsgd1na2vs0mg"},{"bike_id":"84f1bfac-8d21-499b-b8e1-fdc8049e10ac","system_id":"levelo_inurba_marseille","lat":43.312777,"lon":5.377674,"is_reserved":false,"is_disabled":false,"rental_uris":{"android":"levelo://app?vid=84f1bfac-8d21-499b-b8e1-fdc8049e10ac","ios":"levelo://app?vid=84f1bfac-8d21-499b-b8e1-fdc8049e10ac"},"vehicle_type_id":"4","last_reported":1762081644,"current_range_meters":12800,"station_id":"","pricing_plan_id":"cebpf4jnsgd1na2vs0mg"},{"bike_id":"ba541a52-7e4e-4241-9791-ae6f1fb03dcd","system_id":"levelo_inurba_marseille","lat":43.31984,"lon":5.41581,"is_reserved":false,"is_disabled":false,"rental_uris":{"android":"levelo://app?vid=ba541a52-7e4e-4241-9791-ae6f1fb03dcd","ios":"levelo://app?vid=ba541a52-7e4e-4241-9791-ae6f1fb03dcd"},"vehicle_type_id":"4","last_reported":1762081644,"current_range_meters":12800,"station_id":"","pricing_plan_id":"cebpf4jnsgd1na2vs0mg"},{"bike_id":"193eac5d-e557-4171-9864-859d1bed4f7f","system_id":"levelo_inurba_marseille","lat":43.23778,"lon":5.36623,"is_reserved":false,"is_disabled":false,"rental_uris":{"android":"levelo://app?vid=193eac5d-e557-4171-9864-859d1bed4f7f","ios":"levelo://app?vid=193eac5d-e557-4171-9864-859d1bed4f7f"},"vehicle_type_id":"4","last_reported":1762081644,"current_range_meters":13600,"station_id":"st_d3nk18o9ro0c73en2l3g","pricing_plan_id":"cebpf4jnsgd1na2vs0mg"},{"bike_id":"e718eb19-1ff9-4674-92c2-56321ad9eee9","system_id":"levelo_inurba_marseille","lat":43.253365,"lon":5.421698,"is_reserved":false,"is_disabled":false,"rental_uris":{"android":"levelo://app?vid=e718eb19-1ff9-4674-92c2-56321ad9eee9","ios":"levelo://app?vid=e718eb19-1ff9-4674-92c2-56321ad9eee9"},"vehicle_type_id":"4","last_reported":1762081644,"current_range_meters":13600,"station_id":"st_d2m65c5bi1j21697t3ng","pricing_plan_id":"cebpf4jnsgd1na2vs0mg"},{"bike_id":"de0ca7a8-116a-46c8-8c50-6b445a473423","system_id":"levelo_inurba_marseille","lat":43.28871,"lon":5.42518,"is_reserved":false,"is_disabled":false,"rental_uris":{"android":"levelo://app?vid=de0ca7a8-116a-46c8-8c50-6b445a473423","ios":"levelo://app?vid=de0ca7a8-116a-46c8-8c50-6b445a473423"},"vehicle_type_id":"4","last_reported":1762081644,"current_range_meters":13600,"station_id":"st_d3b462108ojc7389ooeg","pricing_plan_id":"cebpf4jnsgd1na2vs0mg"},{"bike_id":"f556ad88-b0ef-4d15-8048-f36fbe8e026c","system_id":"levelo_inurba_marseille","lat":43.285352,"lon":5.441056,"is_reserved":false,"is_disabled":false,"rental_uris":{"android":"levelo://app?vid=f556ad88-b0ef-4d15-8048-f36fbe8e026c","ios":"levelo://app?vid=f556ad88-b0ef-4d15-8048-f36fbe8e026c"},"vehicle_type_id":"4","last_reported":1762081644,"current_range_meters":13600,"station_id":"st_d3j3df2ikq2c7380ej80","pricing_plan_id":"cebpf4jnsgd1na2vs0mg"},{"bike_id":"63f252f3-ffdc-4384-ac89-a4e9be0dfd03","system_id":"levelo_inurba_marseille","lat":43.31158,"lon":5.39332,"is_reserved":false,"is_disabled":false,"rental_uris":{"android":"levelo://app?vid=63f252f3-ffdc-4384-ac89-a4e9be0dfd03","ios":"levelo://app?vid=63f252f3-ffdc-4384-ac89-a4e9be0dfd03"},"vehicle_type_id":"4","last_reported":1762081644,"current_range_meters":13600,"station_id":"","pricing_plan_id":"cebpf4jnsgd1na2vs0mg"},{"bike_id":"c596a024-e546-4f68-980e-e835edcbdd6c","system_id":"levelo_inurba_marseille","lat":43.2319,"lon":5.39974,"is_reserved":false,"is_disabled":false,"rental_uris":{"android":"levelo://app?vid=c596a024-e546-4f68-980e-e835edcbdd6c","ios":"levelo://app?vid=c596a024-e546-4f68-980e-e835edcbdd6c"},"vehicle_type_id":"4","last_reported":1762081644,"current_range_meters":13600,"station_id":"ce4bhn12rcd13ifvqgqg","pricing_plan_id":"cebpf4jnsgd1na2vs0mg"},{"bike_id":"91891e2b-3c04-410a-b47f-e4a2d35addbb","system_id":"levelo_inurba_marseille","lat":43.24805,"lon":5.37445,"is_reserved":false,"is_disabled":false,"rental_uris":{"android":"levelo://app?vid=91891e2b-3c04-410a-b47f-e4a2d35addbb","ios":"levelo://app?vid=91891e2b-3c04-410a-b47f-e4a2d35addbb"},"vehicle_type_id":"4","last_reported":1762081644,"current_range_meters":13600,"station_id":"ce4bhgh2rcd13ifvqfb0","pricing_plan_id":"cebpf4jnsgd1na2vs0mg"},{"bike_id":"d87e8435-a903-4228-b33e-bd6d66e6673b","system_id":"levelo_inurba_marseille","lat":43.24634,"lon":5.43143,"is_reserved":false,"is_disabled":false,"rental_uris":{"android":"levelo://app?vid=d87e8435-a903-4228-b33e-bd6d66e6673b","ios":"levelo://app?vid=d87e8435-a903-4228-b33e-bd6d66e6673b"},"vehicle_type_id":"4","last_reported":1762081644,"current_range_meters":13600,"station_id":"st_d2m6c4gdas8pm72e190g","pricing_plan_id":"cebpf4jnsgd1na2vs0mg"},{"bike_id":"079d2352-ba60-4c63-b7a4-6ec0ccf76dcc","system_id":"levelo_inurba_marseille","lat":43.25707,"lon":5.41116,"is_reserved":false,"is_disabled":false,"rental_uris":{"android":"levelo://app?vid=079d2352-ba60-4c63-b7a4-6ec0ccf76dcc","ios":"levelo://app?vid=079d2352-ba60-4c63-b7a4-6ec0ccf76dcc"},"vehicle_type_id":"4","last_reported":1762081644,"current_range_meters":14000,"station_id":"ce4bhkp2rcd13ifvqgd0","pricing_plan_id":"cebpf4jnsgd1na2vs0mg"},{"bike_id":"0d3e0b55-eff8-448b-8988-99ff4e704c13","system_id":"levelo_inurba_marseille","lat":43.2886,"lon":5.37876,"is_reserved":false,"is_disabled":false,"rental_uris":{"android":"levelo://app?vid=0d3e0b55-eff8-448b-8988-99ff4e704c13","ios":"levelo://app?vid=0d3e0b55-eff8-448b-8988-99ff4e704c13"},"vehicle_type_id":"4","last_reported":1762081644,"current_range_meters":14000,"station_id":"","pricing_plan_id":"cebpf4jnsgd1na2vs0mg"},{"bike_id":"ebf85bdb-1a2b-49af-a88d-03e90d4c31b8","system_id":"levelo_inurba_marseille","lat":43.23959,"lon":5.36622,"is_reserved":false,"is_disabled":true,"rental_uris":{"android":"levelo://app?vid=ebf85bdb-1a2b-49af-a88d-03e90d4c31b8","ios":"levelo://app?vid=ebf85bdb-1a2b-49af-a88d-03e90d4c31b8"},"vehicle_type_id":"4","last_reported":1762081644,"current_range_meters":14400,"station_id":"ce4bhi12rcd13ifvqfp0","pricing_plan_id":"cebpf4jnsgd1na2vs0mg"},{"bike_id":"77679107-31f6-4769-888c-bfa8b6d2bccd","system_id":"levelo_inurba_marseille","lat":43.28859,"lon":5.42527,"is_reserved":false,"is_disabled":false,"rental_uris":{"android":"levelo://app?vid=77679107-31f6-4769-888c-bfa8b6d2bccd","ios":"levelo://app?vid=77679107-31f6-4769-888c-bfa8b6d2bccd"},"vehicle_type_id":"4","last_reported":1762081644,"current_range_meters":14400,"station_id":"st_d3b462108ojc7389ooeg","pricing_plan_id":"cebpf4jnsgd1na2vs0mg"},{"bike_id":"8adef542-af60-4b61-8a5b-4b604c3bcfe4","system_id":"levelo_inurba_marseille","lat":43.24637,"lon":5.4314,"is_reserved":false,"is_disabled":false,"rental_uris":{"android":"levelo://app?vid=8adef542-af60-4b61-8a5b-4b604c3bcfe4","ios":"levelo://app?vid=8adef542-af60-4b61-8a5b-4b604c3bcfe4"},"vehicle_type_id":"4","last_reported":1762081644,"current_range_meters":14400,"station_id":"st_d2m6c4gdas8pm72e190g","pricing_plan_id":"cebpf4jnsgd1na2vs0mg"},{"bike_id":"25b8b9c6-92a5-43d3-8767-0700e7c7de1c","system_id":"levelo_inurba_marseille","lat":43.337665,"lon":5.374208,"is_reserved":false,"is_disabled":false,"rental_uris":{"android":"levelo://app?vid=25b8b9c6-92a5-43d3-8767-0700e7c7de1c","ios":"levelo://app?vid=25b8b9c6-92a5-43d3-8767-0700e7c7de1c"},"vehicle_type_id":"4","last_reported":1762081644,"current_range_meters":14400,"station_id":"","pricing_plan_id":"cebpf4jnsgd1na2vs0mg"},{"bike_id":"aad6a064-c048-4ba9-a156-1745b89548aa","system_id":"levelo_inurba_marseille","lat":43.2831,"lon":5.41101,"is_reserved":false,"is_disabled":false,"rental_uris":{"android":"levelo://app?vid=aad6a064-c048-4ba9-a156-1745b89548aa","ios":"levelo://app?vid=aad6a064-c048-4ba9-a156-1745b89548aa"},"vehicle_type_id":"4","last_reported":1762081644,"current_range_meters":14800,"station_id":"","pricing_plan_id":"cebpf4jnsgd1na2vs0mg"},{"bike_id":"43299b84-51c9-461d-9bfa-88b812600d5c","system_id":"levelo_inurba_marseille","lat":43.31712,"lon":5.40435,"is_reserved":false,"is_disabled":false,"rental_uris":{"android":"levelo://app?vid=43299b84-51c9-461d-9bfa-88b812600d5c","ios":"levelo://app?vid=43299b84-51c9-461d-9bfa-88b812600d5c"},"vehicle_type_id":"4","last_reported":1762081644,"current_range_meters":15200,"station_id":"ce4bh012rcd13ifvqd00","pricing_plan_id":"cebpf4jnsgd1na2vs0mg"},{"bike_id":"14b92a7a-0805-475a-abfd-8c979184b42b","system_id":"levelo_inurba_marseille","lat":43.30973,"lon":5.36977,"is_reserved":false,"is_disabled":false,"rental_uris":{"android":"levelo://app?vid=14b92a7a-0805-475a-abfd-8c979184b42b","ios":"levelo://app?vid=14b92a7a-0805-475a-abfd-8c979184b42b"},"vehicle_type_id":"4","last_reported":1762081644,"current_range_meters":15200,"station_id":"","pricing_plan_id":"cebpf4jnsgd1na2vs0mg"},{"bike_id":"23964231-9294-40d2-9d81-16e99ab01d5b","system_id":"levelo_inurba_marseille","lat":43.25331,"lon":5.42156,"is_reserved":false,"is_disabled":false,"rental_uris":{"android":"levelo://app?vid=23964231-9294-40d2-9d81-16e99ab01d5b","ios":"levelo://app?vid=23964231-9294-40d2-9d81-16e99ab01d5b"},"vehicle_type_id":"4","last_reported":1762081644,"current_range_meters":15200,"station_id":"st_d2m65c5bi1j21697t3ng","pricing_plan_id":"cebpf4jnsgd1na2vs0mg"},{"bike_id":"23d4f8b4-54b6-42b6-8554-07cb9c91ef32","system_id":"levelo_inurba_marseille","lat":43.27936,"lon":5.4104,"is_reserved":false,"is_disabled":false,"rental_uris":{"android":"levelo://app?vid=23d4f8b4-54b6-42b6-8554-07cb9c91ef32","ios":"levelo://app?vid=23d4f8b4-54b6-42b6-8554-07cb9c91ef32"},"vehicle_type_id":"4","last_reported":1762081644,"current_range_meters":15200,"station_id":"ce4bhnp2rcd13ifvqh0g","pricing_plan_id":"cebpf4jnsgd1na2vs0mg"},{"bike_id":"423802bb-722e-4533-9018-c0f75cce34a6","system_id":"levelo_inurba_marseille","lat":43.30664,"lon":5.38175,"is_reserved":false,"is_disabled":false,"rental_uris":{"android":"levelo://app?vid=423802bb-722e-4533-9018-c0f75cce34a6","ios":"levelo://app?vid=423802bb-722e-4533-9018-c0f75cce34a6"},"vehicle_type_id":"4","last_reported":1762081644,"current_range_meters":16000,"station_id":"","pricing_plan_id":"cebpf4jnsgd1na2vs0mg"},{"bike_id":"dd70bcc2-2e6b-447f-adc2-e0826cf93554","system_id":"levelo_inurba_marseille","lat":43.31911,"lon":5.40157,"is_reserved":false,"is_disabled":false,"rental_uris":{"android":"levelo://app?vid=dd70bcc2-2e6b-447f-adc2-e0826cf93554","ios":"levelo://app?vid=dd70bcc2-2e6b-447f-adc2-e0826cf93554"},"vehicle_type_id":"4","last_reported":1762081644,"current_range_meters":16000,"station_id":"","pricing_plan_id":"cebpf4jnsgd1na2vs0mg"},{"bike_id":"5b0410dc-4c4a-4b37-89ae-da87619208bb","system_id":"levelo_inurba_marseille","lat":43.26197,"lon":5.37936,"is_reserved":false,"is_disabled":false,"rental_uris":{"android":"levelo://app?vid=5b0410dc-4c4a-4b37-89ae-da87619208bb","ios":"levelo://app?vid=5b0410dc-4c4a-4b37-89ae-da87619208bb"},"vehicle_type_id":"4","last_reported":1762081644,"current_range_meters":16000,"station_id":"ce4bhjp2rcd13ifvqg90","pricing_plan_id":"cebpf4jnsgd1na2vs0mg"},{"bike_id":"066ede02-47a2-4c83-bcb1-7eb633a370fb","system_id":"levelo_inurba_marseille","lat":43.31257,"lon":5.37745,"is_reserved":false,"is_disabled":false,"rental_uris":{"android":"levelo://app?vid=066ede02-47a2-4c83-bcb1-7eb633a370fb","ios":"levelo://app?vid=066ede02-47a2-4c83-bcb1-7eb633a370fb"},"vehicle_type_id":"4","last_reported":1762081644,"current_range_meters":16400,"station_id":"","pricing_plan_id":"cebpf4jnsgd1na2vs0mg"},{"bike_id":"12c24c1a-5f34-4e4f-b6c0-f07cd6755b8d","system_id":"levelo_inurba_marseille","lat":43.2495,"lon":5.405,"is_reserved":false,"is_disabled":false,"rental_uris":{"android":"levelo://app?vid=12c24c1a-5f34-4e4f-b6c0-f07cd6755b8d","ios":"levelo://app?vid=12c24c1a-5f34-4e4f-b6c0-f07cd6755b8d"},"vehicle_type_id":"4","last_reported":1762081644,"current_range_meters":16400,"station_id":"st_d2ngiaodas8pm72gd1h0","pricing_plan_id":"cebpf4jnsgd1na2vs0mg"},{"bike_id":"d5d6ab32-1aa7-41d5-ae08-fd4f188997b1","system_id":"levelo_inurba_marseille","lat":43.30644,"lon":5.40101,"is_reserved":false,"is_disabled":false,"rental_uris":{"android":"levelo://app?vid=d5d6ab32-1aa7-41d5-ae08-fd4f188997b1","ios":"levelo://app?vid=d5d6ab32-1aa7-41d5-ae08-fd4f188997b1"},"vehicle_type_id":"4","last_reported":1762081644,"current_range_meters":16400,"station_id":"ce4bh112rcd13ifvqda0","pricing_plan_id":"cebpf4jnsgd1na2vs0mg"},{"bike_id":"6a1cc001-3bc9-4225-8e3c-d058d9b19e8e","system_id":"levelo_inurba_marseille","lat":43.24637,"lon":5.43148,"is_reserved":false,"is_disabled":false,"rental_uris":{"android":"levelo://app?vid=6a1cc001-3bc9-4225-8e3c-d058d9b19e8e","ios":"levelo://app?vid=6a1cc001-3bc9-4225-8e3c-d058d9b19e8e"},"vehicle_type_id":"4","last_reported":1762081644,"current_range_meters":16400,"station_id":"st_d2m6c4gdas8pm72e190g","pricing_plan_id":"cebpf4jnsgd1na2vs0mg"},{"bike_id":"6eb523a4-350d-4959-ac5e-1335d8f70954","system_id":"levelo_inurba_marseille","lat":43.315717,"lon":5.406423,"is_reserved":false,"is_disabled":false,"rental_uris":{"android":"levelo://app?vid=6eb523a4-350d-4959-ac5e-1335d8f70954","ios":"levelo://app?vid=6eb523a4-350d-4959-ac5e-1335d8f70954"},"vehicle_type_id":"4","last_reported":1762081644,"current_range_meters":16400,"station_id":"","pricing_plan_id":"cebpf4jnsgd1na2vs0mg"},{"bike_id":"ea981441-de44-4e91-a60f-0f3605343256","system_id":"levelo_inurba_marseille","lat":43.323641,"lon":5.367677,"is_reserved":false,"is_disabled":false,"rental_uris":{"android":"levelo://app?vid=ea981441-de44-4e91-a60f-0f3605343256","ios":"levelo://app?vid=ea981441-de44-4e91-a60f-0f3605343256"},"vehicle_type_id":"4","last_reported":1762081644,"current_range_meters":16400,"station_id":"ce4bhsh2rcd13ifvqi2g","pricing_plan_id":"cebpf4jnsgd1na2vs0mg"},{"bike_id":"22c81132-10e2-4566-ae5b-dc67a90d2e6f","system_id":"levelo_inurba_marseille","lat":43.30133,"lon":5.38096,"is_reserved":false,"is_disabled":false,"rental_uris":{"android":"levelo://app?vid=22c81132-10e2-4566-ae5b-dc67a90d2e6f","ios":"levelo://app?vid=22c81132-10e2-4566-ae5b-dc67a90d2e6f"},"vehicle_type_id":"4","last_reported":1762081644,"current_range_meters":16400,"station_id":"ce4bgjp2rcd13ifvqbh0","pricing_plan_id":"cebpf4jnsgd1na2vs0mg"},{"bike_id":"e989496f-131f-4702-9de8-083d543d7d29","system_id":"levelo_inurba_marseille","lat":43.24166,"lon":5.36397,"is_reserved":false,"is_disabled":false,"rental_uris":{"android":"levelo://app?vid=e989496f-131f-4702-9de8-083d543d7d29","ios":"levelo://app?vid=e989496f-131f-4702-9de8-083d543d7d29"},"vehicle_type_id":"4","last_reported":1762081644,"current_range_meters":16400,"station_id":"cpo36qri1sfpv3e86is0","pricing_plan_id":"cebpf4jnsgd1na2vs0mg"},{"bike_id":"02ab0480-1393-487e-95a2-314141ae01bf","system_id":"levelo_inurba_marseille","lat":43.28141,"lon":5.42647,"is_reserved":false,"is_disabled":false,"rental_uris":{"android":"levelo://app?vid=02ab0480-1393-487e-95a2-314141ae01bf","ios":"levelo://app?vid=02ab0480-1393-487e-95a2-314141ae01bf"},"vehicle_type_id":"4","last_reported":1762081644,"current_range_meters":16800,"station_id":"ce4bhnh2rcd13ifvqgug","pricing_plan_id":"cebpf4jnsgd1na2vs0mg"},{"bike_id":"aef75ae5-d606-43b6-8ba5-d53a35c16de5","system_id":"levelo_inurba_marseille","lat":43.27426,"lon":5.39416,"is_reserved":false,"is_disabled":true,"rental_uris":{"android":"levelo://app?vid=aef75ae5-d606-43b6-8ba5-d53a35c16de5","ios":"levelo://app?vid=aef75ae5-d606-43b6-8ba5-d53a35c16de5"},"vehicle_type_id":"4","last_reported":1762081644,"current_range_meters":16800,"station_id":"ce4bhdp2rcd13ifvqf20","pricing_plan_id":"cebpf4jnsgd1na2vs0mg"},{"bike_id":"1c7e9560-2754-4a88-b1cb-cdee38fc1289","system_id":"levelo_inurba_marseille","lat":43.26959,"lon":5.40276,"is_reserved":false,"is_disabled":true,"rental_uris":{"android":"levelo://app?vid=1c7e9560-2754-4a88-b1cb-cdee38fc1289","ios":"levelo://app?vid=1c7e9560-2754-4a88-b1cb-cdee38fc1289"},"vehicle_type_id":"4","last_reported":1762081644,"current_range_meters":16800,"station_id":"cjm6bp8fraef2m0cb0m0","pricing_plan_id":"cebpf4jnsgd1na2vs0mg"},{"bike_id":"fcc7a5b9-eb88-45bf-aebf-cf96cca8c3ef","system_id":"levelo_inurba_marseille","lat":43.24655,"lon":5.381703,"is_reserved":false,"is_disabled":false,"rental_uris":{"android":"levelo://app?vid=fcc7a5b9-eb88-45bf-aebf-cf96cca8c3ef","ios":"levelo://app?vid=fcc7a5b9-eb88-45bf-aebf-cf96cca8c3ef"},"vehicle_type_id":"4","last_reported":1762081644,"current_range_meters":16800,"station_id":"ce4bhih2rcd13ifvqfr0","pricing_plan_id":"cebpf4jnsgd1na2vs0mg"},{"bike_id":"4d5f189c-1e4f-4f4c-abd1-03d24c1a1909","system_id":"levelo_inurba_marseille","lat":43.28606,"lon":5.35114,"is_reserved":false,"is_disabled":false,"rental_uris":{"android":"levelo://app?vid=4d5f189c-1e4f-4f4c-abd1-03d24c1a1909","ios":"levelo://app?vid=4d5f189c-1e4f-4f4c-abd1-03d24c1a1909"},"vehicle_type_id":"4","last_reported":1762081644,"current_range_meters":16800,"station_id":"ce4bhch2rcd13ifvqeug","pricing_plan_id":"cebpf4jnsgd1na2vs0mg"},{"bike_id":"fe2272ea-7316-4280-b90c-d8c4db7bc73e","system_id":"levelo_inurba_marseille","lat":43.27942,"lon":5.39293,"is_reserved":false,"is_disabled":false,"rental_uris":{"android":"levelo://app?vid=fe2272ea-7316-4280-b90c-d8c4db7bc73e","ios":"levelo://app?vid=fe2272ea-7316-4280-b90c-d8c4db7bc73e"},"vehicle_type_id":"4","last_reported":1762081644,"current_range_meters":16800,"station_id":"","pricing_plan_id":"cebpf4jnsgd1na2vs0mg"},{"bike_id":"6dbae8fb-b558-4de5-931e-260b80081062","system_id":"levelo_inurba_marseille","lat":43.29893,"lon":5.43649,"is_reserved":false,"is_disabled":false,"rental_uris":{"android":"levelo://app?vid=6dbae8fb-b558-4de5-931e-260b80081062","ios":"levelo://app?vid=6dbae8fb-b558-4de5-931e-260b80081062"},"vehicle_type_id":"4","last_reported":1762081644,"current_range_meters":16800,"station_id":"ce4bhpp2rcd13ifvqhfg","pricing_plan_id":"cebpf4jnsgd1na2vs0mg"},{"bike_id":"cc475582-0cc3-4b14-a66c-6041b0d2e976","system_id":"levelo_inurba_marseille","lat":43.29335,"lon":5.41178,"is_reserved":false,"is_disabled":false,"rental_uris":{"android":"levelo://app?vid=cc475582-0cc3-4b14-a66c-6041b0d2e976","ios":"levelo://app?vid=cc475582-0cc3-4b14-a66c-6041b0d2e976"},"vehicle_type_id":"4","last_reported":1762081644,"current_range_meters":16800,"station_id":"","pricing_plan_id":"cebpf4jnsgd1na2vs0mg"},{"bike_id":"aa56963e-5f6a-4043-b1c7-23e4d9f05d8c","system_id":"levelo_inurba_marseille","lat":43.313499,"lon":5.379119,"is_reserved":false,"is_disabled":false,"rental_uris":{"android":"levelo://app?vid=aa56963e-5f6a-4043-b1c7-23e4d9f05d8c","ios":"levelo://app?vid=aa56963e-5f6a-4043-b1c7-23e4d9f05d8c"},"vehicle_type_id":"4","last_reported":1762081644,"current_range_meters":16800,"station_id":"","pricing_plan_id":"cebpf4jnsgd1na2vs0mg"},{"bike_id":"95dc45a4-291d-4a98-ba13-75157c73b23e","system_id":"levelo_inurba_marseille","lat":43.29291,"lon":5.37459,"is_reserved":false,"is_disabled":false,"rental_uris":{"android":"levelo://app?vid=95dc45a4-291d-4a98-ba13-75157c73b23e","ios":"levelo://app?vid=95dc45a4-291d-4a98-ba13-75157c73b23e"},"vehicle_type_id":"4","last_reported":1762081644,"current_range_meters":16800,"station_id":"ce4bgi12rcd13ifvqb70","pricing_plan_id":"cebpf4jnsgd1na2vs0mg"},{"bike_id":"ba548eae-7abd-4bac-8d56-6ea58a0eb2b9","system_id":"levelo_inurba_marseille","lat":43.308863,"lon":5.396496,"is_reserved":false,"is_disabled":false,"rental_uris":{"android":"levelo://app?vid=ba548eae-7abd-4bac-8d56-6ea58a0eb2b9","ios":"levelo://app?vid=ba548eae-7abd-4bac-8d56-6ea58a0eb2b9"},"vehicle_type_id":"4","last_reported":1762081644,"current_range_meters":17200,"station_id":"ce4bh012rcd13ifvqcv0","pricing_plan_id":"cebpf4jnsgd1na2vs0mg"},{"bike_id":"85d8043d-b929-43f8-9188-ad421047c360","system_id":"levelo_inurba_marseille","lat":43.25347,"lon":5.4215,"is_reserved":false,"is_disabled":false,"rental_uris":{"android":"levelo://app?vid=85d8043d-b929-43f8-9188-ad421047c360","ios":"levelo://app?vid=85d8043d-b929-43f8-9188-ad421047c360"},"vehicle_type_id":"4","last_reported":1762081644,"current_range_meters":17200,"station_id":"st_d2m65c5bi1j21697t3ng","pricing_plan_id":"cebpf4jnsgd1na2vs0mg"},{"bike_id":"65959e76-2dec-43d3-b15c-b4e7433182fd","system_id":"levelo_inurba_marseille","lat":43.293631,"lon":5.371955,"is_reserved":false,"is_disabled":false,"rental_uris":{"android":"levelo://app?vid=65959e76-2dec-43d3-b15c-b4e7433182fd","ios":"levelo://app?vid=65959e76-2dec-43d3-b15c-b4e7433182fd"},"vehicle_type_id":"4","last_reported":1762081644,"current_range_meters":17200,"station_id":"","pricing_plan_id":"cebpf4jnsgd1na2vs0mg"},{"bike_id":"0c514665-9553-45bf-910f-a5c4216ffaa2","system_id":"levelo_inurba_marseille","lat":43.30593,"lon":5.37232,"is_reserved":false,"is_disabled":false,"rental_uris":{"android":"levelo://app?vid=0c514665-9553-45bf-910f-a5c4216ffaa2","ios":"levelo://app?vid=0c514665-9553-45bf-910f-a5c4216ffaa2"},"vehicle_type_id":"4","last_reported":1762081644,"current_range_meters":17200,"station_id":"ce4bgqh2rcd13ifvqc4g","pricing_plan_id":"cebpf4jnsgd1na2vs0mg"},{"bike_id":"d479480b-afc6-4d45-a19a-2669830672e2","system_id":"levelo_inurba_marseille","lat":43.26488,"lon":5.39568,"is_reserved":false,"is_disabled":false,"rental_uris":{"android":"levelo://app?vid=d479480b-afc6-4d45-a19a-2669830672e2","ios":"levelo://app?vid=d479480b-afc6-4d45-a19a-2669830672e2"},"vehicle_type_id":"4","last_reported":1762081644,"current_range_meters":17200,"station_id":"ce4bhi12rcd13ifvqfq0","pricing_plan_id":"cebpf4jnsgd1na2vs0mg"},{"bike_id":"b0f13743-8000-4cf9-9975-6d3a0b7effc8","system_id":"levelo_inurba_marseille","lat":43.30596,"lon":5.3722,"is_reserved":false,"is_disabled":false,"rental_uris":{"android":"levelo://app?vid=b0f13743-8000-4cf9-9975-6d3a0b7effc8","ios":"levelo://app?vid=b0f13743-8000-4cf9-9975-6d3a0b7effc8"},"vehicle_type_id":"4","last_reported":1762081644,"current_range_meters":17200,"station_id":"ce4bgqh2rcd13ifvqc4g","pricing_plan_id":"cebpf4jnsgd1na2vs0mg"},{"bike_id":"f10c1fd0-819c-4bcb-a779-837cb537741a","system_id":"levelo_inurba_marseille","lat":43.29486,"lon":5.37466,"is_reserved":false,"is_disabled":false,"rental_uris":{"android":"levelo://app?vid=f10c1fd0-819c-4bcb-a779-837cb537741a","ios":"levelo://app?vid=f10c1fd0-819c-4bcb-a779-837cb537741a"},"vehicle_type_id":"4","last_reported":1762081644,"current_range_meters":17200,"station_id":"","pricing_plan_id":"cebpf4jnsgd1na2vs0mg"},{"bike_id":"1ea25aae-1a14-4d81-bcf2-e50f4d7cbcc7","system_id":"levelo_inurba_marseille","lat":43.28719,"lon":5.39965,"is_reserved":false,"is_disabled":false,"rental_uris":{"android":"levelo://app?vid=1ea25aae-1a14-4d81-bcf2-e50f4d7cbcc7","ios":"levelo://app?vid=1ea25aae-1a14-4d81-bcf2-e50f4d7cbcc7"},"vehicle_type_id":"4","last_reported":1762081644,"current_range_meters":17200,"station_id":"ce4bho92rcd13ifvqh3g","pricing_plan_id":"cebpf4jnsgd1na2vs0mg"},{"bike_id":"082a1fc9-fa33-4385-8dc2-797cf958a64d","system_id":"levelo_inurba_marseille","lat":43.30798,"lon":5.43525,"is_reserved":false,"is_disabled":false,"rental_uris":{"android":"levelo://app?vid=082a1fc9-fa33-4385-8dc2-797cf958a64d","ios":"levelo://app?vid=082a1fc9-fa33-4385-8dc2-797cf958a64d"},"vehicle_type_id":"4","last_reported":1762081644,"current_range_meters":17600,"station_id":"","pricing_plan_id":"cebpf4jnsgd1na2vs0mg"},{"bike_id":"7ecb3393-6807-4b7a-b870-13387f80095a","system_id":"levelo_inurba_marseille","lat":43.273155,"lon":5.39058,"is_reserved":false,"is_disabled":false,"rental_uris":{"android":"levelo://app?vid=7ecb3393-6807-4b7a-b870-13387f80095a","ios":"levelo://app?vid=7ecb3393-6807-4b7a-b870-13387f80095a"},"vehicle_type_id":"4","last_reported":1762081644,"current_range_meters":17600,"station_id":"ce4bhi12rcd13ifvqfo0","pricing_plan_id":"cebpf4jnsgd1na2vs0mg"},{"bike_id":"123ec047-d6a2-4308-aee4-8ec0b2bea538","system_id":"levelo_inurba_marseille","lat":43.23185,"lon":5.3557,"is_reserved":false,"is_disabled":false,"rental_uris":{"android":"levelo://app?vid=123ec047-d6a2-4308-aee4-8ec0b2bea538","ios":"levelo://app?vid=123ec047-d6a2-4308-aee4-8ec0b2bea538"},"vehicle_type_id":"4","last_reported":1762081644,"current_range_meters":17600,"station_id":"ce4bhu92rcd13ifvqi70","pricing_plan_id":"cebpf4jnsgd1na2vs0mg"},{"bike_id":"c512099e-8861-4b66-abf5-28d410fc5fb6","system_id":"levelo_inurba_marseille","lat":43.30128,"lon":5.38781,"is_reserved":false,"is_disabled":true,"rental_uris":{"android":"levelo://app?vid=c512099e-8861-4b66-abf5-28d410fc5fb6","ios":"levelo://app?vid=c512099e-8861-4b66-abf5-28d410fc5fb6"},"vehicle_type_id":"4","last_reported":1762081644,"current_range_meters":17600,"station_id":"ce4bghh2rcd13ifvqb60","pricing_plan_id":"cebpf4jnsgd1na2vs0mg"},{"bike_id":"af0fab66-dc5d-47a3-a778-23c7692651ce","system_id":"levelo_inurba_marseille","lat":43.28152,"lon":5.42642,"is_reserved":false,"is_disabled":false,"rental_uris":{"android":"levelo://app?vid=af0fab66-dc5d-47a3-a778-23c7692651ce","ios":"levelo://app?vid=af0fab66-dc5d-47a3-a778-23c7692651ce"},"vehicle_type_id":"4","last_reported":1762081644,"current_range_meters":17600,"station_id":"ce4bhnh2rcd13ifvqgug","pricing_plan_id":"cebpf4jnsgd1na2vs0mg"},{"bike_id":"1f4bf620-5a86-4131-b1aa-491aa828d1ad","system_id":"levelo_inurba_marseille","lat":43.2509,"lon":5.39486,"is_reserved":false,"is_disabled":false,"rental_uris":{"android":"levelo://app?vid=1f4bf620-5a86-4131-b1aa-491aa828d1ad","ios":"levelo://app?vid=1f4bf620-5a86-4131-b1aa-491aa828d1ad"},"vehicle_type_id":"4","last_reported":1762081644,"current_range_meters":18000,"station_id":"ce4bhm12rcd13ifvqgkg","pricing_plan_id":"cebpf4jnsgd1na2vs0mg"},{"bike_id":"4f2560ae-c631-4e46-981e-63c5a3acd16c","system_id":"levelo_inurba_marseille","lat":43.27314,"lon":5.39085,"is_reserved":false,"is_disabled":false,"rental_uris":{"android":"levelo://app?vid=4f2560ae-c631-4e46-981e-63c5a3acd16c","ios":"levelo://app?vid=4f2560ae-c631-4e46-981e-63c5a3acd16c"},"vehicle_type_id":"4","last_reported":1762081644,"current_range_meters":18000,"station_id":"ce4bhgp2rcd13ifvqfe0","pricing_plan_id":"cebpf4jnsgd1na2vs0mg"},{"bike_id":"e37a3e06-24f5-4130-8d50-b62005271d50","system_id":"levelo_inurba_marseille","lat":43.241582,"lon":5.363962,"is_reserved":false,"is_disabled":false,"rental_uris":{"android":"levelo://app?vid=e37a3e06-24f5-4130-8d50-b62005271d50","ios":"levelo://app?vid=e37a3e06-24f5-4130-8d50-b62005271d50"},"vehicle_type_id":"4","last_reported":1762081644,"current_range_meters":18000,"station_id":"cpo36qri1sfpv3e86is0","pricing_plan_id":"cebpf4jnsgd1na2vs0mg"},{"bike_id":"6dd18053-e3ac-4ec6-8544-7b6c95a61457","system_id":"levelo_inurba_marseille","lat":43.24165,"lon":5.364,"is_reserved":false,"is_disabled":false,"rental_uris":{"android":"levelo://app?vid=6dd18053-e3ac-4ec6-8544-7b6c95a61457","ios":"levelo://app?vid=6dd18053-e3ac-4ec6-8544-7b6c95a61457"},"vehicle_type_id":"4","last_reported":1762081644,"current_range_meters":18000,"station_id":"cpo36qri1sfpv3e86is0","pricing_plan_id":"cebpf4jnsgd1na2vs0mg"},{"bike_id":"f9f7cbb9-b27e-41bf-bfe6-517e8a9c5ff5","system_id":"levelo_inurba_marseille","lat":43.29906,"lon":5.38145,"is_reserved":false,"is_disabled":false,"rental_uris":{"android":"levelo://app?vid=f9f7cbb9-b27e-41bf-bfe6-517e8a9c5ff5","ios":"levelo://app?vid=f9f7cbb9-b27e-41bf-bfe6-517e8a9c5ff5"},"vehicle_type_id":"4","last_reported":1762081644,"current_range_meters":18000,"station_id":"ce4bgj12rcd13ifvqbc0","pricing_plan_id":"cebpf4jnsgd1na2vs0mg"},{"bike_id":"4c2e795a-4ac2-4fba-b47e-7412c196e673","system_id":"levelo_inurba_marseille","lat":43.32101,"lon":5.36784,"is_reserved":false,"is_disabled":false,"rental_uris":{"android":"levelo://app?vid=4c2e795a-4ac2-4fba-b47e-7412c196e673","ios":"levelo://app?vid=4c2e795a-4ac2-4fba-b47e-7412c196e673"},"vehicle_type_id":"4","last_reported":1762081644,"current_range_meters":18000,"station_id":"ce4bhrh2rcd13ifvqhug","pricing_plan_id":"cebpf4jnsgd1na2vs0mg"},{"bike_id":"b2514755-0f11-4833-b225-7d1f8289efa4","system_id":"levelo_inurba_marseille","lat":43.23098,"lon":5.34958,"is_reserved":false,"is_disabled":false,"rental_uris":{"android":"levelo://app?vid=b2514755-0f11-4833-b225-7d1f8289efa4","ios":"levelo://app?vid=b2514755-0f11-4833-b225-7d1f8289efa4"},"vehicle_type_id":"4","last_reported":1762081644,"current_range_meters":18000,"station_id":"","pricing_plan_id":"cebpf4jnsgd1na2vs0mg"},{"bike_id":"ac6fb5ab-2bf5-4938-b19e-f037b143495c","system_id":"levelo_inurba_marseille","lat":43.270743,"lon":5.422796,"is_reserved":false,"is_disabled":false,"rental_uris":{"android":"levelo://app?vid=ac6fb5ab-2bf5-4938-b19e-f037b143495c","ios":"levelo://app?vid=ac6fb5ab-2bf5-4938-b19e-f037b143495c"},"vehicle_type_id":"4","last_reported":1762081644,"current_range_meters":18000,"station_id":"ce4bhk92rcd13ifvqgb0","pricing_plan_id":"cebpf4jnsgd1na2vs0mg"},{"bike_id":"28f5c609-94bd-4f1d-9186-f66e4c2140b5","system_id":"levelo_inurba_marseille","lat":43.30741,"lon":5.42432,"is_reserved":false,"is_disabled":false,"rental_uris":{"android":"levelo://app?vid=28f5c609-94bd-4f1d-9186-f66e4c2140b5","ios":"levelo://app?vid=28f5c609-94bd-4f1d-9186-f66e4c2140b5"},"vehicle_type_id":"4","last_reported":1762081644,"current_range_meters":18000,"station_id":"st_cvj6ca6bvosntc0bfgr0","pricing_plan_id":"cebpf4jnsgd1na2vs0mg"},{"bike_id":"bc97e72b-f479-4cfb-ba90-458ce1432bd8","system_id":"levelo_inurba_marseille","lat":43.30287,"lon":5.37699,"is_reserved":false,"is_disabled":true,"rental_uris":{"android":"levelo://app?vid=bc97e72b-f479-4cfb-ba90-458ce1432bd8","ios":"levelo://app?vid=bc97e72b-f479-4cfb-ba90-458ce1432bd8"},"vehicle_type_id":"4","last_reported":1762081644,"current_range_meters":18000,"station_id":"ce4bguh2rcd13ifvqcj0","pricing_plan_id":"cebpf4jnsgd1na2vs0mg"},{"bike_id":"f43c9563-373d-44c5-beea-f56e2ccc2341","system_id":"levelo_inurba_marseille","lat":43.33024,"lon":5.3905,"is_reserved":false,"is_disabled":false,"rental_uris":{"android":"levelo://app?vid=f43c9563-373d-44c5-beea-f56e2ccc2341","ios":"levelo://app?vid=f43c9563-373d-44c5-beea-f56e2ccc2341"},"vehicle_type_id":"4","last_reported":1762081644,"current_range_meters":18000,"station_id":"ce4bhr92rcd13ifvqhrg","pricing_plan_id":"cebpf4jnsgd1na2vs0mg"},{"bike_id":"9cf7e28f-7b0d-4c2c-a2b9-f3633fadfc11","system_id":"levelo_inurba_marseille","lat":43.31885,"lon":5.40741,"is_reserved":false,"is_disabled":false,"rental_uris":{"android":"levelo://app?vid=9cf7e28f-7b0d-4c2c-a2b9-f3633fadfc11","ios":"levelo://app?vid=9cf7e28f-7b0d-4c2c-a2b9-f3633fadfc11"},"vehicle_type_id":"4","last_reported":1762081644,"current_range_meters":18000,"station_id":"ce4bhq12rcd13ifvqhig","pricing_plan_id":"cebpf4jnsgd1na2vs0mg"},{"bike_id":"fee9f203-94b0-4e27-9dfb-d61c05870c4b","system_id":"levelo_inurba_marseille","lat":43.282168,"lon":5.390522,"is_reserved":false,"is_disabled":false,"rental_uris":{"android":"levelo://app?vid=fee9f203-94b0-4e27-9dfb-d61c05870c4b","ios":"levelo://app?vid=fee9f203-94b0-4e27-9dfb-d61c05870c4b"},"vehicle_type_id":"4","last_reported":1762081644,"current_range_meters":18800,"station_id":"ce4bhn92rcd13ifvqgsg","pricing_plan_id":"cebpf4jnsgd1na2vs0mg"},{"bike_id":"ef3051ac-87a4-400e-a432-5bfc2a83a3e3","system_id":"levelo_inurba_marseille","lat":43.32471,"lon":5.36559,"is_reserved":false,"is_disabled":false,"rental_uris":{"android":"levelo://app?vid=ef3051ac-87a4-400e-a432-5bfc2a83a3e3","ios":"levelo://app?vid=ef3051ac-87a4-400e-a432-5bfc2a83a3e3"},"vehicle_type_id":"4","last_reported":1762081644,"current_range_meters":18800,"station_id":"ce4bhs12rcd13ifvqhvg","pricing_plan_id":"cebpf4jnsgd1na2vs0mg"},{"bike_id":"098d7ae5-5b2b-4d49-ad2f-d14f29937957","system_id":"levelo_inurba_marseille","lat":43.28965,"lon":5.37817,"is_reserved":false,"is_disabled":true,"rental_uris":{"android":"levelo://app?vid=098d7ae5-5b2b-4d49-ad2f-d14f29937957","ios":"levelo://app?vid=098d7ae5-5b2b-4d49-ad2f-d14f29937957"},"vehicle_type_id":"4","last_reported":1762081644,"current_range_meters":18800,"station_id":"ce4bh9p2rcd13ifvqed0","pricing_plan_id":"cebpf4jnsgd1na2vs0mg"},{"bike_id":"054e5513-a18a-4fec-bab2-96a168188b7d","system_id":"levelo_inurba_marseille","lat":43.31178,"lon":5.3737,"is_reserved":false,"is_disabled":false,"rental_uris":{"android":"levelo://app?vid=054e5513-a18a-4fec-bab2-96a168188b7d","ios":"levelo://app?vid=054e5513-a18a-4fec-bab2-96a168188b7d"},"vehicle_type_id":"4","last_reported":1762081644,"current_range_meters":18800,"station_id":"","pricing_plan_id":"cebpf4jnsgd1na2vs0mg"},{"bike_id":"1a9255c3-f809-427d-b153-cdb99d824189","system_id":"levelo_inurba_marseille","lat":43.24954,"lon":5.40496,"is_reserved":false,"is_disabled":false,"rental_uris":{"android":"levelo://app?vid=1a9255c3-f809-427d-b153-cdb99d824189","ios":"levelo://app?vid=1a9255c3-f809-427d-b153-cdb99d824189"},"vehicle_type_id":"4","last_reported":1762081644,"current_range_meters":18800,"station_id":"st_d2ngiaodas8pm72gd1h0","pricing_plan_id":"cebpf4jnsgd1na2vs0mg"},{"bike_id":"aa1fb131-3834-46c8-939c-62bf207a863b","system_id":"levelo_inurba_marseille","lat":43.27171,"lon":5.40991,"is_reserved":false,"is_disabled":false,"rental_uris":{"android":"levelo://app?vid=aa1fb131-3834-46c8-939c-62bf207a863b","ios":"levelo://app?vid=aa1fb131-3834-46c8-939c-62bf207a863b"},"vehicle_type_id":"4","last_reported":1762081644,"current_range_meters":18800,"station_id":"ce4bhl12rcd13ifvqgf0","pricing_plan_id":"cebpf4jnsgd1na2vs0mg"},{"bike_id":"85dce785-b2b7-4cf5-a34e-b4a9114ae38b","system_id":"levelo_inurba_marseille","lat":43.2841,"lon":5.34988,"is_reserved":false,"is_disabled":false,"rental_uris":{"android":"levelo://app?vid=85dce785-b2b7-4cf5-a34e-b4a9114ae38b","ios":"levelo://app?vid=85dce785-b2b7-4cf5-a34e-b4a9114ae38b"},"vehicle_type_id":"4","last_reported":1762081644,"current_range_meters":19200,"station_id":"ce4bhbh2rcd13ifvqepg","pricing_plan_id":"cebpf4jnsgd1na2vs0mg"},{"bike_id":"fc1f071d-8797-4bb2-bae4-8e91b42e36d1","system_id":"levelo_inurba_marseille","lat":43.29903,"lon":5.38148,"is_reserved":false,"is_disabled":false,"rental_uris":{"android":"levelo://app?vid=fc1f071d-8797-4bb2-bae4-8e91b42e36d1","ios":"levelo://app?vid=fc1f071d-8797-4bb2-bae4-8e91b42e36d1"},"vehicle_type_id":"4","last_reported":1762081644,"current_range_meters":19200,"station_id":"ce4bgj12rcd13ifvqbc0","pricing_plan_id":"cebpf4jnsgd1na2vs0mg"},{"bike_id":"75214922-1e7d-4be3-84ae-23b8d8279199","system_id":"levelo_inurba_marseille","lat":43.32464,"lon":5.36567,"is_reserved":false,"is_disabled":false,"rental_uris":{"android":"levelo://app?vid=75214922-1e7d-4be3-84ae-23b8d8279199","ios":"levelo://app?vid=75214922-1e7d-4be3-84ae-23b8d8279199"},"vehicle_type_id":"4","last_reported":1762081644,"current_range_meters":19200,"station_id":"ce4bhs12rcd13ifvqhvg","pricing_plan_id":"cebpf4jnsgd1na2vs0mg"},{"bike_id":"06756d68-f601-4313-a049-fec54d37d722","system_id":"levelo_inurba_marseille","lat":43.336107,"lon":5.410388,"is_reserved":false,"is_disabled":false,"rental_uris":{"android":"levelo://app?vid=06756d68-f601-4313-a049-fec54d37d722","ios":"levelo://app?vid=06756d68-f601-4313-a049-fec54d37d722"},"vehicle_type_id":"4","last_reported":1762081644,"current_range_meters":19200,"station_id":"ce4bhq92rcd13ifvqhkg","pricing_plan_id":"cebpf4jnsgd1na2vs0mg"},{"bike_id":"a1d40ddf-b5bf-4e28-b501-19b855936b47","system_id":"levelo_inurba_marseille","lat":43.281062,"lon":5.378332,"is_reserved":false,"is_disabled":false,"rental_uris":{"android":"levelo://app?vid=a1d40ddf-b5bf-4e28-b501-19b855936b47","ios":"levelo://app?vid=a1d40ddf-b5bf-4e28-b501-19b855936b47"},"vehicle_type_id":"4","last_reported":1762081644,"current_range_meters":19200,"station_id":"ce4bha12rcd13ifvqee0","pricing_plan_id":"cebpf4jnsgd1na2vs0mg"},{"bike_id":"1b1e71cc-c221-4e91-89c8-2d987f944d9c","system_id":"levelo_inurba_marseille","lat":43.241688,"lon":5.364087,"is_reserved":false,"is_disabled":true,"rental_uris":{"android":"levelo://app?vid=1b1e71cc-c221-4e91-89c8-2d987f944d9c","ios":"levelo://app?vid=1b1e71cc-c221-4e91-89c8-2d987f944d9c"},"vehicle_type_id":"4","last_reported":1762081644,"current_range_meters":19200,"station_id":"cpo36qri1sfpv3e86is0","pricing_plan_id":"cebpf4jnsgd1na2vs0mg"},{"bike_id":"45178dd9-b960-4161-871b-52bd5ff2bc66","system_id":"levelo_inurba_marseille","lat":43.25512,"lon":5.37648,"is_reserved":false,"is_disabled":false,"rental_uris":{"android":"levelo://app?vid=45178dd9-b960-4161-871b-52bd5ff2bc66","ios":"levelo://app?vid=45178dd9-b960-4161-871b-52bd5ff2bc66"},"vehicle_type_id":"4","last_reported":1762081644,"current_range_meters":19200,"station_id":"ce4bhh12rcd13ifvqff0","pricing_plan_id":"cebpf4jnsgd1na2vs0mg"},{"bike_id":"a09b7839-d620-4bdc-9e33-ea07afd23f6e","system_id":"levelo_inurba_marseille","lat":43.318845,"lon":5.407393,"is_reserved":false,"is_disabled":false,"rental_uris":{"android":"levelo://app?vid=a09b7839-d620-4bdc-9e33-ea07afd23f6e","ios":"levelo://app?vid=a09b7839-d620-4bdc-9e33-ea07afd23f6e"},"vehicle_type_id":"4","last_reported":1762081644,"current_range_meters":19200,"station_id":"ce4bhq12rcd13ifvqhig","pricing_plan_id":"cebpf4jnsgd1na2vs0mg"},{"bike_id":"d1b7e294-8ae6-48ef-89d0-e05e23f9f8e0","system_id":"levelo_inurba_marseille","lat":43.29534,"lon":5.36106,"is_reserved":false,"is_disabled":false,"rental_uris":{"android":"levelo://app?vid=d1b7e294-8ae6-48ef-89d0-e05e23f9f8e0","ios":"levelo://app?vid=d1b7e294-8ae6-48ef-89d0-e05e23f9f8e0"},"vehicle_type_id":"4","last_reported":1762081644,"current_range_meters":19200,"station_id":"","pricing_plan_id":"cebpf4jnsgd1na2vs0mg"},{"bike_id":"1842262b-c4fa-4c58-bfa7-eae300cf1010","system_id":"levelo_inurba_marseille","lat":43.28407,"lon":5.37511,"is_reserved":false,"is_disabled":false,"rental_uris":{"android":"levelo://app?vid=1842262b-c4fa-4c58-bfa7-eae300cf1010","ios":"levelo://app?vid=1842262b-c4fa-4c58-bfa7-eae300cf1010"},"vehicle_type_id":"4","last_reported":1762081644,"current_range_meters":19600,"station_id":"ce4bh412rcd13ifvqds0","pricing_plan_id":"cebpf4jnsgd1na2vs0mg"},{"bike_id":"8b8a8470-dd7e-4060-8e23-343b4874ef4f","system_id":"levelo_inurba_marseille","lat":43.299,"lon":5.38144,"is_reserved":false,"is_disabled":false,"rental_uris":{"android":"levelo://app?vid=8b8a8470-dd7e-4060-8e23-343b4874ef4f","ios":"levelo://app?vid=8b8a8470-dd7e-4060-8e23-343b4874ef4f"},"vehicle_type_id":"4","last_reported":1762081644,"current_range_meters":19600,"station_id":"ce4bgj12rcd13ifvqbc0","pricing_plan_id":"cebpf4jnsgd1na2vs0mg"},{"bike_id":"3bd878b7-73a7-47b5-9b84-e62b459e5e81","system_id":"levelo_inurba_marseille","lat":43.31375,"lon":5.3849,"is_reserved":false,"is_disabled":false,"rental_uris":{"android":"levelo://app?vid=3bd878b7-73a7-47b5-9b84-e62b459e5e81","ios":"levelo://app?vid=3bd878b7-73a7-47b5-9b84-e62b459e5e81"},"vehicle_type_id":"4","last_reported":1762081644,"current_range_meters":19600,"station_id":"ce4bgt92rcd13ifvqcf0","pricing_plan_id":"cebpf4jnsgd1na2vs0mg"},{"bike_id":"32d4a401-7eac-4706-9e22-d4c2a7e55b17","system_id":"levelo_inurba_marseille","lat":43.24633,"lon":5.43144,"is_reserved":false,"is_disabled":false,"rental_uris":{"android":"levelo://app?vid=32d4a401-7eac-4706-9e22-d4c2a7e55b17","ios":"levelo://app?vid=32d4a401-7eac-4706-9e22-d4c2a7e55b17"},"vehicle_type_id":"4","last_reported":1762081644,"current_range_meters":19600,"station_id":"st_d2m6c4gdas8pm72e190g","pricing_plan_id":"cebpf4jnsgd1na2vs0mg"},{"bike_id":"cfc27691-61f7-4b7d-9c2b-fa331c214f26","system_id":"levelo_inurba_marseille","lat":43.28033,"lon":5.36948,"is_reserved":false,"is_disabled":false,"rental_uris":{"android":"levelo://app?vid=cfc27691-61f7-4b7d-9c2b-fa331c214f26","ios":"levelo://app?vid=cfc27691-61f7-4b7d-9c2b-fa331c214f26"},"vehicle_type_id":"4","last_reported":1762081644,"current_range_meters":19600,"station_id":"ce4bha12rcd13ifvqef0","pricing_plan_id":"cebpf4jnsgd1na2vs0mg"},{"bike_id":"4c4b8bcf-4ef8-4551-8b0c-0892f8af6559","system_id":"levelo_inurba_marseille","lat":43.2257,"lon":5.4163,"is_reserved":false,"is_disabled":false,"rental_uris":{"android":"levelo://app?vid=4c4b8bcf-4ef8-4551-8b0c-0892f8af6559","ios":"levelo://app?vid=4c4b8bcf-4ef8-4551-8b0c-0892f8af6559"},"vehicle_type_id":"4","last_reported":1762081644,"current_range_meters":19600,"station_id":"st_d2o4gvlbi1j2169b742g","pricing_plan_id":"cebpf4jnsgd1na2vs0mg"},{"bike_id":"88518052-44e4-4486-a814-c8e987810fd6","system_id":"levelo_inurba_marseille","lat":43.29339,"lon":5.38224,"is_reserved":false,"is_disabled":false,"rental_uris":{"android":"levelo://app?vid=88518052-44e4-4486-a814-c8e987810fd6","ios":"levelo://app?vid=88518052-44e4-4486-a814-c8e987810fd6"},"vehicle_type_id":"4","last_reported":1762081644,"current_range_meters":19600,"station_id":"","pricing_plan_id":"cebpf4jnsgd1na2vs0mg"},{"bike_id":"3f026d9f-5d5e-4e07-8d95-e006607fa497","system_id":"levelo_inurba_marseille","lat":43.32544,"lon":5.41446,"is_reserved":false,"is_disabled":false,"rental_uris":{"android":"levelo://app?vid=3f026d9f-5d5e-4e07-8d95-e006607fa497","ios":"levelo://app?vid=3f026d9f-5d5e-4e07-8d95-e006607fa497"},"vehicle_type_id":"4","last_reported":1762081644,"current_range_meters":19600,"station_id":"ce4bhq12rcd13ifvqhhg","pricing_plan_id":"cebpf4jnsgd1na2vs0mg"},{"bike_id":"03518348-a473-43a5-aebe-4dbf2f87920e","system_id":"levelo_inurba_marseille","lat":43.28489,"lon":5.37878,"is_reserved":false,"is_disabled":false,"rental_uris":{"android":"levelo://app?vid=03518348-a473-43a5-aebe-4dbf2f87920e","ios":"levelo://app?vid=03518348-a473-43a5-aebe-4dbf2f87920e"},"vehicle_type_id":"4","last_reported":1762081644,"current_range_meters":19600,"station_id":"","pricing_plan_id":"cebpf4jnsgd1na2vs0mg"},{"bike_id":"65704be6-ac84-4acf-baea-c92238a0fc97","system_id":"levelo_inurba_marseille","lat":43.24396,"lon":5.37065,"is_reserved":false,"is_disabled":false,"rental_uris":{"android":"levelo://app?vid=65704be6-ac84-4acf-baea-c92238a0fc97","ios":"levelo://app?vid=65704be6-ac84-4acf-baea-c92238a0fc97"},"vehicle_type_id":"4","last_reported":1762081644,"current_range_meters":19600,"station_id":"ce4bhhh2rcd13ifvqfk0","pricing_plan_id":"cebpf4jnsgd1na2vs0mg"},{"bike_id":"f2634596-011c-4be3-9ce6-e77682f4a8fd","system_id":"levelo_inurba_marseille","lat":43.30886,"lon":5.39635,"is_reserved":false,"is_disabled":false,"rental_uris":{"android":"levelo://app?vid=f2634596-011c-4be3-9ce6-e77682f4a8fd","ios":"levelo://app?vid=f2634596-011c-4be3-9ce6-e77682f4a8fd"},"vehicle_type_id":"4","last_reported":1762081644,"current_range_meters":20000,"station_id":"ce4bh012rcd13ifvqcv0","pricing_plan_id":"cebpf4jnsgd1na2vs0mg"},{"bike_id":"35385ef5-b4e0-4f74-9547-2a9031e588e3","system_id":"levelo_inurba_marseille","lat":43.23777,"lon":5.366276,"is_reserved":false,"is_disabled":false,"rental_uris":{"android":"levelo://app?vid=35385ef5-b4e0-4f74-9547-2a9031e588e3","ios":"levelo://app?vid=35385ef5-b4e0-4f74-9547-2a9031e588e3"},"vehicle_type_id":"4","last_reported":1762081644,"current_range_meters":20000,"station_id":"st_d3nk18o9ro0c73en2l3g","pricing_plan_id":"cebpf4jnsgd1na2vs0mg"},{"bike_id":"c0e54837-9032-4227-847b-bb4aeff13a22","system_id":"levelo_inurba_marseille","lat":43.30145,"lon":5.38079,"is_reserved":false,"is_disabled":false,"rental_uris":{"android":"levelo://app?vid=c0e54837-9032-4227-847b-bb4aeff13a22","ios":"levelo://app?vid=c0e54837-9032-4227-847b-bb4aeff13a22"},"vehicle_type_id":"4","last_reported":1762081644,"current_range_meters":20000,"station_id":"ce4bgjp2rcd13ifvqbh0","pricing_plan_id":"cebpf4jnsgd1na2vs0mg"},{"bike_id":"5bcbeb3d-1951-4b3f-9407-6125ab50a054","system_id":"levelo_inurba_marseille","lat":43.24987,"lon":5.3892,"is_reserved":false,"is_disabled":false,"rental_uris":{"android":"levelo://app?vid=5bcbeb3d-1951-4b3f-9407-6125ab50a054","ios":"levelo://app?vid=5bcbeb3d-1951-4b3f-9407-6125ab50a054"},"vehicle_type_id":"4","last_reported":1762081644,"current_range_meters":20000,"station_id":"ce4bhgp2rcd13ifvqfd0","pricing_plan_id":"cebpf4jnsgd1na2vs0mg"},{"bike_id":"2aa5ca15-b2b3-4ce6-9617-929a2f170c50","system_id":"levelo_inurba_marseille","lat":43.2841,"lon":5.34985,"is_reserved":false,"is_disabled":false,"rental_uris":{"android":"levelo://app?vid=2aa5ca15-b2b3-4ce6-9617-929a2f170c50","ios":"levelo://app?vid=2aa5ca15-b2b3-4ce6-9617-929a2f170c50"},"vehicle_type_id":"4","last_reported":1762081644,"current_range_meters":20000,"station_id":"ce4bhbh2rcd13ifvqepg","pricing_plan_id":"cebpf4jnsgd1na2vs0mg"},{"bike_id":"6d91648c-e5ff-403d-bfdd-a4dfa274490c","system_id":"levelo_inurba_marseille","lat":43.30531,"lon":5.36533,"is_reserved":false,"is_disabled":false,"rental_uris":{"android":"levelo://app?vid=6d91648c-e5ff-403d-bfdd-a4dfa274490c","ios":"levelo://app?vid=6d91648c-e5ff-403d-bfdd-a4dfa274490c"},"vehicle_type_id":"4","last_reported":1762081644,"current_range_meters":20000,"station_id":"ce4bgs12rcd13ifvqcag","pricing_plan_id":"cebpf4jnsgd1na2vs0mg"},{"bike_id":"a8f52898-903a-45e7-b6d9-ff3f8e35dcb6","system_id":"levelo_inurba_marseille","lat":43.26928,"lon":5.38924,"is_reserved":false,"is_disabled":false,"rental_uris":{"android":"levelo://app?vid=a8f52898-903a-45e7-b6d9-ff3f8e35dcb6","ios":"levelo://app?vid=a8f52898-903a-45e7-b6d9-ff3f8e35dcb6"},"vehicle_type_id":"4","last_reported":1762081644,"current_range_meters":20000,"station_id":"ce4bhhh2rcd13ifvqfl0","pricing_plan_id":"cebpf4jnsgd1na2vs0mg"},{"bike_id":"41a0e05b-05bf-4f74-92d2-741c85fb6fe4","system_id":"levelo_inurba_marseille","lat":43.25513,"lon":5.37656,"is_reserved":false,"is_disabled":true,"rental_uris":{"android":"levelo://app?vid=41a0e05b-05bf-4f74-92d2-741c85fb6fe4","ios":"levelo://app?vid=41a0e05b-05bf-4f74-92d2-741c85fb6fe4"},"vehicle_type_id":"4","last_reported":1762081644,"current_range_meters":20000,"station_id":"ce4bhh12rcd13ifvqff0","pricing_plan_id":"cebpf4jnsgd1na2vs0mg"},{"bike_id":"14e0fcd6-488b-4da1-b9ec-2f06247e9652","system_id":"levelo_inurba_marseille","lat":43.307268,"lon":5.424499,"is_reserved":false,"is_disabled":false,"rental_uris":{"android":"levelo://app?vid=14e0fcd6-488b-4da1-b9ec-2f06247e9652","ios":"levelo://app?vid=14e0fcd6-488b-4da1-b9ec-2f06247e9652"},"vehicle_type_id":"4","last_reported":1762081644,"current_range_meters":20000,"station_id":"st_cvj6ca6bvosntc0bfgr0","pricing_plan_id":"cebpf4jnsgd1na2vs0mg"},{"bike_id":"7d29e189-d1a2-4543-b815-e8c8b283bc2a","system_id":"levelo_inurba_marseille","lat":43.324845,"lon":5.365635,"is_reserved":false,"is_disabled":false,"rental_uris":{"android":"levelo://app?vid=7d29e189-d1a2-4543-b815-e8c8b283bc2a","ios":"levelo://app?vid=7d29e189-d1a2-4543-b815-e8c8b283bc2a"},"vehicle_type_id":"4","last_reported":1762081644,"current_range_meters":20000,"station_id":"ce4bhs12rcd13ifvqhvg","pricing_plan_id":"cebpf4jnsgd1na2vs0mg"},{"bike_id":"64c859db-804e-46f5-9f94-785321785082","system_id":"levelo_inurba_marseille","lat":43.279448,"lon":5.410436,"is_reserved":false,"is_disabled":false,"rental_uris":{"android":"levelo://app?vid=64c859db-804e-46f5-9f94-785321785082","ios":"levelo://app?vid=64c859db-804e-46f5-9f94-785321785082"},"vehicle_type_id":"4","last_reported":1762081644,"current_range_meters":20000,"station_id":"ce4bhnp2rcd13ifvqh0g","pricing_plan_id":"cebpf4jnsgd1na2vs0mg"},{"bike_id":"e354ed2b-01df-47b5-abca-0ddc8904e7a8","system_id":"levelo_inurba_marseille","lat":43.26559,"lon":5.40322,"is_reserved":false,"is_disabled":false,"rental_uris":{"android":"levelo://app?vid=e354ed2b-01df-47b5-abca-0ddc8904e7a8","ios":"levelo://app?vid=e354ed2b-01df-47b5-abca-0ddc8904e7a8"},"vehicle_type_id":"4","last_reported":1762081644,"current_range_meters":20000,"station_id":"ce4bhmp2rcd13ifvqgng","pricing_plan_id":"cebpf4jnsgd1na2vs0mg"},{"bike_id":"05d6a3f7-b83a-4da1-9593-ef5015b8f8ec","system_id":"levelo_inurba_marseille","lat":43.27978,"lon":5.39959,"is_reserved":false,"is_disabled":false,"rental_uris":{"android":"levelo://app?vid=05d6a3f7-b83a-4da1-9593-ef5015b8f8ec","ios":"levelo://app?vid=05d6a3f7-b83a-4da1-9593-ef5015b8f8ec"},"vehicle_type_id":"4","last_reported":1762081644,"current_range_meters":20000,"station_id":"ce4bho92rcd13ifvqh4g","pricing_plan_id":"cebpf4jnsgd1na2vs0mg"},{"bike_id":"600594a6-be69-4e43-ad17-c2d891da9a62","system_id":"levelo_inurba_marseille","lat":43.29022,"lon":5.38129,"is_reserved":false,"is_disabled":true,"rental_uris":{"android":"levelo://app?vid=600594a6-be69-4e43-ad17-c2d891da9a62","ios":"levelo://app?vid=600594a6-be69-4e43-ad17-c2d891da9a62"},"vehicle_type_id":"4","last_reported":1762081644,"current_range_meters":20400,"station_id":"ce4bh4p2rcd13ifvqe1g","pricing_plan_id":"cebpf4jnsgd1na2vs0mg"},{"bike_id":"782a02c9-f51b-4b61-89b2-ec2ecf7d0e40","system_id":"levelo_inurba_marseille","lat":43.24951,"lon":5.40498,"is_reserved":false,"is_disabled":false,"rental_uris":{"android":"levelo://app?vid=782a02c9-f51b-4b61-89b2-ec2ecf7d0e40","ios":"levelo://app?vid=782a02c9-f51b-4b61-89b2-ec2ecf7d0e40"},"vehicle_type_id":"4","last_reported":1762081644,"current_range_meters":20400,"station_id":"st_d2ngiaodas8pm72gd1h0","pricing_plan_id":"cebpf4jnsgd1na2vs0mg"},{"bike_id":"145adec1-02ad-4d16-a5dd-42bf80721343","system_id":"levelo_inurba_marseille","lat":43.30106,"lon":5.38461,"is_reserved":false,"is_disabled":false,"rental_uris":{"android":"levelo://app?vid=145adec1-02ad-4d16-a5dd-42bf80721343","ios":"levelo://app?vid=145adec1-02ad-4d16-a5dd-42bf80721343"},"vehicle_type_id":"4","last_reported":1762081644,"current_range_meters":20400,"station_id":"","pricing_plan_id":"cebpf4jnsgd1na2vs0mg"},{"bike_id":"9b4f8a38-bb2b-47df-869e-10b9daca81e2","system_id":"levelo_inurba_marseille","lat":43.31699,"lon":5.40478,"is_reserved":false,"is_disabled":false,"rental_uris":{"android":"levelo://app?vid=9b4f8a38-bb2b-47df-869e-10b9daca81e2","ios":"levelo://app?vid=9b4f8a38-bb2b-47df-869e-10b9daca81e2"},"vehicle_type_id":"4","last_reported":1762081644,"current_range_meters":20400,"station_id":"ce4bh012rcd13ifvqd00","pricing_plan_id":"cebpf4jnsgd1na2vs0mg"},{"bike_id":"475da4dc-7df8-407a-a6ed-fa7a336a62b2","system_id":"levelo_inurba_marseille","lat":43.28412,"lon":5.37511,"is_reserved":false,"is_disabled":false,"rental_uris":{"android":"levelo://app?vid=475da4dc-7df8-407a-a6ed-fa7a336a62b2","ios":"levelo://app?vid=475da4dc-7df8-407a-a6ed-fa7a336a62b2"},"vehicle_type_id":"4","last_reported":1762081644,"current_range_meters":20400,"station_id":"ce4bh412rcd13ifvqds0","pricing_plan_id":"cebpf4jnsgd1na2vs0mg"},{"bike_id":"5eb9db26-abf8-4b3a-a40c-77af04cc957e","system_id":"levelo_inurba_marseille","lat":43.24167,"lon":5.364,"is_reserved":false,"is_disabled":false,"rental_uris":{"android":"levelo://app?vid=5eb9db26-abf8-4b3a-a40c-77af04cc957e","ios":"levelo://app?vid=5eb9db26-abf8-4b3a-a40c-77af04cc957e"},"vehicle_type_id":"4","last_reported":1762081644,"current_range_meters":20400,"station_id":"cpo36qri1sfpv3e86is0","pricing_plan_id":"cebpf4jnsgd1na2vs0mg"},{"bike_id":"02398972-baa4-4212-985f-9499bda6ab9a","system_id":"levelo_inurba_marseille","lat":43.27997,"lon":5.40014,"is_reserved":false,"is_disabled":false,"rental_uris":{"android":"levelo://app?vid=02398972-baa4-4212-985f-9499bda6ab9a","ios":"levelo://app?vid=02398972-baa4-4212-985f-9499bda6ab9a"},"vehicle_type_id":"4","last_reported":1762081644,"current_range_meters":20400,"station_id":"ce4bho92rcd13ifvqh4g","pricing_plan_id":"cebpf4jnsgd1na2vs0mg"},{"bike_id":"aa22c237-e3ca-42a8-bc4a-a192c77c4abb","system_id":"levelo_inurba_marseille","lat":43.22923,"lon":5.353725,"is_reserved":false,"is_disabled":false,"rental_uris":{"android":"levelo://app?vid=aa22c237-e3ca-42a8-bc4a-a192c77c4abb","ios":"levelo://app?vid=aa22c237-e3ca-42a8-bc4a-a192c77c4abb"},"vehicle_type_id":"4","last_reported":1762081644,"current_range_meters":20400,"station_id":"cpo3532slgdg3j2ikp40","pricing_plan_id":"cebpf4jnsgd1na2vs0mg"},{"bike_id":"af9530b9-dd7e-4485-9204-54acae1ed4ad","system_id":"levelo_inurba_marseille","lat":43.25724,"lon":5.411,"is_reserved":false,"is_disabled":false,"rental_uris":{"android":"levelo://app?vid=af9530b9-dd7e-4485-9204-54acae1ed4ad","ios":"levelo://app?vid=af9530b9-dd7e-4485-9204-54acae1ed4ad"},"vehicle_type_id":"4","last_reported":1762081644,"current_range_meters":20400,"station_id":"ce4bhkp2rcd13ifvqgd0","pricing_plan_id":"cebpf4jnsgd1na2vs0mg"},{"bike_id":"7aef1029-9880-4ac1-bc62-5df1ae769dad","system_id":"levelo_inurba_marseille","lat":43.30995,"lon":5.37074,"is_reserved":false,"is_disabled":false,"rental_uris":{"android":"levelo://app?vid=7aef1029-9880-4ac1-bc62-5df1ae769dad","ios":"levelo://app?vid=7aef1029-9880-4ac1-bc62-5df1ae769dad"},"vehicle_type_id":"4","last_reported":1762081644,"current_range_meters":20400,"station_id":"","pricing_plan_id":"cebpf4jnsgd1na2vs0mg"},{"bike_id":"399c8bf8-9edd-4379-bde8-1f0ffe36e628","system_id":"levelo_inurba_marseille","lat":43.30872,"lon":5.39647,"is_reserved":false,"is_disabled":false,"rental_uris":{"android":"levelo://app?vid=399c8bf8-9edd-4379-bde8-1f0ffe36e628","ios":"levelo://app?vid=399c8bf8-9edd-4379-bde8-1f0ffe36e628"},"vehicle_type_id":"4","last_reported":1762081644,"current_range_meters":20400,"station_id":"ce4bh012rcd13ifvqcv0","pricing_plan_id":"cebpf4jnsgd1na2vs0mg"},{"bike_id":"3f67728b-931e-41fe-9bd1-69ac5583ae2b","system_id":"levelo_inurba_marseille","lat":43.28409,"lon":5.37508,"is_reserved":false,"is_disabled":false,"rental_uris":{"android":"levelo://app?vid=3f67728b-931e-41fe-9bd1-69ac5583ae2b","ios":"levelo://app?vid=3f67728b-931e-41fe-9bd1-69ac5583ae2b"},"vehicle_type_id":"4","last_reported":1762081644,"current_range_meters":20800,"station_id":"ce4bh412rcd13ifvqds0","pricing_plan_id":"cebpf4jnsgd1na2vs0mg"},{"bike_id":"7697f83b-11c1-4978-89f1-e9d9aca50ac7","system_id":"levelo_inurba_marseille","lat":43.24654,"lon":5.38185,"is_reserved":false,"is_disabled":true,"rental_uris":{"android":"levelo://app?vid=7697f83b-11c1-4978-89f1-e9d9aca50ac7","ios":"levelo://app?vid=7697f83b-11c1-4978-89f1-e9d9aca50ac7"},"vehicle_type_id":"4","last_reported":1762081644,"current_range_meters":20800,"station_id":"ce4bhih2rcd13ifvqfr0","pricing_plan_id":"cebpf4jnsgd1na2vs0mg"},{"bike_id":"78fd86d5-da4c-4278-affd-7283f0275d72","system_id":"levelo_inurba_marseille","lat":43.27815,"lon":5.40697,"is_reserved":false,"is_disabled":false,"rental_uris":{"android":"levelo://app?vid=78fd86d5-da4c-4278-affd-7283f0275d72","ios":"levelo://app?vid=78fd86d5-da4c-4278-affd-7283f0275d72"},"vehicle_type_id":"4","last_reported":1762081644,"current_range_meters":20800,"station_id":"ce4bhnh2rcd13ifvqgtg","pricing_plan_id":"cebpf4jnsgd1na2vs0mg"},{"bike_id":"ac2f2e0c-7f3a-4615-95a9-755ddbeafcff","system_id":"levelo_inurba_marseille","lat":43.27375,"lon":5.36252,"is_reserved":false,"is_disabled":true,"rental_uris":{"android":"levelo://app?vid=ac2f2e0c-7f3a-4615-95a9-755ddbeafcff","ios":"levelo://app?vid=ac2f2e0c-7f3a-4615-95a9-755ddbeafcff"},"vehicle_type_id":"4","last_reported":1762081644,"current_range_meters":20800,"station_id":"ce4bhbh2rcd13ifvqeo0","pricing_plan_id":"cebpf4jnsgd1na2vs0mg"},{"bike_id":"7a27b6eb-36c3-4fa3-8606-29d1886c95ee","system_id":"levelo_inurba_marseille","lat":43.249587,"lon":5.389125,"is_reserved":false,"is_disabled":false,"rental_uris":{"android":"levelo://app?vid=7a27b6eb-36c3-4fa3-8606-29d1886c95ee","ios":"levelo://app?vid=7a27b6eb-36c3-4fa3-8606-29d1886c95ee"},"vehicle_type_id":"4","last_reported":1762081644,"current_range_meters":20800,"station_id":"ce4bhgp2rcd13ifvqfd0","pricing_plan_id":"cebpf4jnsgd1na2vs0mg"},{"bike_id":"f234ad47-0901-40bf-a06a-e46adc6b907e","system_id":"levelo_inurba_marseille","lat":43.23185,"lon":5.35557,"is_reserved":false,"is_disabled":true,"rental_uris":{"android":"levelo://app?vid=f234ad47-0901-40bf-a06a-e46adc6b907e","ios":"levelo://app?vid=f234ad47-0901-40bf-a06a-e46adc6b907e"},"vehicle_type_id":"4","last_reported":1762081644,"current_range_meters":20800,"station_id":"ce4bhu92rcd13ifvqi70","pricing_plan_id":"cebpf4jnsgd1na2vs0mg"},{"bike_id":"51bf3cb7-470c-477e-9e73-8c565aae20cb","system_id":"levelo_inurba_marseille","lat":43.2975,"lon":5.42783,"is_reserved":false,"is_disabled":false,"rental_uris":{"android":"levelo://app?vid=51bf3cb7-470c-477e-9e73-8c565aae20cb","ios":"levelo://app?vid=51bf3cb7-470c-477e-9e73-8c565aae20cb"},"vehicle_type_id":"4","last_reported":1762081644,"current_range_meters":21600,"station_id":"st_d3md5207bmas73dh9klg","pricing_plan_id":"cebpf4jnsgd1na2vs0mg"},{"bike_id":"5eee67bb-3614-4f3b-ab22-554d031d3012","system_id":"levelo_inurba_marseille","lat":43.25711,"lon":5.41124,"is_reserved":false,"is_disabled":false,"rental_uris":{"android":"levelo://app?vid=5eee67bb-3614-4f3b-ab22-554d031d3012","ios":"levelo://app?vid=5eee67bb-3614-4f3b-ab22-554d031d3012"},"vehicle_type_id":"4","last_reported":1762081644,"current_range_meters":21600,"station_id":"ce4bhkp2rcd13ifvqgd0","pricing_plan_id":"cebpf4jnsgd1na2vs0mg"},{"bike_id":"258d165a-449f-4925-b56e-beae8f481fb2","system_id":"levelo_inurba_marseille","lat":43.284004,"lon":5.349923,"is_reserved":false,"is_disabled":true,"rental_uris":{"android":"levelo://app?vid=258d165a-449f-4925-b56e-beae8f481fb2","ios":"levelo://app?vid=258d165a-449f-4925-b56e-beae8f481fb2"},"vehicle_type_id":"4","last_reported":1762081644,"current_range_meters":21600,"station_id":"","pricing_plan_id":"cebpf4jnsgd1na2vs0mg"},{"bike_id":"7b3ada81-0ff3-49e9-8471-eb10e4c9b7f2","system_id":"levelo_inurba_marseille","lat":43.290189,"lon":5.381331,"is_reserved":false,"is_disabled":false,"rental_uris":{"android":"levelo://app?vid=7b3ada81-0ff3-49e9-8471-eb10e4c9b7f2","ios":"levelo://app?vid=7b3ada81-0ff3-49e9-8471-eb10e4c9b7f2"},"vehicle_type_id":"4","last_reported":1762081644,"current_range_meters":21600,"station_id":"ce4bh4p2rcd13ifvqe1g","pricing_plan_id":"cebpf4jnsgd1na2vs0mg"},{"bike_id":"d832187b-0cde-49a0-bf94-c76879c710ab","system_id":"levelo_inurba_marseille","lat":43.308829,"lon":5.396405,"is_reserved":false,"is_disabled":false,"rental_uris":{"android":"levelo://app?vid=d832187b-0cde-49a0-bf94-c76879c710ab","ios":"levelo://app?vid=d832187b-0cde-49a0-bf94-c76879c710ab"},"vehicle_type_id":"4","last_reported":1762081644,"current_range_meters":21600,"station_id":"ce4bh012rcd13ifvqcv0","pricing_plan_id":"cebpf4jnsgd1na2vs0mg"},{"bike_id":"e8adea7e-0a90-49fd-b3a2-32134cae9db0","system_id":"levelo_inurba_marseille","lat":43.211877,"lon":5.350778,"is_reserved":false,"is_disabled":false,"rental_uris":{"android":"levelo://app?vid=e8adea7e-0a90-49fd-b3a2-32134cae9db0","ios":"levelo://app?vid=e8adea7e-0a90-49fd-b3a2-32134cae9db0"},"vehicle_type_id":"4","last_reported":1762081644,"current_range_meters":21600,"station_id":"","pricing_plan_id":"cebpf4jnsgd1na2vs0mg"},{"bike_id":"af4f7b47-7d8e-4840-b717-1f79462c0609","system_id":"levelo_inurba_marseille","lat":43.296854,"lon":5.378428,"is_reserved":false,"is_disabled":false,"rental_uris":{"android":"levelo://app?vid=af4f7b47-7d8e-4840-b717-1f79462c0609","ios":"levelo://app?vid=af4f7b47-7d8e-4840-b717-1f79462c0609"},"vehicle_type_id":"4","last_reported":1762081644,"current_range_meters":21600,"station_id":"","pricing_plan_id":"cebpf4jnsgd1na2vs0mg"},{"bike_id":"7266ed46-2381-404a-9c13-a92f05fa953b","system_id":"levelo_inurba_marseille","lat":43.337608,"lon":5.374329,"is_reserved":false,"is_disabled":false,"rental_uris":{"android":"levelo://app?vid=7266ed46-2381-404a-9c13-a92f05fa953b","ios":"levelo://app?vid=7266ed46-2381-404a-9c13-a92f05fa953b"},"vehicle_type_id":"4","last_reported":1762081644,"current_range_meters":21600,"station_id":"","pricing_plan_id":"cebpf4jnsgd1na2vs0mg"},{"bike_id":"a8d0be4c-3e38-4247-b462-6e35f9043fea","system_id":"levelo_inurba_marseille","lat":43.25723,"lon":5.41093,"is_reserved":false,"is_disabled":true,"rental_uris":{"android":"levelo://app?vid=a8d0be4c-3e38-4247-b462-6e35f9043fea","ios":"levelo://app?vid=a8d0be4c-3e38-4247-b462-6e35f9043fea"},"vehicle_type_id":"4","last_reported":1762081644,"current_range_meters":21600,"station_id":"ce4bhkp2rcd13ifvqgd0","pricing_plan_id":"cebpf4jnsgd1na2vs0mg"},{"bike_id":"9b967414-fd89-4596-b266-32953e561c9a","system_id":"levelo_inurba_marseille","lat":43.28951,"lon":5.39228,"is_reserved":false,"is_disabled":false,"rental_uris":{"android":"levelo://app?vid=9b967414-fd89-4596-b266-32953e561c9a","ios":"levelo://app?vid=9b967414-fd89-4596-b266-32953e561c9a"},"vehicle_type_id":"4","last_reported":1762081644,"current_range_meters":21600,"station_id":"","pricing_plan_id":"cebpf4jnsgd1na2vs0mg"},{"bike_id":"627502f7-03a4-47f2-998e-ce05cfe41b9b","system_id":"levelo_inurba_marseille","lat":43.2407,"lon":5.37763,"is_reserved":false,"is_disabled":false,"rental_uris":{"android":"levelo://app?vid=627502f7-03a4-47f2-998e-ce05cfe41b9b","ios":"levelo://app?vid=627502f7-03a4-47f2-998e-ce05cfe41b9b"},"vehicle_type_id":"4","last_reported":1762081644,"current_range_meters":22000,"station_id":"ce4bhnp2rcd13ifvqgvg","pricing_plan_id":"cebpf4jnsgd1na2vs0mg"},{"bike_id":"2d7457f6-2302-48b2-9baf-754daa46d361","system_id":"levelo_inurba_marseille","lat":43.25337,"lon":5.42164,"is_reserved":false,"is_disabled":false,"rental_uris":{"android":"levelo://app?vid=2d7457f6-2302-48b2-9baf-754daa46d361","ios":"levelo://app?vid=2d7457f6-2302-48b2-9baf-754daa46d361"},"vehicle_type_id":"4","last_reported":1762081644,"current_range_meters":22000,"station_id":"st_d2m65c5bi1j21697t3ng","pricing_plan_id":"cebpf4jnsgd1na2vs0mg"},{"bike_id":"bc811a37-194a-4aff-9255-507350659e84","system_id":"levelo_inurba_marseille","lat":43.305499,"lon":5.367401,"is_reserved":false,"is_disabled":false,"rental_uris":{"android":"levelo://app?vid=bc811a37-194a-4aff-9255-507350659e84","ios":"levelo://app?vid=bc811a37-194a-4aff-9255-507350659e84"},"vehicle_type_id":"4","last_reported":1762081644,"current_range_meters":22000,"station_id":"ce4bgrp2rcd13ifvqc9g","pricing_plan_id":"cebpf4jnsgd1na2vs0mg"},{"bike_id":"b5d46701-5459-4db4-8f22-762d861e46ca","system_id":"levelo_inurba_marseille","lat":43.304918,"lon":5.367176,"is_reserved":false,"is_disabled":false,"rental_uris":{"android":"levelo://app?vid=b5d46701-5459-4db4-8f22-762d861e46ca","ios":"levelo://app?vid=b5d46701-5459-4db4-8f22-762d861e46ca"},"vehicle_type_id":"4","last_reported":1762081644,"current_range_meters":22000,"station_id":"ce4bgs12rcd13ifvqcag","pricing_plan_id":"cebpf4jnsgd1na2vs0mg"},{"bike_id":"7ee96323-da9c-4c60-bbe4-d1054018acab","system_id":"levelo_inurba_marseille","lat":43.305301,"lon":5.366984,"is_reserved":false,"is_disabled":true,"rental_uris":{"android":"levelo://app?vid=7ee96323-da9c-4c60-bbe4-d1054018acab","ios":"levelo://app?vid=7ee96323-da9c-4c60-bbe4-d1054018acab"},"vehicle_type_id":"4","last_reported":1762081644,"current_range_meters":22000,"station_id":"ce4bgrp2rcd13ifvqc9g","pricing_plan_id":"cebpf4jnsgd1na2vs0mg"},{"bike_id":"d6e10844-3d17-4228-bea1-1df9235bfa22","system_id":"levelo_inurba_marseille","lat":43.25819,"lon":5.39422,"is_reserved":false,"is_disabled":false,"rental_uris":{"android":"levelo://app?vid=d6e10844-3d17-4228-bea1-1df9235bfa22","ios":"levelo://app?vid=d6e10844-3d17-4228-bea1-1df9235bfa22"},"vehicle_type_id":"4","last_reported":1762081644,"current_range_meters":22400,"station_id":"ce4bhip2rcd13ifvqft0","pricing_plan_id":"cebpf4jnsgd1na2vs0mg"},{"bike_id":"35484a1f-2569-460a-bdf0-662663ddde76","system_id":"levelo_inurba_marseille","lat":43.29551,"lon":5.42281,"is_reserved":false,"is_disabled":false,"rental_uris":{"android":"levelo://app?vid=35484a1f-2569-460a-bdf0-662663ddde76","ios":"levelo://app?vid=35484a1f-2569-460a-bdf0-662663ddde76"},"vehicle_type_id":"4","last_reported":1762081644,"current_range_meters":22400,"station_id":"ce4bhph2rcd13ifvqhdg","pricing_plan_id":"cebpf4jnsgd1na2vs0mg"},{"bike_id":"240112e3-b4ab-4ea9-bcd3-57dbe5797946","system_id":"levelo_inurba_marseille","lat":43.32483,"lon":5.36567,"is_reserved":false,"is_disabled":false,"rental_uris":{"android":"levelo://app?vid=240112e3-b4ab-4ea9-bcd3-57dbe5797946","ios":"levelo://app?vid=240112e3-b4ab-4ea9-bcd3-57dbe5797946"},"vehicle_type_id":"4","last_reported":1762081644,"current_range_meters":22400,"station_id":"ce4bhs12rcd13ifvqhvg","pricing_plan_id":"cebpf4jnsgd1na2vs0mg"},{"bike_id":"b3dc8ef0-c140-464d-b52e-78cfc56dd72e","system_id":"levelo_inurba_marseille","lat":43.2533,"lon":5.42161,"is_reserved":false,"is_disabled":false,"rental_uris":{"android":"levelo://app?vid=b3dc8ef0-c140-464d-b52e-78cfc56dd72e","ios":"levelo://app?vid=b3dc8ef0-c140-464d-b52e-78cfc56dd72e"},"vehicle_type_id":"4","last_reported":1762081644,"current_range_meters":22400,"station_id":"st_d2m65c5bi1j21697t3ng","pricing_plan_id":"cebpf4jnsgd1na2vs0mg"},{"bike_id":"50de44ed-1fa3-479a-8a72-4c19be47b6d4","system_id":"levelo_inurba_marseille","lat":43.246275,"lon":5.431437,"is_reserved":false,"is_disabled":false,"rental_uris":{"android":"levelo://app?vid=50de44ed-1fa3-479a-8a72-4c19be47b6d4","ios":"levelo://app?vid=50de44ed-1fa3-479a-8a72-4c19be47b6d4"},"vehicle_type_id":"4","last_reported":1762081644,"current_range_meters":22400,"station_id":"st_d2m6c4gdas8pm72e190g","pricing_plan_id":"cebpf4jnsgd1na2vs0mg"},{"bike_id":"c9514cd9-7418-4ff8-bc02-9f2e47245333","system_id":"levelo_inurba_marseille","lat":43.2606,"lon":5.394,"is_reserved":false,"is_disabled":false,"rental_uris":{"android":"levelo://app?vid=c9514cd9-7418-4ff8-bc02-9f2e47245333","ios":"levelo://app?vid=c9514cd9-7418-4ff8-bc02-9f2e47245333"},"vehicle_type_id":"4","last_reported":1762081644,"current_range_meters":22400,"station_id":"ce4bhh92rcd13ifvqfj0","pricing_plan_id":"cebpf4jnsgd1na2vs0mg"},{"bike_id":"d080a083-d290-45cc-b344-6341706e86e7","system_id":"levelo_inurba_marseille","lat":43.27173,"lon":5.40998,"is_reserved":false,"is_disabled":false,"rental_uris":{"android":"levelo://app?vid=d080a083-d290-45cc-b344-6341706e86e7","ios":"levelo://app?vid=d080a083-d290-45cc-b344-6341706e86e7"},"vehicle_type_id":"4","last_reported":1762081644,"current_range_meters":22400,"station_id":"ce4bhl12rcd13ifvqgf0","pricing_plan_id":"cebpf4jnsgd1na2vs0mg"},{"bike_id":"7a2a5c2e-5a91-4d42-8c66-78a02a75b4f0","system_id":"levelo_inurba_marseille","lat":43.29817,"lon":5.44051,"is_reserved":false,"is_disabled":false,"rental_uris":{"android":"levelo://app?vid=7a2a5c2e-5a91-4d42-8c66-78a02a75b4f0","ios":"levelo://app?vid=7a2a5c2e-5a91-4d42-8c66-78a02a75b4f0"},"vehicle_type_id":"4","last_reported":1762081644,"current_range_meters":22400,"station_id":"st_d3jp68qikq2c7381ktn0","pricing_plan_id":"cebpf4jnsgd1na2vs0mg"},{"bike_id":"3c21cab0-cd21-4b1e-8ca9-ba2a3bd07ea5","system_id":"levelo_inurba_marseille","lat":43.27814,"lon":5.40714,"is_reserved":false,"is_disabled":false,"rental_uris":{"android":"levelo://app?vid=3c21cab0-cd21-4b1e-8ca9-ba2a3bd07ea5","ios":"levelo://app?vid=3c21cab0-cd21-4b1e-8ca9-ba2a3bd07ea5"},"vehicle_type_id":"4","last_reported":1762081644,"current_range_meters":22800,"station_id":"ce4bhnh2rcd13ifvqgtg","pricing_plan_id":"cebpf4jnsgd1na2vs0mg"},{"bike_id":"fef67942-ecb7-4d79-8a30-a9c702d71996","system_id":"levelo_inurba_marseille","lat":43.27313,"lon":5.39097,"is_reserved":false,"is_disabled":false,"rental_uris":{"android":"levelo://app?vid=fef67942-ecb7-4d79-8a30-a9c702d71996","ios":"levelo://app?vid=fef67942-ecb7-4d79-8a30-a9c702d71996"},"vehicle_type_id":"4","last_reported":1762081644,"current_range_meters":22800,"station_id":"ce4bhgp2rcd13ifvqfe0","pricing_plan_id":"cebpf4jnsgd1na2vs0mg"},{"bike_id":"c2355dc4-632d-4ba0-8bc2-f0457cf83d4c","system_id":"levelo_inurba_marseille","lat":43.292278,"lon":5.360552,"is_reserved":false,"is_disabled":false,"rental_uris":{"android":"levelo://app?vid=c2355dc4-632d-4ba0-8bc2-f0457cf83d4c","ios":"levelo://app?vid=c2355dc4-632d-4ba0-8bc2-f0457cf83d4c"},"vehicle_type_id":"4","last_reported":1762081644,"current_range_meters":22800,"station_id":"","pricing_plan_id":"cebpf4jnsgd1na2vs0mg"},{"bike_id":"2eb3b2b6-4c2f-4a6b-8516-3fce34eb8781","system_id":"levelo_inurba_marseille","lat":43.292686,"lon":5.384298,"is_reserved":false,"is_disabled":true,"rental_uris":{"android":"levelo://app?vid=2eb3b2b6-4c2f-4a6b-8516-3fce34eb8781","ios":"levelo://app?vid=2eb3b2b6-4c2f-4a6b-8516-3fce34eb8781"},"vehicle_type_id":"4","last_reported":1762081644,"current_range_meters":22800,"station_id":"","pricing_plan_id":"cebpf4jnsgd1na2vs0mg"},{"bike_id":"ab9ccb27-b7d1-415f-aa27-c69b3b2958c9","system_id":"levelo_inurba_marseille","lat":43.28408,"lon":5.34962,"is_reserved":false,"is_disabled":false,"rental_uris":{"android":"levelo://app?vid=ab9ccb27-b7d1-415f-aa27-c69b3b2958c9","ios":"levelo://app?vid=ab9ccb27-b7d1-415f-aa27-c69b3b2958c9"},"vehicle_type_id":"4","last_reported":1762081644,"current_range_meters":22800,"station_id":"ce4bhbh2rcd13ifvqepg","pricing_plan_id":"cebpf4jnsgd1na2vs0mg"},{"bike_id":"417f2e6e-1eac-4051-94d3-b7cb95ea1a72","system_id":"levelo_inurba_marseille","lat":43.32002,"lon":5.37616,"is_reserved":false,"is_disabled":false,"rental_uris":{"android":"levelo://app?vid=417f2e6e-1eac-4051-94d3-b7cb95ea1a72","ios":"levelo://app?vid=417f2e6e-1eac-4051-94d3-b7cb95ea1a72"},"vehicle_type_id":"4","last_reported":1762081644,"current_range_meters":22800,"station_id":"","pricing_plan_id":"cebpf4jnsgd1na2vs0mg"},{"bike_id":"9c6ca871-f5b0-414f-a25e-0027df3ab686","system_id":"levelo_inurba_marseille","lat":43.24633,"lon":5.43138,"is_reserved":false,"is_disabled":false,"rental_uris":{"android":"levelo://app?vid=9c6ca871-f5b0-414f-a25e-0027df3ab686","ios":"levelo://app?vid=9c6ca871-f5b0-414f-a25e-0027df3ab686"},"vehicle_type_id":"4","last_reported":1762081644,"current_range_meters":22800,"station_id":"st_d2m6c4gdas8pm72e190g","pricing_plan_id":"cebpf4jnsgd1na2vs0mg"},{"bike_id":"c64ce0d4-e2b5-4cd9-a77a-417b1d6c56eb","system_id":"levelo_inurba_marseille","lat":43.28661,"lon":5.38659,"is_reserved":false,"is_disabled":false,"rental_uris":{"android":"levelo://app?vid=c64ce0d4-e2b5-4cd9-a77a-417b1d6c56eb","ios":"levelo://app?vid=c64ce0d4-e2b5-4cd9-a77a-417b1d6c56eb"},"vehicle_type_id":"4","last_reported":1762081644,"current_range_meters":22800,"station_id":"ce4bh492rcd13ifvqdug","pricing_plan_id":"cebpf4jnsgd1na2vs0mg"},{"bike_id":"5cfd3702-7691-45d0-bc4c-dd48583392da","system_id":"levelo_inurba_marseille","lat":43.28942,"lon":5.39623,"is_reserved":false,"is_disabled":true,"rental_uris":{"android":"levelo://app?vid=5cfd3702-7691-45d0-bc4c-dd48583392da","ios":"levelo://app?vid=5cfd3702-7691-45d0-bc4c-dd48583392da"},"vehicle_type_id":"4","last_reported":1762081644,"current_range_meters":23200,"station_id":"ce4bh3h2rcd13ifvqdn0","pricing_plan_id":"cebpf4jnsgd1na2vs0mg"},{"bike_id":"6ef51690-a28c-42f6-b33b-c55a0880366b","system_id":"levelo_inurba_marseille","lat":43.296222,"lon":5.377146,"is_reserved":false,"is_disabled":false,"rental_uris":{"android":"levelo://app?vid=6ef51690-a28c-42f6-b33b-c55a0880366b","ios":"levelo://app?vid=6ef51690-a28c-42f6-b33b-c55a0880366b"},"vehicle_type_id":"4","last_reported":1762081644,"current_range_meters":23200,"station_id":"","pricing_plan_id":"cebpf4jnsgd1na2vs0mg"},{"bike_id":"e3b21cd4-4b51-47a5-a49c-78c85c27336d","system_id":"levelo_inurba_marseille","lat":43.259358,"lon":5.408992,"is_reserved":false,"is_disabled":false,"rental_uris":{"android":"levelo://app?vid=e3b21cd4-4b51-47a5-a49c-78c85c27336d","ios":"levelo://app?vid=e3b21cd4-4b51-47a5-a49c-78c85c27336d"},"vehicle_type_id":"4","last_reported":1762081644,"current_range_meters":23200,"station_id":"ce4bhm92rcd13ifvqglg","pricing_plan_id":"cebpf4jnsgd1na2vs0mg"},{"bike_id":"fc96d847-c89e-490f-a84c-4a4405ffc5ba","system_id":"levelo_inurba_marseille","lat":43.28403,"lon":5.37494,"is_reserved":false,"is_disabled":false,"rental_uris":{"android":"levelo://app?vid=fc96d847-c89e-490f-a84c-4a4405ffc5ba","ios":"levelo://app?vid=fc96d847-c89e-490f-a84c-4a4405ffc5ba"},"vehicle_type_id":"4","last_reported":1762081644,"current_range_meters":23200,"station_id":"ce4bh412rcd13ifvqds0","pricing_plan_id":"cebpf4jnsgd1na2vs0mg"},{"bike_id":"38cf6189-973b-4c9d-b429-0dfe623bd8d7","system_id":"levelo_inurba_marseille","lat":43.24648,"lon":5.38891,"is_reserved":false,"is_disabled":false,"rental_uris":{"android":"levelo://app?vid=38cf6189-973b-4c9d-b429-0dfe623bd8d7","ios":"levelo://app?vid=38cf6189-973b-4c9d-b429-0dfe623bd8d7"},