{"last_updated":1776862825,"ttl":60,"version":"2.2","data":{"bikes":[{"bike_id":"255ef345-0563-469b-bb5f-1d87398cf514","system_id":"levelo_inurba_marseille","lat":43.337444,"lon":5.374475,"is_reserved":false,"is_disabled":false,"rental_uris":{"android":"levelo://app?vid=255ef345-0563-469b-bb5f-1d87398cf514","ios":"levelo://app?vid=255ef345-0563-469b-bb5f-1d87398cf514"},"vehicle_type_id":"4","last_reported":1776862826,"current_range_meters":0,"station_id":"","pricing_plan_id":"cebpf4jnsgd1na2vs0mg"},{"bike_id":"eabe552a-a0db-42f8-b849-b40cde217d78","system_id":"levelo_inurba_marseille","lat":43.255789,"lon":5.382193,"is_reserved":false,"is_disabled":false,"rental_uris":{"android":"levelo://app?vid=eabe552a-a0db-42f8-b849-b40cde217d78","ios":"levelo://app?vid=eabe552a-a0db-42f8-b849-b40cde217d78"},"vehicle_type_id":"4","last_reported":1776862826,"current_range_meters":2800,"station_id":"ce4bhih2rcd13ifvqfs0","pricing_plan_id":"cebpf4jnsgd1na2vs0mg"},{"bike_id":"a723aab2-0729-4e59-b1fb-511b1fa27a19","system_id":"levelo_inurba_marseille","lat":43.23178,"lon":5.39977,"is_reserved":false,"is_disabled":false,"rental_uris":{"android":"levelo://app?vid=a723aab2-0729-4e59-b1fb-511b1fa27a19","ios":"levelo://app?vid=a723aab2-0729-4e59-b1fb-511b1fa27a19"},"vehicle_type_id":"4","last_reported":1776862826,"current_range_meters":2800,"station_id":"ce4bhn12rcd13ifvqgqg","pricing_plan_id":"cebpf4jnsgd1na2vs0mg"},{"bike_id":"09b2ffa3-7889-438d-a8e4-f8148acd5b69","system_id":"levelo_inurba_marseille","lat":43.26195,"lon":5.38723,"is_reserved":false,"is_disabled":false,"rental_uris":{"android":"levelo://app?vid=09b2ffa3-7889-438d-a8e4-f8148acd5b69","ios":"levelo://app?vid=09b2ffa3-7889-438d-a8e4-f8148acd5b69"},"vehicle_type_id":"4","last_reported":1776862826,"current_range_meters":2800,"station_id":"","pricing_plan_id":"cebpf4jnsgd1na2vs0mg"},{"bike_id":"f8886bac-06e6-4f4e-b567-d0f4cd2b25d3","system_id":"levelo_inurba_marseille","lat":43.27491,"lon":5.42451,"is_reserved":false,"is_disabled":false,"rental_uris":{"android":"levelo://app?vid=f8886bac-06e6-4f4e-b567-d0f4cd2b25d3","ios":"levelo://app?vid=f8886bac-06e6-4f4e-b567-d0f4cd2b25d3"},"vehicle_type_id":"4","last_reported":1776862826,"current_range_meters":3200,"station_id":"ce4bhn92rcd13ifvqgrg","pricing_plan_id":"cebpf4jnsgd1na2vs0mg"},{"bike_id":"14290775-1809-431a-89de-994574cdc895","system_id":"levelo_inurba_marseille","lat":43.27581,"lon":5.3864,"is_reserved":false,"is_disabled":false,"rental_uris":{"android":"levelo://app?vid=14290775-1809-431a-89de-994574cdc895","ios":"levelo://app?vid=14290775-1809-431a-89de-994574cdc895"},"vehicle_type_id":"4","last_reported":1776862826,"current_range_meters":3200,"station_id":"","pricing_plan_id":"cebpf4jnsgd1na2vs0mg"},{"bike_id":"08fe3187-f3c8-4b94-9633-6b9c743ab75d","system_id":"levelo_inurba_marseille","lat":43.24179,"lon":5.39736,"is_reserved":false,"is_disabled":false,"rental_uris":{"android":"levelo://app?vid=08fe3187-f3c8-4b94-9633-6b9c743ab75d","ios":"levelo://app?vid=08fe3187-f3c8-4b94-9633-6b9c743ab75d"},"vehicle_type_id":"4","last_reported":1776862826,"current_range_meters":3200,"station_id":"ce4bhn12rcd13ifvqgpg","pricing_plan_id":"cebpf4jnsgd1na2vs0mg"},{"bike_id":"9ebc1a98-03c2-4cbb-8a54-973220f80393","system_id":"levelo_inurba_marseille","lat":43.29676,"lon":5.36292,"is_reserved":false,"is_disabled":false,"rental_uris":{"android":"levelo://app?vid=9ebc1a98-03c2-4cbb-8a54-973220f80393","ios":"levelo://app?vid=9ebc1a98-03c2-4cbb-8a54-973220f80393"},"vehicle_type_id":"4","last_reported":1776862826,"current_range_meters":4000,"station_id":"","pricing_plan_id":"cebpf4jnsgd1na2vs0mg"},{"bike_id":"afe6c9ff-8c7f-40d2-96bc-86354113b443","system_id":"levelo_inurba_marseille","lat":43.28476,"lon":5.48381,"is_reserved":false,"is_disabled":false,"rental_uris":{"android":"levelo://app?vid=afe6c9ff-8c7f-40d2-96bc-86354113b443","ios":"levelo://app?vid=afe6c9ff-8c7f-40d2-96bc-86354113b443"},"vehicle_type_id":"4","last_reported":1776862826,"current_range_meters":4000,"station_id":"","pricing_plan_id":"cebpf4jnsgd1na2vs0mg"},{"bike_id":"d0ff170c-7057-4b4e-b15e-c7554bf4ce16","system_id":"levelo_inurba_marseille","lat":43.312301,"lon":5.36869,"is_reserved":false,"is_disabled":false,"rental_uris":{"android":"levelo://app?vid=d0ff170c-7057-4b4e-b15e-c7554bf4ce16","ios":"levelo://app?vid=d0ff170c-7057-4b4e-b15e-c7554bf4ce16"},"vehicle_type_id":"4","last_reported":1776862826,"current_range_meters":4000,"station_id":"","pricing_plan_id":"cebpf4jnsgd1na2vs0mg"},{"bike_id":"d0e220b8-26c6-4649-85da-36389bb1c0c1","system_id":"levelo_inurba_marseille","lat":43.30118,"lon":5.43116,"is_reserved":false,"is_disabled":false,"rental_uris":{"android":"levelo://app?vid=d0e220b8-26c6-4649-85da-36389bb1c0c1","ios":"levelo://app?vid=d0e220b8-26c6-4649-85da-36389bb1c0c1"},"vehicle_type_id":"4","last_reported":1776862826,"current_range_meters":4000,"station_id":"st_d3js3co5814s73ftftug","pricing_plan_id":"cebpf4jnsgd1na2vs0mg"},{"bike_id":"2d40a836-133e-4df4-8e94-64278280c4e2","system_id":"levelo_inurba_marseille","lat":43.28493,"lon":5.48393,"is_reserved":false,"is_disabled":false,"rental_uris":{"android":"levelo://app?vid=2d40a836-133e-4df4-8e94-64278280c4e2","ios":"levelo://app?vid=2d40a836-133e-4df4-8e94-64278280c4e2"},"vehicle_type_id":"4","last_reported":1776862826,"current_range_meters":4000,"station_id":"","pricing_plan_id":"cebpf4jnsgd1na2vs0mg"},{"bike_id":"aefbde87-5bee-4d7d-a8a8-3507f27af8ed","system_id":"levelo_inurba_marseille","lat":43.32478,"lon":5.36569,"is_reserved":false,"is_disabled":false,"rental_uris":{"android":"levelo://app?vid=aefbde87-5bee-4d7d-a8a8-3507f27af8ed","ios":"levelo://app?vid=aefbde87-5bee-4d7d-a8a8-3507f27af8ed"},"vehicle_type_id":"4","last_reported":1776862826,"current_range_meters":4000,"station_id":"ce4bhs12rcd13ifvqhvg","pricing_plan_id":"cebpf4jnsgd1na2vs0mg"},{"bike_id":"b79dabe7-3b43-4999-bc7f-510b5ebe7b35","system_id":"levelo_inurba_marseille","lat":43.3316,"lon":5.37675,"is_reserved":false,"is_disabled":false,"rental_uris":{"android":"levelo://app?vid=b79dabe7-3b43-4999-bc7f-510b5ebe7b35","ios":"levelo://app?vid=b79dabe7-3b43-4999-bc7f-510b5ebe7b35"},"vehicle_type_id":"4","last_reported":1776862826,"current_range_meters":4000,"station_id":"st_d46cu089ee8s73dldbu0","pricing_plan_id":"cebpf4jnsgd1na2vs0mg"},{"bike_id":"53398df8-835b-4ed2-bf08-039bd71fda25","system_id":"levelo_inurba_marseille","lat":43.25928,"lon":5.38592,"is_reserved":false,"is_disabled":false,"rental_uris":{"android":"levelo://app?vid=53398df8-835b-4ed2-bf08-039bd71fda25","ios":"levelo://app?vid=53398df8-835b-4ed2-bf08-039bd71fda25"},"vehicle_type_id":"4","last_reported":1776862826,"current_range_meters":4400,"station_id":"","pricing_plan_id":"cebpf4jnsgd1na2vs0mg"},{"bike_id":"4507d0a5-b383-4dbd-a22b-4d3714c1f1b0","system_id":"levelo_inurba_marseille","lat":43.26564,"lon":5.39,"is_reserved":false,"is_disabled":false,"rental_uris":{"android":"levelo://app?vid=4507d0a5-b383-4dbd-a22b-4d3714c1f1b0","ios":"levelo://app?vid=4507d0a5-b383-4dbd-a22b-4d3714c1f1b0"},"vehicle_type_id":"4","last_reported":1776862826,"current_range_meters":4400,"station_id":"ce4bhe12rcd13ifvqf30","pricing_plan_id":"cebpf4jnsgd1na2vs0mg"},{"bike_id":"17a218ae-0cbc-4023-80f0-9ffddf1324e3","system_id":"levelo_inurba_marseille","lat":43.26026,"lon":5.39806,"is_reserved":false,"is_disabled":false,"rental_uris":{"android":"levelo://app?vid=17a218ae-0cbc-4023-80f0-9ffddf1324e3","ios":"levelo://app?vid=17a218ae-0cbc-4023-80f0-9ffddf1324e3"},"vehicle_type_id":"4","last_reported":1776862826,"current_range_meters":4800,"station_id":"","pricing_plan_id":"cebpf4jnsgd1na2vs0mg"},{"bike_id":"37eae820-b39c-4a10-b9f1-bbf6af567e33","system_id":"levelo_inurba_marseille","lat":43.29605,"lon":5.37722,"is_reserved":false,"is_disabled":false,"rental_uris":{"android":"levelo://app?vid=37eae820-b39c-4a10-b9f1-bbf6af567e33","ios":"levelo://app?vid=37eae820-b39c-4a10-b9f1-bbf6af567e33"},"vehicle_type_id":"4","last_reported":1776862826,"current_range_meters":4800,"station_id":"ce4bgi92rcd13ifvqb90","pricing_plan_id":"cebpf4jnsgd1na2vs0mg"},{"bike_id":"52fba5d2-1145-4796-91c7-c7065798a2ee","system_id":"levelo_inurba_marseille","lat":43.27207,"lon":5.39186,"is_reserved":false,"is_disabled":false,"rental_uris":{"android":"levelo://app?vid=52fba5d2-1145-4796-91c7-c7065798a2ee","ios":"levelo://app?vid=52fba5d2-1145-4796-91c7-c7065798a2ee"},"vehicle_type_id":"4","last_reported":1776862826,"current_range_meters":4800,"station_id":"ce4bhhp2rcd13ifvqfm0","pricing_plan_id":"cebpf4jnsgd1na2vs0mg"},{"bike_id":"936bc712-b132-4021-9e18-af555d31ebc4","system_id":"levelo_inurba_marseille","lat":43.29742,"lon":5.37675,"is_reserved":false,"is_disabled":false,"rental_uris":{"android":"levelo://app?vid=936bc712-b132-4021-9e18-af555d31ebc4","ios":"levelo://app?vid=936bc712-b132-4021-9e18-af555d31ebc4"},"vehicle_type_id":"4","last_reported":1776862826,"current_range_meters":4800,"station_id":"ce4bgkh2rcd13ifvqbl0","pricing_plan_id":"cebpf4jnsgd1na2vs0mg"},{"bike_id":"5dca9a8e-83e7-4e4f-baef-b39340f4d785","system_id":"levelo_inurba_marseille","lat":43.29571,"lon":5.39965,"is_reserved":false,"is_disabled":true,"rental_uris":{"android":"levelo://app?vid=5dca9a8e-83e7-4e4f-baef-b39340f4d785","ios":"levelo://app?vid=5dca9a8e-83e7-4e4f-baef-b39340f4d785"},"vehicle_type_id":"4","last_reported":1776862826,"current_range_meters":4800,"station_id":"ce4bh312rcd13ifvqdj0","pricing_plan_id":"cebpf4jnsgd1na2vs0mg"},{"bike_id":"3a696f3b-cb93-42f6-97fb-27cfcc82f5e5","system_id":"levelo_inurba_marseille","lat":43.3037,"lon":5.4249,"is_reserved":false,"is_disabled":false,"rental_uris":{"android":"levelo://app?vid=3a696f3b-cb93-42f6-97fb-27cfcc82f5e5","ios":"levelo://app?vid=3a696f3b-cb93-42f6-97fb-27cfcc82f5e5"},"vehicle_type_id":"4","last_reported":1776862826,"current_range_meters":4800,"station_id":"ce4bhoh2rcd13ifvqh6g","pricing_plan_id":"cebpf4jnsgd1na2vs0mg"},{"bike_id":"69904aa1-60b2-4195-a1ba-9cd611f8d3ea","system_id":"levelo_inurba_marseille","lat":43.29856,"lon":5.36236,"is_reserved":false,"is_disabled":false,"rental_uris":{"android":"levelo://app?vid=69904aa1-60b2-4195-a1ba-9cd611f8d3ea","ios":"levelo://app?vid=69904aa1-60b2-4195-a1ba-9cd611f8d3ea"},"vehicle_type_id":"4","last_reported":1776862826,"current_range_meters":4800,"station_id":"ce4bgpp2rcd13ifvqc3g","pricing_plan_id":"cebpf4jnsgd1na2vs0mg"},{"bike_id":"909929ad-6150-4e90-9010-fc5021f6e58c","system_id":"levelo_inurba_marseille","lat":43.27222,"lon":5.40098,"is_reserved":false,"is_disabled":false,"rental_uris":{"android":"levelo://app?vid=909929ad-6150-4e90-9010-fc5021f6e58c","ios":"levelo://app?vid=909929ad-6150-4e90-9010-fc5021f6e58c"},"vehicle_type_id":"4","last_reported":1776862826,"current_range_meters":5600,"station_id":"","pricing_plan_id":"cebpf4jnsgd1na2vs0mg"},{"bike_id":"dcea024f-97b1-48db-99db-04932a6072bf","system_id":"levelo_inurba_marseille","lat":43.30549,"lon":5.36688,"is_reserved":false,"is_disabled":false,"rental_uris":{"android":"levelo://app?vid=dcea024f-97b1-48db-99db-04932a6072bf","ios":"levelo://app?vid=dcea024f-97b1-48db-99db-04932a6072bf"},"vehicle_type_id":"4","last_reported":1776862826,"current_range_meters":5600,"station_id":"ce4bgrp2rcd13ifvqc9g","pricing_plan_id":"cebpf4jnsgd1na2vs0mg"},{"bike_id":"654d077b-1f16-41d3-9591-b7fe5f6a5e4a","system_id":"levelo_inurba_marseille","lat":43.28458,"lon":5.35875,"is_reserved":false,"is_disabled":false,"rental_uris":{"android":"levelo://app?vid=654d077b-1f16-41d3-9591-b7fe5f6a5e4a","ios":"levelo://app?vid=654d077b-1f16-41d3-9591-b7fe5f6a5e4a"},"vehicle_type_id":"4","last_reported":1776862826,"current_range_meters":5600,"station_id":"ce4bhah2rcd13ifvqei0","pricing_plan_id":"cebpf4jnsgd1na2vs0mg"},{"bike_id":"259873a5-a1ea-41b3-8200-d0477284c8f2","system_id":"levelo_inurba_marseille","lat":43.28519,"lon":5.44096,"is_reserved":false,"is_disabled":false,"rental_uris":{"android":"levelo://app?vid=259873a5-a1ea-41b3-8200-d0477284c8f2","ios":"levelo://app?vid=259873a5-a1ea-41b3-8200-d0477284c8f2"},"vehicle_type_id":"4","last_reported":1776862826,"current_range_meters":5600,"station_id":"st_d3j3df2ikq2c7380ej80","pricing_plan_id":"cebpf4jnsgd1na2vs0mg"},{"bike_id":"9722310c-fef7-48fb-ab23-f20467cb2e54","system_id":"levelo_inurba_marseille","lat":43.31353,"lon":5.36732,"is_reserved":false,"is_disabled":false,"rental_uris":{"android":"levelo://app?vid=9722310c-fef7-48fb-ab23-f20467cb2e54","ios":"levelo://app?vid=9722310c-fef7-48fb-ab23-f20467cb2e54"},"vehicle_type_id":"4","last_reported":1776862826,"current_range_meters":6000,"station_id":"ce4bgr92rcd13ifvqc6g","pricing_plan_id":"cebpf4jnsgd1na2vs0mg"},{"bike_id":"d9be86bb-6c4e-4c05-bc60-e02431cbb916","system_id":"levelo_inurba_marseille","lat":43.31892,"lon":5.36792,"is_reserved":false,"is_disabled":false,"rental_uris":{"android":"levelo://app?vid=d9be86bb-6c4e-4c05-bc60-e02431cbb916","ios":"levelo://app?vid=d9be86bb-6c4e-4c05-bc60-e02431cbb916"},"vehicle_type_id":"4","last_reported":1776862826,"current_range_meters":6000,"station_id":"st_d6o2h0d0559c73evc1b0","pricing_plan_id":"cebpf4jnsgd1na2vs0mg"},{"bike_id":"a7020a93-7c00-4fec-b1a2-4f1670bbc6d7","system_id":"levelo_inurba_marseille","lat":43.23833,"lon":5.41323,"is_reserved":false,"is_disabled":false,"rental_uris":{"android":"levelo://app?vid=a7020a93-7c00-4fec-b1a2-4f1670bbc6d7","ios":"levelo://app?vid=a7020a93-7c00-4fec-b1a2-4f1670bbc6d7"},"vehicle_type_id":"4","last_reported":1776862826,"current_range_meters":6000,"station_id":"","pricing_plan_id":"cebpf4jnsgd1na2vs0mg"},{"bike_id":"af8186bf-c9d5-4d3c-8b52-3c6ca12ae77f","system_id":"levelo_inurba_marseille","lat":43.28486,"lon":5.38405,"is_reserved":false,"is_disabled":false,"rental_uris":{"android":"levelo://app?vid=af8186bf-c9d5-4d3c-8b52-3c6ca12ae77f","ios":"levelo://app?vid=af8186bf-c9d5-4d3c-8b52-3c6ca12ae77f"},"vehicle_type_id":"4","last_reported":1776862826,"current_range_meters":6000,"station_id":"ce4bh512rcd13ifvqe3g","pricing_plan_id":"cebpf4jnsgd1na2vs0mg"},{"bike_id":"d204400f-8745-41a5-b8f3-30b0d4c8bfb2","system_id":"levelo_inurba_marseille","lat":43.31879,"lon":5.3682,"is_reserved":false,"is_disabled":false,"rental_uris":{"android":"levelo://app?vid=d204400f-8745-41a5-b8f3-30b0d4c8bfb2","ios":"levelo://app?vid=d204400f-8745-41a5-b8f3-30b0d4c8bfb2"},"vehicle_type_id":"4","last_reported":1776862826,"current_range_meters":6000,"station_id":"st_d6o2h0d0559c73evc1b0","pricing_plan_id":"cebpf4jnsgd1na2vs0mg"},{"bike_id":"882e84be-aff7-44fe-8e03-e10b9edfe543","system_id":"levelo_inurba_marseille","lat":43.29789,"lon":5.38099,"is_reserved":false,"is_disabled":true,"rental_uris":{"android":"levelo://app?vid=882e84be-aff7-44fe-8e03-e10b9edfe543","ios":"levelo://app?vid=882e84be-aff7-44fe-8e03-e10b9edfe543"},"vehicle_type_id":"4","last_reported":1776862826,"current_range_meters":6000,"station_id":"","pricing_plan_id":"cebpf4jnsgd1na2vs0mg"},{"bike_id":"928c6f98-e17d-4a4d-8690-2c93f6ecaf26","system_id":"levelo_inurba_marseille","lat":43.28854,"lon":5.42523,"is_reserved":false,"is_disabled":false,"rental_uris":{"android":"levelo://app?vid=928c6f98-e17d-4a4d-8690-2c93f6ecaf26","ios":"levelo://app?vid=928c6f98-e17d-4a4d-8690-2c93f6ecaf26"},"vehicle_type_id":"4","last_reported":1776862826,"current_range_meters":6000,"station_id":"st_d3b462108ojc7389ooeg","pricing_plan_id":"cebpf4jnsgd1na2vs0mg"},{"bike_id":"be5c4907-57d0-4c67-8ff7-ac26938c6076","system_id":"levelo_inurba_marseille","lat":43.28271,"lon":5.40659,"is_reserved":false,"is_disabled":false,"rental_uris":{"android":"levelo://app?vid=be5c4907-57d0-4c67-8ff7-ac26938c6076","ios":"levelo://app?vid=be5c4907-57d0-4c67-8ff7-ac26938c6076"},"vehicle_type_id":"4","last_reported":1776862826,"current_range_meters":6400,"station_id":"","pricing_plan_id":"cebpf4jnsgd1na2vs0mg"},{"bike_id":"5d69ee43-50ee-4534-8da8-5ea83ed2cb21","system_id":"levelo_inurba_marseille","lat":43.309487,"lon":5.390259,"is_reserved":false,"is_disabled":false,"rental_uris":{"android":"levelo://app?vid=5d69ee43-50ee-4534-8da8-5ea83ed2cb21","ios":"levelo://app?vid=5d69ee43-50ee-4534-8da8-5ea83ed2cb21"},"vehicle_type_id":"4","last_reported":1776862826,"current_range_meters":6400,"station_id":"ce4bgup2rcd13ifvqco0","pricing_plan_id":"cebpf4jnsgd1na2vs0mg"},{"bike_id":"792f94a8-e7b1-4126-8e50-a0fdc4511f40","system_id":"levelo_inurba_marseille","lat":43.30949,"lon":5.39029,"is_reserved":false,"is_disabled":false,"rental_uris":{"android":"levelo://app?vid=792f94a8-e7b1-4126-8e50-a0fdc4511f40","ios":"levelo://app?vid=792f94a8-e7b1-4126-8e50-a0fdc4511f40"},"vehicle_type_id":"4","last_reported":1776862826,"current_range_meters":6400,"station_id":"ce4bgup2rcd13ifvqco0","pricing_plan_id":"cebpf4jnsgd1na2vs0mg"},{"bike_id":"a5932d33-7fe4-4ab5-ab73-558a4a420627","system_id":"levelo_inurba_marseille","lat":43.24472,"lon":5.40056,"is_reserved":false,"is_disabled":false,"rental_uris":{"android":"levelo://app?vid=a5932d33-7fe4-4ab5-ab73-558a4a420627","ios":"levelo://app?vid=a5932d33-7fe4-4ab5-ab73-558a4a420627"},"vehicle_type_id":"4","last_reported":1776862826,"current_range_meters":6400,"station_id":"","pricing_plan_id":"cebpf4jnsgd1na2vs0mg"},{"bike_id":"d07268ae-3ea5-4002-b478-188eb6469a26","system_id":"levelo_inurba_marseille","lat":43.27604,"lon":5.41971,"is_reserved":false,"is_disabled":false,"rental_uris":{"android":"levelo://app?vid=d07268ae-3ea5-4002-b478-188eb6469a26","ios":"levelo://app?vid=d07268ae-3ea5-4002-b478-188eb6469a26"},"vehicle_type_id":"4","last_reported":1776862826,"current_range_meters":6400,"station_id":"","pricing_plan_id":"cebpf4jnsgd1na2vs0mg"},{"bike_id":"892e96a9-ea9f-4204-8b79-ab8a90ae2adc","system_id":"levelo_inurba_marseille","lat":43.29709,"lon":5.36615,"is_reserved":false,"is_disabled":false,"rental_uris":{"android":"levelo://app?vid=892e96a9-ea9f-4204-8b79-ab8a90ae2adc","ios":"levelo://app?vid=892e96a9-ea9f-4204-8b79-ab8a90ae2adc"},"vehicle_type_id":"4","last_reported":1776862826,"current_range_meters":6400,"station_id":"ce4bgn12rcd13ifvqbt0","pricing_plan_id":"cebpf4jnsgd1na2vs0mg"},{"bike_id":"7b5c95a5-067f-4f0b-a929-8640bb32f919","system_id":"levelo_inurba_marseille","lat":43.28342,"lon":5.38102,"is_reserved":false,"is_disabled":false,"rental_uris":{"android":"levelo://app?vid=7b5c95a5-067f-4f0b-a929-8640bb32f919","ios":"levelo://app?vid=7b5c95a5-067f-4f0b-a929-8640bb32f919"},"vehicle_type_id":"4","last_reported":1776862826,"current_range_meters":6800,"station_id":"ce4bh412rcd13ifvqdr0","pricing_plan_id":"cebpf4jnsgd1na2vs0mg"},{"bike_id":"badf4622-8d39-4c6d-8e74-cdbf9e168f9d","system_id":"levelo_inurba_marseille","lat":43.25127,"lon":5.40308,"is_reserved":false,"is_disabled":false,"rental_uris":{"android":"levelo://app?vid=badf4622-8d39-4c6d-8e74-cdbf9e168f9d","ios":"levelo://app?vid=badf4622-8d39-4c6d-8e74-cdbf9e168f9d"},"vehicle_type_id":"4","last_reported":1776862826,"current_range_meters":6800,"station_id":"ce4bhlh2rcd13ifvqgig","pricing_plan_id":"cebpf4jnsgd1na2vs0mg"},{"bike_id":"bacd3fe4-f48a-4afe-8c9c-99f0f1f340a2","system_id":"levelo_inurba_marseille","lat":43.27485,"lon":5.42442,"is_reserved":false,"is_disabled":false,"rental_uris":{"android":"levelo://app?vid=bacd3fe4-f48a-4afe-8c9c-99f0f1f340a2","ios":"levelo://app?vid=bacd3fe4-f48a-4afe-8c9c-99f0f1f340a2"},"vehicle_type_id":"4","last_reported":1776862826,"current_range_meters":6800,"station_id":"ce4bhn92rcd13ifvqgrg","pricing_plan_id":"cebpf4jnsgd1na2vs0mg"},{"bike_id":"156a9278-c7f8-442d-9b54-2a52d275e0c5","system_id":"levelo_inurba_marseille","lat":43.28602,"lon":5.35095,"is_reserved":false,"is_disabled":true,"rental_uris":{"android":"levelo://app?vid=156a9278-c7f8-442d-9b54-2a52d275e0c5","ios":"levelo://app?vid=156a9278-c7f8-442d-9b54-2a52d275e0c5"},"vehicle_type_id":"4","last_reported":1776862826,"current_range_meters":6800,"station_id":"ce4bhch2rcd13ifvqeug","pricing_plan_id":"cebpf4jnsgd1na2vs0mg"},{"bike_id":"923b87f1-b066-476c-9dac-fbfbdd7a8e12","system_id":"levelo_inurba_marseille","lat":43.27693,"lon":5.39427,"is_reserved":false,"is_disabled":false,"rental_uris":{"android":"levelo://app?vid=923b87f1-b066-476c-9dac-fbfbdd7a8e12","ios":"levelo://app?vid=923b87f1-b066-476c-9dac-fbfbdd7a8e12"},"vehicle_type_id":"4","last_reported":1776862826,"current_range_meters":6800,"station_id":"","pricing_plan_id":"cebpf4jnsgd1na2vs0mg"},{"bike_id":"ab441cdc-9cd1-4c8e-b69e-34bb46fece34","system_id":"levelo_inurba_marseille","lat":43.29391,"lon":5.363,"is_reserved":false,"is_disabled":false,"rental_uris":{"android":"levelo://app?vid=ab441cdc-9cd1-4c8e-b69e-34bb46fece34","ios":"levelo://app?vid=ab441cdc-9cd1-4c8e-b69e-34bb46fece34"},"vehicle_type_id":"4","last_reported":1776862826,"current_range_meters":6800,"station_id":"","pricing_plan_id":"cebpf4jnsgd1na2vs0mg"},{"bike_id":"8194a0ff-2824-43c5-8a22-527fdaa0a136","system_id":"levelo_inurba_marseille","lat":43.27352,"lon":5.40889,"is_reserved":false,"is_disabled":false,"rental_uris":{"android":"levelo://app?vid=8194a0ff-2824-43c5-8a22-527fdaa0a136","ios":"levelo://app?vid=8194a0ff-2824-43c5-8a22-527fdaa0a136"},"vehicle_type_id":"4","last_reported":1776862826,"current_range_meters":6800,"station_id":"","pricing_plan_id":"cebpf4jnsgd1na2vs0mg"},{"bike_id":"468b098b-8742-43b6-94e4-77df021ec20c","system_id":"levelo_inurba_marseille","lat":43.3072,"lon":5.42453,"is_reserved":false,"is_disabled":false,"rental_uris":{"android":"levelo://app?vid=468b098b-8742-43b6-94e4-77df021ec20c","ios":"levelo://app?vid=468b098b-8742-43b6-94e4-77df021ec20c"},"vehicle_type_id":"4","last_reported":1776862826,"current_range_meters":6800,"station_id":"st_cvj6ca6bvosntc0bfgr0","pricing_plan_id":"cebpf4jnsgd1na2vs0mg"},{"bike_id":"09b15e2b-76b8-4be7-a4e8-1a58aef5540e","system_id":"levelo_inurba_marseille","lat":43.29879,"lon":5.38131,"is_reserved":false,"is_disabled":false,"rental_uris":{"android":"levelo://app?vid=09b15e2b-76b8-4be7-a4e8-1a58aef5540e","ios":"levelo://app?vid=09b15e2b-76b8-4be7-a4e8-1a58aef5540e"},"vehicle_type_id":"4","last_reported":1776862826,"current_range_meters":7200,"station_id":"ce4bgj12rcd13ifvqbc0","pricing_plan_id":"cebpf4jnsgd1na2vs0mg"},{"bike_id":"73d436be-8bb5-400c-b5b8-edfd7e8d5913","system_id":"levelo_inurba_marseille","lat":43.337444,"lon":5.374475,"is_reserved":false,"is_disabled":false,"rental_uris":{"android":"levelo://app?vid=73d436be-8bb5-400c-b5b8-edfd7e8d5913","ios":"levelo://app?vid=73d436be-8bb5-400c-b5b8-edfd7e8d5913"},"vehicle_type_id":"4","last_reported":1776862826,"current_range_meters":7200,"station_id":"ce4bhgp2rcd13ifvqfc0","pricing_plan_id":"cebpf4jnsgd1na2vs0mg"},{"bike_id":"ba8faadf-6c0c-429c-910a-dff36b3ef975","system_id":"levelo_inurba_marseille","lat":43.26233,"lon":5.38761,"is_reserved":false,"is_disabled":false,"rental_uris":{"android":"levelo://app?vid=ba8faadf-6c0c-429c-910a-dff36b3ef975","ios":"levelo://app?vid=ba8faadf-6c0c-429c-910a-dff36b3ef975"},"vehicle_type_id":"4","last_reported":1776862826,"current_range_meters":7200,"station_id":"","pricing_plan_id":"cebpf4jnsgd1na2vs0mg"},{"bike_id":"04257b95-4499-46e1-a4e3-88ab526291ba","system_id":"levelo_inurba_marseille","lat":43.28484,"lon":5.484,"is_reserved":false,"is_disabled":false,"rental_uris":{"android":"levelo://app?vid=04257b95-4499-46e1-a4e3-88ab526291ba","ios":"levelo://app?vid=04257b95-4499-46e1-a4e3-88ab526291ba"},"vehicle_type_id":"4","last_reported":1776862826,"current_range_meters":7200,"station_id":"","pricing_plan_id":"cebpf4jnsgd1na2vs0mg"},{"bike_id":"b159861f-8e5b-49f4-88d7-6c6822ebcc8e","system_id":"levelo_inurba_marseille","lat":43.24387,"lon":5.37081,"is_reserved":false,"is_disabled":false,"rental_uris":{"android":"levelo://app?vid=b159861f-8e5b-49f4-88d7-6c6822ebcc8e","ios":"levelo://app?vid=b159861f-8e5b-49f4-88d7-6c6822ebcc8e"},"vehicle_type_id":"4","last_reported":1776862826,"current_range_meters":7200,"station_id":"ce4bhhh2rcd13ifvqfk0","pricing_plan_id":"cebpf4jnsgd1na2vs0mg"},{"bike_id":"ff422c07-4472-471c-ab0d-dcb023acae97","system_id":"levelo_inurba_marseille","lat":43.30631,"lon":5.37189,"is_reserved":false,"is_disabled":false,"rental_uris":{"android":"levelo://app?vid=ff422c07-4472-471c-ab0d-dcb023acae97","ios":"levelo://app?vid=ff422c07-4472-471c-ab0d-dcb023acae97"},"vehicle_type_id":"4","last_reported":1776862826,"current_range_meters":7200,"station_id":"ce4bgqh2rcd13ifvqc4g","pricing_plan_id":"cebpf4jnsgd1na2vs0mg"},{"bike_id":"f5c3a6a6-3609-40ad-9c49-87232dad5958","system_id":"levelo_inurba_marseille","lat":43.30319,"lon":5.40445,"is_reserved":false,"is_disabled":true,"rental_uris":{"android":"levelo://app?vid=f5c3a6a6-3609-40ad-9c49-87232dad5958","ios":"levelo://app?vid=f5c3a6a6-3609-40ad-9c49-87232dad5958"},"vehicle_type_id":"4","last_reported":1776862826,"current_range_meters":7200,"station_id":"","pricing_plan_id":"cebpf4jnsgd1na2vs0mg"},{"bike_id":"36e7aa08-bcb4-4084-bd85-f41ade11c368","system_id":"levelo_inurba_marseille","lat":43.28868,"lon":5.42533,"is_reserved":false,"is_disabled":false,"rental_uris":{"android":"levelo://app?vid=36e7aa08-bcb4-4084-bd85-f41ade11c368","ios":"levelo://app?vid=36e7aa08-bcb4-4084-bd85-f41ade11c368"},"vehicle_type_id":"4","last_reported":1776862826,"current_range_meters":7200,"station_id":"st_d3b462108ojc7389ooeg","pricing_plan_id":"cebpf4jnsgd1na2vs0mg"},{"bike_id":"747314a1-d922-494b-b494-5021441d8ddd","system_id":"levelo_inurba_marseille","lat":43.3055,"lon":5.365,"is_reserved":false,"is_disabled":false,"rental_uris":{"android":"levelo://app?vid=747314a1-d922-494b-b494-5021441d8ddd","ios":"levelo://app?vid=747314a1-d922-494b-b494-5021441d8ddd"},"vehicle_type_id":"4","last_reported":1776862826,"current_range_meters":7200,"station_id":"ce4bgs12rcd13ifvqcag","pricing_plan_id":"cebpf4jnsgd1na2vs0mg"},{"bike_id":"53ac9b94-d2b8-401a-8133-9009372f217e","system_id":"levelo_inurba_marseille","lat":43.2848,"lon":5.48385,"is_reserved":false,"is_disabled":false,"rental_uris":{"android":"levelo://app?vid=53ac9b94-d2b8-401a-8133-9009372f217e","ios":"levelo://app?vid=53ac9b94-d2b8-401a-8133-9009372f217e"},"vehicle_type_id":"4","last_reported":1776862826,"current_range_meters":7200,"station_id":"","pricing_plan_id":"cebpf4jnsgd1na2vs0mg"},{"bike_id":"422e278e-2c8a-4b1f-bb04-debae7fe1583","system_id":"levelo_inurba_marseille","lat":43.29603,"lon":5.37719,"is_reserved":false,"is_disabled":false,"rental_uris":{"android":"levelo://app?vid=422e278e-2c8a-4b1f-bb04-debae7fe1583","ios":"levelo://app?vid=422e278e-2c8a-4b1f-bb04-debae7fe1583"},"vehicle_type_id":"4","last_reported":1776862826,"current_range_meters":7200,"station_id":"ce4bgi92rcd13ifvqb90","pricing_plan_id":"cebpf4jnsgd1na2vs0mg"},{"bike_id":"c9c1a884-0494-49db-9628-0ceb15fdb145","system_id":"levelo_inurba_marseille","lat":43.30969,"lon":5.39047,"is_reserved":false,"is_disabled":false,"rental_uris":{"android":"levelo://app?vid=c9c1a884-0494-49db-9628-0ceb15fdb145","ios":"levelo://app?vid=c9c1a884-0494-49db-9628-0ceb15fdb145"},"vehicle_type_id":"4","last_reported":1776862826,"current_range_meters":7200,"station_id":"ce4bgup2rcd13ifvqco0","pricing_plan_id":"cebpf4jnsgd1na2vs0mg"},{"bike_id":"43f9cb7d-98f7-4235-93be-9e94088c76ab","system_id":"levelo_inurba_marseille","lat":43.27972,"lon":5.38751,"is_reserved":false,"is_disabled":false,"rental_uris":{"android":"levelo://app?vid=43f9cb7d-98f7-4235-93be-9e94088c76ab","ios":"levelo://app?vid=43f9cb7d-98f7-4235-93be-9e94088c76ab"},"vehicle_type_id":"4","last_reported":1776862826,"current_range_meters":7200,"station_id":"ce4bhg12rcd13ifvqf80","pricing_plan_id":"cebpf4jnsgd1na2vs0mg"},{"bike_id":"36d4b845-dc91-444c-8c71-647922599c31","system_id":"levelo_inurba_marseille","lat":43.30957,"lon":5.39035,"is_reserved":false,"is_disabled":false,"rental_uris":{"android":"levelo://app?vid=36d4b845-dc91-444c-8c71-647922599c31","ios":"levelo://app?vid=36d4b845-dc91-444c-8c71-647922599c31"},"vehicle_type_id":"4","last_reported":1776862826,"current_range_meters":7200,"station_id":"ce4bgup2rcd13ifvqco0","pricing_plan_id":"cebpf4jnsgd1na2vs0mg"},{"bike_id":"1c4db81e-e54e-450a-b910-a202dc639503","system_id":"levelo_inurba_marseille","lat":43.28468,"lon":5.48406,"is_reserved":false,"is_disabled":false,"rental_uris":{"android":"levelo://app?vid=1c4db81e-e54e-450a-b910-a202dc639503","ios":"levelo://app?vid=1c4db81e-e54e-450a-b910-a202dc639503"},"vehicle_type_id":"4","last_reported":1776862826,"current_range_meters":8000,"station_id":"","pricing_plan_id":"cebpf4jnsgd1na2vs0mg"},{"bike_id":"f9d8122a-269f-4236-909e-9bb508de44e5","system_id":"levelo_inurba_marseille","lat":43.31164,"lon":5.39356,"is_reserved":false,"is_disabled":false,"rental_uris":{"android":"levelo://app?vid=f9d8122a-269f-4236-909e-9bb508de44e5","ios":"levelo://app?vid=f9d8122a-269f-4236-909e-9bb508de44e5"},"vehicle_type_id":"4","last_reported":1776862826,"current_range_meters":8000,"station_id":"","pricing_plan_id":"cebpf4jnsgd1na2vs0mg"},{"bike_id":"fc83597b-c92a-4d6b-9ec3-85cccb5b70a7","system_id":"levelo_inurba_marseille","lat":43.31942,"lon":5.36823,"is_reserved":false,"is_disabled":false,"rental_uris":{"android":"levelo://app?vid=fc83597b-c92a-4d6b-9ec3-85cccb5b70a7","ios":"levelo://app?vid=fc83597b-c92a-4d6b-9ec3-85cccb5b70a7"},"vehicle_type_id":"4","last_reported":1776862826,"current_range_meters":8000,"station_id":"","pricing_plan_id":"cebpf4jnsgd1na2vs0mg"},{"bike_id":"e874b5bf-0311-4ffe-a0d9-4cb68190466a","system_id":"levelo_inurba_marseille","lat":43.30158,"lon":5.38067,"is_reserved":false,"is_disabled":false,"rental_uris":{"android":"levelo://app?vid=e874b5bf-0311-4ffe-a0d9-4cb68190466a","ios":"levelo://app?vid=e874b5bf-0311-4ffe-a0d9-4cb68190466a"},"vehicle_type_id":"4","last_reported":1776862826,"current_range_meters":8000,"station_id":"ce4bgjp2rcd13ifvqbh0","pricing_plan_id":"cebpf4jnsgd1na2vs0mg"},{"bike_id":"bd3c6b3e-d299-464a-9a96-a94e112dc80d","system_id":"levelo_inurba_marseille","lat":43.29824,"lon":5.36268,"is_reserved":false,"is_disabled":false,"rental_uris":{"android":"levelo://app?vid=bd3c6b3e-d299-464a-9a96-a94e112dc80d","ios":"levelo://app?vid=bd3c6b3e-d299-464a-9a96-a94e112dc80d"},"vehicle_type_id":"4","last_reported":1776862826,"current_range_meters":8000,"station_id":"ce4bgpp2rcd13ifvqc3g","pricing_plan_id":"cebpf4jnsgd1na2vs0mg"},{"bike_id":"50918bbe-8b4a-4832-b89d-ffef40c798ba","system_id":"levelo_inurba_marseille","lat":43.32351,"lon":5.36747,"is_reserved":false,"is_disabled":false,"rental_uris":{"android":"levelo://app?vid=50918bbe-8b4a-4832-b89d-ffef40c798ba","ios":"levelo://app?vid=50918bbe-8b4a-4832-b89d-ffef40c798ba"},"vehicle_type_id":"4","last_reported":1776862826,"current_range_meters":8000,"station_id":"ce4bhsh2rcd13ifvqi2g","pricing_plan_id":"cebpf4jnsgd1na2vs0mg"},{"bike_id":"c7ff1d8c-9f80-4101-92ef-2f0b68fb525f","system_id":"levelo_inurba_marseille","lat":43.27581,"lon":5.39521,"is_reserved":false,"is_disabled":false,"rental_uris":{"android":"levelo://app?vid=c7ff1d8c-9f80-4101-92ef-2f0b68fb525f","ios":"levelo://app?vid=c7ff1d8c-9f80-4101-92ef-2f0b68fb525f"},"vehicle_type_id":"4","last_reported":1776862826,"current_range_meters":8000,"station_id":"","pricing_plan_id":"cebpf4jnsgd1na2vs0mg"},{"bike_id":"2d55dcb6-939b-4f02-b41f-c34266fa9e7a","system_id":"levelo_inurba_marseille","lat":43.29183,"lon":5.39298,"is_reserved":false,"is_disabled":true,"rental_uris":{"android":"levelo://app?vid=2d55dcb6-939b-4f02-b41f-c34266fa9e7a","ios":"levelo://app?vid=2d55dcb6-939b-4f02-b41f-c34266fa9e7a"},"vehicle_type_id":"4","last_reported":1776862826,"current_range_meters":8000,"station_id":"ce4bh192rcd13ifvqdd0","pricing_plan_id":"cebpf4jnsgd1na2vs0mg"},{"bike_id":"d1fda486-70ba-4609-b998-7713b50defe1","system_id":"levelo_inurba_marseille","lat":43.27045,"lon":5.40047,"is_reserved":false,"is_disabled":false,"rental_uris":{"android":"levelo://app?vid=d1fda486-70ba-4609-b998-7713b50defe1","ios":"levelo://app?vid=d1fda486-70ba-4609-b998-7713b50defe1"},"vehicle_type_id":"4","last_reported":1776862826,"current_range_meters":8000,"station_id":"","pricing_plan_id":"cebpf4jnsgd1na2vs0mg"},{"bike_id":"a94d236d-eba8-4733-81ef-6d7a05120d94","system_id":"levelo_inurba_marseille","lat":43.24871,"lon":5.39429,"is_reserved":false,"is_disabled":false,"rental_uris":{"android":"levelo://app?vid=a94d236d-eba8-4733-81ef-6d7a05120d94","ios":"levelo://app?vid=a94d236d-eba8-4733-81ef-6d7a05120d94"},"vehicle_type_id":"4","last_reported":1776862826,"current_range_meters":8000,"station_id":"","pricing_plan_id":"cebpf4jnsgd1na2vs0mg"},{"bike_id":"7cf9fb1b-7aaa-47be-85d2-7745d8fd9026","system_id":"levelo_inurba_marseille","lat":43.2592,"lon":5.4087,"is_reserved":false,"is_disabled":false,"rental_uris":{"android":"levelo://app?vid=7cf9fb1b-7aaa-47be-85d2-7745d8fd9026","ios":"levelo://app?vid=7cf9fb1b-7aaa-47be-85d2-7745d8fd9026"},"vehicle_type_id":"4","last_reported":1776862826,"current_range_meters":8000,"station_id":"ce4bhm92rcd13ifvqglg","pricing_plan_id":"cebpf4jnsgd1na2vs0mg"},{"bike_id":"97640678-22eb-456e-8a6b-8940edbd10ca","system_id":"levelo_inurba_marseille","lat":43.23914,"lon":5.4149,"is_reserved":false,"is_disabled":false,"rental_uris":{"android":"levelo://app?vid=97640678-22eb-456e-8a6b-8940edbd10ca","ios":"levelo://app?vid=97640678-22eb-456e-8a6b-8940edbd10ca"},"vehicle_type_id":"4","last_reported":1776862826,"current_range_meters":8000,"station_id":"","pricing_plan_id":"cebpf4jnsgd1na2vs0mg"},{"bike_id":"e0e6a07f-23e1-4637-a09e-f939446f08c6","system_id":"levelo_inurba_marseille","lat":43.26686,"lon":5.38263,"is_reserved":false,"is_disabled":false,"rental_uris":{"android":"levelo://app?vid=e0e6a07f-23e1-4637-a09e-f939446f08c6","ios":"levelo://app?vid=e0e6a07f-23e1-4637-a09e-f939446f08c6"},"vehicle_type_id":"4","last_reported":1776862826,"current_range_meters":8000,"station_id":"ce4bhg92rcd13ifvqf90","pricing_plan_id":"cebpf4jnsgd1na2vs0mg"},{"bike_id":"e894a4f9-57b8-404c-a053-fa8ff9222667","system_id":"levelo_inurba_marseille","lat":43.2859,"lon":5.39927,"is_reserved":false,"is_disabled":true,"rental_uris":{"android":"levelo://app?vid=e894a4f9-57b8-404c-a053-fa8ff9222667","ios":"levelo://app?vid=e894a4f9-57b8-404c-a053-fa8ff9222667"},"vehicle_type_id":"4","last_reported":1776862826,"current_range_meters":8000,"station_id":"st_d4a7ka997mjs738ck50g","pricing_plan_id":"cebpf4jnsgd1na2vs0mg"},{"bike_id":"e7d0e420-a455-4cc9-bdb2-1187e39e44de","system_id":"levelo_inurba_marseille","lat":43.30947,"lon":5.40155,"is_reserved":false,"is_disabled":false,"rental_uris":{"android":"levelo://app?vid=e7d0e420-a455-4cc9-bdb2-1187e39e44de","ios":"levelo://app?vid=e7d0e420-a455-4cc9-bdb2-1187e39e44de"},"vehicle_type_id":"4","last_reported":1776862826,"current_range_meters":8000,"station_id":"ce4bgvp2rcd13ifvqct0","pricing_plan_id":"cebpf4jnsgd1na2vs0mg"},{"bike_id":"1ab25768-bc23-4ea7-b3d9-cf825ed9a029","system_id":"levelo_inurba_marseille","lat":43.30909,"lon":5.36846,"is_reserved":false,"is_disabled":false,"rental_uris":{"android":"levelo://app?vid=1ab25768-bc23-4ea7-b3d9-cf825ed9a029","ios":"levelo://app?vid=1ab25768-bc23-4ea7-b3d9-cf825ed9a029"},"vehicle_type_id":"4","last_reported":1776862826,"current_range_meters":8000,"station_id":"ce4bgn92rcd13ifvqbvg","pricing_plan_id":"cebpf4jnsgd1na2vs0mg"},{"bike_id":"294d104c-d124-4991-8464-b98bf105de5c","system_id":"levelo_inurba_marseille","lat":43.30791,"lon":5.38159,"is_reserved":false,"is_disabled":false,"rental_uris":{"android":"levelo://app?vid=294d104c-d124-4991-8464-b98bf105de5c","ios":"levelo://app?vid=294d104c-d124-4991-8464-b98bf105de5c"},"vehicle_type_id":"4","last_reported":1776862826,"current_range_meters":8000,"station_id":"ce4bgt12rcd13ifvqce0","pricing_plan_id":"cebpf4jnsgd1na2vs0mg"},{"bike_id":"059b4ad8-665d-46df-9a3f-e9b9a20a1c99","system_id":"levelo_inurba_marseille","lat":43.33536,"lon":5.37481,"is_reserved":false,"is_disabled":false,"rental_uris":{"android":"levelo://app?vid=059b4ad8-665d-46df-9a3f-e9b9a20a1c99","ios":"levelo://app?vid=059b4ad8-665d-46df-9a3f-e9b9a20a1c99"},"vehicle_type_id":"4","last_reported":1776862826,"current_range_meters":8000,"station_id":"st_d46tts09ee8s73dlu43g","pricing_plan_id":"cebpf4jnsgd1na2vs0mg"},{"bike_id":"6ee75b1e-3389-452c-805f-052a7231f6b2","system_id":"levelo_inurba_marseille","lat":43.28864,"lon":5.42506,"is_reserved":false,"is_disabled":false,"rental_uris":{"android":"levelo://app?vid=6ee75b1e-3389-452c-805f-052a7231f6b2","ios":"levelo://app?vid=6ee75b1e-3389-452c-805f-052a7231f6b2"},"vehicle_type_id":"4","last_reported":1776862826,"current_range_meters":8400,"station_id":"st_d3b462108ojc7389ooeg","pricing_plan_id":"cebpf4jnsgd1na2vs0mg"},{"bike_id":"0314d703-439a-4d24-aa77-23665c947c59","system_id":"levelo_inurba_marseille","lat":43.28968,"lon":5.37815,"is_reserved":false,"is_disabled":true,"rental_uris":{"android":"levelo://app?vid=0314d703-439a-4d24-aa77-23665c947c59","ios":"levelo://app?vid=0314d703-439a-4d24-aa77-23665c947c59"},"vehicle_type_id":"4","last_reported":1776862826,"current_range_meters":8400,"station_id":"ce4bh9p2rcd13ifvqed0","pricing_plan_id":"cebpf4jnsgd1na2vs0mg"},{"bike_id":"4b93ce64-eeff-4ea5-b6d7-5f4311a5471f","system_id":"levelo_inurba_marseille","lat":43.30533,"lon":5.36689,"is_reserved":false,"is_disabled":false,"rental_uris":{"android":"levelo://app?vid=4b93ce64-eeff-4ea5-b6d7-5f4311a5471f","ios":"levelo://app?vid=4b93ce64-eeff-4ea5-b6d7-5f4311a5471f"},"vehicle_type_id":"4","last_reported":1776862826,"current_range_meters":8400,"station_id":"ce4bgrp2rcd13ifvqc9g","pricing_plan_id":"cebpf4jnsgd1na2vs0mg"},{"bike_id":"b0292b57-bc6e-4d3d-855f-2c85d8c85123","system_id":"levelo_inurba_marseille","lat":43.29321,"lon":5.36256,"is_reserved":false,"is_disabled":false,"rental_uris":{"android":"levelo://app?vid=b0292b57-bc6e-4d3d-855f-2c85d8c85123","ios":"levelo://app?vid=b0292b57-bc6e-4d3d-855f-2c85d8c85123"},"vehicle_type_id":"4","last_reported":1776862826,"current_range_meters":8400,"station_id":"","pricing_plan_id":"cebpf4jnsgd1na2vs0mg"},{"bike_id":"a05bfb6f-02f3-41c0-be48-84958ecb07a4","system_id":"levelo_inurba_marseille","lat":43.25944,"lon":5.40918,"is_reserved":false,"is_disabled":false,"rental_uris":{"android":"levelo://app?vid=a05bfb6f-02f3-41c0-be48-84958ecb07a4","ios":"levelo://app?vid=a05bfb6f-02f3-41c0-be48-84958ecb07a4"},"vehicle_type_id":"4","last_reported":1776862826,"current_range_meters":8400,"station_id":"ce4bhm92rcd13ifvqglg","pricing_plan_id":"cebpf4jnsgd1na2vs0mg"},{"bike_id":"b07df4a8-3a84-4a6f-8930-a25b3ebe2fc3","system_id":"levelo_inurba_marseille","lat":43.3102,"lon":5.37718,"is_reserved":false,"is_disabled":false,"rental_uris":{"android":"levelo://app?vid=b07df4a8-3a84-4a6f-8930-a25b3ebe2fc3","ios":"levelo://app?vid=b07df4a8-3a84-4a6f-8930-a25b3ebe2fc3"},"vehicle_type_id":"4","last_reported":1776862826,"current_range_meters":8400,"station_id":"","pricing_plan_id":"cebpf4jnsgd1na2vs0mg"},{"bike_id":"12d4166e-2b50-4206-bee8-a669b8ee33a0","system_id":"levelo_inurba_marseille","lat":43.31236,"lon":5.36907,"is_reserved":false,"is_disabled":false,"rental_uris":{"android":"levelo://app?vid=12d4166e-2b50-4206-bee8-a669b8ee33a0","ios":"levelo://app?vid=12d4166e-2b50-4206-bee8-a669b8ee33a0"},"vehicle_type_id":"4","last_reported":1776862826,"current_range_meters":8400,"station_id":"ce4bgl92rcd13ifvqbq0","pricing_plan_id":"cebpf4jnsgd1na2vs0mg"},{"bike_id":"13e8a1fb-acbf-4743-869e-4ec5f0dc6c5b","system_id":"levelo_inurba_marseille","lat":43.27066,"lon":5.42268,"is_reserved":false,"is_disabled":false,"rental_uris":{"android":"levelo://app?vid=13e8a1fb-acbf-4743-869e-4ec5f0dc6c5b","ios":"levelo://app?vid=13e8a1fb-acbf-4743-869e-4ec5f0dc6c5b"},"vehicle_type_id":"4","last_reported":1776862826,"current_range_meters":8400,"station_id":"ce4bhk92rcd13ifvqgb0","pricing_plan_id":"cebpf4jnsgd1na2vs0mg"},{"bike_id":"6b23908a-27fc-400a-b1b6-9daa8d6ab014","system_id":"levelo_inurba_marseille","lat":43.33707,"lon":5.39819,"is_reserved":false,"is_disabled":false,"rental_uris":{"android":"levelo://app?vid=6b23908a-27fc-400a-b1b6-9daa8d6ab014","ios":"levelo://app?vid=6b23908a-27fc-400a-b1b6-9daa8d6ab014"},"vehicle_type_id":"4","last_reported":1776862826,"current_range_meters":8400,"station_id":"","pricing_plan_id":"cebpf4jnsgd1na2vs0mg"},{"bike_id":"6cbd0239-8cdc-40c2-9221-8d54e5d40b6a","system_id":"levelo_inurba_marseille","lat":43.2315,"lon":5.43705,"is_reserved":false,"is_disabled":false,"rental_uris":{"android":"levelo://app?vid=6cbd0239-8cdc-40c2-9221-8d54e5d40b6a","ios":"levelo://app?vid=6cbd0239-8cdc-40c2-9221-8d54e5d40b6a"},"vehicle_type_id":"4","last_reported":1776862826,"current_range_meters":8400,"station_id":"ce4bhmp2rcd13ifvqgog","pricing_plan_id":"cebpf4jnsgd1na2vs0mg"},{"bike_id":"cfcc8dcf-6816-46a1-945d-fdf5ccf50752","system_id":"levelo_inurba_marseille","lat":43.30935,"lon":5.41153,"is_reserved":false,"is_disabled":false,"rental_uris":{"android":"levelo://app?vid=cfcc8dcf-6816-46a1-945d-fdf5ccf50752","ios":"levelo://app?vid=cfcc8dcf-6816-46a1-945d-fdf5ccf50752"},"vehicle_type_id":"4","last_reported":1776862826,"current_range_meters":8400,"station_id":"","pricing_plan_id":"cebpf4jnsgd1na2vs0mg"},{"bike_id":"4ec0d99f-069f-4343-a14e-06b28059e112","system_id":"levelo_inurba_marseille","lat":43.31346,"lon":5.36717,"is_reserved":false,"is_disabled":false,"rental_uris":{"android":"levelo://app?vid=4ec0d99f-069f-4343-a14e-06b28059e112","ios":"levelo://app?vid=4ec0d99f-069f-4343-a14e-06b28059e112"},"vehicle_type_id":"4","last_reported":1776862826,"current_range_meters":8400,"station_id":"ce4bgr92rcd13ifvqc6g","pricing_plan_id":"cebpf4jnsgd1na2vs0mg"},{"bike_id":"2b240edb-4cac-411c-ba95-5c60e9a60d8d","system_id":"levelo_inurba_marseille","lat":43.26559,"lon":5.37305,"is_reserved":false,"is_disabled":false,"rental_uris":{"android":"levelo://app?vid=2b240edb-4cac-411c-ba95-5c60e9a60d8d","ios":"levelo://app?vid=2b240edb-4cac-411c-ba95-5c60e9a60d8d"},"vehicle_type_id":"4","last_reported":1776862826,"current_range_meters":8800,"station_id":"ce4bhg12rcd13ifvqf70","pricing_plan_id":"cebpf4jnsgd1na2vs0mg"},{"bike_id":"65c32566-4c7f-4dee-ae0b-f2830e9e2ab9","system_id":"levelo_inurba_marseille","lat":43.29803,"lon":5.44071,"is_reserved":false,"is_disabled":false,"rental_uris":{"android":"levelo://app?vid=65c32566-4c7f-4dee-ae0b-f2830e9e2ab9","ios":"levelo://app?vid=65c32566-4c7f-4dee-ae0b-f2830e9e2ab9"},"vehicle_type_id":"4","last_reported":1776862826,"current_range_meters":8800,"station_id":"st_d3jp68qikq2c7381ktn0","pricing_plan_id":"cebpf4jnsgd1na2vs0mg"},{"bike_id":"ac881409-e7c1-4dc7-868f-5470aa726fd2","system_id":"levelo_inurba_marseille","lat":43.29806,"lon":5.44067,"is_reserved":false,"is_disabled":false,"rental_uris":{"android":"levelo://app?vid=ac881409-e7c1-4dc7-868f-5470aa726fd2","ios":"levelo://app?vid=ac881409-e7c1-4dc7-868f-5470aa726fd2"},"vehicle_type_id":"4","last_reported":1776862826,"current_range_meters":8800,"station_id":"st_d3jp68qikq2c7381ktn0","pricing_plan_id":"cebpf4jnsgd1na2vs0mg"},{"bike_id":"f9f4dea5-fb5a-48a1-a672-5e571cae2d66","system_id":"levelo_inurba_marseille","lat":43.30318,"lon":5.40439,"is_reserved":false,"is_disabled":false,"rental_uris":{"android":"levelo://app?vid=f9f4dea5-fb5a-48a1-a672-5e571cae2d66","ios":"levelo://app?vid=f9f4dea5-fb5a-48a1-a672-5e571cae2d66"},"vehicle_type_id":"4","last_reported":1776862826,"current_range_meters":8800,"station_id":"","pricing_plan_id":"cebpf4jnsgd1na2vs0mg"},{"bike_id":"f073afee-cba8-40f3-8cbe-a4d3aba602f4","system_id":"levelo_inurba_marseille","lat":43.28254,"lon":5.35042,"is_reserved":false,"is_disabled":true,"rental_uris":{"android":"levelo://app?vid=f073afee-cba8-40f3-8cbe-a4d3aba602f4","ios":"levelo://app?vid=f073afee-cba8-40f3-8cbe-a4d3aba602f4"},"vehicle_type_id":"4","last_reported":1776862826,"current_range_meters":8800,"station_id":"ce4bhbp2rcd13ifvqerg","pricing_plan_id":"cebpf4jnsgd1na2vs0mg"},{"bike_id":"6ce8d7c2-5d20-4a12-ac6b-bfb4cc68932e","system_id":"levelo_inurba_marseille","lat":43.28011,"lon":5.38729,"is_reserved":false,"is_disabled":false,"rental_uris":{"android":"levelo://app?vid=6ce8d7c2-5d20-4a12-ac6b-bfb4cc68932e","ios":"levelo://app?vid=6ce8d7c2-5d20-4a12-ac6b-bfb4cc68932e"},"vehicle_type_id":"4","last_reported":1776862826,"current_range_meters":8800,"station_id":"ce4bhg12rcd13ifvqf80","pricing_plan_id":"cebpf4jnsgd1na2vs0mg"},{"bike_id":"16f7fe35-694a-4eb9-9cc6-4679694d07e2","system_id":"levelo_inurba_marseille","lat":43.31241,"lon":5.37911,"is_reserved":false,"is_disabled":false,"rental_uris":{"android":"levelo://app?vid=16f7fe35-694a-4eb9-9cc6-4679694d07e2","ios":"levelo://app?vid=16f7fe35-694a-4eb9-9cc6-4679694d07e2"},"vehicle_type_id":"4","last_reported":1776862826,"current_range_meters":8800,"station_id":"","pricing_plan_id":"cebpf4jnsgd1na2vs0mg"},{"bike_id":"226ece2b-87fc-494b-b9b1-29d4f3a23456","system_id":"levelo_inurba_marseille","lat":43.28327,"lon":5.4263,"is_reserved":false,"is_disabled":false,"rental_uris":{"android":"levelo://app?vid=226ece2b-87fc-494b-b9b1-29d4f3a23456","ios":"levelo://app?vid=226ece2b-87fc-494b-b9b1-29d4f3a23456"},"vehicle_type_id":"4","last_reported":1776862826,"current_range_meters":8800,"station_id":"","pricing_plan_id":"cebpf4jnsgd1na2vs0mg"},{"bike_id":"f8d46f57-68ae-42a5-9479-ae67d8834276","system_id":"levelo_inurba_marseille","lat":43.3001,"lon":5.37079,"is_reserved":false,"is_disabled":false,"rental_uris":{"android":"levelo://app?vid=f8d46f57-68ae-42a5-9479-ae67d8834276","ios":"levelo://app?vid=f8d46f57-68ae-42a5-9479-ae67d8834276"},"vehicle_type_id":"4","last_reported":1776862826,"current_range_meters":8800,"station_id":"","pricing_plan_id":"cebpf4jnsgd1na2vs0mg"},{"bike_id":"397c50ad-8380-47e2-a6a0-b7b53afed410","system_id":"levelo_inurba_marseille","lat":43.29298,"lon":5.37461,"is_reserved":false,"is_disabled":false,"rental_uris":{"android":"levelo://app?vid=397c50ad-8380-47e2-a6a0-b7b53afed410","ios":"levelo://app?vid=397c50ad-8380-47e2-a6a0-b7b53afed410"},"vehicle_type_id":"4","last_reported":1776862826,"current_range_meters":8800,"station_id":"ce4bgi12rcd13ifvqb70","pricing_plan_id":"cebpf4jnsgd1na2vs0mg"},{"bike_id":"2ac15ea7-1904-4a69-9f5e-f4cb7754354f","system_id":"levelo_inurba_marseille","lat":43.24066,"lon":5.37731,"is_reserved":false,"is_disabled":false,"rental_uris":{"android":"levelo://app?vid=2ac15ea7-1904-4a69-9f5e-f4cb7754354f","ios":"levelo://app?vid=2ac15ea7-1904-4a69-9f5e-f4cb7754354f"},"vehicle_type_id":"4","last_reported":1776862826,"current_range_meters":8800,"station_id":"ce4bhnp2rcd13ifvqgvg","pricing_plan_id":"cebpf4jnsgd1na2vs0mg"},{"bike_id":"7af19307-88ba-4f26-8f95-a2adf190dff7","system_id":"levelo_inurba_marseille","lat":43.30188,"lon":5.36609,"is_reserved":false,"is_disabled":false,"rental_uris":{"android":"levelo://app?vid=7af19307-88ba-4f26-8f95-a2adf190dff7","ios":"levelo://app?vid=7af19307-88ba-4f26-8f95-a2adf190dff7"},"vehicle_type_id":"4","last_reported":1776862826,"current_range_meters":8800,"station_id":"ce4bgrh2rcd13ifvqc8g","pricing_plan_id":"cebpf4jnsgd1na2vs0mg"},{"bike_id":"b4f74c97-3f91-4820-ad7f-9c6dd916e9f6","system_id":"levelo_inurba_marseille","lat":43.31346,"lon":5.36803,"is_reserved":false,"is_disabled":false,"rental_uris":{"android":"levelo://app?vid=b4f74c97-3f91-4820-ad7f-9c6dd916e9f6","ios":"levelo://app?vid=b4f74c97-3f91-4820-ad7f-9c6dd916e9f6"},"vehicle_type_id":"4","last_reported":1776862826,"current_range_meters":8800,"station_id":"","pricing_plan_id":"cebpf4jnsgd1na2vs0mg"},{"bike_id":"a3bbeeff-8edb-4ff8-9d53-d46289162b7c","system_id":"levelo_inurba_marseille","lat":43.29687,"lon":5.3727,"is_reserved":false,"is_disabled":false,"rental_uris":{"android":"levelo://app?vid=a3bbeeff-8edb-4ff8-9d53-d46289162b7c","ios":"levelo://app?vid=a3bbeeff-8edb-4ff8-9d53-d46289162b7c"},"vehicle_type_id":"4","last_reported":1776862826,"current_range_meters":8800,"station_id":"ce4bgk12rcd13ifvqbj0","pricing_plan_id":"cebpf4jnsgd1na2vs0mg"},{"bike_id":"feed4a04-c5ce-43b3-ad36-3ec210ca31bb","system_id":"levelo_inurba_marseille","lat":43.26538,"lon":5.37291,"is_reserved":false,"is_disabled":false,"rental_uris":{"android":"levelo://app?vid=feed4a04-c5ce-43b3-ad36-3ec210ca31bb","ios":"levelo://app?vid=feed4a04-c5ce-43b3-ad36-3ec210ca31bb"},"vehicle_type_id":"4","last_reported":1776862826,"current_range_meters":8800,"station_id":"ce4bhg12rcd13ifvqf70","pricing_plan_id":"cebpf4jnsgd1na2vs0mg"},{"bike_id":"0d8738c8-efd5-4f83-bedf-81eb9a1d6096","system_id":"levelo_inurba_marseille","lat":43.33166,"lon":5.36172,"is_reserved":false,"is_disabled":false,"rental_uris":{"android":"levelo://app?vid=0d8738c8-efd5-4f83-bedf-81eb9a1d6096","ios":"levelo://app?vid=0d8738c8-efd5-4f83-bedf-81eb9a1d6096"},"vehicle_type_id":"4","last_reported":1776862826,"current_range_meters":8800,"station_id":"","pricing_plan_id":"cebpf4jnsgd1na2vs0mg"},{"bike_id":"6f061c2d-e294-44c5-a556-1fdc3d57ab50","system_id":"levelo_inurba_marseille","lat":43.31725,"lon":5.40416,"is_reserved":false,"is_disabled":false,"rental_uris":{"android":"levelo://app?vid=6f061c2d-e294-44c5-a556-1fdc3d57ab50","ios":"levelo://app?vid=6f061c2d-e294-44c5-a556-1fdc3d57ab50"},"vehicle_type_id":"4","last_reported":1776862826,"current_range_meters":9200,"station_id":"","pricing_plan_id":"cebpf4jnsgd1na2vs0mg"},{"bike_id":"0a3f04e7-cf02-4e3f-b938-54cbd3c1d649","system_id":"levelo_inurba_marseille","lat":43.29849,"lon":5.36276,"is_reserved":false,"is_disabled":false,"rental_uris":{"android":"levelo://app?vid=0a3f04e7-cf02-4e3f-b938-54cbd3c1d649","ios":"levelo://app?vid=0a3f04e7-cf02-4e3f-b938-54cbd3c1d649"},"vehicle_type_id":"4","last_reported":1776862826,"current_range_meters":9200,"station_id":"ce4bgpp2rcd13ifvqc3g","pricing_plan_id":"cebpf4jnsgd1na2vs0mg"},{"bike_id":"09012acd-7e2a-4e46-b00e-3df38d87fafc","system_id":"levelo_inurba_marseille","lat":43.24864,"lon":5.40639,"is_reserved":false,"is_disabled":false,"rental_uris":{"android":"levelo://app?vid=09012acd-7e2a-4e46-b00e-3df38d87fafc","ios":"levelo://app?vid=09012acd-7e2a-4e46-b00e-3df38d87fafc"},"vehicle_type_id":"4","last_reported":1776862826,"current_range_meters":9200,"station_id":"","pricing_plan_id":"cebpf4jnsgd1na2vs0mg"},{"bike_id":"066f5f3e-8e23-4bcf-98fe-83f6bdadc7d8","system_id":"levelo_inurba_marseille","lat":43.29708,"lon":5.376872,"is_reserved":false,"is_disabled":false,"rental_uris":{"android":"levelo://app?vid=066f5f3e-8e23-4bcf-98fe-83f6bdadc7d8","ios":"levelo://app?vid=066f5f3e-8e23-4bcf-98fe-83f6bdadc7d8"},"vehicle_type_id":"4","last_reported":1776862826,"current_range_meters":9200,"station_id":"ce4bgkh2rcd13ifvqbl0","pricing_plan_id":"cebpf4jnsgd1na2vs0mg"},{"bike_id":"4325b23f-2d95-4a1d-954b-94c0485db37e","system_id":"levelo_inurba_marseille","lat":43.21195,"lon":5.35052,"is_reserved":false,"is_disabled":false,"rental_uris":{"android":"levelo://app?vid=4325b23f-2d95-4a1d-954b-94c0485db37e","ios":"levelo://app?vid=4325b23f-2d95-4a1d-954b-94c0485db37e"},"vehicle_type_id":"4","last_reported":1776862826,"current_range_meters":9200,"station_id":"st_cvj6sg6p6f1abm77japg","pricing_plan_id":"cebpf4jnsgd1na2vs0mg"},{"bike_id":"1c21b5e4-18ba-4d77-b990-0019b8294ddb","system_id":"levelo_inurba_marseille","lat":43.26572,"lon":5.3964,"is_reserved":false,"is_disabled":false,"rental_uris":{"android":"levelo://app?vid=1c21b5e4-18ba-4d77-b990-0019b8294ddb","ios":"levelo://app?vid=1c21b5e4-18ba-4d77-b990-0019b8294ddb"},"vehicle_type_id":"4","last_reported":1776862826,"current_range_meters":9200,"station_id":"","pricing_plan_id":"cebpf4jnsgd1na2vs0mg"},{"bike_id":"5a2b70bc-526f-4158-bf29-388c6a97e431","system_id":"levelo_inurba_marseille","lat":43.3029,"lon":5.37698,"is_reserved":false,"is_disabled":false,"rental_uris":{"android":"levelo://app?vid=5a2b70bc-526f-4158-bf29-388c6a97e431","ios":"levelo://app?vid=5a2b70bc-526f-4158-bf29-388c6a97e431"},"vehicle_type_id":"4","last_reported":1776862826,"current_range_meters":9200,"station_id":"ce4bguh2rcd13ifvqcj0","pricing_plan_id":"cebpf4jnsgd1na2vs0mg"},{"bike_id":"a56889e7-37d7-487e-a661-9c8461fe50da","system_id":"levelo_inurba_marseille","lat":43.30919,"lon":5.3683,"is_reserved":false,"is_disabled":false,"rental_uris":{"android":"levelo://app?vid=a56889e7-37d7-487e-a661-9c8461fe50da","ios":"levelo://app?vid=a56889e7-37d7-487e-a661-9c8461fe50da"},"vehicle_type_id":"4","last_reported":1776862826,"current_range_meters":9200,"station_id":"ce4bgn92rcd13ifvqbvg","pricing_plan_id":"cebpf4jnsgd1na2vs0mg"},{"bike_id":"fb495226-2c6e-4c6b-b095-ab9f9fc7ab62","system_id":"levelo_inurba_marseille","lat":43.26218,"lon":5.37914,"is_reserved":false,"is_disabled":false,"rental_uris":{"android":"levelo://app?vid=fb495226-2c6e-4c6b-b095-ab9f9fc7ab62","ios":"levelo://app?vid=fb495226-2c6e-4c6b-b095-ab9f9fc7ab62"},"vehicle_type_id":"4","last_reported":1776862826,"current_range_meters":9200,"station_id":"ce4bhjp2rcd13ifvqg90","pricing_plan_id":"cebpf4jnsgd1na2vs0mg"},{"bike_id":"7c2d4cbd-4710-4158-8d5e-3ef9174bf26f","system_id":"levelo_inurba_marseille","lat":43.28138,"lon":5.42294,"is_reserved":false,"is_disabled":true,"rental_uris":{"android":"levelo://app?vid=7c2d4cbd-4710-4158-8d5e-3ef9174bf26f","ios":"levelo://app?vid=7c2d4cbd-4710-4158-8d5e-3ef9174bf26f"},"vehicle_type_id":"4","last_reported":1776862826,"current_range_meters":9200,"station_id":"","pricing_plan_id":"cebpf4jnsgd1na2vs0mg"},{"bike_id":"25931435-472d-4946-9b9a-fc67e50f018d","system_id":"levelo_inurba_marseille","lat":43.23027,"lon":5.44477,"is_reserved":false,"is_disabled":false,"rental_uris":{"android":"levelo://app?vid=25931435-472d-4946-9b9a-fc67e50f018d","ios":"levelo://app?vid=25931435-472d-4946-9b9a-fc67e50f018d"},"vehicle_type_id":"4","last_reported":1776862826,"current_range_meters":9200,"station_id":"","pricing_plan_id":"cebpf4jnsgd1na2vs0mg"},{"bike_id":"772652df-39a3-4a7d-ab76-86683fdc6511","system_id":"levelo_inurba_marseille","lat":43.28906,"lon":5.36889,"is_reserved":false,"is_disabled":false,"rental_uris":{"android":"levelo://app?vid=772652df-39a3-4a7d-ab76-86683fdc6511","ios":"levelo://app?vid=772652df-39a3-4a7d-ab76-86683fdc6511"},"vehicle_type_id":"4","last_reported":1776862826,"current_range_meters":9200,"station_id":"","pricing_plan_id":"cebpf4jnsgd1na2vs0mg"},{"bike_id":"fb97ca6a-7942-4d16-ad63-fec2320634fc","system_id":"levelo_inurba_marseille","lat":43.3095,"lon":5.39037,"is_reserved":false,"is_disabled":false,"rental_uris":{"android":"levelo://app?vid=fb97ca6a-7942-4d16-ad63-fec2320634fc","ios":"levelo://app?vid=fb97ca6a-7942-4d16-ad63-fec2320634fc"},"vehicle_type_id":"4","last_reported":1776862826,"current_range_meters":9200,"station_id":"ce4bgup2rcd13ifvqco0","pricing_plan_id":"cebpf4jnsgd1na2vs0mg"},{"bike_id":"38faf73f-c72d-4bb9-9220-f1d22f4c16ad","system_id":"levelo_inurba_marseille","lat":43.25218,"lon":5.37438,"is_reserved":false,"is_disabled":false,"rental_uris":{"android":"levelo://app?vid=38faf73f-c72d-4bb9-9220-f1d22f4c16ad","ios":"levelo://app?vid=38faf73f-c72d-4bb9-9220-f1d22f4c16ad"},"vehicle_type_id":"4","last_reported":1776862826,"current_range_meters":9200,"station_id":"","pricing_plan_id":"cebpf4jnsgd1na2vs0mg"},{"bike_id":"32f17f5b-3b3d-4576-bdcd-5c60ca015205","system_id":"levelo_inurba_marseille","lat":43.30731,"lon":5.42448,"is_reserved":false,"is_disabled":false,"rental_uris":{"android":"levelo://app?vid=32f17f5b-3b3d-4576-bdcd-5c60ca015205","ios":"levelo://app?vid=32f17f5b-3b3d-4576-bdcd-5c60ca015205"},"vehicle_type_id":"4","last_reported":1776862826,"current_range_meters":9200,"station_id":"st_cvj6ca6bvosntc0bfgr0","pricing_plan_id":"cebpf4jnsgd1na2vs0mg"},{"bike_id":"d512d8dd-b260-4afb-b5c8-f5039ccb9f06","system_id":"levelo_inurba_marseille","lat":43.3124,"lon":5.36845,"is_reserved":false,"is_disabled":false,"rental_uris":{"android":"levelo://app?vid=d512d8dd-b260-4afb-b5c8-f5039ccb9f06","ios":"levelo://app?vid=d512d8dd-b260-4afb-b5c8-f5039ccb9f06"},"vehicle_type_id":"4","last_reported":1776862826,"current_range_meters":9600,"station_id":"ce4bgl92rcd13ifvqbq0","pricing_plan_id":"cebpf4jnsgd1na2vs0mg"},{"bike_id":"0923929c-d272-4fa1-a3d9-8f4c7a6f830d","system_id":"levelo_inurba_marseille","lat":43.3083,"lon":5.3821,"is_reserved":false,"is_disabled":false,"rental_uris":{"android":"levelo://app?vid=0923929c-d272-4fa1-a3d9-8f4c7a6f830d","ios":"levelo://app?vid=0923929c-d272-4fa1-a3d9-8f4c7a6f830d"},"vehicle_type_id":"4","last_reported":1776862826,"current_range_meters":9600,"station_id":"","pricing_plan_id":"cebpf4jnsgd1na2vs0mg"},{"bike_id":"6ffc15b8-1554-41c5-bb1b-9ba599c4e6bd","system_id":"levelo_inurba_marseille","lat":43.28157,"lon":5.36357,"is_reserved":false,"is_disabled":false,"rental_uris":{"android":"levelo://app?vid=6ffc15b8-1554-41c5-bb1b-9ba599c4e6bd","ios":"levelo://app?vid=6ffc15b8-1554-41c5-bb1b-9ba599c4e6bd"},"vehicle_type_id":"4","last_reported":1776862826,"current_range_meters":9600,"station_id":"","pricing_plan_id":"cebpf4jnsgd1na2vs0mg"},{"bike_id":"04df24b4-d21c-45f6-81b8-5f94ac6e7a38","system_id":"levelo_inurba_marseille","lat":43.299675,"lon":5.384948,"is_reserved":false,"is_disabled":false,"rental_uris":{"android":"levelo://app?vid=04df24b4-d21c-45f6-81b8-5f94ac6e7a38","ios":"levelo://app?vid=04df24b4-d21c-45f6-81b8-5f94ac6e7a38"},"vehicle_type_id":"4","last_reported":1776862826,"current_range_meters":9600,"station_id":"ce4bgj92rcd13ifvqbd0","pricing_plan_id":"cebpf4jnsgd1na2vs0mg"},{"bike_id":"500638d0-cf5c-4061-b413-99b5dc6f2377","system_id":"levelo_inurba_marseille","lat":43.27448,"lon":5.42497,"is_reserved":false,"is_disabled":false,"rental_uris":{"android":"levelo://app?vid=500638d0-cf5c-4061-b413-99b5dc6f2377","ios":"levelo://app?vid=500638d0-cf5c-4061-b413-99b5dc6f2377"},"vehicle_type_id":"4","last_reported":1776862826,"current_range_meters":9600,"station_id":"","pricing_plan_id":"cebpf4jnsgd1na2vs0mg"},{"bike_id":"cb74c37c-0349-47b3-85df-080ebdd748d7","system_id":"levelo_inurba_marseille","lat":43.26777,"lon":5.3751,"is_reserved":false,"is_disabled":false,"rental_uris":{"android":"levelo://app?vid=cb74c37c-0349-47b3-85df-080ebdd748d7","ios":"levelo://app?vid=cb74c37c-0349-47b3-85df-080ebdd748d7"},"vehicle_type_id":"4","last_reported":1776862826,"current_range_meters":9600,"station_id":"","pricing_plan_id":"cebpf4jnsgd1na2vs0mg"},{"bike_id":"c4ce6f17-ac36-4f95-9d2a-b2f1cc934876","system_id":"levelo_inurba_marseille","lat":43.26403,"lon":5.41066,"is_reserved":false,"is_disabled":false,"rental_uris":{"android":"levelo://app?vid=c4ce6f17-ac36-4f95-9d2a-b2f1cc934876","ios":"levelo://app?vid=c4ce6f17-ac36-4f95-9d2a-b2f1cc934876"},"vehicle_type_id":"4","last_reported":1776862826,"current_range_meters":9600,"station_id":"st_d4e5ca6na9uc73bfl5fg","pricing_plan_id":"cebpf4jnsgd1na2vs0mg"},{"bike_id":"f1e17ef2-58da-4c6a-aab7-1db097bb104c","system_id":"levelo_inurba_marseille","lat":43.27101,"lon":5.3632,"is_reserved":false,"is_disabled":true,"rental_uris":{"android":"levelo://app?vid=f1e17ef2-58da-4c6a-aab7-1db097bb104c","ios":"levelo://app?vid=f1e17ef2-58da-4c6a-aab7-1db097bb104c"},"vehicle_type_id":"4","last_reported":1776862826,"current_range_meters":9600,"station_id":"","pricing_plan_id":"cebpf4jnsgd1na2vs0mg"},{"bike_id":"c196994c-5fc4-40ae-9a40-dd553c13c77b","system_id":"levelo_inurba_marseille","lat":43.312,"lon":5.36854,"is_reserved":false,"is_disabled":false,"rental_uris":{"android":"levelo://app?vid=c196994c-5fc4-40ae-9a40-dd553c13c77b","ios":"levelo://app?vid=c196994c-5fc4-40ae-9a40-dd553c13c77b"},"vehicle_type_id":"4","last_reported":1776862826,"current_range_meters":9600,"station_id":"ce4bgl92rcd13ifvqbq0","pricing_plan_id":"cebpf4jnsgd1na2vs0mg"},{"bike_id":"bf2a9420-01b1-4fa6-8cfb-6a413e6e2a7a","system_id":"levelo_inurba_marseille","lat":43.30937,"lon":5.3903,"is_reserved":false,"is_disabled":false,"rental_uris":{"android":"levelo://app?vid=bf2a9420-01b1-4fa6-8cfb-6a413e6e2a7a","ios":"levelo://app?vid=bf2a9420-01b1-4fa6-8cfb-6a413e6e2a7a"},"vehicle_type_id":"4","last_reported":1776862826,"current_range_meters":10000,"station_id":"ce4bgup2rcd13ifvqco0","pricing_plan_id":"cebpf4jnsgd1na2vs0mg"},{"bike_id":"205eefac-f379-49f9-b02e-ad048a493b05","system_id":"levelo_inurba_marseille","lat":43.27124,"lon":5.42539,"is_reserved":false,"is_disabled":false,"rental_uris":{"android":"levelo://app?vid=205eefac-f379-49f9-b02e-ad048a493b05","ios":"levelo://app?vid=205eefac-f379-49f9-b02e-ad048a493b05"},"vehicle_type_id":"4","last_reported":1776862826,"current_range_meters":10000,"station_id":"","pricing_plan_id":"cebpf4jnsgd1na2vs0mg"},{"bike_id":"dc9c2d18-358e-4616-a589-636e5e2c1512","system_id":"levelo_inurba_marseille","lat":43.30572,"lon":5.36716,"is_reserved":false,"is_disabled":false,"rental_uris":{"android":"levelo://app?vid=dc9c2d18-358e-4616-a589-636e5e2c1512","ios":"levelo://app?vid=dc9c2d18-358e-4616-a589-636e5e2c1512"},"vehicle_type_id":"4","last_reported":1776862826,"current_range_meters":10000,"station_id":"ce4bgrp2rcd13ifvqc9g","pricing_plan_id":"cebpf4jnsgd1na2vs0mg"},{"bike_id":"52d848d3-e124-40a2-855d-fb7f07415aa4","system_id":"levelo_inurba_marseille","lat":43.28413,"lon":5.37548,"is_reserved":false,"is_disabled":true,"rental_uris":{"android":"levelo://app?vid=52d848d3-e124-40a2-855d-fb7f07415aa4","ios":"levelo://app?vid=52d848d3-e124-40a2-855d-fb7f07415aa4"},"vehicle_type_id":"4","last_reported":1776862826,"current_range_meters":10000,"station_id":"ce4bh412rcd13ifvqds0","pricing_plan_id":"cebpf4jnsgd1na2vs0mg"},{"bike_id":"76f79e84-4e82-417e-b9f7-586af1328d81","system_id":"levelo_inurba_marseille","lat":43.24592,"lon":5.42078,"is_reserved":false,"is_disabled":false,"rental_uris":{"android":"levelo://app?vid=76f79e84-4e82-417e-b9f7-586af1328d81","ios":"levelo://app?vid=76f79e84-4e82-417e-b9f7-586af1328d81"},"vehicle_type_id":"4","last_reported":1776862826,"current_range_meters":10000,"station_id":"","pricing_plan_id":"cebpf4jnsgd1na2vs0mg"},{"bike_id":"cf6006cd-b52f-419a-8a97-563f9a7a9362","system_id":"levelo_inurba_marseille","lat":43.31394,"lon":5.36739,"is_reserved":false,"is_disabled":false,"rental_uris":{"android":"levelo://app?vid=cf6006cd-b52f-419a-8a97-563f9a7a9362","ios":"levelo://app?vid=cf6006cd-b52f-419a-8a97-563f9a7a9362"},"vehicle_type_id":"4","last_reported":1776862826,"current_range_meters":10000,"station_id":"","pricing_plan_id":"cebpf4jnsgd1na2vs0mg"},{"bike_id":"9c3677d0-627f-49f8-bd9c-64ba96ef4fce","system_id":"levelo_inurba_marseille","lat":43.28477,"lon":5.48394,"is_reserved":false,"is_disabled":false,"rental_uris":{"android":"levelo://app?vid=9c3677d0-627f-49f8-bd9c-64ba96ef4fce","ios":"levelo://app?vid=9c3677d0-627f-49f8-bd9c-64ba96ef4fce"},"vehicle_type_id":"4","last_reported":1776862826,"current_range_meters":10000,"station_id":"","pricing_plan_id":"cebpf4jnsgd1na2vs0mg"},{"bike_id":"deb2231e-0861-4602-8eeb-c5067b2ff42f","system_id":"levelo_inurba_marseille","lat":43.27489,"lon":5.42443,"is_reserved":false,"is_disabled":false,"rental_uris":{"android":"levelo://app?vid=deb2231e-0861-4602-8eeb-c5067b2ff42f","ios":"levelo://app?vid=deb2231e-0861-4602-8eeb-c5067b2ff42f"},"vehicle_type_id":"4","last_reported":1776862826,"current_range_meters":10000,"station_id":"ce4bhn92rcd13ifvqgrg","pricing_plan_id":"cebpf4jnsgd1na2vs0mg"},{"bike_id":"dfa9056e-9f33-4218-90b6-c4a06d8b3910","system_id":"levelo_inurba_marseille","lat":43.3192,"lon":5.36792,"is_reserved":false,"is_disabled":false,"rental_uris":{"android":"levelo://app?vid=dfa9056e-9f33-4218-90b6-c4a06d8b3910","ios":"levelo://app?vid=dfa9056e-9f33-4218-90b6-c4a06d8b3910"},"vehicle_type_id":"4","last_reported":1776862826,"current_range_meters":10000,"station_id":"st_d6o2h0d0559c73evc1b0","pricing_plan_id":"cebpf4jnsgd1na2vs0mg"},{"bike_id":"c9d45c1b-0a76-4975-9339-27d715850507","system_id":"levelo_inurba_marseille","lat":43.30312,"lon":5.36898,"is_reserved":false,"is_disabled":false,"rental_uris":{"android":"levelo://app?vid=c9d45c1b-0a76-4975-9339-27d715850507","ios":"levelo://app?vid=c9d45c1b-0a76-4975-9339-27d715850507"},"vehicle_type_id":"4","last_reported":1776862826,"current_range_meters":10000,"station_id":"ce4bgqh2rcd13ifvqc5g","pricing_plan_id":"cebpf4jnsgd1na2vs0mg"},{"bike_id":"46335186-6bd7-4461-9e78-da17046593c8","system_id":"levelo_inurba_marseille","lat":43.28412,"lon":5.38493,"is_reserved":false,"is_disabled":false,"rental_uris":{"android":"levelo://app?vid=46335186-6bd7-4461-9e78-da17046593c8","ios":"levelo://app?vid=46335186-6bd7-4461-9e78-da17046593c8"},"vehicle_type_id":"4","last_reported":1776862826,"current_range_meters":10000,"station_id":"","pricing_plan_id":"cebpf4jnsgd1na2vs0mg"},{"bike_id":"2a043756-cf7b-4982-be3f-7f5485ea3789","system_id":"levelo_inurba_marseille","lat":43.29505,"lon":5.38765,"is_reserved":false,"is_disabled":false,"rental_uris":{"android":"levelo://app?vid=2a043756-cf7b-4982-be3f-7f5485ea3789","ios":"levelo://app?vid=2a043756-cf7b-4982-be3f-7f5485ea3789"},"vehicle_type_id":"4","last_reported":1776862826,"current_range_meters":10800,"station_id":"","pricing_plan_id":"cebpf4jnsgd1na2vs0mg"},{"bike_id":"4a4a0df8-5f31-45c3-a76c-fd61c25cab78","system_id":"levelo_inurba_marseille","lat":43.31285,"lon":5.40154,"is_reserved":false,"is_disabled":false,"rental_uris":{"android":"levelo://app?vid=4a4a0df8-5f31-45c3-a76c-fd61c25cab78","ios":"levelo://app?vid=4a4a0df8-5f31-45c3-a76c-fd61c25cab78"},"vehicle_type_id":"4","last_reported":1776862826,"current_range_meters":10800,"station_id":"ce4bh092rcd13ifvqd30","pricing_plan_id":"cebpf4jnsgd1na2vs0mg"},{"bike_id":"97563811-de7e-4fb9-bbc8-59c1cb66a0eb","system_id":"levelo_inurba_marseille","lat":43.243839,"lon":5.370514,"is_reserved":false,"is_disabled":false,"rental_uris":{"android":"levelo://app?vid=97563811-de7e-4fb9-bbc8-59c1cb66a0eb","ios":"levelo://app?vid=97563811-de7e-4fb9-bbc8-59c1cb66a0eb"},"vehicle_type_id":"4","last_reported":1776862826,"current_range_meters":10800,"station_id":"ce4bhhh2rcd13ifvqfk0","pricing_plan_id":"cebpf4jnsgd1na2vs0mg"},{"bike_id":"9e49397d-b15f-42ca-b438-81f289c696f0","system_id":"levelo_inurba_marseille","lat":43.2315,"lon":5.43688,"is_reserved":false,"is_disabled":true,"rental_uris":{"android":"levelo://app?vid=9e49397d-b15f-42ca-b438-81f289c696f0","ios":"levelo://app?vid=9e49397d-b15f-42ca-b438-81f289c696f0"},"vehicle_type_id":"4","last_reported":1776862826,"current_range_meters":10800,"station_id":"ce4bhmp2rcd13ifvqgog","pricing_plan_id":"cebpf4jnsgd1na2vs0mg"},{"bike_id":"f13ecd57-6258-4e4c-bbcc-3ea8e22e9f09","system_id":"levelo_inurba_marseille","lat":43.23147,"lon":5.43715,"is_reserved":false,"is_disabled":false,"rental_uris":{"android":"levelo://app?vid=f13ecd57-6258-4e4c-bbcc-3ea8e22e9f09","ios":"levelo://app?vid=f13ecd57-6258-4e4c-bbcc-3ea8e22e9f09"},"vehicle_type_id":"4","last_reported":1776862826,"current_range_meters":10800,"station_id":"ce4bhmp2rcd13ifvqgog","pricing_plan_id":"cebpf4jnsgd1na2vs0mg"},{"bike_id":"1ded47c6-2cf1-4a8f-b9c5-7d3271220f92","system_id":"levelo_inurba_marseille","lat":43.28679,"lon":5.38671,"is_reserved":false,"is_disabled":false,"rental_uris":{"android":"levelo://app?vid=1ded47c6-2cf1-4a8f-b9c5-7d3271220f92","ios":"levelo://app?vid=1ded47c6-2cf1-4a8f-b9c5-7d3271220f92"},"vehicle_type_id":"4","last_reported":1776862826,"current_range_meters":10800,"station_id":"ce4bh492rcd13ifvqdug","pricing_plan_id":"cebpf4jnsgd1na2vs0mg"},{"bike_id":"68e86292-e11d-49d5-888c-58848729cc3c","system_id":"levelo_inurba_marseille","lat":43.28328,"lon":5.38728,"is_reserved":false,"is_disabled":false,"rental_uris":{"android":"levelo://app?vid=68e86292-e11d-49d5-888c-58848729cc3c","ios":"levelo://app?vid=68e86292-e11d-49d5-888c-58848729cc3c"},"vehicle_type_id":"4","last_reported":1776862826,"current_range_meters":10800,"station_id":"","pricing_plan_id":"cebpf4jnsgd1na2vs0mg"},{"bike_id":"484a922f-3ead-43ae-9d21-e6e22f864365","system_id":"levelo_inurba_marseille","lat":43.2963,"lon":5.37718,"is_reserved":false,"is_disabled":false,"rental_uris":{"android":"levelo://app?vid=484a922f-3ead-43ae-9d21-e6e22f864365","ios":"levelo://app?vid=484a922f-3ead-43ae-9d21-e6e22f864365"},"vehicle_type_id":"4","last_reported":1776862826,"current_range_meters":10800,"station_id":"ce4bgi92rcd13ifvqb90","pricing_plan_id":"cebpf4jnsgd1na2vs0mg"},{"bike_id":"8331af0f-100e-470f-9e36-7657fa113fe2","system_id":"levelo_inurba_marseille","lat":43.31258,"lon":5.36844,"is_reserved":false,"is_disabled":false,"rental_uris":{"android":"levelo://app?vid=8331af0f-100e-470f-9e36-7657fa113fe2","ios":"levelo://app?vid=8331af0f-100e-470f-9e36-7657fa113fe2"},"vehicle_type_id":"4","last_reported":1776862826,"current_range_meters":10800,"station_id":"ce4bgl92rcd13ifvqbq0","pricing_plan_id":"cebpf4jnsgd1na2vs0mg"},{"bike_id":"eadf0af9-e25c-448a-9c47-71bf608c58a5","system_id":"levelo_inurba_marseille","lat":43.26584,"lon":5.37243,"is_reserved":false,"is_disabled":false,"rental_uris":{"android":"levelo://app?vid=eadf0af9-e25c-448a-9c47-71bf608c58a5","ios":"levelo://app?vid=eadf0af9-e25c-448a-9c47-71bf608c58a5"},"vehicle_type_id":"4","last_reported":1776862826,"current_range_meters":10800,"station_id":"ce4bhg12rcd13ifvqf70","pricing_plan_id":"cebpf4jnsgd1na2vs0mg"},{"bike_id":"a97b20b5-5964-419a-bcd6-685096d9c47f","system_id":"levelo_inurba_marseille","lat":43.30139,"lon":5.37421,"is_reserved":false,"is_disabled":false,"rental_uris":{"android":"levelo://app?vid=a97b20b5-5964-419a-bcd6-685096d9c47f","ios":"levelo://app?vid=a97b20b5-5964-419a-bcd6-685096d9c47f"},"vehicle_type_id":"4","last_reported":1776862826,"current_range_meters":10800,"station_id":"ce4bgs92rcd13ifvqcc0","pricing_plan_id":"cebpf4jnsgd1na2vs0mg"},{"bike_id":"cce9e933-3790-4ced-9eef-b5ac537ec700","system_id":"levelo_inurba_marseille","lat":43.28622,"lon":5.38321,"is_reserved":false,"is_disabled":false,"rental_uris":{"android":"levelo://app?vid=cce9e933-3790-4ced-9eef-b5ac537ec700","ios":"levelo://app?vid=cce9e933-3790-4ced-9eef-b5ac537ec700"},"vehicle_type_id":"4","last_reported":1776862826,"current_range_meters":10800,"station_id":"","pricing_plan_id":"cebpf4jnsgd1na2vs0mg"},{"bike_id":"48ff8779-6221-4f57-83b2-6b16c84f3d03","system_id":"levelo_inurba_marseille","lat":43.23393,"lon":5.41268,"is_reserved":false,"is_disabled":false,"rental_uris":{"android":"levelo://app?vid=48ff8779-6221-4f57-83b2-6b16c84f3d03","ios":"levelo://app?vid=48ff8779-6221-4f57-83b2-6b16c84f3d03"},"vehicle_type_id":"4","last_reported":1776862826,"current_range_meters":10800,"station_id":"st_d75pvndhf9lc73cqq3eg","pricing_plan_id":"cebpf4jnsgd1na2vs0mg"},{"bike_id":"75da28ab-8813-4425-829f-ceaedfe0d4f6","system_id":"levelo_inurba_marseille","lat":43.2305,"lon":5.35487,"is_reserved":false,"is_disabled":false,"rental_uris":{"android":"levelo://app?vid=75da28ab-8813-4425-829f-ceaedfe0d4f6","ios":"levelo://app?vid=75da28ab-8813-4425-829f-ceaedfe0d4f6"},"vehicle_type_id":"4","last_reported":1776862826,"current_range_meters":10800,"station_id":"cpo3342slgdg3j2ifvpg","pricing_plan_id":"cebpf4jnsgd1na2vs0mg"},{"bike_id":"a0e87884-816b-4cd5-beff-3ce10d89facb","system_id":"levelo_inurba_marseille","lat":43.28327,"lon":5.38107,"is_reserved":false,"is_disabled":false,"rental_uris":{"android":"levelo://app?vid=a0e87884-816b-4cd5-beff-3ce10d89facb","ios":"levelo://app?vid=a0e87884-816b-4cd5-beff-3ce10d89facb"},"vehicle_type_id":"4","last_reported":1776862826,"current_range_meters":10800,"station_id":"ce4bh412rcd13ifvqdr0","pricing_plan_id":"cebpf4jnsgd1na2vs0mg"},{"bike_id":"ce592dee-14cf-4975-837f-871405aceb21","system_id":"levelo_inurba_marseille","lat":43.29556,"lon":5.4229,"is_reserved":false,"is_disabled":false,"rental_uris":{"android":"levelo://app?vid=ce592dee-14cf-4975-837f-871405aceb21","ios":"levelo://app?vid=ce592dee-14cf-4975-837f-871405aceb21"},"vehicle_type_id":"4","last_reported":1776862826,"current_range_meters":11200,"station_id":"ce4bhph2rcd13ifvqhdg","pricing_plan_id":"cebpf4jnsgd1na2vs0mg"},{"bike_id":"1a5a38f8-2691-493f-a24f-743bf80be2d1","system_id":"levelo_inurba_marseille","lat":43.30159,"lon":5.3741,"is_reserved":false,"is_disabled":false,"rental_uris":{"android":"levelo://app?vid=1a5a38f8-2691-493f-a24f-743bf80be2d1","ios":"levelo://app?vid=1a5a38f8-2691-493f-a24f-743bf80be2d1"},"vehicle_type_id":"4","last_reported":1776862826,"current_range_meters":11200,"station_id":"ce4bgs92rcd13ifvqcc0","pricing_plan_id":"cebpf4jnsgd1na2vs0mg"},{"bike_id":"d486e5ae-c501-4cc2-94cd-d03ead7b7702","system_id":"levelo_inurba_marseille","lat":43.28028,"lon":5.3751,"is_reserved":false,"is_disabled":false,"rental_uris":{"android":"levelo://app?vid=d486e5ae-c501-4cc2-94cd-d03ead7b7702","ios":"levelo://app?vid=d486e5ae-c501-4cc2-94cd-d03ead7b7702"},"vehicle_type_id":"4","last_reported":1776862826,"current_range_meters":11200,"station_id":"","pricing_plan_id":"cebpf4jnsgd1na2vs0mg"},{"bike_id":"92b76c94-ce6c-45a2-aff1-e98dbef5db07","system_id":"levelo_inurba_marseille","lat":43.26345,"lon":5.41157,"is_reserved":false,"is_disabled":false,"rental_uris":{"android":"levelo://app?vid=92b76c94-ce6c-45a2-aff1-e98dbef5db07","ios":"levelo://app?vid=92b76c94-ce6c-45a2-aff1-e98dbef5db07"},"vehicle_type_id":"4","last_reported":1776862826,"current_range_meters":11200,"station_id":"st_d4e5ca6na9uc73bfl5fg","pricing_plan_id":"cebpf4jnsgd1na2vs0mg"},{"bike_id":"89cb976b-df3a-46fc-a9ef-0025de561630","system_id":"levelo_inurba_marseille","lat":43.29427,"lon":5.43382,"is_reserved":false,"is_disabled":false,"rental_uris":{"android":"levelo://app?vid=89cb976b-df3a-46fc-a9ef-0025de561630","ios":"levelo://app?vid=89cb976b-df3a-46fc-a9ef-0025de561630"},"vehicle_type_id":"4","last_reported":1776862826,"current_range_meters":11200,"station_id":"","pricing_plan_id":"cebpf4jnsgd1na2vs0mg"},{"bike_id":"c3e0702e-4cd9-4eab-9e41-0d17750466d8","system_id":"levelo_inurba_marseille","lat":43.29374,"lon":5.37306,"is_reserved":false,"is_disabled":false,"rental_uris":{"android":"levelo://app?vid=c3e0702e-4cd9-4eab-9e41-0d17750466d8","ios":"levelo://app?vid=c3e0702e-4cd9-4eab-9e41-0d17750466d8"},"vehicle_type_id":"4","last_reported":1776862826,"current_range_meters":11200,"station_id":"","pricing_plan_id":"cebpf4jnsgd1na2vs0mg"},{"bike_id":"47fd8af8-af83-4544-bde4-584ad9b76542","system_id":"levelo_inurba_marseille","lat":43.27982,"lon":5.41657,"is_reserved":false,"is_disabled":false,"rental_uris":{"android":"levelo://app?vid=47fd8af8-af83-4544-bde4-584ad9b76542","ios":"levelo://app?vid=47fd8af8-af83-4544-bde4-584ad9b76542"},"vehicle_type_id":"4","last_reported":1776862826,"current_range_meters":11200,"station_id":"ce4bho12rcd13ifvqh1g","pricing_plan_id":"cebpf4jnsgd1na2vs0mg"},{"bike_id":"eaa56526-29a5-4cc4-abc0-c621dd30f9a4","system_id":"levelo_inurba_marseille","lat":43.29262,"lon":5.4268,"is_reserved":false,"is_disabled":false,"rental_uris":{"android":"levelo://app?vid=eaa56526-29a5-4cc4-abc0-c621dd30f9a4","ios":"levelo://app?vid=eaa56526-29a5-4cc4-abc0-c621dd30f9a4"},"vehicle_type_id":"4","last_reported":1776862826,"current_range_meters":11600,"station_id":"","pricing_plan_id":"cebpf4jnsgd1na2vs0mg"},{"bike_id":"6efae23b-4853-4978-a046-e2118aa389db","system_id":"levelo_inurba_marseille","lat":43.29456,"lon":5.38207,"is_reserved":false,"is_disabled":false,"rental_uris":{"android":"levelo://app?vid=6efae23b-4853-4978-a046-e2118aa389db","ios":"levelo://app?vid=6efae23b-4853-4978-a046-e2118aa389db"},"vehicle_type_id":"4","last_reported":1776862826,"current_range_meters":11600,"station_id":"","pricing_plan_id":"cebpf4jnsgd1na2vs0mg"},{"bike_id":"f24987a9-7014-42ac-a1a2-4fce2ecd898e","system_id":"levelo_inurba_marseille","lat":43.26784,"lon":5.3942,"is_reserved":false,"is_disabled":false,"rental_uris":{"android":"levelo://app?vid=f24987a9-7014-42ac-a1a2-4fce2ecd898e","ios":"levelo://app?vid=f24987a9-7014-42ac-a1a2-4fce2ecd898e"},"vehicle_type_id":"4","last_reported":1776862826,"current_range_meters":11600,"station_id":"ce4bhh12rcd13ifvqfg0","pricing_plan_id":"cebpf4jnsgd1na2vs0mg"},{"bike_id":"3b91f882-219d-4945-9f5a-84a4b39e29fb","system_id":"levelo_inurba_marseille","lat":43.29262,"lon":5.37604,"is_reserved":false,"is_disabled":false,"rental_uris":{"android":"levelo://app?vid=3b91f882-219d-4945-9f5a-84a4b39e29fb","ios":"levelo://app?vid=3b91f882-219d-4945-9f5a-84a4b39e29fb"},"vehicle_type_id":"4","last_reported":1776862826,"current_range_meters":12000,"station_id":"ce4bgi12rcd13ifvqb80","pricing_plan_id":"cebpf4jnsgd1na2vs0mg"},{"bike_id":"d631e900-dfa3-4793-ae60-8d1b488cc410","system_id":"levelo_inurba_marseille","lat":43.25113,"lon":5.40315,"is_reserved":false,"is_disabled":false,"rental_uris":{"android":"levelo://app?vid=d631e900-dfa3-4793-ae60-8d1b488cc410","ios":"levelo://app?vid=d631e900-dfa3-4793-ae60-8d1b488cc410"},"vehicle_type_id":"4","last_reported":1776862826,"current_range_meters":12000,"station_id":"ce4bhlh2rcd13ifvqgig","pricing_plan_id":"cebpf4jnsgd1na2vs0mg"},{"bike_id":"05a0ea56-1254-4a06-86da-6c24629017b3","system_id":"levelo_inurba_marseille","lat":43.29949,"lon":5.36531,"is_reserved":false,"is_disabled":false,"rental_uris":{"android":"levelo://app?vid=05a0ea56-1254-4a06-86da-6c24629017b3","ios":"levelo://app?vid=05a0ea56-1254-4a06-86da-6c24629017b3"},"vehicle_type_id":"4","last_reported":1776862826,"current_range_meters":12000,"station_id":"ce4bgm92rcd13ifvqbr0","pricing_plan_id":"cebpf4jnsgd1na2vs0mg"},{"bike_id":"ae1a0ce0-3e2e-4cf2-b858-405a12aeabc1","system_id":"levelo_inurba_marseille","lat":43.27073,"lon":5.4229,"is_reserved":false,"is_disabled":false,"rental_uris":{"android":"levelo://app?vid=ae1a0ce0-3e2e-4cf2-b858-405a12aeabc1","ios":"levelo://app?vid=ae1a0ce0-3e2e-4cf2-b858-405a12aeabc1"},"vehicle_type_id":"4","last_reported":1776862826,"current_range_meters":12000,"station_id":"ce4bhk92rcd13ifvqgb0","pricing_plan_id":"cebpf4jnsgd1na2vs0mg"},{"bike_id":"fc7363fe-b04d-489a-9727-90ca30e7bca6","system_id":"levelo_inurba_marseille","lat":43.32094,"lon":5.36767,"is_reserved":false,"is_disabled":false,"rental_uris":{"android":"levelo://app?vid=fc7363fe-b04d-489a-9727-90ca30e7bca6","ios":"levelo://app?vid=fc7363fe-b04d-489a-9727-90ca30e7bca6"},"vehicle_type_id":"4","last_reported":1776862826,"current_range_meters":12000,"station_id":"ce4bhrh2rcd13ifvqhug","pricing_plan_id":"cebpf4jnsgd1na2vs0mg"},{"bike_id":"78b21494-130d-4b55-89f7-03ae5d7b6f59","system_id":"levelo_inurba_marseille","lat":43.29722,"lon":5.36614,"is_reserved":false,"is_disabled":false,"rental_uris":{"android":"levelo://app?vid=78b21494-130d-4b55-89f7-03ae5d7b6f59","ios":"levelo://app?vid=78b21494-130d-4b55-89f7-03ae5d7b6f59"},"vehicle_type_id":"4","last_reported":1776862826,"current_range_meters":12000,"station_id":"ce4bgn12rcd13ifvqbt0","pricing_plan_id":"cebpf4jnsgd1na2vs0mg"},{"bike_id":"e447e26e-fe69-4852-9ea3-a0199b370d70","system_id":"levelo_inurba_marseille","lat":43.26366,"lon":5.41088,"is_reserved":false,"is_disabled":false,"rental_uris":{"android":"levelo://app?vid=e447e26e-fe69-4852-9ea3-a0199b370d70","ios":"levelo://app?vid=e447e26e-fe69-4852-9ea3-a0199b370d70"},"vehicle_type_id":"4","last_reported":1776862826,"current_range_meters":12000,"station_id":"st_d4e5ca6na9uc73bfl5fg","pricing_plan_id":"cebpf4jnsgd1na2vs0mg"},{"bike_id":"18cc22e0-9c87-480e-b163-e2778844e786","system_id":"levelo_inurba_marseille","lat":43.28922,"lon":5.39612,"is_reserved":false,"is_disabled":false,"rental_uris":{"android":"levelo://app?vid=18cc22e0-9c87-480e-b163-e2778844e786","ios":"levelo://app?vid=18cc22e0-9c87-480e-b163-e2778844e786"},"vehicle_type_id":"4","last_reported":1776862826,"current_range_meters":12000,"station_id":"ce4bh3h2rcd13ifvqdn0","pricing_plan_id":"cebpf4jnsgd1na2vs0mg"},{"bike_id":"e39b2d53-d713-4e3c-9016-eb8f6f0d7811","system_id":"levelo_inurba_marseille","lat":43.29965,"lon":5.38485,"is_reserved":false,"is_disabled":false,"rental_uris":{"android":"levelo://app?vid=e39b2d53-d713-4e3c-9016-eb8f6f0d7811","ios":"levelo://app?vid=e39b2d53-d713-4e3c-9016-eb8f6f0d7811"},"vehicle_type_id":"4","last_reported":1776862826,"current_range_meters":12000,"station_id":"ce4bgj92rcd13ifvqbd0","pricing_plan_id":"cebpf4jnsgd1na2vs0mg"},{"bike_id":"5987b096-1247-4db2-8d38-40eeaed2a40d","system_id":"levelo_inurba_marseille","lat":43.29968,"lon":5.38493,"is_reserved":false,"is_disabled":false,"rental_uris":{"android":"levelo://app?vid=5987b096-1247-4db2-8d38-40eeaed2a40d","ios":"levelo://app?vid=5987b096-1247-4db2-8d38-40eeaed2a40d"},"vehicle_type_id":"4","last_reported":1776862826,"current_range_meters":12000,"station_id":"ce4bgj92rcd13ifvqbd0","pricing_plan_id":"cebpf4jnsgd1na2vs0mg"},{"bike_id":"c771ba8e-bc3b-46b0-98f2-4cdbd452469a","system_id":"levelo_inurba_marseille","lat":43.30456,"lon":5.37909,"is_reserved":false,"is_disabled":false,"rental_uris":{"android":"levelo://app?vid=c771ba8e-bc3b-46b0-98f2-4cdbd452469a","ios":"levelo://app?vid=c771ba8e-bc3b-46b0-98f2-4cdbd452469a"},"vehicle_type_id":"4","last_reported":1776862826,"current_range_meters":12000,"station_id":"ce4bgup2rcd13ifvqcn0","pricing_plan_id":"cebpf4jnsgd1na2vs0mg"},{"bike_id":"c63bf01f-c8aa-4bd3-9d87-83816deb0a88","system_id":"levelo_inurba_marseille","lat":43.330238,"lon":5.390502,"is_reserved":false,"is_disabled":false,"rental_uris":{"android":"levelo://app?vid=c63bf01f-c8aa-4bd3-9d87-83816deb0a88","ios":"levelo://app?vid=c63bf01f-c8aa-4bd3-9d87-83816deb0a88"},"vehicle_type_id":"4","last_reported":1776862826,"current_range_meters":12000,"station_id":"","pricing_plan_id":"cebpf4jnsgd1na2vs0mg"},{"bike_id":"7db8e5f3-3982-4808-8fb4-746a2f23f4b1","system_id":"levelo_inurba_marseille","lat":43.29342,"lon":5.4389,"is_reserved":false,"is_disabled":false,"rental_uris":{"android":"levelo://app?vid=7db8e5f3-3982-4808-8fb4-746a2f23f4b1","ios":"levelo://app?vid=7db8e5f3-3982-4808-8fb4-746a2f23f4b1"},"vehicle_type_id":"4","last_reported":1776862826,"current_range_meters":12400,"station_id":"","pricing_plan_id":"cebpf4jnsgd1na2vs0mg"},{"bike_id":"cd285a54-80e5-426d-b421-a3c7298e7154","system_id":"levelo_inurba_marseille","lat":43.30558,"lon":5.38419,"is_reserved":false,"is_disabled":false,"rental_uris":{"android":"levelo://app?vid=cd285a54-80e5-426d-b421-a3c7298e7154","ios":"levelo://app?vid=cd285a54-80e5-426d-b421-a3c7298e7154"},"vehicle_type_id":"4","last_reported":1776862826,"current_range_meters":12400,"station_id":"ce4bgg92rcd13ifvqb30","pricing_plan_id":"cebpf4jnsgd1na2vs0mg"},{"bike_id":"73fe4cfa-a8e2-4372-8a4e-80f8ba95f9d9","system_id":"levelo_inurba_marseille","lat":43.29733,"lon":5.37678,"is_reserved":false,"is_disabled":false,"rental_uris":{"android":"levelo://app?vid=73fe4cfa-a8e2-4372-8a4e-80f8ba95f9d9","ios":"levelo://app?vid=73fe4cfa-a8e2-4372-8a4e-80f8ba95f9d9"},"vehicle_type_id":"4","last_reported":1776862826,"current_range_meters":12400,"station_id":"ce4bgkh2rcd13ifvqbl0","pricing_plan_id":"cebpf4jnsgd1na2vs0mg"},{"bike_id":"b94479fe-5fb6-49b6-bbd0-4794bc39cdce","system_id":"levelo_inurba_marseille","lat":43.291841,"lon":5.357899,"is_reserved":false,"is_disabled":true,"rental_uris":{"android":"levelo://app?vid=b94479fe-5fb6-49b6-bbd0-4794bc39cdce","ios":"levelo://app?vid=b94479fe-5fb6-49b6-bbd0-4794bc39cdce"},"vehicle_type_id":"4","last_reported":1776862826,"current_range_meters":12400,"station_id":"ce4bhb12rcd13ifvqel0","pricing_plan_id":"cebpf4jnsgd1na2vs0mg"},{"bike_id":"55a8266e-df80-478c-a526-676b63c2918f","system_id":"levelo_inurba_marseille","lat":43.29985,"lon":5.37164,"is_reserved":false,"is_disabled":false,"rental_uris":{"android":"levelo://app?vid=55a8266e-df80-478c-a526-676b63c2918f","ios":"levelo://app?vid=55a8266e-df80-478c-a526-676b63c2918f"},"vehicle_type_id":"4","last_reported":1776862826,"current_range_meters":12400,"station_id":"ce4bgr92rcd13ifvqc7g","pricing_plan_id":"cebpf4jnsgd1na2vs0mg"},{"bike_id":"299de186-8ca3-4383-9d50-73201c21bf7d","system_id":"levelo_inurba_marseille","lat":43.30772,"lon":5.37645,"is_reserved":false,"is_disabled":false,"rental_uris":{"android":"levelo://app?vid=299de186-8ca3-4383-9d50-73201c21bf7d","ios":"levelo://app?vid=299de186-8ca3-4383-9d50-73201c21bf7d"},"vehicle_type_id":"4","last_reported":1776862826,"current_range_meters":12400,"station_id":"ce4bgv92rcd13ifvqcq0","pricing_plan_id":"cebpf4jnsgd1na2vs0mg"},{"bike_id":"3acd42bc-5d52-4bb4-8ca2-3fdc69d705f4","system_id":"levelo_inurba_marseille","lat":43.30553,"lon":5.36678,"is_reserved":false,"is_disabled":false,"rental_uris":{"android":"levelo://app?vid=3acd42bc-5d52-4bb4-8ca2-3fdc69d705f4","ios":"levelo://app?vid=3acd42bc-5d52-4bb4-8ca2-3fdc69d705f4"},"vehicle_type_id":"4","last_reported":1776862826,"current_range_meters":12400,"station_id":"ce4bgrp2rcd13ifvqc9g","pricing_plan_id":"cebpf4jnsgd1na2vs0mg"},{"bike_id":"ff2782eb-5996-4564-af8c-0dc9c6b39522","system_id":"levelo_inurba_marseille","lat":43.3112,"lon":5.37766,"is_reserved":false,"is_disabled":false,"rental_uris":{"android":"levelo://app?vid=ff2782eb-5996-4564-af8c-0dc9c6b39522","ios":"levelo://app?vid=ff2782eb-5996-4564-af8c-0dc9c6b39522"},"vehicle_type_id":"4","last_reported":1776862826,"current_range_meters":12400,"station_id":"ce4bgt92rcd13ifvqcg0","pricing_plan_id":"cebpf4jnsgd1na2vs0mg"},{"bike_id":"b10e388b-a119-4b7b-87b2-c9ca007b4026","system_id":"levelo_inurba_marseille","lat":43.32602,"lon":5.35902,"is_reserved":false,"is_disabled":false,"rental_uris":{"android":"levelo://app?vid=b10e388b-a119-4b7b-87b2-c9ca007b4026","ios":"levelo://app?vid=b10e388b-a119-4b7b-87b2-c9ca007b4026"},"vehicle_type_id":"4","last_reported":1776862826,"current_range_meters":12400,"station_id":"","pricing_plan_id":"cebpf4jnsgd1na2vs0mg"},{"bike_id":"ed6c751d-11aa-4980-9be5-d32dd24768fe","system_id":"levelo_inurba_marseille","lat":43.33155,"lon":5.37675,"is_reserved":false,"is_disabled":false,"rental_uris":{"android":"levelo://app?vid=ed6c751d-11aa-4980-9be5-d32dd24768fe","ios":"levelo://app?vid=ed6c751d-11aa-4980-9be5-d32dd24768fe"},"vehicle_type_id":"4","last_reported":1776862826,"current_range_meters":12400,"station_id":"st_d46cu089ee8s73dldbu0","pricing_plan_id":"cebpf4jnsgd1na2vs0mg"},{"bike_id":"0d92b367-f5b2-46f2-a799-2ed212a6ebea","system_id":"levelo_inurba_marseille","lat":43.24636,"lon":5.43139,"is_reserved":false,"is_disabled":false,"rental_uris":{"android":"levelo://app?vid=0d92b367-f5b2-46f2-a799-2ed212a6ebea","ios":"levelo://app?vid=0d92b367-f5b2-46f2-a799-2ed212a6ebea"},"vehicle_type_id":"4","last_reported":1776862826,"current_range_meters":12400,"station_id":"st_d2m6c4gdas8pm72e190g","pricing_plan_id":"cebpf4jnsgd1na2vs0mg"},{"bike_id":"a2db18e0-de62-4329-a33a-75eecb0920bd","system_id":"levelo_inurba_marseille","lat":43.24393,"lon":5.37062,"is_reserved":false,"is_disabled":false,"rental_uris":{"android":"levelo://app?vid=a2db18e0-de62-4329-a33a-75eecb0920bd","ios":"levelo://app?vid=a2db18e0-de62-4329-a33a-75eecb0920bd"},"vehicle_type_id":"4","last_reported":1776862826,"current_range_meters":12400,"station_id":"ce4bhhh2rcd13ifvqfk0","pricing_plan_id":"cebpf4jnsgd1na2vs0mg"},{"bike_id":"7f7fc3b4-da15-4fa9-869f-92fca5ec61b4","system_id":"levelo_inurba_marseille","lat":43.23162,"lon":5.43695,"is_reserved":false,"is_disabled":false,"rental_uris":{"android":"levelo://app?vid=7f7fc3b4-da15-4fa9-869f-92fca5ec61b4","ios":"levelo://app?vid=7f7fc3b4-da15-4fa9-869f-92fca5ec61b4"},"vehicle_type_id":"4","last_reported":1776862826,"current_range_meters":12800,"station_id":"ce4bhmp2rcd13ifvqgog","pricing_plan_id":"cebpf4jnsgd1na2vs0mg"},{"bike_id":"ccf9364e-5060-405b-9427-da49c47aa005","system_id":"levelo_inurba_marseille","lat":43.33151,"lon":5.377,"is_reserved":false,"is_disabled":false,"rental_uris":{"android":"levelo://app?vid=ccf9364e-5060-405b-9427-da49c47aa005","ios":"levelo://app?vid=ccf9364e-5060-405b-9427-da49c47aa005"},"vehicle_type_id":"4","last_reported":1776862826,"current_range_meters":12800,"station_id":"st_d46cu089ee8s73dldbu0","pricing_plan_id":"cebpf4jnsgd1na2vs0mg"},{"bike_id":"ff77fc16-ce0a-4785-b37b-45f7b4b1b0d5","system_id":"levelo_inurba_marseille","lat":43.29194,"lon":5.44267,"is_reserved":false,"is_disabled":false,"rental_uris":{"android":"levelo://app?vid=ff77fc16-ce0a-4785-b37b-45f7b4b1b0d5","ios":"levelo://app?vid=ff77fc16-ce0a-4785-b37b-45f7b4b1b0d5"},"vehicle_type_id":"4","last_reported":1776862826,"current_range_meters":12800,"station_id":"ce4bhg12rcd13ifvqf60","pricing_plan_id":"cebpf4jnsgd1na2vs0mg"},{"bike_id":"0a5f325f-1f09-4807-a618-3c9f7695f1b0","system_id":"levelo_inurba_marseille","lat":43.27901,"lon":5.38761,"is_reserved":false,"is_disabled":false,"rental_uris":{"android":"levelo://app?vid=0a5f325f-1f09-4807-a618-3c9f7695f1b0","ios":"levelo://app?vid=0a5f325f-1f09-4807-a618-3c9f7695f1b0"},"vehicle_type_id":"4","last_reported":1776862826,"current_range_meters":12800,"station_id":"","pricing_plan_id":"cebpf4jnsgd1na2vs0mg"},{"bike_id":"53e71e9e-3c0c-4b5b-9cff-4f8a4021d9fd","system_id":"levelo_inurba_marseille","lat":43.290323,"lon":5.381282,"is_reserved":false,"is_disabled":false,"rental_uris":{"android":"levelo://app?vid=53e71e9e-3c0c-4b5b-9cff-4f8a4021d9fd","ios":"levelo://app?vid=53e71e9e-3c0c-4b5b-9cff-4f8a4021d9fd"},"vehicle_type_id":"4","last_reported":1776862826,"current_range_meters":12800,"station_id":"ce4bh4p2rcd13ifvqe1g","pricing_plan_id":"cebpf4jnsgd1na2vs0mg"},{"bike_id":"5ec0469c-9e24-4dd0-aa0e-a177525765c2","system_id":"levelo_inurba_marseille","lat":43.29794,"lon":5.36553,"is_reserved":false,"is_disabled":false,"rental_uris":{"android":"levelo://app?vid=5ec0469c-9e24-4dd0-aa0e-a177525765c2","ios":"levelo://app?vid=5ec0469c-9e24-4dd0-aa0e-a177525765c2"},"vehicle_type_id":"4","last_reported":1776862826,"current_range_meters":12800,"station_id":"","pricing_plan_id":"cebpf4jnsgd1na2vs0mg"},{"bike_id":"b59d6143-8284-4fc3-88c3-93799abeac8d","system_id":"levelo_inurba_marseille","lat":43.25583,"lon":5.38225,"is_reserved":false,"is_disabled":false,"rental_uris":{"android":"levelo://app?vid=b59d6143-8284-4fc3-88c3-93799abeac8d","ios":"levelo://app?vid=b59d6143-8284-4fc3-88c3-93799abeac8d"},"vehicle_type_id":"4","last_reported":1776862826,"current_range_meters":12800,"station_id":"ce4bhih2rcd13ifvqfs0","pricing_plan_id":"cebpf4jnsgd1na2vs0mg"},{"bike_id":"35a9c97c-b85e-449d-99bb-1116c761abbd","system_id":"levelo_inurba_marseille","lat":43.32374,"lon":5.36714,"is_reserved":false,"is_disabled":false,"rental_uris":{"android":"levelo://app?vid=35a9c97c-b85e-449d-99bb-1116c761abbd","ios":"levelo://app?vid=35a9c97c-b85e-449d-99bb-1116c761abbd"},"vehicle_type_id":"4","last_reported":1776862826,"current_range_meters":12800,"station_id":"","pricing_plan_id":"cebpf4jnsgd1na2vs0mg"},{"bike_id":"2dc5be1a-7a64-40de-9e83-05dc37a18a54","system_id":"levelo_inurba_marseille","lat":43.31349,"lon":5.36711,"is_reserved":false,"is_disabled":false,"rental_uris":{"android":"levelo://app?vid=2dc5be1a-7a64-40de-9e83-05dc37a18a54","ios":"levelo://app?vid=2dc5be1a-7a64-40de-9e83-05dc37a18a54"},"vehicle_type_id":"4","last_reported":1776862826,"current_range_meters":12800,"station_id":"ce4bgr92rcd13ifvqc6g","pricing_plan_id":"cebpf4jnsgd1na2vs0mg"},{"bike_id":"45a51aaa-e700-44a4-9a07-4f093795bd19","system_id":"levelo_inurba_marseille","lat":43.24673,"lon":5.3814,"is_reserved":false,"is_disabled":false,"rental_uris":{"android":"levelo://app?vid=45a51aaa-e700-44a4-9a07-4f093795bd19","ios":"levelo://app?vid=45a51aaa-e700-44a4-9a07-4f093795bd19"},"vehicle_type_id":"4","last_reported":1776862826,"current_range_meters":12800,"station_id":"ce4bhih2rcd13ifvqfr0","pricing_plan_id":"cebpf4jnsgd1na2vs0mg"},{"bike_id":"e85d50b9-c00e-4dc9-a4c0-ed56831d9d5a","system_id":"levelo_inurba_marseille","lat":43.28336,"lon":5.39819,"is_reserved":false,"is_disabled":false,"rental_uris":{"android":"levelo://app?vid=e85d50b9-c00e-4dc9-a4c0-ed56831d9d5a","ios":"levelo://app?vid=e85d50b9-c00e-4dc9-a4c0-ed56831d9d5a"},"vehicle_type_id":"4","last_reported":1776862826,"current_range_meters":12800,"station_id":"","pricing_plan_id":"cebpf4jnsgd1na2vs0mg"},{"bike_id":"143bf3fc-9aa7-4cae-a415-6f08dbc4d645","system_id":"levelo_inurba_marseille","lat":43.29767,"lon":5.37047,"is_reserved":false,"is_disabled":false,"rental_uris":{"android":"levelo://app?vid=143bf3fc-9aa7-4cae-a415-6f08dbc4d645","ios":"levelo://app?vid=143bf3fc-9aa7-4cae-a415-6f08dbc4d645"},"vehicle_type_id":"4","last_reported":1776862826,"current_range_meters":13600,"station_id":"ce4bgop2rcd13ifvqc1g","pricing_plan_id":"cebpf4jnsgd1na2vs0mg"},{"bike_id":"e6fab04e-559c-442e-8645-ff64c388cc80","system_id":"levelo_inurba_marseille","lat":43.29372,"lon":5.37833,"is_reserved":false,"is_disabled":false,"rental_uris":{"android":"levelo://app?vid=e6fab04e-559c-442e-8645-ff64c388cc80","ios":"levelo://app?vid=e6fab04e-559c-442e-8645-ff64c388cc80"},"vehicle_type_id":"4","last_reported":1776862826,"current_range_meters":13600,"station_id":"ce4bgjh2rcd13ifvqbf0","pricing_plan_id":"cebpf4jnsgd1na2vs0mg"},{"bike_id":"94f3c75f-d473-4924-8fd3-43e34601f4fd","system_id":"levelo_inurba_marseille","lat":43.29536,"lon":5.38529,"is_reserved":false,"is_disabled":true,"rental_uris":{"android":"levelo://app?vid=94f3c75f-d473-4924-8fd3-43e34601f4fd","ios":"levelo://app?vid=94f3c75f-d473-4924-8fd3-43e34601f4fd"},"vehicle_type_id":"4","last_reported":1776862826,"current_range_meters":13600,"station_id":"ce4bgih2rcd13ifvqba0","pricing_plan_id":"cebpf4jnsgd1na2vs0mg"},{"bike_id":"5d606b73-1137-45ec-8123-c2ba434c5335","system_id":"levelo_inurba_marseille","lat":43.23193,"lon":5.3555,"is_reserved":false,"is_disabled":false,"rental_uris":{"android":"levelo://app?vid=5d606b73-1137-45ec-8123-c2ba434c5335","ios":"levelo://app?vid=5d606b73-1137-45ec-8123-c2ba434c5335"},"vehicle_type_id":"4","last_reported":1776862826,"current_range_meters":13600,"station_id":"ce4bhu92rcd13ifvqi70","pricing_plan_id":"cebpf4jnsgd1na2vs0mg"},{"bike_id":"1eafdc24-350c-43a8-8b51-d988e7d461e8","system_id":"levelo_inurba_marseille","lat":43.29358,"lon":5.37842,"is_reserved":false,"is_disabled":false,"rental_uris":{"android":"levelo://app?vid=1eafdc24-350c-43a8-8b51-d988e7d461e8","ios":"levelo://app?vid=1eafdc24-350c-43a8-8b51-d988e7d461e8"},"vehicle_type_id":"4","last_reported":1776862826,"current_range_meters":13600,"station_id":"ce4bgjh2rcd13ifvqbf0","pricing_plan_id":"cebpf4jnsgd1na2vs0mg"},{"bike_id":"9545b3ed-b996-4186-8c80-f27e993c48cf","system_id":"levelo_inurba_marseille","lat":43.29069,"lon":5.37155,"is_reserved":false,"is_disabled":false,"rental_uris":{"android":"levelo://app?vid=9545b3ed-b996-4186-8c80-f27e993c48cf","ios":"levelo://app?vid=9545b3ed-b996-4186-8c80-f27e993c48cf"},"vehicle_type_id":"4","last_reported":1776862826,"current_range_meters":13600,"station_id":"ce4bh5p2rcd13ifvqe4g","pricing_plan_id":"cebpf4jnsgd1na2vs0mg"},{"bike_id":"b55cde09-afd8-4272-8f74-dffe5060b1a9","system_id":"levelo_inurba_marseille","lat":43.28459,"lon":5.38417,"is_reserved":false,"is_disabled":false,"rental_uris":{"android":"levelo://app?vid=b55cde09-afd8-4272-8f74-dffe5060b1a9","ios":"levelo://app?vid=b55cde09-afd8-4272-8f74-dffe5060b1a9"},"vehicle_type_id":"4","last_reported":1776862826,"current_range_meters":13600,"station_id":"ce4bh512rcd13ifvqe3g","pricing_plan_id":"cebpf4jnsgd1na2vs0mg"},{"bike_id":"be3fb69e-f5f0-48c0-b2f7-a275d9255455","system_id":"levelo_inurba_marseille","lat":43.30169,"lon":5.36621,"is_reserved":false,"is_disabled":false,"rental_uris":{"android":"levelo://app?vid=be3fb69e-f5f0-48c0-b2f7-a275d9255455","ios":"levelo://app?vid=be3fb69e-f5f0-48c0-b2f7-a275d9255455"},"vehicle_type_id":"4","last_reported":1776862826,"current_range_meters":13600,"station_id":"ce4bgrh2rcd13ifvqc8g","pricing_plan_id":"cebpf4jnsgd1na2vs0mg"},{"bike_id":"77bae04d-b155-4a06-9049-fda6a4b9e974","system_id":"levelo_inurba_marseille","lat":43.29147,"lon":5.42616,"is_reserved":false,"is_disabled":false,"rental_uris":{"android":"levelo://app?vid=77bae04d-b155-4a06-9049-fda6a4b9e974","ios":"levelo://app?vid=77bae04d-b155-4a06-9049-fda6a4b9e974"},"vehicle_type_id":"4","last_reported":1776862826,"current_range_meters":14000,"station_id":"","pricing_plan_id":"cebpf4jnsgd1na2vs0mg"},{"bike_id":"f11b8b5e-9154-4d7b-849d-f72f0d99f943","system_id":"levelo_inurba_marseille","lat":43.23058,"lon":5.40287,"is_reserved":false,"is_disabled":false,"rental_uris":{"android":"levelo://app?vid=f11b8b5e-9154-4d7b-849d-f72f0d99f943","ios":"levelo://app?vid=f11b8b5e-9154-4d7b-849d-f72f0d99f943"},"vehicle_type_id":"4","last_reported":1776862826,"current_range_meters":14000,"station_id":"","pricing_plan_id":"cebpf4jnsgd1na2vs0mg"},{"bike_id":"d2d95f59-9b95-4c7b-9898-61c582671767","system_id":"levelo_inurba_marseille","lat":43.31362,"lon":5.38504,"is_reserved":false,"is_disabled":false,"rental_uris":{"android":"levelo://app?vid=d2d95f59-9b95-4c7b-9898-61c582671767","ios":"levelo://app?vid=d2d95f59-9b95-4c7b-9898-61c582671767"},"vehicle_type_id":"4","last_reported":1776862826,"current_range_meters":14000,"station_id":"ce4bgt92rcd13ifvqcf0","pricing_plan_id":"cebpf4jnsgd1na2vs0mg"},{"bike_id":"4f7fc6af-e5ee-442e-8fd8-842717d5ad3f","system_id":"levelo_inurba_marseille","lat":43.23158,"lon":5.43713,"is_reserved":false,"is_disabled":false,"rental_uris":{"android":"levelo://app?vid=4f7fc6af-e5ee-442e-8fd8-842717d5ad3f","ios":"levelo://app?vid=4f7fc6af-e5ee-442e-8fd8-842717d5ad3f"},"vehicle_type_id":"4","last_reported":1776862826,"current_range_meters":14000,"station_id":"ce4bhmp2rcd13ifvqgog","pricing_plan_id":"cebpf4jnsgd1na2vs0mg"},{"bike_id":"739a1748-f7cf-4920-a15d-6e4a406020f6","system_id":"levelo_inurba_marseille","lat":43.29588,"lon":5.36736,"is_reserved":false,"is_disabled":false,"rental_uris":{"android":"levelo://app?vid=739a1748-f7cf-4920-a15d-6e4a406020f6","ios":"levelo://app?vid=739a1748-f7cf-4920-a15d-6e4a406020f6"},"vehicle_type_id":"4","last_reported":1776862826,"current_range_meters":14000,"station_id":"ce4bgph2rcd13ifvqc2g","pricing_plan_id":"cebpf4jnsgd1na2vs0mg"},{"bike_id":"cdea9f40-487c-495c-b7fc-01bd672104c9","system_id":"levelo_inurba_marseille","lat":43.30454,"lon":5.38867,"is_reserved":false,"is_disabled":false,"rental_uris":{"android":"levelo://app?vid=cdea9f40-487c-495c-b7fc-01bd672104c9","ios":"levelo://app?vid=cdea9f40-487c-495c-b7fc-01bd672104c9"},"vehicle_type_id":"4","last_reported":1776862826,"current_range_meters":14000,"station_id":"ce4bgk12rcd13ifvqbi0","pricing_plan_id":"cebpf4jnsgd1na2vs0mg"},{"bike_id":"4c5fc9fe-7a2c-4455-9310-b785e9a78977","system_id":"levelo_inurba_marseille","lat":43.29782,"lon":5.38072,"is_reserved":false,"is_disabled":false,"rental_uris":{"android":"levelo://app?vid=4c5fc9fe-7a2c-4455-9310-b785e9a78977","ios":"levelo://app?vid=4c5fc9fe-7a2c-4455-9310-b785e9a78977"},"vehicle_type_id":"4","last_reported":1776862826,"current_range_meters":14000,"station_id":"ce4bgip2rcd13ifvqbb0","pricing_plan_id":"cebpf4jnsgd1na2vs0mg"},{"bike_id":"bf043073-ad66-4f28-b808-ad274fcc5e85","system_id":"levelo_inurba_marseille","lat":43.27893,"lon":5.36059,"is_reserved":false,"is_disabled":false,"rental_uris":{"android":"levelo://app?vid=bf043073-ad66-4f28-b808-ad274fcc5e85","ios":"levelo://app?vid=bf043073-ad66-4f28-b808-ad274fcc5e85"},"vehicle_type_id":"4","last_reported":1776862826,"current_range_meters":14400,"station_id":"","pricing_plan_id":"cebpf4jnsgd1na2vs0mg"},{"bike_id":"64508148-524f-4926-be4d-88a1d21cb29e","system_id":"levelo_inurba_marseille","lat":43.30624,"lon":5.43636,"is_reserved":false,"is_disabled":false,"rental_uris":{"android":"levelo://app?vid=64508148-524f-4926-be4d-88a1d21cb29e","ios":"levelo://app?vid=64508148-524f-4926-be4d-88a1d21cb29e"},"vehicle_type_id":"4","last_reported":1776862826,"current_range_meters":14400,"station_id":"","pricing_plan_id":"cebpf4jnsgd1na2vs0mg"},{"bike_id":"457666c2-6969-4f64-ad8e-92de0be0b87f","system_id":"levelo_inurba_marseille","lat":43.31189,"lon":5.36829,"is_reserved":false,"is_disabled":false,"rental_uris":{"android":"levelo://app?vid=457666c2-6969-4f64-ad8e-92de0be0b87f","ios":"levelo://app?vid=457666c2-6969-4f64-ad8e-92de0be0b87f"},"vehicle_type_id":"4","last_reported":1776862826,"current_range_meters":14400,"station_id":"ce4bgl92rcd13ifvqbq0","pricing_plan_id":"cebpf4jnsgd1na2vs0mg"},{"bike_id":"60b8eb4d-3911-4d0b-a78a-888de4ee78b4","system_id":"levelo_inurba_marseille","lat":43.31376,"lon":5.36716,"is_reserved":false,"is_disabled":false,"rental_uris":{"android":"levelo://app?vid=60b8eb4d-3911-4d0b-a78a-888de4ee78b4","ios":"levelo://app?vid=60b8eb4d-3911-4d0b-a78a-888de4ee78b4"},"vehicle_type_id":"4","last_reported":1776862826,"current_range_meters":14400,"station_id":"ce4bgr92rcd13ifvqc6g","pricing_plan_id":"cebpf4jnsgd1na2vs0mg"},