{"last_updated":1736082759,"ttl":60,"version":"2.2","data":{"bikes":[{"bike_id":"8f29603c-5d9a-4bc6-963d-711ada2a168a","system_id":"levelo_inurba_marseille","lat":43.2473,"lon":5.39886,"is_reserved":false,"is_disabled":true,"rental_uris":{"android":"levelo://app?vid=8f29603c-5d9a-4bc6-963d-711ada2a168a","ios":"levelo://app?vid=8f29603c-5d9a-4bc6-963d-711ada2a168a"},"vehicle_type_id":"4","last_reported":1736082759,"current_range_meters":24800,"station_id":"","pricing_plan_id":"cebpf4jnsgd1na2vs0mg"},{"bike_id":"a7bf91aa-bf61-489e-8ddc-752e491e9e7b","system_id":"levelo_inurba_marseille","lat":43.29577,"lon":5.37505,"is_reserved":false,"is_disabled":false,"rental_uris":{"android":"levelo://app?vid=a7bf91aa-bf61-489e-8ddc-752e491e9e7b","ios":"levelo://app?vid=a7bf91aa-bf61-489e-8ddc-752e491e9e7b"},"vehicle_type_id":"4","last_reported":1736082759,"current_range_meters":39200,"station_id":"ce4bgh92rcd13ifvqb50","pricing_plan_id":"cebpf4jnsgd1na2vs0mg"},{"bike_id":"4517f105-c6cd-42b4-a2b8-453f0a872c81","system_id":"levelo_inurba_marseille","lat":43.24669,"lon":5.38157,"is_reserved":false,"is_disabled":false,"rental_uris":{"android":"levelo://app?vid=4517f105-c6cd-42b4-a2b8-453f0a872c81","ios":"levelo://app?vid=4517f105-c6cd-42b4-a2b8-453f0a872c81"},"vehicle_type_id":"4","last_reported":1736082759,"current_range_meters":18000,"station_id":"ce4bhih2rcd13ifvqfr0","pricing_plan_id":"cebpf4jnsgd1na2vs0mg"},{"bike_id":"af781443-a423-4d36-847c-1e7460ad9d76","system_id":"levelo_inurba_marseille","lat":43.29424,"lon":5.38625,"is_reserved":false,"is_disabled":false,"rental_uris":{"android":"levelo://app?vid=af781443-a423-4d36-847c-1e7460ad9d76","ios":"levelo://app?vid=af781443-a423-4d36-847c-1e7460ad9d76"},"vehicle_type_id":"4","last_reported":1736082759,"current_range_meters":24400,"station_id":"ce4bh2h2rcd13ifvqdh0","pricing_plan_id":"cebpf4jnsgd1na2vs0mg"},{"bike_id":"9fd6ac51-3e65-405c-9187-61441ea67dcf","system_id":"levelo_inurba_marseille","lat":43.30544,"lon":5.36537,"is_reserved":false,"is_disabled":false,"rental_uris":{"android":"levelo://app?vid=9fd6ac51-3e65-405c-9187-61441ea67dcf","ios":"levelo://app?vid=9fd6ac51-3e65-405c-9187-61441ea67dcf"},"vehicle_type_id":"4","last_reported":1736082759,"current_range_meters":9200,"station_id":"ce4bgs12rcd13ifvqcag","pricing_plan_id":"cebpf4jnsgd1na2vs0mg"},{"bike_id":"2f08c9fc-4d21-46b6-8ae3-3acb81bd9994","system_id":"levelo_inurba_marseille","lat":43.32431,"lon":5.3662,"is_reserved":false,"is_disabled":false,"rental_uris":{"android":"levelo://app?vid=2f08c9fc-4d21-46b6-8ae3-3acb81bd9994","ios":"levelo://app?vid=2f08c9fc-4d21-46b6-8ae3-3acb81bd9994"},"vehicle_type_id":"4","last_reported":1736082759,"current_range_meters":38400,"station_id":"","pricing_plan_id":"cebpf4jnsgd1na2vs0mg"},{"bike_id":"0153ae28-9422-4039-87f8-952c80b8c9cc","system_id":"levelo_inurba_marseille","lat":43.27311,"lon":5.39092,"is_reserved":false,"is_disabled":true,"rental_uris":{"android":"levelo://app?vid=0153ae28-9422-4039-87f8-952c80b8c9cc","ios":"levelo://app?vid=0153ae28-9422-4039-87f8-952c80b8c9cc"},"vehicle_type_id":"4","last_reported":1736082759,"current_range_meters":38800,"station_id":"ce4bhgp2rcd13ifvqfe0","pricing_plan_id":"cebpf4jnsgd1na2vs0mg"},{"bike_id":"cb377159-fe4a-489f-9594-39b7b050bfb9","system_id":"levelo_inurba_marseille","lat":43.30538,"lon":5.36566,"is_reserved":false,"is_disabled":false,"rental_uris":{"android":"levelo://app?vid=cb377159-fe4a-489f-9594-39b7b050bfb9","ios":"levelo://app?vid=cb377159-fe4a-489f-9594-39b7b050bfb9"},"vehicle_type_id":"4","last_reported":1736082759,"current_range_meters":21600,"station_id":"ce4bgs12rcd13ifvqcag","pricing_plan_id":"cebpf4jnsgd1na2vs0mg"},{"bike_id":"3e5fec54-113c-4d87-b847-1977b09113ba","system_id":"levelo_inurba_marseille","lat":43.24804,"lon":5.374535,"is_reserved":false,"is_disabled":false,"rental_uris":{"android":"levelo://app?vid=3e5fec54-113c-4d87-b847-1977b09113ba","ios":"levelo://app?vid=3e5fec54-113c-4d87-b847-1977b09113ba"},"vehicle_type_id":"4","last_reported":1736082759,"current_range_meters":7200,"station_id":"ce4bhgh2rcd13ifvqfb0","pricing_plan_id":"cebpf4jnsgd1na2vs0mg"},{"bike_id":"bf5ecd27-149a-49ef-b066-56f830053cfe","system_id":"levelo_inurba_marseille","lat":43.31489,"lon":5.37307,"is_reserved":false,"is_disabled":false,"rental_uris":{"android":"levelo://app?vid=bf5ecd27-149a-49ef-b066-56f830053cfe","ios":"levelo://app?vid=bf5ecd27-149a-49ef-b066-56f830053cfe"},"vehicle_type_id":"4","last_reported":1736082759,"current_range_meters":28000,"station_id":"ce4bgt12rcd13ifvqcd0","pricing_plan_id":"cebpf4jnsgd1na2vs0mg"},{"bike_id":"304aa64a-4e8e-488b-aff7-fb68ff39ec9c","system_id":"levelo_inurba_marseille","lat":43.276859,"lon":5.389163,"is_reserved":false,"is_disabled":false,"rental_uris":{"android":"levelo://app?vid=304aa64a-4e8e-488b-aff7-fb68ff39ec9c","ios":"levelo://app?vid=304aa64a-4e8e-488b-aff7-fb68ff39ec9c"},"vehicle_type_id":"4","last_reported":1736082759,"current_range_meters":38800,"station_id":"ce4bhi12rcd13ifvqfo0","pricing_plan_id":"cebpf4jnsgd1na2vs0mg"},{"bike_id":"bcf0bc77-feb4-4e25-93da-4721812265a5","system_id":"levelo_inurba_marseille","lat":43.29848,"lon":5.36282,"is_reserved":false,"is_disabled":false,"rental_uris":{"android":"levelo://app?vid=bcf0bc77-feb4-4e25-93da-4721812265a5","ios":"levelo://app?vid=bcf0bc77-feb4-4e25-93da-4721812265a5"},"vehicle_type_id":"4","last_reported":1736082759,"current_range_meters":38800,"station_id":"ce4bgpp2rcd13ifvqc3g","pricing_plan_id":"cebpf4jnsgd1na2vs0mg"},{"bike_id":"aebbc45c-04c0-4c80-b6a5-56c1582fcd00","system_id":"levelo_inurba_marseille","lat":43.24399,"lon":5.37094,"is_reserved":false,"is_disabled":false,"rental_uris":{"android":"levelo://app?vid=aebbc45c-04c0-4c80-b6a5-56c1582fcd00","ios":"levelo://app?vid=aebbc45c-04c0-4c80-b6a5-56c1582fcd00"},"vehicle_type_id":"4","last_reported":1736082759,"current_range_meters":36400,"station_id":"ce4bhhh2rcd13ifvqfk0","pricing_plan_id":"cebpf4jnsgd1na2vs0mg"},{"bike_id":"7e7cf6c3-7e05-477d-a018-118349a41f1c","system_id":"levelo_inurba_marseille","lat":43.22936,"lon":5.35379,"is_reserved":false,"is_disabled":false,"rental_uris":{"android":"levelo://app?vid=7e7cf6c3-7e05-477d-a018-118349a41f1c","ios":"levelo://app?vid=7e7cf6c3-7e05-477d-a018-118349a41f1c"},"vehicle_type_id":"4","last_reported":1736082759,"current_range_meters":14800,"station_id":"cpo3532slgdg3j2ikp40","pricing_plan_id":"cebpf4jnsgd1na2vs0mg"},{"bike_id":"cfa9ca20-27d4-44a2-a7d9-d2b75ed2f4ac","system_id":"levelo_inurba_marseille","lat":43.31067,"lon":5.3834,"is_reserved":false,"is_disabled":true,"rental_uris":{"android":"levelo://app?vid=cfa9ca20-27d4-44a2-a7d9-d2b75ed2f4ac","ios":"levelo://app?vid=cfa9ca20-27d4-44a2-a7d9-d2b75ed2f4ac"},"vehicle_type_id":"4","last_reported":1736082759,"current_range_meters":7200,"station_id":"ce4bgv92rcd13ifvqcr0","pricing_plan_id":"cebpf4jnsgd1na2vs0mg"},{"bike_id":"2e3020fc-739e-484f-aff1-968aa18f2ac1","system_id":"levelo_inurba_marseille","lat":43.27986,"lon":5.41652,"is_reserved":false,"is_disabled":true,"rental_uris":{"android":"levelo://app?vid=2e3020fc-739e-484f-aff1-968aa18f2ac1","ios":"levelo://app?vid=2e3020fc-739e-484f-aff1-968aa18f2ac1"},"vehicle_type_id":"4","last_reported":1736082759,"current_range_meters":4400,"station_id":"ce4bho12rcd13ifvqh1g","pricing_plan_id":"cebpf4jnsgd1na2vs0mg"},{"bike_id":"b406670f-874d-4ef4-81d2-a33bc08c5fe2","system_id":"levelo_inurba_marseille","lat":43.29937,"lon":5.36557,"is_reserved":false,"is_disabled":false,"rental_uris":{"android":"levelo://app?vid=b406670f-874d-4ef4-81d2-a33bc08c5fe2","ios":"levelo://app?vid=b406670f-874d-4ef4-81d2-a33bc08c5fe2"},"vehicle_type_id":"4","last_reported":1736082759,"current_range_meters":25600,"station_id":"ce4bgm92rcd13ifvqbr0","pricing_plan_id":"cebpf4jnsgd1na2vs0mg"},{"bike_id":"a0adb3c4-caf9-464d-8f3e-6b5be1eb9699","system_id":"levelo_inurba_marseille","lat":43.2511,"lon":5.40342,"is_reserved":false,"is_disabled":false,"rental_uris":{"android":"levelo://app?vid=a0adb3c4-caf9-464d-8f3e-6b5be1eb9699","ios":"levelo://app?vid=a0adb3c4-caf9-464d-8f3e-6b5be1eb9699"},"vehicle_type_id":"4","last_reported":1736082759,"current_range_meters":39200,"station_id":"ce4bhlh2rcd13ifvqgig","pricing_plan_id":"cebpf4jnsgd1na2vs0mg"},{"bike_id":"593d8424-f565-422e-8480-e0f50e2c043e","system_id":"levelo_inurba_marseille","lat":43.279426,"lon":5.386966,"is_reserved":false,"is_disabled":true,"rental_uris":{"android":"levelo://app?vid=593d8424-f565-422e-8480-e0f50e2c043e","ios":"levelo://app?vid=593d8424-f565-422e-8480-e0f50e2c043e"},"vehicle_type_id":"4","last_reported":1736082759,"current_range_meters":33600,"station_id":"","pricing_plan_id":"cebpf4jnsgd1na2vs0mg"},{"bike_id":"a944f865-f260-4d6e-8bfb-34b22d4c0ecd","system_id":"levelo_inurba_marseille","lat":43.30193,"lon":5.36675,"is_reserved":false,"is_disabled":true,"rental_uris":{"android":"levelo://app?vid=a944f865-f260-4d6e-8bfb-34b22d4c0ecd","ios":"levelo://app?vid=a944f865-f260-4d6e-8bfb-34b22d4c0ecd"},"vehicle_type_id":"4","last_reported":1736082759,"current_range_meters":30800,"station_id":"ce4bgrh2rcd13ifvqc8g","pricing_plan_id":"cebpf4jnsgd1na2vs0mg"},{"bike_id":"8cdc1ef2-0806-4959-9c23-8b6d5fa7df18","system_id":"levelo_inurba_marseille","lat":43.32652,"lon":5.41002,"is_reserved":false,"is_disabled":false,"rental_uris":{"android":"levelo://app?vid=8cdc1ef2-0806-4959-9c23-8b6d5fa7df18","ios":"levelo://app?vid=8cdc1ef2-0806-4959-9c23-8b6d5fa7df18"},"vehicle_type_id":"4","last_reported":1736082759,"current_range_meters":38800,"station_id":"ce4bhpp2rcd13ifvqhgg","pricing_plan_id":"cebpf4jnsgd1na2vs0mg"},{"bike_id":"168f8923-6b97-4196-b130-7522c90cdd44","system_id":"levelo_inurba_marseille","lat":43.29859,"lon":5.36296,"is_reserved":false,"is_disabled":false,"rental_uris":{"android":"levelo://app?vid=168f8923-6b97-4196-b130-7522c90cdd44","ios":"levelo://app?vid=168f8923-6b97-4196-b130-7522c90cdd44"},"vehicle_type_id":"4","last_reported":1736082759,"current_range_meters":38800,"station_id":"ce4bgpp2rcd13ifvqc3g","pricing_plan_id":"cebpf4jnsgd1na2vs0mg"},{"bike_id":"67c4d4d8-5c2d-44c8-955d-3e0cbaaa00bd","system_id":"levelo_inurba_marseille","lat":43.31319,"lon":5.39694,"is_reserved":false,"is_disabled":false,"rental_uris":{"android":"levelo://app?vid=67c4d4d8-5c2d-44c8-955d-3e0cbaaa00bd","ios":"levelo://app?vid=67c4d4d8-5c2d-44c8-955d-3e0cbaaa00bd"},"vehicle_type_id":"4","last_reported":1736082759,"current_range_meters":29600,"station_id":"ce4bgvp2rcd13ifvqcu0","pricing_plan_id":"cebpf4jnsgd1na2vs0mg"},{"bike_id":"8882562a-2bbd-4524-982b-9998b4d9c38a","system_id":"levelo_inurba_marseille","lat":43.29747,"lon":5.37678,"is_reserved":false,"is_disabled":false,"rental_uris":{"android":"levelo://app?vid=8882562a-2bbd-4524-982b-9998b4d9c38a","ios":"levelo://app?vid=8882562a-2bbd-4524-982b-9998b4d9c38a"},"vehicle_type_id":"4","last_reported":1736082759,"current_range_meters":38000,"station_id":"ce4bgkh2rcd13ifvqbl0","pricing_plan_id":"cebpf4jnsgd1na2vs0mg"},{"bike_id":"3ef4ed51-c9b1-41ee-9fe2-a1d7f430481f","system_id":"levelo_inurba_marseille","lat":43.32364,"lon":5.38885,"is_reserved":false,"is_disabled":false,"rental_uris":{"android":"levelo://app?vid=3ef4ed51-c9b1-41ee-9fe2-a1d7f430481f","ios":"levelo://app?vid=3ef4ed51-c9b1-41ee-9fe2-a1d7f430481f"},"vehicle_type_id":"4","last_reported":1736082759,"current_range_meters":38800,"station_id":"ce4bhqp2rcd13ifvqhog","pricing_plan_id":"cebpf4jnsgd1na2vs0mg"},{"bike_id":"11bab6b1-8f19-4376-9cab-a89cad5be186","system_id":"levelo_inurba_marseille","lat":43.32459,"lon":5.36615,"is_reserved":false,"is_disabled":false,"rental_uris":{"android":"levelo://app?vid=11bab6b1-8f19-4376-9cab-a89cad5be186","ios":"levelo://app?vid=11bab6b1-8f19-4376-9cab-a89cad5be186"},"vehicle_type_id":"4","last_reported":1736082759,"current_range_meters":34000,"station_id":"","pricing_plan_id":"cebpf4jnsgd1na2vs0mg"},{"bike_id":"9bd04c4d-bba3-44a3-88b7-e0bf363fe6b8","system_id":"levelo_inurba_marseille","lat":43.24647,"lon":5.38161,"is_reserved":false,"is_disabled":false,"rental_uris":{"android":"levelo://app?vid=9bd04c4d-bba3-44a3-88b7-e0bf363fe6b8","ios":"levelo://app?vid=9bd04c4d-bba3-44a3-88b7-e0bf363fe6b8"},"vehicle_type_id":"4","last_reported":1736082759,"current_range_meters":32800,"station_id":"ce4bhih2rcd13ifvqfr0","pricing_plan_id":"cebpf4jnsgd1na2vs0mg"},{"bike_id":"ab68ed21-148d-4a0e-ae51-a2dd92014de0","system_id":"levelo_inurba_marseille","lat":43.24989,"lon":5.38958,"is_reserved":false,"is_disabled":false,"rental_uris":{"android":"levelo://app?vid=ab68ed21-148d-4a0e-ae51-a2dd92014de0","ios":"levelo://app?vid=ab68ed21-148d-4a0e-ae51-a2dd92014de0"},"vehicle_type_id":"4","last_reported":1736082759,"current_range_meters":38800,"station_id":"ce4bhgp2rcd13ifvqfd0","pricing_plan_id":"cebpf4jnsgd1na2vs0mg"},{"bike_id":"f52c7654-593e-4648-8d72-c1c67a3bd0b7","system_id":"levelo_inurba_marseille","lat":43.28355,"lon":5.38109,"is_reserved":false,"is_disabled":false,"rental_uris":{"android":"levelo://app?vid=f52c7654-593e-4648-8d72-c1c67a3bd0b7","ios":"levelo://app?vid=f52c7654-593e-4648-8d72-c1c67a3bd0b7"},"vehicle_type_id":"4","last_reported":1736082759,"current_range_meters":20000,"station_id":"ce4bh412rcd13ifvqdr0","pricing_plan_id":"cebpf4jnsgd1na2vs0mg"},{"bike_id":"c023aed8-c4af-47de-bf55-7ec6cfb1c879","system_id":"levelo_inurba_marseille","lat":43.26195,"lon":5.37442,"is_reserved":false,"is_disabled":true,"rental_uris":{"android":"levelo://app?vid=c023aed8-c4af-47de-bf55-7ec6cfb1c879","ios":"levelo://app?vid=c023aed8-c4af-47de-bf55-7ec6cfb1c879"},"vehicle_type_id":"4","last_reported":1736082759,"current_range_meters":36400,"station_id":"ce4bhgp2rcd13ifvqfc0","pricing_plan_id":"cebpf4jnsgd1na2vs0mg"},{"bike_id":"749222c8-9746-45ac-bd72-13341a3861ff","system_id":"levelo_inurba_marseille","lat":43.286671,"lon":5.38692,"is_reserved":false,"is_disabled":false,"rental_uris":{"android":"levelo://app?vid=749222c8-9746-45ac-bd72-13341a3861ff","ios":"levelo://app?vid=749222c8-9746-45ac-bd72-13341a3861ff"},"vehicle_type_id":"4","last_reported":1736082759,"current_range_meters":35600,"station_id":"ce4bh492rcd13ifvqdug","pricing_plan_id":"cebpf4jnsgd1na2vs0mg"},{"bike_id":"0de7e3ed-9b24-40a4-aaea-b2c79ae8ea2c","system_id":"levelo_inurba_marseille","lat":43.284637,"lon":5.358908,"is_reserved":false,"is_disabled":false,"rental_uris":{"android":"levelo://app?vid=0de7e3ed-9b24-40a4-aaea-b2c79ae8ea2c","ios":"levelo://app?vid=0de7e3ed-9b24-40a4-aaea-b2c79ae8ea2c"},"vehicle_type_id":"4","last_reported":1736082759,"current_range_meters":24400,"station_id":"ce4bhah2rcd13ifvqei0","pricing_plan_id":"cebpf4jnsgd1na2vs0mg"},{"bike_id":"4d010683-2ccf-478e-baa7-c439fbf0a201","system_id":"levelo_inurba_marseille","lat":43.25694,"lon":5.41134,"is_reserved":false,"is_disabled":false,"rental_uris":{"android":"levelo://app?vid=4d010683-2ccf-478e-baa7-c439fbf0a201","ios":"levelo://app?vid=4d010683-2ccf-478e-baa7-c439fbf0a201"},"vehicle_type_id":"4","last_reported":1736082759,"current_range_meters":36800,"station_id":"ce4bhkp2rcd13ifvqgd0","pricing_plan_id":"cebpf4jnsgd1na2vs0mg"},{"bike_id":"ad036647-e9f4-4246-953d-37ee6601db50","system_id":"levelo_inurba_marseille","lat":43.24672,"lon":5.38168,"is_reserved":false,"is_disabled":false,"rental_uris":{"android":"levelo://app?vid=ad036647-e9f4-4246-953d-37ee6601db50","ios":"levelo://app?vid=ad036647-e9f4-4246-953d-37ee6601db50"},"vehicle_type_id":"4","last_reported":1736082759,"current_range_meters":26000,"station_id":"ce4bhih2rcd13ifvqfr0","pricing_plan_id":"cebpf4jnsgd1na2vs0mg"},{"bike_id":"c3496726-b8ea-47ac-a44b-66bc69a8d7e9","system_id":"levelo_inurba_marseille","lat":43.29843,"lon":5.36329,"is_reserved":false,"is_disabled":false,"rental_uris":{"android":"levelo://app?vid=c3496726-b8ea-47ac-a44b-66bc69a8d7e9","ios":"levelo://app?vid=c3496726-b8ea-47ac-a44b-66bc69a8d7e9"},"vehicle_type_id":"4","last_reported":1736082759,"current_range_meters":33600,"station_id":"ce4bgpp2rcd13ifvqc3g","pricing_plan_id":"cebpf4jnsgd1na2vs0mg"},{"bike_id":"15fa2cd8-67e5-4003-b494-23b6dbf70f95","system_id":"levelo_inurba_marseille","lat":43.2979,"lon":5.38091,"is_reserved":false,"is_disabled":false,"rental_uris":{"android":"levelo://app?vid=15fa2cd8-67e5-4003-b494-23b6dbf70f95","ios":"levelo://app?vid=15fa2cd8-67e5-4003-b494-23b6dbf70f95"},"vehicle_type_id":"4","last_reported":1736082759,"current_range_meters":37600,"station_id":"ce4bgip2rcd13ifvqbb0","pricing_plan_id":"cebpf4jnsgd1na2vs0mg"},{"bike_id":"f7f195c6-0413-4df5-96d5-b4a6ca93d841","system_id":"levelo_inurba_marseille","lat":43.28268,"lon":5.35068,"is_reserved":false,"is_disabled":false,"rental_uris":{"android":"levelo://app?vid=f7f195c6-0413-4df5-96d5-b4a6ca93d841","ios":"levelo://app?vid=f7f195c6-0413-4df5-96d5-b4a6ca93d841"},"vehicle_type_id":"4","last_reported":1736082759,"current_range_meters":22000,"station_id":"ce4bhbp2rcd13ifvqerg","pricing_plan_id":"cebpf4jnsgd1na2vs0mg"},{"bike_id":"d5b42207-8f9e-454e-85d7-a83f6e0f47f8","system_id":"levelo_inurba_marseille","lat":43.30606,"lon":5.39236,"is_reserved":false,"is_disabled":false,"rental_uris":{"android":"levelo://app?vid=d5b42207-8f9e-454e-85d7-a83f6e0f47f8","ios":"levelo://app?vid=d5b42207-8f9e-454e-85d7-a83f6e0f47f8"},"vehicle_type_id":"4","last_reported":1736082759,"current_range_meters":16800,"station_id":"","pricing_plan_id":"cebpf4jnsgd1na2vs0mg"},{"bike_id":"1b7d2371-0eba-4a43-8133-800073020b26","system_id":"levelo_inurba_marseille","lat":43.31534,"lon":5.38016,"is_reserved":false,"is_disabled":false,"rental_uris":{"android":"levelo://app?vid=1b7d2371-0eba-4a43-8133-800073020b26","ios":"levelo://app?vid=1b7d2371-0eba-4a43-8133-800073020b26"},"vehicle_type_id":"4","last_reported":1736082759,"current_range_meters":30000,"station_id":"ce4bhsp2rcd13ifvqi50","pricing_plan_id":"cebpf4jnsgd1na2vs0mg"},{"bike_id":"f0014140-97a3-45bb-aef7-9c6560d6bda8","system_id":"levelo_inurba_marseille","lat":43.27994,"lon":5.40019,"is_reserved":false,"is_disabled":false,"rental_uris":{"android":"levelo://app?vid=f0014140-97a3-45bb-aef7-9c6560d6bda8","ios":"levelo://app?vid=f0014140-97a3-45bb-aef7-9c6560d6bda8"},"vehicle_type_id":"4","last_reported":1736082759,"current_range_meters":24000,"station_id":"ce4bho92rcd13ifvqh4g","pricing_plan_id":"cebpf4jnsgd1na2vs0mg"},{"bike_id":"66d3e1ef-7727-44f9-b619-eeddb54c1fba","system_id":"levelo_inurba_marseille","lat":43.30443,"lon":5.38894,"is_reserved":false,"is_disabled":true,"rental_uris":{"android":"levelo://app?vid=66d3e1ef-7727-44f9-b619-eeddb54c1fba","ios":"levelo://app?vid=66d3e1ef-7727-44f9-b619-eeddb54c1fba"},"vehicle_type_id":"4","last_reported":1736082759,"current_range_meters":10000,"station_id":"ce4bgk12rcd13ifvqbi0","pricing_plan_id":"cebpf4jnsgd1na2vs0mg"},{"bike_id":"f2dc1d94-9180-4b3c-a6e7-f306abcf4d69","system_id":"levelo_inurba_marseille","lat":43.28002,"lon":5.41669,"is_reserved":false,"is_disabled":false,"rental_uris":{"android":"levelo://app?vid=f2dc1d94-9180-4b3c-a6e7-f306abcf4d69","ios":"levelo://app?vid=f2dc1d94-9180-4b3c-a6e7-f306abcf4d69"},"vehicle_type_id":"4","last_reported":1736082759,"current_range_meters":37600,"station_id":"ce4bho12rcd13ifvqh1g","pricing_plan_id":"cebpf4jnsgd1na2vs0mg"},{"bike_id":"9c306adb-f9f4-49e3-9fbf-f644cb3282af","system_id":"levelo_inurba_marseille","lat":43.29251,"lon":5.40898,"is_reserved":false,"is_disabled":false,"rental_uris":{"android":"levelo://app?vid=9c306adb-f9f4-49e3-9fbf-f644cb3282af","ios":"levelo://app?vid=9c306adb-f9f4-49e3-9fbf-f644cb3282af"},"vehicle_type_id":"4","last_reported":1736082759,"current_range_meters":29600,"station_id":"ce4bh192rcd13ifvqdc0","pricing_plan_id":"cebpf4jnsgd1na2vs0mg"},{"bike_id":"77a20cbd-6c32-4fbb-a181-bd137f1060b0","system_id":"levelo_inurba_marseille","lat":43.26959,"lon":5.38641,"is_reserved":false,"is_disabled":false,"rental_uris":{"android":"levelo://app?vid=77a20cbd-6c32-4fbb-a181-bd137f1060b0","ios":"levelo://app?vid=77a20cbd-6c32-4fbb-a181-bd137f1060b0"},"vehicle_type_id":"4","last_reported":1736082759,"current_range_meters":7200,"station_id":"ce4bhh92rcd13ifvqfh0","pricing_plan_id":"cebpf4jnsgd1na2vs0mg"},{"bike_id":"683c3a18-2fe8-4db2-829b-d8065bc8adc1","system_id":"levelo_inurba_marseille","lat":43.24064,"lon":5.37748,"is_reserved":false,"is_disabled":false,"rental_uris":{"android":"levelo://app?vid=683c3a18-2fe8-4db2-829b-d8065bc8adc1","ios":"levelo://app?vid=683c3a18-2fe8-4db2-829b-d8065bc8adc1"},"vehicle_type_id":"4","last_reported":1736082759,"current_range_meters":38800,"station_id":"ce4bhnp2rcd13ifvqgvg","pricing_plan_id":"cebpf4jnsgd1na2vs0mg"},{"bike_id":"f9bb7dc2-c130-48b0-8d20-da57d3f46423","system_id":"levelo_inurba_marseille","lat":43.32652,"lon":5.40991,"is_reserved":false,"is_disabled":false,"rental_uris":{"android":"levelo://app?vid=f9bb7dc2-c130-48b0-8d20-da57d3f46423","ios":"levelo://app?vid=f9bb7dc2-c130-48b0-8d20-da57d3f46423"},"vehicle_type_id":"4","last_reported":1736082759,"current_range_meters":38800,"station_id":"ce4bhpp2rcd13ifvqhgg","pricing_plan_id":"cebpf4jnsgd1na2vs0mg"},{"bike_id":"6e37b7fe-6fc0-4288-ba90-1804f1b3f282","system_id":"levelo_inurba_marseille","lat":43.30589,"lon":5.37227,"is_reserved":false,"is_disabled":false,"rental_uris":{"android":"levelo://app?vid=6e37b7fe-6fc0-4288-ba90-1804f1b3f282","ios":"levelo://app?vid=6e37b7fe-6fc0-4288-ba90-1804f1b3f282"},"vehicle_type_id":"4","last_reported":1736082759,"current_range_meters":22400,"station_id":"ce4bgqh2rcd13ifvqc4g","pricing_plan_id":"cebpf4jnsgd1na2vs0mg"},{"bike_id":"129f4a27-3f16-458e-9683-5a51caa24518","system_id":"levelo_inurba_marseille","lat":43.24395,"lon":5.37062,"is_reserved":false,"is_disabled":false,"rental_uris":{"android":"levelo://app?vid=129f4a27-3f16-458e-9683-5a51caa24518","ios":"levelo://app?vid=129f4a27-3f16-458e-9683-5a51caa24518"},"vehicle_type_id":"4","last_reported":1736082759,"current_range_meters":21600,"station_id":"ce4bhhh2rcd13ifvqfk0","pricing_plan_id":"cebpf4jnsgd1na2vs0mg"},{"bike_id":"58524289-f85b-4db2-b506-7378d449201d","system_id":"levelo_inurba_marseille","lat":43.28611,"lon":5.35116,"is_reserved":false,"is_disabled":false,"rental_uris":{"android":"levelo://app?vid=58524289-f85b-4db2-b506-7378d449201d","ios":"levelo://app?vid=58524289-f85b-4db2-b506-7378d449201d"},"vehicle_type_id":"4","last_reported":1736082759,"current_range_meters":27600,"station_id":"ce4bhch2rcd13ifvqeug","pricing_plan_id":"cebpf4jnsgd1na2vs0mg"},{"bike_id":"8bf5141e-3146-496b-828c-aa16db841e56","system_id":"levelo_inurba_marseille","lat":43.32594,"lon":5.41468,"is_reserved":false,"is_disabled":false,"rental_uris":{"android":"levelo://app?vid=8bf5141e-3146-496b-828c-aa16db841e56","ios":"levelo://app?vid=8bf5141e-3146-496b-828c-aa16db841e56"},"vehicle_type_id":"4","last_reported":1736082759,"current_range_meters":38400,"station_id":"ce4bhq12rcd13ifvqhhg","pricing_plan_id":"cebpf4jnsgd1na2vs0mg"},{"bike_id":"2332862a-3884-4317-af82-ee9793e9b62c","system_id":"levelo_inurba_marseille","lat":43.24043,"lon":5.37711,"is_reserved":false,"is_disabled":false,"rental_uris":{"android":"levelo://app?vid=2332862a-3884-4317-af82-ee9793e9b62c","ios":"levelo://app?vid=2332862a-3884-4317-af82-ee9793e9b62c"},"vehicle_type_id":"4","last_reported":1736082759,"current_range_meters":11600,"station_id":"ce4bhnp2rcd13ifvqgvg","pricing_plan_id":"cebpf4jnsgd1na2vs0mg"},{"bike_id":"3fed1827-13aa-4afe-a0f9-8be0a428d811","system_id":"levelo_inurba_marseille","lat":43.32359,"lon":5.38881,"is_reserved":false,"is_disabled":false,"rental_uris":{"android":"levelo://app?vid=3fed1827-13aa-4afe-a0f9-8be0a428d811","ios":"levelo://app?vid=3fed1827-13aa-4afe-a0f9-8be0a428d811"},"vehicle_type_id":"4","last_reported":1736082759,"current_range_meters":37600,"station_id":"ce4bhqp2rcd13ifvqhog","pricing_plan_id":"cebpf4jnsgd1na2vs0mg"},{"bike_id":"d6623fb3-7fe3-4914-8803-99fc449c9eb9","system_id":"levelo_inurba_marseille","lat":43.24811,"lon":5.37457,"is_reserved":false,"is_disabled":false,"rental_uris":{"android":"levelo://app?vid=d6623fb3-7fe3-4914-8803-99fc449c9eb9","ios":"levelo://app?vid=d6623fb3-7fe3-4914-8803-99fc449c9eb9"},"vehicle_type_id":"4","last_reported":1736082759,"current_range_meters":30000,"station_id":"ce4bhgh2rcd13ifvqfb0","pricing_plan_id":"cebpf4jnsgd1na2vs0mg"},{"bike_id":"ed5c7331-be48-4af1-a745-0b91efe806e2","system_id":"levelo_inurba_marseille","lat":43.2967,"lon":5.37294,"is_reserved":false,"is_disabled":false,"rental_uris":{"android":"levelo://app?vid=ed5c7331-be48-4af1-a745-0b91efe806e2","ios":"levelo://app?vid=ed5c7331-be48-4af1-a745-0b91efe806e2"},"vehicle_type_id":"4","last_reported":1736082759,"current_range_meters":39200,"station_id":"ce4bgk12rcd13ifvqbj0","pricing_plan_id":"cebpf4jnsgd1na2vs0mg"},{"bike_id":"93710b75-6427-48d9-bb68-679022e71a2a","system_id":"levelo_inurba_marseille","lat":43.291043,"lon":5.381354,"is_reserved":false,"is_disabled":false,"rental_uris":{"android":"levelo://app?vid=93710b75-6427-48d9-bb68-679022e71a2a","ios":"levelo://app?vid=93710b75-6427-48d9-bb68-679022e71a2a"},"vehicle_type_id":"4","last_reported":1736082759,"current_range_meters":28800,"station_id":"ce4bh512rcd13ifvqe2g","pricing_plan_id":"cebpf4jnsgd1na2vs0mg"},{"bike_id":"75769094-2e19-4635-bd03-cda12fc38c05","system_id":"levelo_inurba_marseille","lat":43.28476,"lon":5.38417,"is_reserved":false,"is_disabled":false,"rental_uris":{"android":"levelo://app?vid=75769094-2e19-4635-bd03-cda12fc38c05","ios":"levelo://app?vid=75769094-2e19-4635-bd03-cda12fc38c05"},"vehicle_type_id":"4","last_reported":1736082759,"current_range_meters":36000,"station_id":"ce4bh512rcd13ifvqe3g","pricing_plan_id":"cebpf4jnsgd1na2vs0mg"},{"bike_id":"29e1c849-f967-4272-876a-68b95f11895c","system_id":"levelo_inurba_marseille","lat":43.26689,"lon":5.38261,"is_reserved":false,"is_disabled":false,"rental_uris":{"android":"levelo://app?vid=29e1c849-f967-4272-876a-68b95f11895c","ios":"levelo://app?vid=29e1c849-f967-4272-876a-68b95f11895c"},"vehicle_type_id":"4","last_reported":1736082759,"current_range_meters":39200,"station_id":"ce4bhg92rcd13ifvqf90","pricing_plan_id":"cebpf4jnsgd1na2vs0mg"},{"bike_id":"7ee45656-cc2b-4090-8514-bcfd033cfdf8","system_id":"levelo_inurba_marseille","lat":43.3373,"lon":5.39185,"is_reserved":false,"is_disabled":false,"rental_uris":{"android":"levelo://app?vid=7ee45656-cc2b-4090-8514-bcfd033cfdf8","ios":"levelo://app?vid=7ee45656-cc2b-4090-8514-bcfd033cfdf8"},"vehicle_type_id":"4","last_reported":1736082759,"current_range_meters":38800,"station_id":"ce4bhr92rcd13ifvqhsg","pricing_plan_id":"cebpf4jnsgd1na2vs0mg"},{"bike_id":"c8529c5f-726c-44b9-8f81-1b72db6f4e53","system_id":"levelo_inurba_marseille","lat":43.32367,"lon":5.38894,"is_reserved":false,"is_disabled":false,"rental_uris":{"android":"levelo://app?vid=c8529c5f-726c-44b9-8f81-1b72db6f4e53","ios":"levelo://app?vid=c8529c5f-726c-44b9-8f81-1b72db6f4e53"},"vehicle_type_id":"4","last_reported":1736082759,"current_range_meters":38000,"station_id":"ce4bhqp2rcd13ifvqhog","pricing_plan_id":"cebpf4jnsgd1na2vs0mg"},{"bike_id":"66c1f4a8-00f2-48da-ab15-4047c3fa8786","system_id":"levelo_inurba_marseille","lat":43.30859,"lon":5.39669,"is_reserved":false,"is_disabled":false,"rental_uris":{"android":"levelo://app?vid=66c1f4a8-00f2-48da-ab15-4047c3fa8786","ios":"levelo://app?vid=66c1f4a8-00f2-48da-ab15-4047c3fa8786"},"vehicle_type_id":"4","last_reported":1736082759,"current_range_meters":39200,"station_id":"ce4bh012rcd13ifvqcv0","pricing_plan_id":"cebpf4jnsgd1na2vs0mg"},{"bike_id":"9a483109-5bce-4e89-a527-a3ced035742c","system_id":"levelo_inurba_marseille","lat":43.2693,"lon":5.386643,"is_reserved":false,"is_disabled":false,"rental_uris":{"android":"levelo://app?vid=9a483109-5bce-4e89-a527-a3ced035742c","ios":"levelo://app?vid=9a483109-5bce-4e89-a527-a3ced035742c"},"vehicle_type_id":"4","last_reported":1736082759,"current_range_meters":11200,"station_id":"ce4bhh92rcd13ifvqfh0","pricing_plan_id":"cebpf4jnsgd1na2vs0mg"},{"bike_id":"6c503bd7-7bec-4e40-8157-ec408bcaad78","system_id":"levelo_inurba_marseille","lat":43.24813,"lon":5.37462,"is_reserved":false,"is_disabled":false,"rental_uris":{"android":"levelo://app?vid=6c503bd7-7bec-4e40-8157-ec408bcaad78","ios":"levelo://app?vid=6c503bd7-7bec-4e40-8157-ec408bcaad78"},"vehicle_type_id":"4","last_reported":1736082759,"current_range_meters":26800,"station_id":"ce4bhgh2rcd13ifvqfb0","pricing_plan_id":"cebpf4jnsgd1na2vs0mg"},{"bike_id":"619d6245-ee2f-4dcf-940f-599d7d2b302e","system_id":"levelo_inurba_marseille","lat":43.29852,"lon":5.36279,"is_reserved":false,"is_disabled":false,"rental_uris":{"android":"levelo://app?vid=619d6245-ee2f-4dcf-940f-599d7d2b302e","ios":"levelo://app?vid=619d6245-ee2f-4dcf-940f-599d7d2b302e"},"vehicle_type_id":"4","last_reported":1736082759,"current_range_meters":33600,"station_id":"ce4bgpp2rcd13ifvqc3g","pricing_plan_id":"cebpf4jnsgd1na2vs0mg"},{"bike_id":"f53ebab8-f8a0-476a-a469-061c3d38595a","system_id":"levelo_inurba_marseille","lat":43.3133,"lon":5.39742,"is_reserved":false,"is_disabled":false,"rental_uris":{"android":"levelo://app?vid=f53ebab8-f8a0-476a-a469-061c3d38595a","ios":"levelo://app?vid=f53ebab8-f8a0-476a-a469-061c3d38595a"},"vehicle_type_id":"4","last_reported":1736082759,"current_range_meters":35600,"station_id":"ce4bgvp2rcd13ifvqcu0","pricing_plan_id":"cebpf4jnsgd1na2vs0mg"},{"bike_id":"7f1ce4ed-0cd0-4d23-b89e-099e0df8c108","system_id":"levelo_inurba_marseille","lat":43.25736,"lon":5.41118,"is_reserved":false,"is_disabled":false,"rental_uris":{"android":"levelo://app?vid=7f1ce4ed-0cd0-4d23-b89e-099e0df8c108","ios":"levelo://app?vid=7f1ce4ed-0cd0-4d23-b89e-099e0df8c108"},"vehicle_type_id":"4","last_reported":1736082759,"current_range_meters":38800,"station_id":"ce4bhkp2rcd13ifvqgd0","pricing_plan_id":"cebpf4jnsgd1na2vs0mg"},{"bike_id":"9db30acb-5eb1-4a75-9331-1f42fd694337","system_id":"levelo_inurba_marseille","lat":43.27928,"lon":5.39574,"is_reserved":false,"is_disabled":false,"rental_uris":{"android":"levelo://app?vid=9db30acb-5eb1-4a75-9331-1f42fd694337","ios":"levelo://app?vid=9db30acb-5eb1-4a75-9331-1f42fd694337"},"vehicle_type_id":"4","last_reported":1736082759,"current_range_meters":23200,"station_id":"ce4bhf92rcd13ifvqf40","pricing_plan_id":"cebpf4jnsgd1na2vs0mg"},{"bike_id":"969c8a84-cf60-4395-8c81-a1d2e7dc81af","system_id":"levelo_inurba_marseille","lat":43.2586,"lon":5.39903,"is_reserved":false,"is_disabled":false,"rental_uris":{"android":"levelo://app?vid=969c8a84-cf60-4395-8c81-a1d2e7dc81af","ios":"levelo://app?vid=969c8a84-cf60-4395-8c81-a1d2e7dc81af"},"vehicle_type_id":"4","last_reported":1736082759,"current_range_meters":16000,"station_id":"ce4bhl92rcd13ifvqghg","pricing_plan_id":"cebpf4jnsgd1na2vs0mg"},{"bike_id":"f8142e8a-f886-4c5e-b399-88d8fa1c1d32","system_id":"levelo_inurba_marseille","lat":43.246486,"lon":5.382292,"is_reserved":false,"is_disabled":false,"rental_uris":{"android":"levelo://app?vid=f8142e8a-f886-4c5e-b399-88d8fa1c1d32","ios":"levelo://app?vid=f8142e8a-f886-4c5e-b399-88d8fa1c1d32"},"vehicle_type_id":"4","last_reported":1736082759,"current_range_meters":26000,"station_id":"ce4bhih2rcd13ifvqfr0","pricing_plan_id":"cebpf4jnsgd1na2vs0mg"},{"bike_id":"9d2065c5-e801-47c6-a32c-5834d37e9dab","system_id":"levelo_inurba_marseille","lat":43.323645,"lon":5.388955,"is_reserved":false,"is_disabled":false,"rental_uris":{"android":"levelo://app?vid=9d2065c5-e801-47c6-a32c-5834d37e9dab","ios":"levelo://app?vid=9d2065c5-e801-47c6-a32c-5834d37e9dab"},"vehicle_type_id":"4","last_reported":1736082759,"current_range_meters":36000,"station_id":"ce4bhqp2rcd13ifvqhog","pricing_plan_id":"cebpf4jnsgd1na2vs0mg"},{"bike_id":"1aba21f4-1bc8-481b-8d4e-71db03f213fd","system_id":"levelo_inurba_marseille","lat":43.25119,"lon":5.40325,"is_reserved":false,"is_disabled":false,"rental_uris":{"android":"levelo://app?vid=1aba21f4-1bc8-481b-8d4e-71db03f213fd","ios":"levelo://app?vid=1aba21f4-1bc8-481b-8d4e-71db03f213fd"},"vehicle_type_id":"4","last_reported":1736082759,"current_range_meters":30800,"station_id":"ce4bhlh2rcd13ifvqgig","pricing_plan_id":"cebpf4jnsgd1na2vs0mg"},{"bike_id":"5acd51ab-33ae-465f-9994-b539f1713987","system_id":"levelo_inurba_marseille","lat":43.33721,"lon":5.39212,"is_reserved":false,"is_disabled":true,"rental_uris":{"android":"levelo://app?vid=5acd51ab-33ae-465f-9994-b539f1713987","ios":"levelo://app?vid=5acd51ab-33ae-465f-9994-b539f1713987"},"vehicle_type_id":"4","last_reported":1736082759,"current_range_meters":0,"station_id":"ce4bhr92rcd13ifvqhsg","pricing_plan_id":"cebpf4jnsgd1na2vs0mg"},{"bike_id":"f3d41f41-839d-41a5-aa6d-f2ba87ff18f0","system_id":"levelo_inurba_marseille","lat":43.24083,"lon":5.37729,"is_reserved":false,"is_disabled":true,"rental_uris":{"android":"levelo://app?vid=f3d41f41-839d-41a5-aa6d-f2ba87ff18f0","ios":"levelo://app?vid=f3d41f41-839d-41a5-aa6d-f2ba87ff18f0"},"vehicle_type_id":"4","last_reported":1736082759,"current_range_meters":38800,"station_id":"ce4bhnp2rcd13ifvqgvg","pricing_plan_id":"cebpf4jnsgd1na2vs0mg"},{"bike_id":"01d8a29e-a9ec-4e15-a343-8bdd2a47bd51","system_id":"levelo_inurba_marseille","lat":43.31995,"lon":5.38142,"is_reserved":false,"is_disabled":false,"rental_uris":{"android":"levelo://app?vid=01d8a29e-a9ec-4e15-a343-8bdd2a47bd51","ios":"levelo://app?vid=01d8a29e-a9ec-4e15-a343-8bdd2a47bd51"},"vehicle_type_id":"4","last_reported":1736082759,"current_range_meters":38800,"station_id":"ce4bhr12rcd13ifvqhpg","pricing_plan_id":"cebpf4jnsgd1na2vs0mg"},{"bike_id":"9f326815-9d5b-4c57-b098-1465cece3aff","system_id":"levelo_inurba_marseille","lat":43.28078,"lon":5.44169,"is_reserved":false,"is_disabled":false,"rental_uris":{"android":"levelo://app?vid=9f326815-9d5b-4c57-b098-1465cece3aff","ios":"levelo://app?vid=9f326815-9d5b-4c57-b098-1465cece3aff"},"vehicle_type_id":"4","last_reported":1736082759,"current_range_meters":16000,"station_id":"","pricing_plan_id":"cebpf4jnsgd1na2vs0mg"},{"bike_id":"c2c66233-c34e-48db-9b0f-538a025d3f18","system_id":"levelo_inurba_marseille","lat":43.27067,"lon":5.42262,"is_reserved":false,"is_disabled":false,"rental_uris":{"android":"levelo://app?vid=c2c66233-c34e-48db-9b0f-538a025d3f18","ios":"levelo://app?vid=c2c66233-c34e-48db-9b0f-538a025d3f18"},"vehicle_type_id":"4","last_reported":1736082759,"current_range_meters":19600,"station_id":"ce4bhk92rcd13ifvqgb0","pricing_plan_id":"cebpf4jnsgd1na2vs0mg"},{"bike_id":"a0542985-0444-4976-8f42-e16a5a9b1295","system_id":"levelo_inurba_marseille","lat":43.28706,"lon":5.37387,"is_reserved":false,"is_disabled":false,"rental_uris":{"android":"levelo://app?vid=a0542985-0444-4976-8f42-e16a5a9b1295","ios":"levelo://app?vid=a0542985-0444-4976-8f42-e16a5a9b1295"},"vehicle_type_id":"4","last_reported":1736082759,"current_range_meters":37600,"station_id":"ce4bh3p2rcd13ifvqdq0","pricing_plan_id":"cebpf4jnsgd1na2vs0mg"},{"bike_id":"7b78d5e2-5142-402d-a4f8-0f3037a6c533","system_id":"levelo_inurba_marseille","lat":43.26931,"lon":5.38691,"is_reserved":false,"is_disabled":true,"rental_uris":{"android":"levelo://app?vid=7b78d5e2-5142-402d-a4f8-0f3037a6c533","ios":"levelo://app?vid=7b78d5e2-5142-402d-a4f8-0f3037a6c533"},"vehicle_type_id":"4","last_reported":1736082759,"current_range_meters":38800,"station_id":"ce4bhh92rcd13ifvqfh0","pricing_plan_id":"cebpf4jnsgd1na2vs0mg"},{"bike_id":"a2f3c8c2-40cc-40c5-bc2a-9a8a1f549a5d","system_id":"levelo_inurba_marseille","lat":43.23962,"lon":5.36634,"is_reserved":false,"is_disabled":false,"rental_uris":{"android":"levelo://app?vid=a2f3c8c2-40cc-40c5-bc2a-9a8a1f549a5d","ios":"levelo://app?vid=a2f3c8c2-40cc-40c5-bc2a-9a8a1f549a5d"},"vehicle_type_id":"4","last_reported":1736082759,"current_range_meters":16400,"station_id":"ce4bhi12rcd13ifvqfp0","pricing_plan_id":"cebpf4jnsgd1na2vs0mg"},{"bike_id":"d0d21930-fe1d-478b-8251-bcf89564599d","system_id":"levelo_inurba_marseille","lat":43.29555,"lon":5.42283,"is_reserved":false,"is_disabled":false,"rental_uris":{"android":"levelo://app?vid=d0d21930-fe1d-478b-8251-bcf89564599d","ios":"levelo://app?vid=d0d21930-fe1d-478b-8251-bcf89564599d"},"vehicle_type_id":"4","last_reported":1736082759,"current_range_meters":27200,"station_id":"ce4bhph2rcd13ifvqhdg","pricing_plan_id":"cebpf4jnsgd1na2vs0mg"},{"bike_id":"1793541c-83c8-4541-af39-7c3a3986aec9","system_id":"levelo_inurba_marseille","lat":43.22936,"lon":5.35383,"is_reserved":false,"is_disabled":false,"rental_uris":{"android":"levelo://app?vid=1793541c-83c8-4541-af39-7c3a3986aec9","ios":"levelo://app?vid=1793541c-83c8-4541-af39-7c3a3986aec9"},"vehicle_type_id":"4","last_reported":1736082759,"current_range_meters":20400,"station_id":"cpo3532slgdg3j2ikp40","pricing_plan_id":"cebpf4jnsgd1na2vs0mg"},{"bike_id":"337f3b6f-2cd7-4dc5-8d5f-11acfc8d9e29","system_id":"levelo_inurba_marseille","lat":43.27819,"lon":5.39201,"is_reserved":false,"is_disabled":false,"rental_uris":{"android":"levelo://app?vid=337f3b6f-2cd7-4dc5-8d5f-11acfc8d9e29","ios":"levelo://app?vid=337f3b6f-2cd7-4dc5-8d5f-11acfc8d9e29"},"vehicle_type_id":"4","last_reported":1736082759,"current_range_meters":8800,"station_id":"ce4bhjp2rcd13ifvqga0","pricing_plan_id":"cebpf4jnsgd1na2vs0mg"},{"bike_id":"7c8a16a6-d5de-4b31-8914-401123a2c650","system_id":"levelo_inurba_marseille","lat":43.33035,"lon":5.39049,"is_reserved":false,"is_disabled":false,"rental_uris":{"android":"levelo://app?vid=7c8a16a6-d5de-4b31-8914-401123a2c650","ios":"levelo://app?vid=7c8a16a6-d5de-4b31-8914-401123a2c650"},"vehicle_type_id":"4","last_reported":1736082759,"current_range_meters":38000,"station_id":"ce4bhr92rcd13ifvqhrg","pricing_plan_id":"cebpf4jnsgd1na2vs0mg"},{"bike_id":"7d645fd6-b0b8-4c6f-a89a-4e1b6a089714","system_id":"levelo_inurba_marseille","lat":43.29598,"lon":5.38103,"is_reserved":false,"is_disabled":false,"rental_uris":{"android":"levelo://app?vid=7d645fd6-b0b8-4c6f-a89a-4e1b6a089714","ios":"levelo://app?vid=7d645fd6-b0b8-4c6f-a89a-4e1b6a089714"},"vehicle_type_id":"4","last_reported":1736082759,"current_range_meters":32800,"station_id":"ce4bgl12rcd13ifvqbo0","pricing_plan_id":"cebpf4jnsgd1na2vs0mg"},{"bike_id":"9cdd1c80-6014-4d8f-b792-71faf08dcd85","system_id":"levelo_inurba_marseille","lat":43.30524,"lon":5.36551,"is_reserved":false,"is_disabled":false,"rental_uris":{"android":"levelo://app?vid=9cdd1c80-6014-4d8f-b792-71faf08dcd85","ios":"levelo://app?vid=9cdd1c80-6014-4d8f-b792-71faf08dcd85"},"vehicle_type_id":"4","last_reported":1736082759,"current_range_meters":14800,"station_id":"ce4bgs12rcd13ifvqcag","pricing_plan_id":"cebpf4jnsgd1na2vs0mg"},{"bike_id":"bc2adf72-523b-40d5-aa65-4dcb678a89d8","system_id":"levelo_inurba_marseille","lat":43.31988,"lon":5.38141,"is_reserved":false,"is_disabled":false,"rental_uris":{"android":"levelo://app?vid=bc2adf72-523b-40d5-aa65-4dcb678a89d8","ios":"levelo://app?vid=bc2adf72-523b-40d5-aa65-4dcb678a89d8"},"vehicle_type_id":"4","last_reported":1736082759,"current_range_meters":30800,"station_id":"ce4bhr12rcd13ifvqhpg","pricing_plan_id":"cebpf4jnsgd1na2vs0mg"},{"bike_id":"98b3bf63-7afc-4395-92a7-e129a4218de5","system_id":"levelo_inurba_marseille","lat":43.30592,"lon":5.3723,"is_reserved":false,"is_disabled":false,"rental_uris":{"android":"levelo://app?vid=98b3bf63-7afc-4395-92a7-e129a4218de5","ios":"levelo://app?vid=98b3bf63-7afc-4395-92a7-e129a4218de5"},"vehicle_type_id":"4","last_reported":1736082759,"current_range_meters":33600,"station_id":"ce4bgqh2rcd13ifvqc4g","pricing_plan_id":"cebpf4jnsgd1na2vs0mg"},{"bike_id":"830b5d3b-cabb-4fdb-be27-c9d3d8ea9fde","system_id":"levelo_inurba_marseille","lat":43.24827,"lon":5.3746,"is_reserved":false,"is_disabled":false,"rental_uris":{"android":"levelo://app?vid=830b5d3b-cabb-4fdb-be27-c9d3d8ea9fde","ios":"levelo://app?vid=830b5d3b-cabb-4fdb-be27-c9d3d8ea9fde"},"vehicle_type_id":"4","last_reported":1736082759,"current_range_meters":37600,"station_id":"ce4bhgh2rcd13ifvqfb0","pricing_plan_id":"cebpf4jnsgd1na2vs0mg"},{"bike_id":"db1cf524-0bb4-46a8-826b-c36dcd4e3579","system_id":"levelo_inurba_marseille","lat":43.30095,"lon":5.39082,"is_reserved":false,"is_disabled":false,"rental_uris":{"android":"levelo://app?vid=db1cf524-0bb4-46a8-826b-c36dcd4e3579","ios":"levelo://app?vid=db1cf524-0bb4-46a8-826b-c36dcd4e3579"},"vehicle_type_id":"4","last_reported":1736082759,"current_range_meters":33200,"station_id":"ce4bh192rcd13ifvqdb0","pricing_plan_id":"cebpf4jnsgd1na2vs0mg"},{"bike_id":"4f9028fb-78bf-4441-88a1-0cf50c119ce0","system_id":"levelo_inurba_marseille","lat":43.29805,"lon":5.38099,"is_reserved":false,"is_disabled":false,"rental_uris":{"android":"levelo://app?vid=4f9028fb-78bf-4441-88a1-0cf50c119ce0","ios":"levelo://app?vid=4f9028fb-78bf-4441-88a1-0cf50c119ce0"},"vehicle_type_id":"4","last_reported":1736082759,"current_range_meters":21600,"station_id":"ce4bgip2rcd13ifvqbb0","pricing_plan_id":"cebpf4jnsgd1na2vs0mg"},{"bike_id":"8785ddf2-7225-4c15-a282-1f8baeace2a7","system_id":"levelo_inurba_marseille","lat":43.26045,"lon":5.39393,"is_reserved":false,"is_disabled":false,"rental_uris":{"android":"levelo://app?vid=8785ddf2-7225-4c15-a282-1f8baeace2a7","ios":"levelo://app?vid=8785ddf2-7225-4c15-a282-1f8baeace2a7"},"vehicle_type_id":"4","last_reported":1736082759,"current_range_meters":26000,"station_id":"ce4bhh92rcd13ifvqfj0","pricing_plan_id":"cebpf4jnsgd1na2vs0mg"},{"bike_id":"baaabb63-03d7-46b0-b392-f607b1506ff3","system_id":"levelo_inurba_marseille","lat":43.32064,"lon":5.4154,"is_reserved":false,"is_disabled":false,"rental_uris":{"android":"levelo://app?vid=baaabb63-03d7-46b0-b392-f607b1506ff3","ios":"levelo://app?vid=baaabb63-03d7-46b0-b392-f607b1506ff3"},"vehicle_type_id":"4","last_reported":1736082759,"current_range_meters":24400,"station_id":"ce4bhq92rcd13ifvqhkg","pricing_plan_id":"cebpf4jnsgd1na2vs0mg"},{"bike_id":"a6f828f1-5f97-4da7-bf33-7d48a155db3e","system_id":"levelo_inurba_marseille","lat":43.27837,"lon":5.39203,"is_reserved":false,"is_disabled":false,"rental_uris":{"android":"levelo://app?vid=a6f828f1-5f97-4da7-bf33-7d48a155db3e","ios":"levelo://app?vid=a6f828f1-5f97-4da7-bf33-7d48a155db3e"},"vehicle_type_id":"4","last_reported":1736082759,"current_range_meters":22800,"station_id":"ce4bhjp2rcd13ifvqga0","pricing_plan_id":"cebpf4jnsgd1na2vs0mg"},{"bike_id":"fa2ee725-1f3b-4ebc-92e6-89df24629c35","system_id":"levelo_inurba_marseille","lat":43.30576,"lon":5.36923,"is_reserved":false,"is_disabled":false,"rental_uris":{"android":"levelo://app?vid=fa2ee725-1f3b-4ebc-92e6-89df24629c35","ios":"levelo://app?vid=fa2ee725-1f3b-4ebc-92e6-89df24629c35"},"vehicle_type_id":"4","last_reported":1736082759,"current_range_meters":22800,"station_id":"","pricing_plan_id":"cebpf4jnsgd1na2vs0mg"},{"bike_id":"a522c7f8-85db-4294-bcdd-44c45cbf4d5e","system_id":"levelo_inurba_marseille","lat":43.2319,"lon":5.39981,"is_reserved":false,"is_disabled":false,"rental_uris":{"android":"levelo://app?vid=a522c7f8-85db-4294-bcdd-44c45cbf4d5e","ios":"levelo://app?vid=a522c7f8-85db-4294-bcdd-44c45cbf4d5e"},"vehicle_type_id":"4","last_reported":1736082759,"current_range_meters":38000,"station_id":"ce4bhn12rcd13ifvqgqg","pricing_plan_id":"cebpf4jnsgd1na2vs0mg"},{"bike_id":"00288bec-9de4-47dc-9320-cbe4bbb8e448","system_id":"levelo_inurba_marseille","lat":43.29526,"lon":5.39409,"is_reserved":false,"is_disabled":false,"rental_uris":{"android":"levelo://app?vid=00288bec-9de4-47dc-9320-cbe4bbb8e448","ios":"levelo://app?vid=00288bec-9de4-47dc-9320-cbe4bbb8e448"},"vehicle_type_id":"4","last_reported":1736082759,"current_range_meters":38800,"station_id":"ce4bh292rcd13ifvqdf0","pricing_plan_id":"cebpf4jnsgd1na2vs0mg"},{"bike_id":"e8a185b3-d63a-46a8-a06c-c198a1239fb6","system_id":"levelo_inurba_marseille","lat":43.27549,"lon":5.39658,"is_reserved":false,"is_disabled":false,"rental_uris":{"android":"levelo://app?vid=e8a185b3-d63a-46a8-a06c-c198a1239fb6","ios":"levelo://app?vid=e8a185b3-d63a-46a8-a06c-c198a1239fb6"},"vehicle_type_id":"4","last_reported":1736082759,"current_range_meters":25600,"station_id":"","pricing_plan_id":"cebpf4jnsgd1na2vs0mg"},{"bike_id":"2bb365b9-b0ab-4842-8b8c-e8de6374870a","system_id":"levelo_inurba_marseille","lat":43.24678,"lon":5.39021,"is_reserved":false,"is_disabled":false,"rental_uris":{"android":"levelo://app?vid=2bb365b9-b0ab-4842-8b8c-e8de6374870a","ios":"levelo://app?vid=2bb365b9-b0ab-4842-8b8c-e8de6374870a"},"vehicle_type_id":"4","last_reported":1736082759,"current_range_meters":38800,"station_id":"","pricing_plan_id":"cebpf4jnsgd1na2vs0mg"},{"bike_id":"d394e9d3-86c4-455f-9725-52093f28a235","system_id":"levelo_inurba_marseille","lat":43.30419,"lon":5.388936,"is_reserved":false,"is_disabled":false,"rental_uris":{"android":"levelo://app?vid=d394e9d3-86c4-455f-9725-52093f28a235","ios":"levelo://app?vid=d394e9d3-86c4-455f-9725-52093f28a235"},"vehicle_type_id":"4","last_reported":1736082759,"current_range_meters":33600,"station_id":"ce4bgk12rcd13ifvqbi0","pricing_plan_id":"cebpf4jnsgd1na2vs0mg"},{"bike_id":"d580587d-6a34-4028-a032-9ca5028e06c1","system_id":"levelo_inurba_marseille","lat":43.2511,"lon":5.40325,"is_reserved":false,"is_disabled":false,"rental_uris":{"android":"levelo://app?vid=d580587d-6a34-4028-a032-9ca5028e06c1","ios":"levelo://app?vid=d580587d-6a34-4028-a032-9ca5028e06c1"},"vehicle_type_id":"4","last_reported":1736082759,"current_range_meters":24800,"station_id":"ce4bhlh2rcd13ifvqgig","pricing_plan_id":"cebpf4jnsgd1na2vs0mg"},{"bike_id":"d49af3af-f9f9-4223-bef7-ad7508592233","system_id":"levelo_inurba_marseille","lat":43.23182,"lon":5.40007,"is_reserved":false,"is_disabled":false,"rental_uris":{"android":"levelo://app?vid=d49af3af-f9f9-4223-bef7-ad7508592233","ios":"levelo://app?vid=d49af3af-f9f9-4223-bef7-ad7508592233"},"vehicle_type_id":"4","last_reported":1736082759,"current_range_meters":30000,"station_id":"ce4bhn12rcd13ifvqgqg","pricing_plan_id":"cebpf4jnsgd1na2vs0mg"},{"bike_id":"641d8acc-50b2-4173-ab23-c70f2a11d28e","system_id":"levelo_inurba_marseille","lat":43.28168,"lon":5.42716,"is_reserved":false,"is_disabled":true,"rental_uris":{"android":"levelo://app?vid=641d8acc-50b2-4173-ab23-c70f2a11d28e","ios":"levelo://app?vid=641d8acc-50b2-4173-ab23-c70f2a11d28e"},"vehicle_type_id":"4","last_reported":1736082759,"current_range_meters":33200,"station_id":"ce4bhnh2rcd13ifvqgug","pricing_plan_id":"cebpf4jnsgd1na2vs0mg"},{"bike_id":"5e1410a8-2898-4c41-8f96-f8d8591cd1e8","system_id":"levelo_inurba_marseille","lat":43.28455,"lon":5.39203,"is_reserved":false,"is_disabled":false,"rental_uris":{"android":"levelo://app?vid=5e1410a8-2898-4c41-8f96-f8d8591cd1e8","ios":"levelo://app?vid=5e1410a8-2898-4c41-8f96-f8d8591cd1e8"},"vehicle_type_id":"4","last_reported":1736082759,"current_range_meters":37600,"station_id":"ce4bhoh2rcd13ifvqh5g","pricing_plan_id":"cebpf4jnsgd1na2vs0mg"},{"bike_id":"15e503f5-1d52-42d6-a98f-33a61fd8b554","system_id":"levelo_inurba_marseille","lat":43.2846,"lon":5.35893,"is_reserved":false,"is_disabled":true,"rental_uris":{"android":"levelo://app?vid=15e503f5-1d52-42d6-a98f-33a61fd8b554","ios":"levelo://app?vid=15e503f5-1d52-42d6-a98f-33a61fd8b554"},"vehicle_type_id":"4","last_reported":1736082759,"current_range_meters":26000,"station_id":"ce4bhah2rcd13ifvqei0","pricing_plan_id":"cebpf4jnsgd1na2vs0mg"},{"bike_id":"6a6cde56-543d-4320-b530-a8d4d4944794","system_id":"levelo_inurba_marseille","lat":43.29874,"lon":5.43661,"is_reserved":false,"is_disabled":false,"rental_uris":{"android":"levelo://app?vid=6a6cde56-543d-4320-b530-a8d4d4944794","ios":"levelo://app?vid=6a6cde56-543d-4320-b530-a8d4d4944794"},"vehicle_type_id":"4","last_reported":1736082759,"current_range_meters":27600,"station_id":"ce4bhpp2rcd13ifvqhfg","pricing_plan_id":"cebpf4jnsgd1na2vs0mg"},{"bike_id":"c02b8437-04fc-4431-b65c-df50eb8211d6","system_id":"levelo_inurba_marseille","lat":43.28145,"lon":5.42658,"is_reserved":false,"is_disabled":false,"rental_uris":{"android":"levelo://app?vid=c02b8437-04fc-4431-b65c-df50eb8211d6","ios":"levelo://app?vid=c02b8437-04fc-4431-b65c-df50eb8211d6"},"vehicle_type_id":"4","last_reported":1736082759,"current_range_meters":32000,"station_id":"ce4bhnh2rcd13ifvqgug","pricing_plan_id":"cebpf4jnsgd1na2vs0mg"},{"bike_id":"bd609247-c05b-4bfd-8224-3974e4956916","system_id":"levelo_inurba_marseille","lat":43.30897,"lon":5.36931,"is_reserved":false,"is_disabled":true,"rental_uris":{"android":"levelo://app?vid=bd609247-c05b-4bfd-8224-3974e4956916","ios":"levelo://app?vid=bd609247-c05b-4bfd-8224-3974e4956916"},"vehicle_type_id":"4","last_reported":1736082759,"current_range_meters":32000,"station_id":"","pricing_plan_id":"cebpf4jnsgd1na2vs0mg"},{"bike_id":"d84701b0-2902-4d22-9d39-e83ce2cc37b5","system_id":"levelo_inurba_marseille","lat":43.29559,"lon":5.37518,"is_reserved":false,"is_disabled":false,"rental_uris":{"android":"levelo://app?vid=d84701b0-2902-4d22-9d39-e83ce2cc37b5","ios":"levelo://app?vid=d84701b0-2902-4d22-9d39-e83ce2cc37b5"},"vehicle_type_id":"4","last_reported":1736082759,"current_range_meters":38800,"station_id":"ce4bgh92rcd13ifvqb50","pricing_plan_id":"cebpf4jnsgd1na2vs0mg"},{"bike_id":"6a57460f-924c-4af0-b7ed-95637eee2780","system_id":"levelo_inurba_marseille","lat":43.29742,"lon":5.39351,"is_reserved":false,"is_disabled":false,"rental_uris":{"android":"levelo://app?vid=6a57460f-924c-4af0-b7ed-95637eee2780","ios":"levelo://app?vid=6a57460f-924c-4af0-b7ed-95637eee2780"},"vehicle_type_id":"4","last_reported":1736082759,"current_range_meters":38400,"station_id":"chh1huq6cuj3fo74tm60","pricing_plan_id":"cebpf4jnsgd1na2vs0mg"},{"bike_id":"6258cff8-4980-490d-ae23-30974cc87352","system_id":"levelo_inurba_marseille","lat":43.26718,"lon":5.38238,"is_reserved":false,"is_disabled":false,"rental_uris":{"android":"levelo://app?vid=6258cff8-4980-490d-ae23-30974cc87352","ios":"levelo://app?vid=6258cff8-4980-490d-ae23-30974cc87352"},"vehicle_type_id":"4","last_reported":1736082759,"current_range_meters":16000,"station_id":"ce4bhg92rcd13ifvqf90","pricing_plan_id":"cebpf4jnsgd1na2vs0mg"},{"bike_id":"50b46b06-9521-42f4-a35c-b326c9eae1f5","system_id":"levelo_inurba_marseille","lat":43.323595,"lon":5.388887,"is_reserved":false,"is_disabled":false,"rental_uris":{"android":"levelo://app?vid=50b46b06-9521-42f4-a35c-b326c9eae1f5","ios":"levelo://app?vid=50b46b06-9521-42f4-a35c-b326c9eae1f5"},"vehicle_type_id":"4","last_reported":1736082759,"current_range_meters":33200,"station_id":"ce4bhqp2rcd13ifvqhog","pricing_plan_id":"cebpf4jnsgd1na2vs0mg"},{"bike_id":"fcd16e0d-b382-47d7-be1f-8717b41cfd10","system_id":"levelo_inurba_marseille","lat":43.31268,"lon":5.40175,"is_reserved":false,"is_disabled":false,"rental_uris":{"android":"levelo://app?vid=fcd16e0d-b382-47d7-be1f-8717b41cfd10","ios":"levelo://app?vid=fcd16e0d-b382-47d7-be1f-8717b41cfd10"},"vehicle_type_id":"4","last_reported":1736082759,"current_range_meters":22800,"station_id":"ce4bh092rcd13ifvqd30","pricing_plan_id":"cebpf4jnsgd1na2vs0mg"},{"bike_id":"8d4566f5-07fe-47f4-85a6-9546b8b4eddd","system_id":"levelo_inurba_marseille","lat":43.25102,"lon":5.40367,"is_reserved":false,"is_disabled":false,"rental_uris":{"android":"levelo://app?vid=8d4566f5-07fe-47f4-85a6-9546b8b4eddd","ios":"levelo://app?vid=8d4566f5-07fe-47f4-85a6-9546b8b4eddd"},"vehicle_type_id":"4","last_reported":1736082759,"current_range_meters":38800,"station_id":"ce4bhlh2rcd13ifvqgig","pricing_plan_id":"cebpf4jnsgd1na2vs0mg"},{"bike_id":"237eb7a7-7331-4631-9377-6cdbdc6e4e98","system_id":"levelo_inurba_marseille","lat":43.26567,"lon":5.38994,"is_reserved":false,"is_disabled":true,"rental_uris":{"android":"levelo://app?vid=237eb7a7-7331-4631-9377-6cdbdc6e4e98","ios":"levelo://app?vid=237eb7a7-7331-4631-9377-6cdbdc6e4e98"},"vehicle_type_id":"4","last_reported":1736082759,"current_range_meters":38800,"station_id":"ce4bhe12rcd13ifvqf30","pricing_plan_id":"cebpf4jnsgd1na2vs0mg"},{"bike_id":"c837e269-2fb8-478e-932f-9cd07ec0aab1","system_id":"levelo_inurba_marseille","lat":43.251375,"lon":5.375361,"is_reserved":false,"is_disabled":true,"rental_uris":{"android":"levelo://app?vid=c837e269-2fb8-478e-932f-9cd07ec0aab1","ios":"levelo://app?vid=c837e269-2fb8-478e-932f-9cd07ec0aab1"},"vehicle_type_id":"4","last_reported":1736082759,"current_range_meters":0,"station_id":"","pricing_plan_id":"cebpf4jnsgd1na2vs0mg"},{"bike_id":"983a939f-0c90-4b41-8e07-1ba37a328643","system_id":"levelo_inurba_marseille","lat":43.24171,"lon":5.36401,"is_reserved":false,"is_disabled":false,"rental_uris":{"android":"levelo://app?vid=983a939f-0c90-4b41-8e07-1ba37a328643","ios":"levelo://app?vid=983a939f-0c90-4b41-8e07-1ba37a328643"},"vehicle_type_id":"4","last_reported":1736082759,"current_range_meters":21600,"station_id":"cpo36qri1sfpv3e86is0","pricing_plan_id":"cebpf4jnsgd1na2vs0mg"},{"bike_id":"e92918ec-92c9-453f-8a2f-aeaed83ac5fd","system_id":"levelo_inurba_marseille","lat":43.24079,"lon":5.37754,"is_reserved":false,"is_disabled":false,"rental_uris":{"android":"levelo://app?vid=e92918ec-92c9-453f-8a2f-aeaed83ac5fd","ios":"levelo://app?vid=e92918ec-92c9-453f-8a2f-aeaed83ac5fd"},"vehicle_type_id":"4","last_reported":1736082759,"current_range_meters":38800,"station_id":"ce4bhnp2rcd13ifvqgvg","pricing_plan_id":"cebpf4jnsgd1na2vs0mg"},{"bike_id":"2744d3d7-1c79-4955-8dfb-cd899dddfff5","system_id":"levelo_inurba_marseille","lat":43.28424,"lon":5.39219,"is_reserved":false,"is_disabled":false,"rental_uris":{"android":"levelo://app?vid=2744d3d7-1c79-4955-8dfb-cd899dddfff5","ios":"levelo://app?vid=2744d3d7-1c79-4955-8dfb-cd899dddfff5"},"vehicle_type_id":"4","last_reported":1736082759,"current_range_meters":38400,"station_id":"ce4bhoh2rcd13ifvqh5g","pricing_plan_id":"cebpf4jnsgd1na2vs0mg"},{"bike_id":"1f95228b-2707-4808-8d35-1365263ec69f","system_id":"levelo_inurba_marseille","lat":43.29934,"lon":5.36538,"is_reserved":false,"is_disabled":false,"rental_uris":{"android":"levelo://app?vid=1f95228b-2707-4808-8d35-1365263ec69f","ios":"levelo://app?vid=1f95228b-2707-4808-8d35-1365263ec69f"},"vehicle_type_id":"4","last_reported":1736082759,"current_range_meters":22000,"station_id":"ce4bgm92rcd13ifvqbr0","pricing_plan_id":"cebpf4jnsgd1na2vs0mg"},{"bike_id":"32fac1ac-160b-43ec-a560-a05ca5d5e872","system_id":"levelo_inurba_marseille","lat":43.318951,"lon":5.407325,"is_reserved":false,"is_disabled":false,"rental_uris":{"android":"levelo://app?vid=32fac1ac-160b-43ec-a560-a05ca5d5e872","ios":"levelo://app?vid=32fac1ac-160b-43ec-a560-a05ca5d5e872"},"vehicle_type_id":"4","last_reported":1736082759,"current_range_meters":38800,"station_id":"ce4bhq12rcd13ifvqhig","pricing_plan_id":"cebpf4jnsgd1na2vs0mg"},{"bike_id":"be8ef685-e8b1-4c4a-8312-a7768d85aa72","system_id":"levelo_inurba_marseille","lat":43.23959,"lon":5.36636,"is_reserved":false,"is_disabled":false,"rental_uris":{"android":"levelo://app?vid=be8ef685-e8b1-4c4a-8312-a7768d85aa72","ios":"levelo://app?vid=be8ef685-e8b1-4c4a-8312-a7768d85aa72"},"vehicle_type_id":"4","last_reported":1736082759,"current_range_meters":30800,"station_id":"ce4bhi12rcd13ifvqfp0","pricing_plan_id":"cebpf4jnsgd1na2vs0mg"},{"bike_id":"d9e96bf2-bb67-40b5-86d6-756fa3bff37c","system_id":"levelo_inurba_marseille","lat":43.29792,"lon":5.381,"is_reserved":false,"is_disabled":false,"rental_uris":{"android":"levelo://app?vid=d9e96bf2-bb67-40b5-86d6-756fa3bff37c","ios":"levelo://app?vid=d9e96bf2-bb67-40b5-86d6-756fa3bff37c"},"vehicle_type_id":"4","last_reported":1736082759,"current_range_meters":34000,"station_id":"ce4bgip2rcd13ifvqbb0","pricing_plan_id":"cebpf4jnsgd1na2vs0mg"},{"bike_id":"d9288af1-5f8c-4fd9-8c46-d082ffb038e4","system_id":"levelo_inurba_marseille","lat":43.27186,"lon":5.40987,"is_reserved":false,"is_disabled":false,"rental_uris":{"android":"levelo://app?vid=d9288af1-5f8c-4fd9-8c46-d082ffb038e4","ios":"levelo://app?vid=d9288af1-5f8c-4fd9-8c46-d082ffb038e4"},"vehicle_type_id":"4","last_reported":1736082759,"current_range_meters":38800,"station_id":"ce4bhl12rcd13ifvqgf0","pricing_plan_id":"cebpf4jnsgd1na2vs0mg"},{"bike_id":"cca2f7c7-45e7-4f8a-80d9-cffca2b70c93","system_id":"levelo_inurba_marseille","lat":43.26697,"lon":5.38277,"is_reserved":false,"is_disabled":true,"rental_uris":{"android":"levelo://app?vid=cca2f7c7-45e7-4f8a-80d9-cffca2b70c93","ios":"levelo://app?vid=cca2f7c7-45e7-4f8a-80d9-cffca2b70c93"},"vehicle_type_id":"4","last_reported":1736082759,"current_range_meters":38800,"station_id":"ce4bhg92rcd13ifvqf90","pricing_plan_id":"cebpf4jnsgd1na2vs0mg"},{"bike_id":"f4da3421-c1ef-415d-bec2-78360a6a0213","system_id":"levelo_inurba_marseille","lat":43.30524,"lon":5.3656,"is_reserved":false,"is_disabled":false,"rental_uris":{"android":"levelo://app?vid=f4da3421-c1ef-415d-bec2-78360a6a0213","ios":"levelo://app?vid=f4da3421-c1ef-415d-bec2-78360a6a0213"},"vehicle_type_id":"4","last_reported":1736082759,"current_range_meters":38800,"station_id":"ce4bgs12rcd13ifvqcag","pricing_plan_id":"cebpf4jnsgd1na2vs0mg"},{"bike_id":"ee8c1d47-4940-4958-a47f-9b1fe679f986","system_id":"levelo_inurba_marseille","lat":43.23184,"lon":5.39994,"is_reserved":false,"is_disabled":false,"rental_uris":{"android":"levelo://app?vid=ee8c1d47-4940-4958-a47f-9b1fe679f986","ios":"levelo://app?vid=ee8c1d47-4940-4958-a47f-9b1fe679f986"},"vehicle_type_id":"4","last_reported":1736082759,"current_range_meters":11200,"station_id":"ce4bhn12rcd13ifvqgqg","pricing_plan_id":"cebpf4jnsgd1na2vs0mg"},{"bike_id":"1d889d92-122f-4ede-978f-63961fe2cb70","system_id":"levelo_inurba_marseille","lat":43.30209,"lon":5.39462,"is_reserved":false,"is_disabled":false,"rental_uris":{"android":"levelo://app?vid=1d889d92-122f-4ede-978f-63961fe2cb70","ios":"levelo://app?vid=1d889d92-122f-4ede-978f-63961fe2cb70"},"vehicle_type_id":"4","last_reported":1736082759,"current_range_meters":38800,"station_id":"ce4bh0p2rcd13ifvqd70","pricing_plan_id":"cebpf4jnsgd1na2vs0mg"},{"bike_id":"120f4173-6ab3-4597-b9f3-e7aad9f5e7ca","system_id":"levelo_inurba_marseille","lat":43.29028,"lon":5.38638,"is_reserved":false,"is_disabled":false,"rental_uris":{"android":"levelo://app?vid=120f4173-6ab3-4597-b9f3-e7aad9f5e7ca","ios":"levelo://app?vid=120f4173-6ab3-4597-b9f3-e7aad9f5e7ca"},"vehicle_type_id":"4","last_reported":1736082759,"current_range_meters":38400,"station_id":"ce4bh4p2rcd13ifvqe0g","pricing_plan_id":"cebpf4jnsgd1na2vs0mg"},{"bike_id":"182c8827-ad8b-4aa6-9862-5b2da55309dc","system_id":"levelo_inurba_marseille","lat":43.29205,"lon":5.36075,"is_reserved":false,"is_disabled":true,"rental_uris":{"android":"levelo://app?vid=182c8827-ad8b-4aa6-9862-5b2da55309dc","ios":"levelo://app?vid=182c8827-ad8b-4aa6-9862-5b2da55309dc"},"vehicle_type_id":"4","last_reported":1736082759,"current_range_meters":38800,"station_id":"ce4bhbh2rcd13ifvqeqg","pricing_plan_id":"cebpf4jnsgd1na2vs0mg"},{"bike_id":"b4451bbb-9a4b-4792-8dd0-0107ff9c33c9","system_id":"levelo_inurba_marseille","lat":43.30363,"lon":5.41878,"is_reserved":false,"is_disabled":false,"rental_uris":{"android":"levelo://app?vid=b4451bbb-9a4b-4792-8dd0-0107ff9c33c9","ios":"levelo://app?vid=b4451bbb-9a4b-4792-8dd0-0107ff9c33c9"},"vehicle_type_id":"4","last_reported":1736082759,"current_range_meters":38800,"station_id":"ce4bhop2rcd13ifvqh7g","pricing_plan_id":"cebpf4jnsgd1na2vs0mg"},{"bike_id":"d8b76d84-2dfc-400f-9630-9e7b0787e9cc","system_id":"levelo_inurba_marseille","lat":43.27505,"lon":5.42462,"is_reserved":false,"is_disabled":true,"rental_uris":{"android":"levelo://app?vid=d8b76d84-2dfc-400f-9630-9e7b0787e9cc","ios":"levelo://app?vid=d8b76d84-2dfc-400f-9630-9e7b0787e9cc"},"vehicle_type_id":"4","last_reported":1736082759,"current_range_meters":38800,"station_id":"ce4bhn92rcd13ifvqgrg","pricing_plan_id":"cebpf4jnsgd1na2vs0mg"},{"bike_id":"36c536eb-1360-41be-bd6b-c886626c8827","system_id":"levelo_inurba_marseille","lat":43.3033,"lon":5.40436,"is_reserved":false,"is_disabled":false,"rental_uris":{"android":"levelo://app?vid=36c536eb-1360-41be-bd6b-c886626c8827","ios":"levelo://app?vid=36c536eb-1360-41be-bd6b-c886626c8827"},"vehicle_type_id":"4","last_reported":1736082759,"current_range_meters":24400,"station_id":"ce4bh012rcd13ifvqd10","pricing_plan_id":"cebpf4jnsgd1na2vs0mg"},{"bike_id":"eaecfcca-aa89-4e9a-8d17-c5be1539665b","system_id":"levelo_inurba_marseille","lat":43.282868,"lon":5.350721,"is_reserved":false,"is_disabled":true,"rental_uris":{"android":"levelo://app?vid=eaecfcca-aa89-4e9a-8d17-c5be1539665b","ios":"levelo://app?vid=eaecfcca-aa89-4e9a-8d17-c5be1539665b"},"vehicle_type_id":"4","last_reported":1736082759,"current_range_meters":38800,"station_id":"ce4bhbp2rcd13ifvqerg","pricing_plan_id":"cebpf4jnsgd1na2vs0mg"},{"bike_id":"bbf16901-1354-41cb-b2ef-aa011be26434","system_id":"levelo_inurba_marseille","lat":43.26806,"lon":5.40276,"is_reserved":false,"is_disabled":false,"rental_uris":{"android":"levelo://app?vid=bbf16901-1354-41cb-b2ef-aa011be26434","ios":"levelo://app?vid=bbf16901-1354-41cb-b2ef-aa011be26434"},"vehicle_type_id":"4","last_reported":1736082759,"current_range_meters":38800,"station_id":"ce501612rcd8frsf0b60","pricing_plan_id":"cebpf4jnsgd1na2vs0mg"},{"bike_id":"4e86006f-38d3-401d-be15-e8dd8ff28846","system_id":"levelo_inurba_marseille","lat":43.27884,"lon":5.38025,"is_reserved":false,"is_disabled":false,"rental_uris":{"android":"levelo://app?vid=4e86006f-38d3-401d-be15-e8dd8ff28846","ios":"levelo://app?vid=4e86006f-38d3-401d-be15-e8dd8ff28846"},"vehicle_type_id":"4","last_reported":1736082759,"current_range_meters":38800,"station_id":"ce4bhf92rcd13ifvqf50","pricing_plan_id":"cebpf4jnsgd1na2vs0mg"},{"bike_id":"223ffd4d-c77e-4428-badf-935f724297c0","system_id":"levelo_inurba_marseille","lat":43.23209,"lon":5.35555,"is_reserved":false,"is_disabled":false,"rental_uris":{"android":"levelo://app?vid=223ffd4d-c77e-4428-badf-935f724297c0","ios":"levelo://app?vid=223ffd4d-c77e-4428-badf-935f724297c0"},"vehicle_type_id":"4","last_reported":1736082759,"current_range_meters":8400,"station_id":"ce4bhu92rcd13ifvqi70","pricing_plan_id":"cebpf4jnsgd1na2vs0mg"},{"bike_id":"aef26b6f-9989-4cb4-a431-df8240762545","system_id":"levelo_inurba_marseille","lat":43.28485,"lon":5.38423,"is_reserved":false,"is_disabled":false,"rental_uris":{"android":"levelo://app?vid=aef26b6f-9989-4cb4-a431-df8240762545","ios":"levelo://app?vid=aef26b6f-9989-4cb4-a431-df8240762545"},"vehicle_type_id":"4","last_reported":1736082759,"current_range_meters":24800,"station_id":"ce4bh512rcd13ifvqe3g","pricing_plan_id":"cebpf4jnsgd1na2vs0mg"},{"bike_id":"4b95bc3d-118d-46d4-a1ef-6fc1b63fe941","system_id":"levelo_inurba_marseille","lat":43.28397,"lon":5.38618,"is_reserved":false,"is_disabled":false,"rental_uris":{"android":"levelo://app?vid=4b95bc3d-118d-46d4-a1ef-6fc1b63fe941","ios":"levelo://app?vid=4b95bc3d-118d-46d4-a1ef-6fc1b63fe941"},"vehicle_type_id":"4","last_reported":1736082759,"current_range_meters":6400,"station_id":"ce4bh492rcd13ifvqdvg","pricing_plan_id":"cebpf4jnsgd1na2vs0mg"},{"bike_id":"65676690-892d-4cc5-bb69-74adecc9cea4","system_id":"levelo_inurba_marseille","lat":43.28351,"lon":5.38632,"is_reserved":false,"is_disabled":false,"rental_uris":{"android":"levelo://app?vid=65676690-892d-4cc5-bb69-74adecc9cea4","ios":"levelo://app?vid=65676690-892d-4cc5-bb69-74adecc9cea4"},"vehicle_type_id":"4","last_reported":1736082759,"current_range_meters":38400,"station_id":"ce4bh492rcd13ifvqdvg","pricing_plan_id":"cebpf4jnsgd1na2vs0mg"},{"bike_id":"478b79ff-b061-464f-b89b-3fa6af477f65","system_id":"levelo_inurba_marseille","lat":43.28618,"lon":5.35103,"is_reserved":false,"is_disabled":false,"rental_uris":{"android":"levelo://app?vid=478b79ff-b061-464f-b89b-3fa6af477f65","ios":"levelo://app?vid=478b79ff-b061-464f-b89b-3fa6af477f65"},"vehicle_type_id":"4","last_reported":1736082759,"current_range_meters":30400,"station_id":"ce4bhch2rcd13ifvqeug","pricing_plan_id":"cebpf4jnsgd1na2vs0mg"},{"bike_id":"24bccac7-1e4b-45e8-bc23-0feeff5509f0","system_id":"levelo_inurba_marseille","lat":43.26494,"lon":5.39579,"is_reserved":false,"is_disabled":true,"rental_uris":{"android":"levelo://app?vid=24bccac7-1e4b-45e8-bc23-0feeff5509f0","ios":"levelo://app?vid=24bccac7-1e4b-45e8-bc23-0feeff5509f0"},"vehicle_type_id":"4","last_reported":1736082759,"current_range_meters":0,"station_id":"ce4bhi12rcd13ifvqfq0","pricing_plan_id":"cebpf4jnsgd1na2vs0mg"},{"bike_id":"05ee86a3-fb54-491f-9c49-ebdfce38b2e1","system_id":"levelo_inurba_marseille","lat":43.26213,"lon":5.37911,"is_reserved":false,"is_disabled":false,"rental_uris":{"android":"levelo://app?vid=05ee86a3-fb54-491f-9c49-ebdfce38b2e1","ios":"levelo://app?vid=05ee86a3-fb54-491f-9c49-ebdfce38b2e1"},"vehicle_type_id":"4","last_reported":1736082759,"current_range_meters":38800,"station_id":"ce4bhjp2rcd13ifvqg90","pricing_plan_id":"cebpf4jnsgd1na2vs0mg"},{"bike_id":"d400eb61-16e5-4772-875c-c1ea2e3b188d","system_id":"levelo_inurba_marseille","lat":43.27687,"lon":5.38941,"is_reserved":false,"is_disabled":true,"rental_uris":{"android":"levelo://app?vid=d400eb61-16e5-4772-875c-c1ea2e3b188d","ios":"levelo://app?vid=d400eb61-16e5-4772-875c-c1ea2e3b188d"},"vehicle_type_id":"4","last_reported":1736082759,"current_range_meters":800,"station_id":"ce4bhi12rcd13ifvqfo0","pricing_plan_id":"cebpf4jnsgd1na2vs0mg"},{"bike_id":"cb09a876-6570-4ef2-b224-6b3f8af875c5","system_id":"levelo_inurba_marseille","lat":43.29697,"lon":5.37277,"is_reserved":false,"is_disabled":false,"rental_uris":{"android":"levelo://app?vid=cb09a876-6570-4ef2-b224-6b3f8af875c5","ios":"levelo://app?vid=cb09a876-6570-4ef2-b224-6b3f8af875c5"},"vehicle_type_id":"4","last_reported":1736082759,"current_range_meters":39200,"station_id":"ce4bgk12rcd13ifvqbj0","pricing_plan_id":"cebpf4jnsgd1na2vs0mg"},{"bike_id":"d2604b32-78de-4aac-a3aa-0ae69e23be2d","system_id":"levelo_inurba_marseille","lat":43.28999,"lon":5.35617,"is_reserved":false,"is_disabled":false,"rental_uris":{"android":"levelo://app?vid=d2604b32-78de-4aac-a3aa-0ae69e23be2d","ios":"levelo://app?vid=d2604b32-78de-4aac-a3aa-0ae69e23be2d"},"vehicle_type_id":"4","last_reported":1736082759,"current_range_meters":37600,"station_id":"ce4bhb92rcd13ifvqen0","pricing_plan_id":"cebpf4jnsgd1na2vs0mg"},{"bike_id":"270f72ca-6ff0-4006-b955-8701cfe72efd","system_id":"levelo_inurba_marseille","lat":43.29201,"lon":5.401,"is_reserved":false,"is_disabled":true,"rental_uris":{"android":"levelo://app?vid=270f72ca-6ff0-4006-b955-8701cfe72efd","ios":"levelo://app?vid=270f72ca-6ff0-4006-b955-8701cfe72efd"},"vehicle_type_id":"4","last_reported":1736082759,"current_range_meters":1600,"station_id":"","pricing_plan_id":"cebpf4jnsgd1na2vs0mg"},{"bike_id":"dec48ff9-46f1-45b2-af89-3775a7227852","system_id":"levelo_inurba_marseille","lat":43.27374,"lon":5.36258,"is_reserved":false,"is_disabled":false,"rental_uris":{"android":"levelo://app?vid=dec48ff9-46f1-45b2-af89-3775a7227852","ios":"levelo://app?vid=dec48ff9-46f1-45b2-af89-3775a7227852"},"vehicle_type_id":"4","last_reported":1736082759,"current_range_meters":38800,"station_id":"ce4bhbh2rcd13ifvqeo0","pricing_plan_id":"cebpf4jnsgd1na2vs0mg"},{"bike_id":"177c1e4d-2fcb-4b52-a3bf-88a2132c12b4","system_id":"levelo_inurba_marseille","lat":43.28683,"lon":5.37401,"is_reserved":false,"is_disabled":true,"rental_uris":{"android":"levelo://app?vid=177c1e4d-2fcb-4b52-a3bf-88a2132c12b4","ios":"levelo://app?vid=177c1e4d-2fcb-4b52-a3bf-88a2132c12b4"},"vehicle_type_id":"4","last_reported":1736082759,"current_range_meters":2800,"station_id":"ce4bh3p2rcd13ifvqdq0","pricing_plan_id":"cebpf4jnsgd1na2vs0mg"},{"bike_id":"d45d0089-5e8c-41ac-a04c-9866c8dc94cc","system_id":"levelo_inurba_marseille","lat":43.23192,"lon":5.35556,"is_reserved":false,"is_disabled":false,"rental_uris":{"android":"levelo://app?vid=d45d0089-5e8c-41ac-a04c-9866c8dc94cc","ios":"levelo://app?vid=d45d0089-5e8c-41ac-a04c-9866c8dc94cc"},"vehicle_type_id":"4","last_reported":1736082759,"current_range_meters":11600,"station_id":"ce4bhu92rcd13ifvqi70","pricing_plan_id":"cebpf4jnsgd1na2vs0mg"},{"bike_id":"20567613-c640-4bb7-bf9c-473f7d73c57b","system_id":"levelo_inurba_marseille","lat":43.28355,"lon":5.38111,"is_reserved":false,"is_disabled":false,"rental_uris":{"android":"levelo://app?vid=20567613-c640-4bb7-bf9c-473f7d73c57b","ios":"levelo://app?vid=20567613-c640-4bb7-bf9c-473f7d73c57b"},"vehicle_type_id":"4","last_reported":1736082759,"current_range_meters":38000,"station_id":"ce4bh412rcd13ifvqdr0","pricing_plan_id":"cebpf4jnsgd1na2vs0mg"},{"bike_id":"b5de95e0-8f34-41aa-a5fc-c4e76e03a994","system_id":"levelo_inurba_marseille","lat":43.2809,"lon":5.39665,"is_reserved":false,"is_disabled":true,"rental_uris":{"android":"levelo://app?vid=b5de95e0-8f34-41aa-a5fc-c4e76e03a994","ios":"levelo://app?vid=b5de95e0-8f34-41aa-a5fc-c4e76e03a994"},"vehicle_type_id":"4","last_reported":1736082759,"current_range_meters":31200,"station_id":"ce4bho12rcd13ifvqh2g","pricing_plan_id":"cebpf4jnsgd1na2vs0mg"},{"bike_id":"aa33a53e-f806-43a8-ad7e-8e2bd9644426","system_id":"levelo_inurba_marseille","lat":43.32345,"lon":5.40629,"is_reserved":false,"is_disabled":true,"rental_uris":{"android":"levelo://app?vid=aa33a53e-f806-43a8-ad7e-8e2bd9644426","ios":"levelo://app?vid=aa33a53e-f806-43a8-ad7e-8e2bd9644426"},"vehicle_type_id":"4","last_reported":1736082759,"current_range_meters":0,"station_id":"ce4bhq92rcd13ifvqhjg","pricing_plan_id":"cebpf4jnsgd1na2vs0mg"},{"bike_id":"b9dc4ae5-8ee5-4a0e-8a96-a2e835ae7769","system_id":"levelo_inurba_marseille","lat":43.243929,"lon":5.370598,"is_reserved":false,"is_disabled":false,"rental_uris":{"android":"levelo://app?vid=b9dc4ae5-8ee5-4a0e-8a96-a2e835ae7769","ios":"levelo://app?vid=b9dc4ae5-8ee5-4a0e-8a96-a2e835ae7769"},"vehicle_type_id":"4","last_reported":1736082759,"current_range_meters":12800,"station_id":"ce4bhhh2rcd13ifvqfk0","pricing_plan_id":"cebpf4jnsgd1na2vs0mg"},{"bike_id":"be19a5cb-6dd8-4bfa-80d4-2363aed27b68","system_id":"levelo_inurba_marseille","lat":43.30266,"lon":5.38506,"is_reserved":false,"is_disabled":false,"rental_uris":{"android":"levelo://app?vid=be19a5cb-6dd8-4bfa-80d4-2363aed27b68","ios":"levelo://app?vid=be19a5cb-6dd8-4bfa-80d4-2363aed27b68"},"vehicle_type_id":"4","last_reported":1736082759,"current_range_meters":32000,"station_id":"","pricing_plan_id":"cebpf4jnsgd1na2vs0mg"},{"bike_id":"7e8fd350-fb1f-4e9d-a07c-4a5122cca9a5","system_id":"levelo_inurba_marseille","lat":43.30545,"lon":5.36544,"is_reserved":false,"is_disabled":false,"rental_uris":{"android":"levelo://app?vid=7e8fd350-fb1f-4e9d-a07c-4a5122cca9a5","ios":"levelo://app?vid=7e8fd350-fb1f-4e9d-a07c-4a5122cca9a5"},"vehicle_type_id":"4","last_reported":1736082759,"current_range_meters":38800,"station_id":"ce4bgs12rcd13ifvqcag","pricing_plan_id":"cebpf4jnsgd1na2vs0mg"},{"bike_id":"a29bd158-327f-4b9d-a43d-c1275652643a","system_id":"levelo_inurba_marseille","lat":43.3078,"lon":5.37661,"is_reserved":false,"is_disabled":false,"rental_uris":{"android":"levelo://app?vid=a29bd158-327f-4b9d-a43d-c1275652643a","ios":"levelo://app?vid=a29bd158-327f-4b9d-a43d-c1275652643a"},"vehicle_type_id":"4","last_reported":1736082759,"current_range_meters":37600,"station_id":"ce4bgv92rcd13ifvqcq0","pricing_plan_id":"cebpf4jnsgd1na2vs0mg"},{"bike_id":"45744d07-eb73-453c-b6ee-d9a256b9901b","system_id":"levelo_inurba_marseille","lat":43.30943,"lon":5.39026,"is_reserved":false,"is_disabled":true,"rental_uris":{"android":"levelo://app?vid=45744d07-eb73-453c-b6ee-d9a256b9901b","ios":"levelo://app?vid=45744d07-eb73-453c-b6ee-d9a256b9901b"},"vehicle_type_id":"4","last_reported":1736082759,"current_range_meters":14000,"station_id":"ce4bgup2rcd13ifvqco0","pricing_plan_id":"cebpf4jnsgd1na2vs0mg"},{"bike_id":"260cbe97-d375-408c-9f6d-296e9032ad78","system_id":"levelo_inurba_marseille","lat":43.30593,"lon":5.3722,"is_reserved":false,"is_disabled":false,"rental_uris":{"android":"levelo://app?vid=260cbe97-d375-408c-9f6d-296e9032ad78","ios":"levelo://app?vid=260cbe97-d375-408c-9f6d-296e9032ad78"},"vehicle_type_id":"4","last_reported":1736082759,"current_range_meters":34800,"station_id":"ce4bgqh2rcd13ifvqc4g","pricing_plan_id":"cebpf4jnsgd1na2vs0mg"},{"bike_id":"a4b49f45-757c-43f5-bd22-2dc89371c25b","system_id":"levelo_inurba_marseille","lat":43.27999,"lon":5.40024,"is_reserved":false,"is_disabled":false,"rental_uris":{"android":"levelo://app?vid=a4b49f45-757c-43f5-bd22-2dc89371c25b","ios":"levelo://app?vid=a4b49f45-757c-43f5-bd22-2dc89371c25b"},"vehicle_type_id":"4","last_reported":1736082759,"current_range_meters":19600,"station_id":"ce4bho92rcd13ifvqh4g","pricing_plan_id":"cebpf4jnsgd1na2vs0mg"},{"bike_id":"e14fc727-e110-4847-a3c5-e82ea6a6fcb8","system_id":"levelo_inurba_marseille","lat":43.28922,"lon":5.39645,"is_reserved":false,"is_disabled":true,"rental_uris":{"android":"levelo://app?vid=e14fc727-e110-4847-a3c5-e82ea6a6fcb8","ios":"levelo://app?vid=e14fc727-e110-4847-a3c5-e82ea6a6fcb8"},"vehicle_type_id":"4","last_reported":1736082759,"current_range_meters":36400,"station_id":"ce4bh3h2rcd13ifvqdn0","pricing_plan_id":"cebpf4jnsgd1na2vs0mg"},{"bike_id":"38dbac36-8814-46d4-9878-01f83603fbd2","system_id":"levelo_inurba_marseille","lat":43.30296,"lon":5.39195,"is_reserved":false,"is_disabled":false,"rental_uris":{"android":"levelo://app?vid=38dbac36-8814-46d4-9878-01f83603fbd2","ios":"levelo://app?vid=38dbac36-8814-46d4-9878-01f83603fbd2"},"vehicle_type_id":"4","last_reported":1736082759,"current_range_meters":38800,"station_id":"ce4bgkh2rcd13ifvqbk0","pricing_plan_id":"cebpf4jnsgd1na2vs0mg"},{"bike_id":"580940f3-ef75-4f9c-9ae6-41b888849fc1","system_id":"levelo_inurba_marseille","lat":43.29609,"lon":5.38095,"is_reserved":false,"is_disabled":false,"rental_uris":{"android":"levelo://app?vid=580940f3-ef75-4f9c-9ae6-41b888849fc1","ios":"levelo://app?vid=580940f3-ef75-4f9c-9ae6-41b888849fc1"},"vehicle_type_id":"4","last_reported":1736082759,"current_range_meters":27600,"station_id":"ce4bgl12rcd13ifvqbo0","pricing_plan_id":"cebpf4jnsgd1na2vs0mg"},{"bike_id":"cdde791c-00c7-4d4f-abe9-f9cd2bd23184","system_id":"levelo_inurba_marseille","lat":43.29789,"lon":5.38138,"is_reserved":false,"is_disabled":false,"rental_uris":{"android":"levelo://app?vid=cdde791c-00c7-4d4f-abe9-f9cd2bd23184","ios":"levelo://app?vid=cdde791c-00c7-4d4f-abe9-f9cd2bd23184"},"vehicle_type_id":"4","last_reported":1736082759,"current_range_meters":38400,"station_id":"ce4bgip2rcd13ifvqbb0","pricing_plan_id":"cebpf4jnsgd1na2vs0mg"},{"bike_id":"7e88380e-a90b-46fa-a451-cca1b7cfe610","system_id":"levelo_inurba_marseille","lat":43.23153,"lon":5.43706,"is_reserved":false,"is_disabled":false,"rental_uris":{"android":"levelo://app?vid=7e88380e-a90b-46fa-a451-cca1b7cfe610","ios":"levelo://app?vid=7e88380e-a90b-46fa-a451-cca1b7cfe610"},"vehicle_type_id":"4","last_reported":1736082759,"current_range_meters":25600,"station_id":"ce4bhmp2rcd13ifvqgog","pricing_plan_id":"cebpf4jnsgd1na2vs0mg"},{"bike_id":"ad539604-9e59-421d-a71a-49da59bdd974","system_id":"levelo_inurba_marseille","lat":43.29034,"lon":5.38648,"is_reserved":false,"is_disabled":true,"rental_uris":{"android":"levelo://app?vid=ad539604-9e59-421d-a71a-49da59bdd974","ios":"levelo://app?vid=ad539604-9e59-421d-a71a-49da59bdd974"},"vehicle_type_id":"4","last_reported":1736082759,"current_range_meters":28800,"station_id":"ce4bh4p2rcd13ifvqe0g","pricing_plan_id":"cebpf4jnsgd1na2vs0mg"},{"bike_id":"68b409ba-7a44-42dc-ae3b-6418ba6f5e03","system_id":"levelo_inurba_marseille","lat":43.29923,"lon":5.37485,"is_reserved":false,"is_disabled":false,"rental_uris":{"android":"levelo://app?vid=68b409ba-7a44-42dc-ae3b-6418ba6f5e03","ios":"levelo://app?vid=68b409ba-7a44-42dc-ae3b-6418ba6f5e03"},"vehicle_type_id":"4","last_reported":1736082759,"current_range_meters":38800,"station_id":"ce4bgjh2rcd13ifvqbg0","pricing_plan_id":"cebpf4jnsgd1na2vs0mg"},{"bike_id":"47482a76-601c-4d8d-9a9c-6565b981ebaf","system_id":"levelo_inurba_marseille","lat":43.29845,"lon":5.36276,"is_reserved":false,"is_disabled":false,"rental_uris":{"android":"levelo://app?vid=47482a76-601c-4d8d-9a9c-6565b981ebaf","ios":"levelo://app?vid=47482a76-601c-4d8d-9a9c-6565b981ebaf"},"vehicle_type_id":"4","last_reported":1736082759,"current_range_meters":22800,"station_id":"ce4bgpp2rcd13ifvqc3g","pricing_plan_id":"cebpf4jnsgd1na2vs0mg"},{"bike_id":"8a474426-cd46-4cf8-9edc-ef843a0ca02e","system_id":"levelo_inurba_marseille","lat":43.26531,"lon":5.39065,"is_reserved":false,"is_disabled":true,"rental_uris":{"android":"levelo://app?vid=8a474426-cd46-4cf8-9edc-ef843a0ca02e","ios":"levelo://app?vid=8a474426-cd46-4cf8-9edc-ef843a0ca02e"},"vehicle_type_id":"4","last_reported":1736082759,"current_range_meters":36800,"station_id":"","pricing_plan_id":"cebpf4jnsgd1na2vs0mg"},{"bike_id":"d0234cf8-3190-48a6-bab2-6c84efe1b44c","system_id":"levelo_inurba_marseille","lat":43.24805,"lon":5.37451,"is_reserved":false,"is_disabled":false,"rental_uris":{"android":"levelo://app?vid=d0234cf8-3190-48a6-bab2-6c84efe1b44c","ios":"levelo://app?vid=d0234cf8-3190-48a6-bab2-6c84efe1b44c"},"vehicle_type_id":"4","last_reported":1736082759,"current_range_meters":38000,"station_id":"ce4bhgh2rcd13ifvqfb0","pricing_plan_id":"cebpf4jnsgd1na2vs0mg"},{"bike_id":"bbf998ea-d252-4590-8711-16d78ff4b07c","system_id":"levelo_inurba_marseille","lat":43.24644,"lon":5.38893,"is_reserved":false,"is_disabled":false,"rental_uris":{"android":"levelo://app?vid=bbf998ea-d252-4590-8711-16d78ff4b07c","ios":"levelo://app?vid=bbf998ea-d252-4590-8711-16d78ff4b07c"},"vehicle_type_id":"4","last_reported":1736082759,"current_range_meters":34800,"station_id":"ce4bhg12rcd13ifvqf60","pricing_plan_id":"cebpf4jnsgd1na2vs0mg"},{"bike_id":"fc360652-cbf7-4f54-9091-081207b2fa0b","system_id":"levelo_inurba_marseille","lat":43.24385,"lon":5.37051,"is_reserved":false,"is_disabled":false,"rental_uris":{"android":"levelo://app?vid=fc360652-cbf7-4f54-9091-081207b2fa0b","ios":"levelo://app?vid=fc360652-cbf7-4f54-9091-081207b2fa0b"},"vehicle_type_id":"4","last_reported":1736082759,"current_range_meters":28400,"station_id":"ce4bhhh2rcd13ifvqfk0","pricing_plan_id":"cebpf4jnsgd1na2vs0mg"},{"bike_id":"af68d2e6-d7e3-4eb8-9cf5-37ac1985b5a3","system_id":"levelo_inurba_marseille","lat":43.23064,"lon":5.3549,"is_reserved":false,"is_disabled":false,"rental_uris":{"android":"levelo://app?vid=af68d2e6-d7e3-4eb8-9cf5-37ac1985b5a3","ios":"levelo://app?vid=af68d2e6-d7e3-4eb8-9cf5-37ac1985b5a3"},"vehicle_type_id":"4","last_reported":1736082759,"current_range_meters":17200,"station_id":"cpo3342slgdg3j2ifvpg","pricing_plan_id":"cebpf4jnsgd1na2vs0mg"},{"bike_id":"f5a4a49b-f269-4ec2-b80a-e579bf67a966","system_id":"levelo_inurba_marseille","lat":43.30884,"lon":5.36874,"is_reserved":false,"is_disabled":true,"rental_uris":{"android":"levelo://app?vid=f5a4a49b-f269-4ec2-b80a-e579bf67a966","ios":"levelo://app?vid=f5a4a49b-f269-4ec2-b80a-e579bf67a966"},"vehicle_type_id":"4","last_reported":1736082759,"current_range_meters":38800,"station_id":"ce4bgn92rcd13ifvqbvg","pricing_plan_id":"cebpf4jnsgd1na2vs0mg"},{"bike_id":"6f21fba1-6f8e-47c4-a476-286cca5f9cc6","system_id":"levelo_inurba_marseille","lat":43.28279,"lon":5.35086,"is_reserved":false,"is_disabled":true,"rental_uris":{"android":"levelo://app?vid=6f21fba1-6f8e-47c4-a476-286cca5f9cc6","ios":"levelo://app?vid=6f21fba1-6f8e-47c4-a476-286cca5f9cc6"},"vehicle_type_id":"4","last_reported":1736082759,"current_range_meters":0,"station_id":"ce4bhbp2rcd13ifvqerg","pricing_plan_id":"cebpf4jnsgd1na2vs0mg"},{"bike_id":"21f0e3c2-495a-43ca-b213-21dd4a411241","system_id":"levelo_inurba_marseille","lat":43.28437,"lon":5.39187,"is_reserved":false,"is_disabled":false,"rental_uris":{"android":"levelo://app?vid=21f0e3c2-495a-43ca-b213-21dd4a411241","ios":"levelo://app?vid=21f0e3c2-495a-43ca-b213-21dd4a411241"},"vehicle_type_id":"4","last_reported":1736082759,"current_range_meters":38000,"station_id":"ce4bhoh2rcd13ifvqh5g","pricing_plan_id":"cebpf4jnsgd1na2vs0mg"},{"bike_id":"e7eaf25f-df45-47d4-93df-369884d28080","system_id":"levelo_inurba_marseille","lat":43.27368,"lon":5.36261,"is_reserved":false,"is_disabled":false,"rental_uris":{"android":"levelo://app?vid=e7eaf25f-df45-47d4-93df-369884d28080","ios":"levelo://app?vid=e7eaf25f-df45-47d4-93df-369884d28080"},"vehicle_type_id":"4","last_reported":1736082759,"current_range_meters":36800,"station_id":"ce4bhbh2rcd13ifvqeo0","pricing_plan_id":"cebpf4jnsgd1na2vs0mg"},{"bike_id":"38809ded-326f-4e88-931a-d1e9ec76f027","system_id":"levelo_inurba_marseille","lat":43.28127,"lon":5.37854,"is_reserved":false,"is_disabled":false,"rental_uris":{"android":"levelo://app?vid=38809ded-326f-4e88-931a-d1e9ec76f027","ios":"levelo://app?vid=38809ded-326f-4e88-931a-d1e9ec76f027"},"vehicle_type_id":"4","last_reported":1736082759,"current_range_meters":38800,"station_id":"ce4bha12rcd13ifvqee0","pricing_plan_id":"cebpf4jnsgd1na2vs0mg"},{"bike_id":"68756992-624b-4bb3-93b4-523c5d4484b9","system_id":"levelo_inurba_marseille","lat":43.29165,"lon":5.38609,"is_reserved":false,"is_disabled":false,"rental_uris":{"android":"levelo://app?vid=68756992-624b-4bb3-93b4-523c5d4484b9","ios":"levelo://app?vid=68756992-624b-4bb3-93b4-523c5d4484b9"},"vehicle_type_id":"4","last_reported":1736082759,"current_range_meters":25600,"station_id":"","pricing_plan_id":"cebpf4jnsgd1na2vs0mg"},{"bike_id":"ef443292-d458-4b19-a906-ec8eebf1fa29","system_id":"levelo_inurba_marseille","lat":43.30602,"lon":5.37239,"is_reserved":false,"is_disabled":false,"rental_uris":{"android":"levelo://app?vid=ef443292-d458-4b19-a906-ec8eebf1fa29","ios":"levelo://app?vid=ef443292-d458-4b19-a906-ec8eebf1fa29"},"vehicle_type_id":"4","last_reported":1736082759,"current_range_meters":18000,"station_id":"ce4bgqh2rcd13ifvqc4g","pricing_plan_id":"cebpf4jnsgd1na2vs0mg"},{"bike_id":"0bcfea18-61ca-412d-bded-b63f59943884","system_id":"levelo_inurba_marseille","lat":43.28615,"lon":5.35103,"is_reserved":false,"is_disabled":true,"rental_uris":{"android":"levelo://app?vid=0bcfea18-61ca-412d-bded-b63f59943884","ios":"levelo://app?vid=0bcfea18-61ca-412d-bded-b63f59943884"},"vehicle_type_id":"4","last_reported":1736082759,"current_range_meters":38000,"station_id":"","pricing_plan_id":"cebpf4jnsgd1na2vs0mg"},{"bike_id":"42e288d8-6864-46bb-807b-8abbab24d426","system_id":"levelo_inurba_marseille","lat":43.28665,"lon":5.38673,"is_reserved":false,"is_disabled":false,"rental_uris":{"android":"levelo://app?vid=42e288d8-6864-46bb-807b-8abbab24d426","ios":"levelo://app?vid=42e288d8-6864-46bb-807b-8abbab24d426"},"vehicle_type_id":"4","last_reported":1736082759,"current_range_meters":7200,"station_id":"ce4bh492rcd13ifvqdug","pricing_plan_id":"cebpf4jnsgd1na2vs0mg"},{"bike_id":"4d29d8ee-0808-4f38-84d5-f152acc8459a","system_id":"levelo_inurba_marseille","lat":43.29583,"lon":5.37525,"is_reserved":false,"is_disabled":true,"rental_uris":{"android":"levelo://app?vid=4d29d8ee-0808-4f38-84d5-f152acc8459a","ios":"levelo://app?vid=4d29d8ee-0808-4f38-84d5-f152acc8459a"},"vehicle_type_id":"4","last_reported":1736082759,"current_range_meters":8800,"station_id":"ce4bgh92rcd13ifvqb50","pricing_plan_id":"cebpf4jnsgd1na2vs0mg"},{"bike_id":"85cba0a3-d6ec-4723-83bf-95316674cece","system_id":"levelo_inurba_marseille","lat":43.27569,"lon":5.38439,"is_reserved":false,"is_disabled":true,"rental_uris":{"android":"levelo://app?vid=85cba0a3-d6ec-4723-83bf-95316674cece","ios":"levelo://app?vid=85cba0a3-d6ec-4723-83bf-95316674cece"},"vehicle_type_id":"4","last_reported":1736082759,"current_range_meters":1200,"station_id":"ce4bhh92rcd13ifvqfi0","pricing_plan_id":"cebpf4jnsgd1na2vs0mg"},{"bike_id":"54ebb33f-05a4-4009-80c1-bc3f6de8f701","system_id":"levelo_inurba_marseille","lat":43.28368,"lon":5.37534,"is_reserved":false,"is_disabled":true,"rental_uris":{"android":"levelo://app?vid=54ebb33f-05a4-4009-80c1-bc3f6de8f701","ios":"levelo://app?vid=54ebb33f-05a4-4009-80c1-bc3f6de8f701"},"vehicle_type_id":"4","last_reported":1736082759,"current_range_meters":0,"station_id":"","pricing_plan_id":"cebpf4jnsgd1na2vs0mg"},{"bike_id":"eb322fa0-38c7-4498-8e9e-ec9b12e70d23","system_id":"levelo_inurba_marseille","lat":43.29917,"lon":5.36551,"is_reserved":false,"is_disabled":false,"rental_uris":{"android":"levelo://app?vid=eb322fa0-38c7-4498-8e9e-ec9b12e70d23","ios":"levelo://app?vid=eb322fa0-38c7-4498-8e9e-ec9b12e70d23"},"vehicle_type_id":"4","last_reported":1736082759,"current_range_meters":32400,"station_id":"ce4bgm92rcd13ifvqbr0","pricing_plan_id":"cebpf4jnsgd1na2vs0mg"},{"bike_id":"266d97a0-8b6a-4815-8e1e-a29e516886ab","system_id":"levelo_inurba_marseille","lat":43.32362,"lon":5.36817,"is_reserved":false,"is_disabled":false,"rental_uris":{"android":"levelo://app?vid=266d97a0-8b6a-4815-8e1e-a29e516886ab","ios":"levelo://app?vid=266d97a0-8b6a-4815-8e1e-a29e516886ab"},"vehicle_type_id":"4","last_reported":1736082759,"current_range_meters":32800,"station_id":"ce4bhsh2rcd13ifvqi2g","pricing_plan_id":"cebpf4jnsgd1na2vs0mg"},{"bike_id":"a7224998-3cd1-44ad-8892-e18e0ad97675","system_id":"levelo_inurba_marseille","lat":43.246557,"lon":5.381647,"is_reserved":false,"is_disabled":false,"rental_uris":{"android":"levelo://app?vid=a7224998-3cd1-44ad-8892-e18e0ad97675","ios":"levelo://app?vid=a7224998-3cd1-44ad-8892-e18e0ad97675"},"vehicle_type_id":"4","last_reported":1736082759,"current_range_meters":38800,"station_id":"ce4bhih2rcd13ifvqfr0","pricing_plan_id":"cebpf4jnsgd1na2vs0mg"},{"bike_id":"49d54c83-c277-42a3-85a0-cae2ef9bd92e","system_id":"levelo_inurba_marseille","lat":43.2944,"lon":5.38653,"is_reserved":false,"is_disabled":false,"rental_uris":{"android":"levelo://app?vid=49d54c83-c277-42a3-85a0-cae2ef9bd92e","ios":"levelo://app?vid=49d54c83-c277-42a3-85a0-cae2ef9bd92e"},"vehicle_type_id":"4","last_reported":1736082759,"current_range_meters":28000,"station_id":"ce4bh2h2rcd13ifvqdh0","pricing_plan_id":"cebpf4jnsgd1na2vs0mg"},{"bike_id":"44d006be-70be-45b8-b039-62d0905c3f17","system_id":"levelo_inurba_marseille","lat":43.28355,"lon":5.38126,"is_reserved":false,"is_disabled":false,"rental_uris":{"android":"levelo://app?vid=44d006be-70be-45b8-b039-62d0905c3f17","ios":"levelo://app?vid=44d006be-70be-45b8-b039-62d0905c3f17"},"vehicle_type_id":"4","last_reported":1736082759,"current_range_meters":32400,"station_id":"ce4bh412rcd13ifvqdr0","pricing_plan_id":"cebpf4jnsgd1na2vs0mg"},{"bike_id":"2937c8f0-6f06-4c7f-8240-41ad44bc55fa","system_id":"levelo_inurba_marseille","lat":43.23201,"lon":5.39993,"is_reserved":false,"is_disabled":false,"rental_uris":{"android":"levelo://app?vid=2937c8f0-6f06-4c7f-8240-41ad44bc55fa","ios":"levelo://app?vid=2937c8f0-6f06-4c7f-8240-41ad44bc55fa"},"vehicle_type_id":"4","last_reported":1736082759,"current_range_meters":21600,"station_id":"ce4bhn12rcd13ifvqgqg","pricing_plan_id":"cebpf4jnsgd1na2vs0mg"},{"bike_id":"c64b2e17-ecfc-463c-a656-f757a30f1981","system_id":"levelo_inurba_marseille","lat":43.27374,"lon":5.36246,"is_reserved":false,"is_disabled":false,"rental_uris":{"android":"levelo://app?vid=c64b2e17-ecfc-463c-a656-f757a30f1981","ios":"levelo://app?vid=c64b2e17-ecfc-463c-a656-f757a30f1981"},"vehicle_type_id":"4","last_reported":1736082759,"current_range_meters":28400,"station_id":"ce4bhbh2rcd13ifvqeo0","pricing_plan_id":"cebpf4jnsgd1na2vs0mg"},{"bike_id":"e0ee4d47-9ec0-42b1-97e1-6730629e9b12","system_id":"levelo_inurba_marseille","lat":43.2815,"lon":5.42642,"is_reserved":false,"is_disabled":false,"rental_uris":{"android":"levelo://app?vid=e0ee4d47-9ec0-42b1-97e1-6730629e9b12","ios":"levelo://app?vid=e0ee4d47-9ec0-42b1-97e1-6730629e9b12"},"vehicle_type_id":"4","last_reported":1736082759,"current_range_meters":27200,"station_id":"ce4bhnh2rcd13ifvqgug","pricing_plan_id":"cebpf4jnsgd1na2vs0mg"},{"bike_id":"425f29c7-b392-4559-9c0e-5c6a7964a8de","system_id":"levelo_inurba_marseille","lat":43.31124,"lon":5.37771,"is_reserved":false,"is_disabled":false,"rental_uris":{"android":"levelo://app?vid=425f29c7-b392-4559-9c0e-5c6a7964a8de","ios":"levelo://app?vid=425f29c7-b392-4559-9c0e-5c6a7964a8de"},"vehicle_type_id":"4","last_reported":1736082759,"current_range_meters":12400,"station_id":"ce4bgt92rcd13ifvqcg0","pricing_plan_id":"cebpf4jnsgd1na2vs0mg"},{"bike_id":"3c46e28e-59b4-4736-8918-310343d219ea","system_id":"levelo_inurba_marseille","lat":43.29881,"lon":5.39735,"is_reserved":false,"is_disabled":false,"rental_uris":{"android":"levelo://app?vid=3c46e28e-59b4-4736-8918-310343d219ea","ios":"levelo://app?vid=3c46e28e-59b4-4736-8918-310343d219ea"},"vehicle_type_id":"4","last_reported":1736082759,"current_range_meters":36000,"station_id":"ce4bh0h2rcd13ifvqd50","pricing_plan_id":"cebpf4jnsgd1na2vs0mg"},{"bike_id":"f49298c6-b208-404d-bb0c-160ccbda2eed","system_id":"levelo_inurba_marseille","lat":43.27989,"lon":5.4,"is_reserved":false,"is_disabled":true,"rental_uris":{"android":"levelo://app?vid=f49298c6-b208-404d-bb0c-160ccbda2eed","ios":"levelo://app?vid=f49298c6-b208-404d-bb0c-160ccbda2eed"},"vehicle_type_id":"4","last_reported":1736082759,"current_range_meters":38800,"station_id":"ce4bho92rcd13ifvqh4g","pricing_plan_id":"cebpf4jnsgd1na2vs0mg"},{"bike_id":"7335ef10-02a4-4635-bc52-71c0d1e86d2f","system_id":"levelo_inurba_marseille","lat":43.31369,"lon":5.38494,"is_reserved":false,"is_disabled":false,"rental_uris":{"android":"levelo://app?vid=7335ef10-02a4-4635-bc52-71c0d1e86d2f","ios":"levelo://app?vid=7335ef10-02a4-4635-bc52-71c0d1e86d2f"},"vehicle_type_id":"4","last_reported":1736082759,"current_range_meters":20400,"station_id":"ce4bgt92rcd13ifvqcf0","pricing_plan_id":"cebpf4jnsgd1na2vs0mg"},{"bike_id":"d014f699-d84d-436b-b3bf-8c059d18ea89","system_id":"levelo_inurba_marseille","lat":43.22923,"lon":5.35375,"is_reserved":false,"is_disabled":false,"rental_uris":{"android":"levelo://app?vid=d014f699-d84d-436b-b3bf-8c059d18ea89","ios":"levelo://app?vid=d014f699-d84d-436b-b3bf-8c059d18ea89"},"vehicle_type_id":"4","last_reported":1736082759,"current_range_meters":17200,"station_id":"cpo3532slgdg3j2ikp40","pricing_plan_id":"cebpf4jnsgd1na2vs0mg"},{"bike_id":"063ff9d7-98a5-4202-8b41-443712d43cfa","system_id":"levelo_inurba_marseille","lat":43.28158,"lon":5.42668,"is_reserved":false,"is_disabled":false,"rental_uris":{"android":"levelo://app?vid=063ff9d7-98a5-4202-8b41-443712d43cfa","ios":"levelo://app?vid=063ff9d7-98a5-4202-8b41-443712d43cfa"},"vehicle_type_id":"4","last_reported":1736082759,"current_range_meters":31200,"station_id":"ce4bhnh2rcd13ifvqgug","pricing_plan_id":"cebpf4jnsgd1na2vs0mg"},{"bike_id":"df861f19-9b69-431a-bd0d-ebaa33f4e781","system_id":"levelo_inurba_marseille","lat":43.30887,"lon":5.39629,"is_reserved":false,"is_disabled":false,"rental_uris":{"android":"levelo://app?vid=df861f19-9b69-431a-bd0d-ebaa33f4e781","ios":"levelo://app?vid=df861f19-9b69-431a-bd0d-ebaa33f4e781"},"vehicle_type_id":"4","last_reported":1736082759,"current_range_meters":38800,"station_id":"ce4bh012rcd13ifvqcv0","pricing_plan_id":"cebpf4jnsgd1na2vs0mg"},{"bike_id":"c420422e-e5ff-46aa-9ade-56c25e82f06d","system_id":"levelo_inurba_marseille","lat":43.23199,"lon":5.35545,"is_reserved":false,"is_disabled":false,"rental_uris":{"android":"levelo://app?vid=c420422e-e5ff-46aa-9ade-56c25e82f06d","ios":"levelo://app?vid=c420422e-e5ff-46aa-9ade-56c25e82f06d"},"vehicle_type_id":"4","last_reported":1736082759,"current_range_meters":39200,"station_id":"ce4bhu92rcd13ifvqi70","pricing_plan_id":"cebpf4jnsgd1na2vs0mg"},{"bike_id":"ef72cdb4-465d-4178-b952-49906f159c48","system_id":"levelo_inurba_marseille","lat":43.28158,"lon":5.42638,"is_reserved":false,"is_disabled":false,"rental_uris":{"android":"levelo://app?vid=ef72cdb4-465d-4178-b952-49906f159c48","ios":"levelo://app?vid=ef72cdb4-465d-4178-b952-49906f159c48"},"vehicle_type_id":"4","last_reported":1736082759,"current_range_meters":10800,"station_id":"ce4bhnh2rcd13ifvqgug","pricing_plan_id":"cebpf4jnsgd1na2vs0mg"},{"bike_id":"1b54cc74-69a1-4602-b400-407dced42f0e","system_id":"levelo_inurba_marseille","lat":43.26944,"lon":5.3864,"is_reserved":false,"is_disabled":false,"rental_uris":{"android":"levelo://app?vid=1b54cc74-69a1-4602-b400-407dced42f0e","ios":"levelo://app?vid=1b54cc74-69a1-4602-b400-407dced42f0e"},"vehicle_type_id":"4","last_reported":1736082759,"current_range_meters":28000,"station_id":"ce4bhh92rcd13ifvqfh0","pricing_plan_id":"cebpf4jnsgd1na2vs0mg"},{"bike_id":"a2fd8310-05b2-4353-a822-b449cc0178c4","system_id":"levelo_inurba_marseille","lat":43.2549,"lon":5.376548,"is_reserved":false,"is_disabled":false,"rental_uris":{"android":"levelo://app?vid=a2fd8310-05b2-4353-a822-b449cc0178c4","ios":"levelo://app?vid=a2fd8310-05b2-4353-a822-b449cc0178c4"},"vehicle_type_id":"4","last_reported":1736082759,"current_range_meters":2800,"station_id":"ce4bhh12rcd13ifvqff0","pricing_plan_id":"cebpf4jnsgd1na2vs0mg"},{"bike_id":"3a8437c3-0621-43b9-919d-157d9041ad0f","system_id":"levelo_inurba_marseille","lat":43.29911,"lon":5.37471,"is_reserved":false,"is_disabled":false,"rental_uris":{"android":"levelo://app?vid=3a8437c3-0621-43b9-919d-157d9041ad0f","ios":"levelo://app?vid=3a8437c3-0621-43b9-919d-157d9041ad0f"},"vehicle_type_id":"4","last_reported":1736082759,"current_range_meters":38800,"station_id":"ce4bgjh2rcd13ifvqbg0","pricing_plan_id":"cebpf4jnsgd1na2vs0mg"},{"bike_id":"83d1fcce-5530-4c3f-989c-31b7f42a2672","system_id":"levelo_inurba_marseille","lat":43.28406,"lon":5.37516,"is_reserved":false,"is_disabled":true,"rental_uris":{"android":"levelo://app?vid=83d1fcce-5530-4c3f-989c-31b7f42a2672","ios":"levelo://app?vid=83d1fcce-5530-4c3f-989c-31b7f42a2672"},"vehicle_type_id":"4","last_reported":1736082759,"current_range_meters":0,"station_id":"ce4bh412rcd13ifvqds0","pricing_plan_id":"cebpf4jnsgd1na2vs0mg"},{"bike_id":"0554e5bc-2853-46cd-9044-3887582bd3fa","system_id":"levelo_inurba_marseille","lat":43.31359,"lon":5.38486,"is_reserved":false,"is_disabled":false,"rental_uris":{"android":"levelo://app?vid=0554e5bc-2853-46cd-9044-3887582bd3fa","ios":"levelo://app?vid=0554e5bc-2853-46cd-9044-3887582bd3fa"},"vehicle_type_id":"4","last_reported":1736082759,"current_range_meters":30000,"station_id":"ce4bgt92rcd13ifvqcf0","pricing_plan_id":"cebpf4jnsgd1na2vs0mg"},{"bike_id":"356a3143-9440-4eff-a495-c7a882587be7","system_id":"levelo_inurba_marseille","lat":43.290187,"lon":5.38125,"is_reserved":false,"is_disabled":false,"rental_uris":{"android":"levelo://app?vid=356a3143-9440-4eff-a495-c7a882587be7","ios":"levelo://app?vid=356a3143-9440-4eff-a495-c7a882587be7"},"vehicle_type_id":"4","last_reported":1736082759,"current_range_meters":18000,"station_id":"ce4bh4p2rcd13ifvqe1g","pricing_plan_id":"cebpf4jnsgd1na2vs0mg"},{"bike_id":"d9f05ca2-aa83-475a-a303-4139e1dfed22","system_id":"levelo_inurba_marseille","lat":43.31506,"lon":5.37321,"is_reserved":false,"is_disabled":false,"rental_uris":{"android":"levelo://app?vid=d9f05ca2-aa83-475a-a303-4139e1dfed22","ios":"levelo://app?vid=d9f05ca2-aa83-475a-a303-4139e1dfed22"},"vehicle_type_id":"4","last_reported":1736082759,"current_range_meters":38800,"station_id":"ce4bgt12rcd13ifvqcd0","pricing_plan_id":"cebpf4jnsgd1na2vs0mg"},{"bike_id":"e9c200db-965f-4b2c-bd5a-0dc123dcc0e0","system_id":"levelo_inurba_marseille","lat":43.24657,"lon":5.38146,"is_reserved":false,"is_disabled":false,"rental_uris":{"android":"levelo://app?vid=e9c200db-965f-4b2c-bd5a-0dc123dcc0e0","ios":"levelo://app?vid=e9c200db-965f-4b2c-bd5a-0dc123dcc0e0"},"vehicle_type_id":"4","last_reported":1736082759,"current_range_meters":18000,"station_id":"ce4bhih2rcd13ifvqfr0","pricing_plan_id":"cebpf4jnsgd1na2vs0mg"},{"bike_id":"30d3061a-19f5-41a4-ac8e-b7ee39864e13","system_id":"levelo_inurba_marseille","lat":43.26943,"lon":5.4025,"is_reserved":false,"is_disabled":false,"rental_uris":{"android":"levelo://app?vid=30d3061a-19f5-41a4-ac8e-b7ee39864e13","ios":"levelo://app?vid=30d3061a-19f5-41a4-ac8e-b7ee39864e13"},"vehicle_type_id":"4","last_reported":1736082759,"current_range_meters":38000,"station_id":"cjm6bp8fraef2m0cb0m0","pricing_plan_id":"cebpf4jnsgd1na2vs0mg"},{"bike_id":"f3d77e72-0e00-4323-aa2f-62becd0e36f6","system_id":"levelo_inurba_marseille","lat":43.22929,"lon":5.35379,"is_reserved":false,"is_disabled":false,"rental_uris":{"android":"levelo://app?vid=f3d77e72-0e00-4323-aa2f-62becd0e36f6","ios":"levelo://app?vid=f3d77e72-0e00-4323-aa2f-62becd0e36f6"},"vehicle_type_id":"4","last_reported":1736082759,"current_range_meters":38800,"station_id":"cpo3532slgdg3j2ikp40","pricing_plan_id":"cebpf4jnsgd1na2vs0mg"},{"bike_id":"e4fb0db6-c070-4f7c-b34e-a54f29d45562","system_id":"levelo_inurba_marseille","lat":43.2799,"lon":5.41661,"is_reserved":false,"is_disabled":false,"rental_uris":{"android":"levelo://app?vid=e4fb0db6-c070-4f7c-b34e-a54f29d45562","ios":"levelo://app?vid=e4fb0db6-c070-4f7c-b34e-a54f29d45562"},"vehicle_type_id":"4","last_reported":1736082759,"current_range_meters":10800,"station_id":"ce4bho12rcd13ifvqh1g","pricing_plan_id":"cebpf4jnsgd1na2vs0mg"},{"bike_id":"085ac62d-3fc0-4277-b968-4ec9ae6fa791","system_id":"levelo_inurba_marseille","lat":43.30439,"lon":5.38895,"is_reserved":false,"is_disabled":false,"rental_uris":{"android":"levelo://app?vid=085ac62d-3fc0-4277-b968-4ec9ae6fa791","ios":"levelo://app?vid=085ac62d-3fc0-4277-b968-4ec9ae6fa791"},"vehicle_type_id":"4","last_reported":1736082759,"current_range_meters":24800,"station_id":"ce4bgk12rcd13ifvqbi0","pricing_plan_id":"cebpf4jnsgd1na2vs0mg"},{"bike_id":"64188d82-6394-4231-b62b-84ea26e2af75","system_id":"levelo_inurba_marseille","lat":43.30535,"lon":5.36709,"is_reserved":false,"is_disabled":false,"rental_uris":{"android":"levelo://app?vid=64188d82-6394-4231-b62b-84ea26e2af75","ios":"levelo://app?vid=64188d82-6394-4231-b62b-84ea26e2af75"},"vehicle_type_id":"4","last_reported":1736082759,"current_range_meters":16000,"station_id":"ce4bgrp2rcd13ifvqc9g","pricing_plan_id":"cebpf4jnsgd1na2vs0mg"},{"bike_id":"0c2252dc-9fb3-466a-86d2-5c1056f9f743","system_id":"levelo_inurba_marseille","lat":43.249985,"lon":5.389305,"is_reserved":false,"is_disabled":false,"rental_uris":{"android":"levelo://app?vid=0c2252dc-9fb3-466a-86d2-5c1056f9f743","ios":"levelo://app?vid=0c2252dc-9fb3-466a-86d2-5c1056f9f743"},"vehicle_type_id":"4","last_reported":1736082759,"current_range_meters":39200,"station_id":"ce4bhgp2rcd13ifvqfd0","pricing_plan_id":"cebpf4jnsgd1na2vs0mg"},{"bike_id":"70d1fae7-1346-4be5-88c1-c1dd75c31512","system_id":"levelo_inurba_marseille","lat":43.26062,"lon":5.39409,"is_reserved":false,"is_disabled":false,"rental_uris":{"android":"levelo://app?vid=70d1fae7-1346-4be5-88c1-c1dd75c31512","ios":"levelo://app?vid=70d1fae7-1346-4be5-88c1-c1dd75c31512"},"vehicle_type_id":"4","last_reported":1736082759,"current_range_meters":28400,"station_id":"ce4bhh92rcd13ifvqfj0","pricing_plan_id":"cebpf4jnsgd1na2vs0mg"},{"bike_id":"3ad4b63d-3050-40c2-8de7-90d7069746cd","system_id":"levelo_inurba_marseille","lat":43.28614,"lon":5.35114,"is_reserved":false,"is_disabled":false,"rental_uris":{"android":"levelo://app?vid=3ad4b63d-3050-40c2-8de7-90d7069746cd","ios":"levelo://app?vid=3ad4b63d-3050-40c2-8de7-90d7069746cd"},"vehicle_type_id":"4","last_reported":1736082759,"current_range_meters":28800,"station_id":"ce4bhch2rcd13ifvqeug","pricing_plan_id":"cebpf4jnsgd1na2vs0mg"},{"bike_id":"c4a48190-8d9a-463d-a570-4e46b701a6a8","system_id":"levelo_inurba_marseille","lat":43.2988,"lon":5.36299,"is_reserved":false,"is_disabled":false,"rental_uris":{"android":"levelo://app?vid=c4a48190-8d9a-463d-a570-4e46b701a6a8","ios":"levelo://app?vid=c4a48190-8d9a-463d-a570-4e46b701a6a8"},"vehicle_type_id":"4","last_reported":1736082759,"current_range_meters":35200,"station_id":"ce4bgpp2rcd13ifvqc3g","pricing_plan_id":"cebpf4jnsgd1na2vs0mg"},{"bike_id":"e4119df7-5c5f-475f-a778-de77d4683839","system_id":"levelo_inurba_marseille","lat":43.27974,"lon":5.38725,"is_reserved":false,"is_disabled":false,"rental_uris":{"android":"levelo://app?vid=e4119df7-5c5f-475f-a778-de77d4683839","ios":"levelo://app?vid=e4119df7-5c5f-475f-a778-de77d4683839"},"vehicle_type_id":"4","last_reported":1736082759,"current_range_meters":27600,"station_id":"ce4bhg12rcd13ifvqf80","pricing_plan_id":"cebpf4jnsgd1na2vs0mg"},{"bike_id":"defa2d01-331b-4e90-9646-0cd5cd8b698b","system_id":"levelo_inurba_marseille","lat":43.29562,"lon":5.37508,"is_reserved":false,"is_disabled":false,"rental_uris":{"android":"levelo://app?vid=defa2d01-331b-4e90-9646-0cd5cd8b698b","ios":"levelo://app?vid=defa2d01-331b-4e90-9646-0cd5cd8b698b"},"vehicle_type_id":"4","last_reported":1736082759,"current_range_meters":17200,"station_id":"ce4bgh92rcd13ifvqb50","pricing_plan_id":"cebpf4jnsgd1na2vs0mg"},