{"last_updated":1749622579,"ttl":60,"version":"2.2","data":{"bikes":[{"bike_id":"9ee821ac-a236-4a06-9401-3664b58ff4d8","system_id":"levelo_inurba_marseille","lat":43.3234,"lon":5.40617,"is_reserved":false,"is_disabled":false,"rental_uris":{"android":"levelo://app?vid=9ee821ac-a236-4a06-9401-3664b58ff4d8","ios":"levelo://app?vid=9ee821ac-a236-4a06-9401-3664b58ff4d8"},"vehicle_type_id":"4","last_reported":1749622579,"current_range_meters":2800,"station_id":"ce4bhq92rcd13ifvqhjg","pricing_plan_id":"cebpf4jnsgd1na2vs0mg"},{"bike_id":"dd67f108-95bf-4a1e-b619-4bb77e009c5b","system_id":"levelo_inurba_marseille","lat":43.29068,"lon":5.42764,"is_reserved":false,"is_disabled":false,"rental_uris":{"android":"levelo://app?vid=dd67f108-95bf-4a1e-b619-4bb77e009c5b","ios":"levelo://app?vid=dd67f108-95bf-4a1e-b619-4bb77e009c5b"},"vehicle_type_id":"4","last_reported":1749622579,"current_range_meters":3200,"station_id":"","pricing_plan_id":"cebpf4jnsgd1na2vs0mg"},{"bike_id":"c8dadf21-d8c4-4466-a44e-1b0e9ccc4058","system_id":"levelo_inurba_marseille","lat":43.30149,"lon":5.38086,"is_reserved":false,"is_disabled":false,"rental_uris":{"android":"levelo://app?vid=c8dadf21-d8c4-4466-a44e-1b0e9ccc4058","ios":"levelo://app?vid=c8dadf21-d8c4-4466-a44e-1b0e9ccc4058"},"vehicle_type_id":"4","last_reported":1749622579,"current_range_meters":3600,"station_id":"ce4bgjp2rcd13ifvqbh0","pricing_plan_id":"cebpf4jnsgd1na2vs0mg"},{"bike_id":"4dce6f41-71e9-4400-b8d9-0ba67ac98452","system_id":"levelo_inurba_marseille","lat":43.29044,"lon":5.39969,"is_reserved":false,"is_disabled":false,"rental_uris":{"android":"levelo://app?vid=4dce6f41-71e9-4400-b8d9-0ba67ac98452","ios":"levelo://app?vid=4dce6f41-71e9-4400-b8d9-0ba67ac98452"},"vehicle_type_id":"4","last_reported":1749622579,"current_range_meters":4000,"station_id":"ce4bh392rcd13ifvqdm0","pricing_plan_id":"cebpf4jnsgd1na2vs0mg"},{"bike_id":"88113087-f0bb-4133-ab2a-bbfce1f3d99a","system_id":"levelo_inurba_marseille","lat":43.3171,"lon":5.40437,"is_reserved":false,"is_disabled":true,"rental_uris":{"android":"levelo://app?vid=88113087-f0bb-4133-ab2a-bbfce1f3d99a","ios":"levelo://app?vid=88113087-f0bb-4133-ab2a-bbfce1f3d99a"},"vehicle_type_id":"4","last_reported":1749622579,"current_range_meters":4400,"station_id":"ce4bh012rcd13ifvqd00","pricing_plan_id":"cebpf4jnsgd1na2vs0mg"},{"bike_id":"89dc3ae7-288c-44b5-a05f-aec9cab9a2c5","system_id":"levelo_inurba_marseille","lat":43.30479,"lon":5.37909,"is_reserved":false,"is_disabled":false,"rental_uris":{"android":"levelo://app?vid=89dc3ae7-288c-44b5-a05f-aec9cab9a2c5","ios":"levelo://app?vid=89dc3ae7-288c-44b5-a05f-aec9cab9a2c5"},"vehicle_type_id":"4","last_reported":1749622579,"current_range_meters":4400,"station_id":"ce4bgup2rcd13ifvqcn0","pricing_plan_id":"cebpf4jnsgd1na2vs0mg"},{"bike_id":"4bbf18c4-952a-4eb4-8649-6803f058eaa5","system_id":"levelo_inurba_marseille","lat":43.33221,"lon":5.42864,"is_reserved":false,"is_disabled":false,"rental_uris":{"android":"levelo://app?vid=4bbf18c4-952a-4eb4-8649-6803f058eaa5","ios":"levelo://app?vid=4bbf18c4-952a-4eb4-8649-6803f058eaa5"},"vehicle_type_id":"4","last_reported":1749622579,"current_range_meters":4400,"station_id":"","pricing_plan_id":"cebpf4jnsgd1na2vs0mg"},{"bike_id":"3dfd0bdc-5347-4837-afd5-cedae3349545","system_id":"levelo_inurba_marseille","lat":43.23176,"lon":5.39996,"is_reserved":false,"is_disabled":false,"rental_uris":{"android":"levelo://app?vid=3dfd0bdc-5347-4837-afd5-cedae3349545","ios":"levelo://app?vid=3dfd0bdc-5347-4837-afd5-cedae3349545"},"vehicle_type_id":"4","last_reported":1749622579,"current_range_meters":4800,"station_id":"ce4bhn12rcd13ifvqgqg","pricing_plan_id":"cebpf4jnsgd1na2vs0mg"},{"bike_id":"c555f70c-866d-4d56-b60f-fdd3434007cf","system_id":"levelo_inurba_marseille","lat":43.290966,"lon":5.381626,"is_reserved":false,"is_disabled":true,"rental_uris":{"android":"levelo://app?vid=c555f70c-866d-4d56-b60f-fdd3434007cf","ios":"levelo://app?vid=c555f70c-866d-4d56-b60f-fdd3434007cf"},"vehicle_type_id":"4","last_reported":1749622579,"current_range_meters":4800,"station_id":"ce4bh512rcd13ifvqe2g","pricing_plan_id":"cebpf4jnsgd1na2vs0mg"},{"bike_id":"ada9a3b4-94fd-4147-aee9-d20e6f1ff6df","system_id":"levelo_inurba_marseille","lat":43.31362,"lon":5.38509,"is_reserved":false,"is_disabled":false,"rental_uris":{"android":"levelo://app?vid=ada9a3b4-94fd-4147-aee9-d20e6f1ff6df","ios":"levelo://app?vid=ada9a3b4-94fd-4147-aee9-d20e6f1ff6df"},"vehicle_type_id":"4","last_reported":1749622579,"current_range_meters":4800,"station_id":"ce4bgt92rcd13ifvqcf0","pricing_plan_id":"cebpf4jnsgd1na2vs0mg"},{"bike_id":"88febd41-fb4a-4499-886e-f4719eb106f4","system_id":"levelo_inurba_marseille","lat":43.26679,"lon":5.38269,"is_reserved":false,"is_disabled":false,"rental_uris":{"android":"levelo://app?vid=88febd41-fb4a-4499-886e-f4719eb106f4","ios":"levelo://app?vid=88febd41-fb4a-4499-886e-f4719eb106f4"},"vehicle_type_id":"4","last_reported":1749622579,"current_range_meters":4800,"station_id":"ce4bhg92rcd13ifvqf90","pricing_plan_id":"cebpf4jnsgd1na2vs0mg"},{"bike_id":"783fb3e4-49e0-49bd-a00e-3b817dfa3d18","system_id":"levelo_inurba_marseille","lat":43.31468,"lon":5.37293,"is_reserved":false,"is_disabled":false,"rental_uris":{"android":"levelo://app?vid=783fb3e4-49e0-49bd-a00e-3b817dfa3d18","ios":"levelo://app?vid=783fb3e4-49e0-49bd-a00e-3b817dfa3d18"},"vehicle_type_id":"4","last_reported":1749622579,"current_range_meters":5600,"station_id":"ce4bgt12rcd13ifvqcd0","pricing_plan_id":"cebpf4jnsgd1na2vs0mg"},{"bike_id":"08535aa6-1e67-4215-861a-95c1951c4cfb","system_id":"levelo_inurba_marseille","lat":43.28347,"lon":5.38111,"is_reserved":false,"is_disabled":false,"rental_uris":{"android":"levelo://app?vid=08535aa6-1e67-4215-861a-95c1951c4cfb","ios":"levelo://app?vid=08535aa6-1e67-4215-861a-95c1951c4cfb"},"vehicle_type_id":"4","last_reported":1749622579,"current_range_meters":6000,"station_id":"ce4bh412rcd13ifvqdr0","pricing_plan_id":"cebpf4jnsgd1na2vs0mg"},{"bike_id":"6f123618-8d2f-4321-8007-9ec4bf4b8ab3","system_id":"levelo_inurba_marseille","lat":43.25825,"lon":5.3944,"is_reserved":false,"is_disabled":false,"rental_uris":{"android":"levelo://app?vid=6f123618-8d2f-4321-8007-9ec4bf4b8ab3","ios":"levelo://app?vid=6f123618-8d2f-4321-8007-9ec4bf4b8ab3"},"vehicle_type_id":"4","last_reported":1749622579,"current_range_meters":6400,"station_id":"ce4bhip2rcd13ifvqft0","pricing_plan_id":"cebpf4jnsgd1na2vs0mg"},{"bike_id":"ad71e23a-99c1-4fdb-810d-ee1cd1fb36f4","system_id":"levelo_inurba_marseille","lat":43.30464,"lon":5.37914,"is_reserved":false,"is_disabled":false,"rental_uris":{"android":"levelo://app?vid=ad71e23a-99c1-4fdb-810d-ee1cd1fb36f4","ios":"levelo://app?vid=ad71e23a-99c1-4fdb-810d-ee1cd1fb36f4"},"vehicle_type_id":"4","last_reported":1749622579,"current_range_meters":6400,"station_id":"ce4bgup2rcd13ifvqcn0","pricing_plan_id":"cebpf4jnsgd1na2vs0mg"},{"bike_id":"377e798d-9e1d-43b1-8b16-376695dae270","system_id":"levelo_inurba_marseille","lat":43.28697,"lon":5.39988,"is_reserved":false,"is_disabled":false,"rental_uris":{"android":"levelo://app?vid=377e798d-9e1d-43b1-8b16-376695dae270","ios":"levelo://app?vid=377e798d-9e1d-43b1-8b16-376695dae270"},"vehicle_type_id":"4","last_reported":1749622579,"current_range_meters":6400,"station_id":"ce4bho92rcd13ifvqh3g","pricing_plan_id":"cebpf4jnsgd1na2vs0mg"},{"bike_id":"33a7407a-f9ba-430d-abc6-01fe5e60108f","system_id":"levelo_inurba_marseille","lat":43.28735,"lon":5.40045,"is_reserved":false,"is_disabled":false,"rental_uris":{"android":"levelo://app?vid=33a7407a-f9ba-430d-abc6-01fe5e60108f","ios":"levelo://app?vid=33a7407a-f9ba-430d-abc6-01fe5e60108f"},"vehicle_type_id":"4","last_reported":1749622579,"current_range_meters":6400,"station_id":"ce4bho92rcd13ifvqh3g","pricing_plan_id":"cebpf4jnsgd1na2vs0mg"},{"bike_id":"c480b01d-e74a-4e3d-8514-9b730d6c8c09","system_id":"levelo_inurba_marseille","lat":43.28717,"lon":5.39956,"is_reserved":false,"is_disabled":false,"rental_uris":{"android":"levelo://app?vid=c480b01d-e74a-4e3d-8514-9b730d6c8c09","ios":"levelo://app?vid=c480b01d-e74a-4e3d-8514-9b730d6c8c09"},"vehicle_type_id":"4","last_reported":1749622579,"current_range_meters":6800,"station_id":"ce4bho92rcd13ifvqh3g","pricing_plan_id":"cebpf4jnsgd1na2vs0mg"},{"bike_id":"305b45c4-52b6-41c7-97ab-ef0fd5712026","system_id":"levelo_inurba_marseille","lat":43.2695,"lon":5.38636,"is_reserved":false,"is_disabled":false,"rental_uris":{"android":"levelo://app?vid=305b45c4-52b6-41c7-97ab-ef0fd5712026","ios":"levelo://app?vid=305b45c4-52b6-41c7-97ab-ef0fd5712026"},"vehicle_type_id":"4","last_reported":1749622579,"current_range_meters":6800,"station_id":"","pricing_plan_id":"cebpf4jnsgd1na2vs0mg"},{"bike_id":"49938379-7218-4c9f-884c-7e199e43a101","system_id":"levelo_inurba_marseille","lat":43.31686,"lon":5.4047,"is_reserved":false,"is_disabled":false,"rental_uris":{"android":"levelo://app?vid=49938379-7218-4c9f-884c-7e199e43a101","ios":"levelo://app?vid=49938379-7218-4c9f-884c-7e199e43a101"},"vehicle_type_id":"4","last_reported":1749622579,"current_range_meters":6800,"station_id":"ce4bh012rcd13ifvqd00","pricing_plan_id":"cebpf4jnsgd1na2vs0mg"},{"bike_id":"3924f8b3-f13b-4c6d-bf0e-03aef010c488","system_id":"levelo_inurba_marseille","lat":43.31497,"lon":5.37288,"is_reserved":false,"is_disabled":false,"rental_uris":{"android":"levelo://app?vid=3924f8b3-f13b-4c6d-bf0e-03aef010c488","ios":"levelo://app?vid=3924f8b3-f13b-4c6d-bf0e-03aef010c488"},"vehicle_type_id":"4","last_reported":1749622579,"current_range_meters":7200,"station_id":"ce4bgt12rcd13ifvqcd0","pricing_plan_id":"cebpf4jnsgd1na2vs0mg"},{"bike_id":"b1e81a2d-39af-4690-852c-a2189509d737","system_id":"levelo_inurba_marseille","lat":43.30642,"lon":5.4009,"is_reserved":false,"is_disabled":false,"rental_uris":{"android":"levelo://app?vid=b1e81a2d-39af-4690-852c-a2189509d737","ios":"levelo://app?vid=b1e81a2d-39af-4690-852c-a2189509d737"},"vehicle_type_id":"4","last_reported":1749622579,"current_range_meters":7200,"station_id":"ce4bh112rcd13ifvqda0","pricing_plan_id":"cebpf4jnsgd1na2vs0mg"},{"bike_id":"8aaf160b-5145-4216-8d8a-dbabf43143b3","system_id":"levelo_inurba_marseille","lat":43.31168,"lon":5.38716,"is_reserved":false,"is_disabled":false,"rental_uris":{"android":"levelo://app?vid=8aaf160b-5145-4216-8d8a-dbabf43143b3","ios":"levelo://app?vid=8aaf160b-5145-4216-8d8a-dbabf43143b3"},"vehicle_type_id":"4","last_reported":1749622579,"current_range_meters":7200,"station_id":"ce4bgv12rcd13ifvqcp0","pricing_plan_id":"cebpf4jnsgd1na2vs0mg"},{"bike_id":"66fac9ba-4e53-469d-8c0e-b15cb784136c","system_id":"levelo_inurba_marseille","lat":43.290555,"lon":5.371632,"is_reserved":false,"is_disabled":true,"rental_uris":{"android":"levelo://app?vid=66fac9ba-4e53-469d-8c0e-b15cb784136c","ios":"levelo://app?vid=66fac9ba-4e53-469d-8c0e-b15cb784136c"},"vehicle_type_id":"4","last_reported":1749622579,"current_range_meters":8000,"station_id":"ce4bh5p2rcd13ifvqe4g","pricing_plan_id":"cebpf4jnsgd1na2vs0mg"},{"bike_id":"11ef9da6-26f9-4893-919a-003f2d8531a7","system_id":"levelo_inurba_marseille","lat":43.29619,"lon":5.371599,"is_reserved":false,"is_disabled":false,"rental_uris":{"android":"levelo://app?vid=11ef9da6-26f9-4893-919a-003f2d8531a7","ios":"levelo://app?vid=11ef9da6-26f9-4893-919a-003f2d8531a7"},"vehicle_type_id":"4","last_reported":1749622579,"current_range_meters":8000,"station_id":"","pricing_plan_id":"cebpf4jnsgd1na2vs0mg"},{"bike_id":"b6285f6b-e9e7-470d-9b6d-1afe99ab71bf","system_id":"levelo_inurba_marseille","lat":43.261904,"lon":5.420768,"is_reserved":false,"is_disabled":false,"rental_uris":{"android":"levelo://app?vid=b6285f6b-e9e7-470d-9b6d-1afe99ab71bf","ios":"levelo://app?vid=b6285f6b-e9e7-470d-9b6d-1afe99ab71bf"},"vehicle_type_id":"4","last_reported":1749622579,"current_range_meters":8000,"station_id":"","pricing_plan_id":"cebpf4jnsgd1na2vs0mg"},{"bike_id":"e523f706-8c3e-4c14-b599-8e03c9d72beb","system_id":"levelo_inurba_marseille","lat":43.31733,"lon":5.40398,"is_reserved":false,"is_disabled":false,"rental_uris":{"android":"levelo://app?vid=e523f706-8c3e-4c14-b599-8e03c9d72beb","ios":"levelo://app?vid=e523f706-8c3e-4c14-b599-8e03c9d72beb"},"vehicle_type_id":"4","last_reported":1749622579,"current_range_meters":8000,"station_id":"ce4bh012rcd13ifvqd00","pricing_plan_id":"cebpf4jnsgd1na2vs0mg"},{"bike_id":"a9334c0d-cdfc-464f-8eab-e98192ed3454","system_id":"levelo_inurba_marseille","lat":43.29217,"lon":5.39954,"is_reserved":false,"is_disabled":false,"rental_uris":{"android":"levelo://app?vid=a9334c0d-cdfc-464f-8eab-e98192ed3454","ios":"levelo://app?vid=a9334c0d-cdfc-464f-8eab-e98192ed3454"},"vehicle_type_id":"4","last_reported":1749622579,"current_range_meters":8000,"station_id":"","pricing_plan_id":"cebpf4jnsgd1na2vs0mg"},{"bike_id":"3d59d2ec-b59a-43e8-abae-40ac02fdcdb8","system_id":"levelo_inurba_marseille","lat":43.29555,"lon":5.4228,"is_reserved":false,"is_disabled":false,"rental_uris":{"android":"levelo://app?vid=3d59d2ec-b59a-43e8-abae-40ac02fdcdb8","ios":"levelo://app?vid=3d59d2ec-b59a-43e8-abae-40ac02fdcdb8"},"vehicle_type_id":"4","last_reported":1749622579,"current_range_meters":8000,"station_id":"ce4bhph2rcd13ifvqhdg","pricing_plan_id":"cebpf4jnsgd1na2vs0mg"},{"bike_id":"01223f92-9a8a-44b1-a96e-0459a65a2d6e","system_id":"levelo_inurba_marseille","lat":43.30929,"lon":5.40133,"is_reserved":false,"is_disabled":false,"rental_uris":{"android":"levelo://app?vid=01223f92-9a8a-44b1-a96e-0459a65a2d6e","ios":"levelo://app?vid=01223f92-9a8a-44b1-a96e-0459a65a2d6e"},"vehicle_type_id":"4","last_reported":1749622579,"current_range_meters":8000,"station_id":"ce4bgvp2rcd13ifvqct0","pricing_plan_id":"cebpf4jnsgd1na2vs0mg"},{"bike_id":"39d32260-51d5-455a-ba53-6471389bd255","system_id":"levelo_inurba_marseille","lat":43.31979,"lon":5.37606,"is_reserved":false,"is_disabled":false,"rental_uris":{"android":"levelo://app?vid=39d32260-51d5-455a-ba53-6471389bd255","ios":"levelo://app?vid=39d32260-51d5-455a-ba53-6471389bd255"},"vehicle_type_id":"4","last_reported":1749622579,"current_range_meters":8000,"station_id":"","pricing_plan_id":"cebpf4jnsgd1na2vs0mg"},{"bike_id":"955c930c-c336-417f-bb8a-3d2b0a0f3d0c","system_id":"levelo_inurba_marseille","lat":43.27825,"lon":5.39158,"is_reserved":false,"is_disabled":true,"rental_uris":{"android":"levelo://app?vid=955c930c-c336-417f-bb8a-3d2b0a0f3d0c","ios":"levelo://app?vid=955c930c-c336-417f-bb8a-3d2b0a0f3d0c"},"vehicle_type_id":"4","last_reported":1749622579,"current_range_meters":8000,"station_id":"ce4bhjp2rcd13ifvqga0","pricing_plan_id":"cebpf4jnsgd1na2vs0mg"},{"bike_id":"89751972-2148-47e8-a9f5-6238a039cba7","system_id":"levelo_inurba_marseille","lat":43.305431,"lon":5.365348,"is_reserved":false,"is_disabled":true,"rental_uris":{"android":"levelo://app?vid=89751972-2148-47e8-a9f5-6238a039cba7","ios":"levelo://app?vid=89751972-2148-47e8-a9f5-6238a039cba7"},"vehicle_type_id":"4","last_reported":1749622579,"current_range_meters":8000,"station_id":"ce4bgs12rcd13ifvqcag","pricing_plan_id":"cebpf4jnsgd1na2vs0mg"},{"bike_id":"63b5796e-e5fa-4c08-b52b-4ffb68437406","system_id":"levelo_inurba_marseille","lat":43.31519,"lon":5.38392,"is_reserved":false,"is_disabled":false,"rental_uris":{"android":"levelo://app?vid=63b5796e-e5fa-4c08-b52b-4ffb68437406","ios":"levelo://app?vid=63b5796e-e5fa-4c08-b52b-4ffb68437406"},"vehicle_type_id":"4","last_reported":1749622579,"current_range_meters":8400,"station_id":"","pricing_plan_id":"cebpf4jnsgd1na2vs0mg"},{"bike_id":"48c38c29-26da-427c-909f-b2f4de14e81f","system_id":"levelo_inurba_marseille","lat":43.29705,"lon":5.37694,"is_reserved":false,"is_disabled":false,"rental_uris":{"android":"levelo://app?vid=48c38c29-26da-427c-909f-b2f4de14e81f","ios":"levelo://app?vid=48c38c29-26da-427c-909f-b2f4de14e81f"},"vehicle_type_id":"4","last_reported":1749622579,"current_range_meters":8400,"station_id":"ce4bgkh2rcd13ifvqbl0","pricing_plan_id":"cebpf4jnsgd1na2vs0mg"},{"bike_id":"c96defc4-7d86-4a0a-9944-e593e4547d0e","system_id":"levelo_inurba_marseille","lat":43.3235,"lon":5.40621,"is_reserved":false,"is_disabled":false,"rental_uris":{"android":"levelo://app?vid=c96defc4-7d86-4a0a-9944-e593e4547d0e","ios":"levelo://app?vid=c96defc4-7d86-4a0a-9944-e593e4547d0e"},"vehicle_type_id":"4","last_reported":1749622579,"current_range_meters":8400,"station_id":"ce4bhq92rcd13ifvqhjg","pricing_plan_id":"cebpf4jnsgd1na2vs0mg"},{"bike_id":"7fff9681-113f-4808-9b13-4b12e7d19f2f","system_id":"levelo_inurba_marseille","lat":43.30526,"lon":5.38428,"is_reserved":false,"is_disabled":false,"rental_uris":{"android":"levelo://app?vid=7fff9681-113f-4808-9b13-4b12e7d19f2f","ios":"levelo://app?vid=7fff9681-113f-4808-9b13-4b12e7d19f2f"},"vehicle_type_id":"4","last_reported":1749622579,"current_range_meters":8400,"station_id":"ce4bgg92rcd13ifvqb30","pricing_plan_id":"cebpf4jnsgd1na2vs0mg"},{"bike_id":"6890b9e2-87e1-40b6-9e0f-8af99f456400","system_id":"levelo_inurba_marseille","lat":43.295979,"lon":5.380991,"is_reserved":false,"is_disabled":false,"rental_uris":{"android":"levelo://app?vid=6890b9e2-87e1-40b6-9e0f-8af99f456400","ios":"levelo://app?vid=6890b9e2-87e1-40b6-9e0f-8af99f456400"},"vehicle_type_id":"4","last_reported":1749622579,"current_range_meters":8400,"station_id":"ce4bgl12rcd13ifvqbo0","pricing_plan_id":"cebpf4jnsgd1na2vs0mg"},{"bike_id":"5e6b1e47-16fd-488b-b7eb-507767b76ee6","system_id":"levelo_inurba_marseille","lat":43.26824,"lon":5.3908,"is_reserved":false,"is_disabled":false,"rental_uris":{"android":"levelo://app?vid=5e6b1e47-16fd-488b-b7eb-507767b76ee6","ios":"levelo://app?vid=5e6b1e47-16fd-488b-b7eb-507767b76ee6"},"vehicle_type_id":"4","last_reported":1749622579,"current_range_meters":8400,"station_id":"","pricing_plan_id":"cebpf4jnsgd1na2vs0mg"},{"bike_id":"1ab048e4-d16d-4228-b804-d09de6f24b1e","system_id":"levelo_inurba_marseille","lat":43.28709,"lon":5.37399,"is_reserved":false,"is_disabled":true,"rental_uris":{"android":"levelo://app?vid=1ab048e4-d16d-4228-b804-d09de6f24b1e","ios":"levelo://app?vid=1ab048e4-d16d-4228-b804-d09de6f24b1e"},"vehicle_type_id":"4","last_reported":1749622579,"current_range_meters":8400,"station_id":"ce4bh3p2rcd13ifvqdq0","pricing_plan_id":"cebpf4jnsgd1na2vs0mg"},{"bike_id":"125bd855-10ed-4a56-9707-403f3a8b58a0","system_id":"levelo_inurba_marseille","lat":43.33074,"lon":5.40499,"is_reserved":false,"is_disabled":false,"rental_uris":{"android":"levelo://app?vid=125bd855-10ed-4a56-9707-403f3a8b58a0","ios":"levelo://app?vid=125bd855-10ed-4a56-9707-403f3a8b58a0"},"vehicle_type_id":"4","last_reported":1749622579,"current_range_meters":8400,"station_id":"","pricing_plan_id":"cebpf4jnsgd1na2vs0mg"},{"bike_id":"2e93ed78-b264-4ca5-a2d9-a7ebecf279ff","system_id":"levelo_inurba_marseille","lat":43.31488,"lon":5.37299,"is_reserved":false,"is_disabled":false,"rental_uris":{"android":"levelo://app?vid=2e93ed78-b264-4ca5-a2d9-a7ebecf279ff","ios":"levelo://app?vid=2e93ed78-b264-4ca5-a2d9-a7ebecf279ff"},"vehicle_type_id":"4","last_reported":1749622579,"current_range_meters":8800,"station_id":"ce4bgt12rcd13ifvqcd0","pricing_plan_id":"cebpf4jnsgd1na2vs0mg"},{"bike_id":"a679cb80-4242-4d18-a97e-ea4a60dc83be","system_id":"levelo_inurba_marseille","lat":43.32198,"lon":5.41308,"is_reserved":false,"is_disabled":false,"rental_uris":{"android":"levelo://app?vid=a679cb80-4242-4d18-a97e-ea4a60dc83be","ios":"levelo://app?vid=a679cb80-4242-4d18-a97e-ea4a60dc83be"},"vehicle_type_id":"4","last_reported":1749622579,"current_range_meters":8800,"station_id":"","pricing_plan_id":"cebpf4jnsgd1na2vs0mg"},{"bike_id":"247bf4d1-ea2b-4e09-b584-ac3f9a91ae37","system_id":"levelo_inurba_marseille","lat":43.307887,"lon":5.4354,"is_reserved":false,"is_disabled":false,"rental_uris":{"android":"levelo://app?vid=247bf4d1-ea2b-4e09-b584-ac3f9a91ae37","ios":"levelo://app?vid=247bf4d1-ea2b-4e09-b584-ac3f9a91ae37"},"vehicle_type_id":"4","last_reported":1749622579,"current_range_meters":8800,"station_id":"ce4bhph2rcd13ifvqheg","pricing_plan_id":"cebpf4jnsgd1na2vs0mg"},{"bike_id":"9a6e0bfd-8a08-48d8-8290-696a41db3865","system_id":"levelo_inurba_marseille","lat":43.28414,"lon":5.37505,"is_reserved":false,"is_disabled":false,"rental_uris":{"android":"levelo://app?vid=9a6e0bfd-8a08-48d8-8290-696a41db3865","ios":"levelo://app?vid=9a6e0bfd-8a08-48d8-8290-696a41db3865"},"vehicle_type_id":"4","last_reported":1749622579,"current_range_meters":8800,"station_id":"ce4bh412rcd13ifvqds0","pricing_plan_id":"cebpf4jnsgd1na2vs0mg"},{"bike_id":"9c189fc1-31d7-4c63-9000-accea5ba2539","system_id":"levelo_inurba_marseille","lat":43.324822,"lon":5.365598,"is_reserved":false,"is_disabled":false,"rental_uris":{"android":"levelo://app?vid=9c189fc1-31d7-4c63-9000-accea5ba2539","ios":"levelo://app?vid=9c189fc1-31d7-4c63-9000-accea5ba2539"},"vehicle_type_id":"4","last_reported":1749622579,"current_range_meters":8800,"station_id":"ce4bhs12rcd13ifvqhvg","pricing_plan_id":"cebpf4jnsgd1na2vs0mg"},{"bike_id":"2fb82a4e-0ee1-4839-87e1-0819fb18ed3d","system_id":"levelo_inurba_marseille","lat":43.27067,"lon":5.42281,"is_reserved":false,"is_disabled":true,"rental_uris":{"android":"levelo://app?vid=2fb82a4e-0ee1-4839-87e1-0819fb18ed3d","ios":"levelo://app?vid=2fb82a4e-0ee1-4839-87e1-0819fb18ed3d"},"vehicle_type_id":"4","last_reported":1749622579,"current_range_meters":8800,"station_id":"ce4bhk92rcd13ifvqgb0","pricing_plan_id":"cebpf4jnsgd1na2vs0mg"},{"bike_id":"df0bf95e-b0d2-446e-9481-f5d66e904f86","system_id":"levelo_inurba_marseille","lat":43.30925,"lon":5.40179,"is_reserved":false,"is_disabled":false,"rental_uris":{"android":"levelo://app?vid=df0bf95e-b0d2-446e-9481-f5d66e904f86","ios":"levelo://app?vid=df0bf95e-b0d2-446e-9481-f5d66e904f86"},"vehicle_type_id":"4","last_reported":1749622579,"current_range_meters":8800,"station_id":"ce4bgvp2rcd13ifvqct0","pricing_plan_id":"cebpf4jnsgd1na2vs0mg"},{"bike_id":"b2b091c7-ef42-4c06-871f-fd9e224b498e","system_id":"levelo_inurba_marseille","lat":43.30926,"lon":5.40144,"is_reserved":false,"is_disabled":false,"rental_uris":{"android":"levelo://app?vid=b2b091c7-ef42-4c06-871f-fd9e224b498e","ios":"levelo://app?vid=b2b091c7-ef42-4c06-871f-fd9e224b498e"},"vehicle_type_id":"4","last_reported":1749622579,"current_range_meters":9200,"station_id":"ce4bgvp2rcd13ifvqct0","pricing_plan_id":"cebpf4jnsgd1na2vs0mg"},{"bike_id":"5077581b-cebb-46fc-ba69-4fa8272d4810","system_id":"levelo_inurba_marseille","lat":43.21367,"lon":5.35527,"is_reserved":false,"is_disabled":false,"rental_uris":{"android":"levelo://app?vid=5077581b-cebb-46fc-ba69-4fa8272d4810","ios":"levelo://app?vid=5077581b-cebb-46fc-ba69-4fa8272d4810"},"vehicle_type_id":"4","last_reported":1749622579,"current_range_meters":9200,"station_id":"","pricing_plan_id":"cebpf4jnsgd1na2vs0mg"},{"bike_id":"9ae94dbc-6c9c-4370-bbb2-11b87c1679bd","system_id":"levelo_inurba_marseille","lat":43.29035,"lon":5.39966,"is_reserved":false,"is_disabled":false,"rental_uris":{"android":"levelo://app?vid=9ae94dbc-6c9c-4370-bbb2-11b87c1679bd","ios":"levelo://app?vid=9ae94dbc-6c9c-4370-bbb2-11b87c1679bd"},"vehicle_type_id":"4","last_reported":1749622579,"current_range_meters":9200,"station_id":"ce4bh392rcd13ifvqdm0","pricing_plan_id":"cebpf4jnsgd1na2vs0mg"},{"bike_id":"29453fc9-b720-4b8b-b038-78f17aac8faf","system_id":"levelo_inurba_marseille","lat":43.27055,"lon":5.40245,"is_reserved":false,"is_disabled":false,"rental_uris":{"android":"levelo://app?vid=29453fc9-b720-4b8b-b038-78f17aac8faf","ios":"levelo://app?vid=29453fc9-b720-4b8b-b038-78f17aac8faf"},"vehicle_type_id":"4","last_reported":1749622579,"current_range_meters":9200,"station_id":"ce4bhk92rcd13ifvqgc0","pricing_plan_id":"cebpf4jnsgd1na2vs0mg"},{"bike_id":"f935a5a2-562f-4d55-bac2-51d657585022","system_id":"levelo_inurba_marseille","lat":43.29566,"lon":5.39999,"is_reserved":false,"is_disabled":false,"rental_uris":{"android":"levelo://app?vid=f935a5a2-562f-4d55-bac2-51d657585022","ios":"levelo://app?vid=f935a5a2-562f-4d55-bac2-51d657585022"},"vehicle_type_id":"4","last_reported":1749622579,"current_range_meters":9200,"station_id":"ce4bh312rcd13ifvqdj0","pricing_plan_id":"cebpf4jnsgd1na2vs0mg"},{"bike_id":"7f5ee4b7-b51a-45ef-95eb-3da5c43d879f","system_id":"levelo_inurba_marseille","lat":43.33606,"lon":5.41037,"is_reserved":false,"is_disabled":false,"rental_uris":{"android":"levelo://app?vid=7f5ee4b7-b51a-45ef-95eb-3da5c43d879f","ios":"levelo://app?vid=7f5ee4b7-b51a-45ef-95eb-3da5c43d879f"},"vehicle_type_id":"4","last_reported":1749622579,"current_range_meters":9200,"station_id":"ce4bhqh2rcd13ifvqhmg","pricing_plan_id":"cebpf4jnsgd1na2vs0mg"},{"bike_id":"5a8aebc1-4b9f-40cd-af06-b2c2750a7146","system_id":"levelo_inurba_marseille","lat":43.31755,"lon":5.39026,"is_reserved":false,"is_disabled":false,"rental_uris":{"android":"levelo://app?vid=5a8aebc1-4b9f-40cd-af06-b2c2750a7146","ios":"levelo://app?vid=5a8aebc1-4b9f-40cd-af06-b2c2750a7146"},"vehicle_type_id":"4","last_reported":1749622579,"current_range_meters":9200,"station_id":"ce4bhqp2rcd13ifvqhng","pricing_plan_id":"cebpf4jnsgd1na2vs0mg"},{"bike_id":"ea3aa8cc-3da5-4c9f-b785-438f25aae8ad","system_id":"levelo_inurba_marseille","lat":43.30934,"lon":5.40144,"is_reserved":false,"is_disabled":false,"rental_uris":{"android":"levelo://app?vid=ea3aa8cc-3da5-4c9f-b785-438f25aae8ad","ios":"levelo://app?vid=ea3aa8cc-3da5-4c9f-b785-438f25aae8ad"},"vehicle_type_id":"4","last_reported":1749622579,"current_range_meters":9600,"station_id":"ce4bgvp2rcd13ifvqct0","pricing_plan_id":"cebpf4jnsgd1na2vs0mg"},{"bike_id":"ca27e12a-1f2d-4cf2-be29-12a2b9ff1547","system_id":"levelo_inurba_marseille","lat":43.31711,"lon":5.42419,"is_reserved":false,"is_disabled":false,"rental_uris":{"android":"levelo://app?vid=ca27e12a-1f2d-4cf2-be29-12a2b9ff1547","ios":"levelo://app?vid=ca27e12a-1f2d-4cf2-be29-12a2b9ff1547"},"vehicle_type_id":"4","last_reported":1749622579,"current_range_meters":9600,"station_id":"ce4bhp92rcd13ifvqhbg","pricing_plan_id":"cebpf4jnsgd1na2vs0mg"},{"bike_id":"c96c724b-fbaf-464c-9798-7401c3f83174","system_id":"levelo_inurba_marseille","lat":43.30166,"lon":5.3809,"is_reserved":false,"is_disabled":false,"rental_uris":{"android":"levelo://app?vid=c96c724b-fbaf-464c-9798-7401c3f83174","ios":"levelo://app?vid=c96c724b-fbaf-464c-9798-7401c3f83174"},"vehicle_type_id":"4","last_reported":1749622579,"current_range_meters":10000,"station_id":"ce4bgjp2rcd13ifvqbh0","pricing_plan_id":"cebpf4jnsgd1na2vs0mg"},{"bike_id":"357ba489-6fde-4265-a087-406fcaeb1fac","system_id":"levelo_inurba_marseille","lat":43.292756,"lon":5.401358,"is_reserved":false,"is_disabled":false,"rental_uris":{"android":"levelo://app?vid=357ba489-6fde-4265-a087-406fcaeb1fac","ios":"levelo://app?vid=357ba489-6fde-4265-a087-406fcaeb1fac"},"vehicle_type_id":"4","last_reported":1749622579,"current_range_meters":10000,"station_id":"ce4bh312rcd13ifvqdk0","pricing_plan_id":"cebpf4jnsgd1na2vs0mg"},{"bike_id":"092dcad3-5c24-489f-9804-9bda75f06bc8","system_id":"levelo_inurba_marseille","lat":43.30945,"lon":5.4016,"is_reserved":false,"is_disabled":false,"rental_uris":{"android":"levelo://app?vid=092dcad3-5c24-489f-9804-9bda75f06bc8","ios":"levelo://app?vid=092dcad3-5c24-489f-9804-9bda75f06bc8"},"vehicle_type_id":"4","last_reported":1749622579,"current_range_meters":10000,"station_id":"ce4bgvp2rcd13ifvqct0","pricing_plan_id":"cebpf4jnsgd1na2vs0mg"},{"bike_id":"f840516d-f17b-447e-b7c7-a1e81a892e00","system_id":"levelo_inurba_marseille","lat":43.309222,"lon":5.401564,"is_reserved":false,"is_disabled":false,"rental_uris":{"android":"levelo://app?vid=f840516d-f17b-447e-b7c7-a1e81a892e00","ios":"levelo://app?vid=f840516d-f17b-447e-b7c7-a1e81a892e00"},"vehicle_type_id":"4","last_reported":1749622579,"current_range_meters":10000,"station_id":"ce4bgvp2rcd13ifvqct0","pricing_plan_id":"cebpf4jnsgd1na2vs0mg"},{"bike_id":"f1fb07d1-58fc-4a98-8566-d35611570f9f","system_id":"levelo_inurba_marseille","lat":43.310699,"lon":5.38352,"is_reserved":false,"is_disabled":false,"rental_uris":{"android":"levelo://app?vid=f1fb07d1-58fc-4a98-8566-d35611570f9f","ios":"levelo://app?vid=f1fb07d1-58fc-4a98-8566-d35611570f9f"},"vehicle_type_id":"4","last_reported":1749622579,"current_range_meters":10000,"station_id":"ce4bgv92rcd13ifvqcr0","pricing_plan_id":"cebpf4jnsgd1na2vs0mg"},{"bike_id":"ab5d796b-6f87-4b6e-a5bd-6ac051fcacd1","system_id":"levelo_inurba_marseille","lat":43.324867,"lon":5.365715,"is_reserved":false,"is_disabled":false,"rental_uris":{"android":"levelo://app?vid=ab5d796b-6f87-4b6e-a5bd-6ac051fcacd1","ios":"levelo://app?vid=ab5d796b-6f87-4b6e-a5bd-6ac051fcacd1"},"vehicle_type_id":"4","last_reported":1749622579,"current_range_meters":10000,"station_id":"ce4bhs12rcd13ifvqhvg","pricing_plan_id":"cebpf4jnsgd1na2vs0mg"},{"bike_id":"187b0a7b-e256-4c19-9794-bb250a6c5653","system_id":"levelo_inurba_marseille","lat":43.31836,"lon":5.3794,"is_reserved":false,"is_disabled":false,"rental_uris":{"android":"levelo://app?vid=187b0a7b-e256-4c19-9794-bb250a6c5653","ios":"levelo://app?vid=187b0a7b-e256-4c19-9794-bb250a6c5653"},"vehicle_type_id":"4","last_reported":1749622579,"current_range_meters":10000,"station_id":"","pricing_plan_id":"cebpf4jnsgd1na2vs0mg"},{"bike_id":"15138ce4-9850-4a09-9eb2-0da12393d0d8","system_id":"levelo_inurba_marseille","lat":43.317135,"lon":5.437023,"is_reserved":false,"is_disabled":false,"rental_uris":{"android":"levelo://app?vid=15138ce4-9850-4a09-9eb2-0da12393d0d8","ios":"levelo://app?vid=15138ce4-9850-4a09-9eb2-0da12393d0d8"},"vehicle_type_id":"4","last_reported":1749622579,"current_range_meters":10000,"station_id":"ce4bhp92rcd13ifvqhcg","pricing_plan_id":"cebpf4jnsgd1na2vs0mg"},{"bike_id":"537d336f-2a2f-4875-b278-6f911b5ecc78","system_id":"levelo_inurba_marseille","lat":43.298042,"lon":5.381054,"is_reserved":false,"is_disabled":false,"rental_uris":{"android":"levelo://app?vid=537d336f-2a2f-4875-b278-6f911b5ecc78","ios":"levelo://app?vid=537d336f-2a2f-4875-b278-6f911b5ecc78"},"vehicle_type_id":"4","last_reported":1749622579,"current_range_meters":10800,"station_id":"ce4bgip2rcd13ifvqbb0","pricing_plan_id":"cebpf4jnsgd1na2vs0mg"},{"bike_id":"6181a8f6-1227-49a1-9beb-bb1c37c1ae5c","system_id":"levelo_inurba_marseille","lat":43.27998,"lon":5.41645,"is_reserved":false,"is_disabled":true,"rental_uris":{"android":"levelo://app?vid=6181a8f6-1227-49a1-9beb-bb1c37c1ae5c","ios":"levelo://app?vid=6181a8f6-1227-49a1-9beb-bb1c37c1ae5c"},"vehicle_type_id":"4","last_reported":1749622579,"current_range_meters":10800,"station_id":"ce4bho12rcd13ifvqh1g","pricing_plan_id":"cebpf4jnsgd1na2vs0mg"},{"bike_id":"413191a8-b99c-4b21-ad14-c915925f20ff","system_id":"levelo_inurba_marseille","lat":43.280027,"lon":5.425,"is_reserved":false,"is_disabled":false,"rental_uris":{"android":"levelo://app?vid=413191a8-b99c-4b21-ad14-c915925f20ff","ios":"levelo://app?vid=413191a8-b99c-4b21-ad14-c915925f20ff"},"vehicle_type_id":"4","last_reported":1749622579,"current_range_meters":10800,"station_id":"","pricing_plan_id":"cebpf4jnsgd1na2vs0mg"},{"bike_id":"09fc93df-1b5b-4565-bebf-a33c16f5f13b","system_id":"levelo_inurba_marseille","lat":43.33128,"lon":5.38205,"is_reserved":false,"is_disabled":false,"rental_uris":{"android":"levelo://app?vid=09fc93df-1b5b-4565-bebf-a33c16f5f13b","ios":"levelo://app?vid=09fc93df-1b5b-4565-bebf-a33c16f5f13b"},"vehicle_type_id":"4","last_reported":1749622579,"current_range_meters":10800,"station_id":"","pricing_plan_id":"cebpf4jnsgd1na2vs0mg"},{"bike_id":"c30dbedc-c866-492b-a092-32c1ee0c1f22","system_id":"levelo_inurba_marseille","lat":43.2953,"lon":5.38551,"is_reserved":false,"is_disabled":true,"rental_uris":{"android":"levelo://app?vid=c30dbedc-c866-492b-a092-32c1ee0c1f22","ios":"levelo://app?vid=c30dbedc-c866-492b-a092-32c1ee0c1f22"},"vehicle_type_id":"4","last_reported":1749622579,"current_range_meters":10800,"station_id":"ce4bgih2rcd13ifvqba0","pricing_plan_id":"cebpf4jnsgd1na2vs0mg"},{"bike_id":"55b7171e-3eba-4412-b568-99c2bd3afd38","system_id":"levelo_inurba_marseille","lat":43.318968,"lon":5.407422,"is_reserved":false,"is_disabled":true,"rental_uris":{"android":"levelo://app?vid=55b7171e-3eba-4412-b568-99c2bd3afd38","ios":"levelo://app?vid=55b7171e-3eba-4412-b568-99c2bd3afd38"},"vehicle_type_id":"4","last_reported":1749622579,"current_range_meters":10800,"station_id":"ce4bhq12rcd13ifvqhig","pricing_plan_id":"cebpf4jnsgd1na2vs0mg"},{"bike_id":"41fdcea1-7cbd-4822-a36f-c2a76736c1b9","system_id":"levelo_inurba_marseille","lat":43.27064,"lon":5.40253,"is_reserved":false,"is_disabled":false,"rental_uris":{"android":"levelo://app?vid=41fdcea1-7cbd-4822-a36f-c2a76736c1b9","ios":"levelo://app?vid=41fdcea1-7cbd-4822-a36f-c2a76736c1b9"},"vehicle_type_id":"4","last_reported":1749622579,"current_range_meters":10800,"station_id":"ce4bhk92rcd13ifvqgc0","pricing_plan_id":"cebpf4jnsgd1na2vs0mg"},{"bike_id":"3ee6165b-b2c0-4036-a331-ec913cfc06b4","system_id":"levelo_inurba_marseille","lat":43.279059,"lon":5.380002,"is_reserved":false,"is_disabled":false,"rental_uris":{"android":"levelo://app?vid=3ee6165b-b2c0-4036-a331-ec913cfc06b4","ios":"levelo://app?vid=3ee6165b-b2c0-4036-a331-ec913cfc06b4"},"vehicle_type_id":"4","last_reported":1749622579,"current_range_meters":10800,"station_id":"ce4bhf92rcd13ifvqf50","pricing_plan_id":"cebpf4jnsgd1na2vs0mg"},{"bike_id":"1e20f032-0f6a-40b2-ad29-e4d2225496fa","system_id":"levelo_inurba_marseille","lat":43.30298,"lon":5.37005,"is_reserved":false,"is_disabled":false,"rental_uris":{"android":"levelo://app?vid=1e20f032-0f6a-40b2-ad29-e4d2225496fa","ios":"levelo://app?vid=1e20f032-0f6a-40b2-ad29-e4d2225496fa"},"vehicle_type_id":"4","last_reported":1749622579,"current_range_meters":10800,"station_id":"","pricing_plan_id":"cebpf4jnsgd1na2vs0mg"},{"bike_id":"24677b43-078a-4210-ad8c-935106b74628","system_id":"levelo_inurba_marseille","lat":43.303073,"lon":5.369132,"is_reserved":false,"is_disabled":false,"rental_uris":{"android":"levelo://app?vid=24677b43-078a-4210-ad8c-935106b74628","ios":"levelo://app?vid=24677b43-078a-4210-ad8c-935106b74628"},"vehicle_type_id":"4","last_reported":1749622579,"current_range_meters":10800,"station_id":"ce4bgqh2rcd13ifvqc5g","pricing_plan_id":"cebpf4jnsgd1na2vs0mg"},{"bike_id":"2909fdf1-5de0-4015-965c-4039eac7212a","system_id":"levelo_inurba_marseille","lat":43.31707,"lon":5.40465,"is_reserved":false,"is_disabled":false,"rental_uris":{"android":"levelo://app?vid=2909fdf1-5de0-4015-965c-4039eac7212a","ios":"levelo://app?vid=2909fdf1-5de0-4015-965c-4039eac7212a"},"vehicle_type_id":"4","last_reported":1749622579,"current_range_meters":11200,"station_id":"ce4bh012rcd13ifvqd00","pricing_plan_id":"cebpf4jnsgd1na2vs0mg"},{"bike_id":"236e422e-563d-45a9-89dd-b134d86f6f50","system_id":"levelo_inurba_marseille","lat":43.29225,"lon":5.3961,"is_reserved":false,"is_disabled":false,"rental_uris":{"android":"levelo://app?vid=236e422e-563d-45a9-89dd-b134d86f6f50","ios":"levelo://app?vid=236e422e-563d-45a9-89dd-b134d86f6f50"},"vehicle_type_id":"4","last_reported":1749622579,"current_range_meters":11200,"station_id":"","pricing_plan_id":"cebpf4jnsgd1na2vs0mg"},{"bike_id":"0917dc07-1198-4902-b422-c5fc9e6fcca4","system_id":"levelo_inurba_marseille","lat":43.31354,"lon":5.39707,"is_reserved":false,"is_disabled":false,"rental_uris":{"android":"levelo://app?vid=0917dc07-1198-4902-b422-c5fc9e6fcca4","ios":"levelo://app?vid=0917dc07-1198-4902-b422-c5fc9e6fcca4"},"vehicle_type_id":"4","last_reported":1749622579,"current_range_meters":11600,"station_id":"ce4bgvp2rcd13ifvqcu0","pricing_plan_id":"cebpf4jnsgd1na2vs0mg"},{"bike_id":"262903a9-22b9-4b2d-96c2-2e5dbd155090","system_id":"levelo_inurba_marseille","lat":43.32489,"lon":5.36565,"is_reserved":false,"is_disabled":false,"rental_uris":{"android":"levelo://app?vid=262903a9-22b9-4b2d-96c2-2e5dbd155090","ios":"levelo://app?vid=262903a9-22b9-4b2d-96c2-2e5dbd155090"},"vehicle_type_id":"4","last_reported":1749622579,"current_range_meters":12000,"station_id":"ce4bhs12rcd13ifvqhvg","pricing_plan_id":"cebpf4jnsgd1na2vs0mg"},{"bike_id":"ea3db42c-1bc7-40c9-b609-3062125a4bac","system_id":"levelo_inurba_marseille","lat":43.308,"lon":5.43521,"is_reserved":false,"is_disabled":false,"rental_uris":{"android":"levelo://app?vid=ea3db42c-1bc7-40c9-b609-3062125a4bac","ios":"levelo://app?vid=ea3db42c-1bc7-40c9-b609-3062125a4bac"},"vehicle_type_id":"4","last_reported":1749622579,"current_range_meters":12000,"station_id":"ce4bhph2rcd13ifvqheg","pricing_plan_id":"cebpf4jnsgd1na2vs0mg"},{"bike_id":"77f6f3b8-304d-45f4-909b-fe68944bc597","system_id":"levelo_inurba_marseille","lat":43.31717,"lon":5.40461,"is_reserved":false,"is_disabled":false,"rental_uris":{"android":"levelo://app?vid=77f6f3b8-304d-45f4-909b-fe68944bc597","ios":"levelo://app?vid=77f6f3b8-304d-45f4-909b-fe68944bc597"},"vehicle_type_id":"4","last_reported":1749622579,"current_range_meters":12000,"station_id":"ce4bh012rcd13ifvqd00","pricing_plan_id":"cebpf4jnsgd1na2vs0mg"},{"bike_id":"634f107c-7707-4bfd-9f74-b9cfb361bd02","system_id":"levelo_inurba_marseille","lat":43.30534,"lon":5.36555,"is_reserved":false,"is_disabled":false,"rental_uris":{"android":"levelo://app?vid=634f107c-7707-4bfd-9f74-b9cfb361bd02","ios":"levelo://app?vid=634f107c-7707-4bfd-9f74-b9cfb361bd02"},"vehicle_type_id":"4","last_reported":1749622579,"current_range_meters":12000,"station_id":"ce4bgs12rcd13ifvqcag","pricing_plan_id":"cebpf4jnsgd1na2vs0mg"},{"bike_id":"e6d67648-0d34-4392-8e2c-f83f208c9d05","system_id":"levelo_inurba_marseille","lat":43.31725,"lon":5.40373,"is_reserved":false,"is_disabled":false,"rental_uris":{"android":"levelo://app?vid=e6d67648-0d34-4392-8e2c-f83f208c9d05","ios":"levelo://app?vid=e6d67648-0d34-4392-8e2c-f83f208c9d05"},"vehicle_type_id":"4","last_reported":1749622579,"current_range_meters":12000,"station_id":"ce4bh012rcd13ifvqd00","pricing_plan_id":"cebpf4jnsgd1na2vs0mg"},{"bike_id":"4d547f95-647f-41ae-aea4-9963a80c49f0","system_id":"levelo_inurba_marseille","lat":43.28161,"lon":5.42636,"is_reserved":false,"is_disabled":false,"rental_uris":{"android":"levelo://app?vid=4d547f95-647f-41ae-aea4-9963a80c49f0","ios":"levelo://app?vid=4d547f95-647f-41ae-aea4-9963a80c49f0"},"vehicle_type_id":"4","last_reported":1749622579,"current_range_meters":12000,"station_id":"ce4bhnh2rcd13ifvqgug","pricing_plan_id":"cebpf4jnsgd1na2vs0mg"},{"bike_id":"53a94670-e86d-41d7-97b1-7a71aac81e4c","system_id":"levelo_inurba_marseille","lat":43.30933,"lon":5.4014,"is_reserved":false,"is_disabled":false,"rental_uris":{"android":"levelo://app?vid=53a94670-e86d-41d7-97b1-7a71aac81e4c","ios":"levelo://app?vid=53a94670-e86d-41d7-97b1-7a71aac81e4c"},"vehicle_type_id":"4","last_reported":1749622579,"current_range_meters":12000,"station_id":"ce4bgvp2rcd13ifvqct0","pricing_plan_id":"cebpf4jnsgd1na2vs0mg"},{"bike_id":"fd1d14a0-1a3e-4eb9-b19e-044738f5d1c3","system_id":"levelo_inurba_marseille","lat":43.289925,"lon":5.356025,"is_reserved":false,"is_disabled":true,"rental_uris":{"android":"levelo://app?vid=fd1d14a0-1a3e-4eb9-b19e-044738f5d1c3","ios":"levelo://app?vid=fd1d14a0-1a3e-4eb9-b19e-044738f5d1c3"},"vehicle_type_id":"4","last_reported":1749622579,"current_range_meters":12000,"station_id":"ce4bhb92rcd13ifvqen0","pricing_plan_id":"cebpf4jnsgd1na2vs0mg"},{"bike_id":"c4ac7a5c-c960-4c83-b776-b8ff573e7853","system_id":"levelo_inurba_marseille","lat":43.30374,"lon":5.42483,"is_reserved":false,"is_disabled":false,"rental_uris":{"android":"levelo://app?vid=c4ac7a5c-c960-4c83-b776-b8ff573e7853","ios":"levelo://app?vid=c4ac7a5c-c960-4c83-b776-b8ff573e7853"},"vehicle_type_id":"4","last_reported":1749622579,"current_range_meters":12000,"station_id":"ce4bhoh2rcd13ifvqh6g","pricing_plan_id":"cebpf4jnsgd1na2vs0mg"},{"bike_id":"72a94b25-2fe0-4919-8521-e8b66695aa46","system_id":"levelo_inurba_marseille","lat":43.286987,"lon":5.399945,"is_reserved":false,"is_disabled":false,"rental_uris":{"android":"levelo://app?vid=72a94b25-2fe0-4919-8521-e8b66695aa46","ios":"levelo://app?vid=72a94b25-2fe0-4919-8521-e8b66695aa46"},"vehicle_type_id":"4","last_reported":1749622579,"current_range_meters":12400,"station_id":"","pricing_plan_id":"cebpf4jnsgd1na2vs0mg"},{"bike_id":"e857b26f-e98d-4e5b-a472-9489934cc3bc","system_id":"levelo_inurba_marseille","lat":43.30924,"lon":5.40138,"is_reserved":false,"is_disabled":true,"rental_uris":{"android":"levelo://app?vid=e857b26f-e98d-4e5b-a472-9489934cc3bc","ios":"levelo://app?vid=e857b26f-e98d-4e5b-a472-9489934cc3bc"},"vehicle_type_id":"4","last_reported":1749622579,"current_range_meters":12400,"station_id":"ce4bgvp2rcd13ifvqct0","pricing_plan_id":"cebpf4jnsgd1na2vs0mg"},{"bike_id":"c12a43dd-d6f2-41de-a6c5-03c32c4840c8","system_id":"levelo_inurba_marseille","lat":43.3015,"lon":5.38088,"is_reserved":false,"is_disabled":false,"rental_uris":{"android":"levelo://app?vid=c12a43dd-d6f2-41de-a6c5-03c32c4840c8","ios":"levelo://app?vid=c12a43dd-d6f2-41de-a6c5-03c32c4840c8"},"vehicle_type_id":"4","last_reported":1749622579,"current_range_meters":12400,"station_id":"ce4bgjp2rcd13ifvqbh0","pricing_plan_id":"cebpf4jnsgd1na2vs0mg"},{"bike_id":"84f5a926-1dd6-4535-b647-2764ce0ca103","system_id":"levelo_inurba_marseille","lat":43.32123,"lon":5.36781,"is_reserved":false,"is_disabled":false,"rental_uris":{"android":"levelo://app?vid=84f5a926-1dd6-4535-b647-2764ce0ca103","ios":"levelo://app?vid=84f5a926-1dd6-4535-b647-2764ce0ca103"},"vehicle_type_id":"4","last_reported":1749622579,"current_range_meters":12400,"station_id":"ce4bhrh2rcd13ifvqhug","pricing_plan_id":"cebpf4jnsgd1na2vs0mg"},{"bike_id":"4c1d17d4-327b-412a-b5fe-13fda86712c4","system_id":"levelo_inurba_marseille","lat":43.27499,"lon":5.4244,"is_reserved":false,"is_disabled":false,"rental_uris":{"android":"levelo://app?vid=4c1d17d4-327b-412a-b5fe-13fda86712c4","ios":"levelo://app?vid=4c1d17d4-327b-412a-b5fe-13fda86712c4"},"vehicle_type_id":"4","last_reported":1749622579,"current_range_meters":12400,"station_id":"ce4bhn92rcd13ifvqgrg","pricing_plan_id":"cebpf4jnsgd1na2vs0mg"},{"bike_id":"19445809-722e-4bd4-b9bd-658219be9fa7","system_id":"levelo_inurba_marseille","lat":43.33027,"lon":5.39038,"is_reserved":false,"is_disabled":false,"rental_uris":{"android":"levelo://app?vid=19445809-722e-4bd4-b9bd-658219be9fa7","ios":"levelo://app?vid=19445809-722e-4bd4-b9bd-658219be9fa7"},"vehicle_type_id":"4","last_reported":1749622579,"current_range_meters":12800,"station_id":"ce4bhr92rcd13ifvqhrg","pricing_plan_id":"cebpf4jnsgd1na2vs0mg"},{"bike_id":"011a51e0-e9d8-4321-bc06-60864898b9e9","system_id":"levelo_inurba_marseille","lat":43.30537,"lon":5.36556,"is_reserved":false,"is_disabled":false,"rental_uris":{"android":"levelo://app?vid=011a51e0-e9d8-4321-bc06-60864898b9e9","ios":"levelo://app?vid=011a51e0-e9d8-4321-bc06-60864898b9e9"},"vehicle_type_id":"4","last_reported":1749622579,"current_range_meters":12800,"station_id":"ce4bgs12rcd13ifvqcag","pricing_plan_id":"cebpf4jnsgd1na2vs0mg"},{"bike_id":"53ad8fa1-d150-4303-9608-ed288946d58c","system_id":"levelo_inurba_marseille","lat":43.31329,"lon":5.3967,"is_reserved":false,"is_disabled":false,"rental_uris":{"android":"levelo://app?vid=53ad8fa1-d150-4303-9608-ed288946d58c","ios":"levelo://app?vid=53ad8fa1-d150-4303-9608-ed288946d58c"},"vehicle_type_id":"4","last_reported":1749622579,"current_range_meters":12800,"station_id":"ce4bgvp2rcd13ifvqcu0","pricing_plan_id":"cebpf4jnsgd1na2vs0mg"},{"bike_id":"abac1aef-dbbd-4e20-b5da-a2236e654af5","system_id":"levelo_inurba_marseille","lat":43.26935,"lon":5.40256,"is_reserved":false,"is_disabled":false,"rental_uris":{"android":"levelo://app?vid=abac1aef-dbbd-4e20-b5da-a2236e654af5","ios":"levelo://app?vid=abac1aef-dbbd-4e20-b5da-a2236e654af5"},"vehicle_type_id":"4","last_reported":1749622579,"current_range_meters":12800,"station_id":"cjm6bp8fraef2m0cb0m0","pricing_plan_id":"cebpf4jnsgd1na2vs0mg"},{"bike_id":"91252cb4-db98-4cff-ba49-0337a6eacf8f","system_id":"levelo_inurba_marseille","lat":43.31991,"lon":5.38774,"is_reserved":false,"is_disabled":false,"rental_uris":{"android":"levelo://app?vid=91252cb4-db98-4cff-ba49-0337a6eacf8f","ios":"levelo://app?vid=91252cb4-db98-4cff-ba49-0337a6eacf8f"},"vehicle_type_id":"4","last_reported":1749622579,"current_range_meters":12800,"station_id":"","pricing_plan_id":"cebpf4jnsgd1na2vs0mg"},{"bike_id":"3c255699-4a55-4f84-ab88-1b856ac8e8b5","system_id":"levelo_inurba_marseille","lat":43.27314,"lon":5.39076,"is_reserved":false,"is_disabled":false,"rental_uris":{"android":"levelo://app?vid=3c255699-4a55-4f84-ab88-1b856ac8e8b5","ios":"levelo://app?vid=3c255699-4a55-4f84-ab88-1b856ac8e8b5"},"vehicle_type_id":"4","last_reported":1749622579,"current_range_meters":12800,"station_id":"ce4bhgp2rcd13ifvqfe0","pricing_plan_id":"cebpf4jnsgd1na2vs0mg"},{"bike_id":"c43fe918-bbce-4c81-b905-f4ca5ca72e1a","system_id":"levelo_inurba_marseille","lat":43.31074,"lon":5.38344,"is_reserved":false,"is_disabled":false,"rental_uris":{"android":"levelo://app?vid=c43fe918-bbce-4c81-b905-f4ca5ca72e1a","ios":"levelo://app?vid=c43fe918-bbce-4c81-b905-f4ca5ca72e1a"},"vehicle_type_id":"4","last_reported":1749622579,"current_range_meters":12800,"station_id":"ce4bgv92rcd13ifvqcr0","pricing_plan_id":"cebpf4jnsgd1na2vs0mg"},{"bike_id":"50075e4e-4627-4153-84f6-ba54c1703bc4","system_id":"levelo_inurba_marseille","lat":43.27946,"lon":5.41052,"is_reserved":false,"is_disabled":false,"rental_uris":{"android":"levelo://app?vid=50075e4e-4627-4153-84f6-ba54c1703bc4","ios":"levelo://app?vid=50075e4e-4627-4153-84f6-ba54c1703bc4"},"vehicle_type_id":"4","last_reported":1749622579,"current_range_meters":13600,"station_id":"ce4bhnp2rcd13ifvqh0g","pricing_plan_id":"cebpf4jnsgd1na2vs0mg"},{"bike_id":"e636ab65-bc01-4586-a61f-ca9c388a9557","system_id":"levelo_inurba_marseille","lat":43.25932,"lon":5.40913,"is_reserved":false,"is_disabled":false,"rental_uris":{"android":"levelo://app?vid=e636ab65-bc01-4586-a61f-ca9c388a9557","ios":"levelo://app?vid=e636ab65-bc01-4586-a61f-ca9c388a9557"},"vehicle_type_id":"4","last_reported":1749622579,"current_range_meters":13600,"station_id":"ce4bhm92rcd13ifvqglg","pricing_plan_id":"cebpf4jnsgd1na2vs0mg"},{"bike_id":"b350c8e9-ed32-4415-aae6-ec1b9bd87516","system_id":"levelo_inurba_marseille","lat":43.28658,"lon":5.36347,"is_reserved":false,"is_disabled":false,"rental_uris":{"android":"levelo://app?vid=b350c8e9-ed32-4415-aae6-ec1b9bd87516","ios":"levelo://app?vid=b350c8e9-ed32-4415-aae6-ec1b9bd87516"},"vehicle_type_id":"4","last_reported":1749622579,"current_range_meters":13600,"station_id":"ce4bhah2rcd13ifvqej0","pricing_plan_id":"cebpf4jnsgd1na2vs0mg"},{"bike_id":"459ca737-6f77-471f-8093-5a88355f5584","system_id":"levelo_inurba_marseille","lat":43.27484,"lon":5.42404,"is_reserved":false,"is_disabled":false,"rental_uris":{"android":"levelo://app?vid=459ca737-6f77-471f-8093-5a88355f5584","ios":"levelo://app?vid=459ca737-6f77-471f-8093-5a88355f5584"},"vehicle_type_id":"4","last_reported":1749622579,"current_range_meters":13600,"station_id":"ce4bhn92rcd13ifvqgrg","pricing_plan_id":"cebpf4jnsgd1na2vs0mg"},{"bike_id":"a2652db9-6cfe-47a6-94f5-ea8f8860e9f9","system_id":"levelo_inurba_marseille","lat":43.280306,"lon":5.369576,"is_reserved":false,"is_disabled":false,"rental_uris":{"android":"levelo://app?vid=a2652db9-6cfe-47a6-94f5-ea8f8860e9f9","ios":"levelo://app?vid=a2652db9-6cfe-47a6-94f5-ea8f8860e9f9"},"vehicle_type_id":"4","last_reported":1749622579,"current_range_meters":13600,"station_id":"ce4bha12rcd13ifvqef0","pricing_plan_id":"cebpf4jnsgd1na2vs0mg"},{"bike_id":"51c791a7-9ff0-4c1f-ab28-bf7e9eafbec8","system_id":"levelo_inurba_marseille","lat":43.3088,"lon":5.3964,"is_reserved":false,"is_disabled":false,"rental_uris":{"android":"levelo://app?vid=51c791a7-9ff0-4c1f-ab28-bf7e9eafbec8","ios":"levelo://app?vid=51c791a7-9ff0-4c1f-ab28-bf7e9eafbec8"},"vehicle_type_id":"4","last_reported":1749622579,"current_range_meters":13600,"station_id":"ce4bh012rcd13ifvqcv0","pricing_plan_id":"cebpf4jnsgd1na2vs0mg"},{"bike_id":"7130eafd-58ef-49e3-8296-da23b92ff172","system_id":"levelo_inurba_marseille","lat":43.246866,"lon":5.394293,"is_reserved":false,"is_disabled":true,"rental_uris":{"android":"levelo://app?vid=7130eafd-58ef-49e3-8296-da23b92ff172","ios":"levelo://app?vid=7130eafd-58ef-49e3-8296-da23b92ff172"},"vehicle_type_id":"4","last_reported":1749622579,"current_range_meters":14000,"station_id":"","pricing_plan_id":"cebpf4jnsgd1na2vs0mg"},{"bike_id":"4727b314-3bd1-43f9-b43d-76c9166f290d","system_id":"levelo_inurba_marseille","lat":43.3233,"lon":5.40639,"is_reserved":false,"is_disabled":false,"rental_uris":{"android":"levelo://app?vid=4727b314-3bd1-43f9-b43d-76c9166f290d","ios":"levelo://app?vid=4727b314-3bd1-43f9-b43d-76c9166f290d"},"vehicle_type_id":"4","last_reported":1749622579,"current_range_meters":14000,"station_id":"ce4bhq92rcd13ifvqhjg","pricing_plan_id":"cebpf4jnsgd1na2vs0mg"},{"bike_id":"63e36bf3-30be-4d95-b1a3-d022a660c8cc","system_id":"levelo_inurba_marseille","lat":43.29896,"lon":5.43672,"is_reserved":false,"is_disabled":false,"rental_uris":{"android":"levelo://app?vid=63e36bf3-30be-4d95-b1a3-d022a660c8cc","ios":"levelo://app?vid=63e36bf3-30be-4d95-b1a3-d022a660c8cc"},"vehicle_type_id":"4","last_reported":1749622579,"current_range_meters":14000,"station_id":"ce4bhpp2rcd13ifvqhfg","pricing_plan_id":"cebpf4jnsgd1na2vs0mg"},{"bike_id":"aa9085db-88fc-49be-aad8-9551ff3c1877","system_id":"levelo_inurba_marseille","lat":43.27942,"lon":5.41027,"is_reserved":false,"is_disabled":false,"rental_uris":{"android":"levelo://app?vid=aa9085db-88fc-49be-aad8-9551ff3c1877","ios":"levelo://app?vid=aa9085db-88fc-49be-aad8-9551ff3c1877"},"vehicle_type_id":"4","last_reported":1749622579,"current_range_meters":14000,"station_id":"ce4bhnp2rcd13ifvqh0g","pricing_plan_id":"cebpf4jnsgd1na2vs0mg"},{"bike_id":"b9dce34d-aeb2-409b-9fbd-9266ac903aaa","system_id":"levelo_inurba_marseille","lat":43.28975,"lon":5.37845,"is_reserved":false,"is_disabled":true,"rental_uris":{"android":"levelo://app?vid=b9dce34d-aeb2-409b-9fbd-9266ac903aaa","ios":"levelo://app?vid=b9dce34d-aeb2-409b-9fbd-9266ac903aaa"},"vehicle_type_id":"4","last_reported":1749622579,"current_range_meters":14000,"station_id":"ce4bh9p2rcd13ifvqed0","pricing_plan_id":"cebpf4jnsgd1na2vs0mg"},{"bike_id":"1acfb620-cad7-48c0-8901-d7a5b74a5b65","system_id":"levelo_inurba_marseille","lat":43.33751,"lon":5.37456,"is_reserved":false,"is_disabled":false,"rental_uris":{"android":"levelo://app?vid=1acfb620-cad7-48c0-8901-d7a5b74a5b65","ios":"levelo://app?vid=1acfb620-cad7-48c0-8901-d7a5b74a5b65"},"vehicle_type_id":"4","last_reported":1749622579,"current_range_meters":14000,"station_id":"","pricing_plan_id":"cebpf4jnsgd1na2vs0mg"},{"bike_id":"4ac55865-de56-42ff-9c2f-27be692fc73d","system_id":"levelo_inurba_marseille","lat":43.27001,"lon":5.38767,"is_reserved":false,"is_disabled":false,"rental_uris":{"android":"levelo://app?vid=4ac55865-de56-42ff-9c2f-27be692fc73d","ios":"levelo://app?vid=4ac55865-de56-42ff-9c2f-27be692fc73d"},"vehicle_type_id":"4","last_reported":1749622579,"current_range_meters":14400,"station_id":"","pricing_plan_id":"cebpf4jnsgd1na2vs0mg"},{"bike_id":"7fdd7452-289f-4231-bdb3-1e684c7c58e3","system_id":"levelo_inurba_marseille","lat":43.30464,"lon":5.37921,"is_reserved":false,"is_disabled":false,"rental_uris":{"android":"levelo://app?vid=7fdd7452-289f-4231-bdb3-1e684c7c58e3","ios":"levelo://app?vid=7fdd7452-289f-4231-bdb3-1e684c7c58e3"},"vehicle_type_id":"4","last_reported":1749622579,"current_range_meters":14400,"station_id":"ce4bgup2rcd13ifvqcn0","pricing_plan_id":"cebpf4jnsgd1na2vs0mg"},{"bike_id":"8d57b47c-b972-4856-9559-7ce5e3a18d4c","system_id":"levelo_inurba_marseille","lat":43.30146,"lon":5.38086,"is_reserved":false,"is_disabled":false,"rental_uris":{"android":"levelo://app?vid=8d57b47c-b972-4856-9559-7ce5e3a18d4c","ios":"levelo://app?vid=8d57b47c-b972-4856-9559-7ce5e3a18d4c"},"vehicle_type_id":"4","last_reported":1749622579,"current_range_meters":14400,"station_id":"ce4bgjp2rcd13ifvqbh0","pricing_plan_id":"cebpf4jnsgd1na2vs0mg"},{"bike_id":"65b4ff9e-3d90-4983-ac06-dc0994dce3e1","system_id":"levelo_inurba_marseille","lat":43.307935,"lon":5.435368,"is_reserved":false,"is_disabled":false,"rental_uris":{"android":"levelo://app?vid=65b4ff9e-3d90-4983-ac06-dc0994dce3e1","ios":"levelo://app?vid=65b4ff9e-3d90-4983-ac06-dc0994dce3e1"},"vehicle_type_id":"4","last_reported":1749622579,"current_range_meters":14400,"station_id":"ce4bhph2rcd13ifvqheg","pricing_plan_id":"cebpf4jnsgd1na2vs0mg"},{"bike_id":"c0059c6b-affa-4894-ad35-e029cf9a2a71","system_id":"levelo_inurba_marseille","lat":43.27564,"lon":5.38425,"is_reserved":false,"is_disabled":false,"rental_uris":{"android":"levelo://app?vid=c0059c6b-affa-4894-ad35-e029cf9a2a71","ios":"levelo://app?vid=c0059c6b-affa-4894-ad35-e029cf9a2a71"},"vehicle_type_id":"4","last_reported":1749622579,"current_range_meters":14400,"station_id":"ce4bhh92rcd13ifvqfi0","pricing_plan_id":"cebpf4jnsgd1na2vs0mg"},{"bike_id":"8ff811ea-f688-4c56-8b61-1084846cf6c9","system_id":"levelo_inurba_marseille","lat":43.28342,"lon":5.38103,"is_reserved":false,"is_disabled":false,"rental_uris":{"android":"levelo://app?vid=8ff811ea-f688-4c56-8b61-1084846cf6c9","ios":"levelo://app?vid=8ff811ea-f688-4c56-8b61-1084846cf6c9"},"vehicle_type_id":"4","last_reported":1749622579,"current_range_meters":14400,"station_id":"ce4bh412rcd13ifvqdr0","pricing_plan_id":"cebpf4jnsgd1na2vs0mg"},{"bike_id":"185ce079-1dd6-43d8-abe1-d03671e89dc4","system_id":"levelo_inurba_marseille","lat":43.301815,"lon":5.389203,"is_reserved":false,"is_disabled":false,"rental_uris":{"android":"levelo://app?vid=185ce079-1dd6-43d8-abe1-d03671e89dc4","ios":"levelo://app?vid=185ce079-1dd6-43d8-abe1-d03671e89dc4"},"vehicle_type_id":"4","last_reported":1749622579,"current_range_meters":14400,"station_id":"ce4bgjp2rcd13ifvqbh0","pricing_plan_id":"cebpf4jnsgd1na2vs0mg"},{"bike_id":"ec9994e0-6b77-4d37-8bb0-1517c100633a","system_id":"levelo_inurba_marseille","lat":43.309311,"lon":5.401476,"is_reserved":false,"is_disabled":false,"rental_uris":{"android":"levelo://app?vid=ec9994e0-6b77-4d37-8bb0-1517c100633a","ios":"levelo://app?vid=ec9994e0-6b77-4d37-8bb0-1517c100633a"},"vehicle_type_id":"4","last_reported":1749622579,"current_range_meters":14400,"station_id":"ce4bgvp2rcd13ifvqct0","pricing_plan_id":"cebpf4jnsgd1na2vs0mg"},{"bike_id":"ecb5ac87-2bf1-461a-8ed9-67e876d551d7","system_id":"levelo_inurba_marseille","lat":43.30931,"lon":5.40147,"is_reserved":false,"is_disabled":false,"rental_uris":{"android":"levelo://app?vid=ecb5ac87-2bf1-461a-8ed9-67e876d551d7","ios":"levelo://app?vid=ecb5ac87-2bf1-461a-8ed9-67e876d551d7"},"vehicle_type_id":"4","last_reported":1749622579,"current_range_meters":14800,"station_id":"ce4bgvp2rcd13ifvqct0","pricing_plan_id":"cebpf4jnsgd1na2vs0mg"},{"bike_id":"0b0e2438-4263-43eb-819b-4dc7f21a29b4","system_id":"levelo_inurba_marseille","lat":43.308947,"lon":5.39649,"is_reserved":false,"is_disabled":false,"rental_uris":{"android":"levelo://app?vid=0b0e2438-4263-43eb-819b-4dc7f21a29b4","ios":"levelo://app?vid=0b0e2438-4263-43eb-819b-4dc7f21a29b4"},"vehicle_type_id":"4","last_reported":1749622579,"current_range_meters":15200,"station_id":"ce4bh012rcd13ifvqcv0","pricing_plan_id":"cebpf4jnsgd1na2vs0mg"},{"bike_id":"9231f021-d06e-4dc9-b555-e59bf1d45ecd","system_id":"levelo_inurba_marseille","lat":43.32117,"lon":5.36769,"is_reserved":false,"is_disabled":false,"rental_uris":{"android":"levelo://app?vid=9231f021-d06e-4dc9-b555-e59bf1d45ecd","ios":"levelo://app?vid=9231f021-d06e-4dc9-b555-e59bf1d45ecd"},"vehicle_type_id":"4","last_reported":1749622579,"current_range_meters":15200,"station_id":"ce4bhrh2rcd13ifvqhug","pricing_plan_id":"cebpf4jnsgd1na2vs0mg"},{"bike_id":"1f42e774-0b65-4738-b3e3-0aae7ec0e65c","system_id":"levelo_inurba_marseille","lat":43.29579,"lon":5.37514,"is_reserved":false,"is_disabled":true,"rental_uris":{"android":"levelo://app?vid=1f42e774-0b65-4738-b3e3-0aae7ec0e65c","ios":"levelo://app?vid=1f42e774-0b65-4738-b3e3-0aae7ec0e65c"},"vehicle_type_id":"4","last_reported":1749622579,"current_range_meters":15200,"station_id":"ce4bgh92rcd13ifvqb50","pricing_plan_id":"cebpf4jnsgd1na2vs0mg"},{"bike_id":"6387cdaa-4d33-4040-9534-8b848bbe2083","system_id":"levelo_inurba_marseille","lat":43.26681,"lon":5.38262,"is_reserved":false,"is_disabled":false,"rental_uris":{"android":"levelo://app?vid=6387cdaa-4d33-4040-9534-8b848bbe2083","ios":"levelo://app?vid=6387cdaa-4d33-4040-9534-8b848bbe2083"},"vehicle_type_id":"4","last_reported":1749622579,"current_range_meters":15200,"station_id":"ce4bhg92rcd13ifvqf90","pricing_plan_id":"cebpf4jnsgd1na2vs0mg"},{"bike_id":"af225b33-8362-4424-9216-f142b83b3fb0","system_id":"levelo_inurba_marseille","lat":43.30935,"lon":5.40137,"is_reserved":false,"is_disabled":false,"rental_uris":{"android":"levelo://app?vid=af225b33-8362-4424-9216-f142b83b3fb0","ios":"levelo://app?vid=af225b33-8362-4424-9216-f142b83b3fb0"},"vehicle_type_id":"4","last_reported":1749622579,"current_range_meters":16000,"station_id":"ce4bgvp2rcd13ifvqct0","pricing_plan_id":"cebpf4jnsgd1na2vs0mg"},{"bike_id":"38f50f9a-b344-4f2f-8799-90ea853fdead","system_id":"levelo_inurba_marseille","lat":43.28435,"lon":5.39176,"is_reserved":false,"is_disabled":false,"rental_uris":{"android":"levelo://app?vid=38f50f9a-b344-4f2f-8799-90ea853fdead","ios":"levelo://app?vid=38f50f9a-b344-4f2f-8799-90ea853fdead"},"vehicle_type_id":"4","last_reported":1749622579,"current_range_meters":16000,"station_id":"ce4bhoh2rcd13ifvqh5g","pricing_plan_id":"cebpf4jnsgd1na2vs0mg"},{"bike_id":"5bdcd96e-e6f6-46ed-853c-052270ca6224","system_id":"levelo_inurba_marseille","lat":43.30309,"lon":5.36881,"is_reserved":false,"is_disabled":false,"rental_uris":{"android":"levelo://app?vid=5bdcd96e-e6f6-46ed-853c-052270ca6224","ios":"levelo://app?vid=5bdcd96e-e6f6-46ed-853c-052270ca6224"},"vehicle_type_id":"4","last_reported":1749622579,"current_range_meters":15200,"station_id":"ce4bgqh2rcd13ifvqc5g","pricing_plan_id":"cebpf4jnsgd1na2vs0mg"},{"bike_id":"d6515318-ac2c-47f0-b0e4-ac5ab2c5d151","system_id":"levelo_inurba_marseille","lat":43.24164,"lon":5.36389,"is_reserved":false,"is_disabled":false,"rental_uris":{"android":"levelo://app?vid=d6515318-ac2c-47f0-b0e4-ac5ab2c5d151","ios":"levelo://app?vid=d6515318-ac2c-47f0-b0e4-ac5ab2c5d151"},"vehicle_type_id":"4","last_reported":1749622579,"current_range_meters":16000,"station_id":"cpo36qri1sfpv3e86is0","pricing_plan_id":"cebpf4jnsgd1na2vs0mg"},{"bike_id":"03ff7327-9d80-465b-bc3e-d109526df4c5","system_id":"levelo_inurba_marseille","lat":43.262298,"lon":5.404465,"is_reserved":false,"is_disabled":false,"rental_uris":{"android":"levelo://app?vid=03ff7327-9d80-465b-bc3e-d109526df4c5","ios":"levelo://app?vid=03ff7327-9d80-465b-bc3e-d109526df4c5"},"vehicle_type_id":"4","last_reported":1749622579,"current_range_meters":16000,"station_id":"ce4bhmh2rcd13ifvqgmg","pricing_plan_id":"cebpf4jnsgd1na2vs0mg"},{"bike_id":"3a739672-c67e-4a21-a7cf-272409c07aa5","system_id":"levelo_inurba_marseille","lat":43.27596,"lon":5.38434,"is_reserved":false,"is_disabled":false,"rental_uris":{"android":"levelo://app?vid=3a739672-c67e-4a21-a7cf-272409c07aa5","ios":"levelo://app?vid=3a739672-c67e-4a21-a7cf-272409c07aa5"},"vehicle_type_id":"4","last_reported":1749622579,"current_range_meters":16000,"station_id":"ce4bhh92rcd13ifvqfi0","pricing_plan_id":"cebpf4jnsgd1na2vs0mg"},{"bike_id":"b918f339-a33d-489c-826a-8fffafca2d2e","system_id":"levelo_inurba_marseille","lat":43.32365,"lon":5.38899,"is_reserved":false,"is_disabled":false,"rental_uris":{"android":"levelo://app?vid=b918f339-a33d-489c-826a-8fffafca2d2e","ios":"levelo://app?vid=b918f339-a33d-489c-826a-8fffafca2d2e"},"vehicle_type_id":"4","last_reported":1749622579,"current_range_meters":16000,"station_id":"ce4bhqp2rcd13ifvqhog","pricing_plan_id":"cebpf4jnsgd1na2vs0mg"},{"bike_id":"ff6779a1-4f4c-471b-ab85-6c361d5c8c03","system_id":"levelo_inurba_marseille","lat":43.31338,"lon":5.36718,"is_reserved":false,"is_disabled":false,"rental_uris":{"android":"levelo://app?vid=ff6779a1-4f4c-471b-ab85-6c361d5c8c03","ios":"levelo://app?vid=ff6779a1-4f4c-471b-ab85-6c361d5c8c03"},"vehicle_type_id":"4","last_reported":1749622579,"current_range_meters":16000,"station_id":"ce4bgr92rcd13ifvqc6g","pricing_plan_id":"cebpf4jnsgd1na2vs0mg"},{"bike_id":"314bac2c-e47f-46cd-afcd-53cd84a7d142","system_id":"levelo_inurba_marseille","lat":43.27611,"lon":5.36112,"is_reserved":false,"is_disabled":true,"rental_uris":{"android":"levelo://app?vid=314bac2c-e47f-46cd-afcd-53cd84a7d142","ios":"levelo://app?vid=314bac2c-e47f-46cd-afcd-53cd84a7d142"},"vehicle_type_id":"4","last_reported":1749622579,"current_range_meters":16000,"station_id":"ce4bgj92rcd13ifvqbe0","pricing_plan_id":"cebpf4jnsgd1na2vs0mg"},{"bike_id":"dc6fca2e-5f1c-4ae8-aefe-7f65f0547e41","system_id":"levelo_inurba_marseille","lat":43.33755,"lon":5.37398,"is_reserved":false,"is_disabled":false,"rental_uris":{"android":"levelo://app?vid=dc6fca2e-5f1c-4ae8-aefe-7f65f0547e41","ios":"levelo://app?vid=dc6fca2e-5f1c-4ae8-aefe-7f65f0547e41"},"vehicle_type_id":"4","last_reported":1749622579,"current_range_meters":16400,"station_id":"","pricing_plan_id":"cebpf4jnsgd1na2vs0mg"},{"bike_id":"a2421370-e442-436f-a98a-844d44299694","system_id":"levelo_inurba_marseille","lat":43.32368,"lon":5.3677,"is_reserved":false,"is_disabled":false,"rental_uris":{"android":"levelo://app?vid=a2421370-e442-436f-a98a-844d44299694","ios":"levelo://app?vid=a2421370-e442-436f-a98a-844d44299694"},"vehicle_type_id":"4","last_reported":1749622579,"current_range_meters":16400,"station_id":"ce4bhsh2rcd13ifvqi2g","pricing_plan_id":"cebpf4jnsgd1na2vs0mg"},{"bike_id":"b746c2ea-582d-453e-b55d-7f4c2db34f3d","system_id":"levelo_inurba_marseille","lat":43.27326,"lon":5.39089,"is_reserved":false,"is_disabled":false,"rental_uris":{"android":"levelo://app?vid=b746c2ea-582d-453e-b55d-7f4c2db34f3d","ios":"levelo://app?vid=b746c2ea-582d-453e-b55d-7f4c2db34f3d"},"vehicle_type_id":"4","last_reported":1749622579,"current_range_meters":16400,"station_id":"ce4bhgp2rcd13ifvqfe0","pricing_plan_id":"cebpf4jnsgd1na2vs0mg"},{"bike_id":"a172b0cf-62c4-4c52-a818-ce564350df02","system_id":"levelo_inurba_marseille","lat":43.21197,"lon":5.35065,"is_reserved":false,"is_disabled":false,"rental_uris":{"android":"levelo://app?vid=a172b0cf-62c4-4c52-a818-ce564350df02","ios":"levelo://app?vid=a172b0cf-62c4-4c52-a818-ce564350df02"},"vehicle_type_id":"4","last_reported":1749622579,"current_range_meters":16400,"station_id":"st_cvj6sg6p6f1abm77japg","pricing_plan_id":"cebpf4jnsgd1na2vs0mg"},{"bike_id":"71df4347-0cf7-4090-9ec9-964a471d3599","system_id":"levelo_inurba_marseille","lat":43.30949,"lon":5.3903,"is_reserved":false,"is_disabled":false,"rental_uris":{"android":"levelo://app?vid=71df4347-0cf7-4090-9ec9-964a471d3599","ios":"levelo://app?vid=71df4347-0cf7-4090-9ec9-964a471d3599"},"vehicle_type_id":"4","last_reported":1749622579,"current_range_meters":16400,"station_id":"ce4bgup2rcd13ifvqco0","pricing_plan_id":"cebpf4jnsgd1na2vs0mg"},{"bike_id":"812e4842-d011-45eb-9f3e-65d6a7b1e1f0","system_id":"levelo_inurba_marseille","lat":43.309298,"lon":5.401381,"is_reserved":false,"is_disabled":false,"rental_uris":{"android":"levelo://app?vid=812e4842-d011-45eb-9f3e-65d6a7b1e1f0","ios":"levelo://app?vid=812e4842-d011-45eb-9f3e-65d6a7b1e1f0"},"vehicle_type_id":"4","last_reported":1749622579,"current_range_meters":16800,"station_id":"ce4bgvp2rcd13ifvqct0","pricing_plan_id":"cebpf4jnsgd1na2vs0mg"},{"bike_id":"6ad5d8e3-4608-4480-bd32-1aa9edab47b2","system_id":"levelo_inurba_marseille","lat":43.30162,"lon":5.38076,"is_reserved":false,"is_disabled":false,"rental_uris":{"android":"levelo://app?vid=6ad5d8e3-4608-4480-bd32-1aa9edab47b2","ios":"levelo://app?vid=6ad5d8e3-4608-4480-bd32-1aa9edab47b2"},"vehicle_type_id":"4","last_reported":1749622579,"current_range_meters":16800,"station_id":"ce4bgjp2rcd13ifvqbh0","pricing_plan_id":"cebpf4jnsgd1na2vs0mg"},{"bike_id":"28df176a-daf5-4063-a891-2e35b6eb5d9f","system_id":"levelo_inurba_marseille","lat":43.30467,"lon":5.37906,"is_reserved":false,"is_disabled":false,"rental_uris":{"android":"levelo://app?vid=28df176a-daf5-4063-a891-2e35b6eb5d9f","ios":"levelo://app?vid=28df176a-daf5-4063-a891-2e35b6eb5d9f"},"vehicle_type_id":"4","last_reported":1749622579,"current_range_meters":16800,"station_id":"ce4bgup2rcd13ifvqcn0","pricing_plan_id":"cebpf4jnsgd1na2vs0mg"},{"bike_id":"f10adc7e-6a3a-4a5d-9515-dc52fefe2058","system_id":"levelo_inurba_marseille","lat":43.32364,"lon":5.36776,"is_reserved":false,"is_disabled":false,"rental_uris":{"android":"levelo://app?vid=f10adc7e-6a3a-4a5d-9515-dc52fefe2058","ios":"levelo://app?vid=f10adc7e-6a3a-4a5d-9515-dc52fefe2058"},"vehicle_type_id":"4","last_reported":1749622579,"current_range_meters":16800,"station_id":"ce4bhsh2rcd13ifvqi2g","pricing_plan_id":"cebpf4jnsgd1na2vs0mg"},{"bike_id":"e5544675-2264-4872-bca5-7dfec0b1bf90","system_id":"levelo_inurba_marseille","lat":43.28707,"lon":5.39986,"is_reserved":false,"is_disabled":false,"rental_uris":{"android":"levelo://app?vid=e5544675-2264-4872-bca5-7dfec0b1bf90","ios":"levelo://app?vid=e5544675-2264-4872-bca5-7dfec0b1bf90"},"vehicle_type_id":"4","last_reported":1749622579,"current_range_meters":16800,"station_id":"ce4bho92rcd13ifvqh3g","pricing_plan_id":"cebpf4jnsgd1na2vs0mg"},{"bike_id":"0696a1f3-5695-4872-bc63-5287fed19034","system_id":"levelo_inurba_marseille","lat":43.29545,"lon":5.39037,"is_reserved":false,"is_disabled":true,"rental_uris":{"android":"levelo://app?vid=0696a1f3-5695-4872-bc63-5287fed19034","ios":"levelo://app?vid=0696a1f3-5695-4872-bc63-5287fed19034"},"vehicle_type_id":"4","last_reported":1749622579,"current_range_meters":16800,"station_id":"","pricing_plan_id":"cebpf4jnsgd1na2vs0mg"},{"bike_id":"65066ef9-1c39-47d6-b104-be1d784d3bad","system_id":"levelo_inurba_marseille","lat":43.26218,"lon":5.4046,"is_reserved":false,"is_disabled":false,"rental_uris":{"android":"levelo://app?vid=65066ef9-1c39-47d6-b104-be1d784d3bad","ios":"levelo://app?vid=65066ef9-1c39-47d6-b104-be1d784d3bad"},"vehicle_type_id":"4","last_reported":1749622579,"current_range_meters":17200,"station_id":"ce4bhmh2rcd13ifvqgmg","pricing_plan_id":"cebpf4jnsgd1na2vs0mg"},{"bike_id":"645e0d47-935a-4360-99e6-6ef38dd101d1","system_id":"levelo_inurba_marseille","lat":43.28072,"lon":5.39636,"is_reserved":false,"is_disabled":false,"rental_uris":{"android":"levelo://app?vid=645e0d47-935a-4360-99e6-6ef38dd101d1","ios":"levelo://app?vid=645e0d47-935a-4360-99e6-6ef38dd101d1"},"vehicle_type_id":"4","last_reported":1749622579,"current_range_meters":17200,"station_id":"ce4bho12rcd13ifvqh2g","pricing_plan_id":"cebpf4jnsgd1na2vs0mg"},{"bike_id":"d91f6a9c-b365-4bb3-ae1d-8221ca286875","system_id":"levelo_inurba_marseille","lat":43.27493,"lon":5.42453,"is_reserved":false,"is_disabled":false,"rental_uris":{"android":"levelo://app?vid=d91f6a9c-b365-4bb3-ae1d-8221ca286875","ios":"levelo://app?vid=d91f6a9c-b365-4bb3-ae1d-8221ca286875"},"vehicle_type_id":"4","last_reported":1749622579,"current_range_meters":17200,"station_id":"ce4bhn92rcd13ifvqgrg","pricing_plan_id":"cebpf4jnsgd1na2vs0mg"},{"bike_id":"fb6eccf4-9903-4008-ab3b-d3df46689d9a","system_id":"levelo_inurba_marseille","lat":43.23184,"lon":5.39991,"is_reserved":false,"is_disabled":false,"rental_uris":{"android":"levelo://app?vid=fb6eccf4-9903-4008-ab3b-d3df46689d9a","ios":"levelo://app?vid=fb6eccf4-9903-4008-ab3b-d3df46689d9a"},"vehicle_type_id":"4","last_reported":1749622579,"current_range_meters":17200,"station_id":"ce4bhn12rcd13ifvqgqg","pricing_plan_id":"cebpf4jnsgd1na2vs0mg"},{"bike_id":"eff3b3c8-8e86-409e-869e-2fa1e8e06fff","system_id":"levelo_inurba_marseille","lat":43.29793,"lon":5.38113,"is_reserved":false,"is_disabled":false,"rental_uris":{"android":"levelo://app?vid=eff3b3c8-8e86-409e-869e-2fa1e8e06fff","ios":"levelo://app?vid=eff3b3c8-8e86-409e-869e-2fa1e8e06fff"},"vehicle_type_id":"4","last_reported":1749622579,"current_range_meters":17200,"station_id":"ce4bgip2rcd13ifvqbb0","pricing_plan_id":"cebpf4jnsgd1na2vs0mg"},{"bike_id":"50490822-204a-4b19-9af8-0374c540b273","system_id":"levelo_inurba_marseille","lat":43.30886,"lon":5.37185,"is_reserved":false,"is_disabled":false,"rental_uris":{"android":"levelo://app?vid=50490822-204a-4b19-9af8-0374c540b273","ios":"levelo://app?vid=50490822-204a-4b19-9af8-0374c540b273"},"vehicle_type_id":"4","last_reported":1749622579,"current_range_meters":17200,"station_id":"ce4bguh2rcd13ifvqckg","pricing_plan_id":"cebpf4jnsgd1na2vs0mg"},{"bike_id":"ba74330e-e7e1-47b7-aac8-f61ede63b89c","system_id":"levelo_inurba_marseille","lat":43.28147,"lon":5.42642,"is_reserved":false,"is_disabled":false,"rental_uris":{"android":"levelo://app?vid=ba74330e-e7e1-47b7-aac8-f61ede63b89c","ios":"levelo://app?vid=ba74330e-e7e1-47b7-aac8-f61ede63b89c"},"vehicle_type_id":"4","last_reported":1749622579,"current_range_meters":17200,"station_id":"ce4bhnh2rcd13ifvqgug","pricing_plan_id":"cebpf4jnsgd1na2vs0mg"},{"bike_id":"d49963c9-4a74-4b7c-ae71-2e7f71f19deb","system_id":"levelo_inurba_marseille","lat":43.29621,"lon":5.367,"is_reserved":false,"is_disabled":true,"rental_uris":{"android":"levelo://app?vid=d49963c9-4a74-4b7c-ae71-2e7f71f19deb","ios":"levelo://app?vid=d49963c9-4a74-4b7c-ae71-2e7f71f19deb"},"vehicle_type_id":"4","last_reported":1749622579,"current_range_meters":17600,"station_id":"","pricing_plan_id":"cebpf4jnsgd1na2vs0mg"},{"bike_id":"7d030959-b934-40a7-9c11-4e30c7be4879","system_id":"levelo_inurba_marseille","lat":43.31362,"lon":5.38479,"is_reserved":false,"is_disabled":false,"rental_uris":{"android":"levelo://app?vid=7d030959-b934-40a7-9c11-4e30c7be4879","ios":"levelo://app?vid=7d030959-b934-40a7-9c11-4e30c7be4879"},"vehicle_type_id":"4","last_reported":1749622579,"current_range_meters":17600,"station_id":"ce4bgt92rcd13ifvqcf0","pricing_plan_id":"cebpf4jnsgd1na2vs0mg"},{"bike_id":"8dedf3e1-d071-4785-8743-3dcaa7e6060f","system_id":"levelo_inurba_marseille","lat":43.29845,"lon":5.36271,"is_reserved":false,"is_disabled":false,"rental_uris":{"android":"levelo://app?vid=8dedf3e1-d071-4785-8743-3dcaa7e6060f","ios":"levelo://app?vid=8dedf3e1-d071-4785-8743-3dcaa7e6060f"},"vehicle_type_id":"4","last_reported":1749622579,"current_range_meters":17600,"station_id":"ce4bgpp2rcd13ifvqc3g","pricing_plan_id":"cebpf4jnsgd1na2vs0mg"},{"bike_id":"1fc5a69d-8dee-4963-88da-714a28ea0c13","system_id":"levelo_inurba_marseille","lat":43.26228,"lon":5.40451,"is_reserved":false,"is_disabled":false,"rental_uris":{"android":"levelo://app?vid=1fc5a69d-8dee-4963-88da-714a28ea0c13","ios":"levelo://app?vid=1fc5a69d-8dee-4963-88da-714a28ea0c13"},"vehicle_type_id":"4","last_reported":1749622579,"current_range_meters":17600,"station_id":"ce4bhmh2rcd13ifvqgmg","pricing_plan_id":"cebpf4jnsgd1na2vs0mg"},{"bike_id":"71d23069-4b53-4c59-89de-c54de3aeb2cf","system_id":"levelo_inurba_marseille","lat":43.2462,"lon":5.41563,"is_reserved":false,"is_disabled":false,"rental_uris":{"android":"levelo://app?vid=71d23069-4b53-4c59-89de-c54de3aeb2cf","ios":"levelo://app?vid=71d23069-4b53-4c59-89de-c54de3aeb2cf"},"vehicle_type_id":"4","last_reported":1749622579,"current_range_meters":17600,"station_id":"","pricing_plan_id":"cebpf4jnsgd1na2vs0mg"},{"bike_id":"118e0411-197a-4114-a1ad-d6c4d8f0fbb0","system_id":"levelo_inurba_marseille","lat":43.30151,"lon":5.38087,"is_reserved":false,"is_disabled":false,"rental_uris":{"android":"levelo://app?vid=118e0411-197a-4114-a1ad-d6c4d8f0fbb0","ios":"levelo://app?vid=118e0411-197a-4114-a1ad-d6c4d8f0fbb0"},"vehicle_type_id":"4","last_reported":1749622579,"current_range_meters":17600,"station_id":"ce4bgjp2rcd13ifvqbh0","pricing_plan_id":"cebpf4jnsgd1na2vs0mg"},{"bike_id":"04f107b7-020e-49a3-8513-6c594c244cad","system_id":"levelo_inurba_marseille","lat":43.31356,"lon":5.38484,"is_reserved":false,"is_disabled":false,"rental_uris":{"android":"levelo://app?vid=04f107b7-020e-49a3-8513-6c594c244cad","ios":"levelo://app?vid=04f107b7-020e-49a3-8513-6c594c244cad"},"vehicle_type_id":"4","last_reported":1749622579,"current_range_meters":17600,"station_id":"ce4bgt92rcd13ifvqcf0","pricing_plan_id":"cebpf4jnsgd1na2vs0mg"},{"bike_id":"43d06fb2-37ef-4f7f-bea3-608ee6d0f3e3","system_id":"levelo_inurba_marseille","lat":43.26496,"lon":5.39527,"is_reserved":false,"is_disabled":true,"rental_uris":{"android":"levelo://app?vid=43d06fb2-37ef-4f7f-bea3-608ee6d0f3e3","ios":"levelo://app?vid=43d06fb2-37ef-4f7f-bea3-608ee6d0f3e3"},"vehicle_type_id":"4","last_reported":1749622579,"current_range_meters":18000,"station_id":"ce4bhi12rcd13ifvqfq0","pricing_plan_id":"cebpf4jnsgd1na2vs0mg"},{"bike_id":"71bbf359-9fd1-423f-a7b9-9134e73c1ef0","system_id":"levelo_inurba_marseille","lat":43.29933,"lon":5.36487,"is_reserved":false,"is_disabled":false,"rental_uris":{"android":"levelo://app?vid=71bbf359-9fd1-423f-a7b9-9134e73c1ef0","ios":"levelo://app?vid=71bbf359-9fd1-423f-a7b9-9134e73c1ef0"},"vehicle_type_id":"4","last_reported":1749622579,"current_range_meters":18000,"station_id":"ce4bgm92rcd13ifvqbr0","pricing_plan_id":"cebpf4jnsgd1na2vs0mg"},{"bike_id":"355cf286-0b63-4ba5-8fd3-08f2449a771d","system_id":"levelo_inurba_marseille","lat":43.27498,"lon":5.42432,"is_reserved":false,"is_disabled":false,"rental_uris":{"android":"levelo://app?vid=355cf286-0b63-4ba5-8fd3-08f2449a771d","ios":"levelo://app?vid=355cf286-0b63-4ba5-8fd3-08f2449a771d"},"vehicle_type_id":"4","last_reported":1749622579,"current_range_meters":18000,"station_id":"ce4bhn92rcd13ifvqgrg","pricing_plan_id":"cebpf4jnsgd1na2vs0mg"},{"bike_id":"9cf2e2c0-8c8a-4772-b5e0-42561336bb8a","system_id":"levelo_inurba_marseille","lat":43.309256,"lon":5.401548,"is_reserved":false,"is_disabled":false,"rental_uris":{"android":"levelo://app?vid=9cf2e2c0-8c8a-4772-b5e0-42561336bb8a","ios":"levelo://app?vid=9cf2e2c0-8c8a-4772-b5e0-42561336bb8a"},"vehicle_type_id":"4","last_reported":1749622579,"current_range_meters":18000,"station_id":"ce4bgvp2rcd13ifvqct0","pricing_plan_id":"cebpf4jnsgd1na2vs0mg"},{"bike_id":"26188140-1807-466a-b47c-9cde473e1f96","system_id":"levelo_inurba_marseille","lat":43.299835,"lon":5.371837,"is_reserved":false,"is_disabled":false,"rental_uris":{"android":"levelo://app?vid=26188140-1807-466a-b47c-9cde473e1f96","ios":"levelo://app?vid=26188140-1807-466a-b47c-9cde473e1f96"},"vehicle_type_id":"4","last_reported":1749622579,"current_range_meters":18000,"station_id":"ce4bgr92rcd13ifvqc7g","pricing_plan_id":"cebpf4jnsgd1na2vs0mg"},{"bike_id":"9b27829e-5332-4f5a-9e45-aad00442a969","system_id":"levelo_inurba_marseille","lat":43.27921,"lon":5.38275,"is_reserved":false,"is_disabled":false,"rental_uris":{"android":"levelo://app?vid=9b27829e-5332-4f5a-9e45-aad00442a969","ios":"levelo://app?vid=9b27829e-5332-4f5a-9e45-aad00442a969"},"vehicle_type_id":"4","last_reported":1749622579,"current_range_meters":18000,"station_id":"","pricing_plan_id":"cebpf4jnsgd1na2vs0mg"},{"bike_id":"1f946e20-d142-4cbb-9385-f87ae2569b7b","system_id":"levelo_inurba_marseille","lat":43.28131,"lon":5.42624,"is_reserved":false,"is_disabled":false,"rental_uris":{"android":"levelo://app?vid=1f946e20-d142-4cbb-9385-f87ae2569b7b","ios":"levelo://app?vid=1f946e20-d142-4cbb-9385-f87ae2569b7b"},"vehicle_type_id":"4","last_reported":1749622579,"current_range_meters":18000,"station_id":"ce4bhnh2rcd13ifvqgug","pricing_plan_id":"cebpf4jnsgd1na2vs0mg"},{"bike_id":"99ccb411-d7f9-4fcb-b612-4d8582e16182","system_id":"levelo_inurba_marseille","lat":43.337349,"lon":5.391858,"is_reserved":false,"is_disabled":false,"rental_uris":{"android":"levelo://app?vid=99ccb411-d7f9-4fcb-b612-4d8582e16182","ios":"levelo://app?vid=99ccb411-d7f9-4fcb-b612-4d8582e16182"},"vehicle_type_id":"4","last_reported":1749622579,"current_range_meters":18000,"station_id":"ce4bhr92rcd13ifvqhsg","pricing_plan_id":"cebpf4jnsgd1na2vs0mg"},{"bike_id":"1ffe6267-ffee-48b5-9a1a-8fe4f3a18bb0","system_id":"levelo_inurba_marseille","lat":43.31502,"lon":5.37297,"is_reserved":false,"is_disabled":false,"rental_uris":{"android":"levelo://app?vid=1ffe6267-ffee-48b5-9a1a-8fe4f3a18bb0","ios":"levelo://app?vid=1ffe6267-ffee-48b5-9a1a-8fe4f3a18bb0"},"vehicle_type_id":"4","last_reported":1749622579,"current_range_meters":18800,"station_id":"ce4bgt12rcd13ifvqcd0","pricing_plan_id":"cebpf4jnsgd1na2vs0mg"},{"bike_id":"2f722760-68df-403c-b233-3989084bfdb2","system_id":"levelo_inurba_marseille","lat":43.30541,"lon":5.36535,"is_reserved":false,"is_disabled":false,"rental_uris":{"android":"levelo://app?vid=2f722760-68df-403c-b233-3989084bfdb2","ios":"levelo://app?vid=2f722760-68df-403c-b233-3989084bfdb2"},"vehicle_type_id":"4","last_reported":1749622579,"current_range_meters":18800,"station_id":"ce4bgs12rcd13ifvqcag","pricing_plan_id":"cebpf4jnsgd1na2vs0mg"},{"bike_id":"00c94cd1-33f1-4483-8d50-d32717f9fe3e","system_id":"levelo_inurba_marseille","lat":43.31735,"lon":5.42389,"is_reserved":false,"is_disabled":false,"rental_uris":{"android":"levelo://app?vid=00c94cd1-33f1-4483-8d50-d32717f9fe3e","ios":"levelo://app?vid=00c94cd1-33f1-4483-8d50-d32717f9fe3e"},"vehicle_type_id":"4","last_reported":1749622579,"current_range_meters":18800,"station_id":"ce4bhp92rcd13ifvqhbg","pricing_plan_id":"cebpf4jnsgd1na2vs0mg"},{"bike_id":"136a956b-c67e-4ee7-bafc-f4953a39f893","system_id":"levelo_inurba_marseille","lat":43.25144,"lon":5.39632,"is_reserved":false,"is_disabled":false,"rental_uris":{"android":"levelo://app?vid=136a956b-c67e-4ee7-bafc-f4953a39f893","ios":"levelo://app?vid=136a956b-c67e-4ee7-bafc-f4953a39f893"},"vehicle_type_id":"4","last_reported":1749622579,"current_range_meters":18800,"station_id":"","pricing_plan_id":"cebpf4jnsgd1na2vs0mg"},{"bike_id":"7b1cfe02-109e-4836-ae59-8aad9c4f2698","system_id":"levelo_inurba_marseille","lat":43.32346,"lon":5.40622,"is_reserved":false,"is_disabled":false,"rental_uris":{"android":"levelo://app?vid=7b1cfe02-109e-4836-ae59-8aad9c4f2698","ios":"levelo://app?vid=7b1cfe02-109e-4836-ae59-8aad9c4f2698"},"vehicle_type_id":"4","last_reported":1749622579,"current_range_meters":18800,"station_id":"ce4bhq92rcd13ifvqhjg","pricing_plan_id":"cebpf4jnsgd1na2vs0mg"},{"bike_id":"5cd55621-a46b-4861-9b0a-eaf6e6a41dd0","system_id":"levelo_inurba_marseille","lat":43.29265,"lon":5.40911,"is_reserved":false,"is_disabled":false,"rental_uris":{"android":"levelo://app?vid=5cd55621-a46b-4861-9b0a-eaf6e6a41dd0","ios":"levelo://app?vid=5cd55621-a46b-4861-9b0a-eaf6e6a41dd0"},"vehicle_type_id":"4","last_reported":1749622579,"current_range_meters":18800,"station_id":"ce4bh192rcd13ifvqdc0","pricing_plan_id":"cebpf4jnsgd1na2vs0mg"},{"bike_id":"1f01b44c-5f74-458f-bd4e-74f1314b1ea9","system_id":"levelo_inurba_marseille","lat":43.27206,"lon":5.3919,"is_reserved":false,"is_disabled":true,"rental_uris":{"android":"levelo://app?vid=1f01b44c-5f74-458f-bd4e-74f1314b1ea9","ios":"levelo://app?vid=1f01b44c-5f74-458f-bd4e-74f1314b1ea9"},"vehicle_type_id":"4","last_reported":1749622579,"current_range_meters":18800,"station_id":"ce4bhhp2rcd13ifvqfm0","pricing_plan_id":"cebpf4jnsgd1na2vs0mg"},{"bike_id":"3e7851de-2633-449c-bd32-2db7e3518d9e","system_id":"levelo_inurba_marseille","lat":43.29603,"lon":5.37753,"is_reserved":false,"is_disabled":false,"rental_uris":{"android":"levelo://app?vid=3e7851de-2633-449c-bd32-2db7e3518d9e","ios":"levelo://app?vid=3e7851de-2633-449c-bd32-2db7e3518d9e"},"vehicle_type_id":"4","last_reported":1749622579,"current_range_meters":18800,"station_id":"ce4bgi92rcd13ifvqb90","pricing_plan_id":"cebpf4jnsgd1na2vs0mg"},{"bike_id":"07496176-d4c7-444e-b485-13025cec7453","system_id":"levelo_inurba_marseille","lat":43.25124,"lon":5.40307,"is_reserved":false,"is_disabled":false,"rental_uris":{"android":"levelo://app?vid=07496176-d4c7-444e-b485-13025cec7453","ios":"levelo://app?vid=07496176-d4c7-444e-b485-13025cec7453"},"vehicle_type_id":"4","last_reported":1749622579,"current_range_meters":19200,"station_id":"ce4bhlh2rcd13ifvqgig","pricing_plan_id":"cebpf4jnsgd1na2vs0mg"},{"bike_id":"5ff7c736-c5f0-4780-81ba-48446872c362","system_id":"levelo_inurba_marseille","lat":43.26943,"lon":5.40245,"is_reserved":false,"is_disabled":false,"rental_uris":{"android":"levelo://app?vid=5ff7c736-c5f0-4780-81ba-48446872c362","ios":"levelo://app?vid=5ff7c736-c5f0-4780-81ba-48446872c362"},"vehicle_type_id":"4","last_reported":1749622579,"current_range_meters":19200,"station_id":"cjm6bp8fraef2m0cb0m0","pricing_plan_id":"cebpf4jnsgd1na2vs0mg"},{"bike_id":"c9fce19b-bd54-4522-bdc7-aa26a9be634a","system_id":"levelo_inurba_marseille","lat":43.27317,"lon":5.39074,"is_reserved":false,"is_disabled":true,"rental_uris":{"android":"levelo://app?vid=c9fce19b-bd54-4522-bdc7-aa26a9be634a","ios":"levelo://app?vid=c9fce19b-bd54-4522-bdc7-aa26a9be634a"},"vehicle_type_id":"4","last_reported":1749622579,"current_range_meters":19200,"station_id":"ce4bhgp2rcd13ifvqfe0","pricing_plan_id":"cebpf4jnsgd1na2vs0mg"},{"bike_id":"88b26be8-7765-47e4-9771-f9db73150ee7","system_id":"levelo_inurba_marseille","lat":43.30151,"lon":5.38088,"is_reserved":false,"is_disabled":false,"rental_uris":{"android":"levelo://app?vid=88b26be8-7765-47e4-9771-f9db73150ee7","ios":"levelo://app?vid=88b26be8-7765-47e4-9771-f9db73150ee7"},"vehicle_type_id":"4","last_reported":1749622579,"current_range_meters":19200,"station_id":"ce4bgjp2rcd13ifvqbh0","pricing_plan_id":"cebpf4jnsgd1na2vs0mg"},{"bike_id":"df40d743-ca7b-4f7c-882e-6472a0df34cc","system_id":"levelo_inurba_marseille","lat":43.23192,"lon":5.3557,"is_reserved":false,"is_disabled":false,"rental_uris":{"android":"levelo://app?vid=df40d743-ca7b-4f7c-882e-6472a0df34cc","ios":"levelo://app?vid=df40d743-ca7b-4f7c-882e-6472a0df34cc"},"vehicle_type_id":"4","last_reported":1749622579,"current_range_meters":19200,"station_id":"ce4bhu92rcd13ifvqi70","pricing_plan_id":"cebpf4jnsgd1na2vs0mg"},{"bike_id":"e72227bd-cbfd-4caa-b7fa-582976d075b6","system_id":"levelo_inurba_marseille","lat":43.305607,"lon":5.36557,"is_reserved":false,"is_disabled":false,"rental_uris":{"android":"levelo://app?vid=e72227bd-cbfd-4caa-b7fa-582976d075b6","ios":"levelo://app?vid=e72227bd-cbfd-4caa-b7fa-582976d075b6"},"vehicle_type_id":"4","last_reported":1749622579,"current_range_meters":19200,"station_id":"","pricing_plan_id":"cebpf4jnsgd1na2vs0mg"},{"bike_id":"556ea021-f173-497b-9607-7375aef62e86","system_id":"levelo_inurba_marseille","lat":43.31707,"lon":5.40471,"is_reserved":false,"is_disabled":false,"rental_uris":{"android":"levelo://app?vid=556ea021-f173-497b-9607-7375aef62e86","ios":"levelo://app?vid=556ea021-f173-497b-9607-7375aef62e86"},"vehicle_type_id":"4","last_reported":1749622579,"current_range_meters":19200,"station_id":"ce4bh012rcd13ifvqd00","pricing_plan_id":"cebpf4jnsgd1na2vs0mg"},{"bike_id":"27c3ce4c-2f83-41ff-abde-3fb4e2e068fb","system_id":"levelo_inurba_marseille","lat":43.30992,"lon":5.37458,"is_reserved":false,"is_disabled":false,"rental_uris":{"android":"levelo://app?vid=27c3ce4c-2f83-41ff-abde-3fb4e2e068fb","ios":"levelo://app?vid=27c3ce4c-2f83-41ff-abde-3fb4e2e068fb"},"vehicle_type_id":"4","last_reported":1749622579,"current_range_meters":19200,"station_id":"","pricing_plan_id":"cebpf4jnsgd1na2vs0mg"},{"bike_id":"9cc09854-d27d-4772-a587-4e62b3e1423f","system_id":"levelo_inurba_marseille","lat":43.251,"lon":5.40307,"is_reserved":false,"is_disabled":false,"rental_uris":{"android":"levelo://app?vid=9cc09854-d27d-4772-a587-4e62b3e1423f","ios":"levelo://app?vid=9cc09854-d27d-4772-a587-4e62b3e1423f"},"vehicle_type_id":"4","last_reported":1749622579,"current_range_meters":19200,"station_id":"ce4bhlh2rcd13ifvqgig","pricing_plan_id":"cebpf4jnsgd1na2vs0mg"},{"bike_id":"dbb3b8fb-fe6b-468a-b993-7c9487b6c88c","system_id":"levelo_inurba_marseille","lat":43.240728,"lon":5.377519,"is_reserved":false,"is_disabled":false,"rental_uris":{"android":"levelo://app?vid=dbb3b8fb-fe6b-468a-b993-7c9487b6c88c","ios":"levelo://app?vid=dbb3b8fb-fe6b-468a-b993-7c9487b6c88c"},"vehicle_type_id":"4","last_reported":1749622579,"current_range_meters":19200,"station_id":"ce4bhnp2rcd13ifvqgvg","pricing_plan_id":"cebpf4jnsgd1na2vs0mg"},{"bike_id":"1b986ab5-899b-45c0-ae8f-5234203e90af","system_id":"levelo_inurba_marseille","lat":43.3211,"lon":5.36755,"is_reserved":false,"is_disabled":false,"rental_uris":{"android":"levelo://app?vid=1b986ab5-899b-45c0-ae8f-5234203e90af","ios":"levelo://app?vid=1b986ab5-899b-45c0-ae8f-5234203e90af"},"vehicle_type_id":"4","last_reported":1749622579,"current_range_meters":19600,"station_id":"ce4bhrh2rcd13ifvqhug","pricing_plan_id":"cebpf4jnsgd1na2vs0mg"},{"bike_id":"43905188-6755-4fcf-a1e5-419d01155020","system_id":"levelo_inurba_marseille","lat":43.26223,"lon":5.40443,"is_reserved":false,"is_disabled":false,"rental_uris":{"android":"levelo://app?vid=43905188-6755-4fcf-a1e5-419d01155020","ios":"levelo://app?vid=43905188-6755-4fcf-a1e5-419d01155020"},"vehicle_type_id":"4","last_reported":1749622579,"current_range_meters":19600,"station_id":"ce4bhmh2rcd13ifvqgmg","pricing_plan_id":"cebpf4jnsgd1na2vs0mg"},{"bike_id":"3b92175f-325a-4c8a-ab46-21aff6b52f3b","system_id":"levelo_inurba_marseille","lat":43.2884,"lon":5.39309,"is_reserved":false,"is_disabled":false,"rental_uris":{"android":"levelo://app?vid=3b92175f-325a-4c8a-ab46-21aff6b52f3b","ios":"levelo://app?vid=3b92175f-325a-4c8a-ab46-21aff6b52f3b"},"vehicle_type_id":"4","last_reported":1749622579,"current_range_meters":19600,"station_id":"ce4bh2p2rcd13ifvqdi0","pricing_plan_id":"cebpf4jnsgd1na2vs0mg"},{"bike_id":"d6bd24a5-0420-4d7e-abbb-40c7a817dcf7","system_id":"levelo_inurba_marseille","lat":43.27996,"lon":5.41632,"is_reserved":false,"is_disabled":false,"rental_uris":{"android":"levelo://app?vid=d6bd24a5-0420-4d7e-abbb-40c7a817dcf7","ios":"levelo://app?vid=d6bd24a5-0420-4d7e-abbb-40c7a817dcf7"},"vehicle_type_id":"4","last_reported":1749622579,"current_range_meters":19600,"station_id":"ce4bho12rcd13ifvqh1g","pricing_plan_id":"cebpf4jnsgd1na2vs0mg"},{"bike_id":"75c49e19-8978-4062-a726-276dca882e12","system_id":"levelo_inurba_marseille","lat":43.267846,"lon":5.394132,"is_reserved":false,"is_disabled":false,"rental_uris":{"android":"levelo://app?vid=75c49e19-8978-4062-a726-276dca882e12","ios":"levelo://app?vid=75c49e19-8978-4062-a726-276dca882e12"},"vehicle_type_id":"4","last_reported":1749622579,"current_range_meters":19600,"station_id":"ce4bhh12rcd13ifvqfg0","pricing_plan_id":"cebpf4jnsgd1na2vs0mg"},{"bike_id":"51ac4440-dde0-4f13-bf9a-5a5b6810d184","system_id":"levelo_inurba_marseille","lat":43.30382,"lon":5.42473,"is_reserved":false,"is_disabled":false,"rental_uris":{"android":"levelo://app?vid=51ac4440-dde0-4f13-bf9a-5a5b6810d184","ios":"levelo://app?vid=51ac4440-dde0-4f13-bf9a-5a5b6810d184"},"vehicle_type_id":"4","last_reported":1749622579,"current_range_meters":20000,"station_id":"ce4bhoh2rcd13ifvqh6g","pricing_plan_id":"cebpf4jnsgd1na2vs0mg"},{"bike_id":"b4ba79f1-7b16-48ef-a1f8-2161a49a6478","system_id":"levelo_inurba_marseille","lat":43.31227,"lon":5.36867,"is_reserved":false,"is_disabled":false,"rental_uris":{"android":"levelo://app?vid=b4ba79f1-7b16-48ef-a1f8-2161a49a6478","ios":"levelo://app?vid=b4ba79f1-7b16-48ef-a1f8-2161a49a6478"},"vehicle_type_id":"4","last_reported":1749622579,"current_range_meters":19600,"station_id":"ce4bgl92rcd13ifvqbq0","pricing_plan_id":"cebpf4jnsgd1na2vs0mg"},{"bike_id":"f9b0ea1c-2469-49ee-9f1f-4840961b3c0b","system_id":"levelo_inurba_marseille","lat":43.30462,"lon":5.37901,"is_reserved":false,"is_disabled":false,"rental_uris":{"android":"levelo://app?vid=f9b0ea1c-2469-49ee-9f1f-4840961b3c0b","ios":"levelo://app?vid=f9b0ea1c-2469-49ee-9f1f-4840961b3c0b"},"vehicle_type_id":"4","last_reported":1749622579,"current_range_meters":20000,"station_id":"ce4bgup2rcd13ifvqcn0","pricing_plan_id":"cebpf4jnsgd1na2vs0mg"},{"bike_id":"3f1574d6-fc40-4341-9dac-b195059ec68d","system_id":"levelo_inurba_marseille","lat":43.27214,"lon":5.39199,"is_reserved":false,"is_disabled":true,"rental_uris":{"android":"levelo://app?vid=3f1574d6-fc40-4341-9dac-b195059ec68d","ios":"levelo://app?vid=3f1574d6-fc40-4341-9dac-b195059ec68d"},"vehicle_type_id":"4","last_reported":1749622579,"current_range_meters":20000,"station_id":"ce4bhhp2rcd13ifvqfm0","pricing_plan_id":"cebpf4jnsgd1na2vs0mg"},{"bike_id":"ea10a0c6-3ddf-42e5-97b0-69a1037504de","system_id":"levelo_inurba_marseille","lat":43.29259,"lon":5.38442,"is_reserved":false,"is_disabled":true,"rental_uris":{"android":"levelo://app?vid=ea10a0c6-3ddf-42e5-97b0-69a1037504de","ios":"levelo://app?vid=ea10a0c6-3ddf-42e5-97b0-69a1037504de"},"vehicle_type_id":"4","last_reported":1749622579,"current_range_meters":20000,"station_id":"ce4bh692rcd13ifvqea0","pricing_plan_id":"cebpf4jnsgd1na2vs0mg"},{"bike_id":"4c7d11cc-361d-4c0a-b7b6-b403260380b1","system_id":"levelo_inurba_marseille","lat":43.30132,"lon":5.38794,"is_reserved":false,"is_disabled":true,"rental_uris":{"android":"levelo://app?vid=4c7d11cc-361d-4c0a-b7b6-b403260380b1","ios":"levelo://app?vid=4c7d11cc-361d-4c0a-b7b6-b403260380b1"},"vehicle_type_id":"4","last_reported":1749622579,"current_range_meters":20400,"station_id":"ce4bghh2rcd13ifvqb60","pricing_plan_id":"cebpf4jnsgd1na2vs0mg"},{"bike_id":"268a324a-8e4d-4216-854d-c09220f5a417","system_id":"levelo_inurba_marseille","lat":43.24049,"lon":5.37767,"is_reserved":false,"is_disabled":false,"rental_uris":{"android":"levelo://app?vid=268a324a-8e4d-4216-854d-c09220f5a417","ios":"levelo://app?vid=268a324a-8e4d-4216-854d-c09220f5a417"},"vehicle_type_id":"4","last_reported":1749622579,"current_range_meters":20400,"station_id":"ce4bhnp2rcd13ifvqgvg","pricing_plan_id":"cebpf4jnsgd1na2vs0mg"},{"bike_id":"2a7344b5-7126-4cc1-bbd1-a9bb0e44b7bd","system_id":"levelo_inurba_marseille","lat":43.230545,"lon":5.35494,"is_reserved":false,"is_disabled":false,"rental_uris":{"android":"levelo://app?vid=2a7344b5-7126-4cc1-bbd1-a9bb0e44b7bd","ios":"levelo://app?vid=2a7344b5-7126-4cc1-bbd1-a9bb0e44b7bd"},"vehicle_type_id":"4","last_reported":1749622579,"current_range_meters":20400,"station_id":"cpo3342slgdg3j2ifvpg","pricing_plan_id":"cebpf4jnsgd1na2vs0mg"},{"bike_id":"8f6b6e8a-a05e-4c1b-ba63-14fcaafa6ad5","system_id":"levelo_inurba_marseille","lat":43.28474,"lon":5.38422,"is_reserved":false,"is_disabled":false,"rental_uris":{"android":"levelo://app?vid=8f6b6e8a-a05e-4c1b-ba63-14fcaafa6ad5","ios":"levelo://app?vid=8f6b6e8a-a05e-4c1b-ba63-14fcaafa6ad5"},"vehicle_type_id":"4","last_reported":1749622579,"current_range_meters":20400,"station_id":"ce4bh512rcd13ifvqe3g","pricing_plan_id":"cebpf4jnsgd1na2vs0mg"},{"bike_id":"ed1aa8e0-a33b-4919-9e0d-ab75dc3c6a07","system_id":"levelo_inurba_marseille","lat":43.264863,"lon":5.409622,"is_reserved":false,"is_disabled":false,"rental_uris":{"android":"levelo://app?vid=ed1aa8e0-a33b-4919-9e0d-ab75dc3c6a07","ios":"levelo://app?vid=ed1aa8e0-a33b-4919-9e0d-ab75dc3c6a07"},"vehicle_type_id":"4","last_reported":1749622579,"current_range_meters":20400,"station_id":"","pricing_plan_id":"cebpf4jnsgd1na2vs0mg"},{"bike_id":"3db8fde5-dc25-47f9-adb5-1429f5338e31","system_id":"levelo_inurba_marseille","lat":43.317495,"lon":5.384722,"is_reserved":false,"is_disabled":false,"rental_uris":{"android":"levelo://app?vid=3db8fde5-dc25-47f9-adb5-1429f5338e31","ios":"levelo://app?vid=3db8fde5-dc25-47f9-adb5-1429f5338e31"},"vehicle_type_id":"4","last_reported":1749622579,"current_range_meters":20400,"station_id":"","pricing_plan_id":"cebpf4jnsgd1na2vs0mg"},{"bike_id":"00e1765b-c113-458d-af17-4ffde14bace6","system_id":"levelo_inurba_marseille","lat":43.27495,"lon":5.42452,"is_reserved":false,"is_disabled":false,"rental_uris":{"android":"levelo://app?vid=00e1765b-c113-458d-af17-4ffde14bace6","ios":"levelo://app?vid=00e1765b-c113-458d-af17-4ffde14bace6"},"vehicle_type_id":"4","last_reported":1749622579,"current_range_meters":20400,"station_id":"ce4bhn92rcd13ifvqgrg","pricing_plan_id":"cebpf4jnsgd1na2vs0mg"},{"bike_id":"199978a5-d5a4-49e7-ad67-bb91c097cd3c","system_id":"levelo_inurba_marseille","lat":43.24557,"lon":5.39519,"is_reserved":false,"is_disabled":false,"rental_uris":{"android":"levelo://app?vid=199978a5-d5a4-49e7-ad67-bb91c097cd3c","ios":"levelo://app?vid=199978a5-d5a4-49e7-ad67-bb91c097cd3c"},"vehicle_type_id":"4","last_reported":1749622579,"current_range_meters":20800,"station_id":"ce4bhlp2rcd13ifvqgjg","pricing_plan_id":"cebpf4jnsgd1na2vs0mg"},{"bike_id":"34aef53d-21b2-4f85-b3c8-0b6ce0b3af7f","system_id":"levelo_inurba_marseille","lat":43.316873,"lon":5.404804,"is_reserved":false,"is_disabled":false,"rental_uris":{"android":"levelo://app?vid=34aef53d-21b2-4f85-b3c8-0b6ce0b3af7f","ios":"levelo://app?vid=34aef53d-21b2-4f85-b3c8-0b6ce0b3af7f"},"vehicle_type_id":"4","last_reported":1749622579,"current_range_meters":20800,"station_id":"ce4bh012rcd13ifvqd00","pricing_plan_id":"cebpf4jnsgd1na2vs0mg"},{"bike_id":"98855dfb-7f1a-4ad2-b5c8-6854d863a5f3","system_id":"levelo_inurba_marseille","lat":43.28166,"lon":5.42622,"is_reserved":false,"is_disabled":true,"rental_uris":{"android":"levelo://app?vid=98855dfb-7f1a-4ad2-b5c8-6854d863a5f3","ios":"levelo://app?vid=98855dfb-7f1a-4ad2-b5c8-6854d863a5f3"},"vehicle_type_id":"4","last_reported":1749622579,"current_range_meters":20800,"station_id":"ce4bhnh2rcd13ifvqgug","pricing_plan_id":"cebpf4jnsgd1na2vs0mg"},{"bike_id":"4c9c23c3-b165-465e-869e-60e2aa99b655","system_id":"levelo_inurba_marseille","lat":43.29024,"lon":5.38128,"is_reserved":false,"is_disabled":false,"rental_uris":{"android":"levelo://app?vid=4c9c23c3-b165-465e-869e-60e2aa99b655","ios":"levelo://app?vid=4c9c23c3-b165-465e-869e-60e2aa99b655"},"vehicle_type_id":"4","last_reported":1749622579,"current_range_meters":20800,"station_id":"ce4bh4p2rcd13ifvqe1g","pricing_plan_id":"cebpf4jnsgd1na2vs0mg"},{"bike_id":"ed7b6444-d227-40dd-8b71-2b25b2f39759","system_id":"levelo_inurba_marseille","lat":43.315514,"lon":5.373236,"is_reserved":false,"is_disabled":false,"rental_uris":{"android":"levelo://app?vid=ed7b6444-d227-40dd-8b71-2b25b2f39759","ios":"levelo://app?vid=ed7b6444-d227-40dd-8b71-2b25b2f39759"},"vehicle_type_id":"4","last_reported":1749622579,"current_range_meters":20800,"station_id":"","pricing_plan_id":"cebpf4jnsgd1na2vs0mg"},{"bike_id":"9af9db5d-c58f-41ef-9c39-74eea1a2a942","system_id":"levelo_inurba_marseille","lat":43.29971,"lon":5.38501,"is_reserved":false,"is_disabled":true,"rental_uris":{"android":"levelo://app?vid=9af9db5d-c58f-41ef-9c39-74eea1a2a942","ios":"levelo://app?vid=9af9db5d-c58f-41ef-9c39-74eea1a2a942"},"vehicle_type_id":"4","last_reported":1749622579,"current_range_meters":20800,"station_id":"ce4bgj92rcd13ifvqbd0","pricing_plan_id":"cebpf4jnsgd1na2vs0mg"},{"bike_id":"7003b93c-725d-412e-9127-fbade718cbc3","system_id":"levelo_inurba_marseille","lat":43.21205,"lon":5.35066,"is_reserved":false,"is_disabled":false,"rental_uris":{"android":"levelo://app?vid=7003b93c-725d-412e-9127-fbade718cbc3","ios":"levelo://app?vid=7003b93c-725d-412e-9127-fbade718cbc3"},"vehicle_type_id":"4","last_reported":1749622579,"current_range_meters":20800,"station_id":"st_cvj6sg6p6f1abm77japg","pricing_plan_id":"cebpf4jnsgd1na2vs0mg"},{"bike_id":"f3f2892c-900c-4b16-9b70-13f56c0f7e58","system_id":"levelo_inurba_marseille","lat":43.2977,"lon":5.371,"is_reserved":false,"is_disabled":false,"rental_uris":{"android":"levelo://app?vid=f3f2892c-900c-4b16-9b70-13f56c0f7e58","ios":"levelo://app?vid=f3f2892c-900c-4b16-9b70-13f56c0f7e58"},"vehicle_type_id":"4","last_reported":1749622579,"current_range_meters":20800,"station_id":"ce4bgop2rcd13ifvqc1g","pricing_plan_id":"cebpf4jnsgd1na2vs0mg"},{"bike_id":"36604c08-b0ea-4a17-be13-9ad9348add4f","system_id":"levelo_inurba_marseille","lat":43.30154,"lon":5.38092,"is_reserved":false,"is_disabled":false,"rental_uris":{"android":"levelo://app?vid=36604c08-b0ea-4a17-be13-9ad9348add4f","ios":"levelo://app?vid=36604c08-b0ea-4a17-be13-9ad9348add4f"},"vehicle_type_id":"4","last_reported":1749622579,"current_range_meters":20800,"station_id":"ce4bgjp2rcd13ifvqbh0","pricing_plan_id":"cebpf4jnsgd1na2vs0mg"},{"bike_id":"856e1d14-de51-41fd-beba-75a5a5cbd9b1","system_id":"levelo_inurba_marseille","lat":43.30154,"lon":5.38103,"is_reserved":false,"is_disabled":false,"rental_uris":{"android":"levelo://app?vid=856e1d14-de51-41fd-beba-75a5a5cbd9b1","ios":"levelo://app?vid=856e1d14-de51-41fd-beba-75a5a5cbd9b1"},"vehicle_type_id":"4","last_reported":1749622579,"current_range_meters":20800,"station_id":"ce4bgjp2rcd13ifvqbh0","pricing_plan_id":"cebpf4jnsgd1na2vs0mg"},{"bike_id":"4b7fa5d6-4773-45d6-9908-97396e822ca9","system_id":"levelo_inurba_marseille","lat":43.31765,"lon":5.39008,"is_reserved":false,"is_disabled":false,"rental_uris":{"android":"levelo://app?vid=4b7fa5d6-4773-45d6-9908-97396e822ca9","ios":"levelo://app?vid=4b7fa5d6-4773-45d6-9908-97396e822ca9"},"vehicle_type_id":"4","last_reported":1749622579,"current_range_meters":20800,"station_id":"ce4bhqp2rcd13ifvqhng","pricing_plan_id":"cebpf4jnsgd1na2vs0mg"},{"bike_id":"da3304cf-e9fb-48d8-ae6e-a5601281487d","system_id":"levelo_inurba_marseille","lat":43.32365,"lon":5.38893,"is_reserved":false,"is_disabled":false,"rental_uris":{"android":"levelo://app?vid=da3304cf-e9fb-48d8-ae6e-a5601281487d","ios":"levelo://app?vid=da3304cf-e9fb-48d8-ae6e-a5601281487d"},"vehicle_type_id":"4","last_reported":1749622579,"current_range_meters":21600,"station_id":"ce4bhqp2rcd13ifvqhog","pricing_plan_id":"cebpf4jnsgd1na2vs0mg"},{"bike_id":"09eda147-ba5d-4f75-813b-8736cdbf337e","system_id":"levelo_inurba_marseille","lat":43.25134,"lon":5.40291,"is_reserved":false,"is_disabled":false,"rental_uris":{"android":"levelo://app?vid=09eda147-ba5d-4f75-813b-8736cdbf337e","ios":"levelo://app?vid=09eda147-ba5d-4f75-813b-8736cdbf337e"},"vehicle_type_id":"4","last_reported":1749622579,"current_range_meters":21600,"station_id":"ce4bhlh2rcd13ifvqgig","pricing_plan_id":"cebpf4jnsgd1na2vs0mg"},{"bike_id":"756fe054-49ba-4207-aada-09667622ed41","system_id":"levelo_inurba_marseille","lat":43.34141,"lon":5.40913,"is_reserved":false,"is_disabled":true,"rental_uris":{"android":"levelo://app?vid=756fe054-49ba-4207-aada-09667622ed41","ios":"levelo://app?vid=756fe054-49ba-4207-aada-09667622ed41"},"vehicle_type_id":"4","last_reported":1749622579,"current_range_meters":21600,"station_id":"ce4bhqh2rcd13ifvqhlg","pricing_plan_id":"cebpf4jnsgd1na2vs0mg"},{"bike_id":"fed9df9d-e54c-42c9-99f0-aea68d0d6d0c","system_id":"levelo_inurba_marseille","lat":43.280264,"lon":5.369483,"is_reserved":false,"is_disabled":false,"rental_uris":{"android":"levelo://app?vid=fed9df9d-e54c-42c9-99f0-aea68d0d6d0c","ios":"levelo://app?vid=fed9df9d-e54c-42c9-99f0-aea68d0d6d0c"},"vehicle_type_id":"4","last_reported":1749622579,"current_range_meters":21600,"station_id":"ce4bha12rcd13ifvqef0","pricing_plan_id":"cebpf4jnsgd1na2vs0mg"},{"bike_id":"3f721d0a-a8f4-479e-aaa6-6ed8f7b1d35e","system_id":"levelo_inurba_marseille","lat":43.26206,"lon":5.37925,"is_reserved":false,"is_disabled":true,"rental_uris":{"android":"levelo://app?vid=3f721d0a-a8f4-479e-aaa6-6ed8f7b1d35e","ios":"levelo://app?vid=3f721d0a-a8f4-479e-aaa6-6ed8f7b1d35e"},"vehicle_type_id":"4","last_reported":1749622579,"current_range_meters":22000,"station_id":"ce4bhjp2rcd13ifvqg90","pricing_plan_id":"cebpf4jnsgd1na2vs0mg"},{"bike_id":"e0249f4b-8d8b-4dc7-a224-9ea697947c37","system_id":"levelo_inurba_marseille","lat":43.31715,"lon":5.42415,"is_reserved":false,"is_disabled":false,"rental_uris":{"android":"levelo://app?vid=e0249f4b-8d8b-4dc7-a224-9ea697947c37","ios":"levelo://app?vid=e0249f4b-8d8b-4dc7-a224-9ea697947c37"},"vehicle_type_id":"4","last_reported":1749622579,"current_range_meters":22000,"station_id":"ce4bhp92rcd13ifvqhbg","pricing_plan_id":"cebpf4jnsgd1na2vs0mg"},{"bike_id":"8d9fab8c-f711-40c2-bb91-e2437a249ee3","system_id":"levelo_inurba_marseille","lat":43.30649,"lon":5.40092,"is_reserved":false,"is_disabled":false,"rental_uris":{"android":"levelo://app?vid=8d9fab8c-f711-40c2-bb91-e2437a249ee3","ios":"levelo://app?vid=8d9fab8c-f711-40c2-bb91-e2437a249ee3"},"vehicle_type_id":"4","last_reported":1749622579,"current_range_meters":22000,"station_id":"ce4bh112rcd13ifvqda0","pricing_plan_id":"cebpf4jnsgd1na2vs0mg"},{"bike_id":"3cb0af7c-994a-4b71-98dc-211ebea626ad","system_id":"levelo_inurba_marseille","lat":43.32354,"lon":5.36741,"is_reserved":false,"is_disabled":false,"rental_uris":{"android":"levelo://app?vid=3cb0af7c-994a-4b71-98dc-211ebea626ad","ios":"levelo://app?vid=3cb0af7c-994a-4b71-98dc-211ebea626ad"},"vehicle_type_id":"4","last_reported":1749622579,"current_range_meters":22000,"station_id":"ce4bhsh2rcd13ifvqi2g","pricing_plan_id":"cebpf4jnsgd1na2vs0mg"},