{"last_updated":1746821465,"ttl":60,"version":"2.2","data":{"bikes":[{"bike_id":"1f877747-f2df-490b-a7e9-5f5b19e4b6c5","system_id":"levelo_inurba_marseille","lat":43.25932,"lon":5.40912,"is_reserved":false,"is_disabled":false,"rental_uris":{"android":"levelo://app?vid=1f877747-f2df-490b-a7e9-5f5b19e4b6c5","ios":"levelo://app?vid=1f877747-f2df-490b-a7e9-5f5b19e4b6c5"},"vehicle_type_id":"4","last_reported":1746821465,"current_range_meters":3200,"station_id":"ce4bhm92rcd13ifvqglg","pricing_plan_id":"cebpf4jnsgd1na2vs0mg"},{"bike_id":"ae8a1b99-ee76-4854-94ef-163b30a54289","system_id":"levelo_inurba_marseille","lat":43.29786,"lon":5.37099,"is_reserved":false,"is_disabled":false,"rental_uris":{"android":"levelo://app?vid=ae8a1b99-ee76-4854-94ef-163b30a54289","ios":"levelo://app?vid=ae8a1b99-ee76-4854-94ef-163b30a54289"},"vehicle_type_id":"4","last_reported":1746821465,"current_range_meters":3600,"station_id":"ce4bgop2rcd13ifvqc1g","pricing_plan_id":"cebpf4jnsgd1na2vs0mg"},{"bike_id":"b580b481-bcd9-4b80-a986-b166c8328ba4","system_id":"levelo_inurba_marseille","lat":43.30789,"lon":5.37639,"is_reserved":false,"is_disabled":false,"rental_uris":{"android":"levelo://app?vid=b580b481-bcd9-4b80-a986-b166c8328ba4","ios":"levelo://app?vid=b580b481-bcd9-4b80-a986-b166c8328ba4"},"vehicle_type_id":"4","last_reported":1746821465,"current_range_meters":4000,"station_id":"ce4bgv92rcd13ifvqcq0","pricing_plan_id":"cebpf4jnsgd1na2vs0mg"},{"bike_id":"25a96692-2520-4afa-9aa1-9349c25bb692","system_id":"levelo_inurba_marseille","lat":43.305472,"lon":5.365293,"is_reserved":false,"is_disabled":true,"rental_uris":{"android":"levelo://app?vid=25a96692-2520-4afa-9aa1-9349c25bb692","ios":"levelo://app?vid=25a96692-2520-4afa-9aa1-9349c25bb692"},"vehicle_type_id":"4","last_reported":1746821465,"current_range_meters":4000,"station_id":"ce4bgs12rcd13ifvqcag","pricing_plan_id":"cebpf4jnsgd1na2vs0mg"},{"bike_id":"f5e69696-a0c7-4cba-8527-1ab0e386fe0e","system_id":"levelo_inurba_marseille","lat":43.29613,"lon":5.37737,"is_reserved":false,"is_disabled":false,"rental_uris":{"android":"levelo://app?vid=f5e69696-a0c7-4cba-8527-1ab0e386fe0e","ios":"levelo://app?vid=f5e69696-a0c7-4cba-8527-1ab0e386fe0e"},"vehicle_type_id":"4","last_reported":1746821465,"current_range_meters":4400,"station_id":"ce4bgi92rcd13ifvqb90","pricing_plan_id":"cebpf4jnsgd1na2vs0mg"},{"bike_id":"be13055f-fac6-4b00-9b2e-8fbb5d05473f","system_id":"levelo_inurba_marseille","lat":43.23192,"lon":5.35556,"is_reserved":false,"is_disabled":false,"rental_uris":{"android":"levelo://app?vid=be13055f-fac6-4b00-9b2e-8fbb5d05473f","ios":"levelo://app?vid=be13055f-fac6-4b00-9b2e-8fbb5d05473f"},"vehicle_type_id":"4","last_reported":1746821465,"current_range_meters":4400,"station_id":"ce4bhu92rcd13ifvqi70","pricing_plan_id":"cebpf4jnsgd1na2vs0mg"},{"bike_id":"a4e02728-5698-477e-ae90-f5ed8a8dd84f","system_id":"levelo_inurba_marseille","lat":43.28155,"lon":5.42646,"is_reserved":false,"is_disabled":false,"rental_uris":{"android":"levelo://app?vid=a4e02728-5698-477e-ae90-f5ed8a8dd84f","ios":"levelo://app?vid=a4e02728-5698-477e-ae90-f5ed8a8dd84f"},"vehicle_type_id":"4","last_reported":1746821465,"current_range_meters":4800,"station_id":"ce4bhnh2rcd13ifvqgug","pricing_plan_id":"cebpf4jnsgd1na2vs0mg"},{"bike_id":"5e4db21e-ef7f-44a5-87a7-c3c028ac6932","system_id":"levelo_inurba_marseille","lat":43.29504,"lon":5.37513,"is_reserved":false,"is_disabled":false,"rental_uris":{"android":"levelo://app?vid=5e4db21e-ef7f-44a5-87a7-c3c028ac6932","ios":"levelo://app?vid=5e4db21e-ef7f-44a5-87a7-c3c028ac6932"},"vehicle_type_id":"4","last_reported":1746821465,"current_range_meters":4800,"station_id":"ce4bgkp2rcd13ifvqbmg","pricing_plan_id":"cebpf4jnsgd1na2vs0mg"},{"bike_id":"af44b6b7-06af-4c19-8105-49b4080b5e1d","system_id":"levelo_inurba_marseille","lat":43.23201,"lon":5.3998,"is_reserved":false,"is_disabled":false,"rental_uris":{"android":"levelo://app?vid=af44b6b7-06af-4c19-8105-49b4080b5e1d","ios":"levelo://app?vid=af44b6b7-06af-4c19-8105-49b4080b5e1d"},"vehicle_type_id":"4","last_reported":1746821465,"current_range_meters":4800,"station_id":"ce4bhn12rcd13ifvqgqg","pricing_plan_id":"cebpf4jnsgd1na2vs0mg"},{"bike_id":"15d86161-11ad-4021-887d-d788064ab1f1","system_id":"levelo_inurba_marseille","lat":43.24547,"lon":5.39523,"is_reserved":false,"is_disabled":false,"rental_uris":{"android":"levelo://app?vid=15d86161-11ad-4021-887d-d788064ab1f1","ios":"levelo://app?vid=15d86161-11ad-4021-887d-d788064ab1f1"},"vehicle_type_id":"4","last_reported":1746821465,"current_range_meters":4800,"station_id":"ce4bhlp2rcd13ifvqgjg","pricing_plan_id":"cebpf4jnsgd1na2vs0mg"},{"bike_id":"3c6d0c37-471a-4ce7-b166-52edc6a87b8b","system_id":"levelo_inurba_marseille","lat":43.262294,"lon":5.404446,"is_reserved":false,"is_disabled":true,"rental_uris":{"android":"levelo://app?vid=3c6d0c37-471a-4ce7-b166-52edc6a87b8b","ios":"levelo://app?vid=3c6d0c37-471a-4ce7-b166-52edc6a87b8b"},"vehicle_type_id":"4","last_reported":1746821465,"current_range_meters":4800,"station_id":"ce4bhmh2rcd13ifvqgmg","pricing_plan_id":"cebpf4jnsgd1na2vs0mg"},{"bike_id":"4b4dd204-61be-4776-a5f0-f057dae52dc7","system_id":"levelo_inurba_marseille","lat":43.30401,"lon":5.41299,"is_reserved":false,"is_disabled":false,"rental_uris":{"android":"levelo://app?vid=4b4dd204-61be-4776-a5f0-f057dae52dc7","ios":"levelo://app?vid=4b4dd204-61be-4776-a5f0-f057dae52dc7"},"vehicle_type_id":"4","last_reported":1746821465,"current_range_meters":5600,"station_id":"ce4bhop2rcd13ifvqh8g","pricing_plan_id":"cebpf4jnsgd1na2vs0mg"},{"bike_id":"ad3df806-202f-4316-a19e-38c7444ea139","system_id":"levelo_inurba_marseille","lat":43.26212,"lon":5.3744,"is_reserved":false,"is_disabled":false,"rental_uris":{"android":"levelo://app?vid=ad3df806-202f-4316-a19e-38c7444ea139","ios":"levelo://app?vid=ad3df806-202f-4316-a19e-38c7444ea139"},"vehicle_type_id":"4","last_reported":1746821465,"current_range_meters":5600,"station_id":"ce4bhgp2rcd13ifvqfc0","pricing_plan_id":"cebpf4jnsgd1na2vs0mg"},{"bike_id":"be7f517b-801a-4a18-a5af-dc28aa8d2556","system_id":"levelo_inurba_marseille","lat":43.33023,"lon":5.39042,"is_reserved":false,"is_disabled":false,"rental_uris":{"android":"levelo://app?vid=be7f517b-801a-4a18-a5af-dc28aa8d2556","ios":"levelo://app?vid=be7f517b-801a-4a18-a5af-dc28aa8d2556"},"vehicle_type_id":"4","last_reported":1746821465,"current_range_meters":6000,"station_id":"ce4bhr92rcd13ifvqhrg","pricing_plan_id":"cebpf4jnsgd1na2vs0mg"},{"bike_id":"b84637ec-f8cb-444f-bdd7-b5489cae6ff6","system_id":"levelo_inurba_marseille","lat":43.25,"lon":5.389278,"is_reserved":false,"is_disabled":false,"rental_uris":{"android":"levelo://app?vid=b84637ec-f8cb-444f-bdd7-b5489cae6ff6","ios":"levelo://app?vid=b84637ec-f8cb-444f-bdd7-b5489cae6ff6"},"vehicle_type_id":"4","last_reported":1746821465,"current_range_meters":6400,"station_id":"ce4bhnp2rcd13ifvqgvg","pricing_plan_id":"cebpf4jnsgd1na2vs0mg"},{"bike_id":"a31dd3f2-800a-4a46-af86-f01545cac035","system_id":"levelo_inurba_marseille","lat":43.26957,"lon":5.38637,"is_reserved":false,"is_disabled":false,"rental_uris":{"android":"levelo://app?vid=a31dd3f2-800a-4a46-af86-f01545cac035","ios":"levelo://app?vid=a31dd3f2-800a-4a46-af86-f01545cac035"},"vehicle_type_id":"4","last_reported":1746821465,"current_range_meters":6400,"station_id":"ce4bhh92rcd13ifvqfh0","pricing_plan_id":"cebpf4jnsgd1na2vs0mg"},{"bike_id":"493544a9-e88f-4256-a113-5e7a951c0d1a","system_id":"levelo_inurba_marseille","lat":43.25104,"lon":5.40322,"is_reserved":false,"is_disabled":false,"rental_uris":{"android":"levelo://app?vid=493544a9-e88f-4256-a113-5e7a951c0d1a","ios":"levelo://app?vid=493544a9-e88f-4256-a113-5e7a951c0d1a"},"vehicle_type_id":"4","last_reported":1746821465,"current_range_meters":6800,"station_id":"ce4bhlh2rcd13ifvqgig","pricing_plan_id":"cebpf4jnsgd1na2vs0mg"},{"bike_id":"ce891d78-268d-4657-895e-e7d14c9c13da","system_id":"levelo_inurba_marseille","lat":43.25581,"lon":5.3823,"is_reserved":false,"is_disabled":false,"rental_uris":{"android":"levelo://app?vid=ce891d78-268d-4657-895e-e7d14c9c13da","ios":"levelo://app?vid=ce891d78-268d-4657-895e-e7d14c9c13da"},"vehicle_type_id":"4","last_reported":1746821465,"current_range_meters":6800,"station_id":"ce4bhih2rcd13ifvqfs0","pricing_plan_id":"cebpf4jnsgd1na2vs0mg"},{"bike_id":"ce60d88c-00ee-498d-97b8-2e92858a1416","system_id":"levelo_inurba_marseille","lat":43.31708,"lon":5.43703,"is_reserved":false,"is_disabled":false,"rental_uris":{"android":"levelo://app?vid=ce60d88c-00ee-498d-97b8-2e92858a1416","ios":"levelo://app?vid=ce60d88c-00ee-498d-97b8-2e92858a1416"},"vehicle_type_id":"4","last_reported":1746821465,"current_range_meters":6800,"station_id":"ce4bhp92rcd13ifvqhcg","pricing_plan_id":"cebpf4jnsgd1na2vs0mg"},{"bike_id":"f76d0e06-a922-41bb-9df5-d0a5c7d3f9fc","system_id":"levelo_inurba_marseille","lat":43.2893,"lon":5.38392,"is_reserved":false,"is_disabled":true,"rental_uris":{"android":"levelo://app?vid=f76d0e06-a922-41bb-9df5-d0a5c7d3f9fc","ios":"levelo://app?vid=f76d0e06-a922-41bb-9df5-d0a5c7d3f9fc"},"vehicle_type_id":"4","last_reported":1746821465,"current_range_meters":7200,"station_id":"ce4bh612rcd13ifvqe6g","pricing_plan_id":"cebpf4jnsgd1na2vs0mg"},{"bike_id":"f673a50d-776a-4d4f-8bc2-0f75017ffb52","system_id":"levelo_inurba_marseille","lat":43.284499,"lon":5.358347,"is_reserved":false,"is_disabled":false,"rental_uris":{"android":"levelo://app?vid=f673a50d-776a-4d4f-8bc2-0f75017ffb52","ios":"levelo://app?vid=f673a50d-776a-4d4f-8bc2-0f75017ffb52"},"vehicle_type_id":"4","last_reported":1746821465,"current_range_meters":7200,"station_id":"ce4bhah2rcd13ifvqei0","pricing_plan_id":"cebpf4jnsgd1na2vs0mg"},{"bike_id":"4dfaeac6-3007-4f5d-bc9d-26f9bcfa4129","system_id":"levelo_inurba_marseille","lat":43.303103,"lon":5.404333,"is_reserved":false,"is_disabled":false,"rental_uris":{"android":"levelo://app?vid=4dfaeac6-3007-4f5d-bc9d-26f9bcfa4129","ios":"levelo://app?vid=4dfaeac6-3007-4f5d-bc9d-26f9bcfa4129"},"vehicle_type_id":"4","last_reported":1746821465,"current_range_meters":7200,"station_id":"ce4bh012rcd13ifvqd10","pricing_plan_id":"cebpf4jnsgd1na2vs0mg"},{"bike_id":"eabf6de9-ac45-4b34-b2cd-1041883d4522","system_id":"levelo_inurba_marseille","lat":43.28149,"lon":5.42628,"is_reserved":false,"is_disabled":false,"rental_uris":{"android":"levelo://app?vid=eabf6de9-ac45-4b34-b2cd-1041883d4522","ios":"levelo://app?vid=eabf6de9-ac45-4b34-b2cd-1041883d4522"},"vehicle_type_id":"4","last_reported":1746821465,"current_range_meters":7200,"station_id":"ce4bhnh2rcd13ifvqgug","pricing_plan_id":"cebpf4jnsgd1na2vs0mg"},{"bike_id":"a220dbbc-7421-4747-ba2c-a17a64b8fc65","system_id":"levelo_inurba_marseille","lat":43.27422,"lon":5.39415,"is_reserved":false,"is_disabled":false,"rental_uris":{"android":"levelo://app?vid=a220dbbc-7421-4747-ba2c-a17a64b8fc65","ios":"levelo://app?vid=a220dbbc-7421-4747-ba2c-a17a64b8fc65"},"vehicle_type_id":"4","last_reported":1746821465,"current_range_meters":7200,"station_id":"ce4bhdp2rcd13ifvqf20","pricing_plan_id":"cebpf4jnsgd1na2vs0mg"},{"bike_id":"fe511e7a-8e47-49e4-a1a1-123d531ce4eb","system_id":"levelo_inurba_marseille","lat":43.29424,"lon":5.38622,"is_reserved":false,"is_disabled":false,"rental_uris":{"android":"levelo://app?vid=fe511e7a-8e47-49e4-a1a1-123d531ce4eb","ios":"levelo://app?vid=fe511e7a-8e47-49e4-a1a1-123d531ce4eb"},"vehicle_type_id":"4","last_reported":1746821465,"current_range_meters":7200,"station_id":"ce4bh2h2rcd13ifvqdh0","pricing_plan_id":"cebpf4jnsgd1na2vs0mg"},{"bike_id":"ba32ee3a-6a49-437c-90fb-7756461a61f4","system_id":"levelo_inurba_marseille","lat":43.24174,"lon":5.36389,"is_reserved":false,"is_disabled":false,"rental_uris":{"android":"levelo://app?vid=ba32ee3a-6a49-437c-90fb-7756461a61f4","ios":"levelo://app?vid=ba32ee3a-6a49-437c-90fb-7756461a61f4"},"vehicle_type_id":"4","last_reported":1746821465,"current_range_meters":8000,"station_id":"cpo36qri1sfpv3e86is0","pricing_plan_id":"cebpf4jnsgd1na2vs0mg"},{"bike_id":"0f5ca589-0ef7-428d-94ec-f0fc8b76ceb4","system_id":"levelo_inurba_marseille","lat":43.28157,"lon":5.42639,"is_reserved":false,"is_disabled":false,"rental_uris":{"android":"levelo://app?vid=0f5ca589-0ef7-428d-94ec-f0fc8b76ceb4","ios":"levelo://app?vid=0f5ca589-0ef7-428d-94ec-f0fc8b76ceb4"},"vehicle_type_id":"4","last_reported":1746821465,"current_range_meters":8000,"station_id":"ce4bhnh2rcd13ifvqgug","pricing_plan_id":"cebpf4jnsgd1na2vs0mg"},{"bike_id":"4a6a223b-936b-43b2-adf7-2350062c077c","system_id":"levelo_inurba_marseille","lat":43.295135,"lon":5.394009,"is_reserved":false,"is_disabled":false,"rental_uris":{"android":"levelo://app?vid=4a6a223b-936b-43b2-adf7-2350062c077c","ios":"levelo://app?vid=4a6a223b-936b-43b2-adf7-2350062c077c"},"vehicle_type_id":"4","last_reported":1746821465,"current_range_meters":8000,"station_id":"ce4bh292rcd13ifvqdf0","pricing_plan_id":"cebpf4jnsgd1na2vs0mg"},{"bike_id":"283c096d-9775-40df-9ef5-3ff56b9146cb","system_id":"levelo_inurba_marseille","lat":43.2293,"lon":5.35377,"is_reserved":false,"is_disabled":true,"rental_uris":{"android":"levelo://app?vid=283c096d-9775-40df-9ef5-3ff56b9146cb","ios":"levelo://app?vid=283c096d-9775-40df-9ef5-3ff56b9146cb"},"vehicle_type_id":"4","last_reported":1746821465,"current_range_meters":8000,"station_id":"cpo3532slgdg3j2ikp40","pricing_plan_id":"cebpf4jnsgd1na2vs0mg"},{"bike_id":"caf9033d-5f00-49c3-b1ee-1328b62008dc","system_id":"levelo_inurba_marseille","lat":43.335906,"lon":5.428184,"is_reserved":false,"is_disabled":false,"rental_uris":{"android":"levelo://app?vid=caf9033d-5f00-49c3-b1ee-1328b62008dc","ios":"levelo://app?vid=caf9033d-5f00-49c3-b1ee-1328b62008dc"},"vehicle_type_id":"4","last_reported":1746821465,"current_range_meters":8000,"station_id":"","pricing_plan_id":"cebpf4jnsgd1na2vs0mg"},{"bike_id":"f1b07d7d-b31a-4788-aefb-994afd600837","system_id":"levelo_inurba_marseille","lat":43.29326,"lon":5.37109,"is_reserved":false,"is_disabled":false,"rental_uris":{"android":"levelo://app?vid=f1b07d7d-b31a-4788-aefb-994afd600837","ios":"levelo://app?vid=f1b07d7d-b31a-4788-aefb-994afd600837"},"vehicle_type_id":"4","last_reported":1746821465,"current_range_meters":8000,"station_id":"","pricing_plan_id":"cebpf4jnsgd1na2vs0mg"},{"bike_id":"dff362e7-0dc5-4aac-b0e8-e6e174eac16e","system_id":"levelo_inurba_marseille","lat":43.27377,"lon":5.3626,"is_reserved":false,"is_disabled":false,"rental_uris":{"android":"levelo://app?vid=dff362e7-0dc5-4aac-b0e8-e6e174eac16e","ios":"levelo://app?vid=dff362e7-0dc5-4aac-b0e8-e6e174eac16e"},"vehicle_type_id":"4","last_reported":1746821465,"current_range_meters":8400,"station_id":"ce4bhbh2rcd13ifvqeo0","pricing_plan_id":"cebpf4jnsgd1na2vs0mg"},{"bike_id":"41b1a32b-2cab-4ffc-b477-33d19a4dd033","system_id":"levelo_inurba_marseille","lat":43.24553,"lon":5.39528,"is_reserved":false,"is_disabled":false,"rental_uris":{"android":"levelo://app?vid=41b1a32b-2cab-4ffc-b477-33d19a4dd033","ios":"levelo://app?vid=41b1a32b-2cab-4ffc-b477-33d19a4dd033"},"vehicle_type_id":"4","last_reported":1746821465,"current_range_meters":8400,"station_id":"ce4bhlp2rcd13ifvqgjg","pricing_plan_id":"cebpf4jnsgd1na2vs0mg"},{"bike_id":"449c8e4c-1dfc-4a0f-9abe-24629348c63c","system_id":"levelo_inurba_marseille","lat":43.284,"lon":5.37521,"is_reserved":false,"is_disabled":false,"rental_uris":{"android":"levelo://app?vid=449c8e4c-1dfc-4a0f-9abe-24629348c63c","ios":"levelo://app?vid=449c8e4c-1dfc-4a0f-9abe-24629348c63c"},"vehicle_type_id":"4","last_reported":1746821465,"current_range_meters":8000,"station_id":"ce4bh412rcd13ifvqds0","pricing_plan_id":"cebpf4jnsgd1na2vs0mg"},{"bike_id":"17e40873-1438-448e-9d4c-7a17b4ad4c41","system_id":"levelo_inurba_marseille","lat":43.28105,"lon":5.3783,"is_reserved":false,"is_disabled":false,"rental_uris":{"android":"levelo://app?vid=17e40873-1438-448e-9d4c-7a17b4ad4c41","ios":"levelo://app?vid=17e40873-1438-448e-9d4c-7a17b4ad4c41"},"vehicle_type_id":"4","last_reported":1746821465,"current_range_meters":8400,"station_id":"ce4bha12rcd13ifvqee0","pricing_plan_id":"cebpf4jnsgd1na2vs0mg"},{"bike_id":"57d211e1-4799-476c-bef1-16a74a9078be","system_id":"levelo_inurba_marseille","lat":43.21749,"lon":5.34599,"is_reserved":false,"is_disabled":false,"rental_uris":{"android":"levelo://app?vid=57d211e1-4799-476c-bef1-16a74a9078be","ios":"levelo://app?vid=57d211e1-4799-476c-bef1-16a74a9078be"},"vehicle_type_id":"4","last_reported":1746821465,"current_range_meters":8400,"station_id":"st_cvj6r9ubvosntc0bgbag","pricing_plan_id":"cebpf4jnsgd1na2vs0mg"},{"bike_id":"730113d7-e72b-4423-a22e-1832e56b04d0","system_id":"levelo_inurba_marseille","lat":43.29424,"lon":5.38684,"is_reserved":false,"is_disabled":true,"rental_uris":{"android":"levelo://app?vid=730113d7-e72b-4423-a22e-1832e56b04d0","ios":"levelo://app?vid=730113d7-e72b-4423-a22e-1832e56b04d0"},"vehicle_type_id":"4","last_reported":1746821465,"current_range_meters":8800,"station_id":"ce4bh2h2rcd13ifvqdh0","pricing_plan_id":"cebpf4jnsgd1na2vs0mg"},{"bike_id":"a5035683-e922-4659-b77f-9b07031bc84e","system_id":"levelo_inurba_marseille","lat":43.21749,"lon":5.34603,"is_reserved":false,"is_disabled":true,"rental_uris":{"android":"levelo://app?vid=a5035683-e922-4659-b77f-9b07031bc84e","ios":"levelo://app?vid=a5035683-e922-4659-b77f-9b07031bc84e"},"vehicle_type_id":"4","last_reported":1746821465,"current_range_meters":8800,"station_id":"st_cvj6r9ubvosntc0bgbag","pricing_plan_id":"cebpf4jnsgd1na2vs0mg"},{"bike_id":"1771c0e2-1fe6-49ff-8a23-2166fe76f883","system_id":"levelo_inurba_marseille","lat":43.23177,"lon":5.39986,"is_reserved":false,"is_disabled":false,"rental_uris":{"android":"levelo://app?vid=1771c0e2-1fe6-49ff-8a23-2166fe76f883","ios":"levelo://app?vid=1771c0e2-1fe6-49ff-8a23-2166fe76f883"},"vehicle_type_id":"4","last_reported":1746821465,"current_range_meters":8800,"station_id":"ce4bhn12rcd13ifvqgqg","pricing_plan_id":"cebpf4jnsgd1na2vs0mg"},{"bike_id":"1e5542d3-968e-4cb2-9ecd-84e32d628c67","system_id":"levelo_inurba_marseille","lat":43.29961,"lon":5.41319,"is_reserved":false,"is_disabled":false,"rental_uris":{"android":"levelo://app?vid=1e5542d3-968e-4cb2-9ecd-84e32d628c67","ios":"levelo://app?vid=1e5542d3-968e-4cb2-9ecd-84e32d628c67"},"vehicle_type_id":"4","last_reported":1746821465,"current_range_meters":9200,"station_id":"ce4bhp12rcd13ifvqh9g","pricing_plan_id":"cebpf4jnsgd1na2vs0mg"},{"bike_id":"7bbddab9-ce58-49c5-8696-be4254399f31","system_id":"levelo_inurba_marseille","lat":43.29277,"lon":5.36846,"is_reserved":false,"is_disabled":true,"rental_uris":{"android":"levelo://app?vid=7bbddab9-ce58-49c5-8696-be4254399f31","ios":"levelo://app?vid=7bbddab9-ce58-49c5-8696-be4254399f31"},"vehicle_type_id":"4","last_reported":1746821465,"current_range_meters":9200,"station_id":"ce4bhbp2rcd13ifvqesg","pricing_plan_id":"cebpf4jnsgd1na2vs0mg"},{"bike_id":"791cf852-cc2a-4381-a46c-d7afe4ceb6de","system_id":"levelo_inurba_marseille","lat":43.29003,"lon":5.35614,"is_reserved":false,"is_disabled":true,"rental_uris":{"android":"levelo://app?vid=791cf852-cc2a-4381-a46c-d7afe4ceb6de","ios":"levelo://app?vid=791cf852-cc2a-4381-a46c-d7afe4ceb6de"},"vehicle_type_id":"4","last_reported":1746821465,"current_range_meters":9200,"station_id":"ce4bhb92rcd13ifvqen0","pricing_plan_id":"cebpf4jnsgd1na2vs0mg"},{"bike_id":"bfe9187f-2b42-430c-844d-ecaeeb7d925d","system_id":"levelo_inurba_marseille","lat":43.26785,"lon":5.39418,"is_reserved":false,"is_disabled":false,"rental_uris":{"android":"levelo://app?vid=bfe9187f-2b42-430c-844d-ecaeeb7d925d","ios":"levelo://app?vid=bfe9187f-2b42-430c-844d-ecaeeb7d925d"},"vehicle_type_id":"4","last_reported":1746821465,"current_range_meters":8800,"station_id":"ce4bhh12rcd13ifvqfg0","pricing_plan_id":"cebpf4jnsgd1na2vs0mg"},{"bike_id":"5c4ab821-f0aa-4163-90c6-49f9b62101db","system_id":"levelo_inurba_marseille","lat":43.31216,"lon":5.36862,"is_reserved":false,"is_disabled":false,"rental_uris":{"android":"levelo://app?vid=5c4ab821-f0aa-4163-90c6-49f9b62101db","ios":"levelo://app?vid=5c4ab821-f0aa-4163-90c6-49f9b62101db"},"vehicle_type_id":"4","last_reported":1746821465,"current_range_meters":9600,"station_id":"ce4bgl92rcd13ifvqbq0","pricing_plan_id":"cebpf4jnsgd1na2vs0mg"},{"bike_id":"b0c54ead-2c9a-4d45-904a-5e1b9abf7338","system_id":"levelo_inurba_marseille","lat":43.27894,"lon":5.44083,"is_reserved":false,"is_disabled":false,"rental_uris":{"android":"levelo://app?vid=b0c54ead-2c9a-4d45-904a-5e1b9abf7338","ios":"levelo://app?vid=b0c54ead-2c9a-4d45-904a-5e1b9abf7338"},"vehicle_type_id":"4","last_reported":1746821465,"current_range_meters":9600,"station_id":"","pricing_plan_id":"cebpf4jnsgd1na2vs0mg"},{"bike_id":"3c7670ff-3628-42b4-8ea8-664d4fa357dd","system_id":"levelo_inurba_marseille","lat":43.27992,"lon":5.41656,"is_reserved":false,"is_disabled":false,"rental_uris":{"android":"levelo://app?vid=3c7670ff-3628-42b4-8ea8-664d4fa357dd","ios":"levelo://app?vid=3c7670ff-3628-42b4-8ea8-664d4fa357dd"},"vehicle_type_id":"4","last_reported":1746821465,"current_range_meters":9600,"station_id":"ce4bho12rcd13ifvqh1g","pricing_plan_id":"cebpf4jnsgd1na2vs0mg"},{"bike_id":"8fbb74c4-6cae-4976-b717-eebcd4fdeea0","system_id":"levelo_inurba_marseille","lat":43.30421,"lon":5.41286,"is_reserved":false,"is_disabled":false,"rental_uris":{"android":"levelo://app?vid=8fbb74c4-6cae-4976-b717-eebcd4fdeea0","ios":"levelo://app?vid=8fbb74c4-6cae-4976-b717-eebcd4fdeea0"},"vehicle_type_id":"4","last_reported":1746821465,"current_range_meters":9600,"station_id":"ce4bhop2rcd13ifvqh8g","pricing_plan_id":"cebpf4jnsgd1na2vs0mg"},{"bike_id":"bcee04ab-f7c0-4c36-8d98-583e46082251","system_id":"levelo_inurba_marseille","lat":43.24809,"lon":5.37456,"is_reserved":false,"is_disabled":false,"rental_uris":{"android":"levelo://app?vid=bcee04ab-f7c0-4c36-8d98-583e46082251","ios":"levelo://app?vid=bcee04ab-f7c0-4c36-8d98-583e46082251"},"vehicle_type_id":"4","last_reported":1746821465,"current_range_meters":10000,"station_id":"ce4bhgh2rcd13ifvqfb0","pricing_plan_id":"cebpf4jnsgd1na2vs0mg"},{"bike_id":"b5abaa59-aabc-4b95-9b88-ab5d0418902d","system_id":"levelo_inurba_marseille","lat":43.33728,"lon":5.39182,"is_reserved":false,"is_disabled":false,"rental_uris":{"android":"levelo://app?vid=b5abaa59-aabc-4b95-9b88-ab5d0418902d","ios":"levelo://app?vid=b5abaa59-aabc-4b95-9b88-ab5d0418902d"},"vehicle_type_id":"4","last_reported":1746821465,"current_range_meters":10000,"station_id":"ce4bhr92rcd13ifvqhsg","pricing_plan_id":"cebpf4jnsgd1na2vs0mg"},{"bike_id":"f8bd5ba1-0844-4c6d-9b78-f958f1313745","system_id":"levelo_inurba_marseille","lat":43.2937,"lon":5.42788,"is_reserved":false,"is_disabled":false,"rental_uris":{"android":"levelo://app?vid=f8bd5ba1-0844-4c6d-9b78-f958f1313745","ios":"levelo://app?vid=f8bd5ba1-0844-4c6d-9b78-f958f1313745"},"vehicle_type_id":"4","last_reported":1746821465,"current_range_meters":10000,"station_id":"","pricing_plan_id":"cebpf4jnsgd1na2vs0mg"},{"bike_id":"524aed62-bfe2-4d87-bf98-2af6adbfa610","system_id":"levelo_inurba_marseille","lat":43.29302,"lon":5.37132,"is_reserved":false,"is_disabled":false,"rental_uris":{"android":"levelo://app?vid=524aed62-bfe2-4d87-bf98-2af6adbfa610","ios":"levelo://app?vid=524aed62-bfe2-4d87-bf98-2af6adbfa610"},"vehicle_type_id":"4","last_reported":1746821465,"current_range_meters":10800,"station_id":"ce4bgh92rcd13ifvqb40","pricing_plan_id":"cebpf4jnsgd1na2vs0mg"},{"bike_id":"428a7e11-536f-4dee-bd14-64cd00ee56fa","system_id":"levelo_inurba_marseille","lat":43.2668,"lon":5.38266,"is_reserved":false,"is_disabled":false,"rental_uris":{"android":"levelo://app?vid=428a7e11-536f-4dee-bd14-64cd00ee56fa","ios":"levelo://app?vid=428a7e11-536f-4dee-bd14-64cd00ee56fa"},"vehicle_type_id":"4","last_reported":1746821465,"current_range_meters":10000,"station_id":"ce4bhg92rcd13ifvqf90","pricing_plan_id":"cebpf4jnsgd1na2vs0mg"},{"bike_id":"dc9ec157-dfe5-481b-9da3-639c44fd1e90","system_id":"levelo_inurba_marseille","lat":43.29222,"lon":5.36069,"is_reserved":false,"is_disabled":false,"rental_uris":{"android":"levelo://app?vid=dc9ec157-dfe5-481b-9da3-639c44fd1e90","ios":"levelo://app?vid=dc9ec157-dfe5-481b-9da3-639c44fd1e90"},"vehicle_type_id":"4","last_reported":1746821465,"current_range_meters":10800,"station_id":"ce4bhbh2rcd13ifvqeqg","pricing_plan_id":"cebpf4jnsgd1na2vs0mg"},{"bike_id":"18f1f016-3d63-4668-a6e5-2958065ca8ef","system_id":"levelo_inurba_marseille","lat":43.27373,"lon":5.36261,"is_reserved":false,"is_disabled":false,"rental_uris":{"android":"levelo://app?vid=18f1f016-3d63-4668-a6e5-2958065ca8ef","ios":"levelo://app?vid=18f1f016-3d63-4668-a6e5-2958065ca8ef"},"vehicle_type_id":"4","last_reported":1746821465,"current_range_meters":10800,"station_id":"ce4bhbh2rcd13ifvqeo0","pricing_plan_id":"cebpf4jnsgd1na2vs0mg"},{"bike_id":"044478cb-8194-4092-b984-4fc9c042ef68","system_id":"levelo_inurba_marseille","lat":43.28746,"lon":5.46545,"is_reserved":false,"is_disabled":false,"rental_uris":{"android":"levelo://app?vid=044478cb-8194-4092-b984-4fc9c042ef68","ios":"levelo://app?vid=044478cb-8194-4092-b984-4fc9c042ef68"},"vehicle_type_id":"4","last_reported":1746821465,"current_range_meters":10800,"station_id":"","pricing_plan_id":"cebpf4jnsgd1na2vs0mg"},{"bike_id":"ea7dd22b-f0cf-4f8f-a49f-73a60cc00e17","system_id":"levelo_inurba_marseille","lat":43.303467,"lon":5.418852,"is_reserved":false,"is_disabled":false,"rental_uris":{"android":"levelo://app?vid=ea7dd22b-f0cf-4f8f-a49f-73a60cc00e17","ios":"levelo://app?vid=ea7dd22b-f0cf-4f8f-a49f-73a60cc00e17"},"vehicle_type_id":"4","last_reported":1746821465,"current_range_meters":10800,"station_id":"ce4bhop2rcd13ifvqh7g","pricing_plan_id":"cebpf4jnsgd1na2vs0mg"},{"bike_id":"8cb987f9-049d-46ae-9b26-cc9ab0572bed","system_id":"levelo_inurba_marseille","lat":43.27821,"lon":5.40702,"is_reserved":false,"is_disabled":true,"rental_uris":{"android":"levelo://app?vid=8cb987f9-049d-46ae-9b26-cc9ab0572bed","ios":"levelo://app?vid=8cb987f9-049d-46ae-9b26-cc9ab0572bed"},"vehicle_type_id":"4","last_reported":1746821465,"current_range_meters":10800,"station_id":"ce4bhnh2rcd13ifvqgtg","pricing_plan_id":"cebpf4jnsgd1na2vs0mg"},{"bike_id":"1490eb96-34bc-48c0-bfeb-19b8d4feb1ee","system_id":"levelo_inurba_marseille","lat":43.29225,"lon":5.36066,"is_reserved":false,"is_disabled":false,"rental_uris":{"android":"levelo://app?vid=1490eb96-34bc-48c0-bfeb-19b8d4feb1ee","ios":"levelo://app?vid=1490eb96-34bc-48c0-bfeb-19b8d4feb1ee"},"vehicle_type_id":"4","last_reported":1746821465,"current_range_meters":10800,"station_id":"ce4bhbh2rcd13ifvqeqg","pricing_plan_id":"cebpf4jnsgd1na2vs0mg"},{"bike_id":"9cb56601-d547-4065-8776-c68a4c56cba5","system_id":"levelo_inurba_marseille","lat":43.292552,"lon":5.38448,"is_reserved":false,"is_disabled":false,"rental_uris":{"android":"levelo://app?vid=9cb56601-d547-4065-8776-c68a4c56cba5","ios":"levelo://app?vid=9cb56601-d547-4065-8776-c68a4c56cba5"},"vehicle_type_id":"4","last_reported":1746821465,"current_range_meters":11200,"station_id":"ce4bh692rcd13ifvqea0","pricing_plan_id":"cebpf4jnsgd1na2vs0mg"},{"bike_id":"2d9cf84f-80e6-4273-bdb7-a817d129565a","system_id":"levelo_inurba_marseille","lat":43.28078,"lon":5.3965,"is_reserved":false,"is_disabled":false,"rental_uris":{"android":"levelo://app?vid=2d9cf84f-80e6-4273-bdb7-a817d129565a","ios":"levelo://app?vid=2d9cf84f-80e6-4273-bdb7-a817d129565a"},"vehicle_type_id":"4","last_reported":1746821465,"current_range_meters":11600,"station_id":"ce4bho12rcd13ifvqh2g","pricing_plan_id":"cebpf4jnsgd1na2vs0mg"},{"bike_id":"e43f00ff-4161-4ce3-9e4c-50b4073a6fc2","system_id":"levelo_inurba_marseille","lat":43.29279,"lon":5.38435,"is_reserved":false,"is_disabled":false,"rental_uris":{"android":"levelo://app?vid=e43f00ff-4161-4ce3-9e4c-50b4073a6fc2","ios":"levelo://app?vid=e43f00ff-4161-4ce3-9e4c-50b4073a6fc2"},"vehicle_type_id":"4","last_reported":1746821465,"current_range_meters":11600,"station_id":"ce4bh692rcd13ifvqea0","pricing_plan_id":"cebpf4jnsgd1na2vs0mg"},{"bike_id":"899e4d66-0a22-4454-a385-436d033c54bd","system_id":"levelo_inurba_marseille","lat":43.29961,"lon":5.41318,"is_reserved":false,"is_disabled":false,"rental_uris":{"android":"levelo://app?vid=899e4d66-0a22-4454-a385-436d033c54bd","ios":"levelo://app?vid=899e4d66-0a22-4454-a385-436d033c54bd"},"vehicle_type_id":"4","last_reported":1746821465,"current_range_meters":11200,"station_id":"ce4bhp12rcd13ifvqh9g","pricing_plan_id":"cebpf4jnsgd1na2vs0mg"},{"bike_id":"31a2d2c8-f240-4ce3-9c3c-76d38878780b","system_id":"levelo_inurba_marseille","lat":43.29415,"lon":5.38626,"is_reserved":false,"is_disabled":false,"rental_uris":{"android":"levelo://app?vid=31a2d2c8-f240-4ce3-9c3c-76d38878780b","ios":"levelo://app?vid=31a2d2c8-f240-4ce3-9c3c-76d38878780b"},"vehicle_type_id":"4","last_reported":1746821465,"current_range_meters":11600,"station_id":"","pricing_plan_id":"cebpf4jnsgd1na2vs0mg"},{"bike_id":"6499ebc0-28ce-4bbd-abaf-01f782a5ba44","system_id":"levelo_inurba_marseille","lat":43.29807,"lon":5.38088,"is_reserved":false,"is_disabled":false,"rental_uris":{"android":"levelo://app?vid=6499ebc0-28ce-4bbd-abaf-01f782a5ba44","ios":"levelo://app?vid=6499ebc0-28ce-4bbd-abaf-01f782a5ba44"},"vehicle_type_id":"4","last_reported":1746821465,"current_range_meters":12000,"station_id":"ce4bgip2rcd13ifvqbb0","pricing_plan_id":"cebpf4jnsgd1na2vs0mg"},{"bike_id":"9e2d5fad-1b4c-4d4a-8d35-80c2d8f4435c","system_id":"levelo_inurba_marseille","lat":43.28925,"lon":5.38417,"is_reserved":false,"is_disabled":false,"rental_uris":{"android":"levelo://app?vid=9e2d5fad-1b4c-4d4a-8d35-80c2d8f4435c","ios":"levelo://app?vid=9e2d5fad-1b4c-4d4a-8d35-80c2d8f4435c"},"vehicle_type_id":"4","last_reported":1746821465,"current_range_meters":12000,"station_id":"ce4bh612rcd13ifvqe6g","pricing_plan_id":"cebpf4jnsgd1na2vs0mg"},{"bike_id":"79c8d684-a425-4aab-8ca4-59e521e72013","system_id":"levelo_inurba_marseille","lat":43.24809,"lon":5.37455,"is_reserved":false,"is_disabled":false,"rental_uris":{"android":"levelo://app?vid=79c8d684-a425-4aab-8ca4-59e521e72013","ios":"levelo://app?vid=79c8d684-a425-4aab-8ca4-59e521e72013"},"vehicle_type_id":"4","last_reported":1746821465,"current_range_meters":12400,"station_id":"ce4bhgh2rcd13ifvqfb0","pricing_plan_id":"cebpf4jnsgd1na2vs0mg"},{"bike_id":"c5bf6457-7a00-4d62-9165-cd5ce63d9661","system_id":"levelo_inurba_marseille","lat":43.24385,"lon":5.37063,"is_reserved":false,"is_disabled":false,"rental_uris":{"android":"levelo://app?vid=c5bf6457-7a00-4d62-9165-cd5ce63d9661","ios":"levelo://app?vid=c5bf6457-7a00-4d62-9165-cd5ce63d9661"},"vehicle_type_id":"4","last_reported":1746821465,"current_range_meters":12400,"station_id":"ce4bhhh2rcd13ifvqfk0","pricing_plan_id":"cebpf4jnsgd1na2vs0mg"},{"bike_id":"86b478b2-1cf2-4e07-8a5c-76710e912a41","system_id":"levelo_inurba_marseille","lat":43.29119,"lon":5.366945,"is_reserved":false,"is_disabled":false,"rental_uris":{"android":"levelo://app?vid=86b478b2-1cf2-4e07-8a5c-76710e912a41","ios":"levelo://app?vid=86b478b2-1cf2-4e07-8a5c-76710e912a41"},"vehicle_type_id":"4","last_reported":1746821465,"current_range_meters":12400,"station_id":"","pricing_plan_id":"cebpf4jnsgd1na2vs0mg"},{"bike_id":"55bc427b-7b35-49c0-b653-3421dc9a01cf","system_id":"levelo_inurba_marseille","lat":43.2737,"lon":5.36258,"is_reserved":false,"is_disabled":false,"rental_uris":{"android":"levelo://app?vid=55bc427b-7b35-49c0-b653-3421dc9a01cf","ios":"levelo://app?vid=55bc427b-7b35-49c0-b653-3421dc9a01cf"},"vehicle_type_id":"4","last_reported":1746821465,"current_range_meters":12400,"station_id":"ce4bhbh2rcd13ifvqeo0","pricing_plan_id":"cebpf4jnsgd1na2vs0mg"},{"bike_id":"79576561-3f76-4402-b698-49ef6fa48a3a","system_id":"levelo_inurba_marseille","lat":43.21751,"lon":5.34601,"is_reserved":false,"is_disabled":false,"rental_uris":{"android":"levelo://app?vid=79576561-3f76-4402-b698-49ef6fa48a3a","ios":"levelo://app?vid=79576561-3f76-4402-b698-49ef6fa48a3a"},"vehicle_type_id":"4","last_reported":1746821465,"current_range_meters":12400,"station_id":"st_cvj6r9ubvosntc0bgbag","pricing_plan_id":"cebpf4jnsgd1na2vs0mg"},{"bike_id":"f35193d4-4adb-446c-8c2b-98ecdb9c8449","system_id":"levelo_inurba_marseille","lat":43.26565,"lon":5.39019,"is_reserved":false,"is_disabled":false,"rental_uris":{"android":"levelo://app?vid=f35193d4-4adb-446c-8c2b-98ecdb9c8449","ios":"levelo://app?vid=f35193d4-4adb-446c-8c2b-98ecdb9c8449"},"vehicle_type_id":"4","last_reported":1746821465,"current_range_meters":12400,"station_id":"ce4bhe12rcd13ifvqf30","pricing_plan_id":"cebpf4jnsgd1na2vs0mg"},{"bike_id":"ea317f1f-e117-45ca-8a2f-a37f74bbfa99","system_id":"levelo_inurba_marseille","lat":43.28674,"lon":5.38663,"is_reserved":false,"is_disabled":false,"rental_uris":{"android":"levelo://app?vid=ea317f1f-e117-45ca-8a2f-a37f74bbfa99","ios":"levelo://app?vid=ea317f1f-e117-45ca-8a2f-a37f74bbfa99"},"vehicle_type_id":"4","last_reported":1746821465,"current_range_meters":12800,"station_id":"ce4bh492rcd13ifvqdug","pricing_plan_id":"cebpf4jnsgd1na2vs0mg"},{"bike_id":"5070bbf2-ec6f-43e9-a0b5-d1e484a904f0","system_id":"levelo_inurba_marseille","lat":43.26549,"lon":5.37293,"is_reserved":false,"is_disabled":true,"rental_uris":{"android":"levelo://app?vid=5070bbf2-ec6f-43e9-a0b5-d1e484a904f0","ios":"levelo://app?vid=5070bbf2-ec6f-43e9-a0b5-d1e484a904f0"},"vehicle_type_id":"4","last_reported":1746821465,"current_range_meters":12800,"station_id":"","pricing_plan_id":"cebpf4jnsgd1na2vs0mg"},{"bike_id":"9ec01453-8e12-4a32-ba8a-b4be53eb13ff","system_id":"levelo_inurba_marseille","lat":43.292623,"lon":5.38447,"is_reserved":false,"is_disabled":false,"rental_uris":{"android":"levelo://app?vid=9ec01453-8e12-4a32-ba8a-b4be53eb13ff","ios":"levelo://app?vid=9ec01453-8e12-4a32-ba8a-b4be53eb13ff"},"vehicle_type_id":"4","last_reported":1746821465,"current_range_meters":12800,"station_id":"ce4bh692rcd13ifvqea0","pricing_plan_id":"cebpf4jnsgd1na2vs0mg"},{"bike_id":"988217a7-40cc-4175-99a8-3abc98dd942c","system_id":"levelo_inurba_marseille","lat":43.24078,"lon":5.37758,"is_reserved":false,"is_disabled":false,"rental_uris":{"android":"levelo://app?vid=988217a7-40cc-4175-99a8-3abc98dd942c","ios":"levelo://app?vid=988217a7-40cc-4175-99a8-3abc98dd942c"},"vehicle_type_id":"4","last_reported":1746821465,"current_range_meters":13600,"station_id":"ce4bhnp2rcd13ifvqgvg","pricing_plan_id":"cebpf4jnsgd1na2vs0mg"},{"bike_id":"0179f8ea-7051-4db2-83c5-d73944e41552","system_id":"levelo_inurba_marseille","lat":43.23962,"lon":5.36637,"is_reserved":false,"is_disabled":false,"rental_uris":{"android":"levelo://app?vid=0179f8ea-7051-4db2-83c5-d73944e41552","ios":"levelo://app?vid=0179f8ea-7051-4db2-83c5-d73944e41552"},"vehicle_type_id":"4","last_reported":1746821465,"current_range_meters":13600,"station_id":"ce4bhi12rcd13ifvqfp0","pricing_plan_id":"cebpf4jnsgd1na2vs0mg"},{"bike_id":"2fa4386f-d365-48dd-adb6-02f7e0a8571d","system_id":"levelo_inurba_marseille","lat":43.29008,"lon":5.35612,"is_reserved":false,"is_disabled":false,"rental_uris":{"android":"levelo://app?vid=2fa4386f-d365-48dd-adb6-02f7e0a8571d","ios":"levelo://app?vid=2fa4386f-d365-48dd-adb6-02f7e0a8571d"},"vehicle_type_id":"4","last_reported":1746821465,"current_range_meters":13600,"station_id":"ce4bhb92rcd13ifvqen0","pricing_plan_id":"cebpf4jnsgd1na2vs0mg"},{"bike_id":"d388abd5-c0e6-48dd-a7fc-1d6206199050","system_id":"levelo_inurba_marseille","lat":43.34143,"lon":5.36085,"is_reserved":false,"is_disabled":false,"rental_uris":{"android":"levelo://app?vid=d388abd5-c0e6-48dd-a7fc-1d6206199050","ios":"levelo://app?vid=d388abd5-c0e6-48dd-a7fc-1d6206199050"},"vehicle_type_id":"4","last_reported":1746821465,"current_range_meters":13600,"station_id":"","pricing_plan_id":"cebpf4jnsgd1na2vs0mg"},{"bike_id":"f845adc6-254f-4cd1-a73e-92b1f1f61576","system_id":"levelo_inurba_marseille","lat":43.26941,"lon":5.40248,"is_reserved":false,"is_disabled":false,"rental_uris":{"android":"levelo://app?vid=f845adc6-254f-4cd1-a73e-92b1f1f61576","ios":"levelo://app?vid=f845adc6-254f-4cd1-a73e-92b1f1f61576"},"vehicle_type_id":"4","last_reported":1746821465,"current_range_meters":13600,"station_id":"cjm6bp8fraef2m0cb0m0","pricing_plan_id":"cebpf4jnsgd1na2vs0mg"},{"bike_id":"2bcd659a-611c-43e2-89ef-f7e699246180","system_id":"levelo_inurba_marseille","lat":43.30249,"lon":5.40053,"is_reserved":false,"is_disabled":true,"rental_uris":{"android":"levelo://app?vid=2bcd659a-611c-43e2-89ef-f7e699246180","ios":"levelo://app?vid=2bcd659a-611c-43e2-89ef-f7e699246180"},"vehicle_type_id":"4","last_reported":1746821465,"current_range_meters":14000,"station_id":"ce4bgvh2rcd13ifvqcs0","pricing_plan_id":"cebpf4jnsgd1na2vs0mg"},{"bike_id":"09e1dc14-26ac-446e-add0-27edb09cfb56","system_id":"levelo_inurba_marseille","lat":43.29277,"lon":5.36848,"is_reserved":false,"is_disabled":false,"rental_uris":{"android":"levelo://app?vid=09e1dc14-26ac-446e-add0-27edb09cfb56","ios":"levelo://app?vid=09e1dc14-26ac-446e-add0-27edb09cfb56"},"vehicle_type_id":"4","last_reported":1746821465,"current_range_meters":14000,"station_id":"","pricing_plan_id":"cebpf4jnsgd1na2vs0mg"},{"bike_id":"77b4c94f-dda1-4005-b9c8-77d1b0dfb484","system_id":"levelo_inurba_marseille","lat":43.2926,"lon":5.38448,"is_reserved":false,"is_disabled":false,"rental_uris":{"android":"levelo://app?vid=77b4c94f-dda1-4005-b9c8-77d1b0dfb484","ios":"levelo://app?vid=77b4c94f-dda1-4005-b9c8-77d1b0dfb484"},"vehicle_type_id":"4","last_reported":1746821465,"current_range_meters":14000,"station_id":"ce4bh692rcd13ifvqea0","pricing_plan_id":"cebpf4jnsgd1na2vs0mg"},{"bike_id":"fc7bee05-4af0-4ea0-aea4-4477373764db","system_id":"levelo_inurba_marseille","lat":43.28461,"lon":5.3589,"is_reserved":false,"is_disabled":false,"rental_uris":{"android":"levelo://app?vid=fc7bee05-4af0-4ea0-aea4-4477373764db","ios":"levelo://app?vid=fc7bee05-4af0-4ea0-aea4-4477373764db"},"vehicle_type_id":"4","last_reported":1746821465,"current_range_meters":14400,"station_id":"ce4bhah2rcd13ifvqei0","pricing_plan_id":"cebpf4jnsgd1na2vs0mg"},{"bike_id":"29b99ee3-82b0-4cb0-a9d6-8993ba8fcb2f","system_id":"levelo_inurba_marseille","lat":43.24653,"lon":5.38897,"is_reserved":false,"is_disabled":false,"rental_uris":{"android":"levelo://app?vid=29b99ee3-82b0-4cb0-a9d6-8993ba8fcb2f","ios":"levelo://app?vid=29b99ee3-82b0-4cb0-a9d6-8993ba8fcb2f"},"vehicle_type_id":"4","last_reported":1746821465,"current_range_meters":14400,"station_id":"ce4bhg12rcd13ifvqf60","pricing_plan_id":"cebpf4jnsgd1na2vs0mg"},{"bike_id":"688d7c08-3b6e-415c-8990-b857e2498ae0","system_id":"levelo_inurba_marseille","lat":43.30376,"lon":5.42483,"is_reserved":false,"is_disabled":false,"rental_uris":{"android":"levelo://app?vid=688d7c08-3b6e-415c-8990-b857e2498ae0","ios":"levelo://app?vid=688d7c08-3b6e-415c-8990-b857e2498ae0"},"vehicle_type_id":"4","last_reported":1746821465,"current_range_meters":14400,"station_id":"ce4bhoh2rcd13ifvqh6g","pricing_plan_id":"cebpf4jnsgd1na2vs0mg"},{"bike_id":"425a71c2-3497-48ea-abb4-541b2f2a7c98","system_id":"levelo_inurba_marseille","lat":43.24685,"lon":5.38143,"is_reserved":false,"is_disabled":false,"rental_uris":{"android":"levelo://app?vid=425a71c2-3497-48ea-abb4-541b2f2a7c98","ios":"levelo://app?vid=425a71c2-3497-48ea-abb4-541b2f2a7c98"},"vehicle_type_id":"4","last_reported":1746821465,"current_range_meters":14400,"station_id":"ce4bhih2rcd13ifvqfr0","pricing_plan_id":"cebpf4jnsgd1na2vs0mg"},{"bike_id":"8e9b878a-f9eb-4c55-9b28-d83e22a0f9bf","system_id":"levelo_inurba_marseille","lat":43.28343,"lon":5.38095,"is_reserved":false,"is_disabled":false,"rental_uris":{"android":"levelo://app?vid=8e9b878a-f9eb-4c55-9b28-d83e22a0f9bf","ios":"levelo://app?vid=8e9b878a-f9eb-4c55-9b28-d83e22a0f9bf"},"vehicle_type_id":"4","last_reported":1746821465,"current_range_meters":14400,"station_id":"ce4bh412rcd13ifvqdr0","pricing_plan_id":"cebpf4jnsgd1na2vs0mg"},{"bike_id":"4a8e30fc-5789-42ab-8bde-f9c49f2dc59c","system_id":"levelo_inurba_marseille","lat":43.30555,"lon":5.36517,"is_reserved":false,"is_disabled":false,"rental_uris":{"android":"levelo://app?vid=4a8e30fc-5789-42ab-8bde-f9c49f2dc59c","ios":"levelo://app?vid=4a8e30fc-5789-42ab-8bde-f9c49f2dc59c"},"vehicle_type_id":"4","last_reported":1746821465,"current_range_meters":14400,"station_id":"ce4bgs12rcd13ifvqcag","pricing_plan_id":"cebpf4jnsgd1na2vs0mg"},{"bike_id":"91624872-c3af-414c-9b17-bf40473b8474","system_id":"levelo_inurba_marseille","lat":43.28344,"lon":5.38106,"is_reserved":false,"is_disabled":false,"rental_uris":{"android":"levelo://app?vid=91624872-c3af-414c-9b17-bf40473b8474","ios":"levelo://app?vid=91624872-c3af-414c-9b17-bf40473b8474"},"vehicle_type_id":"4","last_reported":1746821465,"current_range_meters":14400,"station_id":"ce4bh412rcd13ifvqdr0","pricing_plan_id":"cebpf4jnsgd1na2vs0mg"},{"bike_id":"ead2ec5c-12e4-432d-be08-f92fe4e4390a","system_id":"levelo_inurba_marseille","lat":43.29261,"lon":5.38458,"is_reserved":false,"is_disabled":false,"rental_uris":{"android":"levelo://app?vid=ead2ec5c-12e4-432d-be08-f92fe4e4390a","ios":"levelo://app?vid=ead2ec5c-12e4-432d-be08-f92fe4e4390a"},"vehicle_type_id":"4","last_reported":1746821465,"current_range_meters":14800,"station_id":"ce4bh692rcd13ifvqea0","pricing_plan_id":"cebpf4jnsgd1na2vs0mg"},{"bike_id":"08c04ff9-e615-4d87-ba3e-6b0e2342cce5","system_id":"levelo_inurba_marseille","lat":43.295999,"lon":5.367428,"is_reserved":false,"is_disabled":true,"rental_uris":{"android":"levelo://app?vid=08c04ff9-e615-4d87-ba3e-6b0e2342cce5","ios":"levelo://app?vid=08c04ff9-e615-4d87-ba3e-6b0e2342cce5"},"vehicle_type_id":"4","last_reported":1746821465,"current_range_meters":15200,"station_id":"ce4bgph2rcd13ifvqc2g","pricing_plan_id":"cebpf4jnsgd1na2vs0mg"},{"bike_id":"ef04f29d-3c52-4c80-bc09-622252950b9f","system_id":"levelo_inurba_marseille","lat":43.30537,"lon":5.36556,"is_reserved":false,"is_disabled":false,"rental_uris":{"android":"levelo://app?vid=ef04f29d-3c52-4c80-bc09-622252950b9f","ios":"levelo://app?vid=ef04f29d-3c52-4c80-bc09-622252950b9f"},"vehicle_type_id":"4","last_reported":1746821465,"current_range_meters":15200,"station_id":"ce4bgs12rcd13ifvqcag","pricing_plan_id":"cebpf4jnsgd1na2vs0mg"},{"bike_id":"c2a33f68-1a61-4786-9af9-d925692d410f","system_id":"levelo_inurba_marseille","lat":43.24795,"lon":5.37446,"is_reserved":false,"is_disabled":false,"rental_uris":{"android":"levelo://app?vid=c2a33f68-1a61-4786-9af9-d925692d410f","ios":"levelo://app?vid=c2a33f68-1a61-4786-9af9-d925692d410f"},"vehicle_type_id":"4","last_reported":1746821465,"current_range_meters":15200,"station_id":"ce4bhgh2rcd13ifvqfb0","pricing_plan_id":"cebpf4jnsgd1na2vs0mg"},{"bike_id":"f1c7a456-d705-477a-b1e6-88d53834d2f1","system_id":"levelo_inurba_marseille","lat":43.317158,"lon":5.437029,"is_reserved":false,"is_disabled":true,"rental_uris":{"android":"levelo://app?vid=f1c7a456-d705-477a-b1e6-88d53834d2f1","ios":"levelo://app?vid=f1c7a456-d705-477a-b1e6-88d53834d2f1"},"vehicle_type_id":"4","last_reported":1746821465,"current_range_meters":16000,"station_id":"ce4bhp92rcd13ifvqhcg","pricing_plan_id":"cebpf4jnsgd1na2vs0mg"},{"bike_id":"cf6bc856-5840-4cc7-87f8-ebcb25a380e4","system_id":"levelo_inurba_marseille","lat":43.25574,"lon":5.38237,"is_reserved":false,"is_disabled":false,"rental_uris":{"android":"levelo://app?vid=cf6bc856-5840-4cc7-87f8-ebcb25a380e4","ios":"levelo://app?vid=cf6bc856-5840-4cc7-87f8-ebcb25a380e4"},"vehicle_type_id":"4","last_reported":1746821465,"current_range_meters":16000,"station_id":"ce4bhih2rcd13ifvqfs0","pricing_plan_id":"cebpf4jnsgd1na2vs0mg"},{"bike_id":"4f04d218-dbb6-4a9e-8be4-bbd74b0b9b34","system_id":"levelo_inurba_marseille","lat":43.29709,"lon":5.36611,"is_reserved":false,"is_disabled":false,"rental_uris":{"android":"levelo://app?vid=4f04d218-dbb6-4a9e-8be4-bbd74b0b9b34","ios":"levelo://app?vid=4f04d218-dbb6-4a9e-8be4-bbd74b0b9b34"},"vehicle_type_id":"4","last_reported":1746821465,"current_range_meters":16000,"station_id":"ce4bgn12rcd13ifvqbt0","pricing_plan_id":"cebpf4jnsgd1na2vs0mg"},{"bike_id":"d6c7cf98-1084-47e2-8e53-b505f7933f0e","system_id":"levelo_inurba_marseille","lat":43.21751,"lon":5.34598,"is_reserved":false,"is_disabled":false,"rental_uris":{"android":"levelo://app?vid=d6c7cf98-1084-47e2-8e53-b505f7933f0e","ios":"levelo://app?vid=d6c7cf98-1084-47e2-8e53-b505f7933f0e"},"vehicle_type_id":"4","last_reported":1746821465,"current_range_meters":16000,"station_id":"st_cvj6r9ubvosntc0bgbag","pricing_plan_id":"cebpf4jnsgd1na2vs0mg"},{"bike_id":"4017563a-0ad9-4e62-8940-d9d9425bcbbe","system_id":"levelo_inurba_marseille","lat":43.32367,"lon":5.38884,"is_reserved":false,"is_disabled":false,"rental_uris":{"android":"levelo://app?vid=4017563a-0ad9-4e62-8940-d9d9425bcbbe","ios":"levelo://app?vid=4017563a-0ad9-4e62-8940-d9d9425bcbbe"},"vehicle_type_id":"4","last_reported":1746821465,"current_range_meters":16000,"station_id":"ce4bhqp2rcd13ifvqhog","pricing_plan_id":"cebpf4jnsgd1na2vs0mg"},{"bike_id":"4394d8dc-144c-4ff9-9bac-443ce52989f7","system_id":"levelo_inurba_marseille","lat":43.24804,"lon":5.37461,"is_reserved":false,"is_disabled":false,"rental_uris":{"android":"levelo://app?vid=4394d8dc-144c-4ff9-9bac-443ce52989f7","ios":"levelo://app?vid=4394d8dc-144c-4ff9-9bac-443ce52989f7"},"vehicle_type_id":"4","last_reported":1746821465,"current_range_meters":16000,"station_id":"ce4bhgh2rcd13ifvqfb0","pricing_plan_id":"cebpf4jnsgd1na2vs0mg"},{"bike_id":"8af08734-5df5-4cbb-917f-db23920c2925","system_id":"levelo_inurba_marseille","lat":43.29537,"lon":5.38531,"is_reserved":false,"is_disabled":false,"rental_uris":{"android":"levelo://app?vid=8af08734-5df5-4cbb-917f-db23920c2925","ios":"levelo://app?vid=8af08734-5df5-4cbb-917f-db23920c2925"},"vehicle_type_id":"4","last_reported":1746821465,"current_range_meters":16400,"station_id":"ce4bgih2rcd13ifvqba0","pricing_plan_id":"cebpf4jnsgd1na2vs0mg"},{"bike_id":"6e24abe9-ff49-40a5-bfac-cd5aacf6ebea","system_id":"levelo_inurba_marseille","lat":43.22939,"lon":5.35387,"is_reserved":false,"is_disabled":false,"rental_uris":{"android":"levelo://app?vid=6e24abe9-ff49-40a5-bfac-cd5aacf6ebea","ios":"levelo://app?vid=6e24abe9-ff49-40a5-bfac-cd5aacf6ebea"},"vehicle_type_id":"4","last_reported":1746821465,"current_range_meters":16400,"station_id":"cpo3532slgdg3j2ikp40","pricing_plan_id":"cebpf4jnsgd1na2vs0mg"},{"bike_id":"9a919805-a5a4-497f-a929-c9e08814771d","system_id":"levelo_inurba_marseille","lat":43.27984,"lon":5.41672,"is_reserved":false,"is_disabled":true,"rental_uris":{"android":"levelo://app?vid=9a919805-a5a4-497f-a929-c9e08814771d","ios":"levelo://app?vid=9a919805-a5a4-497f-a929-c9e08814771d"},"vehicle_type_id":"4","last_reported":1746821465,"current_range_meters":16400,"station_id":"ce4bho12rcd13ifvqh1g","pricing_plan_id":"cebpf4jnsgd1na2vs0mg"},{"bike_id":"168f826e-1c62-47a9-a8b5-8c2228dbddb8","system_id":"levelo_inurba_marseille","lat":43.30292,"lon":5.38993,"is_reserved":false,"is_disabled":true,"rental_uris":{"android":"levelo://app?vid=168f826e-1c62-47a9-a8b5-8c2228dbddb8","ios":"levelo://app?vid=168f826e-1c62-47a9-a8b5-8c2228dbddb8"},"vehicle_type_id":"4","last_reported":1746821465,"current_range_meters":16400,"station_id":"","pricing_plan_id":"cebpf4jnsgd1na2vs0mg"},{"bike_id":"6f3e1ede-56da-4581-958c-d02f64bbfb05","system_id":"levelo_inurba_marseille","lat":43.27428,"lon":5.39417,"is_reserved":false,"is_disabled":false,"rental_uris":{"android":"levelo://app?vid=6f3e1ede-56da-4581-958c-d02f64bbfb05","ios":"levelo://app?vid=6f3e1ede-56da-4581-958c-d02f64bbfb05"},"vehicle_type_id":"4","last_reported":1746821465,"current_range_meters":16400,"station_id":"ce4bhdp2rcd13ifvqf20","pricing_plan_id":"cebpf4jnsgd1na2vs0mg"},{"bike_id":"336ce01c-9295-4699-af38-b6ec4f52b90a","system_id":"levelo_inurba_marseille","lat":43.24808,"lon":5.37462,"is_reserved":false,"is_disabled":false,"rental_uris":{"android":"levelo://app?vid=336ce01c-9295-4699-af38-b6ec4f52b90a","ios":"levelo://app?vid=336ce01c-9295-4699-af38-b6ec4f52b90a"},"vehicle_type_id":"4","last_reported":1746821465,"current_range_meters":16400,"station_id":"ce4bhgh2rcd13ifvqfb0","pricing_plan_id":"cebpf4jnsgd1na2vs0mg"},{"bike_id":"ee1336e6-fa7d-4386-be12-39db981fc627","system_id":"levelo_inurba_marseille","lat":43.28037,"lon":5.36943,"is_reserved":false,"is_disabled":false,"rental_uris":{"android":"levelo://app?vid=ee1336e6-fa7d-4386-be12-39db981fc627","ios":"levelo://app?vid=ee1336e6-fa7d-4386-be12-39db981fc627"},"vehicle_type_id":"4","last_reported":1746821465,"current_range_meters":16400,"station_id":"ce4bha12rcd13ifvqef0","pricing_plan_id":"cebpf4jnsgd1na2vs0mg"},{"bike_id":"bb9dd4d9-ef7c-411c-9ce2-6f0d8890189a","system_id":"levelo_inurba_marseille","lat":43.241682,"lon":5.363934,"is_reserved":false,"is_disabled":false,"rental_uris":{"android":"levelo://app?vid=bb9dd4d9-ef7c-411c-9ce2-6f0d8890189a","ios":"levelo://app?vid=bb9dd4d9-ef7c-411c-9ce2-6f0d8890189a"},"vehicle_type_id":"4","last_reported":1746821465,"current_range_meters":16800,"station_id":"cpo36qri1sfpv3e86is0","pricing_plan_id":"cebpf4jnsgd1na2vs0mg"},{"bike_id":"26c4cd85-b375-4132-8f53-93656adb5365","system_id":"levelo_inurba_marseille","lat":43.29261,"lon":5.38445,"is_reserved":false,"is_disabled":true,"rental_uris":{"android":"levelo://app?vid=26c4cd85-b375-4132-8f53-93656adb5365","ios":"levelo://app?vid=26c4cd85-b375-4132-8f53-93656adb5365"},"vehicle_type_id":"4","last_reported":1746821465,"current_range_meters":16800,"station_id":"ce4bh692rcd13ifvqea0","pricing_plan_id":"cebpf4jnsgd1na2vs0mg"},{"bike_id":"abccbbda-6f4e-4274-8113-43d8186b2045","system_id":"levelo_inurba_marseille","lat":43.21747,"lon":5.34614,"is_reserved":false,"is_disabled":false,"rental_uris":{"android":"levelo://app?vid=abccbbda-6f4e-4274-8113-43d8186b2045","ios":"levelo://app?vid=abccbbda-6f4e-4274-8113-43d8186b2045"},"vehicle_type_id":"4","last_reported":1746821465,"current_range_meters":16800,"station_id":"st_cvj6r9ubvosntc0bgbag","pricing_plan_id":"cebpf4jnsgd1na2vs0mg"},{"bike_id":"d58e2bca-9cc6-4497-82e6-997f2f8b2940","system_id":"levelo_inurba_marseille","lat":43.24684,"lon":5.38162,"is_reserved":false,"is_disabled":false,"rental_uris":{"android":"levelo://app?vid=d58e2bca-9cc6-4497-82e6-997f2f8b2940","ios":"levelo://app?vid=d58e2bca-9cc6-4497-82e6-997f2f8b2940"},"vehicle_type_id":"4","last_reported":1746821465,"current_range_meters":16800,"station_id":"ce4bhih2rcd13ifvqfr0","pricing_plan_id":"cebpf4jnsgd1na2vs0mg"},{"bike_id":"42df4f1f-589d-4e39-9c62-1f6eb5b1af65","system_id":"levelo_inurba_marseille","lat":43.294193,"lon":5.386313,"is_reserved":false,"is_disabled":false,"rental_uris":{"android":"levelo://app?vid=42df4f1f-589d-4e39-9c62-1f6eb5b1af65","ios":"levelo://app?vid=42df4f1f-589d-4e39-9c62-1f6eb5b1af65"},"vehicle_type_id":"4","last_reported":1746821465,"current_range_meters":16800,"station_id":"ce4bh2h2rcd13ifvqdh0","pricing_plan_id":"cebpf4jnsgd1na2vs0mg"},{"bike_id":"508713ca-3335-4145-b85c-b71309344d9c","system_id":"levelo_inurba_marseille","lat":43.298,"lon":5.404,"is_reserved":false,"is_disabled":false,"rental_uris":{"android":"levelo://app?vid=508713ca-3335-4145-b85c-b71309344d9c","ios":"levelo://app?vid=508713ca-3335-4145-b85c-b71309344d9c"},"vehicle_type_id":"4","last_reported":1746821465,"current_range_meters":16800,"station_id":"ce4bh112rcd13ifvqd90","pricing_plan_id":"cebpf4jnsgd1na2vs0mg"},{"bike_id":"74e3c85d-481e-439c-9da9-8441974debe8","system_id":"levelo_inurba_marseille","lat":43.29008,"lon":5.35607,"is_reserved":false,"is_disabled":false,"rental_uris":{"android":"levelo://app?vid=74e3c85d-481e-439c-9da9-8441974debe8","ios":"levelo://app?vid=74e3c85d-481e-439c-9da9-8441974debe8"},"vehicle_type_id":"4","last_reported":1746821465,"current_range_meters":17200,"station_id":"ce4bhb92rcd13ifvqen0","pricing_plan_id":"cebpf4jnsgd1na2vs0mg"},{"bike_id":"8dcc72a9-bd05-44bf-91e7-1fb0ce96aeb5","system_id":"levelo_inurba_marseille","lat":43.29417,"lon":5.38619,"is_reserved":false,"is_disabled":false,"rental_uris":{"android":"levelo://app?vid=8dcc72a9-bd05-44bf-91e7-1fb0ce96aeb5","ios":"levelo://app?vid=8dcc72a9-bd05-44bf-91e7-1fb0ce96aeb5"},"vehicle_type_id":"4","last_reported":1746821465,"current_range_meters":17200,"station_id":"ce4bh2h2rcd13ifvqdh0","pricing_plan_id":"cebpf4jnsgd1na2vs0mg"},{"bike_id":"5af9304f-7c5c-4e4a-94b4-e9ad19d14660","system_id":"levelo_inurba_marseille","lat":43.29262,"lon":5.38446,"is_reserved":false,"is_disabled":false,"rental_uris":{"android":"levelo://app?vid=5af9304f-7c5c-4e4a-94b4-e9ad19d14660","ios":"levelo://app?vid=5af9304f-7c5c-4e4a-94b4-e9ad19d14660"},"vehicle_type_id":"4","last_reported":1746821465,"current_range_meters":17200,"station_id":"ce4bh692rcd13ifvqea0","pricing_plan_id":"cebpf4jnsgd1na2vs0mg"},{"bike_id":"55fada9f-9015-4dd1-bfb4-be767a27b242","system_id":"levelo_inurba_marseille","lat":43.27916,"lon":5.39581,"is_reserved":false,"is_disabled":true,"rental_uris":{"android":"levelo://app?vid=55fada9f-9015-4dd1-bfb4-be767a27b242","ios":"levelo://app?vid=55fada9f-9015-4dd1-bfb4-be767a27b242"},"vehicle_type_id":"4","last_reported":1746821465,"current_range_meters":17200,"station_id":"ce4bhf92rcd13ifvqf40","pricing_plan_id":"cebpf4jnsgd1na2vs0mg"},{"bike_id":"441cabab-0c3c-4707-b1fe-a114fd79bb10","system_id":"levelo_inurba_marseille","lat":43.3136,"lon":5.38487,"is_reserved":false,"is_disabled":false,"rental_uris":{"android":"levelo://app?vid=441cabab-0c3c-4707-b1fe-a114fd79bb10","ios":"levelo://app?vid=441cabab-0c3c-4707-b1fe-a114fd79bb10"},"vehicle_type_id":"4","last_reported":1746821465,"current_range_meters":17200,"station_id":"ce4bgt92rcd13ifvqcf0","pricing_plan_id":"cebpf4jnsgd1na2vs0mg"},{"bike_id":"31970654-df63-4146-8cd3-f74f8af55d32","system_id":"levelo_inurba_marseille","lat":43.30933,"lon":5.40143,"is_reserved":false,"is_disabled":false,"rental_uris":{"android":"levelo://app?vid=31970654-df63-4146-8cd3-f74f8af55d32","ios":"levelo://app?vid=31970654-df63-4146-8cd3-f74f8af55d32"},"vehicle_type_id":"4","last_reported":1746821465,"current_range_meters":17200,"station_id":"ce4bgvp2rcd13ifvqct0","pricing_plan_id":"cebpf4jnsgd1na2vs0mg"},{"bike_id":"fc2577e7-1497-425b-9d4f-ab8d7dc843c6","system_id":"levelo_inurba_marseille","lat":43.33771,"lon":5.37485,"is_reserved":false,"is_disabled":false,"rental_uris":{"android":"levelo://app?vid=fc2577e7-1497-425b-9d4f-ab8d7dc843c6","ios":"levelo://app?vid=fc2577e7-1497-425b-9d4f-ab8d7dc843c6"},"vehicle_type_id":"4","last_reported":1746821465,"current_range_meters":17600,"station_id":"","pricing_plan_id":"cebpf4jnsgd1na2vs0mg"},{"bike_id":"5bee1775-528f-49e6-9c3e-19f7744c053e","system_id":"levelo_inurba_marseille","lat":43.27977,"lon":5.41685,"is_reserved":false,"is_disabled":false,"rental_uris":{"android":"levelo://app?vid=5bee1775-528f-49e6-9c3e-19f7744c053e","ios":"levelo://app?vid=5bee1775-528f-49e6-9c3e-19f7744c053e"},"vehicle_type_id":"4","last_reported":1746821465,"current_range_meters":17600,"station_id":"ce4bho12rcd13ifvqh1g","pricing_plan_id":"cebpf4jnsgd1na2vs0mg"},{"bike_id":"63c9e51a-8760-4a03-b9dc-7d9955897a72","system_id":"levelo_inurba_marseille","lat":43.30465,"lon":5.37906,"is_reserved":false,"is_disabled":false,"rental_uris":{"android":"levelo://app?vid=63c9e51a-8760-4a03-b9dc-7d9955897a72","ios":"levelo://app?vid=63c9e51a-8760-4a03-b9dc-7d9955897a72"},"vehicle_type_id":"4","last_reported":1746821465,"current_range_meters":17600,"station_id":"ce4bgup2rcd13ifvqcn0","pricing_plan_id":"cebpf4jnsgd1na2vs0mg"},{"bike_id":"e9b37b3c-0be9-46f6-9835-8af9f255ab70","system_id":"levelo_inurba_marseille","lat":43.29253,"lon":5.38443,"is_reserved":false,"is_disabled":false,"rental_uris":{"android":"levelo://app?vid=e9b37b3c-0be9-46f6-9835-8af9f255ab70","ios":"levelo://app?vid=e9b37b3c-0be9-46f6-9835-8af9f255ab70"},"vehicle_type_id":"4","last_reported":1746821465,"current_range_meters":17600,"station_id":"ce4bh692rcd13ifvqea0","pricing_plan_id":"cebpf4jnsgd1na2vs0mg"},{"bike_id":"ffac8bda-8c0c-49b4-82fb-8b1d962eb074","system_id":"levelo_inurba_marseille","lat":43.32086,"lon":5.41519,"is_reserved":false,"is_disabled":false,"rental_uris":{"android":"levelo://app?vid=ffac8bda-8c0c-49b4-82fb-8b1d962eb074","ios":"levelo://app?vid=ffac8bda-8c0c-49b4-82fb-8b1d962eb074"},"vehicle_type_id":"4","last_reported":1746821465,"current_range_meters":17600,"station_id":"ce4bhq92rcd13ifvqhkg","pricing_plan_id":"cebpf4jnsgd1na2vs0mg"},{"bike_id":"545e5687-b7df-4883-81be-75a8925d5f91","system_id":"levelo_inurba_marseille","lat":43.337444,"lon":5.374475,"is_reserved":false,"is_disabled":false,"rental_uris":{"android":"levelo://app?vid=545e5687-b7df-4883-81be-75a8925d5f91","ios":"levelo://app?vid=545e5687-b7df-4883-81be-75a8925d5f91"},"vehicle_type_id":"4","last_reported":1746821465,"current_range_meters":17600,"station_id":"","pricing_plan_id":"cebpf4jnsgd1na2vs0mg"},{"bike_id":"98cfe22b-40e2-47d9-9417-af992af33c88","system_id":"levelo_inurba_marseille","lat":43.28459,"lon":5.35896,"is_reserved":false,"is_disabled":true,"rental_uris":{"android":"levelo://app?vid=98cfe22b-40e2-47d9-9417-af992af33c88","ios":"levelo://app?vid=98cfe22b-40e2-47d9-9417-af992af33c88"},"vehicle_type_id":"4","last_reported":1746821465,"current_range_meters":18000,"station_id":"ce4bhah2rcd13ifvqei0","pricing_plan_id":"cebpf4jnsgd1na2vs0mg"},{"bike_id":"94cd8564-a06e-4cc5-88d9-996fbf8639fe","system_id":"levelo_inurba_marseille","lat":43.21738,"lon":5.346,"is_reserved":false,"is_disabled":true,"rental_uris":{"android":"levelo://app?vid=94cd8564-a06e-4cc5-88d9-996fbf8639fe","ios":"levelo://app?vid=94cd8564-a06e-4cc5-88d9-996fbf8639fe"},"vehicle_type_id":"4","last_reported":1746821465,"current_range_meters":18000,"station_id":"st_cvj6r9ubvosntc0bgbag","pricing_plan_id":"cebpf4jnsgd1na2vs0mg"},{"bike_id":"35df9897-4a83-4053-bbaa-34ce8af68ffc","system_id":"levelo_inurba_marseille","lat":43.30926,"lon":5.40151,"is_reserved":false,"is_disabled":false,"rental_uris":{"android":"levelo://app?vid=35df9897-4a83-4053-bbaa-34ce8af68ffc","ios":"levelo://app?vid=35df9897-4a83-4053-bbaa-34ce8af68ffc"},"vehicle_type_id":"4","last_reported":1746821465,"current_range_meters":18000,"station_id":"ce4bgvp2rcd13ifvqct0","pricing_plan_id":"cebpf4jnsgd1na2vs0mg"},{"bike_id":"a149b8e2-afda-4e5e-a2be-4cd506e3785e","system_id":"levelo_inurba_marseille","lat":43.31113,"lon":5.3778,"is_reserved":false,"is_disabled":false,"rental_uris":{"android":"levelo://app?vid=a149b8e2-afda-4e5e-a2be-4cd506e3785e","ios":"levelo://app?vid=a149b8e2-afda-4e5e-a2be-4cd506e3785e"},"vehicle_type_id":"4","last_reported":1746821465,"current_range_meters":18000,"station_id":"ce4bgt92rcd13ifvqcg0","pricing_plan_id":"cebpf4jnsgd1na2vs0mg"},{"bike_id":"8221943e-cc00-4f73-9cf1-352a13e1af0a","system_id":"levelo_inurba_marseille","lat":43.28618,"lon":5.35103,"is_reserved":false,"is_disabled":false,"rental_uris":{"android":"levelo://app?vid=8221943e-cc00-4f73-9cf1-352a13e1af0a","ios":"levelo://app?vid=8221943e-cc00-4f73-9cf1-352a13e1af0a"},"vehicle_type_id":"4","last_reported":1746821465,"current_range_meters":18000,"station_id":"ce4bhch2rcd13ifvqeug","pricing_plan_id":"cebpf4jnsgd1na2vs0mg"},{"bike_id":"8b922ca6-4c4c-4cce-b120-dfd10f864eda","system_id":"levelo_inurba_marseille","lat":43.29618,"lon":5.38102,"is_reserved":false,"is_disabled":true,"rental_uris":{"android":"levelo://app?vid=8b922ca6-4c4c-4cce-b120-dfd10f864eda","ios":"levelo://app?vid=8b922ca6-4c4c-4cce-b120-dfd10f864eda"},"vehicle_type_id":"4","last_reported":1746821465,"current_range_meters":18000,"station_id":"ce4bgl12rcd13ifvqbo0","pricing_plan_id":"cebpf4jnsgd1na2vs0mg"},{"bike_id":"66d39f5f-1aac-423b-9ea7-bf9c1b0e5079","system_id":"levelo_inurba_marseille","lat":43.275164,"lon":5.411336,"is_reserved":false,"is_disabled":false,"rental_uris":{"android":"levelo://app?vid=66d39f5f-1aac-423b-9ea7-bf9c1b0e5079","ios":"levelo://app?vid=66d39f5f-1aac-423b-9ea7-bf9c1b0e5079"},"vehicle_type_id":"4","last_reported":1746821465,"current_range_meters":18000,"station_id":"","pricing_plan_id":"cebpf4jnsgd1na2vs0mg"},{"bike_id":"634bd4e9-ed72-4fb6-b1ab-5a8648f29c09","system_id":"levelo_inurba_marseille","lat":43.301458,"lon":5.38063,"is_reserved":false,"is_disabled":false,"rental_uris":{"android":"levelo://app?vid=634bd4e9-ed72-4fb6-b1ab-5a8648f29c09","ios":"levelo://app?vid=634bd4e9-ed72-4fb6-b1ab-5a8648f29c09"},"vehicle_type_id":"4","last_reported":1746821465,"current_range_meters":18000,"station_id":"ce4bgjp2rcd13ifvqbh0","pricing_plan_id":"cebpf4jnsgd1na2vs0mg"},{"bike_id":"b49ae29d-9434-4e73-8066-9964daffbf70","system_id":"levelo_inurba_marseille","lat":43.24385,"lon":5.37053,"is_reserved":false,"is_disabled":false,"rental_uris":{"android":"levelo://app?vid=b49ae29d-9434-4e73-8066-9964daffbf70","ios":"levelo://app?vid=b49ae29d-9434-4e73-8066-9964daffbf70"},"vehicle_type_id":"4","last_reported":1746821465,"current_range_meters":18800,"station_id":"ce4bhhh2rcd13ifvqfk0","pricing_plan_id":"cebpf4jnsgd1na2vs0mg"},{"bike_id":"e9034283-4c7b-46b5-91a6-3649ff5864f7","system_id":"levelo_inurba_marseille","lat":43.25737,"lon":5.41106,"is_reserved":false,"is_disabled":false,"rental_uris":{"android":"levelo://app?vid=e9034283-4c7b-46b5-91a6-3649ff5864f7","ios":"levelo://app?vid=e9034283-4c7b-46b5-91a6-3649ff5864f7"},"vehicle_type_id":"4","last_reported":1746821465,"current_range_meters":18800,"station_id":"ce4bhkp2rcd13ifvqgd0","pricing_plan_id":"cebpf4jnsgd1na2vs0mg"},{"bike_id":"8af4b88d-091f-4883-a950-3e14de86d879","system_id":"levelo_inurba_marseille","lat":43.3172,"lon":5.40444,"is_reserved":false,"is_disabled":false,"rental_uris":{"android":"levelo://app?vid=8af4b88d-091f-4883-a950-3e14de86d879","ios":"levelo://app?vid=8af4b88d-091f-4883-a950-3e14de86d879"},"vehicle_type_id":"4","last_reported":1746821465,"current_range_meters":18800,"station_id":"ce4bh012rcd13ifvqd00","pricing_plan_id":"cebpf4jnsgd1na2vs0mg"},{"bike_id":"d146aa84-24ff-4006-84b9-13eee4babaf6","system_id":"levelo_inurba_marseille","lat":43.23965,"lon":5.36636,"is_reserved":false,"is_disabled":false,"rental_uris":{"android":"levelo://app?vid=d146aa84-24ff-4006-84b9-13eee4babaf6","ios":"levelo://app?vid=d146aa84-24ff-4006-84b9-13eee4babaf6"},"vehicle_type_id":"4","last_reported":1746821465,"current_range_meters":18800,"station_id":"ce4bhi12rcd13ifvqfp0","pricing_plan_id":"cebpf4jnsgd1na2vs0mg"},{"bike_id":"48fa67a9-9e98-48e7-be82-ea03cbde26d8","system_id":"levelo_inurba_marseille","lat":43.29421,"lon":5.38598,"is_reserved":false,"is_disabled":false,"rental_uris":{"android":"levelo://app?vid=48fa67a9-9e98-48e7-be82-ea03cbde26d8","ios":"levelo://app?vid=48fa67a9-9e98-48e7-be82-ea03cbde26d8"},"vehicle_type_id":"4","last_reported":1746821465,"current_range_meters":18800,"station_id":"ce4bh2h2rcd13ifvqdh0","pricing_plan_id":"cebpf4jnsgd1na2vs0mg"},{"bike_id":"50f5e02d-7e3d-4bd6-8a5e-360e84f51370","system_id":"levelo_inurba_marseille","lat":43.25099,"lon":5.40338,"is_reserved":false,"is_disabled":false,"rental_uris":{"android":"levelo://app?vid=50f5e02d-7e3d-4bd6-8a5e-360e84f51370","ios":"levelo://app?vid=50f5e02d-7e3d-4bd6-8a5e-360e84f51370"},"vehicle_type_id":"4","last_reported":1746821465,"current_range_meters":19200,"station_id":"ce4bhlh2rcd13ifvqgig","pricing_plan_id":"cebpf4jnsgd1na2vs0mg"},{"bike_id":"796ef36e-55a7-4cb9-844d-596a7e2f3fa6","system_id":"levelo_inurba_marseille","lat":43.28378,"lon":5.36462,"is_reserved":false,"is_disabled":false,"rental_uris":{"android":"levelo://app?vid=796ef36e-55a7-4cb9-844d-596a7e2f3fa6","ios":"levelo://app?vid=796ef36e-55a7-4cb9-844d-596a7e2f3fa6"},"vehicle_type_id":"4","last_reported":1746821465,"current_range_meters":19200,"station_id":"","pricing_plan_id":"cebpf4jnsgd1na2vs0mg"},{"bike_id":"e72f1a1c-7420-4ee6-8586-2213229f10e5","system_id":"levelo_inurba_marseille","lat":43.24809,"lon":5.37454,"is_reserved":false,"is_disabled":false,"rental_uris":{"android":"levelo://app?vid=e72f1a1c-7420-4ee6-8586-2213229f10e5","ios":"levelo://app?vid=e72f1a1c-7420-4ee6-8586-2213229f10e5"},"vehicle_type_id":"4","last_reported":1746821465,"current_range_meters":19200,"station_id":"ce4bhgh2rcd13ifvqfb0","pricing_plan_id":"cebpf4jnsgd1na2vs0mg"},{"bike_id":"2d99b521-f4b2-4bd7-b0c9-6ff327cb1a5a","system_id":"levelo_inurba_marseille","lat":43.31706,"lon":5.43701,"is_reserved":false,"is_disabled":false,"rental_uris":{"android":"levelo://app?vid=2d99b521-f4b2-4bd7-b0c9-6ff327cb1a5a","ios":"levelo://app?vid=2d99b521-f4b2-4bd7-b0c9-6ff327cb1a5a"},"vehicle_type_id":"4","last_reported":1746821465,"current_range_meters":19200,"station_id":"ce4bhp92rcd13ifvqhcg","pricing_plan_id":"cebpf4jnsgd1na2vs0mg"},{"bike_id":"52bdcc1c-abcb-4910-837c-90633a2d6c21","system_id":"levelo_inurba_marseille","lat":43.23189,"lon":5.39985,"is_reserved":false,"is_disabled":false,"rental_uris":{"android":"levelo://app?vid=52bdcc1c-abcb-4910-837c-90633a2d6c21","ios":"levelo://app?vid=52bdcc1c-abcb-4910-837c-90633a2d6c21"},"vehicle_type_id":"4","last_reported":1746821465,"current_range_meters":19200,"station_id":"ce4bhn12rcd13ifvqgqg","pricing_plan_id":"cebpf4jnsgd1na2vs0mg"},{"bike_id":"d8461820-0277-4ddc-ba98-b339d9d14a54","system_id":"levelo_inurba_marseille","lat":43.29976,"lon":5.37177,"is_reserved":false,"is_disabled":false,"rental_uris":{"android":"levelo://app?vid=d8461820-0277-4ddc-ba98-b339d9d14a54","ios":"levelo://app?vid=d8461820-0277-4ddc-ba98-b339d9d14a54"},"vehicle_type_id":"4","last_reported":1746821465,"current_range_meters":19200,"station_id":"ce4bgr92rcd13ifvqc7g","pricing_plan_id":"cebpf4jnsgd1na2vs0mg"},{"bike_id":"345ce1fb-b861-4aee-8c4c-ecef8dad57fb","system_id":"levelo_inurba_marseille","lat":43.24396,"lon":5.3708,"is_reserved":false,"is_disabled":false,"rental_uris":{"android":"levelo://app?vid=345ce1fb-b861-4aee-8c4c-ecef8dad57fb","ios":"levelo://app?vid=345ce1fb-b861-4aee-8c4c-ecef8dad57fb"},"vehicle_type_id":"4","last_reported":1746821465,"current_range_meters":19200,"station_id":"ce4bhhh2rcd13ifvqfk0","pricing_plan_id":"cebpf4jnsgd1na2vs0mg"},{"bike_id":"24b37286-017d-42e3-9b22-b0a6595510aa","system_id":"levelo_inurba_marseille","lat":43.284,"lon":5.37527,"is_reserved":false,"is_disabled":false,"rental_uris":{"android":"levelo://app?vid=24b37286-017d-42e3-9b22-b0a6595510aa","ios":"levelo://app?vid=24b37286-017d-42e3-9b22-b0a6595510aa"},"vehicle_type_id":"4","last_reported":1746821465,"current_range_meters":18800,"station_id":"ce4bh412rcd13ifvqds0","pricing_plan_id":"cebpf4jnsgd1na2vs0mg"},{"bike_id":"a2ffdf1b-cd48-4fa7-b865-e329026af7af","system_id":"levelo_inurba_marseille","lat":43.301953,"lon":5.366027,"is_reserved":false,"is_disabled":false,"rental_uris":{"android":"levelo://app?vid=a2ffdf1b-cd48-4fa7-b865-e329026af7af","ios":"levelo://app?vid=a2ffdf1b-cd48-4fa7-b865-e329026af7af"},"vehicle_type_id":"4","last_reported":1746821465,"current_range_meters":19200,"station_id":"ce4bgrh2rcd13ifvqc8g","pricing_plan_id":"cebpf4jnsgd1na2vs0mg"},{"bike_id":"a1121b36-b5cd-4dda-96ef-13a3dfaa55e1","system_id":"levelo_inurba_marseille","lat":43.301401,"lon":5.387791,"is_reserved":false,"is_disabled":false,"rental_uris":{"android":"levelo://app?vid=a1121b36-b5cd-4dda-96ef-13a3dfaa55e1","ios":"levelo://app?vid=a1121b36-b5cd-4dda-96ef-13a3dfaa55e1"},"vehicle_type_id":"4","last_reported":1746821465,"current_range_meters":19600,"station_id":"","pricing_plan_id":"cebpf4jnsgd1na2vs0mg"},{"bike_id":"462336e2-a4e8-4882-be35-4ed6969a7cd6","system_id":"levelo_inurba_marseille","lat":43.29939,"lon":5.38632,"is_reserved":false,"is_disabled":false,"rental_uris":{"android":"levelo://app?vid=462336e2-a4e8-4882-be35-4ed6969a7cd6","ios":"levelo://app?vid=462336e2-a4e8-4882-be35-4ed6969a7cd6"},"vehicle_type_id":"4","last_reported":1746821465,"current_range_meters":19600,"station_id":"","pricing_plan_id":"cebpf4jnsgd1na2vs0mg"},{"bike_id":"e4d37a69-6f4d-41d2-a3e9-4647ed75cd4b","system_id":"levelo_inurba_marseille","lat":43.31269,"lon":5.40172,"is_reserved":false,"is_disabled":false,"rental_uris":{"android":"levelo://app?vid=e4d37a69-6f4d-41d2-a3e9-4647ed75cd4b","ios":"levelo://app?vid=e4d37a69-6f4d-41d2-a3e9-4647ed75cd4b"},"vehicle_type_id":"4","last_reported":1746821465,"current_range_meters":19600,"station_id":"ce4bh092rcd13ifvqd30","pricing_plan_id":"cebpf4jnsgd1na2vs0mg"},{"bike_id":"73024421-1a60-4902-b8df-9693619e8565","system_id":"levelo_inurba_marseille","lat":43.26789,"lon":5.39411,"is_reserved":false,"is_disabled":false,"rental_uris":{"android":"levelo://app?vid=73024421-1a60-4902-b8df-9693619e8565","ios":"levelo://app?vid=73024421-1a60-4902-b8df-9693619e8565"},"vehicle_type_id":"4","last_reported":1746821465,"current_range_meters":19200,"station_id":"ce4bhh12rcd13ifvqfg0","pricing_plan_id":"cebpf4jnsgd1na2vs0mg"},{"bike_id":"611984cb-882a-46b7-8fab-e6350303c611","system_id":"levelo_inurba_marseille","lat":43.24164,"lon":5.36414,"is_reserved":false,"is_disabled":false,"rental_uris":{"android":"levelo://app?vid=611984cb-882a-46b7-8fab-e6350303c611","ios":"levelo://app?vid=611984cb-882a-46b7-8fab-e6350303c611"},"vehicle_type_id":"4","last_reported":1746821465,"current_range_meters":19600,"station_id":"cpo36qri1sfpv3e86is0","pricing_plan_id":"cebpf4jnsgd1na2vs0mg"},{"bike_id":"3546734f-e1ec-49ef-8a69-8c904830a2fb","system_id":"levelo_inurba_marseille","lat":43.2782,"lon":5.40684,"is_reserved":false,"is_disabled":false,"rental_uris":{"android":"levelo://app?vid=3546734f-e1ec-49ef-8a69-8c904830a2fb","ios":"levelo://app?vid=3546734f-e1ec-49ef-8a69-8c904830a2fb"},"vehicle_type_id":"4","last_reported":1746821465,"current_range_meters":19600,"station_id":"ce4bhnh2rcd13ifvqgtg","pricing_plan_id":"cebpf4jnsgd1na2vs0mg"},{"bike_id":"f34a79fb-9a2a-4d46-9bae-b3621d640434","system_id":"levelo_inurba_marseille","lat":43.31077,"lon":5.4243,"is_reserved":false,"is_disabled":true,"rental_uris":{"android":"levelo://app?vid=f34a79fb-9a2a-4d46-9bae-b3621d640434","ios":"levelo://app?vid=f34a79fb-9a2a-4d46-9bae-b3621d640434"},"vehicle_type_id":"4","last_reported":1746821465,"current_range_meters":19600,"station_id":"ce4bhp92rcd13ifvqhag","pricing_plan_id":"cebpf4jnsgd1na2vs0mg"},{"bike_id":"91e7cac8-bc29-4f0b-9dee-69d0d04d64aa","system_id":"levelo_inurba_marseille","lat":43.292582,"lon":5.409137,"is_reserved":false,"is_disabled":false,"rental_uris":{"android":"levelo://app?vid=91e7cac8-bc29-4f0b-9dee-69d0d04d64aa","ios":"levelo://app?vid=91e7cac8-bc29-4f0b-9dee-69d0d04d64aa"},"vehicle_type_id":"4","last_reported":1746821465,"current_range_meters":19200,"station_id":"ce4bh192rcd13ifvqdc0","pricing_plan_id":"cebpf4jnsgd1na2vs0mg"},{"bike_id":"896cbcbc-d192-4c62-ace0-6382241f7aac","system_id":"levelo_inurba_marseille","lat":43.295288,"lon":5.385389,"is_reserved":false,"is_disabled":false,"rental_uris":{"android":"levelo://app?vid=896cbcbc-d192-4c62-ace0-6382241f7aac","ios":"levelo://app?vid=896cbcbc-d192-4c62-ace0-6382241f7aac"},"vehicle_type_id":"4","last_reported":1746821465,"current_range_meters":19600,"station_id":"ce4bgi92rcd13ifvqb90","pricing_plan_id":"cebpf4jnsgd1na2vs0mg"},{"bike_id":"5739319e-89cf-4cf1-b264-cd764b8342ed","system_id":"levelo_inurba_marseille","lat":43.28101,"lon":5.37834,"is_reserved":false,"is_disabled":false,"rental_uris":{"android":"levelo://app?vid=5739319e-89cf-4cf1-b264-cd764b8342ed","ios":"levelo://app?vid=5739319e-89cf-4cf1-b264-cd764b8342ed"},"vehicle_type_id":"4","last_reported":1746821465,"current_range_meters":19600,"station_id":"ce4bha12rcd13ifvqee0","pricing_plan_id":"cebpf4jnsgd1na2vs0mg"},{"bike_id":"443cab24-6a21-437f-9fb3-5c8142e6ea77","system_id":"levelo_inurba_marseille","lat":43.29545,"lon":5.39384,"is_reserved":false,"is_disabled":false,"rental_uris":{"android":"levelo://app?vid=443cab24-6a21-437f-9fb3-5c8142e6ea77","ios":"levelo://app?vid=443cab24-6a21-437f-9fb3-5c8142e6ea77"},"vehicle_type_id":"4","last_reported":1746821465,"current_range_meters":19600,"station_id":"ce4bh292rcd13ifvqdf0","pricing_plan_id":"cebpf4jnsgd1na2vs0mg"},{"bike_id":"f7042be8-eb5f-4b94-bcb1-9ae3388253fa","system_id":"levelo_inurba_marseille","lat":43.294228,"lon":5.386164,"is_reserved":false,"is_disabled":false,"rental_uris":{"android":"levelo://app?vid=f7042be8-eb5f-4b94-bcb1-9ae3388253fa","ios":"levelo://app?vid=f7042be8-eb5f-4b94-bcb1-9ae3388253fa"},"vehicle_type_id":"4","last_reported":1746821465,"current_range_meters":19600,"station_id":"ce4bh2h2rcd13ifvqdh0","pricing_plan_id":"cebpf4jnsgd1na2vs0mg"},{"bike_id":"c6a47484-d055-421c-8600-6e87c43debf0","system_id":"levelo_inurba_marseille","lat":43.30326,"lon":5.4043,"is_reserved":false,"is_disabled":false,"rental_uris":{"android":"levelo://app?vid=c6a47484-d055-421c-8600-6e87c43debf0","ios":"levelo://app?vid=c6a47484-d055-421c-8600-6e87c43debf0"},"vehicle_type_id":"4","last_reported":1746821465,"current_range_meters":19600,"station_id":"ce4bh012rcd13ifvqd10","pricing_plan_id":"cebpf4jnsgd1na2vs0mg"},{"bike_id":"5cab8d09-0439-4dcf-8b6c-b4bfbff12d0b","system_id":"levelo_inurba_marseille","lat":43.31998,"lon":5.38153,"is_reserved":false,"is_disabled":true,"rental_uris":{"android":"levelo://app?vid=5cab8d09-0439-4dcf-8b6c-b4bfbff12d0b","ios":"levelo://app?vid=5cab8d09-0439-4dcf-8b6c-b4bfbff12d0b"},"vehicle_type_id":"4","last_reported":1746821465,"current_range_meters":20000,"station_id":"ce4bhr12rcd13ifvqhpg","pricing_plan_id":"cebpf4jnsgd1na2vs0mg"},{"bike_id":"6ca69db7-bdbf-4901-a061-91257760b749","system_id":"levelo_inurba_marseille","lat":43.25722,"lon":5.41112,"is_reserved":false,"is_disabled":false,"rental_uris":{"android":"levelo://app?vid=6ca69db7-bdbf-4901-a061-91257760b749","ios":"levelo://app?vid=6ca69db7-bdbf-4901-a061-91257760b749"},"vehicle_type_id":"4","last_reported":1746821465,"current_range_meters":20000,"station_id":"ce4bhkp2rcd13ifvqgd0","pricing_plan_id":"cebpf4jnsgd1na2vs0mg"},{"bike_id":"224573af-aa41-462b-962f-51710d956a97","system_id":"levelo_inurba_marseille","lat":43.25117,"lon":5.40346,"is_reserved":false,"is_disabled":false,"rental_uris":{"android":"levelo://app?vid=224573af-aa41-462b-962f-51710d956a97","ios":"levelo://app?vid=224573af-aa41-462b-962f-51710d956a97"},"vehicle_type_id":"4","last_reported":1746821465,"current_range_meters":20000,"station_id":"ce4bhlh2rcd13ifvqgig","pricing_plan_id":"cebpf4jnsgd1na2vs0mg"},{"bike_id":"63c52170-046e-4640-bcac-7efe36817223","system_id":"levelo_inurba_marseille","lat":43.313477,"lon":5.38495,"is_reserved":false,"is_disabled":false,"rental_uris":{"android":"levelo://app?vid=63c52170-046e-4640-bcac-7efe36817223","ios":"levelo://app?vid=63c52170-046e-4640-bcac-7efe36817223"},"vehicle_type_id":"4","last_reported":1746821465,"current_range_meters":20000,"station_id":"ce4bgt92rcd13ifvqcf0","pricing_plan_id":"cebpf4jnsgd1na2vs0mg"},{"bike_id":"03c31185-6040-4fd0-afd9-323652237c63","system_id":"levelo_inurba_marseille","lat":43.279053,"lon":5.38011,"is_reserved":false,"is_disabled":false,"rental_uris":{"android":"levelo://app?vid=03c31185-6040-4fd0-afd9-323652237c63","ios":"levelo://app?vid=03c31185-6040-4fd0-afd9-323652237c63"},"vehicle_type_id":"4","last_reported":1746821465,"current_range_meters":20000,"station_id":"ce4bhf92rcd13ifvqf50","pricing_plan_id":"cebpf4jnsgd1na2vs0mg"},{"bike_id":"82f8d12d-8601-4b3c-a2da-bb55f8606785","system_id":"levelo_inurba_marseille","lat":43.28351,"lon":5.38103,"is_reserved":false,"is_disabled":false,"rental_uris":{"android":"levelo://app?vid=82f8d12d-8601-4b3c-a2da-bb55f8606785","ios":"levelo://app?vid=82f8d12d-8601-4b3c-a2da-bb55f8606785"},"vehicle_type_id":"4","last_reported":1746821465,"current_range_meters":20000,"station_id":"ce4bh412rcd13ifvqdr0","pricing_plan_id":"cebpf4jnsgd1na2vs0mg"},{"bike_id":"8cfbc515-04c2-4cea-a201-45d9bc405217","system_id":"levelo_inurba_marseille","lat":43.24387,"lon":5.37055,"is_reserved":false,"is_disabled":false,"rental_uris":{"android":"levelo://app?vid=8cfbc515-04c2-4cea-a201-45d9bc405217","ios":"levelo://app?vid=8cfbc515-04c2-4cea-a201-45d9bc405217"},"vehicle_type_id":"4","last_reported":1746821465,"current_range_meters":20000,"station_id":"ce4bhhh2rcd13ifvqfk0","pricing_plan_id":"cebpf4jnsgd1na2vs0mg"},{"bike_id":"eef67c5c-18d2-4751-8446-091d6493225c","system_id":"levelo_inurba_marseille","lat":43.2942,"lon":5.38624,"is_reserved":false,"is_disabled":false,"rental_uris":{"android":"levelo://app?vid=eef67c5c-18d2-4751-8446-091d6493225c","ios":"levelo://app?vid=eef67c5c-18d2-4751-8446-091d6493225c"},"vehicle_type_id":"4","last_reported":1746821465,"current_range_meters":20000,"station_id":"ce4bh2h2rcd13ifvqdh0","pricing_plan_id":"cebpf4jnsgd1na2vs0mg"},{"bike_id":"de819f27-6e1a-4942-9e5b-4feb7f1475bd","system_id":"levelo_inurba_marseille","lat":43.29261,"lon":5.38444,"is_reserved":false,"is_disabled":false,"rental_uris":{"android":"levelo://app?vid=de819f27-6e1a-4942-9e5b-4feb7f1475bd","ios":"levelo://app?vid=de819f27-6e1a-4942-9e5b-4feb7f1475bd"},"vehicle_type_id":"4","last_reported":1746821465,"current_range_meters":20000,"station_id":"ce4bh692rcd13ifvqea0","pricing_plan_id":"cebpf4jnsgd1na2vs0mg"},{"bike_id":"c2528238-7350-4ea7-b653-5931b64a705c","system_id":"levelo_inurba_marseille","lat":43.28452,"lon":5.35895,"is_reserved":false,"is_disabled":false,"rental_uris":{"android":"levelo://app?vid=c2528238-7350-4ea7-b653-5931b64a705c","ios":"levelo://app?vid=c2528238-7350-4ea7-b653-5931b64a705c"},"vehicle_type_id":"4","last_reported":1746821465,"current_range_meters":20000,"station_id":"ce4bhah2rcd13ifvqei0","pricing_plan_id":"cebpf4jnsgd1na2vs0mg"},{"bike_id":"da3ec372-c434-4150-8b8f-a943bf4cc231","system_id":"levelo_inurba_marseille","lat":43.29306,"lon":5.37162,"is_reserved":false,"is_disabled":false,"rental_uris":{"android":"levelo://app?vid=da3ec372-c434-4150-8b8f-a943bf4cc231","ios":"levelo://app?vid=da3ec372-c434-4150-8b8f-a943bf4cc231"},"vehicle_type_id":"4","last_reported":1746821465,"current_range_meters":20000,"station_id":"ce4bgh92rcd13ifvqb40","pricing_plan_id":"cebpf4jnsgd1na2vs0mg"},{"bike_id":"11bac9a6-0e04-4c68-9615-f13539342864","system_id":"levelo_inurba_marseille","lat":43.21189,"lon":5.35089,"is_reserved":false,"is_disabled":false,"rental_uris":{"android":"levelo://app?vid=11bac9a6-0e04-4c68-9615-f13539342864","ios":"levelo://app?vid=11bac9a6-0e04-4c68-9615-f13539342864"},"vehicle_type_id":"4","last_reported":1746821465,"current_range_meters":20400,"station_id":"st_cvj6sg6p6f1abm77japg","pricing_plan_id":"cebpf4jnsgd1na2vs0mg"},{"bike_id":"0fa7a7ac-fccf-4602-93a6-d952c38f1f38","system_id":"levelo_inurba_marseille","lat":43.25869,"lon":5.399,"is_reserved":false,"is_disabled":false,"rental_uris":{"android":"levelo://app?vid=0fa7a7ac-fccf-4602-93a6-d952c38f1f38","ios":"levelo://app?vid=0fa7a7ac-fccf-4602-93a6-d952c38f1f38"},"vehicle_type_id":"4","last_reported":1746821465,"current_range_meters":20400,"station_id":"ce4bhl92rcd13ifvqghg","pricing_plan_id":"cebpf4jnsgd1na2vs0mg"},{"bike_id":"bcc6c03b-9e65-422c-a7b6-a016c72d9156","system_id":"levelo_inurba_marseille","lat":43.29029,"lon":5.38641,"is_reserved":false,"is_disabled":false,"rental_uris":{"android":"levelo://app?vid=bcc6c03b-9e65-422c-a7b6-a016c72d9156","ios":"levelo://app?vid=bcc6c03b-9e65-422c-a7b6-a016c72d9156"},"vehicle_type_id":"4","last_reported":1746821465,"current_range_meters":20400,"station_id":"ce4bh4p2rcd13ifvqe0g","pricing_plan_id":"cebpf4jnsgd1na2vs0mg"},{"bike_id":"0fb6b147-e9a8-4345-a220-93d47a47a517","system_id":"levelo_inurba_marseille","lat":43.2298,"lon":5.35387,"is_reserved":false,"is_disabled":false,"rental_uris":{"android":"levelo://app?vid=0fb6b147-e9a8-4345-a220-93d47a47a517","ios":"levelo://app?vid=0fb6b147-e9a8-4345-a220-93d47a47a517"},"vehicle_type_id":"4","last_reported":1746821465,"current_range_meters":20400,"station_id":"cpo3532slgdg3j2ikp40","pricing_plan_id":"cebpf4jnsgd1na2vs0mg"},{"bike_id":"b36cb683-ad29-415e-9e01-33e17d955da6","system_id":"levelo_inurba_marseille","lat":43.296025,"lon":5.381001,"is_reserved":false,"is_disabled":false,"rental_uris":{"android":"levelo://app?vid=b36cb683-ad29-415e-9e01-33e17d955da6","ios":"levelo://app?vid=b36cb683-ad29-415e-9e01-33e17d955da6"},"vehicle_type_id":"4","last_reported":1746821465,"current_range_meters":20400,"station_id":"","pricing_plan_id":"cebpf4jnsgd1na2vs0mg"},{"bike_id":"f3ae16e5-7a03-4bae-9408-c0e25a547e7b","system_id":"levelo_inurba_marseille","lat":43.2971,"lon":5.36842,"is_reserved":false,"is_disabled":false,"rental_uris":{"android":"levelo://app?vid=f3ae16e5-7a03-4bae-9408-c0e25a547e7b","ios":"levelo://app?vid=f3ae16e5-7a03-4bae-9408-c0e25a547e7b"},"vehicle_type_id":"4","last_reported":1746821465,"current_range_meters":20400,"station_id":"ce4bgn12rcd13ifvqbt0","pricing_plan_id":"cebpf4jnsgd1na2vs0mg"},{"bike_id":"17dfc913-1c15-4397-a046-d701cf8b72a2","system_id":"levelo_inurba_marseille","lat":43.30536,"lon":5.36554,"is_reserved":false,"is_disabled":false,"rental_uris":{"android":"levelo://app?vid=17dfc913-1c15-4397-a046-d701cf8b72a2","ios":"levelo://app?vid=17dfc913-1c15-4397-a046-d701cf8b72a2"},"vehicle_type_id":"4","last_reported":1746821465,"current_range_meters":20800,"station_id":"ce4bgs12rcd13ifvqcag","pricing_plan_id":"cebpf4jnsgd1na2vs0mg"},{"bike_id":"b78064d7-36bf-4917-ad24-7ccc67ce6490","system_id":"levelo_inurba_marseille","lat":43.33024,"lon":5.39039,"is_reserved":false,"is_disabled":false,"rental_uris":{"android":"levelo://app?vid=b78064d7-36bf-4917-ad24-7ccc67ce6490","ios":"levelo://app?vid=b78064d7-36bf-4917-ad24-7ccc67ce6490"},"vehicle_type_id":"4","last_reported":1746821465,"current_range_meters":20800,"station_id":"ce4bhr92rcd13ifvqhrg","pricing_plan_id":"cebpf4jnsgd1na2vs0mg"},{"bike_id":"47e37da5-042c-4593-9048-906f35191e89","system_id":"levelo_inurba_marseille","lat":43.28934,"lon":5.36628,"is_reserved":false,"is_disabled":false,"rental_uris":{"android":"levelo://app?vid=47e37da5-042c-4593-9048-906f35191e89","ios":"levelo://app?vid=47e37da5-042c-4593-9048-906f35191e89"},"vehicle_type_id":"4","last_reported":1746821465,"current_range_meters":20800,"station_id":"ce4bhap2rcd13ifvqek0","pricing_plan_id":"cebpf4jnsgd1na2vs0mg"},{"bike_id":"a72cd276-f803-4594-8dd0-8ab741ad50e7","system_id":"levelo_inurba_marseille","lat":43.28001,"lon":5.40018,"is_reserved":false,"is_disabled":false,"rental_uris":{"android":"levelo://app?vid=a72cd276-f803-4594-8dd0-8ab741ad50e7","ios":"levelo://app?vid=a72cd276-f803-4594-8dd0-8ab741ad50e7"},"vehicle_type_id":"4","last_reported":1746821465,"current_range_meters":20800,"station_id":"ce4bho92rcd13ifvqh4g","pricing_plan_id":"cebpf4jnsgd1na2vs0mg"},{"bike_id":"901354e0-8e7e-4f10-9f7b-ea501dda5dc7","system_id":"levelo_inurba_marseille","lat":43.24818,"lon":5.37445,"is_reserved":false,"is_disabled":false,"rental_uris":{"android":"levelo://app?vid=901354e0-8e7e-4f10-9f7b-ea501dda5dc7","ios":"levelo://app?vid=901354e0-8e7e-4f10-9f7b-ea501dda5dc7"},"vehicle_type_id":"4","last_reported":1746821465,"current_range_meters":20800,"station_id":"ce4bhgh2rcd13ifvqfb0","pricing_plan_id":"cebpf4jnsgd1na2vs0mg"},{"bike_id":"d415e7e2-f909-4c4f-94d7-56d33e682e41","system_id":"levelo_inurba_marseille","lat":43.243933,"lon":5.37065,"is_reserved":false,"is_disabled":true,"rental_uris":{"android":"levelo://app?vid=d415e7e2-f909-4c4f-94d7-56d33e682e41","ios":"levelo://app?vid=d415e7e2-f909-4c4f-94d7-56d33e682e41"},"vehicle_type_id":"4","last_reported":1746821465,"current_range_meters":20800,"station_id":"ce4bhhh2rcd13ifvqfk0","pricing_plan_id":"cebpf4jnsgd1na2vs0mg"},{"bike_id":"2dd88929-e6f6-4391-b30d-7cfcecde1ae7","system_id":"levelo_inurba_marseille","lat":43.27557,"lon":5.38443,"is_reserved":false,"is_disabled":false,"rental_uris":{"android":"levelo://app?vid=2dd88929-e6f6-4391-b30d-7cfcecde1ae7","ios":"levelo://app?vid=2dd88929-e6f6-4391-b30d-7cfcecde1ae7"},"vehicle_type_id":"4","last_reported":1746821465,"current_range_meters":20800,"station_id":"ce4bhh92rcd13ifvqfi0","pricing_plan_id":"cebpf4jnsgd1na2vs0mg"},{"bike_id":"7fbe4ed7-8189-4056-980b-d64a3567d7cb","system_id":"levelo_inurba_marseille","lat":43.28461,"lon":5.35894,"is_reserved":false,"is_disabled":false,"rental_uris":{"android":"levelo://app?vid=7fbe4ed7-8189-4056-980b-d64a3567d7cb","ios":"levelo://app?vid=7fbe4ed7-8189-4056-980b-d64a3567d7cb"},"vehicle_type_id":"4","last_reported":1746821465,"current_range_meters":20800,"station_id":"ce4bhah2rcd13ifvqei0","pricing_plan_id":"cebpf4jnsgd1na2vs0mg"},{"bike_id":"7c377f70-2120-44c6-bdbf-5f329d24d733","system_id":"levelo_inurba_marseille","lat":43.294256,"lon":5.386231,"is_reserved":false,"is_disabled":false,"rental_uris":{"android":"levelo://app?vid=7c377f70-2120-44c6-bdbf-5f329d24d733","ios":"levelo://app?vid=7c377f70-2120-44c6-bdbf-5f329d24d733"},"vehicle_type_id":"4","last_reported":1746821465,"current_range_meters":20800,"station_id":"ce4bh2h2rcd13ifvqdh0","pricing_plan_id":"cebpf4jnsgd1na2vs0mg"},{"bike_id":"a57aa771-e0fb-41ed-afd1-fc3bd859edde","system_id":"levelo_inurba_marseille","lat":43.30261,"lon":5.40078,"is_reserved":false,"is_disabled":false,"rental_uris":{"android":"levelo://app?vid=a57aa771-e0fb-41ed-afd1-fc3bd859edde","ios":"levelo://app?vid=a57aa771-e0fb-41ed-afd1-fc3bd859edde"},"vehicle_type_id":"4","last_reported":1746821465,"current_range_meters":21600,"station_id":"ce4bgvh2rcd13ifvqcs0","pricing_plan_id":"cebpf4jnsgd1na2vs0mg"},{"bike_id":"3c7091a7-d3df-41f2-a08e-df92bbb9fce8","system_id":"levelo_inurba_marseille","lat":43.25087,"lon":5.39523,"is_reserved":false,"is_disabled":false,"rental_uris":{"android":"levelo://app?vid=3c7091a7-d3df-41f2-a08e-df92bbb9fce8","ios":"levelo://app?vid=3c7091a7-d3df-41f2-a08e-df92bbb9fce8"},"vehicle_type_id":"4","last_reported":1746821465,"current_range_meters":20800,"station_id":"ce4bhm12rcd13ifvqgkg","pricing_plan_id":"cebpf4jnsgd1na2vs0mg"},{"bike_id":"9ba0e669-4874-47a8-8f1c-eacf136664d6","system_id":"levelo_inurba_marseille","lat":43.31757,"lon":5.39017,"is_reserved":false,"is_disabled":false,"rental_uris":{"android":"levelo://app?vid=9ba0e669-4874-47a8-8f1c-eacf136664d6","ios":"levelo://app?vid=9ba0e669-4874-47a8-8f1c-eacf136664d6"},"vehicle_type_id":"4","last_reported":1746821465,"current_range_meters":21600,"station_id":"ce4bhqp2rcd13ifvqhng","pricing_plan_id":"cebpf4jnsgd1na2vs0mg"},{"bike_id":"089388f9-578b-4ef2-a850-caec8891008b","system_id":"levelo_inurba_marseille","lat":43.29419,"lon":5.38629,"is_reserved":false,"is_disabled":false,"rental_uris":{"android":"levelo://app?vid=089388f9-578b-4ef2-a850-caec8891008b","ios":"levelo://app?vid=089388f9-578b-4ef2-a850-caec8891008b"},"vehicle_type_id":"4","last_reported":1746821465,"current_range_meters":22000,"station_id":"ce4bh2h2rcd13ifvqdh0","pricing_plan_id":"cebpf4jnsgd1na2vs0mg"},{"bike_id":"5080bc04-311b-4c10-8e17-8181d63a03bb","system_id":"levelo_inurba_marseille","lat":43.29223,"lon":5.36058,"is_reserved":false,"is_disabled":false,"rental_uris":{"android":"levelo://app?vid=5080bc04-311b-4c10-8e17-8181d63a03bb","ios":"levelo://app?vid=5080bc04-311b-4c10-8e17-8181d63a03bb"},"vehicle_type_id":"4","last_reported":1746821465,"current_range_meters":22000,"station_id":"ce4bhbh2rcd13ifvqeqg","pricing_plan_id":"cebpf4jnsgd1na2vs0mg"},{"bike_id":"96820d57-2a03-4b2f-a8aa-7252f0116da5","system_id":"levelo_inurba_marseille","lat":43.290159,"lon":5.381299,"is_reserved":false,"is_disabled":false,"rental_uris":{"android":"levelo://app?vid=96820d57-2a03-4b2f-a8aa-7252f0116da5","ios":"levelo://app?vid=96820d57-2a03-4b2f-a8aa-7252f0116da5"},"vehicle_type_id":"4","last_reported":1746821465,"current_range_meters":22000,"station_id":"","pricing_plan_id":"cebpf4jnsgd1na2vs0mg"},{"bike_id":"a66baad1-ccdb-46dd-9074-697960d2fe09","system_id":"levelo_inurba_marseille","lat":43.26211,"lon":5.37444,"is_reserved":false,"is_disabled":false,"rental_uris":{"android":"levelo://app?vid=a66baad1-ccdb-46dd-9074-697960d2fe09","ios":"levelo://app?vid=a66baad1-ccdb-46dd-9074-697960d2fe09"},"vehicle_type_id":"4","last_reported":1746821465,"current_range_meters":22000,"station_id":"ce4bhgp2rcd13ifvqfc0","pricing_plan_id":"cebpf4jnsgd1na2vs0mg"},{"bike_id":"d7bedb60-e645-4945-a4e9-3a9de046c84e","system_id":"levelo_inurba_marseille","lat":43.32072,"lon":5.4154,"is_reserved":false,"is_disabled":false,"rental_uris":{"android":"levelo://app?vid=d7bedb60-e645-4945-a4e9-3a9de046c84e","ios":"levelo://app?vid=d7bedb60-e645-4945-a4e9-3a9de046c84e"},"vehicle_type_id":"4","last_reported":1746821465,"current_range_meters":22000,"station_id":"ce4bhq92rcd13ifvqhkg","pricing_plan_id":"cebpf4jnsgd1na2vs0mg"},{"bike_id":"a783564d-79c3-402c-a475-e8418e91c3a2","system_id":"levelo_inurba_marseille","lat":43.29325,"lon":5.37106,"is_reserved":false,"is_disabled":false,"rental_uris":{"android":"levelo://app?vid=a783564d-79c3-402c-a475-e8418e91c3a2","ios":"levelo://app?vid=a783564d-79c3-402c-a475-e8418e91c3a2"},"vehicle_type_id":"4","last_reported":1746821465,"current_range_meters":22000,"station_id":"","pricing_plan_id":"cebpf4jnsgd1na2vs0mg"},{"bike_id":"1bcab9d9-cfad-4a51-b148-7d840aedc0c5","system_id":"levelo_inurba_marseille","lat":43.29713,"lon":5.37689,"is_reserved":false,"is_disabled":false,"rental_uris":{"android":"levelo://app?vid=1bcab9d9-cfad-4a51-b148-7d840aedc0c5","ios":"levelo://app?vid=1bcab9d9-cfad-4a51-b148-7d840aedc0c5"},"vehicle_type_id":"4","last_reported":1746821465,"current_range_meters":22000,"station_id":"ce4bgkh2rcd13ifvqbl0","pricing_plan_id":"cebpf4jnsgd1na2vs0mg"},{"bike_id":"44ac3a25-28f9-4852-961b-c0b5a795b555","system_id":"levelo_inurba_marseille","lat":43.3054,"lon":5.3656,"is_reserved":false,"is_disabled":false,"rental_uris":{"android":"levelo://app?vid=44ac3a25-28f9-4852-961b-c0b5a795b555","ios":"levelo://app?vid=44ac3a25-28f9-4852-961b-c0b5a795b555"},"vehicle_type_id":"4","last_reported":1746821465,"current_range_meters":22400,"station_id":"ce4bgs12rcd13ifvqcag","pricing_plan_id":"cebpf4jnsgd1na2vs0mg"},{"bike_id":"0b6e5a41-ae7c-4635-9759-a15aaa74ac1a","system_id":"levelo_inurba_marseille","lat":43.29797,"lon":5.40399,"is_reserved":false,"is_disabled":false,"rental_uris":{"android":"levelo://app?vid=0b6e5a41-ae7c-4635-9759-a15aaa74ac1a","ios":"levelo://app?vid=0b6e5a41-ae7c-4635-9759-a15aaa74ac1a"},"vehicle_type_id":"4","last_reported":1746821465,"current_range_meters":22400,"station_id":"ce4bh112rcd13ifvqd90","pricing_plan_id":"cebpf4jnsgd1na2vs0mg"},{"bike_id":"b78a3588-0548-4f2e-8f97-2bdfaacabffe","system_id":"levelo_inurba_marseille","lat":43.2794,"lon":5.41051,"is_reserved":false,"is_disabled":false,"rental_uris":{"android":"levelo://app?vid=b78a3588-0548-4f2e-8f97-2bdfaacabffe","ios":"levelo://app?vid=b78a3588-0548-4f2e-8f97-2bdfaacabffe"},"vehicle_type_id":"4","last_reported":1746821465,"current_range_meters":22400,"station_id":"ce4bhnp2rcd13ifvqh0g","pricing_plan_id":"cebpf4jnsgd1na2vs0mg"},{"bike_id":"7326cbf6-42ad-488d-99bc-d4958df37356","system_id":"levelo_inurba_marseille","lat":43.29426,"lon":5.38629,"is_reserved":false,"is_disabled":false,"rental_uris":{"android":"levelo://app?vid=7326cbf6-42ad-488d-99bc-d4958df37356","ios":"levelo://app?vid=7326cbf6-42ad-488d-99bc-d4958df37356"},"vehicle_type_id":"4","last_reported":1746821465,"current_range_meters":22800,"station_id":"ce4bh2h2rcd13ifvqdh0","pricing_plan_id":"cebpf4jnsgd1na2vs0mg"},{"bike_id":"f52c819d-ca4b-4640-b458-b877db1bf990","system_id":"levelo_inurba_marseille","lat":43.298643,"lon":5.410118,"is_reserved":false,"is_disabled":false,"rental_uris":{"android":"levelo://app?vid=f52c819d-ca4b-4640-b458-b877db1bf990","ios":"levelo://app?vid=f52c819d-ca4b-4640-b458-b877db1bf990"},"vehicle_type_id":"4","last_reported":1746821465,"current_range_meters":23200,"station_id":"","pricing_plan_id":"cebpf4jnsgd1na2vs0mg"},{"bike_id":"30d032a9-1fb6-4043-9a18-982f18073f8a","system_id":"levelo_inurba_marseille","lat":43.2397,"lon":5.36623,"is_reserved":false,"is_disabled":false,"rental_uris":{"android":"levelo://app?vid=30d032a9-1fb6-4043-9a18-982f18073f8a","ios":"levelo://app?vid=30d032a9-1fb6-4043-9a18-982f18073f8a"},"vehicle_type_id":"4","last_reported":1746821465,"current_range_meters":23200,"station_id":"ce4bhi12rcd13ifvqfp0","pricing_plan_id":"cebpf4jnsgd1na2vs0mg"},{"bike_id":"ce47b29d-26e7-4416-8fd7-0ee6d32a740b","system_id":"levelo_inurba_marseille","lat":43.29264,"lon":5.38447,"is_reserved":false,"is_disabled":false,"rental_uris":{"android":"levelo://app?vid=ce47b29d-26e7-4416-8fd7-0ee6d32a740b","ios":"levelo://app?vid=ce47b29d-26e7-4416-8fd7-0ee6d32a740b"},"vehicle_type_id":"4","last_reported":1746821465,"current_range_meters":23200,"station_id":"ce4bh692rcd13ifvqea0","pricing_plan_id":"cebpf4jnsgd1na2vs0mg"},{"bike_id":"1b1203d9-6691-4959-8800-b9a8f733d792","system_id":"levelo_inurba_marseille","lat":43.2963,"lon":5.37165,"is_reserved":false,"is_disabled":false,"rental_uris":{"android":"levelo://app?vid=1b1203d9-6691-4959-8800-b9a8f733d792","ios":"levelo://app?vid=1b1203d9-6691-4959-8800-b9a8f733d792"},"vehicle_type_id":"4","last_reported":1746821465,"current_range_meters":23200,"station_id":"ce4bgnh2rcd13ifvqc0g","pricing_plan_id":"cebpf4jnsgd1na2vs0mg"},{"bike_id":"998e1a7b-f3be-49db-8166-266e849c6a85","system_id":"levelo_inurba_marseille","lat":43.28941,"lon":5.36404,"is_reserved":false,"is_disabled":false,"rental_uris":{"android":"levelo://app?vid=998e1a7b-f3be-49db-8166-266e849c6a85","ios":"levelo://app?vid=998e1a7b-f3be-49db-8166-266e849c6a85"},"vehicle_type_id":"4","last_reported":1746821465,"current_range_meters":23200,"station_id":"ce4bhc92rcd13ifvqetg","pricing_plan_id":"cebpf4jnsgd1na2vs0mg"},{"bike_id":"3651f143-9702-4236-8168-8cbbb3a700ed","system_id":"levelo_inurba_marseille","lat":43.30931,"lon":5.40148,"is_reserved":false,"is_disabled":false,"rental_uris":{"android":"levelo://app?vid=3651f143-9702-4236-8168-8cbbb3a700ed","ios":"levelo://app?vid=3651f143-9702-4236-8168-8cbbb3a700ed"},"vehicle_type_id":"4","last_reported":1746821465,"current_range_meters":23200,"station_id":"ce4bgvp2rcd13ifvqct0","pricing_plan_id":"cebpf4jnsgd1na2vs0mg"},{"bike_id":"35acdf18-4688-4fbc-9b69-407331d78b5a","system_id":"levelo_inurba_marseille","lat":43.29258,"lon":5.38439,"is_reserved":false,"is_disabled":false,"rental_uris":{"android":"levelo://app?vid=35acdf18-4688-4fbc-9b69-407331d78b5a","ios":"levelo://app?vid=35acdf18-4688-4fbc-9b69-407331d78b5a"},"vehicle_type_id":"4","last_reported":1746821465,"current_range_meters":24000,"station_id":"ce4bh692rcd13ifvqea0","pricing_plan_id":"cebpf4jnsgd1na2vs0mg"},{"bike_id":"6ae8d5de-62bf-457d-a290-6461d5bf6c94","system_id":"levelo_inurba_marseille","lat":43.28705,"lon":5.37389,"is_reserved":false,"is_disabled":false,"rental_uris":{"android":"levelo://app?vid=6ae8d5de-62bf-457d-a290-6461d5bf6c94","ios":"levelo://app?vid=6ae8d5de-62bf-457d-a290-6461d5bf6c94"},"vehicle_type_id":"4","last_reported":1746821465,"current_range_meters":24000,"station_id":"ce4bh3p2rcd13ifvqdq0","pricing_plan_id":"cebpf4jnsgd1na2vs0mg"},{"bike_id":"cb360625-bf99-4647-86fd-aa2204d2019f","system_id":"levelo_inurba_marseille","lat":43.24387,"lon":5.37063,"is_reserved":false,"is_disabled":false,"rental_uris":{"android":"levelo://app?vid=cb360625-bf99-4647-86fd-aa2204d2019f","ios":"levelo://app?vid=cb360625-bf99-4647-86fd-aa2204d2019f"},"vehicle_type_id":"4","last_reported":1746821465,"current_range_meters":24000,"station_id":"ce4bhhh2rcd13ifvqfk0","pricing_plan_id":"cebpf4jnsgd1na2vs0mg"},{"bike_id":"2dd9eb1f-6fa8-4c48-8f99-3fa6c55aef3a","system_id":"levelo_inurba_marseille","lat":43.28157,"lon":5.42638,"is_reserved":false,"is_disabled":false,"rental_uris":{"android":"levelo://app?vid=2dd9eb1f-6fa8-4c48-8f99-3fa6c55aef3a","ios":"levelo://app?vid=2dd9eb1f-6fa8-4c48-8f99-3fa6c55aef3a"},"vehicle_type_id":"4","last_reported":1746821465,"current_range_meters":24000,"station_id":"ce4bhnh2rcd13ifvqgug","pricing_plan_id":"cebpf4jnsgd1na2vs0mg"},{"bike_id":"351ef218-24e5-4670-825d-fc1ac5cd3c19","system_id":"levelo_inurba_marseille","lat":43.31482,"lon":5.37306,"is_reserved":false,"is_disabled":false,"rental_uris":{"android":"levelo://app?vid=351ef218-24e5-4670-825d-fc1ac5cd3c19","ios":"levelo://app?vid=351ef218-24e5-4670-825d-fc1ac5cd3c19"},"vehicle_type_id":"4","last_reported":1746821465,"current_range_meters":24000,"station_id":"ce4bgt12rcd13ifvqcd0","pricing_plan_id":"cebpf4jnsgd1na2vs0mg"},{"bike_id":"ab90e9a9-2105-46d9-ad7c-f0b4aa67724b","system_id":"levelo_inurba_marseille","lat":43.23592,"lon":5.40348,"is_reserved":false,"is_disabled":false,"rental_uris":{"android":"levelo://app?vid=ab90e9a9-2105-46d9-ad7c-f0b4aa67724b","ios":"levelo://app?vid=ab90e9a9-2105-46d9-ad7c-f0b4aa67724b"},"vehicle_type_id":"4","last_reported":1746821465,"current_range_meters":24000,"station_id":"","pricing_plan_id":"cebpf4jnsgd1na2vs0mg"},{"bike_id":"73ded412-1ade-4c78-acbe-a9afd038932d","system_id":"levelo_inurba_marseille","lat":43.241649,"lon":5.363936,"is_reserved":false,"is_disabled":false,"rental_uris":{"android":"levelo://app?vid=73ded412-1ade-4c78-acbe-a9afd038932d","ios":"levelo://app?vid=73ded412-1ade-4c78-acbe-a9afd038932d"},"vehicle_type_id":"4","last_reported":1746821465,"current_range_meters":24000,"station_id":"cpo36qri1sfpv3e86is0","pricing_plan_id":"cebpf4jnsgd1na2vs0mg"},{"bike_id":"a5cdc52d-2a21-43c0-9f10-e1f8747d2942","system_id":"levelo_inurba_marseille","lat":43.30938,"lon":5.40143,"is_reserved":false,"is_disabled":false,"rental_uris":{"android":"levelo://app?vid=a5cdc52d-2a21-43c0-9f10-e1f8747d2942","ios":"levelo://app?vid=a5cdc52d-2a21-43c0-9f10-e1f8747d2942"},"vehicle_type_id":"4","last_reported":1746821465,"current_range_meters":24000,"station_id":"ce4bgvp2rcd13ifvqct0","pricing_plan_id":"cebpf4jnsgd1na2vs0mg"},{"bike_id":"85bb6706-184e-4c20-b189-fb44e57e0531","system_id":"levelo_inurba_marseille","lat":43.31724,"lon":5.40451,"is_reserved":false,"is_disabled":false,"rental_uris":{"android":"levelo://app?vid=85bb6706-184e-4c20-b189-fb44e57e0531","ios":"levelo://app?vid=85bb6706-184e-4c20-b189-fb44e57e0531"},"vehicle_type_id":"4","last_reported":1746821465,"current_range_meters":24400,"station_id":"ce4bh012rcd13ifvqd00","pricing_plan_id":"cebpf4jnsgd1na2vs0mg"},{"bike_id":"830ca2f3-14a2-40d4-b14d-f14634d8ac66","system_id":"levelo_inurba_marseille","lat":43.31725,"lon":5.43689,"is_reserved":false,"is_disabled":true,"rental_uris":{"android":"levelo://app?vid=830ca2f3-14a2-40d4-b14d-f14634d8ac66","ios":"levelo://app?vid=830ca2f3-14a2-40d4-b14d-f14634d8ac66"},"vehicle_type_id":"4","last_reported":1746821465,"current_range_meters":24400,"station_id":"ce4bhp92rcd13ifvqhcg","pricing_plan_id":"cebpf4jnsgd1na2vs0mg"},{"bike_id":"e58d6fd4-07b2-4174-939c-93925445957b","system_id":"levelo_inurba_marseille","lat":43.29939,"lon":5.3655,"is_reserved":false,"is_disabled":false,"rental_uris":{"android":"levelo://app?vid=e58d6fd4-07b2-4174-939c-93925445957b","ios":"levelo://app?vid=e58d6fd4-07b2-4174-939c-93925445957b"},"vehicle_type_id":"4","last_reported":1746821465,"current_range_meters":24400,"station_id":"ce4bgm92rcd13ifvqbr0","pricing_plan_id":"cebpf4jnsgd1na2vs0mg"},{"bike_id":"ec1e2952-c233-4458-acef-f3eedca0b536","system_id":"levelo_inurba_marseille","lat":43.31495,"lon":5.37308,"is_reserved":false,"is_disabled":false,"rental_uris":{"android":"levelo://app?vid=ec1e2952-c233-4458-acef-f3eedca0b536","ios":"levelo://app?vid=ec1e2952-c233-4458-acef-f3eedca0b536"},"vehicle_type_id":"4","last_reported":1746821465,"current_range_meters":24400,"station_id":"ce4bgt12rcd13ifvqcd0","pricing_plan_id":"cebpf4jnsgd1na2vs0mg"},{"bike_id":"eecbfab4-75a0-4132-92ce-834ffe29cacd","system_id":"levelo_inurba_marseille","lat":43.30327,"lon":5.40431,"is_reserved":false,"is_disabled":false,"rental_uris":{"android":"levelo://app?vid=eecbfab4-75a0-4132-92ce-834ffe29cacd","ios":"levelo://app?vid=eecbfab4-75a0-4132-92ce-834ffe29cacd"},"vehicle_type_id":"4","last_reported":1746821465,"current_range_meters":24400,"station_id":"ce4bh012rcd13ifvqd10","pricing_plan_id":"cebpf4jnsgd1na2vs0mg"},{"bike_id":"2e2f4f43-ea2c-4451-8a0b-b1a824a489b3","system_id":"levelo_inurba_marseille","lat":43.33033,"lon":5.39032,"is_reserved":false,"is_disabled":false,"rental_uris":{"android":"levelo://app?vid=2e2f4f43-ea2c-4451-8a0b-b1a824a489b3","ios":"levelo://app?vid=2e2f4f43-ea2c-4451-8a0b-b1a824a489b3"},"vehicle_type_id":"4","last_reported":1746821465,"current_range_meters":24400,"station_id":"ce4bhr92rcd13ifvqhrg","pricing_plan_id":"cebpf4jnsgd1na2vs0mg"},{"bike_id":"02bac07a-9186-49eb-a666-f70d86d99978","system_id":"levelo_inurba_marseille","lat":43.21193,"lon":5.35088,"is_reserved":false,"is_disabled":false,"rental_uris":{"android":"levelo://app?vid=02bac07a-9186-49eb-a666-f70d86d99978","ios":"levelo://app?vid=02bac07a-9186-49eb-a666-f70d86d99978"},