{"last_updated":1743804532,"ttl":60,"version":"2.2","data":{"bikes":[{"bike_id":"dccfc5de-d4f7-4763-865d-42e3e396645f","system_id":"levelo_inurba_marseille","lat":43.26687,"lon":5.38262,"is_reserved":false,"is_disabled":false,"rental_uris":{"android":"levelo://app?vid=dccfc5de-d4f7-4763-865d-42e3e396645f","ios":"levelo://app?vid=dccfc5de-d4f7-4763-865d-42e3e396645f"},"vehicle_type_id":"4","last_reported":1743804532,"current_range_meters":2800,"station_id":"ce4bhg92rcd13ifvqf90","pricing_plan_id":"cebpf4jnsgd1na2vs0mg"},{"bike_id":"010da739-2aa2-4f13-bc01-37ee668aae26","system_id":"levelo_inurba_marseille","lat":43.28159,"lon":5.42648,"is_reserved":false,"is_disabled":true,"rental_uris":{"android":"levelo://app?vid=010da739-2aa2-4f13-bc01-37ee668aae26","ios":"levelo://app?vid=010da739-2aa2-4f13-bc01-37ee668aae26"},"vehicle_type_id":"4","last_reported":1743804532,"current_range_meters":2800,"station_id":"ce4bhnh2rcd13ifvqgug","pricing_plan_id":"cebpf4jnsgd1na2vs0mg"},{"bike_id":"61cac26c-62d7-419b-b778-ba2a4be6fb05","system_id":"levelo_inurba_marseille","lat":43.33129,"lon":5.39213,"is_reserved":false,"is_disabled":false,"rental_uris":{"android":"levelo://app?vid=61cac26c-62d7-419b-b778-ba2a4be6fb05","ios":"levelo://app?vid=61cac26c-62d7-419b-b778-ba2a4be6fb05"},"vehicle_type_id":"4","last_reported":1743804532,"current_range_meters":3200,"station_id":"","pricing_plan_id":"cebpf4jnsgd1na2vs0mg"},{"bike_id":"cd83c8ac-ed09-4369-9279-b6f36f2bbd3c","system_id":"levelo_inurba_marseille","lat":43.30823,"lon":5.38178,"is_reserved":false,"is_disabled":false,"rental_uris":{"android":"levelo://app?vid=cd83c8ac-ed09-4369-9279-b6f36f2bbd3c","ios":"levelo://app?vid=cd83c8ac-ed09-4369-9279-b6f36f2bbd3c"},"vehicle_type_id":"4","last_reported":1743804532,"current_range_meters":3200,"station_id":"ce4bgt12rcd13ifvqce0","pricing_plan_id":"cebpf4jnsgd1na2vs0mg"},{"bike_id":"ee03b67d-fb1e-4366-bab9-7d3cd0e38b02","system_id":"levelo_inurba_marseille","lat":43.28409,"lon":5.34981,"is_reserved":false,"is_disabled":false,"rental_uris":{"android":"levelo://app?vid=ee03b67d-fb1e-4366-bab9-7d3cd0e38b02","ios":"levelo://app?vid=ee03b67d-fb1e-4366-bab9-7d3cd0e38b02"},"vehicle_type_id":"4","last_reported":1743804532,"current_range_meters":3200,"station_id":"ce4bhbh2rcd13ifvqepg","pricing_plan_id":"cebpf4jnsgd1na2vs0mg"},{"bike_id":"63ffac0c-8db5-4373-865f-03fd50a0b120","system_id":"levelo_inurba_marseille","lat":43.29596,"lon":5.38096,"is_reserved":false,"is_disabled":false,"rental_uris":{"android":"levelo://app?vid=63ffac0c-8db5-4373-865f-03fd50a0b120","ios":"levelo://app?vid=63ffac0c-8db5-4373-865f-03fd50a0b120"},"vehicle_type_id":"4","last_reported":1743804532,"current_range_meters":3600,"station_id":"ce4bgl12rcd13ifvqbo0","pricing_plan_id":"cebpf4jnsgd1na2vs0mg"},{"bike_id":"f577c4d0-08b0-44ae-a9fa-68698624b618","system_id":"levelo_inurba_marseille","lat":43.29029,"lon":5.35935,"is_reserved":false,"is_disabled":false,"rental_uris":{"android":"levelo://app?vid=f577c4d0-08b0-44ae-a9fa-68698624b618","ios":"levelo://app?vid=f577c4d0-08b0-44ae-a9fa-68698624b618"},"vehicle_type_id":"4","last_reported":1743804532,"current_range_meters":6800,"station_id":"ce4bha92rcd13ifvqeg0","pricing_plan_id":"cebpf4jnsgd1na2vs0mg"},{"bike_id":"9ab6efe3-52e2-45c6-82ff-7aab7b52847e","system_id":"levelo_inurba_marseille","lat":43.30309,"lon":5.38548,"is_reserved":false,"is_disabled":false,"rental_uris":{"android":"levelo://app?vid=9ab6efe3-52e2-45c6-82ff-7aab7b52847e","ios":"levelo://app?vid=9ab6efe3-52e2-45c6-82ff-7aab7b52847e"},"vehicle_type_id":"4","last_reported":1743804532,"current_range_meters":3600,"station_id":"","pricing_plan_id":"cebpf4jnsgd1na2vs0mg"},{"bike_id":"036f3044-256d-4aaa-b72b-30b226e18e41","system_id":"levelo_inurba_marseille","lat":43.28097,"lon":5.39925,"is_reserved":false,"is_disabled":false,"rental_uris":{"android":"levelo://app?vid=036f3044-256d-4aaa-b72b-30b226e18e41","ios":"levelo://app?vid=036f3044-256d-4aaa-b72b-30b226e18e41"},"vehicle_type_id":"4","last_reported":1743804532,"current_range_meters":4000,"station_id":"","pricing_plan_id":"cebpf4jnsgd1na2vs0mg"},{"bike_id":"8a7d242f-5d74-4983-b0fd-4b0db58fd43c","system_id":"levelo_inurba_marseille","lat":43.28614,"lon":5.35103,"is_reserved":false,"is_disabled":false,"rental_uris":{"android":"levelo://app?vid=8a7d242f-5d74-4983-b0fd-4b0db58fd43c","ios":"levelo://app?vid=8a7d242f-5d74-4983-b0fd-4b0db58fd43c"},"vehicle_type_id":"4","last_reported":1743804532,"current_range_meters":4000,"station_id":"ce4bhch2rcd13ifvqeug","pricing_plan_id":"cebpf4jnsgd1na2vs0mg"},{"bike_id":"cab2d0ca-7e1d-46aa-9f76-c37041ada05e","system_id":"levelo_inurba_marseille","lat":43.286133,"lon":5.351025,"is_reserved":false,"is_disabled":false,"rental_uris":{"android":"levelo://app?vid=cab2d0ca-7e1d-46aa-9f76-c37041ada05e","ios":"levelo://app?vid=cab2d0ca-7e1d-46aa-9f76-c37041ada05e"},"vehicle_type_id":"4","last_reported":1743804532,"current_range_meters":4000,"station_id":"ce4bhch2rcd13ifvqeug","pricing_plan_id":"cebpf4jnsgd1na2vs0mg"},{"bike_id":"8d82a5cc-7bf1-4aef-9aec-81e3f76117ac","system_id":"levelo_inurba_marseille","lat":43.28611,"lon":5.35096,"is_reserved":false,"is_disabled":false,"rental_uris":{"android":"levelo://app?vid=8d82a5cc-7bf1-4aef-9aec-81e3f76117ac","ios":"levelo://app?vid=8d82a5cc-7bf1-4aef-9aec-81e3f76117ac"},"vehicle_type_id":"4","last_reported":1743804532,"current_range_meters":4400,"station_id":"ce4bhch2rcd13ifvqeug","pricing_plan_id":"cebpf4jnsgd1na2vs0mg"},{"bike_id":"4f7ffa28-ce7b-411b-8614-81efc44cd686","system_id":"levelo_inurba_marseille","lat":43.28942,"lon":5.36633,"is_reserved":false,"is_disabled":false,"rental_uris":{"android":"levelo://app?vid=4f7ffa28-ce7b-411b-8614-81efc44cd686","ios":"levelo://app?vid=4f7ffa28-ce7b-411b-8614-81efc44cd686"},"vehicle_type_id":"4","last_reported":1743804532,"current_range_meters":4400,"station_id":"ce4bhap2rcd13ifvqek0","pricing_plan_id":"cebpf4jnsgd1na2vs0mg"},{"bike_id":"6b311584-09b9-4ac0-83c1-0b9f076ffe33","system_id":"levelo_inurba_marseille","lat":43.29028,"lon":5.38166,"is_reserved":false,"is_disabled":false,"rental_uris":{"android":"levelo://app?vid=6b311584-09b9-4ac0-83c1-0b9f076ffe33","ios":"levelo://app?vid=6b311584-09b9-4ac0-83c1-0b9f076ffe33"},"vehicle_type_id":"4","last_reported":1743804532,"current_range_meters":4400,"station_id":"ce4bh4p2rcd13ifvqe1g","pricing_plan_id":"cebpf4jnsgd1na2vs0mg"},{"bike_id":"918f403e-33e8-4410-a877-2e60647f81cd","system_id":"levelo_inurba_marseille","lat":43.26498,"lon":5.39535,"is_reserved":false,"is_disabled":false,"rental_uris":{"android":"levelo://app?vid=918f403e-33e8-4410-a877-2e60647f81cd","ios":"levelo://app?vid=918f403e-33e8-4410-a877-2e60647f81cd"},"vehicle_type_id":"4","last_reported":1743804532,"current_range_meters":4400,"station_id":"ce4bhi12rcd13ifvqfq0","pricing_plan_id":"cebpf4jnsgd1na2vs0mg"},{"bike_id":"5c5de00a-5eab-45a0-8971-5eec7edf063a","system_id":"levelo_inurba_marseille","lat":43.31271,"lon":5.40165,"is_reserved":false,"is_disabled":false,"rental_uris":{"android":"levelo://app?vid=5c5de00a-5eab-45a0-8971-5eec7edf063a","ios":"levelo://app?vid=5c5de00a-5eab-45a0-8971-5eec7edf063a"},"vehicle_type_id":"4","last_reported":1743804532,"current_range_meters":4000,"station_id":"ce4bh092rcd13ifvqd30","pricing_plan_id":"cebpf4jnsgd1na2vs0mg"},{"bike_id":"37fe0771-4408-4241-8319-53a56336168f","system_id":"levelo_inurba_marseille","lat":43.28667,"lon":5.36357,"is_reserved":false,"is_disabled":false,"rental_uris":{"android":"levelo://app?vid=37fe0771-4408-4241-8319-53a56336168f","ios":"levelo://app?vid=37fe0771-4408-4241-8319-53a56336168f"},"vehicle_type_id":"4","last_reported":1743804532,"current_range_meters":4800,"station_id":"ce4bhah2rcd13ifvqej0","pricing_plan_id":"cebpf4jnsgd1na2vs0mg"},{"bike_id":"3fb048b9-58b6-4e4c-921c-6d62ca002a22","system_id":"levelo_inurba_marseille","lat":43.29253,"lon":5.37623,"is_reserved":false,"is_disabled":false,"rental_uris":{"android":"levelo://app?vid=3fb048b9-58b6-4e4c-921c-6d62ca002a22","ios":"levelo://app?vid=3fb048b9-58b6-4e4c-921c-6d62ca002a22"},"vehicle_type_id":"4","last_reported":1743804532,"current_range_meters":5600,"station_id":"ce4bgi12rcd13ifvqb80","pricing_plan_id":"cebpf4jnsgd1na2vs0mg"},{"bike_id":"def02aca-3531-4366-b533-bf48bf766008","system_id":"levelo_inurba_marseille","lat":43.25124,"lon":5.40332,"is_reserved":false,"is_disabled":true,"rental_uris":{"android":"levelo://app?vid=def02aca-3531-4366-b533-bf48bf766008","ios":"levelo://app?vid=def02aca-3531-4366-b533-bf48bf766008"},"vehicle_type_id":"4","last_reported":1743804532,"current_range_meters":5600,"station_id":"ce4bhlh2rcd13ifvqgig","pricing_plan_id":"cebpf4jnsgd1na2vs0mg"},{"bike_id":"6ced028a-3bb7-4627-8be1-7efb20d57bb8","system_id":"levelo_inurba_marseille","lat":43.30789,"lon":5.38162,"is_reserved":false,"is_disabled":false,"rental_uris":{"android":"levelo://app?vid=6ced028a-3bb7-4627-8be1-7efb20d57bb8","ios":"levelo://app?vid=6ced028a-3bb7-4627-8be1-7efb20d57bb8"},"vehicle_type_id":"4","last_reported":1743804532,"current_range_meters":5600,"station_id":"ce4bgt12rcd13ifvqce0","pricing_plan_id":"cebpf4jnsgd1na2vs0mg"},{"bike_id":"e3a29d38-a611-4b12-87ef-2fb8a21c41d5","system_id":"levelo_inurba_marseille","lat":43.22944,"lon":5.35401,"is_reserved":false,"is_disabled":false,"rental_uris":{"android":"levelo://app?vid=e3a29d38-a611-4b12-87ef-2fb8a21c41d5","ios":"levelo://app?vid=e3a29d38-a611-4b12-87ef-2fb8a21c41d5"},"vehicle_type_id":"4","last_reported":1743804532,"current_range_meters":5600,"station_id":"cpo3532slgdg3j2ikp40","pricing_plan_id":"cebpf4jnsgd1na2vs0mg"},{"bike_id":"8969ed25-c9d4-4070-8211-c460c3573d18","system_id":"levelo_inurba_marseille","lat":43.29378,"lon":5.37853,"is_reserved":false,"is_disabled":true,"rental_uris":{"android":"levelo://app?vid=8969ed25-c9d4-4070-8211-c460c3573d18","ios":"levelo://app?vid=8969ed25-c9d4-4070-8211-c460c3573d18"},"vehicle_type_id":"4","last_reported":1743804532,"current_range_meters":5600,"station_id":"ce4bgjh2rcd13ifvqbf0","pricing_plan_id":"cebpf4jnsgd1na2vs0mg"},{"bike_id":"c13336a2-47ce-488c-b5b6-77c01a3ac1d1","system_id":"levelo_inurba_marseille","lat":43.318964,"lon":5.407411,"is_reserved":false,"is_disabled":true,"rental_uris":{"android":"levelo://app?vid=c13336a2-47ce-488c-b5b6-77c01a3ac1d1","ios":"levelo://app?vid=c13336a2-47ce-488c-b5b6-77c01a3ac1d1"},"vehicle_type_id":"4","last_reported":1743804532,"current_range_meters":5600,"station_id":"ce4bhq12rcd13ifvqhig","pricing_plan_id":"cebpf4jnsgd1na2vs0mg"},{"bike_id":"715eff50-001a-413a-8e2d-3344911b1ca7","system_id":"levelo_inurba_marseille","lat":43.3333,"lon":5.39856,"is_reserved":false,"is_disabled":false,"rental_uris":{"android":"levelo://app?vid=715eff50-001a-413a-8e2d-3344911b1ca7","ios":"levelo://app?vid=715eff50-001a-413a-8e2d-3344911b1ca7"},"vehicle_type_id":"4","last_reported":1743804532,"current_range_meters":5600,"station_id":"","pricing_plan_id":"cebpf4jnsgd1na2vs0mg"},{"bike_id":"c1daee02-6f56-4380-be86-037149f15b1e","system_id":"levelo_inurba_marseille","lat":43.29016,"lon":5.38144,"is_reserved":false,"is_disabled":false,"rental_uris":{"android":"levelo://app?vid=c1daee02-6f56-4380-be86-037149f15b1e","ios":"levelo://app?vid=c1daee02-6f56-4380-be86-037149f15b1e"},"vehicle_type_id":"4","last_reported":1743804532,"current_range_meters":6000,"station_id":"ce4bh4p2rcd13ifvqe1g","pricing_plan_id":"cebpf4jnsgd1na2vs0mg"},{"bike_id":"679f11c3-47c0-4e09-a85e-fd3f3980b4ed","system_id":"levelo_inurba_marseille","lat":43.27562,"lon":5.38429,"is_reserved":false,"is_disabled":false,"rental_uris":{"android":"levelo://app?vid=679f11c3-47c0-4e09-a85e-fd3f3980b4ed","ios":"levelo://app?vid=679f11c3-47c0-4e09-a85e-fd3f3980b4ed"},"vehicle_type_id":"4","last_reported":1743804532,"current_range_meters":6000,"station_id":"ce4bhh92rcd13ifvqfi0","pricing_plan_id":"cebpf4jnsgd1na2vs0mg"},{"bike_id":"0e88f134-2423-4b08-bc3c-5f7a38937552","system_id":"levelo_inurba_marseille","lat":43.23175,"lon":5.39995,"is_reserved":false,"is_disabled":false,"rental_uris":{"android":"levelo://app?vid=0e88f134-2423-4b08-bc3c-5f7a38937552","ios":"levelo://app?vid=0e88f134-2423-4b08-bc3c-5f7a38937552"},"vehicle_type_id":"4","last_reported":1743804532,"current_range_meters":6400,"station_id":"ce4bhn12rcd13ifvqgqg","pricing_plan_id":"cebpf4jnsgd1na2vs0mg"},{"bike_id":"7c6b0480-af02-4b87-991a-748f0c1044ca","system_id":"levelo_inurba_marseille","lat":43.3014,"lon":5.39847,"is_reserved":false,"is_disabled":false,"rental_uris":{"android":"levelo://app?vid=7c6b0480-af02-4b87-991a-748f0c1044ca","ios":"levelo://app?vid=7c6b0480-af02-4b87-991a-748f0c1044ca"},"vehicle_type_id":"4","last_reported":1743804532,"current_range_meters":6400,"station_id":"ce4bh0h2rcd13ifvqd40","pricing_plan_id":"cebpf4jnsgd1na2vs0mg"},{"bike_id":"e6f76eb4-f936-4864-91dc-c0f00b93ba24","system_id":"levelo_inurba_marseille","lat":43.29417,"lon":5.38631,"is_reserved":false,"is_disabled":false,"rental_uris":{"android":"levelo://app?vid=e6f76eb4-f936-4864-91dc-c0f00b93ba24","ios":"levelo://app?vid=e6f76eb4-f936-4864-91dc-c0f00b93ba24"},"vehicle_type_id":"4","last_reported":1743804532,"current_range_meters":6400,"station_id":"ce4bh2h2rcd13ifvqdh0","pricing_plan_id":"cebpf4jnsgd1na2vs0mg"},{"bike_id":"b64cece6-9a87-4444-a4a2-164ce8a43c3d","system_id":"levelo_inurba_marseille","lat":43.29024,"lon":5.38632,"is_reserved":false,"is_disabled":false,"rental_uris":{"android":"levelo://app?vid=b64cece6-9a87-4444-a4a2-164ce8a43c3d","ios":"levelo://app?vid=b64cece6-9a87-4444-a4a2-164ce8a43c3d"},"vehicle_type_id":"4","last_reported":1743804532,"current_range_meters":6400,"station_id":"ce4bh4p2rcd13ifvqe0g","pricing_plan_id":"cebpf4jnsgd1na2vs0mg"},{"bike_id":"1219f204-7702-4fd3-81c1-164c45f83d97","system_id":"levelo_inurba_marseille","lat":43.28702,"lon":5.39993,"is_reserved":false,"is_disabled":false,"rental_uris":{"android":"levelo://app?vid=1219f204-7702-4fd3-81c1-164c45f83d97","ios":"levelo://app?vid=1219f204-7702-4fd3-81c1-164c45f83d97"},"vehicle_type_id":"4","last_reported":1743804532,"current_range_meters":6400,"station_id":"ce4bho92rcd13ifvqh3g","pricing_plan_id":"cebpf4jnsgd1na2vs0mg"},{"bike_id":"b7cad2ff-382b-4685-81ce-34d0d43d7617","system_id":"levelo_inurba_marseille","lat":43.30379,"lon":5.42497,"is_reserved":false,"is_disabled":true,"rental_uris":{"android":"levelo://app?vid=b7cad2ff-382b-4685-81ce-34d0d43d7617","ios":"levelo://app?vid=b7cad2ff-382b-4685-81ce-34d0d43d7617"},"vehicle_type_id":"4","last_reported":1743804532,"current_range_meters":6800,"station_id":"ce4bhoh2rcd13ifvqh6g","pricing_plan_id":"cebpf4jnsgd1na2vs0mg"},{"bike_id":"d85e8c92-9f3e-4649-b522-3bd939159139","system_id":"levelo_inurba_marseille","lat":43.294056,"lon":5.386346,"is_reserved":false,"is_disabled":false,"rental_uris":{"android":"levelo://app?vid=d85e8c92-9f3e-4649-b522-3bd939159139","ios":"levelo://app?vid=d85e8c92-9f3e-4649-b522-3bd939159139"},"vehicle_type_id":"4","last_reported":1743804532,"current_range_meters":6800,"station_id":"ce4bh2h2rcd13ifvqdh0","pricing_plan_id":"cebpf4jnsgd1na2vs0mg"},{"bike_id":"26a9400e-71cd-45c6-9211-9781e64f8fa6","system_id":"levelo_inurba_marseille","lat":43.2858,"lon":5.37066,"is_reserved":false,"is_disabled":false,"rental_uris":{"android":"levelo://app?vid=26a9400e-71cd-45c6-9211-9781e64f8fa6","ios":"levelo://app?vid=26a9400e-71cd-45c6-9211-9781e64f8fa6"},"vehicle_type_id":"4","last_reported":1743804532,"current_range_meters":6800,"station_id":"ce4bht12rcd13ifvqi60","pricing_plan_id":"cebpf4jnsgd1na2vs0mg"},{"bike_id":"d76832c4-3604-4de9-b7a5-182f7c6e995c","system_id":"levelo_inurba_marseille","lat":43.31364,"lon":5.38486,"is_reserved":false,"is_disabled":true,"rental_uris":{"android":"levelo://app?vid=d76832c4-3604-4de9-b7a5-182f7c6e995c","ios":"levelo://app?vid=d76832c4-3604-4de9-b7a5-182f7c6e995c"},"vehicle_type_id":"4","last_reported":1743804532,"current_range_meters":6800,"station_id":"ce4bgt92rcd13ifvqcf0","pricing_plan_id":"cebpf4jnsgd1na2vs0mg"},{"bike_id":"0d4d6691-b3a3-49d8-8eac-677370bcc341","system_id":"levelo_inurba_marseille","lat":43.28153,"lon":5.42639,"is_reserved":false,"is_disabled":false,"rental_uris":{"android":"levelo://app?vid=0d4d6691-b3a3-49d8-8eac-677370bcc341","ios":"levelo://app?vid=0d4d6691-b3a3-49d8-8eac-677370bcc341"},"vehicle_type_id":"4","last_reported":1743804532,"current_range_meters":6800,"station_id":"ce4bhnh2rcd13ifvqgug","pricing_plan_id":"cebpf4jnsgd1na2vs0mg"},{"bike_id":"4e08bad6-8678-4501-98ce-24478d2a4ff9","system_id":"levelo_inurba_marseille","lat":43.28406,"lon":5.37513,"is_reserved":false,"is_disabled":false,"rental_uris":{"android":"levelo://app?vid=4e08bad6-8678-4501-98ce-24478d2a4ff9","ios":"levelo://app?vid=4e08bad6-8678-4501-98ce-24478d2a4ff9"},"vehicle_type_id":"4","last_reported":1743804532,"current_range_meters":6800,"station_id":"ce4bh412rcd13ifvqds0","pricing_plan_id":"cebpf4jnsgd1na2vs0mg"},{"bike_id":"6e7e8bd0-971a-4bf5-a521-0d1053f36753","system_id":"levelo_inurba_marseille","lat":43.31088,"lon":5.42448,"is_reserved":false,"is_disabled":true,"rental_uris":{"android":"levelo://app?vid=6e7e8bd0-971a-4bf5-a521-0d1053f36753","ios":"levelo://app?vid=6e7e8bd0-971a-4bf5-a521-0d1053f36753"},"vehicle_type_id":"4","last_reported":1743804532,"current_range_meters":6800,"station_id":"ce4bhp92rcd13ifvqhag","pricing_plan_id":"cebpf4jnsgd1na2vs0mg"},{"bike_id":"e00369d8-7462-40da-b488-901d98447f6e","system_id":"levelo_inurba_marseille","lat":43.30211,"lon":5.39476,"is_reserved":false,"is_disabled":false,"rental_uris":{"android":"levelo://app?vid=e00369d8-7462-40da-b488-901d98447f6e","ios":"levelo://app?vid=e00369d8-7462-40da-b488-901d98447f6e"},"vehicle_type_id":"4","last_reported":1743804532,"current_range_meters":7200,"station_id":"ce4bh0p2rcd13ifvqd70","pricing_plan_id":"cebpf4jnsgd1na2vs0mg"},{"bike_id":"1049ba71-fb41-4dc5-8c5a-67fbc6fe8421","system_id":"levelo_inurba_marseille","lat":43.25459,"lon":5.37681,"is_reserved":false,"is_disabled":true,"rental_uris":{"android":"levelo://app?vid=1049ba71-fb41-4dc5-8c5a-67fbc6fe8421","ios":"levelo://app?vid=1049ba71-fb41-4dc5-8c5a-67fbc6fe8421"},"vehicle_type_id":"4","last_reported":1743804532,"current_range_meters":7200,"station_id":"ce4bhh12rcd13ifvqff0","pricing_plan_id":"cebpf4jnsgd1na2vs0mg"},{"bike_id":"b7fc6fee-18f2-4847-8e71-e05735f414b1","system_id":"levelo_inurba_marseille","lat":43.30881,"lon":5.37195,"is_reserved":false,"is_disabled":false,"rental_uris":{"android":"levelo://app?vid=b7fc6fee-18f2-4847-8e71-e05735f414b1","ios":"levelo://app?vid=b7fc6fee-18f2-4847-8e71-e05735f414b1"},"vehicle_type_id":"4","last_reported":1743804532,"current_range_meters":7200,"station_id":"ce4bguh2rcd13ifvqckg","pricing_plan_id":"cebpf4jnsgd1na2vs0mg"},{"bike_id":"9f1371b6-a13d-4e2d-a08b-66f761d795e9","system_id":"levelo_inurba_marseille","lat":43.26051,"lon":5.39391,"is_reserved":false,"is_disabled":false,"rental_uris":{"android":"levelo://app?vid=9f1371b6-a13d-4e2d-a08b-66f761d795e9","ios":"levelo://app?vid=9f1371b6-a13d-4e2d-a08b-66f761d795e9"},"vehicle_type_id":"4","last_reported":1743804532,"current_range_meters":7200,"station_id":"ce4bhh92rcd13ifvqfj0","pricing_plan_id":"cebpf4jnsgd1na2vs0mg"},{"bike_id":"908b5a48-c991-459d-8edc-39a6ce48f51f","system_id":"levelo_inurba_marseille","lat":43.3211,"lon":5.36777,"is_reserved":false,"is_disabled":false,"rental_uris":{"android":"levelo://app?vid=908b5a48-c991-459d-8edc-39a6ce48f51f","ios":"levelo://app?vid=908b5a48-c991-459d-8edc-39a6ce48f51f"},"vehicle_type_id":"4","last_reported":1743804532,"current_range_meters":7200,"station_id":"ce4bhrh2rcd13ifvqhug","pricing_plan_id":"cebpf4jnsgd1na2vs0mg"},{"bike_id":"8a526347-100b-49fd-a458-e9e10b3c7fc4","system_id":"levelo_inurba_marseille","lat":43.30806,"lon":5.43538,"is_reserved":false,"is_disabled":false,"rental_uris":{"android":"levelo://app?vid=8a526347-100b-49fd-a458-e9e10b3c7fc4","ios":"levelo://app?vid=8a526347-100b-49fd-a458-e9e10b3c7fc4"},"vehicle_type_id":"4","last_reported":1743804532,"current_range_meters":7200,"station_id":"ce4bhph2rcd13ifvqheg","pricing_plan_id":"cebpf4jnsgd1na2vs0mg"},{"bike_id":"2d3cfe1c-173b-4184-80ec-d0dc33750349","system_id":"levelo_inurba_marseille","lat":43.26212,"lon":5.3744,"is_reserved":false,"is_disabled":false,"rental_uris":{"android":"levelo://app?vid=2d3cfe1c-173b-4184-80ec-d0dc33750349","ios":"levelo://app?vid=2d3cfe1c-173b-4184-80ec-d0dc33750349"},"vehicle_type_id":"4","last_reported":1743804532,"current_range_meters":7200,"station_id":"ce4bhgp2rcd13ifvqfc0","pricing_plan_id":"cebpf4jnsgd1na2vs0mg"},{"bike_id":"1314e27e-2011-45ad-b8e0-a3faba718da1","system_id":"levelo_inurba_marseille","lat":43.33338,"lon":5.39746,"is_reserved":false,"is_disabled":false,"rental_uris":{"android":"levelo://app?vid=1314e27e-2011-45ad-b8e0-a3faba718da1","ios":"levelo://app?vid=1314e27e-2011-45ad-b8e0-a3faba718da1"},"vehicle_type_id":"4","last_reported":1743804532,"current_range_meters":7200,"station_id":"","pricing_plan_id":"cebpf4jnsgd1na2vs0mg"},{"bike_id":"5f46717b-05d1-4f34-a220-8087932d755b","system_id":"levelo_inurba_marseille","lat":43.3011,"lon":5.36944,"is_reserved":false,"is_disabled":false,"rental_uris":{"android":"levelo://app?vid=5f46717b-05d1-4f34-a220-8087932d755b","ios":"levelo://app?vid=5f46717b-05d1-4f34-a220-8087932d755b"},"vehicle_type_id":"4","last_reported":1743804532,"current_range_meters":7200,"station_id":"","pricing_plan_id":"cebpf4jnsgd1na2vs0mg"},{"bike_id":"b7a31e78-bd06-4fd4-b042-99934a7c4aa4","system_id":"levelo_inurba_marseille","lat":43.29041,"lon":5.37562,"is_reserved":false,"is_disabled":false,"rental_uris":{"android":"levelo://app?vid=b7a31e78-bd06-4fd4-b042-99934a7c4aa4","ios":"levelo://app?vid=b7a31e78-bd06-4fd4-b042-99934a7c4aa4"},"vehicle_type_id":"4","last_reported":1743804532,"current_range_meters":7200,"station_id":"ce4bh692rcd13ifvqe90","pricing_plan_id":"cebpf4jnsgd1na2vs0mg"},{"bike_id":"75f1cf7a-3a29-4a97-a809-c38df5c46323","system_id":"levelo_inurba_marseille","lat":43.29256,"lon":5.38438,"is_reserved":false,"is_disabled":false,"rental_uris":{"android":"levelo://app?vid=75f1cf7a-3a29-4a97-a809-c38df5c46323","ios":"levelo://app?vid=75f1cf7a-3a29-4a97-a809-c38df5c46323"},"vehicle_type_id":"4","last_reported":1743804532,"current_range_meters":8000,"station_id":"ce4bh692rcd13ifvqea0","pricing_plan_id":"cebpf4jnsgd1na2vs0mg"},{"bike_id":"58d24f42-17aa-40a2-ac62-60f84e384385","system_id":"levelo_inurba_marseille","lat":43.24834,"lon":5.37439,"is_reserved":false,"is_disabled":false,"rental_uris":{"android":"levelo://app?vid=58d24f42-17aa-40a2-ac62-60f84e384385","ios":"levelo://app?vid=58d24f42-17aa-40a2-ac62-60f84e384385"},"vehicle_type_id":"4","last_reported":1743804532,"current_range_meters":8000,"station_id":"ce4bhgh2rcd13ifvqfb0","pricing_plan_id":"cebpf4jnsgd1na2vs0mg"},{"bike_id":"97a136a9-2279-4234-bcf9-d3fc1083d8c4","system_id":"levelo_inurba_marseille","lat":43.29419,"lon":5.38628,"is_reserved":false,"is_disabled":false,"rental_uris":{"android":"levelo://app?vid=97a136a9-2279-4234-bcf9-d3fc1083d8c4","ios":"levelo://app?vid=97a136a9-2279-4234-bcf9-d3fc1083d8c4"},"vehicle_type_id":"4","last_reported":1743804532,"current_range_meters":8000,"station_id":"ce4bh2h2rcd13ifvqdh0","pricing_plan_id":"cebpf4jnsgd1na2vs0mg"},{"bike_id":"820c1965-ecb8-4574-8ddb-2df09330c1da","system_id":"levelo_inurba_marseille","lat":43.27058,"lon":5.39147,"is_reserved":false,"is_disabled":false,"rental_uris":{"android":"levelo://app?vid=820c1965-ecb8-4574-8ddb-2df09330c1da","ios":"levelo://app?vid=820c1965-ecb8-4574-8ddb-2df09330c1da"},"vehicle_type_id":"4","last_reported":1743804532,"current_range_meters":8000,"station_id":"","pricing_plan_id":"cebpf4jnsgd1na2vs0mg"},{"bike_id":"69c0db05-6ded-4dc6-9720-2452c83c1020","system_id":"levelo_inurba_marseille","lat":43.22954,"lon":5.35398,"is_reserved":false,"is_disabled":false,"rental_uris":{"android":"levelo://app?vid=69c0db05-6ded-4dc6-9720-2452c83c1020","ios":"levelo://app?vid=69c0db05-6ded-4dc6-9720-2452c83c1020"},"vehicle_type_id":"4","last_reported":1743804532,"current_range_meters":8000,"station_id":"cpo3532slgdg3j2ikp40","pricing_plan_id":"cebpf4jnsgd1na2vs0mg"},{"bike_id":"53df952b-1125-43e9-97dc-5a9d0fd2a795","system_id":"levelo_inurba_marseille","lat":43.30306,"lon":5.36898,"is_reserved":false,"is_disabled":false,"rental_uris":{"android":"levelo://app?vid=53df952b-1125-43e9-97dc-5a9d0fd2a795","ios":"levelo://app?vid=53df952b-1125-43e9-97dc-5a9d0fd2a795"},"vehicle_type_id":"4","last_reported":1743804532,"current_range_meters":8000,"station_id":"ce4bgqh2rcd13ifvqc5g","pricing_plan_id":"cebpf4jnsgd1na2vs0mg"},{"bike_id":"fdb07e81-1d8b-4f4c-900c-983eb9ab3144","system_id":"levelo_inurba_marseille","lat":43.29251,"lon":5.40901,"is_reserved":false,"is_disabled":false,"rental_uris":{"android":"levelo://app?vid=fdb07e81-1d8b-4f4c-900c-983eb9ab3144","ios":"levelo://app?vid=fdb07e81-1d8b-4f4c-900c-983eb9ab3144"},"vehicle_type_id":"4","last_reported":1743804532,"current_range_meters":8000,"station_id":"ce4bh192rcd13ifvqdc0","pricing_plan_id":"cebpf4jnsgd1na2vs0mg"},{"bike_id":"fdf6d740-6479-448d-a70e-c06d4116cf05","system_id":"levelo_inurba_marseille","lat":43.29881,"lon":5.3969,"is_reserved":false,"is_disabled":false,"rental_uris":{"android":"levelo://app?vid=fdf6d740-6479-448d-a70e-c06d4116cf05","ios":"levelo://app?vid=fdf6d740-6479-448d-a70e-c06d4116cf05"},"vehicle_type_id":"4","last_reported":1743804532,"current_range_meters":8000,"station_id":"ce4bh0h2rcd13ifvqd50","pricing_plan_id":"cebpf4jnsgd1na2vs0mg"},{"bike_id":"d0d83fc2-1e42-4d50-8b76-8e513f433b89","system_id":"levelo_inurba_marseille","lat":43.29309,"lon":5.37169,"is_reserved":false,"is_disabled":false,"rental_uris":{"android":"levelo://app?vid=d0d83fc2-1e42-4d50-8b76-8e513f433b89","ios":"levelo://app?vid=d0d83fc2-1e42-4d50-8b76-8e513f433b89"},"vehicle_type_id":"4","last_reported":1743804532,"current_range_meters":8400,"station_id":"ce4bgh92rcd13ifvqb40","pricing_plan_id":"cebpf4jnsgd1na2vs0mg"},{"bike_id":"383a9cfa-6b75-4b1e-8006-370d1518ac5d","system_id":"levelo_inurba_marseille","lat":43.295372,"lon":5.393833,"is_reserved":false,"is_disabled":false,"rental_uris":{"android":"levelo://app?vid=383a9cfa-6b75-4b1e-8006-370d1518ac5d","ios":"levelo://app?vid=383a9cfa-6b75-4b1e-8006-370d1518ac5d"},"vehicle_type_id":"4","last_reported":1743804532,"current_range_meters":8400,"station_id":"ce4bh292rcd13ifvqdf0","pricing_plan_id":"cebpf4jnsgd1na2vs0mg"},{"bike_id":"36d996d1-147d-4367-84e7-9ff54765b37a","system_id":"levelo_inurba_marseille","lat":43.23187,"lon":5.35552,"is_reserved":false,"is_disabled":false,"rental_uris":{"android":"levelo://app?vid=36d996d1-147d-4367-84e7-9ff54765b37a","ios":"levelo://app?vid=36d996d1-147d-4367-84e7-9ff54765b37a"},"vehicle_type_id":"4","last_reported":1743804532,"current_range_meters":8400,"station_id":"ce4bhu92rcd13ifvqi70","pricing_plan_id":"cebpf4jnsgd1na2vs0mg"},{"bike_id":"c47e4e73-30c1-48b8-a524-8dc815cce5a1","system_id":"levelo_inurba_marseille","lat":43.30811,"lon":5.38141,"is_reserved":false,"is_disabled":false,"rental_uris":{"android":"levelo://app?vid=c47e4e73-30c1-48b8-a524-8dc815cce5a1","ios":"levelo://app?vid=c47e4e73-30c1-48b8-a524-8dc815cce5a1"},"vehicle_type_id":"4","last_reported":1743804532,"current_range_meters":8400,"station_id":"ce4bgt12rcd13ifvqce0","pricing_plan_id":"cebpf4jnsgd1na2vs0mg"},{"bike_id":"35da84c8-70f0-4e2f-b773-2c76f93429fd","system_id":"levelo_inurba_marseille","lat":43.29881,"lon":5.39717,"is_reserved":false,"is_disabled":false,"rental_uris":{"android":"levelo://app?vid=35da84c8-70f0-4e2f-b773-2c76f93429fd","ios":"levelo://app?vid=35da84c8-70f0-4e2f-b773-2c76f93429fd"},"vehicle_type_id":"4","last_reported":1743804532,"current_range_meters":8400,"station_id":"ce4bh0h2rcd13ifvqd50","pricing_plan_id":"cebpf4jnsgd1na2vs0mg"},{"bike_id":"80348334-5dbd-40d4-bbfa-79eea14a5bc0","system_id":"levelo_inurba_marseille","lat":43.30542,"lon":5.3843,"is_reserved":false,"is_disabled":false,"rental_uris":{"android":"levelo://app?vid=80348334-5dbd-40d4-bbfa-79eea14a5bc0","ios":"levelo://app?vid=80348334-5dbd-40d4-bbfa-79eea14a5bc0"},"vehicle_type_id":"4","last_reported":1743804532,"current_range_meters":8400,"station_id":"ce4bgg92rcd13ifvqb30","pricing_plan_id":"cebpf4jnsgd1na2vs0mg"},{"bike_id":"65ac1c49-cfc2-4baf-bcbd-68fac2aff8e9","system_id":"levelo_inurba_marseille","lat":43.28272,"lon":5.35057,"is_reserved":false,"is_disabled":false,"rental_uris":{"android":"levelo://app?vid=65ac1c49-cfc2-4baf-bcbd-68fac2aff8e9","ios":"levelo://app?vid=65ac1c49-cfc2-4baf-bcbd-68fac2aff8e9"},"vehicle_type_id":"4","last_reported":1743804532,"current_range_meters":8400,"station_id":"ce4bhbp2rcd13ifvqerg","pricing_plan_id":"cebpf4jnsgd1na2vs0mg"},{"bike_id":"758c2355-846a-4f3d-bcd8-eac4b3145cd6","system_id":"levelo_inurba_marseille","lat":43.23191,"lon":5.35565,"is_reserved":false,"is_disabled":false,"rental_uris":{"android":"levelo://app?vid=758c2355-846a-4f3d-bcd8-eac4b3145cd6","ios":"levelo://app?vid=758c2355-846a-4f3d-bcd8-eac4b3145cd6"},"vehicle_type_id":"4","last_reported":1743804532,"current_range_meters":8400,"station_id":"ce4bhu92rcd13ifvqi70","pricing_plan_id":"cebpf4jnsgd1na2vs0mg"},{"bike_id":"ed034283-1492-4da7-9409-35bdead80f30","system_id":"levelo_inurba_marseille","lat":43.30173,"lon":5.38777,"is_reserved":false,"is_disabled":true,"rental_uris":{"android":"levelo://app?vid=ed034283-1492-4da7-9409-35bdead80f30","ios":"levelo://app?vid=ed034283-1492-4da7-9409-35bdead80f30"},"vehicle_type_id":"4","last_reported":1743804532,"current_range_meters":8400,"station_id":"ce4bghh2rcd13ifvqb60","pricing_plan_id":"cebpf4jnsgd1na2vs0mg"},{"bike_id":"cdb7e4b1-8ea1-4a1d-91f3-73a8b3b493a5","system_id":"levelo_inurba_marseille","lat":43.310829,"lon":5.424359,"is_reserved":false,"is_disabled":false,"rental_uris":{"android":"levelo://app?vid=cdb7e4b1-8ea1-4a1d-91f3-73a8b3b493a5","ios":"levelo://app?vid=cdb7e4b1-8ea1-4a1d-91f3-73a8b3b493a5"},"vehicle_type_id":"4","last_reported":1743804532,"current_range_meters":8400,"station_id":"ce4bhp92rcd13ifvqhag","pricing_plan_id":"cebpf4jnsgd1na2vs0mg"},{"bike_id":"3fcc14dc-3783-4203-b7b4-1b3954f13de9","system_id":"levelo_inurba_marseille","lat":43.30808,"lon":5.38163,"is_reserved":false,"is_disabled":false,"rental_uris":{"android":"levelo://app?vid=3fcc14dc-3783-4203-b7b4-1b3954f13de9","ios":"levelo://app?vid=3fcc14dc-3783-4203-b7b4-1b3954f13de9"},"vehicle_type_id":"4","last_reported":1743804532,"current_range_meters":8400,"station_id":"ce4bgt12rcd13ifvqce0","pricing_plan_id":"cebpf4jnsgd1na2vs0mg"},{"bike_id":"d30217b4-a5fb-44e3-b512-6a4f34685763","system_id":"levelo_inurba_marseille","lat":43.30596,"lon":5.39358,"is_reserved":false,"is_disabled":false,"rental_uris":{"android":"levelo://app?vid=d30217b4-a5fb-44e3-b512-6a4f34685763","ios":"levelo://app?vid=d30217b4-a5fb-44e3-b512-6a4f34685763"},"vehicle_type_id":"4","last_reported":1743804532,"current_range_meters":8400,"station_id":"ce4bh0p2rcd13ifvqd80","pricing_plan_id":"cebpf4jnsgd1na2vs0mg"},{"bike_id":"cdcbc072-f372-4996-afd1-797a5c277f80","system_id":"levelo_inurba_marseille","lat":43.30795,"lon":5.38163,"is_reserved":false,"is_disabled":false,"rental_uris":{"android":"levelo://app?vid=cdcbc072-f372-4996-afd1-797a5c277f80","ios":"levelo://app?vid=cdcbc072-f372-4996-afd1-797a5c277f80"},"vehicle_type_id":"4","last_reported":1743804532,"current_range_meters":8800,"station_id":"ce4bgt12rcd13ifvqce0","pricing_plan_id":"cebpf4jnsgd1na2vs0mg"},{"bike_id":"36a207c1-12d8-479b-900c-01221303b430","system_id":"levelo_inurba_marseille","lat":43.31494,"lon":5.373062,"is_reserved":false,"is_disabled":false,"rental_uris":{"android":"levelo://app?vid=36a207c1-12d8-479b-900c-01221303b430","ios":"levelo://app?vid=36a207c1-12d8-479b-900c-01221303b430"},"vehicle_type_id":"4","last_reported":1743804532,"current_range_meters":8800,"station_id":"","pricing_plan_id":"cebpf4jnsgd1na2vs0mg"},{"bike_id":"30e26119-64c6-4abe-8ece-4f6f9d0e22fc","system_id":"levelo_inurba_marseille","lat":43.28674,"lon":5.36348,"is_reserved":false,"is_disabled":false,"rental_uris":{"android":"levelo://app?vid=30e26119-64c6-4abe-8ece-4f6f9d0e22fc","ios":"levelo://app?vid=30e26119-64c6-4abe-8ece-4f6f9d0e22fc"},"vehicle_type_id":"4","last_reported":1743804532,"current_range_meters":8800,"station_id":"ce4bhah2rcd13ifvqej0","pricing_plan_id":"cebpf4jnsgd1na2vs0mg"},{"bike_id":"b5f78918-561f-4c07-9bb4-6c89db4fbd73","system_id":"levelo_inurba_marseille","lat":43.29325,"lon":5.3716,"is_reserved":false,"is_disabled":false,"rental_uris":{"android":"levelo://app?vid=b5f78918-561f-4c07-9bb4-6c89db4fbd73","ios":"levelo://app?vid=b5f78918-561f-4c07-9bb4-6c89db4fbd73"},"vehicle_type_id":"4","last_reported":1743804532,"current_range_meters":8800,"station_id":"ce4bgh92rcd13ifvqb40","pricing_plan_id":"cebpf4jnsgd1na2vs0mg"},{"bike_id":"ed9cdfc5-a0df-4d81-80a0-e697cc2ba299","system_id":"levelo_inurba_marseille","lat":43.30792,"lon":5.38156,"is_reserved":false,"is_disabled":false,"rental_uris":{"android":"levelo://app?vid=ed9cdfc5-a0df-4d81-80a0-e697cc2ba299","ios":"levelo://app?vid=ed9cdfc5-a0df-4d81-80a0-e697cc2ba299"},"vehicle_type_id":"4","last_reported":1743804532,"current_range_meters":8800,"station_id":"ce4bgt12rcd13ifvqce0","pricing_plan_id":"cebpf4jnsgd1na2vs0mg"},{"bike_id":"50297066-959d-45c5-a71e-b062cc3724ec","system_id":"levelo_inurba_marseille","lat":43.30797,"lon":5.37325,"is_reserved":false,"is_disabled":false,"rental_uris":{"android":"levelo://app?vid=50297066-959d-45c5-a71e-b062cc3724ec","ios":"levelo://app?vid=50297066-959d-45c5-a71e-b062cc3724ec"},"vehicle_type_id":"4","last_reported":1743804532,"current_range_meters":8800,"station_id":"","pricing_plan_id":"cebpf4jnsgd1na2vs0mg"},{"bike_id":"b20c7f6d-8167-44a9-87f6-d194943e3423","system_id":"levelo_inurba_marseille","lat":43.29289,"lon":5.38449,"is_reserved":false,"is_disabled":false,"rental_uris":{"android":"levelo://app?vid=b20c7f6d-8167-44a9-87f6-d194943e3423","ios":"levelo://app?vid=b20c7f6d-8167-44a9-87f6-d194943e3423"},"vehicle_type_id":"4","last_reported":1743804532,"current_range_meters":8800,"station_id":"ce4bh692rcd13ifvqea0","pricing_plan_id":"cebpf4jnsgd1na2vs0mg"},{"bike_id":"74a13a18-430a-4f50-ba26-e7dfbad23482","system_id":"levelo_inurba_marseille","lat":43.230681,"lon":5.354936,"is_reserved":false,"is_disabled":false,"rental_uris":{"android":"levelo://app?vid=74a13a18-430a-4f50-ba26-e7dfbad23482","ios":"levelo://app?vid=74a13a18-430a-4f50-ba26-e7dfbad23482"},"vehicle_type_id":"4","last_reported":1743804532,"current_range_meters":8800,"station_id":"cpo3342slgdg3j2ifvpg","pricing_plan_id":"cebpf4jnsgd1na2vs0mg"},{"bike_id":"8a6c6f3e-a0ca-426b-926a-9bac537f3981","system_id":"levelo_inurba_marseille","lat":43.31489,"lon":5.37286,"is_reserved":false,"is_disabled":false,"rental_uris":{"android":"levelo://app?vid=8a6c6f3e-a0ca-426b-926a-9bac537f3981","ios":"levelo://app?vid=8a6c6f3e-a0ca-426b-926a-9bac537f3981"},"vehicle_type_id":"4","last_reported":1743804532,"current_range_meters":9200,"station_id":"ce4bgt12rcd13ifvqcd0","pricing_plan_id":"cebpf4jnsgd1na2vs0mg"},{"bike_id":"fb348b09-6abb-47a4-a266-91f2eeaee291","system_id":"levelo_inurba_marseille","lat":43.32098,"lon":5.36744,"is_reserved":false,"is_disabled":false,"rental_uris":{"android":"levelo://app?vid=fb348b09-6abb-47a4-a266-91f2eeaee291","ios":"levelo://app?vid=fb348b09-6abb-47a4-a266-91f2eeaee291"},"vehicle_type_id":"4","last_reported":1743804532,"current_range_meters":9200,"station_id":"ce4bhrh2rcd13ifvqhug","pricing_plan_id":"cebpf4jnsgd1na2vs0mg"},{"bike_id":"87c43772-f1ff-4e7c-9bfe-fb15e8f160b3","system_id":"levelo_inurba_marseille","lat":43.27803,"lon":5.35521,"is_reserved":false,"is_disabled":false,"rental_uris":{"android":"levelo://app?vid=87c43772-f1ff-4e7c-9bfe-fb15e8f160b3","ios":"levelo://app?vid=87c43772-f1ff-4e7c-9bfe-fb15e8f160b3"},"vehicle_type_id":"4","last_reported":1743804532,"current_range_meters":8800,"station_id":"ce4bgj92rcd13ifvqbe0","pricing_plan_id":"cebpf4jnsgd1na2vs0mg"},{"bike_id":"f3e47ec8-5455-4076-a2e3-6479a7e329fd","system_id":"levelo_inurba_marseille","lat":43.29421,"lon":5.38628,"is_reserved":false,"is_disabled":false,"rental_uris":{"android":"levelo://app?vid=f3e47ec8-5455-4076-a2e3-6479a7e329fd","ios":"levelo://app?vid=f3e47ec8-5455-4076-a2e3-6479a7e329fd"},"vehicle_type_id":"4","last_reported":1743804532,"current_range_meters":9200,"station_id":"ce4bh2h2rcd13ifvqdh0","pricing_plan_id":"cebpf4jnsgd1na2vs0mg"},{"bike_id":"9b02f742-f038-4739-9c1b-418a3e5904eb","system_id":"levelo_inurba_marseille","lat":43.31362,"lon":5.36737,"is_reserved":false,"is_disabled":true,"rental_uris":{"android":"levelo://app?vid=9b02f742-f038-4739-9c1b-418a3e5904eb","ios":"levelo://app?vid=9b02f742-f038-4739-9c1b-418a3e5904eb"},"vehicle_type_id":"4","last_reported":1743804532,"current_range_meters":9200,"station_id":"ce4bgr92rcd13ifvqc6g","pricing_plan_id":"cebpf4jnsgd1na2vs0mg"},{"bike_id":"4b38ff27-5201-4e38-8a32-813aea0462e9","system_id":"levelo_inurba_marseille","lat":43.294159,"lon":5.386446,"is_reserved":false,"is_disabled":false,"rental_uris":{"android":"levelo://app?vid=4b38ff27-5201-4e38-8a32-813aea0462e9","ios":"levelo://app?vid=4b38ff27-5201-4e38-8a32-813aea0462e9"},"vehicle_type_id":"4","last_reported":1743804532,"current_range_meters":9200,"station_id":"ce4bh412rcd13ifvqdr0","pricing_plan_id":"cebpf4jnsgd1na2vs0mg"},{"bike_id":"6404e0ce-0f8a-4ec6-9ab6-d10cabd45480","system_id":"levelo_inurba_marseille","lat":43.24802,"lon":5.37454,"is_reserved":false,"is_disabled":false,"rental_uris":{"android":"levelo://app?vid=6404e0ce-0f8a-4ec6-9ab6-d10cabd45480","ios":"levelo://app?vid=6404e0ce-0f8a-4ec6-9ab6-d10cabd45480"},"vehicle_type_id":"4","last_reported":1743804532,"current_range_meters":9200,"station_id":"ce4bhgh2rcd13ifvqfb0","pricing_plan_id":"cebpf4jnsgd1na2vs0mg"},{"bike_id":"2ee3a78d-3d43-4848-a90f-dec1781d5c45","system_id":"levelo_inurba_marseille","lat":43.2907,"lon":5.37207,"is_reserved":false,"is_disabled":false,"rental_uris":{"android":"levelo://app?vid=2ee3a78d-3d43-4848-a90f-dec1781d5c45","ios":"levelo://app?vid=2ee3a78d-3d43-4848-a90f-dec1781d5c45"},"vehicle_type_id":"4","last_reported":1743804532,"current_range_meters":9200,"station_id":"ce4bh5p2rcd13ifvqe4g","pricing_plan_id":"cebpf4jnsgd1na2vs0mg"},{"bike_id":"3a673a01-13fc-4ed6-b9b1-08a0faf2fd75","system_id":"levelo_inurba_marseille","lat":43.23168,"lon":5.39994,"is_reserved":false,"is_disabled":false,"rental_uris":{"android":"levelo://app?vid=3a673a01-13fc-4ed6-b9b1-08a0faf2fd75","ios":"levelo://app?vid=3a673a01-13fc-4ed6-b9b1-08a0faf2fd75"},"vehicle_type_id":"4","last_reported":1743804532,"current_range_meters":9200,"station_id":"ce4bhn12rcd13ifvqgqg","pricing_plan_id":"cebpf4jnsgd1na2vs0mg"},{"bike_id":"ad707a01-b942-4cbb-8387-1610aa262357","system_id":"levelo_inurba_marseille","lat":43.24808,"lon":5.37434,"is_reserved":false,"is_disabled":false,"rental_uris":{"android":"levelo://app?vid=ad707a01-b942-4cbb-8387-1610aa262357","ios":"levelo://app?vid=ad707a01-b942-4cbb-8387-1610aa262357"},"vehicle_type_id":"4","last_reported":1743804532,"current_range_meters":9600,"station_id":"ce4bhgh2rcd13ifvqfb0","pricing_plan_id":"cebpf4jnsgd1na2vs0mg"},{"bike_id":"afa71022-a7ad-44fe-91c3-bc7a42f710cf","system_id":"levelo_inurba_marseille","lat":43.294188,"lon":5.386083,"is_reserved":false,"is_disabled":false,"rental_uris":{"android":"levelo://app?vid=afa71022-a7ad-44fe-91c3-bc7a42f710cf","ios":"levelo://app?vid=afa71022-a7ad-44fe-91c3-bc7a42f710cf"},"vehicle_type_id":"4","last_reported":1743804532,"current_range_meters":9600,"station_id":"ce4bh2h2rcd13ifvqdh0","pricing_plan_id":"cebpf4jnsgd1na2vs0mg"},{"bike_id":"9ec7d284-5a6c-4264-a0ee-e4a74bd6f8ec","system_id":"levelo_inurba_marseille","lat":43.30321,"lon":5.40419,"is_reserved":false,"is_disabled":false,"rental_uris":{"android":"levelo://app?vid=9ec7d284-5a6c-4264-a0ee-e4a74bd6f8ec","ios":"levelo://app?vid=9ec7d284-5a6c-4264-a0ee-e4a74bd6f8ec"},"vehicle_type_id":"4","last_reported":1743804532,"current_range_meters":9600,"station_id":"ce4bh012rcd13ifvqd10","pricing_plan_id":"cebpf4jnsgd1na2vs0mg"},{"bike_id":"a5e15fc0-995d-46a2-aed4-c90c15c414bf","system_id":"levelo_inurba_marseille","lat":43.29253,"lon":5.38451,"is_reserved":false,"is_disabled":false,"rental_uris":{"android":"levelo://app?vid=a5e15fc0-995d-46a2-aed4-c90c15c414bf","ios":"levelo://app?vid=a5e15fc0-995d-46a2-aed4-c90c15c414bf"},"vehicle_type_id":"4","last_reported":1743804532,"current_range_meters":9600,"station_id":"ce4bh692rcd13ifvqea0","pricing_plan_id":"cebpf4jnsgd1na2vs0mg"},{"bike_id":"2b47a5ae-e9ea-4823-a9a9-58b9a7e21f9f","system_id":"levelo_inurba_marseille","lat":43.26933,"lon":5.389087,"is_reserved":false,"is_disabled":false,"rental_uris":{"android":"levelo://app?vid=2b47a5ae-e9ea-4823-a9a9-58b9a7e21f9f","ios":"levelo://app?vid=2b47a5ae-e9ea-4823-a9a9-58b9a7e21f9f"},"vehicle_type_id":"4","last_reported":1743804532,"current_range_meters":9600,"station_id":"ce4bhhh2rcd13ifvqfl0","pricing_plan_id":"cebpf4jnsgd1na2vs0mg"},{"bike_id":"ef076cc9-b478-41aa-802a-ed7212300556","system_id":"levelo_inurba_marseille","lat":43.22932,"lon":5.35341,"is_reserved":false,"is_disabled":false,"rental_uris":{"android":"levelo://app?vid=ef076cc9-b478-41aa-802a-ed7212300556","ios":"levelo://app?vid=ef076cc9-b478-41aa-802a-ed7212300556"},"vehicle_type_id":"4","last_reported":1743804532,"current_range_meters":9600,"station_id":"cpo3532slgdg3j2ikp40","pricing_plan_id":"cebpf4jnsgd1na2vs0mg"},{"bike_id":"afd0cb81-42fd-44ba-9989-2d131ba4acb2","system_id":"levelo_inurba_marseille","lat":43.30097,"lon":5.39082,"is_reserved":false,"is_disabled":true,"rental_uris":{"android":"levelo://app?vid=afd0cb81-42fd-44ba-9989-2d131ba4acb2","ios":"levelo://app?vid=afd0cb81-42fd-44ba-9989-2d131ba4acb2"},"vehicle_type_id":"4","last_reported":1743804532,"current_range_meters":9600,"station_id":"ce4bh192rcd13ifvqdb0","pricing_plan_id":"cebpf4jnsgd1na2vs0mg"},{"bike_id":"ed562682-b9c4-45a5-a5d9-628992c2c17c","system_id":"levelo_inurba_marseille","lat":43.33012,"lon":5.39052,"is_reserved":false,"is_disabled":false,"rental_uris":{"android":"levelo://app?vid=ed562682-b9c4-45a5-a5d9-628992c2c17c","ios":"levelo://app?vid=ed562682-b9c4-45a5-a5d9-628992c2c17c"},"vehicle_type_id":"4","last_reported":1743804532,"current_range_meters":9600,"station_id":"ce4bhr92rcd13ifvqhrg","pricing_plan_id":"cebpf4jnsgd1na2vs0mg"},{"bike_id":"85569c5e-792a-4809-8948-6b3410ae7c98","system_id":"levelo_inurba_marseille","lat":43.24695,"lon":5.41194,"is_reserved":false,"is_disabled":false,"rental_uris":{"android":"levelo://app?vid=85569c5e-792a-4809-8948-6b3410ae7c98","ios":"levelo://app?vid=85569c5e-792a-4809-8948-6b3410ae7c98"},"vehicle_type_id":"4","last_reported":1743804532,"current_range_meters":9600,"station_id":"","pricing_plan_id":"cebpf4jnsgd1na2vs0mg"},{"bike_id":"a913dcec-3b05-4c11-a8c0-4e8adcef7104","system_id":"levelo_inurba_marseille","lat":43.290538,"lon":5.386976,"is_reserved":false,"is_disabled":false,"rental_uris":{"android":"levelo://app?vid=a913dcec-3b05-4c11-a8c0-4e8adcef7104","ios":"levelo://app?vid=a913dcec-3b05-4c11-a8c0-4e8adcef7104"},"vehicle_type_id":"4","last_reported":1743804532,"current_range_meters":9200,"station_id":"ce4bh012rcd13ifvqd10","pricing_plan_id":"cebpf4jnsgd1na2vs0mg"},{"bike_id":"f81dc3cb-3789-4b77-a01b-e195eb6e866c","system_id":"levelo_inurba_marseille","lat":43.27622,"lon":5.36111,"is_reserved":false,"is_disabled":false,"rental_uris":{"android":"levelo://app?vid=f81dc3cb-3789-4b77-a01b-e195eb6e866c","ios":"levelo://app?vid=f81dc3cb-3789-4b77-a01b-e195eb6e866c"},"vehicle_type_id":"4","last_reported":1743804532,"current_range_meters":9600,"station_id":"ce4bgj92rcd13ifvqbe0","pricing_plan_id":"cebpf4jnsgd1na2vs0mg"},{"bike_id":"3c64ba88-f05b-4a07-b829-7a70b405ef5c","system_id":"levelo_inurba_marseille","lat":43.3064,"lon":5.40091,"is_reserved":false,"is_disabled":false,"rental_uris":{"android":"levelo://app?vid=3c64ba88-f05b-4a07-b829-7a70b405ef5c","ios":"levelo://app?vid=3c64ba88-f05b-4a07-b829-7a70b405ef5c"},"vehicle_type_id":"4","last_reported":1743804532,"current_range_meters":9600,"station_id":"ce4bh112rcd13ifvqda0","pricing_plan_id":"cebpf4jnsgd1na2vs0mg"},{"bike_id":"f1c94e73-6d75-46c1-a24a-f82d52996508","system_id":"levelo_inurba_marseille","lat":43.30944,"lon":5.4014,"is_reserved":false,"is_disabled":false,"rental_uris":{"android":"levelo://app?vid=f1c94e73-6d75-46c1-a24a-f82d52996508","ios":"levelo://app?vid=f1c94e73-6d75-46c1-a24a-f82d52996508"},"vehicle_type_id":"4","last_reported":1743804532,"current_range_meters":9600,"station_id":"ce4bgvp2rcd13ifvqct0","pricing_plan_id":"cebpf4jnsgd1na2vs0mg"},{"bike_id":"bd59c2c3-8b0b-42de-b49c-20b981410335","system_id":"levelo_inurba_marseille","lat":43.29415,"lon":5.38635,"is_reserved":false,"is_disabled":false,"rental_uris":{"android":"levelo://app?vid=bd59c2c3-8b0b-42de-b49c-20b981410335","ios":"levelo://app?vid=bd59c2c3-8b0b-42de-b49c-20b981410335"},"vehicle_type_id":"4","last_reported":1743804532,"current_range_meters":9600,"station_id":"ce4bh2h2rcd13ifvqdh0","pricing_plan_id":"cebpf4jnsgd1na2vs0mg"},{"bike_id":"41a95b86-7e86-4485-95f0-5338f824b27f","system_id":"levelo_inurba_marseille","lat":43.30803,"lon":5.38143,"is_reserved":false,"is_disabled":false,"rental_uris":{"android":"levelo://app?vid=41a95b86-7e86-4485-95f0-5338f824b27f","ios":"levelo://app?vid=41a95b86-7e86-4485-95f0-5338f824b27f"},"vehicle_type_id":"4","last_reported":1743804532,"current_range_meters":9600,"station_id":"ce4bgt12rcd13ifvqce0","pricing_plan_id":"cebpf4jnsgd1na2vs0mg"},{"bike_id":"db526bca-5447-4ac0-922d-45ecb017eb78","system_id":"levelo_inurba_marseille","lat":43.30789,"lon":5.43558,"is_reserved":false,"is_disabled":false,"rental_uris":{"android":"levelo://app?vid=db526bca-5447-4ac0-922d-45ecb017eb78","ios":"levelo://app?vid=db526bca-5447-4ac0-922d-45ecb017eb78"},"vehicle_type_id":"4","last_reported":1743804532,"current_range_meters":9600,"station_id":"ce4bhph2rcd13ifvqheg","pricing_plan_id":"cebpf4jnsgd1na2vs0mg"},{"bike_id":"53d75380-8638-4768-85b6-f042881abee1","system_id":"levelo_inurba_marseille","lat":43.30925,"lon":5.40162,"is_reserved":false,"is_disabled":false,"rental_uris":{"android":"levelo://app?vid=53d75380-8638-4768-85b6-f042881abee1","ios":"levelo://app?vid=53d75380-8638-4768-85b6-f042881abee1"},"vehicle_type_id":"4","last_reported":1743804532,"current_range_meters":10000,"station_id":"ce4bgvp2rcd13ifvqct0","pricing_plan_id":"cebpf4jnsgd1na2vs0mg"},{"bike_id":"38bde2b7-cff5-42ea-abf9-3317f4e19d17","system_id":"levelo_inurba_marseille","lat":43.27915,"lon":5.39586,"is_reserved":false,"is_disabled":false,"rental_uris":{"android":"levelo://app?vid=38bde2b7-cff5-42ea-abf9-3317f4e19d17","ios":"levelo://app?vid=38bde2b7-cff5-42ea-abf9-3317f4e19d17"},"vehicle_type_id":"4","last_reported":1743804532,"current_range_meters":10000,"station_id":"ce4bhf92rcd13ifvqf40","pricing_plan_id":"cebpf4jnsgd1na2vs0mg"},{"bike_id":"2f9de47d-5d8b-434f-a349-907871768984","system_id":"levelo_inurba_marseille","lat":43.29243,"lon":5.38442,"is_reserved":false,"is_disabled":false,"rental_uris":{"android":"levelo://app?vid=2f9de47d-5d8b-434f-a349-907871768984","ios":"levelo://app?vid=2f9de47d-5d8b-434f-a349-907871768984"},"vehicle_type_id":"4","last_reported":1743804532,"current_range_meters":10000,"station_id":"ce4bh692rcd13ifvqea0","pricing_plan_id":"cebpf4jnsgd1na2vs0mg"},{"bike_id":"f23d08a4-1422-42d4-826d-3093477300ba","system_id":"levelo_inurba_marseille","lat":43.27972,"lon":5.41665,"is_reserved":false,"is_disabled":true,"rental_uris":{"android":"levelo://app?vid=f23d08a4-1422-42d4-826d-3093477300ba","ios":"levelo://app?vid=f23d08a4-1422-42d4-826d-3093477300ba"},"vehicle_type_id":"4","last_reported":1743804532,"current_range_meters":10000,"station_id":"ce4bho12rcd13ifvqh1g","pricing_plan_id":"cebpf4jnsgd1na2vs0mg"},{"bike_id":"908c0033-ebf3-400a-acb3-0a621b83539f","system_id":"levelo_inurba_marseille","lat":43.231901,"lon":5.39976,"is_reserved":false,"is_disabled":false,"rental_uris":{"android":"levelo://app?vid=908c0033-ebf3-400a-acb3-0a621b83539f","ios":"levelo://app?vid=908c0033-ebf3-400a-acb3-0a621b83539f"},"vehicle_type_id":"4","last_reported":1743804532,"current_range_meters":10000,"station_id":"ce4bhn12rcd13ifvqgqg","pricing_plan_id":"cebpf4jnsgd1na2vs0mg"},{"bike_id":"69765911-a657-4873-ab71-1b6674378393","system_id":"levelo_inurba_marseille","lat":43.29296,"lon":5.37463,"is_reserved":false,"is_disabled":true,"rental_uris":{"android":"levelo://app?vid=69765911-a657-4873-ab71-1b6674378393","ios":"levelo://app?vid=69765911-a657-4873-ab71-1b6674378393"},"vehicle_type_id":"4","last_reported":1743804532,"current_range_meters":10800,"station_id":"ce4bgi12rcd13ifvqb70","pricing_plan_id":"cebpf4jnsgd1na2vs0mg"},{"bike_id":"c91a6301-d46d-458e-a0a6-5762e813d6dd","system_id":"levelo_inurba_marseille","lat":43.29536,"lon":5.38541,"is_reserved":false,"is_disabled":true,"rental_uris":{"android":"levelo://app?vid=c91a6301-d46d-458e-a0a6-5762e813d6dd","ios":"levelo://app?vid=c91a6301-d46d-458e-a0a6-5762e813d6dd"},"vehicle_type_id":"4","last_reported":1743804532,"current_range_meters":10800,"station_id":"ce4bgih2rcd13ifvqba0","pricing_plan_id":"cebpf4jnsgd1na2vs0mg"},{"bike_id":"ead8fb85-2ed4-4b6a-bfa6-b10b2549cc84","system_id":"levelo_inurba_marseille","lat":43.26203,"lon":5.40494,"is_reserved":false,"is_disabled":false,"rental_uris":{"android":"levelo://app?vid=ead8fb85-2ed4-4b6a-bfa6-b10b2549cc84","ios":"levelo://app?vid=ead8fb85-2ed4-4b6a-bfa6-b10b2549cc84"},"vehicle_type_id":"4","last_reported":1743804532,"current_range_meters":10800,"station_id":"ce4bhmh2rcd13ifvqgmg","pricing_plan_id":"cebpf4jnsgd1na2vs0mg"},{"bike_id":"f40fc4e8-cfdd-40aa-8507-3bd8857476a8","system_id":"levelo_inurba_marseille","lat":43.30247,"lon":5.40062,"is_reserved":false,"is_disabled":true,"rental_uris":{"android":"levelo://app?vid=f40fc4e8-cfdd-40aa-8507-3bd8857476a8","ios":"levelo://app?vid=f40fc4e8-cfdd-40aa-8507-3bd8857476a8"},"vehicle_type_id":"4","last_reported":1743804532,"current_range_meters":10800,"station_id":"ce4bgvh2rcd13ifvqcs0","pricing_plan_id":"cebpf4jnsgd1na2vs0mg"},{"bike_id":"c9ab5bfd-fa91-4b45-8fa2-52813c43fa45","system_id":"levelo_inurba_marseille","lat":43.23061,"lon":5.35493,"is_reserved":false,"is_disabled":false,"rental_uris":{"android":"levelo://app?vid=c9ab5bfd-fa91-4b45-8fa2-52813c43fa45","ios":"levelo://app?vid=c9ab5bfd-fa91-4b45-8fa2-52813c43fa45"},"vehicle_type_id":"4","last_reported":1743804532,"current_range_meters":10800,"station_id":"cpo3342slgdg3j2ifvpg","pricing_plan_id":"cebpf4jnsgd1na2vs0mg"},{"bike_id":"599a84dd-b3d2-49b9-8b4b-b503cefa8862","system_id":"levelo_inurba_marseille","lat":43.30795,"lon":5.3815,"is_reserved":false,"is_disabled":false,"rental_uris":{"android":"levelo://app?vid=599a84dd-b3d2-49b9-8b4b-b503cefa8862","ios":"levelo://app?vid=599a84dd-b3d2-49b9-8b4b-b503cefa8862"},"vehicle_type_id":"4","last_reported":1743804532,"current_range_meters":10800,"station_id":"ce4bgt12rcd13ifvqce0","pricing_plan_id":"cebpf4jnsgd1na2vs0mg"},{"bike_id":"829acafc-221e-41d2-b87e-1eaa511b3313","system_id":"levelo_inurba_marseille","lat":43.29045,"lon":5.39962,"is_reserved":false,"is_disabled":true,"rental_uris":{"android":"levelo://app?vid=829acafc-221e-41d2-b87e-1eaa511b3313","ios":"levelo://app?vid=829acafc-221e-41d2-b87e-1eaa511b3313"},"vehicle_type_id":"4","last_reported":1743804532,"current_range_meters":10800,"station_id":"ce4bh392rcd13ifvqdm0","pricing_plan_id":"cebpf4jnsgd1na2vs0mg"},{"bike_id":"d2ee4e65-fdfc-48e0-9e00-92f2e44b7cab","system_id":"levelo_inurba_marseille","lat":43.3031,"lon":5.39222,"is_reserved":false,"is_disabled":false,"rental_uris":{"android":"levelo://app?vid=d2ee4e65-fdfc-48e0-9e00-92f2e44b7cab","ios":"levelo://app?vid=d2ee4e65-fdfc-48e0-9e00-92f2e44b7cab"},"vehicle_type_id":"4","last_reported":1743804532,"current_range_meters":10800,"station_id":"ce4bgkh2rcd13ifvqbk0","pricing_plan_id":"cebpf4jnsgd1na2vs0mg"},{"bike_id":"a1cc8429-7f5d-4c98-838c-0dbc6d7c247e","system_id":"levelo_inurba_marseille","lat":43.28149,"lon":5.42653,"is_reserved":false,"is_disabled":false,"rental_uris":{"android":"levelo://app?vid=a1cc8429-7f5d-4c98-838c-0dbc6d7c247e","ios":"levelo://app?vid=a1cc8429-7f5d-4c98-838c-0dbc6d7c247e"},"vehicle_type_id":"4","last_reported":1743804532,"current_range_meters":10800,"station_id":"ce4bhnh2rcd13ifvqgug","pricing_plan_id":"cebpf4jnsgd1na2vs0mg"},{"bike_id":"ccbaad60-ee1e-4837-a1f8-1af8e79dfa40","system_id":"levelo_inurba_marseille","lat":43.3061,"lon":5.39354,"is_reserved":false,"is_disabled":true,"rental_uris":{"android":"levelo://app?vid=ccbaad60-ee1e-4837-a1f8-1af8e79dfa40","ios":"levelo://app?vid=ccbaad60-ee1e-4837-a1f8-1af8e79dfa40"},"vehicle_type_id":"4","last_reported":1743804532,"current_range_meters":10800,"station_id":"ce4bh0p2rcd13ifvqd80","pricing_plan_id":"cebpf4jnsgd1na2vs0mg"},{"bike_id":"ec1efc42-6b50-45b4-9b36-065198ebc403","system_id":"levelo_inurba_marseille","lat":43.29254,"lon":5.38434,"is_reserved":false,"is_disabled":false,"rental_uris":{"android":"levelo://app?vid=ec1efc42-6b50-45b4-9b36-065198ebc403","ios":"levelo://app?vid=ec1efc42-6b50-45b4-9b36-065198ebc403"},"vehicle_type_id":"4","last_reported":1743804532,"current_range_meters":10800,"station_id":"ce4bh692rcd13ifvqea0","pricing_plan_id":"cebpf4jnsgd1na2vs0mg"},{"bike_id":"706fc506-2aa0-4db5-833c-3cdac573bb9a","system_id":"levelo_inurba_marseille","lat":43.2903,"lon":5.38658,"is_reserved":false,"is_disabled":true,"rental_uris":{"android":"levelo://app?vid=706fc506-2aa0-4db5-833c-3cdac573bb9a","ios":"levelo://app?vid=706fc506-2aa0-4db5-833c-3cdac573bb9a"},"vehicle_type_id":"4","last_reported":1743804532,"current_range_meters":10800,"station_id":"ce4bh4p2rcd13ifvqe0g","pricing_plan_id":"cebpf4jnsgd1na2vs0mg"},{"bike_id":"ae85a7a4-7c38-4e25-9e50-a9a925b58789","system_id":"levelo_inurba_marseille","lat":43.31086,"lon":5.42433,"is_reserved":false,"is_disabled":false,"rental_uris":{"android":"levelo://app?vid=ae85a7a4-7c38-4e25-9e50-a9a925b58789","ios":"levelo://app?vid=ae85a7a4-7c38-4e25-9e50-a9a925b58789"},"vehicle_type_id":"4","last_reported":1743804532,"current_range_meters":10800,"station_id":"ce4bhp92rcd13ifvqhag","pricing_plan_id":"cebpf4jnsgd1na2vs0mg"},{"bike_id":"1edc9b8f-069c-4a73-b056-332d912ad4c7","system_id":"levelo_inurba_marseille","lat":43.29411,"lon":5.38628,"is_reserved":false,"is_disabled":false,"rental_uris":{"android":"levelo://app?vid=1edc9b8f-069c-4a73-b056-332d912ad4c7","ios":"levelo://app?vid=1edc9b8f-069c-4a73-b056-332d912ad4c7"},"vehicle_type_id":"4","last_reported":1743804532,"current_range_meters":11200,"station_id":"ce4bh2h2rcd13ifvqdh0","pricing_plan_id":"cebpf4jnsgd1na2vs0mg"},{"bike_id":"3b4ad8c6-6244-4378-90d7-dac703d1508d","system_id":"levelo_inurba_marseille","lat":43.23186,"lon":5.35554,"is_reserved":false,"is_disabled":false,"rental_uris":{"android":"levelo://app?vid=3b4ad8c6-6244-4378-90d7-dac703d1508d","ios":"levelo://app?vid=3b4ad8c6-6244-4378-90d7-dac703d1508d"},"vehicle_type_id":"4","last_reported":1743804532,"current_range_meters":11200,"station_id":"ce4bhu92rcd13ifvqi70","pricing_plan_id":"cebpf4jnsgd1na2vs0mg"},{"bike_id":"203176fb-52f7-45ec-88b4-caa4115f7b7b","system_id":"levelo_inurba_marseille","lat":43.29624,"lon":5.40052,"is_reserved":false,"is_disabled":false,"rental_uris":{"android":"levelo://app?vid=203176fb-52f7-45ec-88b4-caa4115f7b7b","ios":"levelo://app?vid=203176fb-52f7-45ec-88b4-caa4115f7b7b"},"vehicle_type_id":"4","last_reported":1743804532,"current_range_meters":11200,"station_id":"","pricing_plan_id":"cebpf4jnsgd1na2vs0mg"},{"bike_id":"568811bf-100a-4ff7-9269-761359d59687","system_id":"levelo_inurba_marseille","lat":43.29416,"lon":5.38631,"is_reserved":false,"is_disabled":false,"rental_uris":{"android":"levelo://app?vid=568811bf-100a-4ff7-9269-761359d59687","ios":"levelo://app?vid=568811bf-100a-4ff7-9269-761359d59687"},"vehicle_type_id":"4","last_reported":1743804532,"current_range_meters":11200,"station_id":"ce4bh2h2rcd13ifvqdh0","pricing_plan_id":"cebpf4jnsgd1na2vs0mg"},{"bike_id":"783ef245-163c-4c81-b038-df23059b7c57","system_id":"levelo_inurba_marseille","lat":43.310755,"lon":5.383546,"is_reserved":false,"is_disabled":false,"rental_uris":{"android":"levelo://app?vid=783ef245-163c-4c81-b038-df23059b7c57","ios":"levelo://app?vid=783ef245-163c-4c81-b038-df23059b7c57"},"vehicle_type_id":"4","last_reported":1743804532,"current_range_meters":11200,"station_id":"","pricing_plan_id":"cebpf4jnsgd1na2vs0mg"},{"bike_id":"c23f780e-c0d9-4344-bb6a-639dd6231fcf","system_id":"levelo_inurba_marseille","lat":43.29248,"lon":5.37631,"is_reserved":false,"is_disabled":false,"rental_uris":{"android":"levelo://app?vid=c23f780e-c0d9-4344-bb6a-639dd6231fcf","ios":"levelo://app?vid=c23f780e-c0d9-4344-bb6a-639dd6231fcf"},"vehicle_type_id":"4","last_reported":1743804532,"current_range_meters":11200,"station_id":"ce4bgi12rcd13ifvqb80","pricing_plan_id":"cebpf4jnsgd1na2vs0mg"},{"bike_id":"82094fca-82b5-45b4-81a5-df2e6ffd6728","system_id":"levelo_inurba_marseille","lat":43.323341,"lon":5.406204,"is_reserved":false,"is_disabled":false,"rental_uris":{"android":"levelo://app?vid=82094fca-82b5-45b4-81a5-df2e6ffd6728","ios":"levelo://app?vid=82094fca-82b5-45b4-81a5-df2e6ffd6728"},"vehicle_type_id":"4","last_reported":1743804532,"current_range_meters":11200,"station_id":"ce4bhq92rcd13ifvqhjg","pricing_plan_id":"cebpf4jnsgd1na2vs0mg"},{"bike_id":"0eb30f16-826e-404e-9494-cbd59d704ab7","system_id":"levelo_inurba_marseille","lat":43.29031,"lon":5.38649,"is_reserved":false,"is_disabled":true,"rental_uris":{"android":"levelo://app?vid=0eb30f16-826e-404e-9494-cbd59d704ab7","ios":"levelo://app?vid=0eb30f16-826e-404e-9494-cbd59d704ab7"},"vehicle_type_id":"4","last_reported":1743804532,"current_range_meters":11200,"station_id":"ce4bh4p2rcd13ifvqe0g","pricing_plan_id":"cebpf4jnsgd1na2vs0mg"},{"bike_id":"c2055a2a-1cff-4f19-a52d-9b52baeaa63f","system_id":"levelo_inurba_marseille","lat":43.320282,"lon":5.381248,"is_reserved":false,"is_disabled":true,"rental_uris":{"android":"levelo://app?vid=c2055a2a-1cff-4f19-a52d-9b52baeaa63f","ios":"levelo://app?vid=c2055a2a-1cff-4f19-a52d-9b52baeaa63f"},"vehicle_type_id":"4","last_reported":1743804532,"current_range_meters":11200,"station_id":"","pricing_plan_id":"cebpf4jnsgd1na2vs0mg"},{"bike_id":"a07480da-f5a9-4597-b3e6-cc405effeae7","system_id":"levelo_inurba_marseille","lat":43.28952,"lon":5.39651,"is_reserved":false,"is_disabled":true,"rental_uris":{"android":"levelo://app?vid=a07480da-f5a9-4597-b3e6-cc405effeae7","ios":"levelo://app?vid=a07480da-f5a9-4597-b3e6-cc405effeae7"},"vehicle_type_id":"4","last_reported":1743804532,"current_range_meters":11600,"station_id":"ce4bh3h2rcd13ifvqdn0","pricing_plan_id":"cebpf4jnsgd1na2vs0mg"},{"bike_id":"9a75cc6a-a7fd-40a9-971e-a445f22b1875","system_id":"levelo_inurba_marseille","lat":43.29439,"lon":5.38632,"is_reserved":false,"is_disabled":false,"rental_uris":{"android":"levelo://app?vid=9a75cc6a-a7fd-40a9-971e-a445f22b1875","ios":"levelo://app?vid=9a75cc6a-a7fd-40a9-971e-a445f22b1875"},"vehicle_type_id":"4","last_reported":1743804532,"current_range_meters":11600,"station_id":"ce4bh2h2rcd13ifvqdh0","pricing_plan_id":"cebpf4jnsgd1na2vs0mg"},{"bike_id":"6b8df6c6-e69f-416d-869f-6c58b572d426","system_id":"levelo_inurba_marseille","lat":43.23178,"lon":5.40012,"is_reserved":false,"is_disabled":false,"rental_uris":{"android":"levelo://app?vid=6b8df6c6-e69f-416d-869f-6c58b572d426","ios":"levelo://app?vid=6b8df6c6-e69f-416d-869f-6c58b572d426"},"vehicle_type_id":"4","last_reported":1743804532,"current_range_meters":11600,"station_id":"ce4bhn12rcd13ifvqgqg","pricing_plan_id":"cebpf4jnsgd1na2vs0mg"},{"bike_id":"fb0d4993-67fa-4314-9525-ef2ba9197c72","system_id":"levelo_inurba_marseille","lat":43.30264,"lon":5.4063,"is_reserved":false,"is_disabled":false,"rental_uris":{"android":"levelo://app?vid=fb0d4993-67fa-4314-9525-ef2ba9197c72","ios":"levelo://app?vid=fb0d4993-67fa-4314-9525-ef2ba9197c72"},"vehicle_type_id":"4","last_reported":1743804532,"current_range_meters":11600,"station_id":"","pricing_plan_id":"cebpf4jnsgd1na2vs0mg"},{"bike_id":"2a452274-d32a-4803-a727-c72c0730afbe","system_id":"levelo_inurba_marseille","lat":43.306,"lon":5.37158,"is_reserved":false,"is_disabled":false,"rental_uris":{"android":"levelo://app?vid=2a452274-d32a-4803-a727-c72c0730afbe","ios":"levelo://app?vid=2a452274-d32a-4803-a727-c72c0730afbe"},"vehicle_type_id":"4","last_reported":1743804532,"current_range_meters":11200,"station_id":"ce4bgqh2rcd13ifvqc4g","pricing_plan_id":"cebpf4jnsgd1na2vs0mg"},{"bike_id":"6e1c9c66-c456-4a0c-9f32-8624123a9ee0","system_id":"levelo_inurba_marseille","lat":43.29898,"lon":5.43656,"is_reserved":false,"is_disabled":true,"rental_uris":{"android":"levelo://app?vid=6e1c9c66-c456-4a0c-9f32-8624123a9ee0","ios":"levelo://app?vid=6e1c9c66-c456-4a0c-9f32-8624123a9ee0"},"vehicle_type_id":"4","last_reported":1743804532,"current_range_meters":11600,"station_id":"ce4bhpp2rcd13ifvqhfg","pricing_plan_id":"cebpf4jnsgd1na2vs0mg"},{"bike_id":"d68bb49e-ae67-46b9-9113-2f1b9eefff70","system_id":"levelo_inurba_marseille","lat":43.31991,"lon":5.38157,"is_reserved":false,"is_disabled":true,"rental_uris":{"android":"levelo://app?vid=d68bb49e-ae67-46b9-9113-2f1b9eefff70","ios":"levelo://app?vid=d68bb49e-ae67-46b9-9113-2f1b9eefff70"},"vehicle_type_id":"4","last_reported":1743804532,"current_range_meters":11600,"station_id":"ce4bhr12rcd13ifvqhpg","pricing_plan_id":"cebpf4jnsgd1na2vs0mg"},{"bike_id":"682f7ec8-5529-42b7-a265-aaa70f95d362","system_id":"levelo_inurba_marseille","lat":43.31373,"lon":5.38493,"is_reserved":false,"is_disabled":false,"rental_uris":{"android":"levelo://app?vid=682f7ec8-5529-42b7-a265-aaa70f95d362","ios":"levelo://app?vid=682f7ec8-5529-42b7-a265-aaa70f95d362"},"vehicle_type_id":"4","last_reported":1743804532,"current_range_meters":11600,"station_id":"ce4bgt92rcd13ifvqcf0","pricing_plan_id":"cebpf4jnsgd1na2vs0mg"},{"bike_id":"daeae7a5-6e84-4cfe-82db-4eedf4df0242","system_id":"levelo_inurba_marseille","lat":43.28942,"lon":5.3641,"is_reserved":false,"is_disabled":false,"rental_uris":{"android":"levelo://app?vid=daeae7a5-6e84-4cfe-82db-4eedf4df0242","ios":"levelo://app?vid=daeae7a5-6e84-4cfe-82db-4eedf4df0242"},"vehicle_type_id":"4","last_reported":1743804532,"current_range_meters":11600,"station_id":"ce4bhc92rcd13ifvqetg","pricing_plan_id":"cebpf4jnsgd1na2vs0mg"},{"bike_id":"1d5ef6d0-a413-45b3-8100-7222d11689f2","system_id":"levelo_inurba_marseille","lat":43.289223,"lon":5.384023,"is_reserved":false,"is_disabled":true,"rental_uris":{"android":"levelo://app?vid=1d5ef6d0-a413-45b3-8100-7222d11689f2","ios":"levelo://app?vid=1d5ef6d0-a413-45b3-8100-7222d11689f2"},"vehicle_type_id":"4","last_reported":1743804532,"current_range_meters":11600,"station_id":"ce4bh612rcd13ifvqe6g","pricing_plan_id":"cebpf4jnsgd1na2vs0mg"},{"bike_id":"eb46d7a7-3d9c-407d-9732-2556b6755a79","system_id":"levelo_inurba_marseille","lat":43.31388,"lon":5.38552,"is_reserved":false,"is_disabled":false,"rental_uris":{"android":"levelo://app?vid=eb46d7a7-3d9c-407d-9732-2556b6755a79","ios":"levelo://app?vid=eb46d7a7-3d9c-407d-9732-2556b6755a79"},"vehicle_type_id":"4","last_reported":1743804532,"current_range_meters":12000,"station_id":"","pricing_plan_id":"cebpf4jnsgd1na2vs0mg"},{"bike_id":"8495c431-2aab-4d93-83fe-f948356db5dc","system_id":"levelo_inurba_marseille","lat":43.30796,"lon":5.38138,"is_reserved":false,"is_disabled":false,"rental_uris":{"android":"levelo://app?vid=8495c431-2aab-4d93-83fe-f948356db5dc","ios":"levelo://app?vid=8495c431-2aab-4d93-83fe-f948356db5dc"},"vehicle_type_id":"4","last_reported":1743804532,"current_range_meters":12000,"station_id":"ce4bgt12rcd13ifvqce0","pricing_plan_id":"cebpf4jnsgd1na2vs0mg"},{"bike_id":"2ac6a623-063c-4fc4-8bde-f17112b0788e","system_id":"levelo_inurba_marseille","lat":43.23415,"lon":5.40616,"is_reserved":false,"is_disabled":false,"rental_uris":{"android":"levelo://app?vid=2ac6a623-063c-4fc4-8bde-f17112b0788e","ios":"levelo://app?vid=2ac6a623-063c-4fc4-8bde-f17112b0788e"},"vehicle_type_id":"4","last_reported":1743804532,"current_range_meters":12000,"station_id":"","pricing_plan_id":"cebpf4jnsgd1na2vs0mg"},{"bike_id":"fd0f3c9c-aa88-40fa-b8ff-a0fa0fe5eea4","system_id":"levelo_inurba_marseille","lat":43.29791,"lon":5.4041,"is_reserved":false,"is_disabled":false,"rental_uris":{"android":"levelo://app?vid=fd0f3c9c-aa88-40fa-b8ff-a0fa0fe5eea4","ios":"levelo://app?vid=fd0f3c9c-aa88-40fa-b8ff-a0fa0fe5eea4"},"vehicle_type_id":"4","last_reported":1743804532,"current_range_meters":12000,"station_id":"ce4bh112rcd13ifvqd90","pricing_plan_id":"cebpf4jnsgd1na2vs0mg"},{"bike_id":"0030b574-680c-425b-8e09-a16d46745da3","system_id":"levelo_inurba_marseille","lat":43.29417,"lon":5.38636,"is_reserved":false,"is_disabled":false,"rental_uris":{"android":"levelo://app?vid=0030b574-680c-425b-8e09-a16d46745da3","ios":"levelo://app?vid=0030b574-680c-425b-8e09-a16d46745da3"},"vehicle_type_id":"4","last_reported":1743804532,"current_range_meters":12000,"station_id":"ce4bh2h2rcd13ifvqdh0","pricing_plan_id":"cebpf4jnsgd1na2vs0mg"},{"bike_id":"48ec1fe3-fdf4-49a5-977a-526829b4e2e3","system_id":"levelo_inurba_marseille","lat":43.23063,"lon":5.35489,"is_reserved":false,"is_disabled":false,"rental_uris":{"android":"levelo://app?vid=48ec1fe3-fdf4-49a5-977a-526829b4e2e3","ios":"levelo://app?vid=48ec1fe3-fdf4-49a5-977a-526829b4e2e3"},"vehicle_type_id":"4","last_reported":1743804532,"current_range_meters":12000,"station_id":"cpo3342slgdg3j2ifvpg","pricing_plan_id":"cebpf4jnsgd1na2vs0mg"},{"bike_id":"fdad6e5e-1467-4616-9d72-68b29d343e00","system_id":"levelo_inurba_marseille","lat":43.32284,"lon":5.38284,"is_reserved":false,"is_disabled":false,"rental_uris":{"android":"levelo://app?vid=fdad6e5e-1467-4616-9d72-68b29d343e00","ios":"levelo://app?vid=fdad6e5e-1467-4616-9d72-68b29d343e00"},"vehicle_type_id":"4","last_reported":1743804532,"current_range_meters":12000,"station_id":"ce4bhr12rcd13ifvqhqg","pricing_plan_id":"cebpf4jnsgd1na2vs0mg"},{"bike_id":"95df1b46-4651-4e01-99a6-3ccb43dd586c","system_id":"levelo_inurba_marseille","lat":43.28947,"lon":5.39627,"is_reserved":false,"is_disabled":false,"rental_uris":{"android":"levelo://app?vid=95df1b46-4651-4e01-99a6-3ccb43dd586c","ios":"levelo://app?vid=95df1b46-4651-4e01-99a6-3ccb43dd586c"},"vehicle_type_id":"4","last_reported":1743804532,"current_range_meters":12000,"station_id":"ce4bh3h2rcd13ifvqdn0","pricing_plan_id":"cebpf4jnsgd1na2vs0mg"},{"bike_id":"a5c9a136-cbeb-4711-b942-8dd4e4fef217","system_id":"levelo_inurba_marseille","lat":43.301295,"lon":5.387876,"is_reserved":false,"is_disabled":false,"rental_uris":{"android":"levelo://app?vid=a5c9a136-cbeb-4711-b942-8dd4e4fef217","ios":"levelo://app?vid=a5c9a136-cbeb-4711-b942-8dd4e4fef217"},"vehicle_type_id":"4","last_reported":1743804532,"current_range_meters":12000,"station_id":"ce4bgt92rcd13ifvqcf0","pricing_plan_id":"cebpf4jnsgd1na2vs0mg"},{"bike_id":"b2b03e5d-3e2f-45b1-8744-075dca8e435a","system_id":"levelo_inurba_marseille","lat":43.28452,"lon":5.39207,"is_reserved":false,"is_disabled":false,"rental_uris":{"android":"levelo://app?vid=b2b03e5d-3e2f-45b1-8744-075dca8e435a","ios":"levelo://app?vid=b2b03e5d-3e2f-45b1-8744-075dca8e435a"},"vehicle_type_id":"4","last_reported":1743804532,"current_range_meters":12000,"station_id":"ce4bhoh2rcd13ifvqh5g","pricing_plan_id":"cebpf4jnsgd1na2vs0mg"},{"bike_id":"63081022-824b-4b5a-b713-5936340173df","system_id":"levelo_inurba_marseille","lat":43.29406,"lon":5.38636,"is_reserved":false,"is_disabled":false,"rental_uris":{"android":"levelo://app?vid=63081022-824b-4b5a-b713-5936340173df","ios":"levelo://app?vid=63081022-824b-4b5a-b713-5936340173df"},"vehicle_type_id":"4","last_reported":1743804532,"current_range_meters":12000,"station_id":"ce4bh2h2rcd13ifvqdh0","pricing_plan_id":"cebpf4jnsgd1na2vs0mg"},{"bike_id":"eb79d1f9-7c91-4ea2-b5f8-796189743e1a","system_id":"levelo_inurba_marseille","lat":43.33736,"lon":5.39173,"is_reserved":false,"is_disabled":false,"rental_uris":{"android":"levelo://app?vid=eb79d1f9-7c91-4ea2-b5f8-796189743e1a","ios":"levelo://app?vid=eb79d1f9-7c91-4ea2-b5f8-796189743e1a"},"vehicle_type_id":"4","last_reported":1743804532,"current_range_meters":12400,"station_id":"ce4bhr92rcd13ifvqhsg","pricing_plan_id":"cebpf4jnsgd1na2vs0mg"},{"bike_id":"41296888-352e-4ce3-b582-026d48019870","system_id":"levelo_inurba_marseille","lat":43.29148,"lon":5.37955,"is_reserved":false,"is_disabled":false,"rental_uris":{"android":"levelo://app?vid=41296888-352e-4ce3-b582-026d48019870","ios":"levelo://app?vid=41296888-352e-4ce3-b582-026d48019870"},"vehicle_type_id":"4","last_reported":1743804532,"current_range_meters":12400,"station_id":"","pricing_plan_id":"cebpf4jnsgd1na2vs0mg"},{"bike_id":"6d9715e6-045f-417b-844a-144b6e5c1132","system_id":"levelo_inurba_marseille","lat":43.29225,"lon":5.35706,"is_reserved":false,"is_disabled":false,"rental_uris":{"android":"levelo://app?vid=6d9715e6-045f-417b-844a-144b6e5c1132","ios":"levelo://app?vid=6d9715e6-045f-417b-844a-144b6e5c1132"},"vehicle_type_id":"4","last_reported":1743804532,"current_range_meters":12400,"station_id":"","pricing_plan_id":"cebpf4jnsgd1na2vs0mg"},{"bike_id":"d89bb348-a2b2-475f-b66f-22fe74c882fd","system_id":"levelo_inurba_marseille","lat":43.23184,"lon":5.39977,"is_reserved":false,"is_disabled":false,"rental_uris":{"android":"levelo://app?vid=d89bb348-a2b2-475f-b66f-22fe74c882fd","ios":"levelo://app?vid=d89bb348-a2b2-475f-b66f-22fe74c882fd"},"vehicle_type_id":"4","last_reported":1743804532,"current_range_meters":12800,"station_id":"ce4bhn12rcd13ifvqgqg","pricing_plan_id":"cebpf4jnsgd1na2vs0mg"},{"bike_id":"cb0c7485-60c6-4a87-b612-b4318a9bcf8e","system_id":"levelo_inurba_marseille","lat":43.30643,"lon":5.40085,"is_reserved":false,"is_disabled":false,"rental_uris":{"android":"levelo://app?vid=cb0c7485-60c6-4a87-b612-b4318a9bcf8e","ios":"levelo://app?vid=cb0c7485-60c6-4a87-b612-b4318a9bcf8e"},"vehicle_type_id":"4","last_reported":1743804532,"current_range_meters":12800,"station_id":"ce4bh112rcd13ifvqda0","pricing_plan_id":"cebpf4jnsgd1na2vs0mg"},{"bike_id":"3719d63c-6535-40a3-9206-8644906174c4","system_id":"levelo_inurba_marseille","lat":43.29898,"lon":5.43663,"is_reserved":false,"is_disabled":false,"rental_uris":{"android":"levelo://app?vid=3719d63c-6535-40a3-9206-8644906174c4","ios":"levelo://app?vid=3719d63c-6535-40a3-9206-8644906174c4"},"vehicle_type_id":"4","last_reported":1743804532,"current_range_meters":13600,"station_id":"ce4bhpp2rcd13ifvqhfg","pricing_plan_id":"cebpf4jnsgd1na2vs0mg"},{"bike_id":"921ba7f4-82a5-49c2-b0c0-a5e606ce0136","system_id":"levelo_inurba_marseille","lat":43.2927,"lon":5.38441,"is_reserved":false,"is_disabled":false,"rental_uris":{"android":"levelo://app?vid=921ba7f4-82a5-49c2-b0c0-a5e606ce0136","ios":"levelo://app?vid=921ba7f4-82a5-49c2-b0c0-a5e606ce0136"},"vehicle_type_id":"4","last_reported":1743804532,"current_range_meters":13600,"station_id":"ce4bh692rcd13ifvqea0","pricing_plan_id":"cebpf4jnsgd1na2vs0mg"},{"bike_id":"e0025ce5-fe29-4293-8000-c88ee2bac657","system_id":"levelo_inurba_marseille","lat":43.31471,"lon":5.39216,"is_reserved":false,"is_disabled":false,"rental_uris":{"android":"levelo://app?vid=e0025ce5-fe29-4293-8000-c88ee2bac657","ios":"levelo://app?vid=e0025ce5-fe29-4293-8000-c88ee2bac657"},"vehicle_type_id":"4","last_reported":1743804532,"current_range_meters":13600,"station_id":"","pricing_plan_id":"cebpf4jnsgd1na2vs0mg"},{"bike_id":"eaf859a6-ff3d-4281-be3e-7de787fa533a","system_id":"levelo_inurba_marseille","lat":43.30293,"lon":5.39189,"is_reserved":false,"is_disabled":true,"rental_uris":{"android":"levelo://app?vid=eaf859a6-ff3d-4281-be3e-7de787fa533a","ios":"levelo://app?vid=eaf859a6-ff3d-4281-be3e-7de787fa533a"},"vehicle_type_id":"4","last_reported":1743804532,"current_range_meters":14000,"station_id":"ce4bgkh2rcd13ifvqbk0","pricing_plan_id":"cebpf4jnsgd1na2vs0mg"},{"bike_id":"417bc43e-857a-4681-ae12-00136b423cf0","system_id":"levelo_inurba_marseille","lat":43.26683,"lon":5.38263,"is_reserved":false,"is_disabled":false,"rental_uris":{"android":"levelo://app?vid=417bc43e-857a-4681-ae12-00136b423cf0","ios":"levelo://app?vid=417bc43e-857a-4681-ae12-00136b423cf0"},"vehicle_type_id":"4","last_reported":1743804532,"current_range_meters":14000,"station_id":"ce4bhg92rcd13ifvqf90","pricing_plan_id":"cebpf4jnsgd1na2vs0mg"},{"bike_id":"0693d3b0-91e5-4e6f-b9ba-d39c86888031","system_id":"levelo_inurba_marseille","lat":43.289489,"lon":5.363876,"is_reserved":false,"is_disabled":false,"rental_uris":{"android":"levelo://app?vid=0693d3b0-91e5-4e6f-b9ba-d39c86888031","ios":"levelo://app?vid=0693d3b0-91e5-4e6f-b9ba-d39c86888031"},"vehicle_type_id":"4","last_reported":1743804532,"current_range_meters":13600,"station_id":"ce4bhc92rcd13ifvqetg","pricing_plan_id":"cebpf4jnsgd1na2vs0mg"},{"bike_id":"efeb41d4-5e7f-44ad-8ae8-3eaaca1750a8","system_id":"levelo_inurba_marseille","lat":43.30266,"lon":5.37698,"is_reserved":false,"is_disabled":false,"rental_uris":{"android":"levelo://app?vid=efeb41d4-5e7f-44ad-8ae8-3eaaca1750a8","ios":"levelo://app?vid=efeb41d4-5e7f-44ad-8ae8-3eaaca1750a8"},"vehicle_type_id":"4","last_reported":1743804532,"current_range_meters":13600,"station_id":"ce4bguh2rcd13ifvqcj0","pricing_plan_id":"cebpf4jnsgd1na2vs0mg"},{"bike_id":"54a9c35d-1779-42e3-8045-1a7ede8cd295","system_id":"levelo_inurba_marseille","lat":43.28923,"lon":5.38405,"is_reserved":false,"is_disabled":false,"rental_uris":{"android":"levelo://app?vid=54a9c35d-1779-42e3-8045-1a7ede8cd295","ios":"levelo://app?vid=54a9c35d-1779-42e3-8045-1a7ede8cd295"},"vehicle_type_id":"4","last_reported":1743804532,"current_range_meters":14400,"station_id":"ce4bh612rcd13ifvqe6g","pricing_plan_id":"cebpf4jnsgd1na2vs0mg"},{"bike_id":"c4097a40-9f82-4156-9145-10a6f9c35634","system_id":"levelo_inurba_marseille","lat":43.30948,"lon":5.39028,"is_reserved":false,"is_disabled":false,"rental_uris":{"android":"levelo://app?vid=c4097a40-9f82-4156-9145-10a6f9c35634","ios":"levelo://app?vid=c4097a40-9f82-4156-9145-10a6f9c35634"},"vehicle_type_id":"4","last_reported":1743804532,"current_range_meters":14400,"station_id":"ce4bgup2rcd13ifvqco0","pricing_plan_id":"cebpf4jnsgd1na2vs0mg"},{"bike_id":"7a05c36a-d459-4d51-b1ce-6f0763ebf5fe","system_id":"levelo_inurba_marseille","lat":43.292685,"lon":5.384388,"is_reserved":false,"is_disabled":false,"rental_uris":{"android":"levelo://app?vid=7a05c36a-d459-4d51-b1ce-6f0763ebf5fe","ios":"levelo://app?vid=7a05c36a-d459-4d51-b1ce-6f0763ebf5fe"},"vehicle_type_id":"4","last_reported":1743804532,"current_range_meters":14400,"station_id":"ce4bh692rcd13ifvqea0","pricing_plan_id":"cebpf4jnsgd1na2vs0mg"},{"bike_id":"88122bdf-e454-4295-87eb-4f2b4f98db61","system_id":"levelo_inurba_marseille","lat":43.31078,"lon":5.38342,"is_reserved":false,"is_disabled":false,"rental_uris":{"android":"levelo://app?vid=88122bdf-e454-4295-87eb-4f2b4f98db61","ios":"levelo://app?vid=88122bdf-e454-4295-87eb-4f2b4f98db61"},"vehicle_type_id":"4","last_reported":1743804532,"current_range_meters":14400,"station_id":"ce4bgv92rcd13ifvqcr0","pricing_plan_id":"cebpf4jnsgd1na2vs0mg"},{"bike_id":"30b57730-cb66-4122-bd93-7dabcaba84e7","system_id":"levelo_inurba_marseille","lat":43.24903,"lon":5.40657,"is_reserved":false,"is_disabled":false,"rental_uris":{"android":"levelo://app?vid=30b57730-cb66-4122-bd93-7dabcaba84e7","ios":"levelo://app?vid=30b57730-cb66-4122-bd93-7dabcaba84e7"},"vehicle_type_id":"4","last_reported":1743804532,"current_range_meters":14400,"station_id":"","pricing_plan_id":"cebpf4jnsgd1na2vs0mg"},{"bike_id":"86dc6f3a-86d6-47c1-9cfe-c709f294369d","system_id":"levelo_inurba_marseille","lat":43.2953,"lon":5.38536,"is_reserved":false,"is_disabled":false,"rental_uris":{"android":"levelo://app?vid=86dc6f3a-86d6-47c1-9cfe-c709f294369d","ios":"levelo://app?vid=86dc6f3a-86d6-47c1-9cfe-c709f294369d"},"vehicle_type_id":"4","last_reported":1743804532,"current_range_meters":14400,"station_id":"ce4bgih2rcd13ifvqba0","pricing_plan_id":"cebpf4jnsgd1na2vs0mg"},{"bike_id":"91dd8330-3810-4779-86d1-796a21a2d440","system_id":"levelo_inurba_marseille","lat":43.28849,"lon":5.35838,"is_reserved":false,"is_disabled":false,"rental_uris":{"android":"levelo://app?vid=91dd8330-3810-4779-86d1-796a21a2d440","ios":"levelo://app?vid=91dd8330-3810-4779-86d1-796a21a2d440"},"vehicle_type_id":"4","last_reported":1743804532,"current_range_meters":14400,"station_id":"ce4bhb12rcd13ifvqem0","pricing_plan_id":"cebpf4jnsgd1na2vs0mg"},{"bike_id":"4c364a14-a14f-4fad-ae4a-d1fa8696b548","system_id":"levelo_inurba_marseille","lat":43.25148,"lon":5.40333,"is_reserved":false,"is_disabled":true,"rental_uris":{"android":"levelo://app?vid=4c364a14-a14f-4fad-ae4a-d1fa8696b548","ios":"levelo://app?vid=4c364a14-a14f-4fad-ae4a-d1fa8696b548"},"vehicle_type_id":"4","last_reported":1743804532,"current_range_meters":14400,"station_id":"ce4bhlh2rcd13ifvqgig","pricing_plan_id":"cebpf4jnsgd1na2vs0mg"},{"bike_id":"eb445ca1-9662-440d-86db-cf6b64f7a0c4","system_id":"levelo_inurba_marseille","lat":43.29413,"lon":5.3864,"is_reserved":false,"is_disabled":false,"rental_uris":{"android":"levelo://app?vid=eb445ca1-9662-440d-86db-cf6b64f7a0c4","ios":"levelo://app?vid=eb445ca1-9662-440d-86db-cf6b64f7a0c4"},"vehicle_type_id":"4","last_reported":1743804532,"current_range_meters":14800,"station_id":"ce4bh2h2rcd13ifvqdh0","pricing_plan_id":"cebpf4jnsgd1na2vs0mg"},{"bike_id":"7a3cd935-e309-44d8-a3c4-a75980111808","system_id":"levelo_inurba_marseille","lat":43.29419,"lon":5.37849,"is_reserved":false,"is_disabled":true,"rental_uris":{"android":"levelo://app?vid=7a3cd935-e309-44d8-a3c4-a75980111808","ios":"levelo://app?vid=7a3cd935-e309-44d8-a3c4-a75980111808"},"vehicle_type_id":"4","last_reported":1743804532,"current_range_meters":14800,"station_id":"ce4bgjh2rcd13ifvqbf0","pricing_plan_id":"cebpf4jnsgd1na2vs0mg"},{"bike_id":"27fb05f6-d2c4-46d5-95ee-a4073e88a988","system_id":"levelo_inurba_marseille","lat":43.29425,"lon":5.3864,"is_reserved":false,"is_disabled":false,"rental_uris":{"android":"levelo://app?vid=27fb05f6-d2c4-46d5-95ee-a4073e88a988","ios":"levelo://app?vid=27fb05f6-d2c4-46d5-95ee-a4073e88a988"},"vehicle_type_id":"4","last_reported":1743804532,"current_range_meters":15200,"station_id":"ce4bh2h2rcd13ifvqdh0","pricing_plan_id":"cebpf4jnsgd1na2vs0mg"},{"bike_id":"771f8f1e-cd87-4047-b3ff-87a86b8218fe","system_id":"levelo_inurba_marseille","lat":43.30802,"lon":5.38145,"is_reserved":false,"is_disabled":false,"rental_uris":{"android":"levelo://app?vid=771f8f1e-cd87-4047-b3ff-87a86b8218fe","ios":"levelo://app?vid=771f8f1e-cd87-4047-b3ff-87a86b8218fe"},"vehicle_type_id":"4","last_reported":1743804532,"current_range_meters":15200,"station_id":"ce4bgt12rcd13ifvqce0","pricing_plan_id":"cebpf4jnsgd1na2vs0mg"},{"bike_id":"07abcedc-bf49-4bf3-b4ce-1b77e9e25f6f","system_id":"levelo_inurba_marseille","lat":43.284043,"lon":5.375273,"is_reserved":false,"is_disabled":false,"rental_uris":{"android":"levelo://app?vid=07abcedc-bf49-4bf3-b4ce-1b77e9e25f6f","ios":"levelo://app?vid=07abcedc-bf49-4bf3-b4ce-1b77e9e25f6f"},"vehicle_type_id":"4","last_reported":1743804532,"current_range_meters":15200,"station_id":"ce4bh412rcd13ifvqds0","pricing_plan_id":"cebpf4jnsgd1na2vs0mg"},{"bike_id":"852ae433-cc4e-4f80-9afa-60b2796b15fb","system_id":"levelo_inurba_marseille","lat":43.32376,"lon":5.39309,"is_reserved":false,"is_disabled":false,"rental_uris":{"android":"levelo://app?vid=852ae433-cc4e-4f80-9afa-60b2796b15fb","ios":"levelo://app?vid=852ae433-cc4e-4f80-9afa-60b2796b15fb"},"vehicle_type_id":"4","last_reported":1743804532,"current_range_meters":15200,"station_id":"","pricing_plan_id":"cebpf4jnsgd1na2vs0mg"},{"bike_id":"9ab8b16b-9f71-4abb-a498-fbf5542b0810","system_id":"levelo_inurba_marseille","lat":43.28072,"lon":5.39661,"is_reserved":false,"is_disabled":true,"rental_uris":{"android":"levelo://app?vid=9ab8b16b-9f71-4abb-a498-fbf5542b0810","ios":"levelo://app?vid=9ab8b16b-9f71-4abb-a498-fbf5542b0810"},"vehicle_type_id":"4","last_reported":1743804532,"current_range_meters":15200,"station_id":"ce4bho12rcd13ifvqh2g","pricing_plan_id":"cebpf4jnsgd1na2vs0mg"},{"bike_id":"1b6ba0fb-0e2a-48f8-8692-986b52d822f1","system_id":"levelo_inurba_marseille","lat":43.31754,"lon":5.3902,"is_reserved":false,"is_disabled":false,"rental_uris":{"android":"levelo://app?vid=1b6ba0fb-0e2a-48f8-8692-986b52d822f1","ios":"levelo://app?vid=1b6ba0fb-0e2a-48f8-8692-986b52d822f1"},"vehicle_type_id":"4","last_reported":1743804532,"current_range_meters":15200,"station_id":"ce4bhqp2rcd13ifvqhng","pricing_plan_id":"cebpf4jnsgd1na2vs0mg"},{"bike_id":"07309b52-58d3-4582-98cf-bec6e886957b","system_id":"levelo_inurba_marseille","lat":43.30804,"lon":5.38145,"is_reserved":false,"is_disabled":false,"rental_uris":{"android":"levelo://app?vid=07309b52-58d3-4582-98cf-bec6e886957b","ios":"levelo://app?vid=07309b52-58d3-4582-98cf-bec6e886957b"},"vehicle_type_id":"4","last_reported":1743804532,"current_range_meters":15200,"station_id":"ce4bgt12rcd13ifvqce0","pricing_plan_id":"cebpf4jnsgd1na2vs0mg"},{"bike_id":"f2a2be18-c54a-419e-9453-84c03014c84a","system_id":"levelo_inurba_marseille","lat":43.301263,"lon":5.370065,"is_reserved":false,"is_disabled":false,"rental_uris":{"android":"levelo://app?vid=f2a2be18-c54a-419e-9453-84c03014c84a","ios":"levelo://app?vid=f2a2be18-c54a-419e-9453-84c03014c84a"},"vehicle_type_id":"4","last_reported":1743804532,"current_range_meters":15200,"station_id":"ce4bh192rcd13ifvqdd0","pricing_plan_id":"cebpf4jnsgd1na2vs0mg"},{"bike_id":"b646ace8-08b7-485e-abcd-2b6b162d14dc","system_id":"levelo_inurba_marseille","lat":43.29903,"lon":5.4367,"is_reserved":false,"is_disabled":false,"rental_uris":{"android":"levelo://app?vid=b646ace8-08b7-485e-abcd-2b6b162d14dc","ios":"levelo://app?vid=b646ace8-08b7-485e-abcd-2b6b162d14dc"},"vehicle_type_id":"4","last_reported":1743804532,"current_range_meters":15200,"station_id":"ce4bhpp2rcd13ifvqhfg","pricing_plan_id":"cebpf4jnsgd1na2vs0mg"},{"bike_id":"4b6f99ff-89fe-492f-a6a5-392fad15b431","system_id":"levelo_inurba_marseille","lat":43.29429,"lon":5.38635,"is_reserved":false,"is_disabled":false,"rental_uris":{"android":"levelo://app?vid=4b6f99ff-89fe-492f-a6a5-392fad15b431","ios":"levelo://app?vid=4b6f99ff-89fe-492f-a6a5-392fad15b431"},"vehicle_type_id":"4","last_reported":1743804532,"current_range_meters":16000,"station_id":"ce4bh2h2rcd13ifvqdh0","pricing_plan_id":"cebpf4jnsgd1na2vs0mg"},{"bike_id":"a058f5d4-511f-4c92-a3e5-742831067ae0","system_id":"levelo_inurba_marseille","lat":43.30169,"lon":5.37674,"is_reserved":false,"is_disabled":false,"rental_uris":{"android":"levelo://app?vid=a058f5d4-511f-4c92-a3e5-742831067ae0","ios":"levelo://app?vid=a058f5d4-511f-4c92-a3e5-742831067ae0"},"vehicle_type_id":"4","last_reported":1743804532,"current_range_meters":16000,"station_id":"","pricing_plan_id":"cebpf4jnsgd1na2vs0mg"},{"bike_id":"e5810712-bd0d-4fa0-92e7-ccc6dbcabeaf","system_id":"levelo_inurba_marseille","lat":43.29015,"lon":5.3863,"is_reserved":false,"is_disabled":false,"rental_uris":{"android":"levelo://app?vid=e5810712-bd0d-4fa0-92e7-ccc6dbcabeaf","ios":"levelo://app?vid=e5810712-bd0d-4fa0-92e7-ccc6dbcabeaf"},"vehicle_type_id":"4","last_reported":1743804532,"current_range_meters":16000,"station_id":"ce4bh4p2rcd13ifvqe0g","pricing_plan_id":"cebpf4jnsgd1na2vs0mg"},{"bike_id":"ade0c60d-5c86-4c26-a865-da759b0300d3","system_id":"levelo_inurba_marseille","lat":43.29268,"lon":5.38434,"is_reserved":false,"is_disabled":false,"rental_uris":{"android":"levelo://app?vid=ade0c60d-5c86-4c26-a865-da759b0300d3","ios":"levelo://app?vid=ade0c60d-5c86-4c26-a865-da759b0300d3"},"vehicle_type_id":"4","last_reported":1743804532,"current_range_meters":16000,"station_id":"ce4bh692rcd13ifvqea0","pricing_plan_id":"cebpf4jnsgd1na2vs0mg"},{"bike_id":"a45393b3-6b7b-4fca-b601-50b1af1dbd9d","system_id":"levelo_inurba_marseille","lat":43.32001,"lon":5.38179,"is_reserved":false,"is_disabled":true,"rental_uris":{"android":"levelo://app?vid=a45393b3-6b7b-4fca-b601-50b1af1dbd9d","ios":"levelo://app?vid=a45393b3-6b7b-4fca-b601-50b1af1dbd9d"},"vehicle_type_id":"4","last_reported":1743804532,"current_range_meters":16000,"station_id":"ce4bhr12rcd13ifvqhpg","pricing_plan_id":"cebpf4jnsgd1na2vs0mg"},{"bike_id":"5bc5097a-ab4d-41d0-acb7-66326eb1f080","system_id":"levelo_inurba_marseille","lat":43.30913,"lon":5.36871,"is_reserved":false,"is_disabled":false,"rental_uris":{"android":"levelo://app?vid=5bc5097a-ab4d-41d0-acb7-66326eb1f080","ios":"levelo://app?vid=5bc5097a-ab4d-41d0-acb7-66326eb1f080"},"vehicle_type_id":"4","last_reported":1743804532,"current_range_meters":15200,"station_id":"ce4bgn92rcd13ifvqbvg","pricing_plan_id":"cebpf4jnsgd1na2vs0mg"},{"bike_id":"5827acd2-19b0-45a4-977e-251b81b3da50","system_id":"levelo_inurba_marseille","lat":43.29432,"lon":5.38625,"is_reserved":false,"is_disabled":false,"rental_uris":{"android":"levelo://app?vid=5827acd2-19b0-45a4-977e-251b81b3da50","ios":"levelo://app?vid=5827acd2-19b0-45a4-977e-251b81b3da50"},"vehicle_type_id":"4","last_reported":1743804532,"current_range_meters":16000,"station_id":"ce4bh2h2rcd13ifvqdh0","pricing_plan_id":"cebpf4jnsgd1na2vs0mg"},{"bike_id":"37113a9e-4281-4c46-8e06-a223354b452a","system_id":"levelo_inurba_marseille","lat":43.2845,"lon":5.39191,"is_reserved":false,"is_disabled":false,"rental_uris":{"android":"levelo://app?vid=37113a9e-4281-4c46-8e06-a223354b452a","ios":"levelo://app?vid=37113a9e-4281-4c46-8e06-a223354b452a"},"vehicle_type_id":"4","last_reported":1743804532,"current_range_meters":16000,"station_id":"ce4bhoh2rcd13ifvqh5g","pricing_plan_id":"cebpf4jnsgd1na2vs0mg"},{"bike_id":"da3f2f26-c130-4f0c-8d2b-43ded8290f65","system_id":"levelo_inurba_marseille","lat":43.30433,"lon":5.39743,"is_reserved":false,"is_disabled":false,"rental_uris":{"android":"levelo://app?vid=da3f2f26-c130-4f0c-8d2b-43ded8290f65","ios":"levelo://app?vid=da3f2f26-c130-4f0c-8d2b-43ded8290f65"},"vehicle_type_id":"4","last_reported":1743804532,"current_range_meters":16000,"station_id":"ce4bh092rcd13ifvqd20","pricing_plan_id":"cebpf4jnsgd1na2vs0mg"},{"bike_id":"847952ec-5312-45de-bf57-7870c5d5674d","system_id":"levelo_inurba_marseille","lat":43.28838,"lon":5.35868,"is_reserved":false,"is_disabled":false,"rental_uris":{"android":"levelo://app?vid=847952ec-5312-45de-bf57-7870c5d5674d","ios":"levelo://app?vid=847952ec-5312-45de-bf57-7870c5d5674d"},"vehicle_type_id":"4","last_reported":1743804532,"current_range_meters":15200,"station_id":"ce4bhb12rcd13ifvqem0","pricing_plan_id":"cebpf4jnsgd1na2vs0mg"},{"bike_id":"4a772168-9ca5-48d4-a381-d0d984a984d8","system_id":"levelo_inurba_marseille","lat":43.28702,"lon":5.39982,"is_reserved":false,"is_disabled":false,"rental_uris":{"android":"levelo://app?vid=4a772168-9ca5-48d4-a381-d0d984a984d8","ios":"levelo://app?vid=4a772168-9ca5-48d4-a381-d0d984a984d8"},"vehicle_type_id":"4","last_reported":1743804532,"current_range_meters":16000,"station_id":"ce4bho92rcd13ifvqh3g","pricing_plan_id":"cebpf4jnsgd1na2vs0mg"},{"bike_id":"4a3de4dc-b9de-436c-adfc-4dbbdf7bf001","system_id":"levelo_inurba_marseille","lat":43.25118,"lon":5.40314,"is_reserved":false,"is_disabled":false,"rental_uris":{"android":"levelo://app?vid=4a3de4dc-b9de-436c-adfc-4dbbdf7bf001","ios":"levelo://app?vid=4a3de4dc-b9de-436c-adfc-4dbbdf7bf001"},"vehicle_type_id":"4","last_reported":1743804532,"current_range_meters":15200,"station_id":"ce4bhlh2rcd13ifvqgig","pricing_plan_id":"cebpf4jnsgd1na2vs0mg"},{"bike_id":"7b68e5ef-135e-4c6b-a9de-8c7d136ebc75","system_id":"levelo_inurba_marseille","lat":43.29426,"lon":5.38649,"is_reserved":false,"is_disabled":false,"rental_uris":{"android":"levelo://app?vid=7b68e5ef-135e-4c6b-a9de-8c7d136ebc75","ios":"levelo://app?vid=7b68e5ef-135e-4c6b-a9de-8c7d136ebc75"},"vehicle_type_id":"4","last_reported":1743804532,"current_range_meters":16000,"station_id":"ce4bh2h2rcd13ifvqdh0","pricing_plan_id":"cebpf4jnsgd1na2vs0mg"},{"bike_id":"efb52c62-ce6b-4329-aab4-d2130f242a54","system_id":"levelo_inurba_marseille","lat":43.290319,"lon":5.386447,"is_reserved":false,"is_disabled":false,"rental_uris":{"android":"levelo://app?vid=efb52c62-ce6b-4329-aab4-d2130f242a54","ios":"levelo://app?vid=efb52c62-ce6b-4329-aab4-d2130f242a54"},"vehicle_type_id":"4","last_reported":1743804532,"current_range_meters":15200,"station_id":"ce4bh4p2rcd13ifvqe0g","pricing_plan_id":"cebpf4jnsgd1na2vs0mg"},{"bike_id":"dac9a842-d556-4a72-9011-dde4d0851953","system_id":"levelo_inurba_marseille","lat":43.26571,"lon":5.39006,"is_reserved":false,"is_disabled":false,"rental_uris":{"android":"levelo://app?vid=dac9a842-d556-4a72-9011-dde4d0851953","ios":"levelo://app?vid=dac9a842-d556-4a72-9011-dde4d0851953"},"vehicle_type_id":"4","last_reported":1743804532,"current_range_meters":16000,"station_id":"ce4bhe12rcd13ifvqf30","pricing_plan_id":"cebpf4jnsgd1na2vs0mg"},{"bike_id":"847cbb0b-5820-4b46-ae24-0425b7deb722","system_id":"levelo_inurba_marseille","lat":43.29506,"lon":5.39039,"is_reserved":false,"is_disabled":false,"rental_uris":{"android":"levelo://app?vid=847cbb0b-5820-4b46-ae24-0425b7deb722","ios":"levelo://app?vid=847cbb0b-5820-4b46-ae24-0425b7deb722"},"vehicle_type_id":"4","last_reported":1743804532,"current_range_meters":16000,"station_id":"ce4bh3p2rcd13ifvqdp0","pricing_plan_id":"cebpf4jnsgd1na2vs0mg"},{"bike_id":"ed92b0eb-4d1f-43d0-8e61-3baa759975e6","system_id":"levelo_inurba_marseille","lat":43.25014,"lon":5.38941,"is_reserved":false,"is_disabled":false,"rental_uris":{"android":"levelo://app?vid=ed92b0eb-4d1f-43d0-8e61-3baa759975e6","ios":"levelo://app?vid=ed92b0eb-4d1f-43d0-8e61-3baa759975e6"},"vehicle_type_id":"4","last_reported":1743804532,"current_range_meters":16000,"station_id":"ce4bhgp2rcd13ifvqfd0","pricing_plan_id":"cebpf4jnsgd1na2vs0mg"},{"bike_id":"d5e984d3-343e-4e16-bd54-bc3ebbd48639","system_id":"levelo_inurba_marseille","lat":43.30125,"lon":5.38803,"is_reserved":false,"is_disabled":true,"rental_uris":{"android":"levelo://app?vid=d5e984d3-343e-4e16-bd54-bc3ebbd48639","ios":"levelo://app?vid=d5e984d3-343e-4e16-bd54-bc3ebbd48639"},"vehicle_type_id":"4","last_reported":1743804532,"current_range_meters":16400,"station_id":"ce4bghh2rcd13ifvqb60","pricing_plan_id":"cebpf4jnsgd1na2vs0mg"},{"bike_id":"d2a07d60-57ab-498a-9a05-2527f7931b4d","system_id":"levelo_inurba_marseille","lat":43.230571,"lon":5.354906,"is_reserved":false,"is_disabled":false,"rental_uris":{"android":"levelo://app?vid=d2a07d60-57ab-498a-9a05-2527f7931b4d","ios":"levelo://app?vid=d2a07d60-57ab-498a-9a05-2527f7931b4d"},"vehicle_type_id":"4","last_reported":1743804532,"current_range_meters":16400,"station_id":"cpo3342slgdg3j2ifvpg","pricing_plan_id":"cebpf4jnsgd1na2vs0mg"},{"bike_id":"ed81289f-b9f3-4d86-9f8f-d8896cd8f07f","system_id":"levelo_inurba_marseille","lat":43.30429,"lon":5.39766,"is_reserved":false,"is_disabled":true,"rental_uris":{"android":"levelo://app?vid=ed81289f-b9f3-4d86-9f8f-d8896cd8f07f","ios":"levelo://app?vid=ed81289f-b9f3-4d86-9f8f-d8896cd8f07f"},"vehicle_type_id":"4","last_reported":1743804532,"current_range_meters":16400,"station_id":"ce4bh092rcd13ifvqd20","pricing_plan_id":"cebpf4jnsgd1na2vs0mg"},{"bike_id":"b0b014ad-5ede-4af3-86b6-2dd480528f10","system_id":"levelo_inurba_marseille","lat":43.317,"lon":5.40464,"is_reserved":false,"is_disabled":false,"rental_uris":{"android":"levelo://app?vid=b0b014ad-5ede-4af3-86b6-2dd480528f10","ios":"levelo://app?vid=b0b014ad-5ede-4af3-86b6-2dd480528f10"},"vehicle_type_id":"4","last_reported":1743804532,"current_range_meters":16400,"station_id":"ce4bh012rcd13ifvqd00","pricing_plan_id":"cebpf4jnsgd1na2vs0mg"},{"bike_id":"331db363-f7e4-4b55-b4fe-73dbfbc303f6","system_id":"levelo_inurba_marseille","lat":43.26063,"lon":5.39385,"is_reserved":false,"is_disabled":false,"rental_uris":{"android":"levelo://app?vid=331db363-f7e4-4b55-b4fe-73dbfbc303f6","ios":"levelo://app?vid=331db363-f7e4-4b55-b4fe-73dbfbc303f6"},"vehicle_type_id":"4","last_reported":1743804532,"current_range_meters":16400,"station_id":"ce4bhh92rcd13ifvqfj0","pricing_plan_id":"cebpf4jnsgd1na2vs0mg"},{"bike_id":"af6660b7-1c2a-4a6f-8b31-ea2bae9bad88","system_id":"levelo_inurba_marseille","lat":43.28962,"lon":5.39624,"is_reserved":false,"is_disabled":false,"rental_uris":{"android":"levelo://app?vid=af6660b7-1c2a-4a6f-8b31-ea2bae9bad88","ios":"levelo://app?vid=af6660b7-1c2a-4a6f-8b31-ea2bae9bad88"},"vehicle_type_id":"4","last_reported":1743804532,"current_range_meters":16000,"station_id":"ce4bho12rcd13ifvqh1g","pricing_plan_id":"cebpf4jnsgd1na2vs0mg"},{"bike_id":"94bbf571-4919-4cea-8c50-79e346f7dc11","system_id":"levelo_inurba_marseille","lat":43.32452,"lon":5.39121,"is_reserved":false,"is_disabled":false,"rental_uris":{"android":"levelo://app?vid=94bbf571-4919-4cea-8c50-79e346f7dc11","ios":"levelo://app?vid=94bbf571-4919-4cea-8c50-79e346f7dc11"},"vehicle_type_id":"4","last_reported":1743804532,"current_range_meters":16400,"station_id":"","pricing_plan_id":"cebpf4jnsgd1na2vs0mg"},{"bike_id":"183f9b94-038b-4968-a9e5-5349fdafb5e2","system_id":"levelo_inurba_marseille","lat":43.26217,"lon":5.40444,"is_reserved":false,"is_disabled":false,"rental_uris":{"android":"levelo://app?vid=183f9b94-038b-4968-a9e5-5349fdafb5e2","ios":"levelo://app?vid=183f9b94-038b-4968-a9e5-5349fdafb5e2"},"vehicle_type_id":"4","last_reported":1743804532,"current_range_meters":16400,"station_id":"ce4bhmh2rcd13ifvqgmg","pricing_plan_id":"cebpf4jnsgd1na2vs0mg"},{"bike_id":"93a5f900-5195-446b-87b9-61c9ad7dedd0","system_id":"levelo_inurba_marseille","lat":43.29431,"lon":5.38589,"is_reserved":false,"is_disabled":false,"rental_uris":{"android":"levelo://app?vid=93a5f900-5195-446b-87b9-61c9ad7dedd0","ios":"levelo://app?vid=93a5f900-5195-446b-87b9-61c9ad7dedd0"},"vehicle_type_id":"4","last_reported":1743804532,"current_range_meters":16400,"station_id":"ce4bh2h2rcd13ifvqdh0","pricing_plan_id":"cebpf4jnsgd1na2vs0mg"},{"bike_id":"5db41e2d-ff7e-4151-89d5-fa79751341d3","system_id":"levelo_inurba_marseille","lat":43.30933,"lon":5.40142,"is_reserved":false,"is_disabled":false,"rental_uris":{"android":"levelo://app?vid=5db41e2d-ff7e-4151-89d5-fa79751341d3","ios":"levelo://app?vid=5db41e2d-ff7e-4151-89d5-fa79751341d3"},"vehicle_type_id":"4","last_reported":1743804532,"current_range_meters":16400,"station_id":"ce4bgvp2rcd13ifvqct0","pricing_plan_id":"cebpf4jnsgd1na2vs0mg"},{"bike_id":"a6303451-5b45-435c-bf0e-748f94cc010d","system_id":"levelo_inurba_marseille","lat":43.232,"lon":5.35549,"is_reserved":false,"is_disabled":false,"rental_uris":{"android":"levelo://app?vid=a6303451-5b45-435c-bf0e-748f94cc010d","ios":"levelo://app?vid=a6303451-5b45-435c-bf0e-748f94cc010d"},"vehicle_type_id":"4","last_reported":1743804532,"current_range_meters":16800,"station_id":"ce4bhu92rcd13ifvqi70","pricing_plan_id":"cebpf4jnsgd1na2vs0mg"},{"bike_id":"fcb07a14-84a8-4133-81bd-0f4c923d4172","system_id":"levelo_inurba_marseille","lat":43.31161,"lon":5.38712,"is_reserved":false,"is_disabled":false,"rental_uris":{"android":"levelo://app?vid=fcb07a14-84a8-4133-81bd-0f4c923d4172","ios":"levelo://app?vid=fcb07a14-84a8-4133-81bd-0f4c923d4172"},"vehicle_type_id":"4","last_reported":1743804532,"current_range_meters":16800,"station_id":"ce4bgv12rcd13ifvqcp0","pricing_plan_id":"cebpf4jnsgd1na2vs0mg"},{"bike_id":"13f987a7-67d8-423e-ad58-16ec0ec888f8","system_id":"levelo_inurba_marseille","lat":43.28933,"lon":5.36631,"is_reserved":false,"is_disabled":false,"rental_uris":{"android":"levelo://app?vid=13f987a7-67d8-423e-ad58-16ec0ec888f8","ios":"levelo://app?vid=13f987a7-67d8-423e-ad58-16ec0ec888f8"},"vehicle_type_id":"4","last_reported":1743804532,"current_range_meters":16800,"station_id":"ce4bhap2rcd13ifvqek0","pricing_plan_id":"cebpf4jnsgd1na2vs0mg"},{"bike_id":"f692d4ff-c074-4a51-9a40-472e1c2902de","system_id":"levelo_inurba_marseille","lat":43.29416,"lon":5.38621,"is_reserved":false,"is_disabled":false,"rental_uris":{"android":"levelo://app?vid=f692d4ff-c074-4a51-9a40-472e1c2902de","ios":"levelo://app?vid=f692d4ff-c074-4a51-9a40-472e1c2902de"},"vehicle_type_id":"4","last_reported":1743804532,"current_range_meters":16800,"station_id":"ce4bh2h2rcd13ifvqdh0","pricing_plan_id":"cebpf4jnsgd1na2vs0mg"},{"bike_id":"d314ddb1-ff62-4601-8e47-b5d5fbd0cec2","system_id":"levelo_inurba_marseille","lat":43.29553,"lon":5.38551,"is_reserved":false,"is_disabled":false,"rental_uris":{"android":"levelo://app?vid=d314ddb1-ff62-4601-8e47-b5d5fbd0cec2","ios":"levelo://app?vid=d314ddb1-ff62-4601-8e47-b5d5fbd0cec2"},"vehicle_type_id":"4","last_reported":1743804532,"current_range_meters":17200,"station_id":"ce4bgih2rcd13ifvqba0","pricing_plan_id":"cebpf4jnsgd1na2vs0mg"},{"bike_id":"3d37feb8-c494-4a0f-91a6-09c195e4c873","system_id":"levelo_inurba_marseille","lat":43.29259,"lon":5.40901,"is_reserved":false,"is_disabled":false,"rental_uris":{"android":"levelo://app?vid=3d37feb8-c494-4a0f-91a6-09c195e4c873","ios":"levelo://app?vid=3d37feb8-c494-4a0f-91a6-09c195e4c873"},"vehicle_type_id":"4","last_reported":1743804532,"current_range_meters":16800,"station_id":"ce4bh192rcd13ifvqdc0","pricing_plan_id":"cebpf4jnsgd1na2vs0mg"},{"bike_id":"c9b6cf5c-01e8-4fcb-a4fb-c1012941b6ec","system_id":"levelo_inurba_marseille","lat":43.24158,"lon":5.364,"is_reserved":false,"is_disabled":false,"rental_uris":{"android":"levelo://app?vid=c9b6cf5c-01e8-4fcb-a4fb-c1012941b6ec","ios":"levelo://app?vid=c9b6cf5c-01e8-4fcb-a4fb-c1012941b6ec"},"vehicle_type_id":"4","last_reported":1743804532,"current_range_meters":17200,"station_id":"cpo36qri1sfpv3e86is0","pricing_plan_id":"cebpf4jnsgd1na2vs0mg"},{"bike_id":"a473c82c-7444-4c11-b7e9-cf1523358ddf","system_id":"levelo_inurba_marseille","lat":43.28938,"lon":5.36627,"is_reserved":false,"is_disabled":false,"rental_uris":{"android":"levelo://app?vid=a473c82c-7444-4c11-b7e9-cf1523358ddf","ios":"levelo://app?vid=a473c82c-7444-4c11-b7e9-cf1523358ddf"},"vehicle_type_id":"4","last_reported":1743804532,"current_range_meters":17200,"station_id":"ce4bhap2rcd13ifvqek0","pricing_plan_id":"cebpf4jnsgd1na2vs0mg"},{"bike_id":"2ec9c898-6a4b-4f70-af0a-a4d3cd723ec7","system_id":"levelo_inurba_marseille","lat":43.28355,"lon":5.38633,"is_reserved":false,"is_disabled":false,"rental_uris":{"android":"levelo://app?vid=2ec9c898-6a4b-4f70-af0a-a4d3cd723ec7","ios":"levelo://app?vid=2ec9c898-6a4b-4f70-af0a-a4d3cd723ec7"},"vehicle_type_id":"4","last_reported":1743804532,"current_range_meters":17600,"station_id":"ce4bh492rcd13ifvqdvg","pricing_plan_id":"cebpf4jnsgd1na2vs0mg"},{"bike_id":"933ae856-3202-459e-8d65-8f27293835bd","system_id":"levelo_inurba_marseille","lat":43.29922,"lon":5.43754,"is_reserved":false,"is_disabled":false,"rental_uris":{"android":"levelo://app?vid=933ae856-3202-459e-8d65-8f27293835bd","ios":"levelo://app?vid=933ae856-3202-459e-8d65-8f27293835bd"},"vehicle_type_id":"4","last_reported":1743804532,"current_range_meters":17600,"station_id":"ce4bhpp2rcd13ifvqhfg","pricing_plan_id":"cebpf4jnsgd1na2vs0mg"},{"bike_id":"44d637cb-864f-409d-add6-6713a128c125","system_id":"levelo_inurba_marseille","lat":43.23065,"lon":5.35491,"is_reserved":false,"is_disabled":false,"rental_uris":{"android":"levelo://app?vid=44d637cb-864f-409d-add6-6713a128c125","ios":"levelo://app?vid=44d637cb-864f-409d-add6-6713a128c125"},"vehicle_type_id":"4","last_reported":1743804532,"current_range_meters":17600,"station_id":"cpo3342slgdg3j2ifvpg","pricing_plan_id":"cebpf4jnsgd1na2vs0mg"},{"bike_id":"65f37ce6-0181-4877-8938-e5bab611c301","system_id":"levelo_inurba_marseille","lat":43.29852,"lon":5.36288,"is_reserved":false,"is_disabled":true,"rental_uris":{"android":"levelo://app?vid=65f37ce6-0181-4877-8938-e5bab611c301","ios":"levelo://app?vid=65f37ce6-0181-4877-8938-e5bab611c301"},"vehicle_type_id":"4","last_reported":1743804532,"current_range_meters":17600,"station_id":"ce4bgpp2rcd13ifvqc3g","pricing_plan_id":"cebpf4jnsgd1na2vs0mg"},{"bike_id":"87908f94-d8aa-4a33-8565-205213af20b1","system_id":"levelo_inurba_marseille","lat":43.32106,"lon":5.36762,"is_reserved":false,"is_disabled":false,"rental_uris":{"android":"levelo://app?vid=87908f94-d8aa-4a33-8565-205213af20b1","ios":"levelo://app?vid=87908f94-d8aa-4a33-8565-205213af20b1"},