{"last_updated":1706962302,"ttl":30,"version":"2.2","data":{"bikes":[{"bike_id":"6682d91b-10d9-49a3-b56f-0188f1e4a2d6","system_id":"levelo_inurba_marseille","lat":43.31341,"lon":5.367098,"is_reserved":false,"is_disabled":false,"rental_uris":{"android":"levelo://app?vid=6682d91b-10d9-49a3-b56f-0188f1e4a2d6","ios":"levelo://app?vid=6682d91b-10d9-49a3-b56f-0188f1e4a2d6"},"vehicle_type_id":"4","last_reported":1706962302,"current_range_meters":31200,"station_id":"ce4bgr92rcd13ifvqc6g","pricing_plan_id":"free"},{"bike_id":"4d853cf4-5dac-4fc1-8b37-57b63487c9ef","system_id":"levelo_inurba_marseille","lat":43.31341,"lon":5.367098,"is_reserved":false,"is_disabled":false,"rental_uris":{"android":"levelo://app?vid=4d853cf4-5dac-4fc1-8b37-57b63487c9ef","ios":"levelo://app?vid=4d853cf4-5dac-4fc1-8b37-57b63487c9ef"},"vehicle_type_id":"4","last_reported":1706962302,"current_range_meters":20800,"station_id":"ce4bgr92rcd13ifvqc6g","pricing_plan_id":"free"},{"bike_id":"943fb9b5-980d-453f-84fa-4a2d4c84750f","system_id":"levelo_inurba_marseille","lat":43.312239,"lon":5.368562,"is_reserved":false,"is_disabled":false,"rental_uris":{"android":"levelo://app?vid=943fb9b5-980d-453f-84fa-4a2d4c84750f","ios":"levelo://app?vid=943fb9b5-980d-453f-84fa-4a2d4c84750f"},"vehicle_type_id":"4","last_reported":1706962302,"current_range_meters":30800,"station_id":"ce4bgl92rcd13ifvqbq0","pricing_plan_id":"free"},{"bike_id":"6c242898-2f08-4589-864a-a6413855791f","system_id":"levelo_inurba_marseille","lat":43.312239,"lon":5.368562,"is_reserved":false,"is_disabled":false,"rental_uris":{"android":"levelo://app?vid=6c242898-2f08-4589-864a-a6413855791f","ios":"levelo://app?vid=6c242898-2f08-4589-864a-a6413855791f"},"vehicle_type_id":"4","last_reported":1706962302,"current_range_meters":27600,"station_id":"ce4bgl92rcd13ifvqbq0","pricing_plan_id":"free"},{"bike_id":"001f4a34-9390-478e-8b44-7c4abac879c3","system_id":"levelo_inurba_marseille","lat":43.312313,"lon":5.36856,"is_reserved":false,"is_disabled":false,"rental_uris":{"android":"levelo://app?vid=001f4a34-9390-478e-8b44-7c4abac879c3","ios":"levelo://app?vid=001f4a34-9390-478e-8b44-7c4abac879c3"},"vehicle_type_id":"4","last_reported":1706962302,"current_range_meters":29200,"station_id":"ce4bgl92rcd13ifvqbq0","pricing_plan_id":"free"},{"bike_id":"3993c427-f350-480e-973b-0c513d9e611d","system_id":"levelo_inurba_marseille","lat":43.312239,"lon":5.368562,"is_reserved":false,"is_disabled":false,"rental_uris":{"android":"levelo://app?vid=3993c427-f350-480e-973b-0c513d9e611d","ios":"levelo://app?vid=3993c427-f350-480e-973b-0c513d9e611d"},"vehicle_type_id":"4","last_reported":1706962302,"current_range_meters":29200,"station_id":"ce4bgl92rcd13ifvqbq0","pricing_plan_id":"free"},{"bike_id":"6cefb214-b412-4b6f-8e24-f99bc168d864","system_id":"levelo_inurba_marseille","lat":43.309076,"lon":5.368465,"is_reserved":false,"is_disabled":false,"rental_uris":{"android":"levelo://app?vid=6cefb214-b412-4b6f-8e24-f99bc168d864","ios":"levelo://app?vid=6cefb214-b412-4b6f-8e24-f99bc168d864"},"vehicle_type_id":"4","last_reported":1706962302,"current_range_meters":31600,"station_id":"ce4bgn92rcd13ifvqbvg","pricing_plan_id":"free"},{"bike_id":"d5b5bfd6-5dca-43c7-84bc-f02c1489edd2","system_id":"levelo_inurba_marseille","lat":43.309076,"lon":5.368465,"is_reserved":false,"is_disabled":false,"rental_uris":{"android":"levelo://app?vid=d5b5bfd6-5dca-43c7-84bc-f02c1489edd2","ios":"levelo://app?vid=d5b5bfd6-5dca-43c7-84bc-f02c1489edd2"},"vehicle_type_id":"4","last_reported":1706962302,"current_range_meters":20400,"station_id":"ce4bgn92rcd13ifvqbvg","pricing_plan_id":"free"},{"bike_id":"795ddebc-acef-4168-9102-fbda919b086b","system_id":"levelo_inurba_marseille","lat":43.309076,"lon":5.368465,"is_reserved":false,"is_disabled":false,"rental_uris":{"android":"levelo://app?vid=795ddebc-acef-4168-9102-fbda919b086b","ios":"levelo://app?vid=795ddebc-acef-4168-9102-fbda919b086b"},"vehicle_type_id":"4","last_reported":1706962302,"current_range_meters":18000,"station_id":"ce4bgn92rcd13ifvqbvg","pricing_plan_id":"free"},{"bike_id":"fa218cec-11d8-406b-b7e0-82e5835a98c1","system_id":"levelo_inurba_marseille","lat":43.309076,"lon":5.368465,"is_reserved":false,"is_disabled":false,"rental_uris":{"android":"levelo://app?vid=fa218cec-11d8-406b-b7e0-82e5835a98c1","ios":"levelo://app?vid=fa218cec-11d8-406b-b7e0-82e5835a98c1"},"vehicle_type_id":"4","last_reported":1706962302,"current_range_meters":31600,"station_id":"ce4bgn92rcd13ifvqbvg","pricing_plan_id":"free"},{"bike_id":"672503bd-53f6-401d-bbb8-8ff73b7054df","system_id":"levelo_inurba_marseille","lat":43.309076,"lon":5.368465,"is_reserved":false,"is_disabled":false,"rental_uris":{"android":"levelo://app?vid=672503bd-53f6-401d-bbb8-8ff73b7054df","ios":"levelo://app?vid=672503bd-53f6-401d-bbb8-8ff73b7054df"},"vehicle_type_id":"4","last_reported":1706962302,"current_range_meters":30800,"station_id":"ce4bgn92rcd13ifvqbvg","pricing_plan_id":"free"},{"bike_id":"bfcce015-5715-426a-8984-8d5b9aee5666","system_id":"levelo_inurba_marseille","lat":43.309076,"lon":5.368465,"is_reserved":false,"is_disabled":false,"rental_uris":{"android":"levelo://app?vid=bfcce015-5715-426a-8984-8d5b9aee5666","ios":"levelo://app?vid=bfcce015-5715-426a-8984-8d5b9aee5666"},"vehicle_type_id":"4","last_reported":1706962302,"current_range_meters":30000,"station_id":"ce4bgn92rcd13ifvqbvg","pricing_plan_id":"free"},{"bike_id":"2affd3d4-f310-4f42-9299-ed3ca52feac4","system_id":"levelo_inurba_marseille","lat":43.309076,"lon":5.368465,"is_reserved":false,"is_disabled":false,"rental_uris":{"android":"levelo://app?vid=2affd3d4-f310-4f42-9299-ed3ca52feac4","ios":"levelo://app?vid=2affd3d4-f310-4f42-9299-ed3ca52feac4"},"vehicle_type_id":"4","last_reported":1706962302,"current_range_meters":14000,"station_id":"ce4bgn92rcd13ifvqbvg","pricing_plan_id":"free"},{"bike_id":"8075556e-9c83-4ece-b92f-e5e90a5fd8a2","system_id":"levelo_inurba_marseille","lat":43.31306,"lon":5.37258,"is_reserved":false,"is_disabled":false,"rental_uris":{"android":"levelo://app?vid=8075556e-9c83-4ece-b92f-e5e90a5fd8a2","ios":"levelo://app?vid=8075556e-9c83-4ece-b92f-e5e90a5fd8a2"},"vehicle_type_id":"4","last_reported":1706962302,"current_range_meters":1200,"station_id":"","pricing_plan_id":"free"},{"bike_id":"14fb4c01-0599-4cc1-b2c4-e7127504dfcb","system_id":"levelo_inurba_marseille","lat":43.314811,"lon":5.373104,"is_reserved":false,"is_disabled":false,"rental_uris":{"android":"levelo://app?vid=14fb4c01-0599-4cc1-b2c4-e7127504dfcb","ios":"levelo://app?vid=14fb4c01-0599-4cc1-b2c4-e7127504dfcb"},"vehicle_type_id":"4","last_reported":1706962302,"current_range_meters":28400,"station_id":"ce4bgt12rcd13ifvqcd0","pricing_plan_id":"free"},{"bike_id":"638e40ec-2aef-4b61-a094-7e5ea0af8ffa","system_id":"levelo_inurba_marseille","lat":43.314811,"lon":5.373103,"is_reserved":false,"is_disabled":false,"rental_uris":{"android":"levelo://app?vid=638e40ec-2aef-4b61-a094-7e5ea0af8ffa","ios":"levelo://app?vid=638e40ec-2aef-4b61-a094-7e5ea0af8ffa"},"vehicle_type_id":"4","last_reported":1706962302,"current_range_meters":12000,"station_id":"ce4bgt12rcd13ifvqcd0","pricing_plan_id":"free"},{"bike_id":"dd526c0e-96ca-4175-891c-1cc230f86806","system_id":"levelo_inurba_marseille","lat":43.314811,"lon":5.373103,"is_reserved":false,"is_disabled":false,"rental_uris":{"android":"levelo://app?vid=dd526c0e-96ca-4175-891c-1cc230f86806","ios":"levelo://app?vid=dd526c0e-96ca-4175-891c-1cc230f86806"},"vehicle_type_id":"4","last_reported":1706962302,"current_range_meters":23200,"station_id":"ce4bgt12rcd13ifvqcd0","pricing_plan_id":"free"},{"bike_id":"ce2b4035-3bfc-4e95-970e-0437619cc986","system_id":"levelo_inurba_marseille","lat":43.314811,"lon":5.373103,"is_reserved":false,"is_disabled":false,"rental_uris":{"android":"levelo://app?vid=ce2b4035-3bfc-4e95-970e-0437619cc986","ios":"levelo://app?vid=ce2b4035-3bfc-4e95-970e-0437619cc986"},"vehicle_type_id":"4","last_reported":1706962302,"current_range_meters":7600,"station_id":"ce4bgt12rcd13ifvqcd0","pricing_plan_id":"free"},{"bike_id":"9967a1ea-019a-49d4-b0f2-2f9b10449dbb","system_id":"levelo_inurba_marseille","lat":43.31496,"lon":5.373095,"is_reserved":false,"is_disabled":false,"rental_uris":{"android":"levelo://app?vid=9967a1ea-019a-49d4-b0f2-2f9b10449dbb","ios":"levelo://app?vid=9967a1ea-019a-49d4-b0f2-2f9b10449dbb"},"vehicle_type_id":"4","last_reported":1706962302,"current_range_meters":0,"station_id":"ce4bgt12rcd13ifvqcd0","pricing_plan_id":"free"},{"bike_id":"4fd4e661-e437-4208-a052-0256796567fb","system_id":"levelo_inurba_marseille","lat":43.309039,"lon":5.371797,"is_reserved":false,"is_disabled":false,"rental_uris":{"android":"levelo://app?vid=4fd4e661-e437-4208-a052-0256796567fb","ios":"levelo://app?vid=4fd4e661-e437-4208-a052-0256796567fb"},"vehicle_type_id":"4","last_reported":1706962302,"current_range_meters":26800,"station_id":"ce4bguh2rcd13ifvqckg","pricing_plan_id":"free"},{"bike_id":"f4f1cccd-870c-453b-b9d8-fc37ed641669","system_id":"levelo_inurba_marseille","lat":43.305712,"lon":5.365641,"is_reserved":false,"is_disabled":false,"rental_uris":{"android":"levelo://app?vid=f4f1cccd-870c-453b-b9d8-fc37ed641669","ios":"levelo://app?vid=f4f1cccd-870c-453b-b9d8-fc37ed641669"},"vehicle_type_id":"4","last_reported":1706962302,"current_range_meters":5200,"station_id":"ce4bgs12rcd13ifvqcag","pricing_plan_id":"free"},{"bike_id":"933e0bdd-855f-46cb-9541-12e9b1ff782c","system_id":"levelo_inurba_marseille","lat":43.305714,"lon":5.365633,"is_reserved":false,"is_disabled":false,"rental_uris":{"android":"levelo://app?vid=933e0bdd-855f-46cb-9541-12e9b1ff782c","ios":"levelo://app?vid=933e0bdd-855f-46cb-9541-12e9b1ff782c"},"vehicle_type_id":"4","last_reported":1706962302,"current_range_meters":6000,"station_id":"ce4bgs12rcd13ifvqcag","pricing_plan_id":"free"},{"bike_id":"4b6b8b11-d779-4433-9172-469022550dab","system_id":"levelo_inurba_marseille","lat":43.305706,"lon":5.365654,"is_reserved":false,"is_disabled":false,"rental_uris":{"android":"levelo://app?vid=4b6b8b11-d779-4433-9172-469022550dab","ios":"levelo://app?vid=4b6b8b11-d779-4433-9172-469022550dab"},"vehicle_type_id":"4","last_reported":1706962302,"current_range_meters":26400,"station_id":"ce4bgs12rcd13ifvqcag","pricing_plan_id":"free"},{"bike_id":"721d6f9c-6b4a-49c9-a577-f7a52bd7d83a","system_id":"levelo_inurba_marseille","lat":43.30535,"lon":5.36544,"is_reserved":false,"is_disabled":false,"rental_uris":{"android":"levelo://app?vid=721d6f9c-6b4a-49c9-a577-f7a52bd7d83a","ios":"levelo://app?vid=721d6f9c-6b4a-49c9-a577-f7a52bd7d83a"},"vehicle_type_id":"4","last_reported":1706962302,"current_range_meters":3600,"station_id":"ce4bgs12rcd13ifvqcag","pricing_plan_id":"free"},{"bike_id":"ee5142e9-ef77-4c1a-a868-39ab4aba6d52","system_id":"levelo_inurba_marseille","lat":43.305706,"lon":5.365654,"is_reserved":false,"is_disabled":false,"rental_uris":{"android":"levelo://app?vid=ee5142e9-ef77-4c1a-a868-39ab4aba6d52","ios":"levelo://app?vid=ee5142e9-ef77-4c1a-a868-39ab4aba6d52"},"vehicle_type_id":"4","last_reported":1706962302,"current_range_meters":3200,"station_id":"ce4bgs12rcd13ifvqcag","pricing_plan_id":"free"},{"bike_id":"c8bfc27c-6972-47ed-8568-20f9e73e7e19","system_id":"levelo_inurba_marseille","lat":43.305706,"lon":5.365654,"is_reserved":false,"is_disabled":false,"rental_uris":{"android":"levelo://app?vid=c8bfc27c-6972-47ed-8568-20f9e73e7e19","ios":"levelo://app?vid=c8bfc27c-6972-47ed-8568-20f9e73e7e19"},"vehicle_type_id":"4","last_reported":1706962302,"current_range_meters":4000,"station_id":"ce4bgs12rcd13ifvqcag","pricing_plan_id":"free"},{"bike_id":"78935f90-c53b-47cf-a0bf-6c88fa31ea30","system_id":"levelo_inurba_marseille","lat":43.30532,"lon":5.36552,"is_reserved":false,"is_disabled":false,"rental_uris":{"android":"levelo://app?vid=78935f90-c53b-47cf-a0bf-6c88fa31ea30","ios":"levelo://app?vid=78935f90-c53b-47cf-a0bf-6c88fa31ea30"},"vehicle_type_id":"4","last_reported":1706962302,"current_range_meters":0,"station_id":"ce4bgs12rcd13ifvqcag","pricing_plan_id":"free"},{"bike_id":"2d1b8647-80bb-4a15-92d2-e992b23dbcbf","system_id":"levelo_inurba_marseille","lat":43.305706,"lon":5.365654,"is_reserved":false,"is_disabled":false,"rental_uris":{"android":"levelo://app?vid=2d1b8647-80bb-4a15-92d2-e992b23dbcbf","ios":"levelo://app?vid=2d1b8647-80bb-4a15-92d2-e992b23dbcbf"},"vehicle_type_id":"4","last_reported":1706962302,"current_range_meters":24000,"station_id":"ce4bgs12rcd13ifvqcag","pricing_plan_id":"free"},{"bike_id":"fbe3a27b-d745-4c88-bc06-f45c40772bdf","system_id":"levelo_inurba_marseille","lat":43.305989,"lon":5.37225,"is_reserved":false,"is_disabled":false,"rental_uris":{"android":"levelo://app?vid=fbe3a27b-d745-4c88-bc06-f45c40772bdf","ios":"levelo://app?vid=fbe3a27b-d745-4c88-bc06-f45c40772bdf"},"vehicle_type_id":"4","last_reported":1706962302,"current_range_meters":8800,"station_id":"ce4bgqh2rcd13ifvqc4g","pricing_plan_id":"free"},{"bike_id":"4e077ef0-b947-4eba-87d6-4e45d0463a0a","system_id":"levelo_inurba_marseille","lat":43.305989,"lon":5.37225,"is_reserved":false,"is_disabled":false,"rental_uris":{"android":"levelo://app?vid=4e077ef0-b947-4eba-87d6-4e45d0463a0a","ios":"levelo://app?vid=4e077ef0-b947-4eba-87d6-4e45d0463a0a"},"vehicle_type_id":"4","last_reported":1706962302,"current_range_meters":9200,"station_id":"ce4bgqh2rcd13ifvqc4g","pricing_plan_id":"free"},{"bike_id":"436cee72-5622-4325-857b-b002d4c5b895","system_id":"levelo_inurba_marseille","lat":43.305989,"lon":5.37225,"is_reserved":false,"is_disabled":false,"rental_uris":{"android":"levelo://app?vid=436cee72-5622-4325-857b-b002d4c5b895","ios":"levelo://app?vid=436cee72-5622-4325-857b-b002d4c5b895"},"vehicle_type_id":"4","last_reported":1706962302,"current_range_meters":6800,"station_id":"ce4bgqh2rcd13ifvqc4g","pricing_plan_id":"free"},{"bike_id":"e4622967-6969-423a-9b9a-a9ed97ce0559","system_id":"levelo_inurba_marseille","lat":43.305989,"lon":5.37225,"is_reserved":false,"is_disabled":false,"rental_uris":{"android":"levelo://app?vid=e4622967-6969-423a-9b9a-a9ed97ce0559","ios":"levelo://app?vid=e4622967-6969-423a-9b9a-a9ed97ce0559"},"vehicle_type_id":"4","last_reported":1706962302,"current_range_meters":22000,"station_id":"ce4bgqh2rcd13ifvqc4g","pricing_plan_id":"free"},{"bike_id":"9b9c18e9-2c39-47ca-8b72-b07a8c3d6604","system_id":"levelo_inurba_marseille","lat":43.305989,"lon":5.37225,"is_reserved":false,"is_disabled":false,"rental_uris":{"android":"levelo://app?vid=9b9c18e9-2c39-47ca-8b72-b07a8c3d6604","ios":"levelo://app?vid=9b9c18e9-2c39-47ca-8b72-b07a8c3d6604"},"vehicle_type_id":"4","last_reported":1706962302,"current_range_meters":20000,"station_id":"ce4bgqh2rcd13ifvqc4g","pricing_plan_id":"free"},{"bike_id":"0b25b362-2bb0-48ff-936e-23dd0e78fe5f","system_id":"levelo_inurba_marseille","lat":43.305989,"lon":5.37225,"is_reserved":false,"is_disabled":false,"rental_uris":{"android":"levelo://app?vid=0b25b362-2bb0-48ff-936e-23dd0e78fe5f","ios":"levelo://app?vid=0b25b362-2bb0-48ff-936e-23dd0e78fe5f"},"vehicle_type_id":"4","last_reported":1706962302,"current_range_meters":4400,"station_id":"ce4bgqh2rcd13ifvqc4g","pricing_plan_id":"free"},{"bike_id":"4b56010f-6f95-4565-a2a8-b8bd7764388b","system_id":"levelo_inurba_marseille","lat":43.31124,"lon":5.37766,"is_reserved":false,"is_disabled":false,"rental_uris":{"android":"levelo://app?vid=4b56010f-6f95-4565-a2a8-b8bd7764388b","ios":"levelo://app?vid=4b56010f-6f95-4565-a2a8-b8bd7764388b"},"vehicle_type_id":"4","last_reported":1706962302,"current_range_meters":27200,"station_id":"ce4bgt92rcd13ifvqcg0","pricing_plan_id":"free"},{"bike_id":"926ed356-3097-4d8c-893b-6586563f1d65","system_id":"levelo_inurba_marseille","lat":43.307945,"lon":5.376487,"is_reserved":false,"is_disabled":false,"rental_uris":{"android":"levelo://app?vid=926ed356-3097-4d8c-893b-6586563f1d65","ios":"levelo://app?vid=926ed356-3097-4d8c-893b-6586563f1d65"},"vehicle_type_id":"4","last_reported":1706962302,"current_range_meters":14800,"station_id":"ce4bgv92rcd13ifvqcq0","pricing_plan_id":"free"},{"bike_id":"6132a412-ad44-4070-82af-5684b840e2f3","system_id":"levelo_inurba_marseille","lat":43.307945,"lon":5.376487,"is_reserved":false,"is_disabled":false,"rental_uris":{"android":"levelo://app?vid=6132a412-ad44-4070-82af-5684b840e2f3","ios":"levelo://app?vid=6132a412-ad44-4070-82af-5684b840e2f3"},"vehicle_type_id":"4","last_reported":1706962302,"current_range_meters":31600,"station_id":"ce4bgv92rcd13ifvqcq0","pricing_plan_id":"free"},{"bike_id":"3fd6b355-cd17-4e44-a4ed-1c6a0b48a8ac","system_id":"levelo_inurba_marseille","lat":43.307817,"lon":5.376534,"is_reserved":false,"is_disabled":false,"rental_uris":{"android":"levelo://app?vid=3fd6b355-cd17-4e44-a4ed-1c6a0b48a8ac","ios":"levelo://app?vid=3fd6b355-cd17-4e44-a4ed-1c6a0b48a8ac"},"vehicle_type_id":"4","last_reported":1706962302,"current_range_meters":22800,"station_id":"ce4bgv92rcd13ifvqcq0","pricing_plan_id":"free"},{"bike_id":"7ac2494b-5e40-4fb1-bff3-6b24340e9579","system_id":"levelo_inurba_marseille","lat":43.307945,"lon":5.376487,"is_reserved":false,"is_disabled":false,"rental_uris":{"android":"levelo://app?vid=7ac2494b-5e40-4fb1-bff3-6b24340e9579","ios":"levelo://app?vid=7ac2494b-5e40-4fb1-bff3-6b24340e9579"},"vehicle_type_id":"4","last_reported":1706962302,"current_range_meters":6800,"station_id":"ce4bgv92rcd13ifvqcq0","pricing_plan_id":"free"},{"bike_id":"956baefa-276e-4952-83b1-dd8a9f77b0d2","system_id":"levelo_inurba_marseille","lat":43.307833,"lon":5.376576,"is_reserved":false,"is_disabled":false,"rental_uris":{"android":"levelo://app?vid=956baefa-276e-4952-83b1-dd8a9f77b0d2","ios":"levelo://app?vid=956baefa-276e-4952-83b1-dd8a9f77b0d2"},"vehicle_type_id":"4","last_reported":1706962302,"current_range_meters":4000,"station_id":"ce4bgv92rcd13ifvqcq0","pricing_plan_id":"free"},{"bike_id":"2295bdf0-b945-48a1-b7b3-5cd2c65aa77b","system_id":"levelo_inurba_marseille","lat":43.307945,"lon":5.376487,"is_reserved":false,"is_disabled":false,"rental_uris":{"android":"levelo://app?vid=2295bdf0-b945-48a1-b7b3-5cd2c65aa77b","ios":"levelo://app?vid=2295bdf0-b945-48a1-b7b3-5cd2c65aa77b"},"vehicle_type_id":"4","last_reported":1706962302,"current_range_meters":31600,"station_id":"ce4bgv92rcd13ifvqcq0","pricing_plan_id":"free"},{"bike_id":"1679f2ac-0793-4f07-9889-8f687541b1a0","system_id":"levelo_inurba_marseille","lat":43.317075,"lon":5.377367,"is_reserved":false,"is_disabled":false,"rental_uris":{"android":"levelo://app?vid=1679f2ac-0793-4f07-9889-8f687541b1a0","ios":"levelo://app?vid=1679f2ac-0793-4f07-9889-8f687541b1a0"},"vehicle_type_id":"4","last_reported":1706962302,"current_range_meters":8400,"station_id":"ce4bgth2rcd13ifvqch0","pricing_plan_id":"free"},{"bike_id":"ba7d7316-7e7a-4981-a714-cb2355799391","system_id":"levelo_inurba_marseille","lat":43.317075,"lon":5.377367,"is_reserved":false,"is_disabled":false,"rental_uris":{"android":"levelo://app?vid=ba7d7316-7e7a-4981-a714-cb2355799391","ios":"levelo://app?vid=ba7d7316-7e7a-4981-a714-cb2355799391"},"vehicle_type_id":"4","last_reported":1706962302,"current_range_meters":11200,"station_id":"ce4bgth2rcd13ifvqch0","pricing_plan_id":"free"},{"bike_id":"2223a2e9-8ed4-406b-9608-81717f6783dc","system_id":"levelo_inurba_marseille","lat":43.317075,"lon":5.377367,"is_reserved":false,"is_disabled":false,"rental_uris":{"android":"levelo://app?vid=2223a2e9-8ed4-406b-9608-81717f6783dc","ios":"levelo://app?vid=2223a2e9-8ed4-406b-9608-81717f6783dc"},"vehicle_type_id":"4","last_reported":1706962302,"current_range_meters":25600,"station_id":"ce4bgth2rcd13ifvqch0","pricing_plan_id":"free"},{"bike_id":"469b4e4a-1e2f-4825-9e49-226014827b4a","system_id":"levelo_inurba_marseille","lat":43.317075,"lon":5.377367,"is_reserved":false,"is_disabled":false,"rental_uris":{"android":"levelo://app?vid=469b4e4a-1e2f-4825-9e49-226014827b4a","ios":"levelo://app?vid=469b4e4a-1e2f-4825-9e49-226014827b4a"},"vehicle_type_id":"4","last_reported":1706962302,"current_range_meters":31200,"station_id":"ce4bgth2rcd13ifvqch0","pricing_plan_id":"free"},{"bike_id":"5672da97-2de0-4222-93fb-f22ec8ee7b1e","system_id":"levelo_inurba_marseille","lat":43.317075,"lon":5.377367,"is_reserved":false,"is_disabled":false,"rental_uris":{"android":"levelo://app?vid=5672da97-2de0-4222-93fb-f22ec8ee7b1e","ios":"levelo://app?vid=5672da97-2de0-4222-93fb-f22ec8ee7b1e"},"vehicle_type_id":"4","last_reported":1706962302,"current_range_meters":14400,"station_id":"ce4bgth2rcd13ifvqch0","pricing_plan_id":"free"},{"bike_id":"9c6a3b25-93af-4894-9cf1-28d03c8f8fdc","system_id":"levelo_inurba_marseille","lat":43.317075,"lon":5.377367,"is_reserved":false,"is_disabled":false,"rental_uris":{"android":"levelo://app?vid=9c6a3b25-93af-4894-9cf1-28d03c8f8fdc","ios":"levelo://app?vid=9c6a3b25-93af-4894-9cf1-28d03c8f8fdc"},"vehicle_type_id":"4","last_reported":1706962302,"current_range_meters":31200,"station_id":"ce4bgth2rcd13ifvqch0","pricing_plan_id":"free"},{"bike_id":"0f833ad1-607f-417a-a09f-4998cd54a18f","system_id":"levelo_inurba_marseille","lat":43.317075,"lon":5.377367,"is_reserved":false,"is_disabled":false,"rental_uris":{"android":"levelo://app?vid=0f833ad1-607f-417a-a09f-4998cd54a18f","ios":"levelo://app?vid=0f833ad1-607f-417a-a09f-4998cd54a18f"},"vehicle_type_id":"4","last_reported":1706962302,"current_range_meters":31200,"station_id":"ce4bgth2rcd13ifvqch0","pricing_plan_id":"free"},{"bike_id":"e401a299-734c-40f3-9aee-e3eb0f80ef92","system_id":"levelo_inurba_marseille","lat":43.301939,"lon":5.366286,"is_reserved":false,"is_disabled":false,"rental_uris":{"android":"levelo://app?vid=e401a299-734c-40f3-9aee-e3eb0f80ef92","ios":"levelo://app?vid=e401a299-734c-40f3-9aee-e3eb0f80ef92"},"vehicle_type_id":"4","last_reported":1706962302,"current_range_meters":6800,"station_id":"ce4bgrh2rcd13ifvqc8g","pricing_plan_id":"free"},{"bike_id":"1c0f831f-92dd-46ba-ac79-957433a86b26","system_id":"levelo_inurba_marseille","lat":43.308012,"lon":5.381511,"is_reserved":false,"is_disabled":false,"rental_uris":{"android":"levelo://app?vid=1c0f831f-92dd-46ba-ac79-957433a86b26","ios":"levelo://app?vid=1c0f831f-92dd-46ba-ac79-957433a86b26"},"vehicle_type_id":"4","last_reported":1706962302,"current_range_meters":5600,"station_id":"ce4bgt12rcd13ifvqce0","pricing_plan_id":"free"},{"bike_id":"3379c315-202f-4b04-9625-4067ff85d4aa","system_id":"levelo_inurba_marseille","lat":43.304606,"lon":5.379026,"is_reserved":false,"is_disabled":false,"rental_uris":{"android":"levelo://app?vid=3379c315-202f-4b04-9625-4067ff85d4aa","ios":"levelo://app?vid=3379c315-202f-4b04-9625-4067ff85d4aa"},"vehicle_type_id":"4","last_reported":1706962302,"current_range_meters":30400,"station_id":"ce4bgup2rcd13ifvqcn0","pricing_plan_id":"free"},{"bike_id":"df113537-1a65-4f56-baba-741696bd11ee","system_id":"levelo_inurba_marseille","lat":43.304606,"lon":5.379026,"is_reserved":false,"is_disabled":false,"rental_uris":{"android":"levelo://app?vid=df113537-1a65-4f56-baba-741696bd11ee","ios":"levelo://app?vid=df113537-1a65-4f56-baba-741696bd11ee"},"vehicle_type_id":"4","last_reported":1706962302,"current_range_meters":18400,"station_id":"ce4bgup2rcd13ifvqcn0","pricing_plan_id":"free"},{"bike_id":"c4d61e6b-4e70-479f-8594-fa9884b3b7b4","system_id":"levelo_inurba_marseille","lat":43.304606,"lon":5.379026,"is_reserved":false,"is_disabled":false,"rental_uris":{"android":"levelo://app?vid=c4d61e6b-4e70-479f-8594-fa9884b3b7b4","ios":"levelo://app?vid=c4d61e6b-4e70-479f-8594-fa9884b3b7b4"},"vehicle_type_id":"4","last_reported":1706962302,"current_range_meters":26000,"station_id":"ce4bgup2rcd13ifvqcn0","pricing_plan_id":"free"},{"bike_id":"545d2aa2-61f0-43db-8eca-8fa28e1c14b5","system_id":"levelo_inurba_marseille","lat":43.304606,"lon":5.379026,"is_reserved":false,"is_disabled":false,"rental_uris":{"android":"levelo://app?vid=545d2aa2-61f0-43db-8eca-8fa28e1c14b5","ios":"levelo://app?vid=545d2aa2-61f0-43db-8eca-8fa28e1c14b5"},"vehicle_type_id":"4","last_reported":1706962302,"current_range_meters":28400,"station_id":"ce4bgup2rcd13ifvqcn0","pricing_plan_id":"free"},{"bike_id":"93c97c5a-9339-410c-946b-0eb8383d7257","system_id":"levelo_inurba_marseille","lat":43.304606,"lon":5.379026,"is_reserved":false,"is_disabled":false,"rental_uris":{"android":"levelo://app?vid=93c97c5a-9339-410c-946b-0eb8383d7257","ios":"levelo://app?vid=93c97c5a-9339-410c-946b-0eb8383d7257"},"vehicle_type_id":"4","last_reported":1706962302,"current_range_meters":28000,"station_id":"ce4bgup2rcd13ifvqcn0","pricing_plan_id":"free"},{"bike_id":"03618338-1331-4f68-883c-96bb4a2033ee","system_id":"levelo_inurba_marseille","lat":43.3047,"lon":5.37905,"is_reserved":false,"is_disabled":false,"rental_uris":{"android":"levelo://app?vid=03618338-1331-4f68-883c-96bb4a2033ee","ios":"levelo://app?vid=03618338-1331-4f68-883c-96bb4a2033ee"},"vehicle_type_id":"4","last_reported":1706962302,"current_range_meters":19200,"station_id":"ce4bgup2rcd13ifvqcn0","pricing_plan_id":"free"},{"bike_id":"f58986f9-7f92-4bb1-9201-4141fc584212","system_id":"levelo_inurba_marseille","lat":43.304606,"lon":5.379026,"is_reserved":false,"is_disabled":false,"rental_uris":{"android":"levelo://app?vid=f58986f9-7f92-4bb1-9201-4141fc584212","ios":"levelo://app?vid=f58986f9-7f92-4bb1-9201-4141fc584212"},"vehicle_type_id":"4","last_reported":1706962302,"current_range_meters":30400,"station_id":"ce4bgup2rcd13ifvqcn0","pricing_plan_id":"free"},{"bike_id":"af3bbf97-3ed5-449a-90f1-44b2a8ff24a5","system_id":"levelo_inurba_marseille","lat":43.304606,"lon":5.379026,"is_reserved":false,"is_disabled":false,"rental_uris":{"android":"levelo://app?vid=af3bbf97-3ed5-449a-90f1-44b2a8ff24a5","ios":"levelo://app?vid=af3bbf97-3ed5-449a-90f1-44b2a8ff24a5"},"vehicle_type_id":"4","last_reported":1706962302,"current_range_meters":27200,"station_id":"ce4bgup2rcd13ifvqcn0","pricing_plan_id":"free"},{"bike_id":"f2fa3588-6d1b-4f0f-8a2d-c154ef951e07","system_id":"levelo_inurba_marseille","lat":43.304606,"lon":5.379026,"is_reserved":false,"is_disabled":false,"rental_uris":{"android":"levelo://app?vid=f2fa3588-6d1b-4f0f-8a2d-c154ef951e07","ios":"levelo://app?vid=f2fa3588-6d1b-4f0f-8a2d-c154ef951e07"},"vehicle_type_id":"4","last_reported":1706962302,"current_range_meters":17200,"station_id":"ce4bgup2rcd13ifvqcn0","pricing_plan_id":"free"},{"bike_id":"d929dda6-cf20-4525-bb9a-231a6264f739","system_id":"levelo_inurba_marseille","lat":43.304606,"lon":5.379026,"is_reserved":false,"is_disabled":false,"rental_uris":{"android":"levelo://app?vid=d929dda6-cf20-4525-bb9a-231a6264f739","ios":"levelo://app?vid=d929dda6-cf20-4525-bb9a-231a6264f739"},"vehicle_type_id":"4","last_reported":1706962302,"current_range_meters":30000,"station_id":"ce4bgup2rcd13ifvqcn0","pricing_plan_id":"free"},{"bike_id":"1c4acffb-04f7-4120-a202-29327fc48f16","system_id":"levelo_inurba_marseille","lat":43.304606,"lon":5.379026,"is_reserved":false,"is_disabled":false,"rental_uris":{"android":"levelo://app?vid=1c4acffb-04f7-4120-a202-29327fc48f16","ios":"levelo://app?vid=1c4acffb-04f7-4120-a202-29327fc48f16"},"vehicle_type_id":"4","last_reported":1706962302,"current_range_meters":29600,"station_id":"ce4bgup2rcd13ifvqcn0","pricing_plan_id":"free"},{"bike_id":"2eda3141-8ae1-49c2-b58c-826e5fd557b2","system_id":"levelo_inurba_marseille","lat":43.304606,"lon":5.379026,"is_reserved":false,"is_disabled":false,"rental_uris":{"android":"levelo://app?vid=2eda3141-8ae1-49c2-b58c-826e5fd557b2","ios":"levelo://app?vid=2eda3141-8ae1-49c2-b58c-826e5fd557b2"},"vehicle_type_id":"4","last_reported":1706962302,"current_range_meters":24400,"station_id":"ce4bgup2rcd13ifvqcn0","pricing_plan_id":"free"},{"bike_id":"5de56fb7-c764-453b-83cf-31a2f8750f17","system_id":"levelo_inurba_marseille","lat":43.30467,"lon":5.37913,"is_reserved":false,"is_disabled":false,"rental_uris":{"android":"levelo://app?vid=5de56fb7-c764-453b-83cf-31a2f8750f17","ios":"levelo://app?vid=5de56fb7-c764-453b-83cf-31a2f8750f17"},"vehicle_type_id":"4","last_reported":1706962302,"current_range_meters":30400,"station_id":"ce4bgup2rcd13ifvqcn0","pricing_plan_id":"free"},{"bike_id":"d3734f87-8c5e-420d-a80d-fd797fd22ee0","system_id":"levelo_inurba_marseille","lat":43.304606,"lon":5.379026,"is_reserved":false,"is_disabled":false,"rental_uris":{"android":"levelo://app?vid=d3734f87-8c5e-420d-a80d-fd797fd22ee0","ios":"levelo://app?vid=d3734f87-8c5e-420d-a80d-fd797fd22ee0"},"vehicle_type_id":"4","last_reported":1706962302,"current_range_meters":24400,"station_id":"ce4bgup2rcd13ifvqcn0","pricing_plan_id":"free"},{"bike_id":"d775f151-e09e-40e8-9035-59fba40d02d2","system_id":"levelo_inurba_marseille","lat":43.304606,"lon":5.379026,"is_reserved":false,"is_disabled":false,"rental_uris":{"android":"levelo://app?vid=d775f151-e09e-40e8-9035-59fba40d02d2","ios":"levelo://app?vid=d775f151-e09e-40e8-9035-59fba40d02d2"},"vehicle_type_id":"4","last_reported":1706962302,"current_range_meters":3200,"station_id":"ce4bgup2rcd13ifvqcn0","pricing_plan_id":"free"},{"bike_id":"ee7a70ec-0ea8-47ed-8ef8-a08a06f61803","system_id":"levelo_inurba_marseille","lat":43.304606,"lon":5.379026,"is_reserved":false,"is_disabled":false,"rental_uris":{"android":"levelo://app?vid=ee7a70ec-0ea8-47ed-8ef8-a08a06f61803","ios":"levelo://app?vid=ee7a70ec-0ea8-47ed-8ef8-a08a06f61803"},"vehicle_type_id":"4","last_reported":1706962302,"current_range_meters":24400,"station_id":"ce4bgup2rcd13ifvqcn0","pricing_plan_id":"free"},{"bike_id":"9ba51f2c-01b7-4574-8f23-42b919e87da6","system_id":"levelo_inurba_marseille","lat":43.30467,"lon":5.37919,"is_reserved":false,"is_disabled":false,"rental_uris":{"android":"levelo://app?vid=9ba51f2c-01b7-4574-8f23-42b919e87da6","ios":"levelo://app?vid=9ba51f2c-01b7-4574-8f23-42b919e87da6"},"vehicle_type_id":"4","last_reported":1706962302,"current_range_meters":26000,"station_id":"ce4bgup2rcd13ifvqcn0","pricing_plan_id":"free"},{"bike_id":"1de64cd1-af6e-4ab3-ae63-a759dc07ad8c","system_id":"levelo_inurba_marseille","lat":43.304606,"lon":5.379026,"is_reserved":false,"is_disabled":false,"rental_uris":{"android":"levelo://app?vid=1de64cd1-af6e-4ab3-ae63-a759dc07ad8c","ios":"levelo://app?vid=1de64cd1-af6e-4ab3-ae63-a759dc07ad8c"},"vehicle_type_id":"4","last_reported":1706962302,"current_range_meters":30400,"station_id":"ce4bgup2rcd13ifvqcn0","pricing_plan_id":"free"},{"bike_id":"3da8a357-3967-4813-96a8-be3055f91582","system_id":"levelo_inurba_marseille","lat":43.304606,"lon":5.379026,"is_reserved":false,"is_disabled":false,"rental_uris":{"android":"levelo://app?vid=3da8a357-3967-4813-96a8-be3055f91582","ios":"levelo://app?vid=3da8a357-3967-4813-96a8-be3055f91582"},"vehicle_type_id":"4","last_reported":1706962302,"current_range_meters":15600,"station_id":"ce4bgup2rcd13ifvqcn0","pricing_plan_id":"free"},{"bike_id":"8cd5aca0-09db-485c-8c8d-66805faa32b5","system_id":"levelo_inurba_marseille","lat":43.302784,"lon":5.377158,"is_reserved":false,"is_disabled":false,"rental_uris":{"android":"levelo://app?vid=8cd5aca0-09db-485c-8c8d-66805faa32b5","ios":"levelo://app?vid=8cd5aca0-09db-485c-8c8d-66805faa32b5"},"vehicle_type_id":"4","last_reported":1706962302,"current_range_meters":6000,"station_id":"ce4bguh2rcd13ifvqcj0","pricing_plan_id":"free"},{"bike_id":"c85c092a-6aec-4ae9-8f79-699dc18c91bb","system_id":"levelo_inurba_marseille","lat":43.302784,"lon":5.377158,"is_reserved":false,"is_disabled":false,"rental_uris":{"android":"levelo://app?vid=c85c092a-6aec-4ae9-8f79-699dc18c91bb","ios":"levelo://app?vid=c85c092a-6aec-4ae9-8f79-699dc18c91bb"},"vehicle_type_id":"4","last_reported":1706962302,"current_range_meters":31200,"station_id":"ce4bguh2rcd13ifvqcj0","pricing_plan_id":"free"},{"bike_id":"38d5c246-8ebf-42cc-872f-9a58dcff3582","system_id":"levelo_inurba_marseille","lat":43.302784,"lon":5.377158,"is_reserved":false,"is_disabled":false,"rental_uris":{"android":"levelo://app?vid=38d5c246-8ebf-42cc-872f-9a58dcff3582","ios":"levelo://app?vid=38d5c246-8ebf-42cc-872f-9a58dcff3582"},"vehicle_type_id":"4","last_reported":1706962302,"current_range_meters":16400,"station_id":"ce4bguh2rcd13ifvqcj0","pricing_plan_id":"free"},{"bike_id":"7ec01a00-1198-4ae7-9f76-13273f26c0ec","system_id":"levelo_inurba_marseille","lat":43.302784,"lon":5.377158,"is_reserved":false,"is_disabled":false,"rental_uris":{"android":"levelo://app?vid=7ec01a00-1198-4ae7-9f76-13273f26c0ec","ios":"levelo://app?vid=7ec01a00-1198-4ae7-9f76-13273f26c0ec"},"vehicle_type_id":"4","last_reported":1706962302,"current_range_meters":26000,"station_id":"ce4bguh2rcd13ifvqcj0","pricing_plan_id":"free"},{"bike_id":"18627e31-3880-45dd-8817-e2382bdb39df","system_id":"levelo_inurba_marseille","lat":43.302784,"lon":5.377158,"is_reserved":false,"is_disabled":false,"rental_uris":{"android":"levelo://app?vid=18627e31-3880-45dd-8817-e2382bdb39df","ios":"levelo://app?vid=18627e31-3880-45dd-8817-e2382bdb39df"},"vehicle_type_id":"4","last_reported":1706962302,"current_range_meters":2000,"station_id":"ce4bguh2rcd13ifvqcj0","pricing_plan_id":"free"},{"bike_id":"bc82bec4-5b9a-460e-a312-5caaccce09fb","system_id":"levelo_inurba_marseille","lat":43.302784,"lon":5.377158,"is_reserved":false,"is_disabled":false,"rental_uris":{"android":"levelo://app?vid=bc82bec4-5b9a-460e-a312-5caaccce09fb","ios":"levelo://app?vid=bc82bec4-5b9a-460e-a312-5caaccce09fb"},"vehicle_type_id":"4","last_reported":1706962302,"current_range_meters":29600,"station_id":"ce4bguh2rcd13ifvqcj0","pricing_plan_id":"free"},{"bike_id":"b84a0076-24f6-4d7a-83b6-da086d02eec9","system_id":"levelo_inurba_marseille","lat":43.302784,"lon":5.377158,"is_reserved":false,"is_disabled":false,"rental_uris":{"android":"levelo://app?vid=b84a0076-24f6-4d7a-83b6-da086d02eec9","ios":"levelo://app?vid=b84a0076-24f6-4d7a-83b6-da086d02eec9"},"vehicle_type_id":"4","last_reported":1706962302,"current_range_meters":17200,"station_id":"ce4bguh2rcd13ifvqcj0","pricing_plan_id":"free"},{"bike_id":"abe9d70d-268d-4a65-a014-4491e770b1c9","system_id":"levelo_inurba_marseille","lat":43.30281,"lon":5.37709,"is_reserved":false,"is_disabled":false,"rental_uris":{"android":"levelo://app?vid=abe9d70d-268d-4a65-a014-4491e770b1c9","ios":"levelo://app?vid=abe9d70d-268d-4a65-a014-4491e770b1c9"},"vehicle_type_id":"4","last_reported":1706962302,"current_range_meters":28000,"station_id":"ce4bguh2rcd13ifvqcj0","pricing_plan_id":"free"},{"bike_id":"b1bb040d-980b-45c5-85bf-e5e10e7a4264","system_id":"levelo_inurba_marseille","lat":43.30279,"lon":5.37706,"is_reserved":false,"is_disabled":false,"rental_uris":{"android":"levelo://app?vid=b1bb040d-980b-45c5-85bf-e5e10e7a4264","ios":"levelo://app?vid=b1bb040d-980b-45c5-85bf-e5e10e7a4264"},"vehicle_type_id":"4","last_reported":1706962302,"current_range_meters":24400,"station_id":"ce4bguh2rcd13ifvqcj0","pricing_plan_id":"free"},{"bike_id":"6326c9f4-8ae9-4ee9-907e-9fc66e034abd","system_id":"levelo_inurba_marseille","lat":43.302757,"lon":5.377097,"is_reserved":false,"is_disabled":false,"rental_uris":{"android":"levelo://app?vid=6326c9f4-8ae9-4ee9-907e-9fc66e034abd","ios":"levelo://app?vid=6326c9f4-8ae9-4ee9-907e-9fc66e034abd"},"vehicle_type_id":"4","last_reported":1706962302,"current_range_meters":15200,"station_id":"ce4bguh2rcd13ifvqcj0","pricing_plan_id":"free"},{"bike_id":"b8d7a52d-e3ed-4d9a-866e-1cea36d06128","system_id":"levelo_inurba_marseille","lat":43.302735,"lon":5.37712,"is_reserved":false,"is_disabled":false,"rental_uris":{"android":"levelo://app?vid=b8d7a52d-e3ed-4d9a-866e-1cea36d06128","ios":"levelo://app?vid=b8d7a52d-e3ed-4d9a-866e-1cea36d06128"},"vehicle_type_id":"4","last_reported":1706962302,"current_range_meters":25200,"station_id":"ce4bguh2rcd13ifvqcj0","pricing_plan_id":"free"},{"bike_id":"d6c6117f-570d-4943-9f4e-85244eb92b89","system_id":"levelo_inurba_marseille","lat":43.319907,"lon":5.381525,"is_reserved":false,"is_disabled":false,"rental_uris":{"android":"levelo://app?vid=d6c6117f-570d-4943-9f4e-85244eb92b89","ios":"levelo://app?vid=d6c6117f-570d-4943-9f4e-85244eb92b89"},"vehicle_type_id":"4","last_reported":1706962302,"current_range_meters":8400,"station_id":"ce4bhr12rcd13ifvqhpg","pricing_plan_id":"free"},{"bike_id":"2bd1e4a6-2e81-4712-bf99-f2bf72d3aed8","system_id":"levelo_inurba_marseille","lat":43.299209,"lon":5.365547,"is_reserved":false,"is_disabled":false,"rental_uris":{"android":"levelo://app?vid=2bd1e4a6-2e81-4712-bf99-f2bf72d3aed8","ios":"levelo://app?vid=2bd1e4a6-2e81-4712-bf99-f2bf72d3aed8"},"vehicle_type_id":"4","last_reported":1706962302,"current_range_meters":28000,"station_id":"ce4bgm92rcd13ifvqbr0","pricing_plan_id":"free"},{"bike_id":"0a28f793-ff07-478d-8d46-716fff1cd671","system_id":"levelo_inurba_marseille","lat":43.299209,"lon":5.365547,"is_reserved":false,"is_disabled":false,"rental_uris":{"android":"levelo://app?vid=0a28f793-ff07-478d-8d46-716fff1cd671","ios":"levelo://app?vid=0a28f793-ff07-478d-8d46-716fff1cd671"},"vehicle_type_id":"4","last_reported":1706962302,"current_range_meters":22800,"station_id":"ce4bgm92rcd13ifvqbr0","pricing_plan_id":"free"},{"bike_id":"b8d48eb9-804b-422c-b542-cc6cb9f964eb","system_id":"levelo_inurba_marseille","lat":43.29975,"lon":5.37177,"is_reserved":false,"is_disabled":false,"rental_uris":{"android":"levelo://app?vid=b8d48eb9-804b-422c-b542-cc6cb9f964eb","ios":"levelo://app?vid=b8d48eb9-804b-422c-b542-cc6cb9f964eb"},"vehicle_type_id":"4","last_reported":1706962302,"current_range_meters":30800,"station_id":"ce4bgr92rcd13ifvqc7g","pricing_plan_id":"free"},{"bike_id":"aa1a8818-6818-4632-ae3c-1352fa9762a4","system_id":"levelo_inurba_marseille","lat":43.298433,"lon":5.362774,"is_reserved":false,"is_disabled":false,"rental_uris":{"android":"levelo://app?vid=aa1a8818-6818-4632-ae3c-1352fa9762a4","ios":"levelo://app?vid=aa1a8818-6818-4632-ae3c-1352fa9762a4"},"vehicle_type_id":"4","last_reported":1706962302,"current_range_meters":12400,"station_id":"ce4bgpp2rcd13ifvqc3g","pricing_plan_id":"free"},{"bike_id":"c4ce8f47-ccd2-4da9-9909-53e85533b851","system_id":"levelo_inurba_marseille","lat":43.298433,"lon":5.362774,"is_reserved":false,"is_disabled":false,"rental_uris":{"android":"levelo://app?vid=c4ce8f47-ccd2-4da9-9909-53e85533b851","ios":"levelo://app?vid=c4ce8f47-ccd2-4da9-9909-53e85533b851"},"vehicle_type_id":"4","last_reported":1706962302,"current_range_meters":30000,"station_id":"ce4bgpp2rcd13ifvqc3g","pricing_plan_id":"free"},{"bike_id":"4ecaf377-e4f7-4078-9284-f13ef6fb1554","system_id":"levelo_inurba_marseille","lat":43.298433,"lon":5.362774,"is_reserved":false,"is_disabled":false,"rental_uris":{"android":"levelo://app?vid=4ecaf377-e4f7-4078-9284-f13ef6fb1554","ios":"levelo://app?vid=4ecaf377-e4f7-4078-9284-f13ef6fb1554"},"vehicle_type_id":"4","last_reported":1706962302,"current_range_meters":29600,"station_id":"ce4bgpp2rcd13ifvqc3g","pricing_plan_id":"free"},{"bike_id":"d84c9e90-cdd7-41ae-8430-48109be357e9","system_id":"levelo_inurba_marseille","lat":43.298433,"lon":5.362774,"is_reserved":false,"is_disabled":false,"rental_uris":{"android":"levelo://app?vid=d84c9e90-cdd7-41ae-8430-48109be357e9","ios":"levelo://app?vid=d84c9e90-cdd7-41ae-8430-48109be357e9"},"vehicle_type_id":"4","last_reported":1706962302,"current_range_meters":30000,"station_id":"ce4bgpp2rcd13ifvqc3g","pricing_plan_id":"free"},{"bike_id":"e811b517-673c-4377-9501-cbc425fa1adc","system_id":"levelo_inurba_marseille","lat":43.305364,"lon":5.384119,"is_reserved":false,"is_disabled":false,"rental_uris":{"android":"levelo://app?vid=e811b517-673c-4377-9501-cbc425fa1adc","ios":"levelo://app?vid=e811b517-673c-4377-9501-cbc425fa1adc"},"vehicle_type_id":"4","last_reported":1706962302,"current_range_meters":3600,"station_id":"ce4bgg92rcd13ifvqb30","pricing_plan_id":"free"},{"bike_id":"7c8b2f27-5b79-4b97-824f-884d39c484e7","system_id":"levelo_inurba_marseille","lat":43.298433,"lon":5.362774,"is_reserved":false,"is_disabled":false,"rental_uris":{"android":"levelo://app?vid=7c8b2f27-5b79-4b97-824f-884d39c484e7","ios":"levelo://app?vid=7c8b2f27-5b79-4b97-824f-884d39c484e7"},"vehicle_type_id":"4","last_reported":1706962302,"current_range_meters":25600,"station_id":"ce4bgpp2rcd13ifvqc3g","pricing_plan_id":"free"},{"bike_id":"60c6d7a4-449a-43c9-a6c0-002ad7d0594d","system_id":"levelo_inurba_marseille","lat":43.29845,"lon":5.36275,"is_reserved":false,"is_disabled":false,"rental_uris":{"android":"levelo://app?vid=60c6d7a4-449a-43c9-a6c0-002ad7d0594d","ios":"levelo://app?vid=60c6d7a4-449a-43c9-a6c0-002ad7d0594d"},"vehicle_type_id":"4","last_reported":1706962302,"current_range_meters":29600,"station_id":"ce4bgpp2rcd13ifvqc3g","pricing_plan_id":"free"},{"bike_id":"9a560140-d6d2-47cb-97cf-3bd52875012e","system_id":"levelo_inurba_marseille","lat":43.305413,"lon":5.38436,"is_reserved":false,"is_disabled":false,"rental_uris":{"android":"levelo://app?vid=9a560140-d6d2-47cb-97cf-3bd52875012e","ios":"levelo://app?vid=9a560140-d6d2-47cb-97cf-3bd52875012e"},"vehicle_type_id":"4","last_reported":1706962302,"current_range_meters":3200,"station_id":"ce4bgg92rcd13ifvqb30","pricing_plan_id":"free"},{"bike_id":"8f84943d-d2b9-4326-883e-6641e444210a","system_id":"levelo_inurba_marseille","lat":43.311722,"lon":5.387247,"is_reserved":false,"is_disabled":false,"rental_uris":{"android":"levelo://app?vid=8f84943d-d2b9-4326-883e-6641e444210a","ios":"levelo://app?vid=8f84943d-d2b9-4326-883e-6641e444210a"},"vehicle_type_id":"4","last_reported":1706962302,"current_range_meters":10000,"station_id":"ce4bgv12rcd13ifvqcp0","pricing_plan_id":"free"},{"bike_id":"ce25a071-3871-4c92-bc83-60aaa23306ae","system_id":"levelo_inurba_marseille","lat":43.311722,"lon":5.387247,"is_reserved":false,"is_disabled":false,"rental_uris":{"android":"levelo://app?vid=ce25a071-3871-4c92-bc83-60aaa23306ae","ios":"levelo://app?vid=ce25a071-3871-4c92-bc83-60aaa23306ae"},"vehicle_type_id":"4","last_reported":1706962302,"current_range_meters":17600,"station_id":"ce4bgv12rcd13ifvqcp0","pricing_plan_id":"free"},{"bike_id":"a3986f0e-814e-48e6-a243-b34d6ed456cc","system_id":"levelo_inurba_marseille","lat":43.311722,"lon":5.387247,"is_reserved":false,"is_disabled":false,"rental_uris":{"android":"levelo://app?vid=a3986f0e-814e-48e6-a243-b34d6ed456cc","ios":"levelo://app?vid=a3986f0e-814e-48e6-a243-b34d6ed456cc"},"vehicle_type_id":"4","last_reported":1706962302,"current_range_meters":23600,"station_id":"ce4bgv12rcd13ifvqcp0","pricing_plan_id":"free"},{"bike_id":"4a0a920b-5066-47fc-84dc-3b350ee738a7","system_id":"levelo_inurba_marseille","lat":43.299243,"lon":5.37481,"is_reserved":false,"is_disabled":false,"rental_uris":{"android":"levelo://app?vid=4a0a920b-5066-47fc-84dc-3b350ee738a7","ios":"levelo://app?vid=4a0a920b-5066-47fc-84dc-3b350ee738a7"},"vehicle_type_id":"4","last_reported":1706962302,"current_range_meters":24400,"station_id":"ce4bgjh2rcd13ifvqbg0","pricing_plan_id":"free"},{"bike_id":"05427d21-c059-4ad1-b9ef-d0feb62e9312","system_id":"levelo_inurba_marseille","lat":43.297819,"lon":5.370959,"is_reserved":false,"is_disabled":false,"rental_uris":{"android":"levelo://app?vid=05427d21-c059-4ad1-b9ef-d0feb62e9312","ios":"levelo://app?vid=05427d21-c059-4ad1-b9ef-d0feb62e9312"},"vehicle_type_id":"4","last_reported":1706962302,"current_range_meters":11600,"station_id":"ce4bgop2rcd13ifvqc1g","pricing_plan_id":"free"},{"bike_id":"810090ed-b875-4d23-9604-87e7799d0887","system_id":"levelo_inurba_marseille","lat":43.297794,"lon":5.370888,"is_reserved":false,"is_disabled":false,"rental_uris":{"android":"levelo://app?vid=810090ed-b875-4d23-9604-87e7799d0887","ios":"levelo://app?vid=810090ed-b875-4d23-9604-87e7799d0887"},"vehicle_type_id":"4","last_reported":1706962302,"current_range_meters":30000,"station_id":"ce4bgop2rcd13ifvqc1g","pricing_plan_id":"free"},{"bike_id":"568489f5-e86e-401b-b122-e4d6cbfebfae","system_id":"levelo_inurba_marseille","lat":43.297794,"lon":5.370888,"is_reserved":false,"is_disabled":false,"rental_uris":{"android":"levelo://app?vid=568489f5-e86e-401b-b122-e4d6cbfebfae","ios":"levelo://app?vid=568489f5-e86e-401b-b122-e4d6cbfebfae"},"vehicle_type_id":"4","last_reported":1706962302,"current_range_meters":23600,"station_id":"ce4bgop2rcd13ifvqc1g","pricing_plan_id":"free"},{"bike_id":"42b74482-c050-4d2d-9c8e-d4ebe1eb1e2d","system_id":"levelo_inurba_marseille","lat":43.322872,"lon":5.382756,"is_reserved":false,"is_disabled":false,"rental_uris":{"android":"levelo://app?vid=42b74482-c050-4d2d-9c8e-d4ebe1eb1e2d","ios":"levelo://app?vid=42b74482-c050-4d2d-9c8e-d4ebe1eb1e2d"},"vehicle_type_id":"4","last_reported":1706962302,"current_range_meters":28000,"station_id":"ce4bhr12rcd13ifvqhqg","pricing_plan_id":"free"},{"bike_id":"9f7634e7-582f-41d6-9105-311f5ab3e824","system_id":"levelo_inurba_marseille","lat":43.297794,"lon":5.370888,"is_reserved":false,"is_disabled":false,"rental_uris":{"android":"levelo://app?vid=9f7634e7-582f-41d6-9105-311f5ab3e824","ios":"levelo://app?vid=9f7634e7-582f-41d6-9105-311f5ab3e824"},"vehicle_type_id":"4","last_reported":1706962302,"current_range_meters":23600,"station_id":"ce4bgop2rcd13ifvqc1g","pricing_plan_id":"free"},{"bike_id":"d53f42d9-7db7-4d2f-988f-e0226fe86be1","system_id":"levelo_inurba_marseille","lat":43.297774,"lon":5.370875,"is_reserved":false,"is_disabled":false,"rental_uris":{"android":"levelo://app?vid=d53f42d9-7db7-4d2f-988f-e0226fe86be1","ios":"levelo://app?vid=d53f42d9-7db7-4d2f-988f-e0226fe86be1"},"vehicle_type_id":"4","last_reported":1706962302,"current_range_meters":26800,"station_id":"ce4bgop2rcd13ifvqc1g","pricing_plan_id":"free"},{"bike_id":"6ac13fac-aa48-40c7-97e2-1006df74a855","system_id":"levelo_inurba_marseille","lat":43.297774,"lon":5.370875,"is_reserved":false,"is_disabled":false,"rental_uris":{"android":"levelo://app?vid=6ac13fac-aa48-40c7-97e2-1006df74a855","ios":"levelo://app?vid=6ac13fac-aa48-40c7-97e2-1006df74a855"},"vehicle_type_id":"4","last_reported":1706962302,"current_range_meters":21200,"station_id":"ce4bgop2rcd13ifvqc1g","pricing_plan_id":"free"},{"bike_id":"8b023912-5267-4e1c-a403-4d70b425cebe","system_id":"levelo_inurba_marseille","lat":43.322872,"lon":5.382756,"is_reserved":false,"is_disabled":false,"rental_uris":{"android":"levelo://app?vid=8b023912-5267-4e1c-a403-4d70b425cebe","ios":"levelo://app?vid=8b023912-5267-4e1c-a403-4d70b425cebe"},"vehicle_type_id":"4","last_reported":1706962302,"current_range_meters":30400,"station_id":"ce4bhr12rcd13ifvqhqg","pricing_plan_id":"free"},{"bike_id":"f2cf20c9-73a3-450b-a076-08d7d9d1d18f","system_id":"levelo_inurba_marseille","lat":43.297774,"lon":5.370875,"is_reserved":false,"is_disabled":false,"rental_uris":{"android":"levelo://app?vid=f2cf20c9-73a3-450b-a076-08d7d9d1d18f","ios":"levelo://app?vid=f2cf20c9-73a3-450b-a076-08d7d9d1d18f"},"vehicle_type_id":"4","last_reported":1706962302,"current_range_meters":26800,"station_id":"ce4bgop2rcd13ifvqc1g","pricing_plan_id":"free"},{"bike_id":"ab22a9f9-4426-4a48-9339-d0847e65fb60","system_id":"levelo_inurba_marseille","lat":43.328371,"lon":5.366909,"is_reserved":false,"is_disabled":false,"rental_uris":{"android":"levelo://app?vid=ab22a9f9-4426-4a48-9339-d0847e65fb60","ios":"levelo://app?vid=ab22a9f9-4426-4a48-9339-d0847e65fb60"},"vehicle_type_id":"4","last_reported":1706962302,"current_range_meters":4800,"station_id":"ce4bhs92rcd13ifvqi0g","pricing_plan_id":"free"},{"bike_id":"1900e2ea-9239-49b1-933e-57903fa99707","system_id":"levelo_inurba_marseille","lat":43.32826,"lon":5.36695,"is_reserved":false,"is_disabled":false,"rental_uris":{"android":"levelo://app?vid=1900e2ea-9239-49b1-933e-57903fa99707","ios":"levelo://app?vid=1900e2ea-9239-49b1-933e-57903fa99707"},"vehicle_type_id":"4","last_reported":1706962302,"current_range_meters":14800,"station_id":"ce4bhs92rcd13ifvqi0g","pricing_plan_id":"free"},{"bike_id":"a35863f2-8c03-40c6-9bb7-86ea3fc51f1c","system_id":"levelo_inurba_marseille","lat":43.328371,"lon":5.366909,"is_reserved":false,"is_disabled":false,"rental_uris":{"android":"levelo://app?vid=a35863f2-8c03-40c6-9bb7-86ea3fc51f1c","ios":"levelo://app?vid=a35863f2-8c03-40c6-9bb7-86ea3fc51f1c"},"vehicle_type_id":"4","last_reported":1706962302,"current_range_meters":1600,"station_id":"ce4bhs92rcd13ifvqi0g","pricing_plan_id":"free"},{"bike_id":"e6dd00ea-9cad-4044-800a-7e90ad8c2a7f","system_id":"levelo_inurba_marseille","lat":43.32829,"lon":5.36686,"is_reserved":false,"is_disabled":false,"rental_uris":{"android":"levelo://app?vid=e6dd00ea-9cad-4044-800a-7e90ad8c2a7f","ios":"levelo://app?vid=e6dd00ea-9cad-4044-800a-7e90ad8c2a7f"},"vehicle_type_id":"4","last_reported":1706962302,"current_range_meters":7600,"station_id":"ce4bhs92rcd13ifvqi0g","pricing_plan_id":"free"},{"bike_id":"17160099-6a9a-446f-af4f-8011a67adff1","system_id":"levelo_inurba_marseille","lat":43.3283,"lon":5.36678,"is_reserved":false,"is_disabled":false,"rental_uris":{"android":"levelo://app?vid=17160099-6a9a-446f-af4f-8011a67adff1","ios":"levelo://app?vid=17160099-6a9a-446f-af4f-8011a67adff1"},"vehicle_type_id":"4","last_reported":1706962302,"current_range_meters":23600,"station_id":"ce4bhs92rcd13ifvqi0g","pricing_plan_id":"free"},{"bike_id":"96e20f56-7d35-4c5d-8e6b-2cd5f355c395","system_id":"levelo_inurba_marseille","lat":43.328371,"lon":5.366909,"is_reserved":false,"is_disabled":false,"rental_uris":{"android":"levelo://app?vid=96e20f56-7d35-4c5d-8e6b-2cd5f355c395","ios":"levelo://app?vid=96e20f56-7d35-4c5d-8e6b-2cd5f355c395"},"vehicle_type_id":"4","last_reported":1706962302,"current_range_meters":26800,"station_id":"ce4bhs92rcd13ifvqi0g","pricing_plan_id":"free"},{"bike_id":"757c94ef-0260-4e65-8f42-9a2ff02436ff","system_id":"levelo_inurba_marseille","lat":43.328371,"lon":5.366909,"is_reserved":false,"is_disabled":false,"rental_uris":{"android":"levelo://app?vid=757c94ef-0260-4e65-8f42-9a2ff02436ff","ios":"levelo://app?vid=757c94ef-0260-4e65-8f42-9a2ff02436ff"},"vehicle_type_id":"4","last_reported":1706962302,"current_range_meters":1200,"station_id":"ce4bhs92rcd13ifvqi0g","pricing_plan_id":"free"},{"bike_id":"20a18927-8d15-41ed-b864-674ad4d4174b","system_id":"levelo_inurba_marseille","lat":43.328371,"lon":5.366909,"is_reserved":false,"is_disabled":false,"rental_uris":{"android":"levelo://app?vid=20a18927-8d15-41ed-b864-674ad4d4174b","ios":"levelo://app?vid=20a18927-8d15-41ed-b864-674ad4d4174b"},"vehicle_type_id":"4","last_reported":1706962302,"current_range_meters":21600,"station_id":"ce4bhs92rcd13ifvqi0g","pricing_plan_id":"free"},{"bike_id":"1de0aaf9-3504-4bf1-8065-01e63cdfb656","system_id":"levelo_inurba_marseille","lat":43.297163,"lon":5.365866,"is_reserved":false,"is_disabled":false,"rental_uris":{"android":"levelo://app?vid=1de0aaf9-3504-4bf1-8065-01e63cdfb656","ios":"levelo://app?vid=1de0aaf9-3504-4bf1-8065-01e63cdfb656"},"vehicle_type_id":"4","last_reported":1706962302,"current_range_meters":24800,"station_id":"ce4bgn12rcd13ifvqbt0","pricing_plan_id":"free"},{"bike_id":"0ee05ab8-9cac-44c2-b4ff-b93bf1251893","system_id":"levelo_inurba_marseille","lat":43.296131,"lon":5.370773,"is_reserved":false,"is_disabled":false,"rental_uris":{"android":"levelo://app?vid=0ee05ab8-9cac-44c2-b4ff-b93bf1251893","ios":"levelo://app?vid=0ee05ab8-9cac-44c2-b4ff-b93bf1251893"},"vehicle_type_id":"4","last_reported":1706962302,"current_range_meters":28000,"station_id":"ce4bgnh2rcd13ifvqc0g","pricing_plan_id":"free"},{"bike_id":"58274f75-a826-4dfd-8120-0c8f9215fef3","system_id":"levelo_inurba_marseille","lat":43.296131,"lon":5.370791,"is_reserved":false,"is_disabled":false,"rental_uris":{"android":"levelo://app?vid=58274f75-a826-4dfd-8120-0c8f9215fef3","ios":"levelo://app?vid=58274f75-a826-4dfd-8120-0c8f9215fef3"},"vehicle_type_id":"4","last_reported":1706962302,"current_range_meters":28400,"station_id":"ce4bgnh2rcd13ifvqc0g","pricing_plan_id":"free"},{"bike_id":"cc081aeb-4e24-4b32-87c6-8363f28e98a0","system_id":"levelo_inurba_marseille","lat":43.296131,"lon":5.370791,"is_reserved":false,"is_disabled":false,"rental_uris":{"android":"levelo://app?vid=cc081aeb-4e24-4b32-87c6-8363f28e98a0","ios":"levelo://app?vid=cc081aeb-4e24-4b32-87c6-8363f28e98a0"},"vehicle_type_id":"4","last_reported":1706962302,"current_range_meters":28800,"station_id":"ce4bgnh2rcd13ifvqc0g","pricing_plan_id":"free"},{"bike_id":"6e8ea96c-c0c4-4ac0-a12e-063a693e48a8","system_id":"levelo_inurba_marseille","lat":43.296131,"lon":5.370791,"is_reserved":false,"is_disabled":false,"rental_uris":{"android":"levelo://app?vid=6e8ea96c-c0c4-4ac0-a12e-063a693e48a8","ios":"levelo://app?vid=6e8ea96c-c0c4-4ac0-a12e-063a693e48a8"},"vehicle_type_id":"4","last_reported":1706962302,"current_range_meters":26800,"station_id":"ce4bgnh2rcd13ifvqc0g","pricing_plan_id":"free"},{"bike_id":"67320c64-521a-46fc-9ac4-851b26dd377a","system_id":"levelo_inurba_marseille","lat":43.296131,"lon":5.370791,"is_reserved":false,"is_disabled":false,"rental_uris":{"android":"levelo://app?vid=67320c64-521a-46fc-9ac4-851b26dd377a","ios":"levelo://app?vid=67320c64-521a-46fc-9ac4-851b26dd377a"},"vehicle_type_id":"4","last_reported":1706962302,"current_range_meters":29200,"station_id":"ce4bgnh2rcd13ifvqc0g","pricing_plan_id":"free"},{"bike_id":"91ec2330-b0af-47df-b562-1ff93799ec36","system_id":"levelo_inurba_marseille","lat":43.296131,"lon":5.370791,"is_reserved":false,"is_disabled":false,"rental_uris":{"android":"levelo://app?vid=91ec2330-b0af-47df-b562-1ff93799ec36","ios":"levelo://app?vid=91ec2330-b0af-47df-b562-1ff93799ec36"},"vehicle_type_id":"4","last_reported":1706962302,"current_range_meters":28000,"station_id":"ce4bgnh2rcd13ifvqc0g","pricing_plan_id":"free"},{"bike_id":"6d89dfa2-1015-4e76-8da6-c81c33940315","system_id":"levelo_inurba_marseille","lat":43.296129,"lon":5.370777,"is_reserved":false,"is_disabled":false,"rental_uris":{"android":"levelo://app?vid=6d89dfa2-1015-4e76-8da6-c81c33940315","ios":"levelo://app?vid=6d89dfa2-1015-4e76-8da6-c81c33940315"},"vehicle_type_id":"4","last_reported":1706962302,"current_range_meters":24400,"station_id":"ce4bgnh2rcd13ifvqc0g","pricing_plan_id":"free"},{"bike_id":"f54141ac-fbc7-4054-82a6-29d90792eb4b","system_id":"levelo_inurba_marseille","lat":43.296131,"lon":5.370791,"is_reserved":false,"is_disabled":false,"rental_uris":{"android":"levelo://app?vid=f54141ac-fbc7-4054-82a6-29d90792eb4b","ios":"levelo://app?vid=f54141ac-fbc7-4054-82a6-29d90792eb4b"},"vehicle_type_id":"4","last_reported":1706962302,"current_range_meters":30800,"station_id":"ce4bgnh2rcd13ifvqc0g","pricing_plan_id":"free"},{"bike_id":"ddb67584-07be-4f1a-b00b-86dad9d99fa6","system_id":"levelo_inurba_marseille","lat":43.29583,"lon":5.36736,"is_reserved":false,"is_disabled":false,"rental_uris":{"android":"levelo://app?vid=ddb67584-07be-4f1a-b00b-86dad9d99fa6","ios":"levelo://app?vid=ddb67584-07be-4f1a-b00b-86dad9d99fa6"},"vehicle_type_id":"4","last_reported":1706962302,"current_range_meters":30800,"station_id":"ce4bgph2rcd13ifvqc2g","pricing_plan_id":"free"},{"bike_id":"2d978aff-1452-48c4-bae9-c4f596b59a17","system_id":"levelo_inurba_marseille","lat":43.29573,"lon":5.367355,"is_reserved":false,"is_disabled":false,"rental_uris":{"android":"levelo://app?vid=2d978aff-1452-48c4-bae9-c4f596b59a17","ios":"levelo://app?vid=2d978aff-1452-48c4-bae9-c4f596b59a17"},"vehicle_type_id":"4","last_reported":1706962302,"current_range_meters":25600,"station_id":"ce4bgph2rcd13ifvqc2g","pricing_plan_id":"free"},{"bike_id":"5b63398d-3e00-4632-aaa1-a66a0bd6b5ef","system_id":"levelo_inurba_marseille","lat":43.29573,"lon":5.367355,"is_reserved":false,"is_disabled":false,"rental_uris":{"android":"levelo://app?vid=5b63398d-3e00-4632-aaa1-a66a0bd6b5ef","ios":"levelo://app?vid=5b63398d-3e00-4632-aaa1-a66a0bd6b5ef"},"vehicle_type_id":"4","last_reported":1706962302,"current_range_meters":26800,"station_id":"ce4bgph2rcd13ifvqc2g","pricing_plan_id":"free"},{"bike_id":"d6c84fab-8f0b-4b63-b706-8d20dfbc72a9","system_id":"levelo_inurba_marseille","lat":43.295806,"lon":5.367398,"is_reserved":false,"is_disabled":false,"rental_uris":{"android":"levelo://app?vid=d6c84fab-8f0b-4b63-b706-8d20dfbc72a9","ios":"levelo://app?vid=d6c84fab-8f0b-4b63-b706-8d20dfbc72a9"},"vehicle_type_id":"4","last_reported":1706962302,"current_range_meters":27200,"station_id":"","pricing_plan_id":"free"},{"bike_id":"69a7c7dc-cd2b-4017-9202-20ead1bdad40","system_id":"levelo_inurba_marseille","lat":43.295803,"lon":5.367375,"is_reserved":false,"is_disabled":false,"rental_uris":{"android":"levelo://app?vid=69a7c7dc-cd2b-4017-9202-20ead1bdad40","ios":"levelo://app?vid=69a7c7dc-cd2b-4017-9202-20ead1bdad40"},"vehicle_type_id":"4","last_reported":1706962302,"current_range_meters":29200,"station_id":"ce4bgph2rcd13ifvqc2g","pricing_plan_id":"free"},{"bike_id":"fa30a797-770e-46d8-b634-6faa16c113a5","system_id":"levelo_inurba_marseille","lat":43.295798,"lon":5.367393,"is_reserved":false,"is_disabled":false,"rental_uris":{"android":"levelo://app?vid=fa30a797-770e-46d8-b634-6faa16c113a5","ios":"levelo://app?vid=fa30a797-770e-46d8-b634-6faa16c113a5"},"vehicle_type_id":"4","last_reported":1706962302,"current_range_meters":30000,"station_id":"","pricing_plan_id":"free"},{"bike_id":"521804de-16c1-48aa-969a-9e4c48a0d819","system_id":"levelo_inurba_marseille","lat":43.29573,"lon":5.367355,"is_reserved":false,"is_disabled":false,"rental_uris":{"android":"levelo://app?vid=521804de-16c1-48aa-969a-9e4c48a0d819","ios":"levelo://app?vid=521804de-16c1-48aa-969a-9e4c48a0d819"},"vehicle_type_id":"4","last_reported":1706962302,"current_range_meters":25200,"station_id":"ce4bgph2rcd13ifvqc2g","pricing_plan_id":"free"},{"bike_id":"c15fd7d3-c739-48a1-985b-c2912d0ad3d6","system_id":"levelo_inurba_marseille","lat":43.29578,"lon":5.36741,"is_reserved":false,"is_disabled":false,"rental_uris":{"android":"levelo://app?vid=c15fd7d3-c739-48a1-985b-c2912d0ad3d6","ios":"levelo://app?vid=c15fd7d3-c739-48a1-985b-c2912d0ad3d6"},"vehicle_type_id":"4","last_reported":1706962302,"current_range_meters":20400,"station_id":"ce4bgph2rcd13ifvqc2g","pricing_plan_id":"free"},{"bike_id":"1b53288d-987c-4ac9-b3c6-d169e5e6b35e","system_id":"levelo_inurba_marseille","lat":43.296935,"lon":5.376544,"is_reserved":false,"is_disabled":false,"rental_uris":{"android":"levelo://app?vid=1b53288d-987c-4ac9-b3c6-d169e5e6b35e","ios":"levelo://app?vid=1b53288d-987c-4ac9-b3c6-d169e5e6b35e"},"vehicle_type_id":"4","last_reported":1706962302,"current_range_meters":12400,"station_id":"ce4bgkh2rcd13ifvqbl0","pricing_plan_id":"free"},{"bike_id":"58de8463-8eba-463b-be9f-c14a758e3a65","system_id":"levelo_inurba_marseille","lat":43.296921,"lon":5.376579,"is_reserved":false,"is_disabled":false,"rental_uris":{"android":"levelo://app?vid=58de8463-8eba-463b-be9f-c14a758e3a65","ios":"levelo://app?vid=58de8463-8eba-463b-be9f-c14a758e3a65"},"vehicle_type_id":"4","last_reported":1706962302,"current_range_meters":21200,"station_id":"ce4bgkh2rcd13ifvqbl0","pricing_plan_id":"free"},{"bike_id":"f5047dcd-72a1-41be-b0e2-cdd469d6cf73","system_id":"levelo_inurba_marseille","lat":43.299028,"lon":5.381509,"is_reserved":false,"is_disabled":false,"rental_uris":{"android":"levelo://app?vid=f5047dcd-72a1-41be-b0e2-cdd469d6cf73","ios":"levelo://app?vid=f5047dcd-72a1-41be-b0e2-cdd469d6cf73"},"vehicle_type_id":"4","last_reported":1706962302,"current_range_meters":28800,"station_id":"ce4bgj12rcd13ifvqbc0","pricing_plan_id":"free"},{"bike_id":"013e4c0b-eae9-40fa-8a94-45007b210aa9","system_id":"levelo_inurba_marseille","lat":43.296935,"lon":5.376544,"is_reserved":false,"is_disabled":false,"rental_uris":{"android":"levelo://app?vid=013e4c0b-eae9-40fa-8a94-45007b210aa9","ios":"levelo://app?vid=013e4c0b-eae9-40fa-8a94-45007b210aa9"},"vehicle_type_id":"4","last_reported":1706962302,"current_range_meters":17200,"station_id":"ce4bgkh2rcd13ifvqbl0","pricing_plan_id":"free"},{"bike_id":"09969a90-f469-43bf-b2de-3b533c2efc0f","system_id":"levelo_inurba_marseille","lat":43.296935,"lon":5.376544,"is_reserved":false,"is_disabled":false,"rental_uris":{"android":"levelo://app?vid=09969a90-f469-43bf-b2de-3b533c2efc0f","ios":"levelo://app?vid=09969a90-f469-43bf-b2de-3b533c2efc0f"},"vehicle_type_id":"4","last_reported":1706962302,"current_range_meters":25200,"station_id":"ce4bgkh2rcd13ifvqbl0","pricing_plan_id":"free"},{"bike_id":"e5ac0e3b-855b-46c2-961d-c954f8cc6363","system_id":"levelo_inurba_marseille","lat":43.299028,"lon":5.381509,"is_reserved":false,"is_disabled":false,"rental_uris":{"android":"levelo://app?vid=e5ac0e3b-855b-46c2-961d-c954f8cc6363","ios":"levelo://app?vid=e5ac0e3b-855b-46c2-961d-c954f8cc6363"},"vehicle_type_id":"4","last_reported":1706962302,"current_range_meters":23200,"station_id":"ce4bgj12rcd13ifvqbc0","pricing_plan_id":"free"},{"bike_id":"00237a85-4002-4b5f-a3e7-3b2f7e58c399","system_id":"levelo_inurba_marseille","lat":43.309589,"lon":5.390258,"is_reserved":false,"is_disabled":false,"rental_uris":{"android":"levelo://app?vid=00237a85-4002-4b5f-a3e7-3b2f7e58c399","ios":"levelo://app?vid=00237a85-4002-4b5f-a3e7-3b2f7e58c399"},"vehicle_type_id":"4","last_reported":1706962302,"current_range_meters":28800,"station_id":"ce4bgup2rcd13ifvqco0","pricing_plan_id":"free"},{"bike_id":"a22d0657-6c01-4871-9c27-0ef192dc1559","system_id":"levelo_inurba_marseille","lat":43.317557,"lon":5.390173,"is_reserved":false,"is_disabled":false,"rental_uris":{"android":"levelo://app?vid=a22d0657-6c01-4871-9c27-0ef192dc1559","ios":"levelo://app?vid=a22d0657-6c01-4871-9c27-0ef192dc1559"},"vehicle_type_id":"4","last_reported":1706962302,"current_range_meters":24000,"station_id":"ce4bhqp2rcd13ifvqhng","pricing_plan_id":"free"},{"bike_id":"106fe314-0813-4817-8722-724f217949ab","system_id":"levelo_inurba_marseille","lat":43.31756,"lon":5.39018,"is_reserved":false,"is_disabled":false,"rental_uris":{"android":"levelo://app?vid=106fe314-0813-4817-8722-724f217949ab","ios":"levelo://app?vid=106fe314-0813-4817-8722-724f217949ab"},"vehicle_type_id":"4","last_reported":1706962302,"current_range_meters":24400,"station_id":"ce4bhqp2rcd13ifvqhng","pricing_plan_id":"free"},{"bike_id":"86eba5ee-3f3e-465e-879d-a26eca611b6f","system_id":"levelo_inurba_marseille","lat":43.31818,"lon":5.39026,"is_reserved":false,"is_disabled":false,"rental_uris":{"android":"levelo://app?vid=86eba5ee-3f3e-465e-879d-a26eca611b6f","ios":"levelo://app?vid=86eba5ee-3f3e-465e-879d-a26eca611b6f"},"vehicle_type_id":"4","last_reported":1706962302,"current_range_meters":21600,"station_id":"","pricing_plan_id":"free"},{"bike_id":"def8d4bb-8d5e-47b5-bb9b-be110407d986","system_id":"levelo_inurba_marseille","lat":43.295748,"lon":5.37522,"is_reserved":false,"is_disabled":false,"rental_uris":{"android":"levelo://app?vid=def8d4bb-8d5e-47b5-bb9b-be110407d986","ios":"levelo://app?vid=def8d4bb-8d5e-47b5-bb9b-be110407d986"},"vehicle_type_id":"4","last_reported":1706962302,"current_range_meters":25200,"station_id":"ce4bgh92rcd13ifvqb50","pricing_plan_id":"free"},{"bike_id":"cd82cf33-ce6e-40c9-bde2-109153df1334","system_id":"levelo_inurba_marseille","lat":43.298037,"lon":5.381066,"is_reserved":false,"is_disabled":false,"rental_uris":{"android":"levelo://app?vid=cd82cf33-ce6e-40c9-bde2-109153df1334","ios":"levelo://app?vid=cd82cf33-ce6e-40c9-bde2-109153df1334"},"vehicle_type_id":"4","last_reported":1706962302,"current_range_meters":20000,"station_id":"ce4bgip2rcd13ifvqbb0","pricing_plan_id":"free"},{"bike_id":"fb1680ef-38a3-4104-8d35-6abd861ec2c5","system_id":"levelo_inurba_marseille","lat":43.304278,"lon":5.388904,"is_reserved":false,"is_disabled":false,"rental_uris":{"android":"levelo://app?vid=fb1680ef-38a3-4104-8d35-6abd861ec2c5","ios":"levelo://app?vid=fb1680ef-38a3-4104-8d35-6abd861ec2c5"},"vehicle_type_id":"4","last_reported":1706962302,"current_range_meters":30800,"station_id":"ce4bgk12rcd13ifvqbi0","pricing_plan_id":"free"},{"bike_id":"e0bf8a7d-5b91-43c5-bdc7-78a04a79e652","system_id":"levelo_inurba_marseille","lat":43.304278,"lon":5.388868,"is_reserved":false,"is_disabled":false,"rental_uris":{"android":"levelo://app?vid=e0bf8a7d-5b91-43c5-bdc7-78a04a79e652","ios":"levelo://app?vid=e0bf8a7d-5b91-43c5-bdc7-78a04a79e652"},"vehicle_type_id":"4","last_reported":1706962302,"current_range_meters":30400,"station_id":"ce4bgk12rcd13ifvqbi0","pricing_plan_id":"free"},{"bike_id":"ed4b29b3-b442-47b8-891d-557416bd4253","system_id":"levelo_inurba_marseille","lat":43.295279,"lon":5.375048,"is_reserved":false,"is_disabled":false,"rental_uris":{"android":"levelo://app?vid=ed4b29b3-b442-47b8-891d-557416bd4253","ios":"levelo://app?vid=ed4b29b3-b442-47b8-891d-557416bd4253"},"vehicle_type_id":"4","last_reported":1706962302,"current_range_meters":15600,"station_id":"ce4bgkp2rcd13ifvqbmg","pricing_plan_id":"free"},{"bike_id":"7726434d-83b8-4fc0-b635-1a58dfbf1b85","system_id":"levelo_inurba_marseille","lat":43.295279,"lon":5.375048,"is_reserved":false,"is_disabled":false,"rental_uris":{"android":"levelo://app?vid=7726434d-83b8-4fc0-b635-1a58dfbf1b85","ios":"levelo://app?vid=7726434d-83b8-4fc0-b635-1a58dfbf1b85"},"vehicle_type_id":"4","last_reported":1706962302,"current_range_meters":29200,"station_id":"ce4bgkp2rcd13ifvqbmg","pricing_plan_id":"free"},{"bike_id":"f208a6a5-fb1c-4e1d-a505-d439d6420ee4","system_id":"levelo_inurba_marseille","lat":43.295279,"lon":5.375048,"is_reserved":false,"is_disabled":false,"rental_uris":{"android":"levelo://app?vid=f208a6a5-fb1c-4e1d-a505-d439d6420ee4","ios":"levelo://app?vid=f208a6a5-fb1c-4e1d-a505-d439d6420ee4"},"vehicle_type_id":"4","last_reported":1706962302,"current_range_meters":24800,"station_id":"ce4bgkp2rcd13ifvqbmg","pricing_plan_id":"free"},{"bike_id":"2f639903-b097-46b0-8494-0017af56b0e6","system_id":"levelo_inurba_marseille","lat":43.3236,"lon":5.38876,"is_reserved":false,"is_disabled":false,"rental_uris":{"android":"levelo://app?vid=2f639903-b097-46b0-8494-0017af56b0e6","ios":"levelo://app?vid=2f639903-b097-46b0-8494-0017af56b0e6"},"vehicle_type_id":"4","last_reported":1706962302,"current_range_meters":18000,"station_id":"ce4bhqp2rcd13ifvqhog","pricing_plan_id":"free"},{"bike_id":"80aebc65-9276-4106-9147-2143e4c2833e","system_id":"levelo_inurba_marseille","lat":43.323593,"lon":5.388811,"is_reserved":false,"is_disabled":false,"rental_uris":{"android":"levelo://app?vid=80aebc65-9276-4106-9147-2143e4c2833e","ios":"levelo://app?vid=80aebc65-9276-4106-9147-2143e4c2833e"},"vehicle_type_id":"4","last_reported":1706962302,"current_range_meters":7200,"station_id":"ce4bhqp2rcd13ifvqhog","pricing_plan_id":"free"},{"bike_id":"bd7baa57-26d7-4c18-b549-ec7ad71dded2","system_id":"levelo_inurba_marseille","lat":43.311023,"lon":5.393311,"is_reserved":false,"is_disabled":false,"rental_uris":{"android":"levelo://app?vid=bd7baa57-26d7-4c18-b549-ec7ad71dded2","ios":"levelo://app?vid=bd7baa57-26d7-4c18-b549-ec7ad71dded2"},"vehicle_type_id":"4","last_reported":1706962302,"current_range_meters":0,"station_id":"","pricing_plan_id":"free"},{"bike_id":"a763ba73-be1b-47fe-b1b9-a14bd81f3a01","system_id":"levelo_inurba_marseille","lat":43.32367,"lon":5.388836,"is_reserved":false,"is_disabled":false,"rental_uris":{"android":"levelo://app?vid=a763ba73-be1b-47fe-b1b9-a14bd81f3a01","ios":"levelo://app?vid=a763ba73-be1b-47fe-b1b9-a14bd81f3a01"},"vehicle_type_id":"4","last_reported":1706962302,"current_range_meters":20000,"station_id":"ce4bhqp2rcd13ifvqhog","pricing_plan_id":"free"},{"bike_id":"6a7c4f77-4b56-4b64-9e96-797a5ff1d65e","system_id":"levelo_inurba_marseille","lat":43.32366,"lon":5.3888,"is_reserved":false,"is_disabled":false,"rental_uris":{"android":"levelo://app?vid=6a7c4f77-4b56-4b64-9e96-797a5ff1d65e","ios":"levelo://app?vid=6a7c4f77-4b56-4b64-9e96-797a5ff1d65e"},"vehicle_type_id":"4","last_reported":1706962302,"current_range_meters":28000,"station_id":"ce4bhqp2rcd13ifvqhog","pricing_plan_id":"free"},{"bike_id":"522745f2-6505-4a93-9a55-5c66eaece61d","system_id":"levelo_inurba_marseille","lat":43.32361,"lon":5.38885,"is_reserved":false,"is_disabled":false,"rental_uris":{"android":"levelo://app?vid=522745f2-6505-4a93-9a55-5c66eaece61d","ios":"levelo://app?vid=522745f2-6505-4a93-9a55-5c66eaece61d"},"vehicle_type_id":"4","last_reported":1706962302,"current_range_meters":2800,"station_id":"ce4bhqp2rcd13ifvqhog","pricing_plan_id":"free"},{"bike_id":"13b9c551-9d4a-4e3d-8b94-3ec930896106","system_id":"levelo_inurba_marseille","lat":43.32365,"lon":5.38882,"is_reserved":false,"is_disabled":false,"rental_uris":{"android":"levelo://app?vid=13b9c551-9d4a-4e3d-8b94-3ec930896106","ios":"levelo://app?vid=13b9c551-9d4a-4e3d-8b94-3ec930896106"},"vehicle_type_id":"4","last_reported":1706962302,"current_range_meters":31200,"station_id":"ce4bhqp2rcd13ifvqhog","pricing_plan_id":"free"},{"bike_id":"e3ee28ba-cab5-40e7-ba5c-728151521cef","system_id":"levelo_inurba_marseille","lat":43.32366,"lon":5.38883,"is_reserved":false,"is_disabled":false,"rental_uris":{"android":"levelo://app?vid=e3ee28ba-cab5-40e7-ba5c-728151521cef","ios":"levelo://app?vid=e3ee28ba-cab5-40e7-ba5c-728151521cef"},"vehicle_type_id":"4","last_reported":1706962302,"current_range_meters":6800,"station_id":"ce4bhqp2rcd13ifvqhog","pricing_plan_id":"free"},{"bike_id":"cabe25cb-ec0b-4dc3-8feb-44741e6dd484","system_id":"levelo_inurba_marseille","lat":43.32368,"lon":5.38887,"is_reserved":false,"is_disabled":false,"rental_uris":{"android":"levelo://app?vid=cabe25cb-ec0b-4dc3-8feb-44741e6dd484","ios":"levelo://app?vid=cabe25cb-ec0b-4dc3-8feb-44741e6dd484"},"vehicle_type_id":"4","last_reported":1706962302,"current_range_meters":3600,"station_id":"ce4bhqp2rcd13ifvqhog","pricing_plan_id":"free"},{"bike_id":"1aca591f-66c1-4cab-8b35-fdb227e8bbbc","system_id":"levelo_inurba_marseille","lat":43.32367,"lon":5.388836,"is_reserved":false,"is_disabled":false,"rental_uris":{"android":"levelo://app?vid=1aca591f-66c1-4cab-8b35-fdb227e8bbbc","ios":"levelo://app?vid=1aca591f-66c1-4cab-8b35-fdb227e8bbbc"},"vehicle_type_id":"4","last_reported":1706962302,"current_range_meters":31200,"station_id":"ce4bhqp2rcd13ifvqhog","pricing_plan_id":"free"},{"bike_id":"9b081c91-637e-47ff-a6d8-ba13bb5f1be4","system_id":"levelo_inurba_marseille","lat":43.32367,"lon":5.388836,"is_reserved":false,"is_disabled":false,"rental_uris":{"android":"levelo://app?vid=9b081c91-637e-47ff-a6d8-ba13bb5f1be4","ios":"levelo://app?vid=9b081c91-637e-47ff-a6d8-ba13bb5f1be4"},"vehicle_type_id":"4","last_reported":1706962302,"current_range_meters":31200,"station_id":"ce4bhqp2rcd13ifvqhog","pricing_plan_id":"free"},{"bike_id":"18404bed-ce1e-473b-aece-adabd7292081","system_id":"levelo_inurba_marseille","lat":43.29601,"lon":5.381084,"is_reserved":false,"is_disabled":false,"rental_uris":{"android":"levelo://app?vid=18404bed-ce1e-473b-aece-adabd7292081","ios":"levelo://app?vid=18404bed-ce1e-473b-aece-adabd7292081"},"vehicle_type_id":"4","last_reported":1706962302,"current_range_meters":4400,"station_id":"ce4bgl12rcd13ifvqbo0","pricing_plan_id":"free"},{"bike_id":"f6c71fe8-64f8-4606-90ca-a925fe52bbff","system_id":"levelo_inurba_marseille","lat":43.292749,"lon":5.368402,"is_reserved":false,"is_disabled":false,"rental_uris":{"android":"levelo://app?vid=f6c71fe8-64f8-4606-90ca-a925fe52bbff","ios":"levelo://app?vid=f6c71fe8-64f8-4606-90ca-a925fe52bbff"},"vehicle_type_id":"4","last_reported":1706962302,"current_range_meters":19600,"station_id":"ce4bhbp2rcd13ifvqesg","pricing_plan_id":"free"},{"bike_id":"28c75689-69e6-48e0-8a7e-cf06a5335cc8","system_id":"levelo_inurba_marseille","lat":43.293009,"lon":5.374584,"is_reserved":false,"is_disabled":false,"rental_uris":{"android":"levelo://app?vid=28c75689-69e6-48e0-8a7e-cf06a5335cc8","ios":"levelo://app?vid=28c75689-69e6-48e0-8a7e-cf06a5335cc8"},"vehicle_type_id":"4","last_reported":1706962302,"current_range_meters":26800,"station_id":"ce4bgi12rcd13ifvqb70","pricing_plan_id":"free"},{"bike_id":"7ea4918a-edc1-4507-b513-eb12088bea3c","system_id":"levelo_inurba_marseille","lat":43.305994,"lon":5.393687,"is_reserved":false,"is_disabled":false,"rental_uris":{"android":"levelo://app?vid=7ea4918a-edc1-4507-b513-eb12088bea3c","ios":"levelo://app?vid=7ea4918a-edc1-4507-b513-eb12088bea3c"},"vehicle_type_id":"4","last_reported":1706962302,"current_range_meters":31200,"station_id":"ce4bh0p2rcd13ifvqd80","pricing_plan_id":"free"},{"bike_id":"792fe787-c04c-4048-b5bb-eea102589744","system_id":"levelo_inurba_marseille","lat":43.2936,"lon":5.37835,"is_reserved":false,"is_disabled":false,"rental_uris":{"android":"levelo://app?vid=792fe787-c04c-4048-b5bb-eea102589744","ios":"levelo://app?vid=792fe787-c04c-4048-b5bb-eea102589744"},"vehicle_type_id":"4","last_reported":1706962302,"current_range_meters":31200,"station_id":"ce4bgjh2rcd13ifvqbf0","pricing_plan_id":"free"},{"bike_id":"49cc47ba-fd60-490f-b10e-562f0f298839","system_id":"levelo_inurba_marseille","lat":43.292311,"lon":5.360731,"is_reserved":false,"is_disabled":false,"rental_uris":{"android":"levelo://app?vid=49cc47ba-fd60-490f-b10e-562f0f298839","ios":"levelo://app?vid=49cc47ba-fd60-490f-b10e-562f0f298839"},"vehicle_type_id":"4","last_reported":1706962302,"current_range_meters":0,"station_id":"ce4bhbh2rcd13ifvqeqg","pricing_plan_id":"free"},{"bike_id":"96f8e105-5ff8-423c-8457-73baf943fcf8","system_id":"levelo_inurba_marseille","lat":43.298764,"lon":5.388973,"is_reserved":false,"is_disabled":false,"rental_uris":{"android":"levelo://app?vid=96f8e105-5ff8-423c-8457-73baf943fcf8","ios":"levelo://app?vid=96f8e105-5ff8-423c-8457-73baf943fcf8"},"vehicle_type_id":"4","last_reported":1706962302,"current_range_meters":14000,"station_id":"ce4bh392rcd13ifvqdl0","pricing_plan_id":"free"},{"bike_id":"32cf9aa8-96ba-4b0d-baa8-d3acede3fdec","system_id":"levelo_inurba_marseille","lat":43.313291,"lon":5.396838,"is_reserved":false,"is_disabled":false,"rental_uris":{"android":"levelo://app?vid=32cf9aa8-96ba-4b0d-baa8-d3acede3fdec","ios":"levelo://app?vid=32cf9aa8-96ba-4b0d-baa8-d3acede3fdec"},"vehicle_type_id":"4","last_reported":1706962302,"current_range_meters":30000,"station_id":"ce4bgvp2rcd13ifvqcu0","pricing_plan_id":"free"},{"bike_id":"57315533-5245-4408-9a92-8cb8f0ccc5ae","system_id":"levelo_inurba_marseille","lat":43.29202,"lon":5.35801,"is_reserved":false,"is_disabled":false,"rental_uris":{"android":"levelo://app?vid=57315533-5245-4408-9a92-8cb8f0ccc5ae","ios":"levelo://app?vid=57315533-5245-4408-9a92-8cb8f0ccc5ae"},"vehicle_type_id":"4","last_reported":1706962302,"current_range_meters":25200,"station_id":"ce4bhb12rcd13ifvqel0","pricing_plan_id":"free"},{"bike_id":"c621328d-fe6f-496a-ba67-af6e2ccae257","system_id":"levelo_inurba_marseille","lat":43.309047,"lon":5.396551,"is_reserved":false,"is_disabled":false,"rental_uris":{"android":"levelo://app?vid=c621328d-fe6f-496a-ba67-af6e2ccae257","ios":"levelo://app?vid=c621328d-fe6f-496a-ba67-af6e2ccae257"},"vehicle_type_id":"4","last_reported":1706962302,"current_range_meters":20000,"station_id":"ce4bh012rcd13ifvqcv0","pricing_plan_id":"free"},{"bike_id":"385cce40-55a3-43b8-a035-9dc360438cdd","system_id":"levelo_inurba_marseille","lat":43.30884,"lon":5.39642,"is_reserved":false,"is_disabled":false,"rental_uris":{"android":"levelo://app?vid=385cce40-55a3-43b8-a035-9dc360438cdd","ios":"levelo://app?vid=385cce40-55a3-43b8-a035-9dc360438cdd"},"vehicle_type_id":"4","last_reported":1706962302,"current_range_meters":0,"station_id":"ce4bh012rcd13ifvqcv0","pricing_plan_id":"free"},{"bike_id":"cfb765d9-07d9-47e1-8711-5f810b4d2134","system_id":"levelo_inurba_marseille","lat":43.309047,"lon":5.396551,"is_reserved":false,"is_disabled":false,"rental_uris":{"android":"levelo://app?vid=cfb765d9-07d9-47e1-8711-5f810b4d2134","ios":"levelo://app?vid=cfb765d9-07d9-47e1-8711-5f810b4d2134"},"vehicle_type_id":"4","last_reported":1706962302,"current_range_meters":18000,"station_id":"ce4bh012rcd13ifvqcv0","pricing_plan_id":"free"},{"bike_id":"e1430577-6d91-4073-a396-2337265f0654","system_id":"levelo_inurba_marseille","lat":43.309038,"lon":5.396546,"is_reserved":false,"is_disabled":false,"rental_uris":{"android":"levelo://app?vid=e1430577-6d91-4073-a396-2337265f0654","ios":"levelo://app?vid=e1430577-6d91-4073-a396-2337265f0654"},"vehicle_type_id":"4","last_reported":1706962302,"current_range_meters":23200,"station_id":"ce4bh012rcd13ifvqcv0","pricing_plan_id":"free"},{"bike_id":"21e3792b-63ba-458c-8507-1440ee30bd17","system_id":"levelo_inurba_marseille","lat":43.290779,"lon":5.371482,"is_reserved":false,"is_disabled":false,"rental_uris":{"android":"levelo://app?vid=21e3792b-63ba-458c-8507-1440ee30bd17","ios":"levelo://app?vid=21e3792b-63ba-458c-8507-1440ee30bd17"},"vehicle_type_id":"4","last_reported":1706962302,"current_range_meters":2800,"station_id":"ce4bh5p2rcd13ifvqe4g","pricing_plan_id":"free"},{"bike_id":"4d08e27b-4672-43d1-93e7-e46cdbea1b75","system_id":"levelo_inurba_marseille","lat":43.302008,"lon":5.394694,"is_reserved":false,"is_disabled":false,"rental_uris":{"android":"levelo://app?vid=4d08e27b-4672-43d1-93e7-e46cdbea1b75","ios":"levelo://app?vid=4d08e27b-4672-43d1-93e7-e46cdbea1b75"},"vehicle_type_id":"4","last_reported":1706962302,"current_range_meters":27200,"station_id":"ce4bh0p2rcd13ifvqd70","pricing_plan_id":"free"},{"bike_id":"7c755874-04f4-49a7-881c-3dccfea2f0df","system_id":"levelo_inurba_marseille","lat":43.290441,"lon":5.359123,"is_reserved":false,"is_disabled":false,"rental_uris":{"android":"levelo://app?vid=7c755874-04f4-49a7-881c-3dccfea2f0df","ios":"levelo://app?vid=7c755874-04f4-49a7-881c-3dccfea2f0df"},"vehicle_type_id":"4","last_reported":1706962302,"current_range_meters":2800,"station_id":"","pricing_plan_id":"free"},{"bike_id":"4224c099-4bc8-4dd0-8a87-38150f73831b","system_id":"levelo_inurba_marseille","lat":43.29035,"lon":5.359235,"is_reserved":false,"is_disabled":false,"rental_uris":{"android":"levelo://app?vid=4224c099-4bc8-4dd0-8a87-38150f73831b","ios":"levelo://app?vid=4224c099-4bc8-4dd0-8a87-38150f73831b"},"vehicle_type_id":"4","last_reported":1706962302,"current_range_meters":28800,"station_id":"ce4bha92rcd13ifvqeg0","pricing_plan_id":"free"},{"bike_id":"a9443982-1205-4860-959c-73fe492a39f4","system_id":"levelo_inurba_marseille","lat":43.294153,"lon":5.386305,"is_reserved":false,"is_disabled":false,"rental_uris":{"android":"levelo://app?vid=a9443982-1205-4860-959c-73fe492a39f4","ios":"levelo://app?vid=a9443982-1205-4860-959c-73fe492a39f4"},"vehicle_type_id":"4","last_reported":1706962302,"current_range_meters":3200,"station_id":"ce4bh2h2rcd13ifvqdh0","pricing_plan_id":"free"},{"bike_id":"ba18ee24-5ff4-49d7-8a52-d98de041c3e3","system_id":"levelo_inurba_marseille","lat":43.294153,"lon":5.386305,"is_reserved":false,"is_disabled":false,"rental_uris":{"android":"levelo://app?vid=ba18ee24-5ff4-49d7-8a52-d98de041c3e3","ios":"levelo://app?vid=ba18ee24-5ff4-49d7-8a52-d98de041c3e3"},"vehicle_type_id":"4","last_reported":1706962302,"current_range_meters":19600,"station_id":"ce4bh2h2rcd13ifvqdh0","pricing_plan_id":"free"},{"bike_id":"5ca283c9-46cc-4091-b93d-038388724714","system_id":"levelo_inurba_marseille","lat":43.29412,"lon":5.38632,"is_reserved":false,"is_disabled":false,"rental_uris":{"android":"levelo://app?vid=5ca283c9-46cc-4091-b93d-038388724714","ios":"levelo://app?vid=5ca283c9-46cc-4091-b93d-038388724714"},"vehicle_type_id":"4","last_reported":1706962302,"current_range_meters":0,"station_id":"ce4bh2h2rcd13ifvqdh0","pricing_plan_id":"free"},{"bike_id":"f36e2a69-39b6-42d8-8e74-c5f80fb382e0","system_id":"levelo_inurba_marseille","lat":43.304274,"lon":5.397513,"is_reserved":false,"is_disabled":false,"rental_uris":{"android":"levelo://app?vid=f36e2a69-39b6-42d8-8e74-c5f80fb382e0","ios":"levelo://app?vid=f36e2a69-39b6-42d8-8e74-c5f80fb382e0"},"vehicle_type_id":"4","last_reported":1706962302,"current_range_meters":22000,"station_id":"ce4bh092rcd13ifvqd20","pricing_plan_id":"free"},{"bike_id":"4b687331-8082-4f46-b109-8fca370125b1","system_id":"levelo_inurba_marseille","lat":43.292644,"lon":5.384257,"is_reserved":false,"is_disabled":false,"rental_uris":{"android":"levelo://app?vid=4b687331-8082-4f46-b109-8fca370125b1","ios":"levelo://app?vid=4b687331-8082-4f46-b109-8fca370125b1"},"vehicle_type_id":"4","last_reported":1706962302,"current_range_meters":1600,"station_id":"ce4bh692rcd13ifvqea0","pricing_plan_id":"free"},{"bike_id":"2c9f15c8-6154-44f3-b832-94072886b773","system_id":"levelo_inurba_marseille","lat":43.292644,"lon":5.384257,"is_reserved":false,"is_disabled":false,"rental_uris":{"android":"levelo://app?vid=2c9f15c8-6154-44f3-b832-94072886b773","ios":"levelo://app?vid=2c9f15c8-6154-44f3-b832-94072886b773"},"vehicle_type_id":"4","last_reported":1706962302,"current_range_meters":7600,"station_id":"ce4bh692rcd13ifvqea0","pricing_plan_id":"free"},{"bike_id":"38c7141e-7a9f-4cd6-88ec-111f4cb7a719","system_id":"levelo_inurba_marseille","lat":43.292644,"lon":5.384257,"is_reserved":false,"is_disabled":false,"rental_uris":{"android":"levelo://app?vid=38c7141e-7a9f-4cd6-88ec-111f4cb7a719","ios":"levelo://app?vid=38c7141e-7a9f-4cd6-88ec-111f4cb7a719"},"vehicle_type_id":"4","last_reported":1706962302,"current_range_meters":29200,"station_id":"ce4bh692rcd13ifvqea0","pricing_plan_id":"free"},{"bike_id":"263fceb8-4166-477a-8cc5-cae19bee210b","system_id":"levelo_inurba_marseille","lat":43.292644,"lon":5.384257,"is_reserved":false,"is_disabled":false,"rental_uris":{"android":"levelo://app?vid=263fceb8-4166-477a-8cc5-cae19bee210b","ios":"levelo://app?vid=263fceb8-4166-477a-8cc5-cae19bee210b"},"vehicle_type_id":"4","last_reported":1706962302,"current_range_meters":28400,"station_id":"ce4bh692rcd13ifvqea0","pricing_plan_id":"free"},{"bike_id":"2d969d3e-6cb9-4308-aaa3-85888bbad1aa","system_id":"levelo_inurba_marseille","lat":43.292642,"lon":5.384254,"is_reserved":false,"is_disabled":false,"rental_uris":{"android":"levelo://app?vid=2d969d3e-6cb9-4308-aaa3-85888bbad1aa","ios":"levelo://app?vid=2d969d3e-6cb9-4308-aaa3-85888bbad1aa"},"vehicle_type_id":"4","last_reported":1706962302,"current_range_meters":24000,"station_id":"ce4bh692rcd13ifvqea0","pricing_plan_id":"free"},{"bike_id":"ee772904-2f06-495a-885e-fc552512bcea","system_id":"levelo_inurba_marseille","lat":43.292644,"lon":5.384257,"is_reserved":false,"is_disabled":false,"rental_uris":{"android":"levelo://app?vid=ee772904-2f06-495a-885e-fc552512bcea","ios":"levelo://app?vid=ee772904-2f06-495a-885e-fc552512bcea"},"vehicle_type_id":"4","last_reported":1706962302,"current_range_meters":13600,"station_id":"ce4bh692rcd13ifvqea0","pricing_plan_id":"free"},{"bike_id":"22a5a18d-3921-4ce8-825f-5498d4684fdf","system_id":"levelo_inurba_marseille","lat":43.292642,"lon":5.384254,"is_reserved":false,"is_disabled":false,"rental_uris":{"android":"levelo://app?vid=22a5a18d-3921-4ce8-825f-5498d4684fdf","ios":"levelo://app?vid=22a5a18d-3921-4ce8-825f-5498d4684fdf"},"vehicle_type_id":"4","last_reported":1706962302,"current_range_meters":2400,"station_id":"ce4bh692rcd13ifvqea0","pricing_plan_id":"free"},{"bike_id":"03d52526-d132-4882-bf83-bb0bdd97faaf","system_id":"levelo_inurba_marseille","lat":43.290103,"lon":5.356114,"is_reserved":false,"is_disabled":false,"rental_uris":{"android":"levelo://app?vid=03d52526-d132-4882-bf83-bb0bdd97faaf","ios":"levelo://app?vid=03d52526-d132-4882-bf83-bb0bdd97faaf"},"vehicle_type_id":"4","last_reported":1706962302,"current_range_meters":3600,"station_id":"ce4bhb92rcd13ifvqen0","pricing_plan_id":"free"},{"bike_id":"f9d5d05c-03c7-490f-94f5-7f3e107031f5","system_id":"levelo_inurba_marseille","lat":43.317557,"lon":5.390173,"is_reserved":false,"is_disabled":false,"rental_uris":{"android":"levelo://app?vid=f9d5d05c-03c7-490f-94f5-7f3e107031f5","ios":"levelo://app?vid=f9d5d05c-03c7-490f-94f5-7f3e107031f5"},"vehicle_type_id":"4","last_reported":1706962302,"current_range_meters":2000,"station_id":"ce4bhqp2rcd13ifvqhng","pricing_plan_id":"free"},{"bike_id":"c7efc0f9-d827-439f-8ed5-45613721150a","system_id":"levelo_inurba_marseille","lat":43.29007,"lon":5.35609,"is_reserved":false,"is_disabled":false,"rental_uris":{"android":"levelo://app?vid=c7efc0f9-d827-439f-8ed5-45613721150a","ios":"levelo://app?vid=c7efc0f9-d827-439f-8ed5-45613721150a"},"vehicle_type_id":"4","last_reported":1706962302,"current_range_meters":0,"station_id":"ce4bhb92rcd13ifvqen0","pricing_plan_id":"free"},{"bike_id":"ae4f8d0c-046d-423e-a672-9f19fb6e8038","system_id":"levelo_inurba_marseille","lat":43.290104,"lon":5.356111,"is_reserved":false,"is_disabled":false,"rental_uris":{"android":"levelo://app?vid=ae4f8d0c-046d-423e-a672-9f19fb6e8038","ios":"levelo://app?vid=ae4f8d0c-046d-423e-a672-9f19fb6e8038"},"vehicle_type_id":"4","last_reported":1706962302,"current_range_meters":26400,"station_id":"ce4bhb92rcd13ifvqen0","pricing_plan_id":"free"},{"bike_id":"e1e6b22a-1e43-4bca-8c4e-53dbe85b500e","system_id":"levelo_inurba_marseille","lat":43.290995,"lon":5.381361,"is_reserved":false,"is_disabled":false,"rental_uris":{"android":"levelo://app?vid=e1e6b22a-1e43-4bca-8c4e-53dbe85b500e","ios":"levelo://app?vid=e1e6b22a-1e43-4bca-8c4e-53dbe85b500e"},"vehicle_type_id":"4","last_reported":1706962302,"current_range_meters":24000,"station_id":"ce4bh512rcd13ifvqe2g","pricing_plan_id":"free"},{"bike_id":"0b74b86e-d580-47b9-b229-e5bb9cbf1321","system_id":"levelo_inurba_marseille","lat":43.289743,"lon":5.378304,"is_reserved":false,"is_disabled":false,"rental_uris":{"android":"levelo://app?vid=0b74b86e-d580-47b9-b229-e5bb9cbf1321","ios":"levelo://app?vid=0b74b86e-d580-47b9-b229-e5bb9cbf1321"},"vehicle_type_id":"4","last_reported":1706962302,"current_range_meters":16800,"station_id":"ce4bh9p2rcd13ifvqed0","pricing_plan_id":"free"},{"bike_id":"b1365976-0226-493e-a277-1b5562706684","system_id":"levelo_inurba_marseille","lat":43.289741,"lon":5.378306,"is_reserved":false,"is_disabled":false,"rental_uris":{"android":"levelo://app?vid=b1365976-0226-493e-a277-1b5562706684","ios":"levelo://app?vid=b1365976-0226-493e-a277-1b5562706684"},"vehicle_type_id":"4","last_reported":1706962302,"current_range_meters":27200,"station_id":"ce4bh9p2rcd13ifvqed0","pricing_plan_id":"free"},{"bike_id":"82945ae3-fc34-4141-86a6-46e319c2ef99","system_id":"levelo_inurba_marseille","lat":43.29529,"lon":5.39041,"is_reserved":false,"is_disabled":false,"rental_uris":{"android":"levelo://app?vid=82945ae3-fc34-4141-86a6-46e319c2ef99","ios":"levelo://app?vid=82945ae3-fc34-4141-86a6-46e319c2ef99"},"vehicle_type_id":"4","last_reported":1706962302,"current_range_meters":13600,"station_id":"ce4bh3p2rcd13ifvqdp0","pricing_plan_id":"free"},{"bike_id":"4186a1f1-4481-4512-a6f2-253aff1e6dc4","system_id":"levelo_inurba_marseille","lat":43.330442,"lon":5.389148,"is_reserved":false,"is_disabled":false,"rental_uris":{"android":"levelo://app?vid=4186a1f1-4481-4512-a6f2-253aff1e6dc4","ios":"levelo://app?vid=4186a1f1-4481-4512-a6f2-253aff1e6dc4"},"vehicle_type_id":"4","last_reported":1706962302,"current_range_meters":800,"station_id":"ce4bhr92rcd13ifvqhrg","pricing_plan_id":"free"},{"bike_id":"ea0b84ee-489b-42c3-8f12-d4f42f6e3fc6","system_id":"levelo_inurba_marseille","lat":43.289741,"lon":5.378306,"is_reserved":false,"is_disabled":false,"rental_uris":{"android":"levelo://app?vid=ea0b84ee-489b-42c3-8f12-d4f42f6e3fc6","ios":"levelo://app?vid=ea0b84ee-489b-42c3-8f12-d4f42f6e3fc6"},"vehicle_type_id":"4","last_reported":1706962302,"current_range_meters":31200,"station_id":"ce4bh9p2rcd13ifvqed0","pricing_plan_id":"free"},{"bike_id":"b5ed006f-604e-4e5d-bb3d-900358a9f5a9","system_id":"levelo_inurba_marseille","lat":43.295169,"lon":5.390426,"is_reserved":false,"is_disabled":false,"rental_uris":{"android":"levelo://app?vid=b5ed006f-604e-4e5d-bb3d-900358a9f5a9","ios":"levelo://app?vid=b5ed006f-604e-4e5d-bb3d-900358a9f5a9"},"vehicle_type_id":"4","last_reported":1706962302,"current_range_meters":25600,"station_id":"ce4bh3p2rcd13ifvqdp0","pricing_plan_id":"free"},{"bike_id":"fe0e5b6d-d7d1-4d35-ada0-4b44fee08c1a","system_id":"levelo_inurba_marseille","lat":43.295169,"lon":5.390426,"is_reserved":false,"is_disabled":false,"rental_uris":{"android":"levelo://app?vid=fe0e5b6d-d7d1-4d35-ada0-4b44fee08c1a","ios":"levelo://app?vid=fe0e5b6d-d7d1-4d35-ada0-4b44fee08c1a"},"vehicle_type_id":"4","last_reported":1706962302,"current_range_meters":20000,"station_id":"ce4bh3p2rcd13ifvqdp0","pricing_plan_id":"free"},{"bike_id":"29fa78cb-ddcd-473b-afaa-62a18b90e67f","system_id":"levelo_inurba_marseille","lat":43.330442,"lon":5.389148,"is_reserved":false,"is_disabled":false,"rental_uris":{"android":"levelo://app?vid=29fa78cb-ddcd-473b-afaa-62a18b90e67f","ios":"levelo://app?vid=29fa78cb-ddcd-473b-afaa-62a18b90e67f"},"vehicle_type_id":"4","last_reported":1706962302,"current_range_meters":13200,"station_id":"ce4bhr92rcd13ifvqhrg","pricing_plan_id":"free"},{"bike_id":"82ab9ffc-fb4a-4156-b91e-85f99027a2a3","system_id":"levelo_inurba_marseille","lat":43.295169,"lon":5.390426,"is_reserved":false,"is_disabled":false,"rental_uris":{"android":"levelo://app?vid=82ab9ffc-fb4a-4156-b91e-85f99027a2a3","ios":"levelo://app?vid=82ab9ffc-fb4a-4156-b91e-85f99027a2a3"},"vehicle_type_id":"4","last_reported":1706962302,"current_range_meters":14400,"station_id":"ce4bh3p2rcd13ifvqdp0","pricing_plan_id":"free"},{"bike_id":"a0be7fe7-61a4-4c38-b3fe-6ff8969b580a","system_id":"levelo_inurba_marseille","lat":43.288533,"lon":5.35833,"is_reserved":false,"is_disabled":false,"rental_uris":{"android":"levelo://app?vid=a0be7fe7-61a4-4c38-b3fe-6ff8969b580a","ios":"levelo://app?vid=a0be7fe7-61a4-4c38-b3fe-6ff8969b580a"},"vehicle_type_id":"4","last_reported":1706962302,"current_range_meters":4800,"station_id":"ce4bhb12rcd13ifvqem0","pricing_plan_id":"free"},{"bike_id":"f39f5eb9-06c6-48c3-9c38-29b36a716947","system_id":"levelo_inurba_marseille","lat":43.288497,"lon":5.358369,"is_reserved":false,"is_disabled":false,"rental_uris":{"android":"levelo://app?vid=f39f5eb9-06c6-48c3-9c38-29b36a716947","ios":"levelo://app?vid=f39f5eb9-06c6-48c3-9c38-29b36a716947"},"vehicle_type_id":"4","last_reported":1706962302,"current_range_meters":29200,"station_id":"ce4bhb12rcd13ifvqem0","pricing_plan_id":"free"},{"bike_id":"a3f27adc-c26d-4a72-8b4e-4823f3d31fdd","system_id":"levelo_inurba_marseille","lat":43.312609,"lon":5.401662,"is_reserved":false,"is_disabled":false,"rental_uris":{"android":"levelo://app?vid=a3f27adc-c26d-4a72-8b4e-4823f3d31fdd","ios":"levelo://app?vid=a3f27adc-c26d-4a72-8b4e-4823f3d31fdd"},"vehicle_type_id":"4","last_reported":1706962302,"current_range_meters":27600,"station_id":"ce4bh092rcd13ifvqd30","pricing_plan_id":"free"},{"bike_id":"a55e6347-c871-412a-b2aa-b1dbbf728825","system_id":"levelo_inurba_marseille","lat":43.3374,"lon":5.3746,"is_reserved":false,"is_disabled":false,"rental_uris":{"android":"levelo://app?vid=a55e6347-c871-412a-b2aa-b1dbbf728825","ios":"levelo://app?vid=a55e6347-c871-412a-b2aa-b1dbbf728825"},"vehicle_type_id":"4","last_reported":1706962302,"current_range_meters":19600,"station_id":"","pricing_plan_id":"free"},{"bike_id":"d559aefe-44a6-4edc-b661-02ddd7db3e29","system_id":"levelo_inurba_marseille","lat":43.33743,"lon":5.37449,"is_reserved":false,"is_disabled":false,"rental_uris":{"android":"levelo://app?vid=d559aefe-44a6-4edc-b661-02ddd7db3e29","ios":"levelo://app?vid=d559aefe-44a6-4edc-b661-02ddd7db3e29"},"vehicle_type_id":"4","last_reported":1706962302,"current_range_meters":25200,"station_id":"","pricing_plan_id":"free"},{"bike_id":"1db90ee6-7b5d-4fba-bd91-befbf9a5e08a","system_id":"levelo_inurba_marseille","lat":43.312609,"lon":5.401662,"is_reserved":false,"is_disabled":false,"rental_uris":{"android":"levelo://app?vid=1db90ee6-7b5d-4fba-bd91-befbf9a5e08a","ios":"levelo://app?vid=1db90ee6-7b5d-4fba-bd91-befbf9a5e08a"},"vehicle_type_id":"4","last_reported":1706962302,"current_range_meters":24000,"station_id":"ce4bh092rcd13ifvqd30","pricing_plan_id":"free"},{"bike_id":"59924ac8-4a19-41ca-ab21-7f4b164046e2","system_id":"levelo_inurba_marseille","lat":43.312609,"lon":5.401662,"is_reserved":false,"is_disabled":false,"rental_uris":{"android":"levelo://app?vid=59924ac8-4a19-41ca-ab21-7f4b164046e2","ios":"levelo://app?vid=59924ac8-4a19-41ca-ab21-7f4b164046e2"},"vehicle_type_id":"4","last_reported":1706962302,"current_range_meters":28800,"station_id":"ce4bh092rcd13ifvqd30","pricing_plan_id":"free"},{"bike_id":"c69589de-6c61-4d45-a381-cee644fb9858","system_id":"levelo_inurba_marseille","lat":43.312609,"lon":5.401662,"is_reserved":false,"is_disabled":false,"rental_uris":{"android":"levelo://app?vid=c69589de-6c61-4d45-a381-cee644fb9858","ios":"levelo://app?vid=c69589de-6c61-4d45-a381-cee644fb9858"},"vehicle_type_id":"4","last_reported":1706962302,"current_range_meters":12000,"station_id":"ce4bh092rcd13ifvqd30","pricing_plan_id":"free"},{"bike_id":"8052c17a-735e-424a-bba2-47b02a4ddb13","system_id":"levelo_inurba_marseille","lat":43.33743,"lon":5.37455,"is_reserved":false,"is_disabled":false,"rental_uris":{"android":"levelo://app?vid=8052c17a-735e-424a-bba2-47b02a4ddb13","ios":"levelo://app?vid=8052c17a-735e-424a-bba2-47b02a4ddb13"},"vehicle_type_id":"4","last_reported":1706962302,"current_range_meters":29200,"station_id":"","pricing_plan_id":"free"},{"bike_id":"3e76bae6-cb1b-4597-a869-b70cab5de101","system_id":"levelo_inurba_marseille","lat":43.312771,"lon":5.401717,"is_reserved":false,"is_disabled":false,"rental_uris":{"android":"levelo://app?vid=3e76bae6-cb1b-4597-a869-b70cab5de101","ios":"levelo://app?vid=3e76bae6-cb1b-4597-a869-b70cab5de101"},"vehicle_type_id":"4","last_reported":1706962302,"current_range_meters":24000,"station_id":"ce4bh092rcd13ifvqd30","pricing_plan_id":"free"},{"bike_id":"82d65e08-68bd-4ead-b459-6fa2d49fc2a1","system_id":"levelo_inurba_marseille","lat":43.312609,"lon":5.401662,"is_reserved":false,"is_disabled":false,"rental_uris":{"android":"levelo://app?vid=82d65e08-68bd-4ead-b459-6fa2d49fc2a1","ios":"levelo://app?vid=82d65e08-68bd-4ead-b459-6fa2d49fc2a1"},"vehicle_type_id":"4","last_reported":1706962302,"current_range_meters":31200,"station_id":"ce4bh092rcd13ifvqd30","pricing_plan_id":"free"},{"bike_id":"528f1a34-67b1-4dce-b984-533e9e621712","system_id":"levelo_inurba_marseille","lat":43.299707,"lon":5.384859,"is_reserved":false,"is_disabled":false,"rental_uris":{"android":"levelo://app?vid=528f1a34-67b1-4dce-b984-533e9e621712","ios":"levelo://app?vid=528f1a34-67b1-4dce-b984-533e9e621712"},"vehicle_type_id":"4","last_reported":1706962302,"current_range_meters":18800,"station_id":"ce4bgj92rcd13ifvqbd0","pricing_plan_id":"free"},{"bike_id":"f2a4e4a5-221c-48ac-9bc7-c9b0679d2091","system_id":"levelo_inurba_marseille","lat":43.30924,"lon":5.40144,"is_reserved":false,"is_disabled":false,"rental_uris":{"android":"levelo://app?vid=f2a4e4a5-221c-48ac-9bc7-c9b0679d2091","ios":"levelo://app?vid=f2a4e4a5-221c-48ac-9bc7-c9b0679d2091"},"vehicle_type_id":"4","last_reported":1706962302,"current_range_meters":3200,"station_id":"ce4bgvp2rcd13ifvqct0","pricing_plan_id":"free"},{"bike_id":"a693be26-d51d-4635-bbd8-1f98ddaeba30","system_id":"levelo_inurba_marseille","lat":43.33751,"lon":5.37448,"is_reserved":false,"is_disabled":false,"rental_uris":{"android":"levelo://app?vid=a693be26-d51d-4635-bbd8-1f98ddaeba30","ios":"levelo://app?vid=a693be26-d51d-4635-bbd8-1f98ddaeba30"},"vehicle_type_id":"4","last_reported":1706962302,"current_range_meters":30400,"station_id":"","pricing_plan_id":"free"},{"bike_id":"6328aba1-4a67-4a97-80dc-597b58d8e0ad","system_id":"levelo_inurba_marseille","lat":43.30654,"lon":5.40077,"is_reserved":false,"is_disabled":false,"rental_uris":{"android":"levelo://app?vid=6328aba1-4a67-4a97-80dc-597b58d8e0ad","ios":"levelo://app?vid=6328aba1-4a67-4a97-80dc-597b58d8e0ad"},"vehicle_type_id":"4","last_reported":1706962302,"current_range_meters":2400,"station_id":"ce4bh112rcd13ifvqda0","pricing_plan_id":"free"},{"bike_id":"7859c6f9-5546-401d-b33e-115c1b7357c7","system_id":"levelo_inurba_marseille","lat":43.30642,"lon":5.401031,"is_reserved":false,"is_disabled":false,"rental_uris":{"android":"levelo://app?vid=7859c6f9-5546-401d-b33e-115c1b7357c7","ios":"levelo://app?vid=7859c6f9-5546-401d-b33e-115c1b7357c7"},"vehicle_type_id":"4","last_reported":1706962302,"current_range_meters":29200,"station_id":"ce4bh112rcd13ifvqda0","pricing_plan_id":"free"},{"bike_id":"b5c8cd35-34dd-45ee-b3e7-3050ef3cbe6a","system_id":"levelo_inurba_marseille","lat":43.337673,"lon":5.374918,"is_reserved":false,"is_disabled":false,"rental_uris":{"android":"levelo://app?vid=b5c8cd35-34dd-45ee-b3e7-3050ef3cbe6a","ios":"levelo://app?vid=b5c8cd35-34dd-45ee-b3e7-3050ef3cbe6a"},"vehicle_type_id":"4","last_reported":1706962302,"current_range_meters":16400,"station_id":"","pricing_plan_id":"free"},{"bike_id":"d3c945dd-9321-40e4-8881-f589f230c00c","system_id":"levelo_inurba_marseille","lat":43.301117,"lon":5.398795,"is_reserved":false,"is_disabled":false,"rental_uris":{"android":"levelo://app?vid=d3c945dd-9321-40e4-8881-f589f230c00c","ios":"levelo://app?vid=d3c945dd-9321-40e4-8881-f589f230c00c"},"vehicle_type_id":"4","last_reported":1706962302,"current_range_meters":24000,"station_id":"ce4bh0h2rcd13ifvqd40","pricing_plan_id":"free"},{"bike_id":"43566909-0097-430a-a96f-d5b0e1735ad4","system_id":"levelo_inurba_marseille","lat":43.30116,"lon":5.39846,"is_reserved":false,"is_disabled":false,"rental_uris":{"android":"levelo://app?vid=43566909-0097-430a-a96f-d5b0e1735ad4","ios":"levelo://app?vid=43566909-0097-430a-a96f-d5b0e1735ad4"},"vehicle_type_id":"4","last_reported":1706962302,"current_range_meters":0,"station_id":"ce4bh0h2rcd13ifvqd40","pricing_plan_id":"free"},{"bike_id":"49a2bd34-ca4c-4cca-ba12-3ac703432683","system_id":"levelo_inurba_marseille","lat":43.30133,"lon":5.3986,"is_reserved":false,"is_disabled":false,"rental_uris":{"android":"levelo://app?vid=49a2bd34-ca4c-4cca-ba12-3ac703432683","ios":"levelo://app?vid=49a2bd34-ca4c-4cca-ba12-3ac703432683"},"vehicle_type_id":"4","last_reported":1706962302,"current_range_meters":27600,"station_id":"ce4bh0h2rcd13ifvqd40","pricing_plan_id":"free"},{"bike_id":"8a97fdc9-f57f-4864-9a7f-0443312d7265","system_id":"levelo_inurba_marseille","lat":43.301117,"lon":5.398795,"is_reserved":false,"is_disabled":false,"rental_uris":{"android":"levelo://app?vid=8a97fdc9-f57f-4864-9a7f-0443312d7265","ios":"levelo://app?vid=8a97fdc9-f57f-4864-9a7f-0443312d7265"},"vehicle_type_id":"4","last_reported":1706962302,"current_range_meters":21600,"station_id":"ce4bh0h2rcd13ifvqd40","pricing_plan_id":"free"},{"bike_id":"7562ac5b-457c-4955-9f9f-f71e97c9feb3","system_id":"levelo_inurba_marseille","lat":43.301117,"lon":5.398795,"is_reserved":false,"is_disabled":false,"rental_uris":{"android":"levelo://app?vid=7562ac5b-457c-4955-9f9f-f71e97c9feb3","ios":"levelo://app?vid=7562ac5b-457c-4955-9f9f-f71e97c9feb3"},"vehicle_type_id":"4","last_reported":1706962302,"current_range_meters":3600,"station_id":"ce4bh0h2rcd13ifvqd40","pricing_plan_id":"free"},{"bike_id":"5d621334-2a9c-42d1-87bc-5dd54cc002b7","system_id":"levelo_inurba_marseille","lat":43.301117,"lon":5.398795,"is_reserved":false,"is_disabled":false,"rental_uris":{"android":"levelo://app?vid=5d621334-2a9c-42d1-87bc-5dd54cc002b7","ios":"levelo://app?vid=5d621334-2a9c-42d1-87bc-5dd54cc002b7"},"vehicle_type_id":"4","last_reported":1706962302,"current_range_meters":24800,"station_id":"ce4bh0h2rcd13ifvqd40","pricing_plan_id":"free"},{"bike_id":"a5ba371a-6502-4c31-98e3-be2a915ffabb","system_id":"levelo_inurba_marseille","lat":43.298681,"lon":5.397225,"is_reserved":false,"is_disabled":false,"rental_uris":{"android":"levelo://app?vid=a5ba371a-6502-4c31-98e3-be2a915ffabb","ios":"levelo://app?vid=a5ba371a-6502-4c31-98e3-be2a915ffabb"},"vehicle_type_id":"4","last_reported":1706962302,"current_range_meters":10400,"station_id":"ce4bh0h2rcd13ifvqd50","pricing_plan_id":"free"},{"bike_id":"671662dc-1de2-4fc0-8067-e8fcae80c9e3","system_id":"levelo_inurba_marseille","lat":43.298681,"lon":5.397225,"is_reserved":false,"is_disabled":false,"rental_uris":{"android":"levelo://app?vid=671662dc-1de2-4fc0-8067-e8fcae80c9e3","ios":"levelo://app?vid=671662dc-1de2-4fc0-8067-e8fcae80c9e3"},"vehicle_type_id":"4","last_reported":1706962302,"current_range_meters":20400,"station_id":"ce4bh0h2rcd13ifvqd50","pricing_plan_id":"free"},{"bike_id":"24528f9b-83e3-426f-bfc1-dc5689749d39","system_id":"levelo_inurba_marseille","lat":43.289307,"lon":5.38406,"is_reserved":false,"is_disabled":false,"rental_uris":{"android":"levelo://app?vid=24528f9b-83e3-426f-bfc1-dc5689749d39","ios":"levelo://app?vid=24528f9b-83e3-426f-bfc1-dc5689749d39"},"vehicle_type_id":"4","last_reported":1706962302,"current_range_meters":9600,"station_id":"ce4bh612rcd13ifvqe6g","pricing_plan_id":"free"},