{"last_updated":1733998257,"ttl":60,"version":"2.2","data":{"bikes":[{"bike_id":"f273d2db-9d28-4c2f-99d9-9f030249d630","system_id":"levelo_inurba_marseille","lat":43.24076,"lon":5.37756,"is_reserved":false,"is_disabled":false,"rental_uris":{"android":"levelo://app?vid=f273d2db-9d28-4c2f-99d9-9f030249d630","ios":"levelo://app?vid=f273d2db-9d28-4c2f-99d9-9f030249d630"},"vehicle_type_id":"4","last_reported":1733998257,"current_range_meters":28800,"station_id":"ce4bhnp2rcd13ifvqgvg","pricing_plan_id":"cebpf4jnsgd1na2vs0mg"},{"bike_id":"8c9c2951-02c1-46cb-a54e-0eb2170040f6","system_id":"levelo_inurba_marseille","lat":43.28447,"lon":5.39205,"is_reserved":false,"is_disabled":false,"rental_uris":{"android":"levelo://app?vid=8c9c2951-02c1-46cb-a54e-0eb2170040f6","ios":"levelo://app?vid=8c9c2951-02c1-46cb-a54e-0eb2170040f6"},"vehicle_type_id":"4","last_reported":1733998257,"current_range_meters":31200,"station_id":"ce4bhoh2rcd13ifvqh5g","pricing_plan_id":"cebpf4jnsgd1na2vs0mg"},{"bike_id":"60e9ed68-c2d5-4fcc-b1fe-df98992a2ea5","system_id":"levelo_inurba_marseille","lat":43.30764,"lon":5.36837,"is_reserved":false,"is_disabled":true,"rental_uris":{"android":"levelo://app?vid=60e9ed68-c2d5-4fcc-b1fe-df98992a2ea5","ios":"levelo://app?vid=60e9ed68-c2d5-4fcc-b1fe-df98992a2ea5"},"vehicle_type_id":"4","last_reported":1733998257,"current_range_meters":0,"station_id":"","pricing_plan_id":"cebpf4jnsgd1na2vs0mg"},{"bike_id":"70264841-f3db-4034-846f-0a3a10327c9a","system_id":"levelo_inurba_marseille","lat":43.25583,"lon":5.38226,"is_reserved":false,"is_disabled":false,"rental_uris":{"android":"levelo://app?vid=70264841-f3db-4034-846f-0a3a10327c9a","ios":"levelo://app?vid=70264841-f3db-4034-846f-0a3a10327c9a"},"vehicle_type_id":"4","last_reported":1733998257,"current_range_meters":18000,"station_id":"ce4bhih2rcd13ifvqfs0","pricing_plan_id":"cebpf4jnsgd1na2vs0mg"},{"bike_id":"b266efff-3a14-4d1a-a25a-c68ad062a1f4","system_id":"levelo_inurba_marseille","lat":43.24165,"lon":5.36394,"is_reserved":false,"is_disabled":false,"rental_uris":{"android":"levelo://app?vid=b266efff-3a14-4d1a-a25a-c68ad062a1f4","ios":"levelo://app?vid=b266efff-3a14-4d1a-a25a-c68ad062a1f4"},"vehicle_type_id":"4","last_reported":1733998257,"current_range_meters":6000,"station_id":"cpo36qri1sfpv3e86is0","pricing_plan_id":"cebpf4jnsgd1na2vs0mg"},{"bike_id":"f2676ae1-aa79-4ab9-8ade-6a25f90c5540","system_id":"levelo_inurba_marseille","lat":43.25938,"lon":5.409,"is_reserved":false,"is_disabled":false,"rental_uris":{"android":"levelo://app?vid=f2676ae1-aa79-4ab9-8ade-6a25f90c5540","ios":"levelo://app?vid=f2676ae1-aa79-4ab9-8ade-6a25f90c5540"},"vehicle_type_id":"4","last_reported":1733998257,"current_range_meters":30000,"station_id":"ce4bhm92rcd13ifvqglg","pricing_plan_id":"cebpf4jnsgd1na2vs0mg"},{"bike_id":"b75af21f-3c09-4486-984e-52ca484c2926","system_id":"levelo_inurba_marseille","lat":43.31894,"lon":5.40738,"is_reserved":false,"is_disabled":false,"rental_uris":{"android":"levelo://app?vid=b75af21f-3c09-4486-984e-52ca484c2926","ios":"levelo://app?vid=b75af21f-3c09-4486-984e-52ca484c2926"},"vehicle_type_id":"4","last_reported":1733998257,"current_range_meters":24400,"station_id":"ce4bhq12rcd13ifvqhig","pricing_plan_id":"cebpf4jnsgd1na2vs0mg"},{"bike_id":"7ea4d232-e2a4-497c-83a9-c6bd7e71ef17","system_id":"levelo_inurba_marseille","lat":43.24066,"lon":5.37758,"is_reserved":false,"is_disabled":false,"rental_uris":{"android":"levelo://app?vid=7ea4d232-e2a4-497c-83a9-c6bd7e71ef17","ios":"levelo://app?vid=7ea4d232-e2a4-497c-83a9-c6bd7e71ef17"},"vehicle_type_id":"4","last_reported":1733998257,"current_range_meters":12000,"station_id":"ce4bhnp2rcd13ifvqgvg","pricing_plan_id":"cebpf4jnsgd1na2vs0mg"},{"bike_id":"fb886c68-9c54-4ccd-b964-6489edb35b3a","system_id":"levelo_inurba_marseille","lat":43.26941,"lon":5.38916,"is_reserved":false,"is_disabled":true,"rental_uris":{"android":"levelo://app?vid=fb886c68-9c54-4ccd-b964-6489edb35b3a","ios":"levelo://app?vid=fb886c68-9c54-4ccd-b964-6489edb35b3a"},"vehicle_type_id":"4","last_reported":1733998257,"current_range_meters":38800,"station_id":"ce4bhhh2rcd13ifvqfl0","pricing_plan_id":"cebpf4jnsgd1na2vs0mg"},{"bike_id":"2ce20ca6-9df9-461d-8a19-7e6fd8b8cd0c","system_id":"levelo_inurba_marseille","lat":43.30956,"lon":5.39042,"is_reserved":false,"is_disabled":false,"rental_uris":{"android":"levelo://app?vid=2ce20ca6-9df9-461d-8a19-7e6fd8b8cd0c","ios":"levelo://app?vid=2ce20ca6-9df9-461d-8a19-7e6fd8b8cd0c"},"vehicle_type_id":"4","last_reported":1733998257,"current_range_meters":22400,"station_id":"ce4bgup2rcd13ifvqco0","pricing_plan_id":"cebpf4jnsgd1na2vs0mg"},{"bike_id":"980f96eb-32c9-4906-98f6-c44dbf4c84a1","system_id":"levelo_inurba_marseille","lat":43.27455,"lon":5.40073,"is_reserved":false,"is_disabled":true,"rental_uris":{"android":"levelo://app?vid=980f96eb-32c9-4906-98f6-c44dbf4c84a1","ios":"levelo://app?vid=980f96eb-32c9-4906-98f6-c44dbf4c84a1"},"vehicle_type_id":"4","last_reported":1733998257,"current_range_meters":0,"station_id":"","pricing_plan_id":"cebpf4jnsgd1na2vs0mg"},{"bike_id":"65410716-bef9-4b2a-b57d-5c362dd933b9","system_id":"levelo_inurba_marseille","lat":43.30303,"lon":5.36872,"is_reserved":false,"is_disabled":false,"rental_uris":{"android":"levelo://app?vid=65410716-bef9-4b2a-b57d-5c362dd933b9","ios":"levelo://app?vid=65410716-bef9-4b2a-b57d-5c362dd933b9"},"vehicle_type_id":"4","last_reported":1733998257,"current_range_meters":38000,"station_id":"ce4bgqh2rcd13ifvqc5g","pricing_plan_id":"cebpf4jnsgd1na2vs0mg"},{"bike_id":"717d5d8d-6b5e-40e7-9bb5-6a23c53f1f4c","system_id":"levelo_inurba_marseille","lat":43.2649,"lon":5.39556,"is_reserved":false,"is_disabled":false,"rental_uris":{"android":"levelo://app?vid=717d5d8d-6b5e-40e7-9bb5-6a23c53f1f4c","ios":"levelo://app?vid=717d5d8d-6b5e-40e7-9bb5-6a23c53f1f4c"},"vehicle_type_id":"4","last_reported":1733998257,"current_range_meters":28000,"station_id":"ce4bhi12rcd13ifvqfq0","pricing_plan_id":"cebpf4jnsgd1na2vs0mg"},{"bike_id":"f47cf49b-7976-49cd-9262-4486eb6a0c82","system_id":"levelo_inurba_marseille","lat":43.30535,"lon":5.38418,"is_reserved":false,"is_disabled":false,"rental_uris":{"android":"levelo://app?vid=f47cf49b-7976-49cd-9262-4486eb6a0c82","ios":"levelo://app?vid=f47cf49b-7976-49cd-9262-4486eb6a0c82"},"vehicle_type_id":"4","last_reported":1733998257,"current_range_meters":36000,"station_id":"ce4bgg92rcd13ifvqb30","pricing_plan_id":"cebpf4jnsgd1na2vs0mg"},{"bike_id":"e184f6ac-238c-4ab6-9649-af5dc41745d8","system_id":"levelo_inurba_marseille","lat":43.3137,"lon":5.36753,"is_reserved":false,"is_disabled":false,"rental_uris":{"android":"levelo://app?vid=e184f6ac-238c-4ab6-9649-af5dc41745d8","ios":"levelo://app?vid=e184f6ac-238c-4ab6-9649-af5dc41745d8"},"vehicle_type_id":"4","last_reported":1733998257,"current_range_meters":37600,"station_id":"","pricing_plan_id":"cebpf4jnsgd1na2vs0mg"},{"bike_id":"e77c41ec-01fc-4fd5-a63a-7ada717e028a","system_id":"levelo_inurba_marseille","lat":43.26056,"lon":5.39391,"is_reserved":false,"is_disabled":false,"rental_uris":{"android":"levelo://app?vid=e77c41ec-01fc-4fd5-a63a-7ada717e028a","ios":"levelo://app?vid=e77c41ec-01fc-4fd5-a63a-7ada717e028a"},"vehicle_type_id":"4","last_reported":1733998257,"current_range_meters":38800,"station_id":"ce4bhh92rcd13ifvqfj0","pricing_plan_id":"cebpf4jnsgd1na2vs0mg"},{"bike_id":"d721ce4d-f675-4ec7-8264-3655d66274ca","system_id":"levelo_inurba_marseille","lat":43.25589,"lon":5.38223,"is_reserved":false,"is_disabled":false,"rental_uris":{"android":"levelo://app?vid=d721ce4d-f675-4ec7-8264-3655d66274ca","ios":"levelo://app?vid=d721ce4d-f675-4ec7-8264-3655d66274ca"},"vehicle_type_id":"4","last_reported":1733998257,"current_range_meters":14000,"station_id":"ce4bhih2rcd13ifvqfs0","pricing_plan_id":"cebpf4jnsgd1na2vs0mg"},{"bike_id":"f425b8cb-6225-443e-a7c9-98c091f7b498","system_id":"levelo_inurba_marseille","lat":43.26942,"lon":5.4026,"is_reserved":false,"is_disabled":false,"rental_uris":{"android":"levelo://app?vid=f425b8cb-6225-443e-a7c9-98c091f7b498","ios":"levelo://app?vid=f425b8cb-6225-443e-a7c9-98c091f7b498"},"vehicle_type_id":"4","last_reported":1733998257,"current_range_meters":28800,"station_id":"cjm6bp8fraef2m0cb0m0","pricing_plan_id":"cebpf4jnsgd1na2vs0mg"},{"bike_id":"5d8b54bf-ec9d-4f64-936f-80b735b228c8","system_id":"levelo_inurba_marseille","lat":43.27988,"lon":5.41655,"is_reserved":false,"is_disabled":false,"rental_uris":{"android":"levelo://app?vid=5d8b54bf-ec9d-4f64-936f-80b735b228c8","ios":"levelo://app?vid=5d8b54bf-ec9d-4f64-936f-80b735b228c8"},"vehicle_type_id":"4","last_reported":1733998257,"current_range_meters":39200,"station_id":"ce4bho12rcd13ifvqh1g","pricing_plan_id":"cebpf4jnsgd1na2vs0mg"},{"bike_id":"a118724e-099d-4517-9529-bc6e47cefa3a","system_id":"levelo_inurba_marseille","lat":43.30549,"lon":5.36522,"is_reserved":false,"is_disabled":false,"rental_uris":{"android":"levelo://app?vid=a118724e-099d-4517-9529-bc6e47cefa3a","ios":"levelo://app?vid=a118724e-099d-4517-9529-bc6e47cefa3a"},"vehicle_type_id":"4","last_reported":1733998257,"current_range_meters":30400,"station_id":"ce4bgs12rcd13ifvqcag","pricing_plan_id":"cebpf4jnsgd1na2vs0mg"},{"bike_id":"7d1c64de-20ad-43ab-b8e8-3d1ebb6602be","system_id":"levelo_inurba_marseille","lat":43.313636,"lon":5.384964,"is_reserved":false,"is_disabled":false,"rental_uris":{"android":"levelo://app?vid=7d1c64de-20ad-43ab-b8e8-3d1ebb6602be","ios":"levelo://app?vid=7d1c64de-20ad-43ab-b8e8-3d1ebb6602be"},"vehicle_type_id":"4","last_reported":1733998257,"current_range_meters":30000,"station_id":"ce4bgt92rcd13ifvqcf0","pricing_plan_id":"cebpf4jnsgd1na2vs0mg"},{"bike_id":"956866e0-6ca6-44d7-883c-ea6f43ee4bf6","system_id":"levelo_inurba_marseille","lat":43.27055,"lon":5.40259,"is_reserved":false,"is_disabled":false,"rental_uris":{"android":"levelo://app?vid=956866e0-6ca6-44d7-883c-ea6f43ee4bf6","ios":"levelo://app?vid=956866e0-6ca6-44d7-883c-ea6f43ee4bf6"},"vehicle_type_id":"4","last_reported":1733998257,"current_range_meters":16800,"station_id":"ce4bhk92rcd13ifvqgc0","pricing_plan_id":"cebpf4jnsgd1na2vs0mg"},{"bike_id":"1301c2fd-c7ff-4e18-9e0a-494e4e9bcdd5","system_id":"levelo_inurba_marseille","lat":43.30529,"lon":5.36538,"is_reserved":false,"is_disabled":false,"rental_uris":{"android":"levelo://app?vid=1301c2fd-c7ff-4e18-9e0a-494e4e9bcdd5","ios":"levelo://app?vid=1301c2fd-c7ff-4e18-9e0a-494e4e9bcdd5"},"vehicle_type_id":"4","last_reported":1733998257,"current_range_meters":39200,"station_id":"ce4bgs12rcd13ifvqcag","pricing_plan_id":"cebpf4jnsgd1na2vs0mg"},{"bike_id":"0aef8e9d-f456-4f07-bb45-92c78106ea88","system_id":"levelo_inurba_marseille","lat":43.29169,"lon":5.3716,"is_reserved":false,"is_disabled":false,"rental_uris":{"android":"levelo://app?vid=0aef8e9d-f456-4f07-bb45-92c78106ea88","ios":"levelo://app?vid=0aef8e9d-f456-4f07-bb45-92c78106ea88"},"vehicle_type_id":"4","last_reported":1733998257,"current_range_meters":38800,"station_id":"ce4bha92rcd13ifvqeh0","pricing_plan_id":"cebpf4jnsgd1na2vs0mg"},{"bike_id":"69486013-d09f-41ad-8119-ce65a8724ded","system_id":"levelo_inurba_marseille","lat":43.28379,"lon":5.38631,"is_reserved":false,"is_disabled":false,"rental_uris":{"android":"levelo://app?vid=69486013-d09f-41ad-8119-ce65a8724ded","ios":"levelo://app?vid=69486013-d09f-41ad-8119-ce65a8724ded"},"vehicle_type_id":"4","last_reported":1733998257,"current_range_meters":38000,"station_id":"ce4bh492rcd13ifvqdvg","pricing_plan_id":"cebpf4jnsgd1na2vs0mg"},{"bike_id":"b46ce38d-0dd3-4356-b2d1-ddb652ad74ea","system_id":"levelo_inurba_marseille","lat":43.25825,"lon":5.39428,"is_reserved":false,"is_disabled":false,"rental_uris":{"android":"levelo://app?vid=b46ce38d-0dd3-4356-b2d1-ddb652ad74ea","ios":"levelo://app?vid=b46ce38d-0dd3-4356-b2d1-ddb652ad74ea"},"vehicle_type_id":"4","last_reported":1733998257,"current_range_meters":16800,"station_id":"ce4bhip2rcd13ifvqft0","pricing_plan_id":"cebpf4jnsgd1na2vs0mg"},{"bike_id":"a63aa4f7-416d-41b3-86ee-b1056509ed96","system_id":"levelo_inurba_marseille","lat":43.30283,"lon":5.37692,"is_reserved":false,"is_disabled":false,"rental_uris":{"android":"levelo://app?vid=a63aa4f7-416d-41b3-86ee-b1056509ed96","ios":"levelo://app?vid=a63aa4f7-416d-41b3-86ee-b1056509ed96"},"vehicle_type_id":"4","last_reported":1733998257,"current_range_meters":38800,"station_id":"ce4bguh2rcd13ifvqcj0","pricing_plan_id":"cebpf4jnsgd1na2vs0mg"},{"bike_id":"c55f00ea-d5a6-49ed-8cf3-5193accea142","system_id":"levelo_inurba_marseille","lat":43.26686,"lon":5.38261,"is_reserved":false,"is_disabled":false,"rental_uris":{"android":"levelo://app?vid=c55f00ea-d5a6-49ed-8cf3-5193accea142","ios":"levelo://app?vid=c55f00ea-d5a6-49ed-8cf3-5193accea142"},"vehicle_type_id":"4","last_reported":1733998257,"current_range_meters":38800,"station_id":"ce4bhg92rcd13ifvqf90","pricing_plan_id":"cebpf4jnsgd1na2vs0mg"},{"bike_id":"36272bbc-2413-4d65-9f8d-f8eaf63041c0","system_id":"levelo_inurba_marseille","lat":43.27068,"lon":5.40249,"is_reserved":false,"is_disabled":true,"rental_uris":{"android":"levelo://app?vid=36272bbc-2413-4d65-9f8d-f8eaf63041c0","ios":"levelo://app?vid=36272bbc-2413-4d65-9f8d-f8eaf63041c0"},"vehicle_type_id":"4","last_reported":1733998257,"current_range_meters":24400,"station_id":"ce4bhk92rcd13ifvqgc0","pricing_plan_id":"cebpf4jnsgd1na2vs0mg"},{"bike_id":"fe4cab58-ba30-4c78-b62f-d4434eea7628","system_id":"levelo_inurba_marseille","lat":43.29442,"lon":5.39759,"is_reserved":false,"is_disabled":true,"rental_uris":{"android":"levelo://app?vid=fe4cab58-ba30-4c78-b62f-d4434eea7628","ios":"levelo://app?vid=fe4cab58-ba30-4c78-b62f-d4434eea7628"},"vehicle_type_id":"4","last_reported":1733998257,"current_range_meters":32400,"station_id":"ce4bh3h2rcd13ifvqdo0","pricing_plan_id":"cebpf4jnsgd1na2vs0mg"},{"bike_id":"3093cc6a-4dc7-42db-8355-04f1168da239","system_id":"levelo_inurba_marseille","lat":43.24072,"lon":5.37746,"is_reserved":false,"is_disabled":false,"rental_uris":{"android":"levelo://app?vid=3093cc6a-4dc7-42db-8355-04f1168da239","ios":"levelo://app?vid=3093cc6a-4dc7-42db-8355-04f1168da239"},"vehicle_type_id":"4","last_reported":1733998257,"current_range_meters":16000,"station_id":"ce4bhnp2rcd13ifvqgvg","pricing_plan_id":"cebpf4jnsgd1na2vs0mg"},{"bike_id":"80f66b82-54aa-4843-b64e-91d3afce4948","system_id":"levelo_inurba_marseille","lat":43.31217,"lon":5.36881,"is_reserved":false,"is_disabled":true,"rental_uris":{"android":"levelo://app?vid=80f66b82-54aa-4843-b64e-91d3afce4948","ios":"levelo://app?vid=80f66b82-54aa-4843-b64e-91d3afce4948"},"vehicle_type_id":"4","last_reported":1733998257,"current_range_meters":33600,"station_id":"ce4bgl92rcd13ifvqbq0","pricing_plan_id":"cebpf4jnsgd1na2vs0mg"},{"bike_id":"1c05fdb4-c893-4820-9992-1b73a6bfec3b","system_id":"levelo_inurba_marseille","lat":43.298433,"lon":5.36266,"is_reserved":false,"is_disabled":false,"rental_uris":{"android":"levelo://app?vid=1c05fdb4-c893-4820-9992-1b73a6bfec3b","ios":"levelo://app?vid=1c05fdb4-c893-4820-9992-1b73a6bfec3b"},"vehicle_type_id":"4","last_reported":1733998257,"current_range_meters":26800,"station_id":"ce4bgpp2rcd13ifvqc3g","pricing_plan_id":"cebpf4jnsgd1na2vs0mg"},{"bike_id":"47f67cba-9598-4036-afd5-7b4e9a185026","system_id":"levelo_inurba_marseille","lat":43.29278,"lon":5.36848,"is_reserved":false,"is_disabled":false,"rental_uris":{"android":"levelo://app?vid=47f67cba-9598-4036-afd5-7b4e9a185026","ios":"levelo://app?vid=47f67cba-9598-4036-afd5-7b4e9a185026"},"vehicle_type_id":"4","last_reported":1733998257,"current_range_meters":38000,"station_id":"ce4bhbp2rcd13ifvqesg","pricing_plan_id":"cebpf4jnsgd1na2vs0mg"},{"bike_id":"35808104-2e52-4245-b12f-c8dafc5cce55","system_id":"levelo_inurba_marseille","lat":43.32476,"lon":5.36572,"is_reserved":false,"is_disabled":false,"rental_uris":{"android":"levelo://app?vid=35808104-2e52-4245-b12f-c8dafc5cce55","ios":"levelo://app?vid=35808104-2e52-4245-b12f-c8dafc5cce55"},"vehicle_type_id":"4","last_reported":1733998257,"current_range_meters":38400,"station_id":"ce4bhs12rcd13ifvqhvg","pricing_plan_id":"cebpf4jnsgd1na2vs0mg"},{"bike_id":"3a56946e-b571-4f0a-89c3-228266a44430","system_id":"levelo_inurba_marseille","lat":43.26597,"lon":5.38971,"is_reserved":false,"is_disabled":true,"rental_uris":{"android":"levelo://app?vid=3a56946e-b571-4f0a-89c3-228266a44430","ios":"levelo://app?vid=3a56946e-b571-4f0a-89c3-228266a44430"},"vehicle_type_id":"4","last_reported":1733998257,"current_range_meters":4000,"station_id":"","pricing_plan_id":"cebpf4jnsgd1na2vs0mg"},{"bike_id":"a7f580ed-51b4-4313-a41e-537f7413d4cc","system_id":"levelo_inurba_marseille","lat":43.27066,"lon":5.40251,"is_reserved":false,"is_disabled":false,"rental_uris":{"android":"levelo://app?vid=a7f580ed-51b4-4313-a41e-537f7413d4cc","ios":"levelo://app?vid=a7f580ed-51b4-4313-a41e-537f7413d4cc"},"vehicle_type_id":"4","last_reported":1733998257,"current_range_meters":36000,"station_id":"ce4bhk92rcd13ifvqgc0","pricing_plan_id":"cebpf4jnsgd1na2vs0mg"},{"bike_id":"83d86471-0b95-4477-9349-a015d55c6b4b","system_id":"levelo_inurba_marseille","lat":43.32017,"lon":5.38087,"is_reserved":false,"is_disabled":true,"rental_uris":{"android":"levelo://app?vid=83d86471-0b95-4477-9349-a015d55c6b4b","ios":"levelo://app?vid=83d86471-0b95-4477-9349-a015d55c6b4b"},"vehicle_type_id":"4","last_reported":1733998257,"current_range_meters":0,"station_id":"","pricing_plan_id":"cebpf4jnsgd1na2vs0mg"},{"bike_id":"6b29723c-028d-4b12-9bd0-87f837b2148e","system_id":"levelo_inurba_marseille","lat":43.26025,"lon":5.37545,"is_reserved":false,"is_disabled":true,"rental_uris":{"android":"levelo://app?vid=6b29723c-028d-4b12-9bd0-87f837b2148e","ios":"levelo://app?vid=6b29723c-028d-4b12-9bd0-87f837b2148e"},"vehicle_type_id":"4","last_reported":1733998257,"current_range_meters":0,"station_id":"ce4bhgh2rcd13ifvqfa0","pricing_plan_id":"cebpf4jnsgd1na2vs0mg"},{"bike_id":"a1550964-b2a4-4b14-b933-b7bab56677a7","system_id":"levelo_inurba_marseille","lat":43.29008,"lon":5.35609,"is_reserved":false,"is_disabled":false,"rental_uris":{"android":"levelo://app?vid=a1550964-b2a4-4b14-b933-b7bab56677a7","ios":"levelo://app?vid=a1550964-b2a4-4b14-b933-b7bab56677a7"},"vehicle_type_id":"4","last_reported":1733998257,"current_range_meters":28800,"station_id":"ce4bhb92rcd13ifvqen0","pricing_plan_id":"cebpf4jnsgd1na2vs0mg"},{"bike_id":"b8b57374-11ac-4cc2-935a-01a2274b238a","system_id":"levelo_inurba_marseille","lat":43.29704,"lon":5.37294,"is_reserved":false,"is_disabled":false,"rental_uris":{"android":"levelo://app?vid=b8b57374-11ac-4cc2-935a-01a2274b238a","ios":"levelo://app?vid=b8b57374-11ac-4cc2-935a-01a2274b238a"},"vehicle_type_id":"4","last_reported":1733998257,"current_range_meters":26800,"station_id":"ce4bgk12rcd13ifvqbj0","pricing_plan_id":"cebpf4jnsgd1na2vs0mg"},{"bike_id":"c38c9a95-fd64-46c1-84c7-b6a6e21d5b7b","system_id":"levelo_inurba_marseille","lat":43.27052,"lon":5.40262,"is_reserved":false,"is_disabled":false,"rental_uris":{"android":"levelo://app?vid=c38c9a95-fd64-46c1-84c7-b6a6e21d5b7b","ios":"levelo://app?vid=c38c9a95-fd64-46c1-84c7-b6a6e21d5b7b"},"vehicle_type_id":"4","last_reported":1733998257,"current_range_meters":18800,"station_id":"ce4bhk92rcd13ifvqgc0","pricing_plan_id":"cebpf4jnsgd1na2vs0mg"},{"bike_id":"607dead6-d82d-4803-872b-9405f5b50010","system_id":"levelo_inurba_marseille","lat":43.30142,"lon":5.37409,"is_reserved":false,"is_disabled":false,"rental_uris":{"android":"levelo://app?vid=607dead6-d82d-4803-872b-9405f5b50010","ios":"levelo://app?vid=607dead6-d82d-4803-872b-9405f5b50010"},"vehicle_type_id":"4","last_reported":1733998257,"current_range_meters":24800,"station_id":"ce4bgs92rcd13ifvqcc0","pricing_plan_id":"cebpf4jnsgd1na2vs0mg"},{"bike_id":"d21eb284-29b9-425a-9aa8-d4b2071c3ef5","system_id":"levelo_inurba_marseille","lat":43.29924,"lon":5.37466,"is_reserved":false,"is_disabled":false,"rental_uris":{"android":"levelo://app?vid=d21eb284-29b9-425a-9aa8-d4b2071c3ef5","ios":"levelo://app?vid=d21eb284-29b9-425a-9aa8-d4b2071c3ef5"},"vehicle_type_id":"4","last_reported":1733998257,"current_range_meters":29600,"station_id":"ce4bgjh2rcd13ifvqbg0","pricing_plan_id":"cebpf4jnsgd1na2vs0mg"},{"bike_id":"8b9eb983-bee7-4e42-8cbd-e96f1ebba8e6","system_id":"levelo_inurba_marseille","lat":43.302793,"lon":5.377113,"is_reserved":false,"is_disabled":false,"rental_uris":{"android":"levelo://app?vid=8b9eb983-bee7-4e42-8cbd-e96f1ebba8e6","ios":"levelo://app?vid=8b9eb983-bee7-4e42-8cbd-e96f1ebba8e6"},"vehicle_type_id":"4","last_reported":1733998257,"current_range_meters":38800,"station_id":"ce4bguh2rcd13ifvqcj0","pricing_plan_id":"cebpf4jnsgd1na2vs0mg"},{"bike_id":"4552534d-00b9-4142-9baa-7b817acd308f","system_id":"levelo_inurba_marseille","lat":43.32479,"lon":5.36567,"is_reserved":false,"is_disabled":false,"rental_uris":{"android":"levelo://app?vid=4552534d-00b9-4142-9baa-7b817acd308f","ios":"levelo://app?vid=4552534d-00b9-4142-9baa-7b817acd308f"},"vehicle_type_id":"4","last_reported":1733998257,"current_range_meters":28800,"station_id":"ce4bhs12rcd13ifvqhvg","pricing_plan_id":"cebpf4jnsgd1na2vs0mg"},{"bike_id":"11933e04-d81a-4d25-aa83-cc295172b3a1","system_id":"levelo_inurba_marseille","lat":43.25414,"lon":5.38269,"is_reserved":false,"is_disabled":true,"rental_uris":{"android":"levelo://app?vid=11933e04-d81a-4d25-aa83-cc295172b3a1","ios":"levelo://app?vid=11933e04-d81a-4d25-aa83-cc295172b3a1"},"vehicle_type_id":"4","last_reported":1733998257,"current_range_meters":30400,"station_id":"","pricing_plan_id":"cebpf4jnsgd1na2vs0mg"},{"bike_id":"eb6dfd80-6e3a-4c5a-b329-b4b580f057e4","system_id":"levelo_inurba_marseille","lat":43.27493,"lon":5.42457,"is_reserved":false,"is_disabled":false,"rental_uris":{"android":"levelo://app?vid=eb6dfd80-6e3a-4c5a-b329-b4b580f057e4","ios":"levelo://app?vid=eb6dfd80-6e3a-4c5a-b329-b4b580f057e4"},"vehicle_type_id":"4","last_reported":1733998257,"current_range_meters":30400,"station_id":"ce4bhn92rcd13ifvqgrg","pricing_plan_id":"cebpf4jnsgd1na2vs0mg"},{"bike_id":"48bbbc10-ea65-47ba-a7f7-0e3eb1781c39","system_id":"levelo_inurba_marseille","lat":43.30946,"lon":5.39032,"is_reserved":false,"is_disabled":false,"rental_uris":{"android":"levelo://app?vid=48bbbc10-ea65-47ba-a7f7-0e3eb1781c39","ios":"levelo://app?vid=48bbbc10-ea65-47ba-a7f7-0e3eb1781c39"},"vehicle_type_id":"4","last_reported":1733998257,"current_range_meters":23200,"station_id":"ce4bgup2rcd13ifvqco0","pricing_plan_id":"cebpf4jnsgd1na2vs0mg"},{"bike_id":"b6a68996-7580-4e05-9793-92d20ed9e0c0","system_id":"levelo_inurba_marseille","lat":43.25,"lon":5.38933,"is_reserved":false,"is_disabled":false,"rental_uris":{"android":"levelo://app?vid=b6a68996-7580-4e05-9793-92d20ed9e0c0","ios":"levelo://app?vid=b6a68996-7580-4e05-9793-92d20ed9e0c0"},"vehicle_type_id":"4","last_reported":1733998257,"current_range_meters":38800,"station_id":"ce4bhgp2rcd13ifvqfd0","pricing_plan_id":"cebpf4jnsgd1na2vs0mg"},{"bike_id":"1236fb08-3e68-4be7-af56-215622774d14","system_id":"levelo_inurba_marseille","lat":43.23966,"lon":5.3663,"is_reserved":false,"is_disabled":false,"rental_uris":{"android":"levelo://app?vid=1236fb08-3e68-4be7-af56-215622774d14","ios":"levelo://app?vid=1236fb08-3e68-4be7-af56-215622774d14"},"vehicle_type_id":"4","last_reported":1733998257,"current_range_meters":24800,"station_id":"ce4bhi12rcd13ifvqfp0","pricing_plan_id":"cebpf4jnsgd1na2vs0mg"},{"bike_id":"30b7f7b0-cffb-44e8-9e23-86428fe1183d","system_id":"levelo_inurba_marseille","lat":43.23064,"lon":5.35493,"is_reserved":false,"is_disabled":false,"rental_uris":{"android":"levelo://app?vid=30b7f7b0-cffb-44e8-9e23-86428fe1183d","ios":"levelo://app?vid=30b7f7b0-cffb-44e8-9e23-86428fe1183d"},"vehicle_type_id":"4","last_reported":1733998257,"current_range_meters":8800,"station_id":"cpo3342slgdg3j2ifvpg","pricing_plan_id":"cebpf4jnsgd1na2vs0mg"},{"bike_id":"6af13618-4365-4d73-921a-aee3b3e1b285","system_id":"levelo_inurba_marseille","lat":43.26707,"lon":5.38279,"is_reserved":false,"is_disabled":false,"rental_uris":{"android":"levelo://app?vid=6af13618-4365-4d73-921a-aee3b3e1b285","ios":"levelo://app?vid=6af13618-4365-4d73-921a-aee3b3e1b285"},"vehicle_type_id":"4","last_reported":1733998257,"current_range_meters":16800,"station_id":"ce4bhg92rcd13ifvqf90","pricing_plan_id":"cebpf4jnsgd1na2vs0mg"},{"bike_id":"d6d5670a-39f7-4193-8de1-90ffa577f14e","system_id":"levelo_inurba_marseille","lat":43.26214,"lon":5.37951,"is_reserved":false,"is_disabled":false,"rental_uris":{"android":"levelo://app?vid=d6d5670a-39f7-4193-8de1-90ffa577f14e","ios":"levelo://app?vid=d6d5670a-39f7-4193-8de1-90ffa577f14e"},"vehicle_type_id":"4","last_reported":1733998257,"current_range_meters":38800,"station_id":"ce4bhjp2rcd13ifvqg90","pricing_plan_id":"cebpf4jnsgd1na2vs0mg"},{"bike_id":"32bfe107-c1b6-43ad-a321-1758cb4d58fa","system_id":"levelo_inurba_marseille","lat":43.30596,"lon":5.3723,"is_reserved":false,"is_disabled":false,"rental_uris":{"android":"levelo://app?vid=32bfe107-c1b6-43ad-a321-1758cb4d58fa","ios":"levelo://app?vid=32bfe107-c1b6-43ad-a321-1758cb4d58fa"},"vehicle_type_id":"4","last_reported":1733998257,"current_range_meters":16000,"station_id":"ce4bgqh2rcd13ifvqc4g","pricing_plan_id":"cebpf4jnsgd1na2vs0mg"},{"bike_id":"f8b49a8b-76af-4c34-a445-4719a4b98693","system_id":"levelo_inurba_marseille","lat":43.32294,"lon":5.38281,"is_reserved":false,"is_disabled":false,"rental_uris":{"android":"levelo://app?vid=f8b49a8b-76af-4c34-a445-4719a4b98693","ios":"levelo://app?vid=f8b49a8b-76af-4c34-a445-4719a4b98693"},"vehicle_type_id":"4","last_reported":1733998257,"current_range_meters":38000,"station_id":"ce4bhr12rcd13ifvqhqg","pricing_plan_id":"cebpf4jnsgd1na2vs0mg"},{"bike_id":"a1c3c958-7da5-47f0-9f54-81a590313cfe","system_id":"levelo_inurba_marseille","lat":43.30944,"lon":5.39042,"is_reserved":false,"is_disabled":false,"rental_uris":{"android":"levelo://app?vid=a1c3c958-7da5-47f0-9f54-81a590313cfe","ios":"levelo://app?vid=a1c3c958-7da5-47f0-9f54-81a590313cfe"},"vehicle_type_id":"4","last_reported":1733998257,"current_range_meters":24400,"station_id":"ce4bgup2rcd13ifvqco0","pricing_plan_id":"cebpf4jnsgd1na2vs0mg"},{"bike_id":"302f543c-4369-40d9-baa7-901915e518d9","system_id":"levelo_inurba_marseille","lat":43.25861,"lon":5.399,"is_reserved":false,"is_disabled":false,"rental_uris":{"android":"levelo://app?vid=302f543c-4369-40d9-baa7-901915e518d9","ios":"levelo://app?vid=302f543c-4369-40d9-baa7-901915e518d9"},"vehicle_type_id":"4","last_reported":1733998257,"current_range_meters":38000,"station_id":"ce4bhl92rcd13ifvqghg","pricing_plan_id":"cebpf4jnsgd1na2vs0mg"},{"bike_id":"538f848f-8623-403d-a824-089884b30765","system_id":"levelo_inurba_marseille","lat":43.26194,"lon":5.37449,"is_reserved":false,"is_disabled":false,"rental_uris":{"android":"levelo://app?vid=538f848f-8623-403d-a824-089884b30765","ios":"levelo://app?vid=538f848f-8623-403d-a824-089884b30765"},"vehicle_type_id":"4","last_reported":1733998257,"current_range_meters":32800,"station_id":"ce4bhgp2rcd13ifvqfc0","pricing_plan_id":"cebpf4jnsgd1na2vs0mg"},{"bike_id":"75702655-cffa-4025-a28c-24d88b0da75e","system_id":"levelo_inurba_marseille","lat":43.29366,"lon":5.37781,"is_reserved":false,"is_disabled":false,"rental_uris":{"android":"levelo://app?vid=75702655-cffa-4025-a28c-24d88b0da75e","ios":"levelo://app?vid=75702655-cffa-4025-a28c-24d88b0da75e"},"vehicle_type_id":"4","last_reported":1733998257,"current_range_meters":39200,"station_id":"ce4bgjh2rcd13ifvqbf0","pricing_plan_id":"cebpf4jnsgd1na2vs0mg"},{"bike_id":"4b480f76-0d7e-4099-bb5a-df1b223cc3fb","system_id":"levelo_inurba_marseille","lat":43.29306,"lon":5.37454,"is_reserved":false,"is_disabled":false,"rental_uris":{"android":"levelo://app?vid=4b480f76-0d7e-4099-bb5a-df1b223cc3fb","ios":"levelo://app?vid=4b480f76-0d7e-4099-bb5a-df1b223cc3fb"},"vehicle_type_id":"4","last_reported":1733998257,"current_range_meters":36800,"station_id":"ce4bgi12rcd13ifvqb70","pricing_plan_id":"cebpf4jnsgd1na2vs0mg"},{"bike_id":"38be23f3-2117-4b68-8daa-edbad697b6c1","system_id":"levelo_inurba_marseille","lat":43.24075,"lon":5.37753,"is_reserved":false,"is_disabled":false,"rental_uris":{"android":"levelo://app?vid=38be23f3-2117-4b68-8daa-edbad697b6c1","ios":"levelo://app?vid=38be23f3-2117-4b68-8daa-edbad697b6c1"},"vehicle_type_id":"4","last_reported":1733998257,"current_range_meters":38800,"station_id":"ce4bhnp2rcd13ifvqgvg","pricing_plan_id":"cebpf4jnsgd1na2vs0mg"},{"bike_id":"6b9141a0-76f9-46d7-af69-215e15083fbf","system_id":"levelo_inurba_marseille","lat":43.23151,"lon":5.43718,"is_reserved":false,"is_disabled":false,"rental_uris":{"android":"levelo://app?vid=6b9141a0-76f9-46d7-af69-215e15083fbf","ios":"levelo://app?vid=6b9141a0-76f9-46d7-af69-215e15083fbf"},"vehicle_type_id":"4","last_reported":1733998257,"current_range_meters":28800,"station_id":"ce4bhmp2rcd13ifvqgog","pricing_plan_id":"cebpf4jnsgd1na2vs0mg"},{"bike_id":"62407a8f-37a9-47a9-a09a-3cd8c28b9b64","system_id":"levelo_inurba_marseille","lat":43.28711,"lon":5.39984,"is_reserved":false,"is_disabled":true,"rental_uris":{"android":"levelo://app?vid=62407a8f-37a9-47a9-a09a-3cd8c28b9b64","ios":"levelo://app?vid=62407a8f-37a9-47a9-a09a-3cd8c28b9b64"},"vehicle_type_id":"4","last_reported":1733998257,"current_range_meters":38800,"station_id":"ce4bho92rcd13ifvqh3g","pricing_plan_id":"cebpf4jnsgd1na2vs0mg"},{"bike_id":"b822e2c6-0f18-460e-a1d3-bfb1bde2266e","system_id":"levelo_inurba_marseille","lat":43.29623,"lon":5.377,"is_reserved":false,"is_disabled":false,"rental_uris":{"android":"levelo://app?vid=b822e2c6-0f18-460e-a1d3-bfb1bde2266e","ios":"levelo://app?vid=b822e2c6-0f18-460e-a1d3-bfb1bde2266e"},"vehicle_type_id":"4","last_reported":1733998257,"current_range_meters":25200,"station_id":"ce4bgi92rcd13ifvqb90","pricing_plan_id":"cebpf4jnsgd1na2vs0mg"},{"bike_id":"a2ba7166-f7af-4281-8f28-8c38791c817a","system_id":"levelo_inurba_marseille","lat":43.30137,"lon":5.39877,"is_reserved":false,"is_disabled":false,"rental_uris":{"android":"levelo://app?vid=a2ba7166-f7af-4281-8f28-8c38791c817a","ios":"levelo://app?vid=a2ba7166-f7af-4281-8f28-8c38791c817a"},"vehicle_type_id":"4","last_reported":1733998257,"current_range_meters":4000,"station_id":"ce4bh0h2rcd13ifvqd40","pricing_plan_id":"cebpf4jnsgd1na2vs0mg"},{"bike_id":"a08254b6-611a-474e-950b-9ab70b3bb0af","system_id":"levelo_inurba_marseille","lat":43.26204,"lon":5.37441,"is_reserved":false,"is_disabled":false,"rental_uris":{"android":"levelo://app?vid=a08254b6-611a-474e-950b-9ab70b3bb0af","ios":"levelo://app?vid=a08254b6-611a-474e-950b-9ab70b3bb0af"},"vehicle_type_id":"4","last_reported":1733998257,"current_range_meters":28800,"station_id":"ce4bhgp2rcd13ifvqfc0","pricing_plan_id":"cebpf4jnsgd1na2vs0mg"},{"bike_id":"5d6c49e8-e275-4712-9f7d-91d5d078939c","system_id":"levelo_inurba_marseille","lat":43.26947,"lon":5.38621,"is_reserved":false,"is_disabled":false,"rental_uris":{"android":"levelo://app?vid=5d6c49e8-e275-4712-9f7d-91d5d078939c","ios":"levelo://app?vid=5d6c49e8-e275-4712-9f7d-91d5d078939c"},"vehicle_type_id":"4","last_reported":1733998257,"current_range_meters":6800,"station_id":"ce4bhh92rcd13ifvqfh0","pricing_plan_id":"cebpf4jnsgd1na2vs0mg"},{"bike_id":"6b7da9da-7ed8-4376-8377-8274a75ba481","system_id":"levelo_inurba_marseille","lat":43.266257,"lon":5.403133,"is_reserved":false,"is_disabled":true,"rental_uris":{"android":"levelo://app?vid=6b7da9da-7ed8-4376-8377-8274a75ba481","ios":"levelo://app?vid=6b7da9da-7ed8-4376-8377-8274a75ba481"},"vehicle_type_id":"4","last_reported":1733998257,"current_range_meters":37600,"station_id":"","pricing_plan_id":"cebpf4jnsgd1na2vs0mg"},{"bike_id":"ab369fad-84da-4d4f-a8f1-42ef47ce8f69","system_id":"levelo_inurba_marseille","lat":43.29578,"lon":5.37511,"is_reserved":false,"is_disabled":false,"rental_uris":{"android":"levelo://app?vid=ab369fad-84da-4d4f-a8f1-42ef47ce8f69","ios":"levelo://app?vid=ab369fad-84da-4d4f-a8f1-42ef47ce8f69"},"vehicle_type_id":"4","last_reported":1733998257,"current_range_meters":34800,"station_id":"ce4bgh92rcd13ifvqb50","pricing_plan_id":"cebpf4jnsgd1na2vs0mg"},{"bike_id":"af67ac53-ba21-4ff0-8334-95679e9ff2cc","system_id":"levelo_inurba_marseille","lat":43.278805,"lon":5.388003,"is_reserved":false,"is_disabled":true,"rental_uris":{"android":"levelo://app?vid=af67ac53-ba21-4ff0-8334-95679e9ff2cc","ios":"levelo://app?vid=af67ac53-ba21-4ff0-8334-95679e9ff2cc"},"vehicle_type_id":"4","last_reported":1733998257,"current_range_meters":0,"station_id":"","pricing_plan_id":"cebpf4jnsgd1na2vs0mg"},{"bike_id":"ab6bb814-6be0-4a23-8be0-7c219c550454","system_id":"levelo_inurba_marseille","lat":43.29449,"lon":5.39761,"is_reserved":false,"is_disabled":true,"rental_uris":{"android":"levelo://app?vid=ab6bb814-6be0-4a23-8be0-7c219c550454","ios":"levelo://app?vid=ab6bb814-6be0-4a23-8be0-7c219c550454"},"vehicle_type_id":"4","last_reported":1733998257,"current_range_meters":0,"station_id":"ce4bh3h2rcd13ifvqdo0","pricing_plan_id":"cebpf4jnsgd1na2vs0mg"},{"bike_id":"2df3375e-cb52-4dbb-999d-318e040b651e","system_id":"levelo_inurba_marseille","lat":43.24648,"lon":5.38889,"is_reserved":false,"is_disabled":false,"rental_uris":{"android":"levelo://app?vid=2df3375e-cb52-4dbb-999d-318e040b651e","ios":"levelo://app?vid=2df3375e-cb52-4dbb-999d-318e040b651e"},"vehicle_type_id":"4","last_reported":1733998257,"current_range_meters":32000,"station_id":"ce4bhg12rcd13ifvqf60","pricing_plan_id":"cebpf4jnsgd1na2vs0mg"},{"bike_id":"47d1ce41-a735-452d-86c1-d05bd6961be4","system_id":"levelo_inurba_marseille","lat":43.31486,"lon":5.37311,"is_reserved":false,"is_disabled":false,"rental_uris":{"android":"levelo://app?vid=47d1ce41-a735-452d-86c1-d05bd6961be4","ios":"levelo://app?vid=47d1ce41-a735-452d-86c1-d05bd6961be4"},"vehicle_type_id":"4","last_reported":1733998257,"current_range_meters":22800,"station_id":"ce4bgt12rcd13ifvqcd0","pricing_plan_id":"cebpf4jnsgd1na2vs0mg"},{"bike_id":"8702494f-d11b-4ff7-a416-5cf45f7af1a7","system_id":"levelo_inurba_marseille","lat":43.25,"lon":5.38929,"is_reserved":false,"is_disabled":false,"rental_uris":{"android":"levelo://app?vid=8702494f-d11b-4ff7-a416-5cf45f7af1a7","ios":"levelo://app?vid=8702494f-d11b-4ff7-a416-5cf45f7af1a7"},"vehicle_type_id":"4","last_reported":1733998257,"current_range_meters":28000,"station_id":"ce4bhgp2rcd13ifvqfd0","pricing_plan_id":"cebpf4jnsgd1na2vs0mg"},{"bike_id":"746cf22e-fb32-4549-9200-3558ee866b54","system_id":"levelo_inurba_marseille","lat":43.30549,"lon":5.36528,"is_reserved":false,"is_disabled":false,"rental_uris":{"android":"levelo://app?vid=746cf22e-fb32-4549-9200-3558ee866b54","ios":"levelo://app?vid=746cf22e-fb32-4549-9200-3558ee866b54"},"vehicle_type_id":"4","last_reported":1733998257,"current_range_meters":34000,"station_id":"ce4bgs12rcd13ifvqcag","pricing_plan_id":"cebpf4jnsgd1na2vs0mg"},{"bike_id":"f8a2bd8e-0796-445d-a525-a55268d4e958","system_id":"levelo_inurba_marseille","lat":43.2706,"lon":5.40259,"is_reserved":false,"is_disabled":false,"rental_uris":{"android":"levelo://app?vid=f8a2bd8e-0796-445d-a525-a55268d4e958","ios":"levelo://app?vid=f8a2bd8e-0796-445d-a525-a55268d4e958"},"vehicle_type_id":"4","last_reported":1733998257,"current_range_meters":19600,"station_id":"ce4bhk92rcd13ifvqgc0","pricing_plan_id":"cebpf4jnsgd1na2vs0mg"},{"bike_id":"077a5362-7fe4-48f0-a290-1dc6951f628f","system_id":"levelo_inurba_marseille","lat":43.30554,"lon":5.36522,"is_reserved":false,"is_disabled":false,"rental_uris":{"android":"levelo://app?vid=077a5362-7fe4-48f0-a290-1dc6951f628f","ios":"levelo://app?vid=077a5362-7fe4-48f0-a290-1dc6951f628f"},"vehicle_type_id":"4","last_reported":1733998257,"current_range_meters":30800,"station_id":"ce4bgs12rcd13ifvqcag","pricing_plan_id":"cebpf4jnsgd1na2vs0mg"},{"bike_id":"be0b8c3f-0afb-42d7-82d2-88e533cc17ea","system_id":"levelo_inurba_marseille","lat":43.291045,"lon":5.372227,"is_reserved":false,"is_disabled":true,"rental_uris":{"android":"levelo://app?vid=be0b8c3f-0afb-42d7-82d2-88e533cc17ea","ios":"levelo://app?vid=be0b8c3f-0afb-42d7-82d2-88e533cc17ea"},"vehicle_type_id":"4","last_reported":1733998257,"current_range_meters":23200,"station_id":"","pricing_plan_id":"cebpf4jnsgd1na2vs0mg"},{"bike_id":"b5fcaa86-c09e-4c69-8628-53e487fd6934","system_id":"levelo_inurba_marseille","lat":43.29379,"lon":5.37846,"is_reserved":false,"is_disabled":true,"rental_uris":{"android":"levelo://app?vid=b5fcaa86-c09e-4c69-8628-53e487fd6934","ios":"levelo://app?vid=b5fcaa86-c09e-4c69-8628-53e487fd6934"},"vehicle_type_id":"4","last_reported":1733998257,"current_range_meters":36800,"station_id":"ce4bgjh2rcd13ifvqbf0","pricing_plan_id":"cebpf4jnsgd1na2vs0mg"},{"bike_id":"870e6636-b21e-471c-863d-86dd369d4305","system_id":"levelo_inurba_marseille","lat":43.2694,"lon":5.40239,"is_reserved":false,"is_disabled":false,"rental_uris":{"android":"levelo://app?vid=870e6636-b21e-471c-863d-86dd369d4305","ios":"levelo://app?vid=870e6636-b21e-471c-863d-86dd369d4305"},"vehicle_type_id":"4","last_reported":1733998257,"current_range_meters":39200,"station_id":"cjm6bp8fraef2m0cb0m0","pricing_plan_id":"cebpf4jnsgd1na2vs0mg"},{"bike_id":"f2f70828-c0e0-4752-89fa-1aab0c5d8a74","system_id":"levelo_inurba_marseille","lat":43.27203,"lon":5.39192,"is_reserved":false,"is_disabled":true,"rental_uris":{"android":"levelo://app?vid=f2f70828-c0e0-4752-89fa-1aab0c5d8a74","ios":"levelo://app?vid=f2f70828-c0e0-4752-89fa-1aab0c5d8a74"},"vehicle_type_id":"4","last_reported":1733998257,"current_range_meters":36800,"station_id":"ce4bhhp2rcd13ifvqfm0","pricing_plan_id":"cebpf4jnsgd1na2vs0mg"},{"bike_id":"44ccccb4-8824-4a53-959e-0260f2eaf634","system_id":"levelo_inurba_marseille","lat":43.30127,"lon":5.39882,"is_reserved":false,"is_disabled":false,"rental_uris":{"android":"levelo://app?vid=44ccccb4-8824-4a53-959e-0260f2eaf634","ios":"levelo://app?vid=44ccccb4-8824-4a53-959e-0260f2eaf634"},"vehicle_type_id":"4","last_reported":1733998257,"current_range_meters":36800,"station_id":"ce4bh0h2rcd13ifvqd40","pricing_plan_id":"cebpf4jnsgd1na2vs0mg"},{"bike_id":"a214a67a-cd21-4b59-aa3a-17ded049d0ef","system_id":"levelo_inurba_marseille","lat":43.26934,"lon":5.38922,"is_reserved":false,"is_disabled":false,"rental_uris":{"android":"levelo://app?vid=a214a67a-cd21-4b59-aa3a-17ded049d0ef","ios":"levelo://app?vid=a214a67a-cd21-4b59-aa3a-17ded049d0ef"},"vehicle_type_id":"4","last_reported":1733998257,"current_range_meters":6000,"station_id":"ce4bhhh2rcd13ifvqfl0","pricing_plan_id":"cebpf4jnsgd1na2vs0mg"},{"bike_id":"91c3f92e-5d61-470b-b958-c89d04138b23","system_id":"levelo_inurba_marseille","lat":43.29569,"lon":5.37505,"is_reserved":false,"is_disabled":true,"rental_uris":{"android":"levelo://app?vid=91c3f92e-5d61-470b-b958-c89d04138b23","ios":"levelo://app?vid=91c3f92e-5d61-470b-b958-c89d04138b23"},"vehicle_type_id":"4","last_reported":1733998257,"current_range_meters":1200,"station_id":"ce4bgh92rcd13ifvqb50","pricing_plan_id":"cebpf4jnsgd1na2vs0mg"},{"bike_id":"d0f5513d-3bf5-45bd-934b-6d9157f2dc8d","system_id":"levelo_inurba_marseille","lat":43.30531,"lon":5.38424,"is_reserved":false,"is_disabled":false,"rental_uris":{"android":"levelo://app?vid=d0f5513d-3bf5-45bd-934b-6d9157f2dc8d","ios":"levelo://app?vid=d0f5513d-3bf5-45bd-934b-6d9157f2dc8d"},"vehicle_type_id":"4","last_reported":1733998257,"current_range_meters":30000,"station_id":"ce4bgg92rcd13ifvqb30","pricing_plan_id":"cebpf4jnsgd1na2vs0mg"},{"bike_id":"f607e23f-a1c8-4aab-975b-9cefcd091f7e","system_id":"levelo_inurba_marseille","lat":43.25577,"lon":5.38236,"is_reserved":false,"is_disabled":false,"rental_uris":{"android":"levelo://app?vid=f607e23f-a1c8-4aab-975b-9cefcd091f7e","ios":"levelo://app?vid=f607e23f-a1c8-4aab-975b-9cefcd091f7e"},"vehicle_type_id":"4","last_reported":1733998257,"current_range_meters":38800,"station_id":"ce4bhih2rcd13ifvqfs0","pricing_plan_id":"cebpf4jnsgd1na2vs0mg"},{"bike_id":"401658a5-bac4-46c4-856b-933ab0b765b2","system_id":"levelo_inurba_marseille","lat":43.29859,"lon":5.36463,"is_reserved":false,"is_disabled":true,"rental_uris":{"android":"levelo://app?vid=401658a5-bac4-46c4-856b-933ab0b765b2","ios":"levelo://app?vid=401658a5-bac4-46c4-856b-933ab0b765b2"},"vehicle_type_id":"4","last_reported":1733998257,"current_range_meters":0,"station_id":"ce4bgm92rcd13ifvqbr0","pricing_plan_id":"cebpf4jnsgd1na2vs0mg"},{"bike_id":"51f3d01a-6f5a-4671-84ea-08e7a67e7f3b","system_id":"levelo_inurba_marseille","lat":43.26553,"lon":5.37284,"is_reserved":false,"is_disabled":true,"rental_uris":{"android":"levelo://app?vid=51f3d01a-6f5a-4671-84ea-08e7a67e7f3b","ios":"levelo://app?vid=51f3d01a-6f5a-4671-84ea-08e7a67e7f3b"},"vehicle_type_id":"4","last_reported":1733998257,"current_range_meters":0,"station_id":"ce4bhg12rcd13ifvqf70","pricing_plan_id":"cebpf4jnsgd1na2vs0mg"},{"bike_id":"3f566ab8-0746-4570-af91-a981628ea26d","system_id":"levelo_inurba_marseille","lat":43.27076,"lon":5.42278,"is_reserved":false,"is_disabled":false,"rental_uris":{"android":"levelo://app?vid=3f566ab8-0746-4570-af91-a981628ea26d","ios":"levelo://app?vid=3f566ab8-0746-4570-af91-a981628ea26d"},"vehicle_type_id":"4","last_reported":1733998257,"current_range_meters":8800,"station_id":"ce4bhk92rcd13ifvqgb0","pricing_plan_id":"cebpf4jnsgd1na2vs0mg"},{"bike_id":"903fc880-9114-4f5a-ab5e-510528b4f0ca","system_id":"levelo_inurba_marseille","lat":43.31363,"lon":5.36694,"is_reserved":false,"is_disabled":false,"rental_uris":{"android":"levelo://app?vid=903fc880-9114-4f5a-ab5e-510528b4f0ca","ios":"levelo://app?vid=903fc880-9114-4f5a-ab5e-510528b4f0ca"},"vehicle_type_id":"4","last_reported":1733998257,"current_range_meters":36400,"station_id":"ce4bgr92rcd13ifvqc6g","pricing_plan_id":"cebpf4jnsgd1na2vs0mg"},{"bike_id":"e5444b26-80f3-4ae1-a1f2-15f77641559b","system_id":"levelo_inurba_marseille","lat":43.2621,"lon":5.37441,"is_reserved":false,"is_disabled":false,"rental_uris":{"android":"levelo://app?vid=e5444b26-80f3-4ae1-a1f2-15f77641559b","ios":"levelo://app?vid=e5444b26-80f3-4ae1-a1f2-15f77641559b"},"vehicle_type_id":"4","last_reported":1733998257,"current_range_meters":18800,"station_id":"ce4bhgp2rcd13ifvqfc0","pricing_plan_id":"cebpf4jnsgd1na2vs0mg"},{"bike_id":"9c40c924-2968-4fd9-86ae-bdf15b1ec5fe","system_id":"levelo_inurba_marseille","lat":43.26577,"lon":5.39009,"is_reserved":false,"is_disabled":false,"rental_uris":{"android":"levelo://app?vid=9c40c924-2968-4fd9-86ae-bdf15b1ec5fe","ios":"levelo://app?vid=9c40c924-2968-4fd9-86ae-bdf15b1ec5fe"},"vehicle_type_id":"4","last_reported":1733998257,"current_range_meters":18000,"station_id":"ce4bhe12rcd13ifvqf30","pricing_plan_id":"cebpf4jnsgd1na2vs0mg"},{"bike_id":"5746a913-59cb-4881-b851-217de753d5a3","system_id":"levelo_inurba_marseille","lat":43.25076,"lon":5.39513,"is_reserved":false,"is_disabled":false,"rental_uris":{"android":"levelo://app?vid=5746a913-59cb-4881-b851-217de753d5a3","ios":"levelo://app?vid=5746a913-59cb-4881-b851-217de753d5a3"},"vehicle_type_id":"4","last_reported":1733998257,"current_range_meters":32400,"station_id":"ce4bhm12rcd13ifvqgkg","pricing_plan_id":"cebpf4jnsgd1na2vs0mg"},{"bike_id":"ea022153-f382-426f-96bb-417317afb910","system_id":"levelo_inurba_marseille","lat":43.3175,"lon":5.39013,"is_reserved":false,"is_disabled":false,"rental_uris":{"android":"levelo://app?vid=ea022153-f382-426f-96bb-417317afb910","ios":"levelo://app?vid=ea022153-f382-426f-96bb-417317afb910"},"vehicle_type_id":"4","last_reported":1733998257,"current_range_meters":24400,"station_id":"ce4bhqp2rcd13ifvqhng","pricing_plan_id":"cebpf4jnsgd1na2vs0mg"},{"bike_id":"18449eca-7cd4-4637-aad8-d740a9109818","system_id":"levelo_inurba_marseille","lat":43.26799,"lon":5.40268,"is_reserved":false,"is_disabled":false,"rental_uris":{"android":"levelo://app?vid=18449eca-7cd4-4637-aad8-d740a9109818","ios":"levelo://app?vid=18449eca-7cd4-4637-aad8-d740a9109818"},"vehicle_type_id":"4","last_reported":1733998257,"current_range_meters":33200,"station_id":"ce501612rcd8frsf0b60","pricing_plan_id":"cebpf4jnsgd1na2vs0mg"},{"bike_id":"9f59f892-069b-4e04-9fca-167860a220e8","system_id":"levelo_inurba_marseille","lat":43.30662,"lon":5.38043,"is_reserved":false,"is_disabled":false,"rental_uris":{"android":"levelo://app?vid=9f59f892-069b-4e04-9fca-167860a220e8","ios":"levelo://app?vid=9f59f892-069b-4e04-9fca-167860a220e8"},"vehicle_type_id":"4","last_reported":1733998257,"current_range_meters":18000,"station_id":"","pricing_plan_id":"cebpf4jnsgd1na2vs0mg"},{"bike_id":"f2bcd17e-a48b-4d3d-a3a2-4a8aa0781929","system_id":"levelo_inurba_marseille","lat":43.30956,"lon":5.39057,"is_reserved":false,"is_disabled":false,"rental_uris":{"android":"levelo://app?vid=f2bcd17e-a48b-4d3d-a3a2-4a8aa0781929","ios":"levelo://app?vid=f2bcd17e-a48b-4d3d-a3a2-4a8aa0781929"},"vehicle_type_id":"4","last_reported":1733998257,"current_range_meters":10800,"station_id":"ce4bgup2rcd13ifvqco0","pricing_plan_id":"cebpf4jnsgd1na2vs0mg"},{"bike_id":"76f3328f-e574-457e-a081-a550f776ec21","system_id":"levelo_inurba_marseille","lat":43.24066,"lon":5.37765,"is_reserved":false,"is_disabled":false,"rental_uris":{"android":"levelo://app?vid=76f3328f-e574-457e-a081-a550f776ec21","ios":"levelo://app?vid=76f3328f-e574-457e-a081-a550f776ec21"},"vehicle_type_id":"4","last_reported":1733998257,"current_range_meters":27200,"station_id":"ce4bhnp2rcd13ifvqgvg","pricing_plan_id":"cebpf4jnsgd1na2vs0mg"},{"bike_id":"cce7ced0-0163-4611-8067-49ddc9b38410","system_id":"levelo_inurba_marseille","lat":43.3361,"lon":5.41029,"is_reserved":false,"is_disabled":false,"rental_uris":{"android":"levelo://app?vid=cce7ced0-0163-4611-8067-49ddc9b38410","ios":"levelo://app?vid=cce7ced0-0163-4611-8067-49ddc9b38410"},"vehicle_type_id":"4","last_reported":1733998257,"current_range_meters":16000,"station_id":"ce4bhqh2rcd13ifvqhmg","pricing_plan_id":"cebpf4jnsgd1na2vs0mg"},{"bike_id":"e524beea-8d26-40af-8150-099504698cab","system_id":"levelo_inurba_marseille","lat":43.28271,"lon":5.35059,"is_reserved":false,"is_disabled":false,"rental_uris":{"android":"levelo://app?vid=e524beea-8d26-40af-8150-099504698cab","ios":"levelo://app?vid=e524beea-8d26-40af-8150-099504698cab"},"vehicle_type_id":"4","last_reported":1733998257,"current_range_meters":16400,"station_id":"ce4bhbp2rcd13ifvqerg","pricing_plan_id":"cebpf4jnsgd1na2vs0mg"},{"bike_id":"53e14b4a-061d-47e0-9d41-ff9b1a6d0a08","system_id":"levelo_inurba_marseille","lat":43.2984,"lon":5.36281,"is_reserved":false,"is_disabled":false,"rental_uris":{"android":"levelo://app?vid=53e14b4a-061d-47e0-9d41-ff9b1a6d0a08","ios":"levelo://app?vid=53e14b4a-061d-47e0-9d41-ff9b1a6d0a08"},"vehicle_type_id":"4","last_reported":1733998257,"current_range_meters":27600,"station_id":"ce4bgpp2rcd13ifvqc3g","pricing_plan_id":"cebpf4jnsgd1na2vs0mg"},{"bike_id":"8dc48173-c685-47ba-917c-8a9936f55137","system_id":"levelo_inurba_marseille","lat":43.31271,"lon":5.40159,"is_reserved":false,"is_disabled":false,"rental_uris":{"android":"levelo://app?vid=8dc48173-c685-47ba-917c-8a9936f55137","ios":"levelo://app?vid=8dc48173-c685-47ba-917c-8a9936f55137"},"vehicle_type_id":"4","last_reported":1733998257,"current_range_meters":21600,"station_id":"ce4bh092rcd13ifvqd30","pricing_plan_id":"cebpf4jnsgd1na2vs0mg"},{"bike_id":"9f4ff309-16c5-4f67-9aac-83afe40d118a","system_id":"levelo_inurba_marseille","lat":43.23956,"lon":5.36631,"is_reserved":false,"is_disabled":false,"rental_uris":{"android":"levelo://app?vid=9f4ff309-16c5-4f67-9aac-83afe40d118a","ios":"levelo://app?vid=9f4ff309-16c5-4f67-9aac-83afe40d118a"},"vehicle_type_id":"4","last_reported":1733998257,"current_range_meters":38400,"station_id":"ce4bhi12rcd13ifvqfp0","pricing_plan_id":"cebpf4jnsgd1na2vs0mg"},{"bike_id":"5dd40359-5ec7-447b-930e-b8ca7f540d05","system_id":"levelo_inurba_marseille","lat":43.29915,"lon":5.3746,"is_reserved":false,"is_disabled":false,"rental_uris":{"android":"levelo://app?vid=5dd40359-5ec7-447b-930e-b8ca7f540d05","ios":"levelo://app?vid=5dd40359-5ec7-447b-930e-b8ca7f540d05"},"vehicle_type_id":"4","last_reported":1733998257,"current_range_meters":34000,"station_id":"ce4bgjh2rcd13ifvqbg0","pricing_plan_id":"cebpf4jnsgd1na2vs0mg"},{"bike_id":"55b90ab8-ad6e-4330-b578-7b6440304b5c","system_id":"levelo_inurba_marseille","lat":43.26208,"lon":5.37442,"is_reserved":false,"is_disabled":true,"rental_uris":{"android":"levelo://app?vid=55b90ab8-ad6e-4330-b578-7b6440304b5c","ios":"levelo://app?vid=55b90ab8-ad6e-4330-b578-7b6440304b5c"},"vehicle_type_id":"4","last_reported":1733998257,"current_range_meters":39200,"station_id":"ce4bhgp2rcd13ifvqfc0","pricing_plan_id":"cebpf4jnsgd1na2vs0mg"},{"bike_id":"accc15c2-75c8-4823-a61f-1d4d7e399167","system_id":"levelo_inurba_marseille","lat":43.29417,"lon":5.38611,"is_reserved":false,"is_disabled":true,"rental_uris":{"android":"levelo://app?vid=accc15c2-75c8-4823-a61f-1d4d7e399167","ios":"levelo://app?vid=accc15c2-75c8-4823-a61f-1d4d7e399167"},"vehicle_type_id":"4","last_reported":1733998257,"current_range_meters":8400,"station_id":"ce4bh2h2rcd13ifvqdh0","pricing_plan_id":"cebpf4jnsgd1na2vs0mg"},{"bike_id":"cc22e9d0-6a81-43af-ae31-ec95443be010","system_id":"levelo_inurba_marseille","lat":43.27054,"lon":5.4026,"is_reserved":false,"is_disabled":false,"rental_uris":{"android":"levelo://app?vid=cc22e9d0-6a81-43af-ae31-ec95443be010","ios":"levelo://app?vid=cc22e9d0-6a81-43af-ae31-ec95443be010"},"vehicle_type_id":"4","last_reported":1733998257,"current_range_meters":22800,"station_id":"ce4bhk92rcd13ifvqgc0","pricing_plan_id":"cebpf4jnsgd1na2vs0mg"},{"bike_id":"6ce33b40-587a-4312-930f-f782a3c14ab2","system_id":"levelo_inurba_marseille","lat":43.29551,"lon":5.42283,"is_reserved":false,"is_disabled":false,"rental_uris":{"android":"levelo://app?vid=6ce33b40-587a-4312-930f-f782a3c14ab2","ios":"levelo://app?vid=6ce33b40-587a-4312-930f-f782a3c14ab2"},"vehicle_type_id":"4","last_reported":1733998257,"current_range_meters":32400,"station_id":"ce4bhph2rcd13ifvqhdg","pricing_plan_id":"cebpf4jnsgd1na2vs0mg"},{"bike_id":"e8c6db8c-4091-40fc-9f5d-ec018162eb0b","system_id":"levelo_inurba_marseille","lat":43.29923,"lon":5.37515,"is_reserved":false,"is_disabled":false,"rental_uris":{"android":"levelo://app?vid=e8c6db8c-4091-40fc-9f5d-ec018162eb0b","ios":"levelo://app?vid=e8c6db8c-4091-40fc-9f5d-ec018162eb0b"},"vehicle_type_id":"4","last_reported":1733998257,"current_range_meters":28000,"station_id":"ce4bgjh2rcd13ifvqbg0","pricing_plan_id":"cebpf4jnsgd1na2vs0mg"},{"bike_id":"1bda236a-e787-4c56-8a88-3fbc61cc226f","system_id":"levelo_inurba_marseille","lat":43.28425,"lon":5.34986,"is_reserved":false,"is_disabled":false,"rental_uris":{"android":"levelo://app?vid=1bda236a-e787-4c56-8a88-3fbc61cc226f","ios":"levelo://app?vid=1bda236a-e787-4c56-8a88-3fbc61cc226f"},"vehicle_type_id":"4","last_reported":1733998257,"current_range_meters":35600,"station_id":"ce4bhbh2rcd13ifvqepg","pricing_plan_id":"cebpf4jnsgd1na2vs0mg"},{"bike_id":"9d4fff27-d07d-4950-b1c9-9dd1b0811241","system_id":"levelo_inurba_marseille","lat":43.26555,"lon":5.39001,"is_reserved":false,"is_disabled":false,"rental_uris":{"android":"levelo://app?vid=9d4fff27-d07d-4950-b1c9-9dd1b0811241","ios":"levelo://app?vid=9d4fff27-d07d-4950-b1c9-9dd1b0811241"},"vehicle_type_id":"4","last_reported":1733998257,"current_range_meters":24400,"station_id":"ce4bhe12rcd13ifvqf30","pricing_plan_id":"cebpf4jnsgd1na2vs0mg"},{"bike_id":"e966d2c7-c9e1-4cb1-9a39-6325607b0be4","system_id":"levelo_inurba_marseille","lat":43.337444,"lon":5.374475,"is_reserved":false,"is_disabled":true,"rental_uris":{"android":"levelo://app?vid=e966d2c7-c9e1-4cb1-9a39-6325607b0be4","ios":"levelo://app?vid=e966d2c7-c9e1-4cb1-9a39-6325607b0be4"},"vehicle_type_id":"4","last_reported":1733998257,"current_range_meters":0,"station_id":"","pricing_plan_id":"cebpf4jnsgd1na2vs0mg"},{"bike_id":"ca3d46d5-3442-4d65-a9d8-53012fc65828","system_id":"levelo_inurba_marseille","lat":43.30542,"lon":5.38414,"is_reserved":false,"is_disabled":false,"rental_uris":{"android":"levelo://app?vid=ca3d46d5-3442-4d65-a9d8-53012fc65828","ios":"levelo://app?vid=ca3d46d5-3442-4d65-a9d8-53012fc65828"},"vehicle_type_id":"4","last_reported":1733998257,"current_range_meters":28000,"station_id":"ce4bgg92rcd13ifvqb30","pricing_plan_id":"cebpf4jnsgd1na2vs0mg"},{"bike_id":"08f6dfd2-5a55-4565-9eb0-3f7235020a27","system_id":"levelo_inurba_marseille","lat":43.24548,"lon":5.3952,"is_reserved":false,"is_disabled":false,"rental_uris":{"android":"levelo://app?vid=08f6dfd2-5a55-4565-9eb0-3f7235020a27","ios":"levelo://app?vid=08f6dfd2-5a55-4565-9eb0-3f7235020a27"},"vehicle_type_id":"4","last_reported":1733998257,"current_range_meters":28000,"station_id":"ce4bhlp2rcd13ifvqgjg","pricing_plan_id":"cebpf4jnsgd1na2vs0mg"},{"bike_id":"6bc7401a-ad66-4e4d-bfd6-a954bc5b40c0","system_id":"levelo_inurba_marseille","lat":43.337527,"lon":5.37441,"is_reserved":false,"is_disabled":false,"rental_uris":{"android":"levelo://app?vid=6bc7401a-ad66-4e4d-bfd6-a954bc5b40c0","ios":"levelo://app?vid=6bc7401a-ad66-4e4d-bfd6-a954bc5b40c0"},"vehicle_type_id":"4","last_reported":1733998257,"current_range_meters":35200,"station_id":"","pricing_plan_id":"cebpf4jnsgd1na2vs0mg"},{"bike_id":"5999525f-af7d-4715-8f70-3febb5ff5513","system_id":"levelo_inurba_marseille","lat":43.2886,"lon":5.35845,"is_reserved":false,"is_disabled":false,"rental_uris":{"android":"levelo://app?vid=5999525f-af7d-4715-8f70-3febb5ff5513","ios":"levelo://app?vid=5999525f-af7d-4715-8f70-3febb5ff5513"},"vehicle_type_id":"4","last_reported":1733998257,"current_range_meters":36800,"station_id":"ce4bhb12rcd13ifvqem0","pricing_plan_id":"cebpf4jnsgd1na2vs0mg"},{"bike_id":"f0a4f587-2333-4a7a-8819-09121e495e1b","system_id":"levelo_inurba_marseille","lat":43.22929,"lon":5.35369,"is_reserved":false,"is_disabled":false,"rental_uris":{"android":"levelo://app?vid=f0a4f587-2333-4a7a-8819-09121e495e1b","ios":"levelo://app?vid=f0a4f587-2333-4a7a-8819-09121e495e1b"},"vehicle_type_id":"4","last_reported":1733998257,"current_range_meters":9200,"station_id":"cpo3532slgdg3j2ikp40","pricing_plan_id":"cebpf4jnsgd1na2vs0mg"},{"bike_id":"ba6fe419-774c-4091-895e-a76421491481","system_id":"levelo_inurba_marseille","lat":43.23142,"lon":5.4374,"is_reserved":false,"is_disabled":true,"rental_uris":{"android":"levelo://app?vid=ba6fe419-774c-4091-895e-a76421491481","ios":"levelo://app?vid=ba6fe419-774c-4091-895e-a76421491481"},"vehicle_type_id":"4","last_reported":1733998257,"current_range_meters":18800,"station_id":"ce4bhmp2rcd13ifvqgog","pricing_plan_id":"cebpf4jnsgd1na2vs0mg"},{"bike_id":"e4dd496b-add2-4230-824d-f3d10a6c9960","system_id":"levelo_inurba_marseille","lat":43.27993,"lon":5.41661,"is_reserved":false,"is_disabled":false,"rental_uris":{"android":"levelo://app?vid=e4dd496b-add2-4230-824d-f3d10a6c9960","ios":"levelo://app?vid=e4dd496b-add2-4230-824d-f3d10a6c9960"},"vehicle_type_id":"4","last_reported":1733998257,"current_range_meters":28400,"station_id":"ce4bho12rcd13ifvqh1g","pricing_plan_id":"cebpf4jnsgd1na2vs0mg"},{"bike_id":"edafcc75-2deb-4bec-8bf5-bcb1444296be","system_id":"levelo_inurba_marseille","lat":43.25579,"lon":5.38232,"is_reserved":false,"is_disabled":false,"rental_uris":{"android":"levelo://app?vid=edafcc75-2deb-4bec-8bf5-bcb1444296be","ios":"levelo://app?vid=edafcc75-2deb-4bec-8bf5-bcb1444296be"},"vehicle_type_id":"4","last_reported":1733998257,"current_range_meters":39200,"station_id":"ce4bhih2rcd13ifvqfs0","pricing_plan_id":"cebpf4jnsgd1na2vs0mg"},{"bike_id":"e2b090ff-7c7f-4d4a-8f5b-c317e750043e","system_id":"levelo_inurba_marseille","lat":43.27066,"lon":5.42274,"is_reserved":false,"is_disabled":true,"rental_uris":{"android":"levelo://app?vid=e2b090ff-7c7f-4d4a-8f5b-c317e750043e","ios":"levelo://app?vid=e2b090ff-7c7f-4d4a-8f5b-c317e750043e"},"vehicle_type_id":"4","last_reported":1733998257,"current_range_meters":0,"station_id":"ce4bhk92rcd13ifvqgb0","pricing_plan_id":"cebpf4jnsgd1na2vs0mg"},{"bike_id":"1802c294-deb8-4890-b7ca-3e995fd26543","system_id":"levelo_inurba_marseille","lat":43.27064,"lon":5.42297,"is_reserved":false,"is_disabled":false,"rental_uris":{"android":"levelo://app?vid=1802c294-deb8-4890-b7ca-3e995fd26543","ios":"levelo://app?vid=1802c294-deb8-4890-b7ca-3e995fd26543"},"vehicle_type_id":"4","last_reported":1733998257,"current_range_meters":33600,"station_id":"ce4bhk92rcd13ifvqgb0","pricing_plan_id":"cebpf4jnsgd1na2vs0mg"},{"bike_id":"53e3de9c-8781-4f35-a8a3-f698ad4f2cf8","system_id":"levelo_inurba_marseille","lat":43.28971,"lon":5.37825,"is_reserved":false,"is_disabled":false,"rental_uris":{"android":"levelo://app?vid=53e3de9c-8781-4f35-a8a3-f698ad4f2cf8","ios":"levelo://app?vid=53e3de9c-8781-4f35-a8a3-f698ad4f2cf8"},"vehicle_type_id":"4","last_reported":1733998257,"current_range_meters":24000,"station_id":"ce4bh9p2rcd13ifvqed0","pricing_plan_id":"cebpf4jnsgd1na2vs0mg"},{"bike_id":"fe4d47c1-dfb5-4e68-bfe4-126efd20c0c3","system_id":"levelo_inurba_marseille","lat":43.30804,"lon":5.37325,"is_reserved":false,"is_disabled":false,"rental_uris":{"android":"levelo://app?vid=fe4d47c1-dfb5-4e68-bfe4-126efd20c0c3","ios":"levelo://app?vid=fe4d47c1-dfb5-4e68-bfe4-126efd20c0c3"},"vehicle_type_id":"4","last_reported":1733998257,"current_range_meters":22400,"station_id":"","pricing_plan_id":"cebpf4jnsgd1na2vs0mg"},{"bike_id":"d9049a78-2794-48c6-9a0e-778b5772a7ba","system_id":"levelo_inurba_marseille","lat":43.29549,"lon":5.42294,"is_reserved":false,"is_disabled":false,"rental_uris":{"android":"levelo://app?vid=d9049a78-2794-48c6-9a0e-778b5772a7ba","ios":"levelo://app?vid=d9049a78-2794-48c6-9a0e-778b5772a7ba"},"vehicle_type_id":"4","last_reported":1733998257,"current_range_meters":30000,"station_id":"ce4bhph2rcd13ifvqhdg","pricing_plan_id":"cebpf4jnsgd1na2vs0mg"},{"bike_id":"4556d6a8-a865-4ff0-9e65-05d4e1348360","system_id":"levelo_inurba_marseille","lat":43.29226,"lon":5.36068,"is_reserved":false,"is_disabled":false,"rental_uris":{"android":"levelo://app?vid=4556d6a8-a865-4ff0-9e65-05d4e1348360","ios":"levelo://app?vid=4556d6a8-a865-4ff0-9e65-05d4e1348360"},"vehicle_type_id":"4","last_reported":1733998257,"current_range_meters":9200,"station_id":"ce4bhbh2rcd13ifvqeqg","pricing_plan_id":"cebpf4jnsgd1na2vs0mg"},{"bike_id":"8bce4d14-97e1-4732-8b97-92aecbbe2473","system_id":"levelo_inurba_marseille","lat":43.24074,"lon":5.37746,"is_reserved":false,"is_disabled":false,"rental_uris":{"android":"levelo://app?vid=8bce4d14-97e1-4732-8b97-92aecbbe2473","ios":"levelo://app?vid=8bce4d14-97e1-4732-8b97-92aecbbe2473"},"vehicle_type_id":"4","last_reported":1733998257,"current_range_meters":6400,"station_id":"ce4bhnp2rcd13ifvqgvg","pricing_plan_id":"cebpf4jnsgd1na2vs0mg"},{"bike_id":"52c4a7c1-6be7-4fa4-a023-6f6644b1aa80","system_id":"levelo_inurba_marseille","lat":43.28966,"lon":5.37839,"is_reserved":false,"is_disabled":false,"rental_uris":{"android":"levelo://app?vid=52c4a7c1-6be7-4fa4-a023-6f6644b1aa80","ios":"levelo://app?vid=52c4a7c1-6be7-4fa4-a023-6f6644b1aa80"},"vehicle_type_id":"4","last_reported":1733998257,"current_range_meters":37600,"station_id":"ce4bh9p2rcd13ifvqed0","pricing_plan_id":"cebpf4jnsgd1na2vs0mg"},{"bike_id":"097a41bf-6635-41a6-b7a7-1173cae29ada","system_id":"levelo_inurba_marseille","lat":43.22927,"lon":5.35378,"is_reserved":false,"is_disabled":false,"rental_uris":{"android":"levelo://app?vid=097a41bf-6635-41a6-b7a7-1173cae29ada","ios":"levelo://app?vid=097a41bf-6635-41a6-b7a7-1173cae29ada"},"vehicle_type_id":"4","last_reported":1733998257,"current_range_meters":38800,"station_id":"cpo3532slgdg3j2ikp40","pricing_plan_id":"cebpf4jnsgd1na2vs0mg"},{"bike_id":"4d5881bc-1b66-4424-9cca-37b7d62f3c7f","system_id":"levelo_inurba_marseille","lat":43.3091,"lon":5.36842,"is_reserved":false,"is_disabled":false,"rental_uris":{"android":"levelo://app?vid=4d5881bc-1b66-4424-9cca-37b7d62f3c7f","ios":"levelo://app?vid=4d5881bc-1b66-4424-9cca-37b7d62f3c7f"},"vehicle_type_id":"4","last_reported":1733998257,"current_range_meters":24400,"station_id":"ce4bgn92rcd13ifvqbvg","pricing_plan_id":"cebpf4jnsgd1na2vs0mg"},{"bike_id":"e08a3c45-9a07-474f-9717-a27fa81c4ce9","system_id":"levelo_inurba_marseille","lat":43.30526,"lon":5.38416,"is_reserved":false,"is_disabled":false,"rental_uris":{"android":"levelo://app?vid=e08a3c45-9a07-474f-9717-a27fa81c4ce9","ios":"levelo://app?vid=e08a3c45-9a07-474f-9717-a27fa81c4ce9"},"vehicle_type_id":"4","last_reported":1733998257,"current_range_meters":39200,"station_id":"ce4bgg92rcd13ifvqb30","pricing_plan_id":"cebpf4jnsgd1na2vs0mg"},{"bike_id":"a3044a30-e2bc-4fb6-92f4-50730694b7a9","system_id":"levelo_inurba_marseille","lat":43.26196,"lon":5.37444,"is_reserved":false,"is_disabled":false,"rental_uris":{"android":"levelo://app?vid=a3044a30-e2bc-4fb6-92f4-50730694b7a9","ios":"levelo://app?vid=a3044a30-e2bc-4fb6-92f4-50730694b7a9"},"vehicle_type_id":"4","last_reported":1733998257,"current_range_meters":32800,"station_id":"ce4bhgp2rcd13ifvqfc0","pricing_plan_id":"cebpf4jnsgd1na2vs0mg"},{"bike_id":"3f8f8697-509e-49e2-b4f2-9c5b4ebb2382","system_id":"levelo_inurba_marseille","lat":43.30536,"lon":5.36539,"is_reserved":false,"is_disabled":false,"rental_uris":{"android":"levelo://app?vid=3f8f8697-509e-49e2-b4f2-9c5b4ebb2382","ios":"levelo://app?vid=3f8f8697-509e-49e2-b4f2-9c5b4ebb2382"},"vehicle_type_id":"4","last_reported":1733998257,"current_range_meters":12400,"station_id":"ce4bgs12rcd13ifvqcag","pricing_plan_id":"cebpf4jnsgd1na2vs0mg"},{"bike_id":"19f5ca87-44ba-46b8-a333-1df09527680f","system_id":"levelo_inurba_marseille","lat":43.26789,"lon":5.39409,"is_reserved":false,"is_disabled":false,"rental_uris":{"android":"levelo://app?vid=19f5ca87-44ba-46b8-a333-1df09527680f","ios":"levelo://app?vid=19f5ca87-44ba-46b8-a333-1df09527680f"},"vehicle_type_id":"4","last_reported":1733998257,"current_range_meters":38800,"station_id":"ce4bhh12rcd13ifvqfg0","pricing_plan_id":"cebpf4jnsgd1na2vs0mg"},{"bike_id":"3bd6fdf4-9935-4470-9ffe-982f15671a5a","system_id":"levelo_inurba_marseille","lat":43.30541,"lon":5.36522,"is_reserved":false,"is_disabled":false,"rental_uris":{"android":"levelo://app?vid=3bd6fdf4-9935-4470-9ffe-982f15671a5a","ios":"levelo://app?vid=3bd6fdf4-9935-4470-9ffe-982f15671a5a"},"vehicle_type_id":"4","last_reported":1733998257,"current_range_meters":28800,"station_id":"ce4bgs12rcd13ifvqcag","pricing_plan_id":"cebpf4jnsgd1na2vs0mg"},{"bike_id":"d6c7aae0-ed10-4114-a5cb-52d404980a9f","system_id":"levelo_inurba_marseille","lat":43.29045,"lon":5.39998,"is_reserved":false,"is_disabled":true,"rental_uris":{"android":"levelo://app?vid=d6c7aae0-ed10-4114-a5cb-52d404980a9f","ios":"levelo://app?vid=d6c7aae0-ed10-4114-a5cb-52d404980a9f"},"vehicle_type_id":"4","last_reported":1733998257,"current_range_meters":30000,"station_id":"ce4bh392rcd13ifvqdm0","pricing_plan_id":"cebpf4jnsgd1na2vs0mg"},{"bike_id":"dbf212a4-5c61-42a2-9fb0-64e326737fba","system_id":"levelo_inurba_marseille","lat":43.25567,"lon":5.38239,"is_reserved":false,"is_disabled":false,"rental_uris":{"android":"levelo://app?vid=dbf212a4-5c61-42a2-9fb0-64e326737fba","ios":"levelo://app?vid=dbf212a4-5c61-42a2-9fb0-64e326737fba"},"vehicle_type_id":"4","last_reported":1733998257,"current_range_meters":34800,"station_id":"ce4bhih2rcd13ifvqfs0","pricing_plan_id":"cebpf4jnsgd1na2vs0mg"},{"bike_id":"89f24dc5-38fd-4c74-af12-df0de405d696","system_id":"levelo_inurba_marseille","lat":43.29579,"lon":5.37508,"is_reserved":false,"is_disabled":false,"rental_uris":{"android":"levelo://app?vid=89f24dc5-38fd-4c74-af12-df0de405d696","ios":"levelo://app?vid=89f24dc5-38fd-4c74-af12-df0de405d696"},"vehicle_type_id":"4","last_reported":1733998257,"current_range_meters":33600,"station_id":"ce4bgh92rcd13ifvqb50","pricing_plan_id":"cebpf4jnsgd1na2vs0mg"},{"bike_id":"96a6ac49-bd0f-45e4-817e-bb9177919e0f","system_id":"levelo_inurba_marseille","lat":43.27312,"lon":5.39083,"is_reserved":false,"is_disabled":true,"rental_uris":{"android":"levelo://app?vid=96a6ac49-bd0f-45e4-817e-bb9177919e0f","ios":"levelo://app?vid=96a6ac49-bd0f-45e4-817e-bb9177919e0f"},"vehicle_type_id":"4","last_reported":1733998257,"current_range_meters":10800,"station_id":"ce4bhgp2rcd13ifvqfe0","pricing_plan_id":"cebpf4jnsgd1na2vs0mg"},{"bike_id":"c8106fc3-60fd-4a5f-8115-d0ba371aeedb","system_id":"levelo_inurba_marseille","lat":43.29158,"lon":5.37157,"is_reserved":false,"is_disabled":false,"rental_uris":{"android":"levelo://app?vid=c8106fc3-60fd-4a5f-8115-d0ba371aeedb","ios":"levelo://app?vid=c8106fc3-60fd-4a5f-8115-d0ba371aeedb"},"vehicle_type_id":"4","last_reported":1733998257,"current_range_meters":38800,"station_id":"ce4bha92rcd13ifvqeh0","pricing_plan_id":"cebpf4jnsgd1na2vs0mg"},{"bike_id":"af77a2c4-4f01-4eac-8bd5-698508bacd7c","system_id":"levelo_inurba_marseille","lat":43.27181,"lon":5.40995,"is_reserved":false,"is_disabled":false,"rental_uris":{"android":"levelo://app?vid=af77a2c4-4f01-4eac-8bd5-698508bacd7c","ios":"levelo://app?vid=af77a2c4-4f01-4eac-8bd5-698508bacd7c"},"vehicle_type_id":"4","last_reported":1733998257,"current_range_meters":19200,"station_id":"ce4bhl12rcd13ifvqgf0","pricing_plan_id":"cebpf4jnsgd1na2vs0mg"},{"bike_id":"a57d4740-3421-4fe8-a560-aacf170b24e6","system_id":"levelo_inurba_marseille","lat":43.23151,"lon":5.43718,"is_reserved":false,"is_disabled":false,"rental_uris":{"android":"levelo://app?vid=a57d4740-3421-4fe8-a560-aacf170b24e6","ios":"levelo://app?vid=a57d4740-3421-4fe8-a560-aacf170b24e6"},"vehicle_type_id":"4","last_reported":1733998257,"current_range_meters":20000,"station_id":"ce4bhmp2rcd13ifvqgog","pricing_plan_id":"cebpf4jnsgd1na2vs0mg"},{"bike_id":"127c0d0c-feff-4dd8-b28b-0023208de9c2","system_id":"levelo_inurba_marseille","lat":43.26212,"lon":5.37444,"is_reserved":false,"is_disabled":false,"rental_uris":{"android":"levelo://app?vid=127c0d0c-feff-4dd8-b28b-0023208de9c2","ios":"levelo://app?vid=127c0d0c-feff-4dd8-b28b-0023208de9c2"},"vehicle_type_id":"4","last_reported":1733998257,"current_range_meters":38800,"station_id":"ce4bhgp2rcd13ifvqfc0","pricing_plan_id":"cebpf4jnsgd1na2vs0mg"},{"bike_id":"998fb05a-2a3b-4974-807b-b61a778b4ca7","system_id":"levelo_inurba_marseille","lat":43.30481,"lon":5.37906,"is_reserved":false,"is_disabled":true,"rental_uris":{"android":"levelo://app?vid=998fb05a-2a3b-4974-807b-b61a778b4ca7","ios":"levelo://app?vid=998fb05a-2a3b-4974-807b-b61a778b4ca7"},"vehicle_type_id":"4","last_reported":1733998257,"current_range_meters":18000,"station_id":"ce4bgup2rcd13ifvqcn0","pricing_plan_id":"cebpf4jnsgd1na2vs0mg"},{"bike_id":"4a162fc6-fd13-471d-bd85-4465d4c4c993","system_id":"levelo_inurba_marseille","lat":43.28701,"lon":5.3999,"is_reserved":false,"is_disabled":false,"rental_uris":{"android":"levelo://app?vid=4a162fc6-fd13-471d-bd85-4465d4c4c993","ios":"levelo://app?vid=4a162fc6-fd13-471d-bd85-4465d4c4c993"},"vehicle_type_id":"4","last_reported":1733998257,"current_range_meters":11600,"station_id":"ce4bho92rcd13ifvqh3g","pricing_plan_id":"cebpf4jnsgd1na2vs0mg"},{"bike_id":"b4b002af-b566-4f7f-b733-4ec08c23fb23","system_id":"levelo_inurba_marseille","lat":43.31367,"lon":5.3669,"is_reserved":false,"is_disabled":false,"rental_uris":{"android":"levelo://app?vid=b4b002af-b566-4f7f-b733-4ec08c23fb23","ios":"levelo://app?vid=b4b002af-b566-4f7f-b733-4ec08c23fb23"},"vehicle_type_id":"4","last_reported":1733998257,"current_range_meters":24000,"station_id":"ce4bgr92rcd13ifvqc6g","pricing_plan_id":"cebpf4jnsgd1na2vs0mg"},{"bike_id":"a66c4b95-337e-4b9a-950c-e8c8d8e7a3a1","system_id":"levelo_inurba_marseille","lat":43.324799,"lon":5.365716,"is_reserved":false,"is_disabled":true,"rental_uris":{"android":"levelo://app?vid=a66c4b95-337e-4b9a-950c-e8c8d8e7a3a1","ios":"levelo://app?vid=a66c4b95-337e-4b9a-950c-e8c8d8e7a3a1"},"vehicle_type_id":"4","last_reported":1733998257,"current_range_meters":0,"station_id":"","pricing_plan_id":"cebpf4jnsgd1na2vs0mg"},{"bike_id":"acc742c2-2dca-44b8-9361-5e153f2fbc70","system_id":"levelo_inurba_marseille","lat":43.31366,"lon":5.38497,"is_reserved":false,"is_disabled":false,"rental_uris":{"android":"levelo://app?vid=acc742c2-2dca-44b8-9361-5e153f2fbc70","ios":"levelo://app?vid=acc742c2-2dca-44b8-9361-5e153f2fbc70"},"vehicle_type_id":"4","last_reported":1733998257,"current_range_meters":23200,"station_id":"ce4bgt92rcd13ifvqcf0","pricing_plan_id":"cebpf4jnsgd1na2vs0mg"},{"bike_id":"321fd520-305a-4bff-ae40-2c4ccb7ccf74","system_id":"levelo_inurba_marseille","lat":43.29025,"lon":5.38131,"is_reserved":false,"is_disabled":true,"rental_uris":{"android":"levelo://app?vid=321fd520-305a-4bff-ae40-2c4ccb7ccf74","ios":"levelo://app?vid=321fd520-305a-4bff-ae40-2c4ccb7ccf74"},"vehicle_type_id":"4","last_reported":1733998257,"current_range_meters":38800,"station_id":"ce4bh4p2rcd13ifvqe1g","pricing_plan_id":"cebpf4jnsgd1na2vs0mg"},{"bike_id":"88a87f09-cb36-4c14-9b4f-da3830e7be3e","system_id":"levelo_inurba_marseille","lat":43.23143,"lon":5.43718,"is_reserved":false,"is_disabled":false,"rental_uris":{"android":"levelo://app?vid=88a87f09-cb36-4c14-9b4f-da3830e7be3e","ios":"levelo://app?vid=88a87f09-cb36-4c14-9b4f-da3830e7be3e"},"vehicle_type_id":"4","last_reported":1733998257,"current_range_meters":28800,"station_id":"ce4bhmp2rcd13ifvqgog","pricing_plan_id":"cebpf4jnsgd1na2vs0mg"},{"bike_id":"75bc53cd-099d-4532-9fce-83fc33d36897","system_id":"levelo_inurba_marseille","lat":43.24066,"lon":5.37759,"is_reserved":false,"is_disabled":false,"rental_uris":{"android":"levelo://app?vid=75bc53cd-099d-4532-9fce-83fc33d36897","ios":"levelo://app?vid=75bc53cd-099d-4532-9fce-83fc33d36897"},"vehicle_type_id":"4","last_reported":1733998257,"current_range_meters":13600,"station_id":"ce4bhnp2rcd13ifvqgvg","pricing_plan_id":"cebpf4jnsgd1na2vs0mg"},{"bike_id":"36c22a16-66d2-4f78-a6c0-ae41b756b49e","system_id":"levelo_inurba_marseille","lat":43.30957,"lon":5.39032,"is_reserved":false,"is_disabled":true,"rental_uris":{"android":"levelo://app?vid=36c22a16-66d2-4f78-a6c0-ae41b756b49e","ios":"levelo://app?vid=36c22a16-66d2-4f78-a6c0-ae41b756b49e"},"vehicle_type_id":"4","last_reported":1733998257,"current_range_meters":38800,"station_id":"ce4bgup2rcd13ifvqco0","pricing_plan_id":"cebpf4jnsgd1na2vs0mg"},{"bike_id":"a607fd84-3ef6-4d33-a3f4-7e19d6449a9a","system_id":"levelo_inurba_marseille","lat":43.30517,"lon":5.36714,"is_reserved":false,"is_disabled":false,"rental_uris":{"android":"levelo://app?vid=a607fd84-3ef6-4d33-a3f4-7e19d6449a9a","ios":"levelo://app?vid=a607fd84-3ef6-4d33-a3f4-7e19d6449a9a"},"vehicle_type_id":"4","last_reported":1733998257,"current_range_meters":38000,"station_id":"ce4bgrp2rcd13ifvqc9g","pricing_plan_id":"cebpf4jnsgd1na2vs0mg"},{"bike_id":"b28364cf-3764-46be-9e34-df111405ff85","system_id":"levelo_inurba_marseille","lat":43.3266,"lon":5.40983,"is_reserved":false,"is_disabled":false,"rental_uris":{"android":"levelo://app?vid=b28364cf-3764-46be-9e34-df111405ff85","ios":"levelo://app?vid=b28364cf-3764-46be-9e34-df111405ff85"},"vehicle_type_id":"4","last_reported":1733998257,"current_range_meters":36800,"station_id":"ce4bhpp2rcd13ifvqhgg","pricing_plan_id":"cebpf4jnsgd1na2vs0mg"},{"bike_id":"bbcff5ca-4212-4f97-ad4e-cc9f02df715c","system_id":"levelo_inurba_marseille","lat":43.23191,"lon":5.39986,"is_reserved":false,"is_disabled":false,"rental_uris":{"android":"levelo://app?vid=bbcff5ca-4212-4f97-ad4e-cc9f02df715c","ios":"levelo://app?vid=bbcff5ca-4212-4f97-ad4e-cc9f02df715c"},"vehicle_type_id":"4","last_reported":1733998257,"current_range_meters":37600,"station_id":"ce4bhn12rcd13ifvqgqg","pricing_plan_id":"cebpf4jnsgd1na2vs0mg"},{"bike_id":"99cafc3b-1467-4a53-9b63-fad9abc409d1","system_id":"levelo_inurba_marseille","lat":43.27666,"lon":5.38879,"is_reserved":false,"is_disabled":false,"rental_uris":{"android":"levelo://app?vid=99cafc3b-1467-4a53-9b63-fad9abc409d1","ios":"levelo://app?vid=99cafc3b-1467-4a53-9b63-fad9abc409d1"},"vehicle_type_id":"4","last_reported":1733998257,"current_range_meters":12000,"station_id":"ce4bhi12rcd13ifvqfo0","pricing_plan_id":"cebpf4jnsgd1na2vs0mg"},{"bike_id":"457f33b0-a4f0-458e-896a-95c86ba04168","system_id":"levelo_inurba_marseille","lat":43.30138,"lon":5.39867,"is_reserved":false,"is_disabled":false,"rental_uris":{"android":"levelo://app?vid=457f33b0-a4f0-458e-896a-95c86ba04168","ios":"levelo://app?vid=457f33b0-a4f0-458e-896a-95c86ba04168"},"vehicle_type_id":"4","last_reported":1733998257,"current_range_meters":38800,"station_id":"ce4bh0h2rcd13ifvqd40","pricing_plan_id":"cebpf4jnsgd1na2vs0mg"},{"bike_id":"c45b565c-2c5e-4610-9cf8-cf1e1d5d8ad0","system_id":"levelo_inurba_marseille","lat":43.29281,"lon":5.40111,"is_reserved":false,"is_disabled":false,"rental_uris":{"android":"levelo://app?vid=c45b565c-2c5e-4610-9cf8-cf1e1d5d8ad0","ios":"levelo://app?vid=c45b565c-2c5e-4610-9cf8-cf1e1d5d8ad0"},"vehicle_type_id":"4","last_reported":1733998257,"current_range_meters":20000,"station_id":"ce4bh312rcd13ifvqdk0","pricing_plan_id":"cebpf4jnsgd1na2vs0mg"},{"bike_id":"f9006d5e-9c0f-4454-b9fb-dff906778f64","system_id":"levelo_inurba_marseille","lat":43.2931,"lon":5.37179,"is_reserved":false,"is_disabled":false,"rental_uris":{"android":"levelo://app?vid=f9006d5e-9c0f-4454-b9fb-dff906778f64","ios":"levelo://app?vid=f9006d5e-9c0f-4454-b9fb-dff906778f64"},"vehicle_type_id":"4","last_reported":1733998257,"current_range_meters":37600,"station_id":"ce4bgh92rcd13ifvqb40","pricing_plan_id":"cebpf4jnsgd1na2vs0mg"},{"bike_id":"b29f3572-8242-4e95-9b80-1ba5e655a43a","system_id":"levelo_inurba_marseille","lat":43.30562,"lon":5.36577,"is_reserved":false,"is_disabled":true,"rental_uris":{"android":"levelo://app?vid=b29f3572-8242-4e95-9b80-1ba5e655a43a","ios":"levelo://app?vid=b29f3572-8242-4e95-9b80-1ba5e655a43a"},"vehicle_type_id":"4","last_reported":1733998257,"current_range_meters":25600,"station_id":"ce4bgs12rcd13ifvqcag","pricing_plan_id":"cebpf4jnsgd1na2vs0mg"},{"bike_id":"094453c6-7aee-4922-a932-1bc26130bb8b","system_id":"levelo_inurba_marseille","lat":43.30546,"lon":5.3656,"is_reserved":false,"is_disabled":false,"rental_uris":{"android":"levelo://app?vid=094453c6-7aee-4922-a932-1bc26130bb8b","ios":"levelo://app?vid=094453c6-7aee-4922-a932-1bc26130bb8b"},"vehicle_type_id":"4","last_reported":1733998257,"current_range_meters":12400,"station_id":"ce4bgs12rcd13ifvqcag","pricing_plan_id":"cebpf4jnsgd1na2vs0mg"},{"bike_id":"ab1c6a12-19ac-4afb-af5f-776c48efacd2","system_id":"levelo_inurba_marseille","lat":43.23192,"lon":5.35557,"is_reserved":false,"is_disabled":false,"rental_uris":{"android":"levelo://app?vid=ab1c6a12-19ac-4afb-af5f-776c48efacd2","ios":"levelo://app?vid=ab1c6a12-19ac-4afb-af5f-776c48efacd2"},"vehicle_type_id":"4","last_reported":1733998257,"current_range_meters":14800,"station_id":"ce4bhu92rcd13ifvqi70","pricing_plan_id":"cebpf4jnsgd1na2vs0mg"},{"bike_id":"fbf83cab-a21a-4790-a933-a7e230fc4587","system_id":"levelo_inurba_marseille","lat":43.3014,"lon":5.37426,"is_reserved":false,"is_disabled":false,"rental_uris":{"android":"levelo://app?vid=fbf83cab-a21a-4790-a933-a7e230fc4587","ios":"levelo://app?vid=fbf83cab-a21a-4790-a933-a7e230fc4587"},"vehicle_type_id":"4","last_reported":1733998257,"current_range_meters":34000,"station_id":"ce4bgs92rcd13ifvqcc0","pricing_plan_id":"cebpf4jnsgd1na2vs0mg"},{"bike_id":"e525be4d-1e19-43e2-9b40-c5c90d80c642","system_id":"levelo_inurba_marseille","lat":43.28424,"lon":5.34975,"is_reserved":false,"is_disabled":false,"rental_uris":{"android":"levelo://app?vid=e525be4d-1e19-43e2-9b40-c5c90d80c642","ios":"levelo://app?vid=e525be4d-1e19-43e2-9b40-c5c90d80c642"},"vehicle_type_id":"4","last_reported":1733998257,"current_range_meters":8800,"station_id":"ce4bhbh2rcd13ifvqepg","pricing_plan_id":"cebpf4jnsgd1na2vs0mg"},{"bike_id":"034afd89-7884-46aa-947a-c5f301e52728","system_id":"levelo_inurba_marseille","lat":43.30887,"lon":5.39635,"is_reserved":false,"is_disabled":true,"rental_uris":{"android":"levelo://app?vid=034afd89-7884-46aa-947a-c5f301e52728","ios":"levelo://app?vid=034afd89-7884-46aa-947a-c5f301e52728"},"vehicle_type_id":"4","last_reported":1733998257,"current_range_meters":18000,"station_id":"ce4bh012rcd13ifvqcv0","pricing_plan_id":"cebpf4jnsgd1na2vs0mg"},{"bike_id":"834fc96a-9de9-496c-a039-d0a9302e8f66","system_id":"levelo_inurba_marseille","lat":43.26681,"lon":5.38257,"is_reserved":false,"is_disabled":true,"rental_uris":{"android":"levelo://app?vid=834fc96a-9de9-496c-a039-d0a9302e8f66","ios":"levelo://app?vid=834fc96a-9de9-496c-a039-d0a9302e8f66"},"vehicle_type_id":"4","last_reported":1733998257,"current_range_meters":36400,"station_id":"ce4bhg92rcd13ifvqf90","pricing_plan_id":"cebpf4jnsgd1na2vs0mg"},{"bike_id":"f8559373-24bb-45fc-a5f2-89235032319c","system_id":"levelo_inurba_marseille","lat":43.30149,"lon":5.37424,"is_reserved":false,"is_disabled":false,"rental_uris":{"android":"levelo://app?vid=f8559373-24bb-45fc-a5f2-89235032319c","ios":"levelo://app?vid=f8559373-24bb-45fc-a5f2-89235032319c"},"vehicle_type_id":"4","last_reported":1733998257,"current_range_meters":19200,"station_id":"ce4bgs92rcd13ifvqcc0","pricing_plan_id":"cebpf4jnsgd1na2vs0mg"},{"bike_id":"ca99aeab-60f7-447f-971c-6a840a0d1583","system_id":"levelo_inurba_marseille","lat":43.30578,"lon":5.36519,"is_reserved":false,"is_disabled":false,"rental_uris":{"android":"levelo://app?vid=ca99aeab-60f7-447f-971c-6a840a0d1583","ios":"levelo://app?vid=ca99aeab-60f7-447f-971c-6a840a0d1583"},"vehicle_type_id":"4","last_reported":1733998257,"current_range_meters":27600,"station_id":"ce4bgs12rcd13ifvqcag","pricing_plan_id":"cebpf4jnsgd1na2vs0mg"},{"bike_id":"0b1fca49-fc15-4630-a889-cb302544174c","system_id":"levelo_inurba_marseille","lat":43.28713,"lon":5.37936,"is_reserved":false,"is_disabled":true,"rental_uris":{"android":"levelo://app?vid=0b1fca49-fc15-4630-a889-cb302544174c","ios":"levelo://app?vid=0b1fca49-fc15-4630-a889-cb302544174c"},"vehicle_type_id":"4","last_reported":1733998257,"current_range_meters":38800,"station_id":"ce4bh9p2rcd13ifvqec0","pricing_plan_id":"cebpf4jnsgd1na2vs0mg"},{"bike_id":"116eade2-bad3-4731-91fd-5712b036f12d","system_id":"levelo_inurba_marseille","lat":43.25578,"lon":5.38228,"is_reserved":false,"is_disabled":false,"rental_uris":{"android":"levelo://app?vid=116eade2-bad3-4731-91fd-5712b036f12d","ios":"levelo://app?vid=116eade2-bad3-4731-91fd-5712b036f12d"},"vehicle_type_id":"4","last_reported":1733998257,"current_range_meters":32000,"station_id":"ce4bhih2rcd13ifvqfs0","pricing_plan_id":"cebpf4jnsgd1na2vs0mg"},{"bike_id":"1629d84d-d762-40fe-a22a-44dda7c8569a","system_id":"levelo_inurba_marseille","lat":43.24807,"lon":5.37455,"is_reserved":false,"is_disabled":true,"rental_uris":{"android":"levelo://app?vid=1629d84d-d762-40fe-a22a-44dda7c8569a","ios":"levelo://app?vid=1629d84d-d762-40fe-a22a-44dda7c8569a"},"vehicle_type_id":"4","last_reported":1733998257,"current_range_meters":0,"station_id":"ce4bhgh2rcd13ifvqfb0","pricing_plan_id":"cebpf4jnsgd1na2vs0mg"},{"bike_id":"872c2759-010c-4204-a032-db44107c43a6","system_id":"levelo_inurba_marseille","lat":43.27998,"lon":5.40015,"is_reserved":false,"is_disabled":false,"rental_uris":{"android":"levelo://app?vid=872c2759-010c-4204-a032-db44107c43a6","ios":"levelo://app?vid=872c2759-010c-4204-a032-db44107c43a6"},"vehicle_type_id":"4","last_reported":1733998257,"current_range_meters":22000,"station_id":"ce4bho92rcd13ifvqh4g","pricing_plan_id":"cebpf4jnsgd1na2vs0mg"},{"bike_id":"d604dda3-5b2b-4c6d-a3bc-256f0f85036f","system_id":"levelo_inurba_marseille","lat":43.2408,"lon":5.37754,"is_reserved":false,"is_disabled":false,"rental_uris":{"android":"levelo://app?vid=d604dda3-5b2b-4c6d-a3bc-256f0f85036f","ios":"levelo://app?vid=d604dda3-5b2b-4c6d-a3bc-256f0f85036f"},"vehicle_type_id":"4","last_reported":1733998257,"current_range_meters":24400,"station_id":"ce4bhnp2rcd13ifvqgvg","pricing_plan_id":"cebpf4jnsgd1na2vs0mg"},{"bike_id":"05ee6a10-776e-4cc2-aca8-1e6b67fba24f","system_id":"levelo_inurba_marseille","lat":43.24076,"lon":5.37755,"is_reserved":false,"is_disabled":false,"rental_uris":{"android":"levelo://app?vid=05ee6a10-776e-4cc2-aca8-1e6b67fba24f","ios":"levelo://app?vid=05ee6a10-776e-4cc2-aca8-1e6b67fba24f"},"vehicle_type_id":"4","last_reported":1733998257,"current_range_meters":38800,"station_id":"ce4bhnp2rcd13ifvqgvg","pricing_plan_id":"cebpf4jnsgd1na2vs0mg"},{"bike_id":"bad41746-d129-49ce-81bb-a600f5e48ff1","system_id":"levelo_inurba_marseille","lat":43.29643,"lon":5.37159,"is_reserved":false,"is_disabled":false,"rental_uris":{"android":"levelo://app?vid=bad41746-d129-49ce-81bb-a600f5e48ff1","ios":"levelo://app?vid=bad41746-d129-49ce-81bb-a600f5e48ff1"},"vehicle_type_id":"4","last_reported":1733998257,"current_range_meters":16000,"station_id":"ce4bgnh2rcd13ifvqc0g","pricing_plan_id":"cebpf4jnsgd1na2vs0mg"},{"bike_id":"1e40000b-f99d-478c-90f7-9ab9b7eac13b","system_id":"levelo_inurba_marseille","lat":43.3013,"lon":5.37438,"is_reserved":false,"is_disabled":false,"rental_uris":{"android":"levelo://app?vid=1e40000b-f99d-478c-90f7-9ab9b7eac13b","ios":"levelo://app?vid=1e40000b-f99d-478c-90f7-9ab9b7eac13b"},"vehicle_type_id":"4","last_reported":1733998257,"current_range_meters":37600,"station_id":"ce4bgs92rcd13ifvqcc0","pricing_plan_id":"cebpf4jnsgd1na2vs0mg"},{"bike_id":"208eb186-5b33-4064-833c-4dcb8be0d9f6","system_id":"levelo_inurba_marseille","lat":43.29982,"lon":5.37171,"is_reserved":false,"is_disabled":true,"rental_uris":{"android":"levelo://app?vid=208eb186-5b33-4064-833c-4dcb8be0d9f6","ios":"levelo://app?vid=208eb186-5b33-4064-833c-4dcb8be0d9f6"},"vehicle_type_id":"4","last_reported":1733998257,"current_range_meters":36400,"station_id":"ce4bgr92rcd13ifvqc7g","pricing_plan_id":"cebpf4jnsgd1na2vs0mg"},{"bike_id":"713823b4-c30b-4009-b498-f5ede3d91e75","system_id":"levelo_inurba_marseille","lat":43.2407,"lon":5.37755,"is_reserved":false,"is_disabled":false,"rental_uris":{"android":"levelo://app?vid=713823b4-c30b-4009-b498-f5ede3d91e75","ios":"levelo://app?vid=713823b4-c30b-4009-b498-f5ede3d91e75"},"vehicle_type_id":"4","last_reported":1733998257,"current_range_meters":38800,"station_id":"ce4bhnp2rcd13ifvqgvg","pricing_plan_id":"cebpf4jnsgd1na2vs0mg"},{"bike_id":"68759276-ff14-4d94-90b0-952f0012fee3","system_id":"levelo_inurba_marseille","lat":43.33596,"lon":5.41025,"is_reserved":false,"is_disabled":false,"rental_uris":{"android":"levelo://app?vid=68759276-ff14-4d94-90b0-952f0012fee3","ios":"levelo://app?vid=68759276-ff14-4d94-90b0-952f0012fee3"},"vehicle_type_id":"4","last_reported":1733998257,"current_range_meters":27600,"station_id":"ce4bhqh2rcd13ifvqhmg","pricing_plan_id":"cebpf4jnsgd1na2vs0mg"},{"bike_id":"fa15f52c-d82e-442e-8b00-07cecdb5a28d","system_id":"levelo_inurba_marseille","lat":43.26195,"lon":5.37455,"is_reserved":false,"is_disabled":false,"rental_uris":{"android":"levelo://app?vid=fa15f52c-d82e-442e-8b00-07cecdb5a28d","ios":"levelo://app?vid=fa15f52c-d82e-442e-8b00-07cecdb5a28d"},"vehicle_type_id":"4","last_reported":1733998257,"current_range_meters":32800,"station_id":"ce4bhgp2rcd13ifvqfc0","pricing_plan_id":"cebpf4jnsgd1na2vs0mg"},{"bike_id":"aeee7448-02e6-45b0-b0ac-d55c99806503","system_id":"levelo_inurba_marseille","lat":43.25579,"lon":5.38226,"is_reserved":false,"is_disabled":false,"rental_uris":{"android":"levelo://app?vid=aeee7448-02e6-45b0-b0ac-d55c99806503","ios":"levelo://app?vid=aeee7448-02e6-45b0-b0ac-d55c99806503"},"vehicle_type_id":"4","last_reported":1733998257,"current_range_meters":3600,"station_id":"ce4bhih2rcd13ifvqfs0","pricing_plan_id":"cebpf4jnsgd1na2vs0mg"},{"bike_id":"f2df0fef-7ab3-42b0-99e0-a085dcf5c5be","system_id":"levelo_inurba_marseille","lat":43.24067,"lon":5.37744,"is_reserved":false,"is_disabled":false,"rental_uris":{"android":"levelo://app?vid=f2df0fef-7ab3-42b0-99e0-a085dcf5c5be","ios":"levelo://app?vid=f2df0fef-7ab3-42b0-99e0-a085dcf5c5be"},"vehicle_type_id":"4","last_reported":1733998257,"current_range_meters":38400,"station_id":"ce4bhnp2rcd13ifvqgvg","pricing_plan_id":"cebpf4jnsgd1na2vs0mg"},{"bike_id":"54858b63-5ac8-425a-affd-4b4505ea48dd","system_id":"levelo_inurba_marseille","lat":43.2843,"lon":5.39186,"is_reserved":false,"is_disabled":true,"rental_uris":{"android":"levelo://app?vid=54858b63-5ac8-425a-affd-4b4505ea48dd","ios":"levelo://app?vid=54858b63-5ac8-425a-affd-4b4505ea48dd"},"vehicle_type_id":"4","last_reported":1733998257,"current_range_meters":36800,"station_id":"ce4bhoh2rcd13ifvqh5g","pricing_plan_id":"cebpf4jnsgd1na2vs0mg"},{"bike_id":"b54994e2-acf0-495c-8932-67e9eb200df4","system_id":"levelo_inurba_marseille","lat":43.30275,"lon":5.37687,"is_reserved":false,"is_disabled":false,"rental_uris":{"android":"levelo://app?vid=b54994e2-acf0-495c-8932-67e9eb200df4","ios":"levelo://app?vid=b54994e2-acf0-495c-8932-67e9eb200df4"},"vehicle_type_id":"4","last_reported":1733998257,"current_range_meters":29600,"station_id":"ce4bguh2rcd13ifvqcj0","pricing_plan_id":"cebpf4jnsgd1na2vs0mg"},{"bike_id":"9486a938-746d-4157-b18c-1398098347e2","system_id":"levelo_inurba_marseille","lat":43.27205,"lon":5.39178,"is_reserved":false,"is_disabled":false,"rental_uris":{"android":"levelo://app?vid=9486a938-746d-4157-b18c-1398098347e2","ios":"levelo://app?vid=9486a938-746d-4157-b18c-1398098347e2"},"vehicle_type_id":"4","last_reported":1733998257,"current_range_meters":16400,"station_id":"ce4bhhp2rcd13ifvqfm0","pricing_plan_id":"cebpf4jnsgd1na2vs0mg"},{"bike_id":"90acf504-b5df-4fe5-8f73-df39a8823ac4","system_id":"levelo_inurba_marseille","lat":43.27973,"lon":5.38763,"is_reserved":false,"is_disabled":true,"rental_uris":{"android":"levelo://app?vid=90acf504-b5df-4fe5-8f73-df39a8823ac4","ios":"levelo://app?vid=90acf504-b5df-4fe5-8f73-df39a8823ac4"},"vehicle_type_id":"4","last_reported":1733998257,"current_range_meters":37600,"station_id":"ce4bhg12rcd13ifvqf80","pricing_plan_id":"cebpf4jnsgd1na2vs0mg"},{"bike_id":"808103e0-3642-47f8-bdca-f32e7adf120f","system_id":"levelo_inurba_marseille","lat":43.30089,"lon":5.390725,"is_reserved":false,"is_disabled":false,"rental_uris":{"android":"levelo://app?vid=808103e0-3642-47f8-bdca-f32e7adf120f","ios":"levelo://app?vid=808103e0-3642-47f8-bdca-f32e7adf120f"},"vehicle_type_id":"4","last_reported":1733998257,"current_range_meters":39200,"station_id":"ce4bh192rcd13ifvqdb0","pricing_plan_id":"cebpf4jnsgd1na2vs0mg"},{"bike_id":"8a939789-b594-464c-87bc-cdbd1182be3b","system_id":"levelo_inurba_marseille","lat":43.24549,"lon":5.39521,"is_reserved":false,"is_disabled":false,"rental_uris":{"android":"levelo://app?vid=8a939789-b594-464c-87bc-cdbd1182be3b","ios":"levelo://app?vid=8a939789-b594-464c-87bc-cdbd1182be3b"},"vehicle_type_id":"4","last_reported":1733998257,"current_range_meters":16000,"station_id":"ce4bhlp2rcd13ifvqgjg","pricing_plan_id":"cebpf4jnsgd1na2vs0mg"},{"bike_id":"20b6570c-093e-4008-92f3-61a850c673d0","system_id":"levelo_inurba_marseille","lat":43.24085,"lon":5.37748,"is_reserved":false,"is_disabled":false,"rental_uris":{"android":"levelo://app?vid=20b6570c-093e-4008-92f3-61a850c673d0","ios":"levelo://app?vid=20b6570c-093e-4008-92f3-61a850c673d0"},"vehicle_type_id":"4","last_reported":1733998257,"current_range_meters":36400,"station_id":"ce4bhnp2rcd13ifvqgvg","pricing_plan_id":"cebpf4jnsgd1na2vs0mg"},{"bike_id":"467a8ed9-8f9d-4f9c-a7a2-b2a4bc21bd4a","system_id":"levelo_inurba_marseille","lat":43.24656,"lon":5.38894,"is_reserved":false,"is_disabled":false,"rental_uris":{"android":"levelo://app?vid=467a8ed9-8f9d-4f9c-a7a2-b2a4bc21bd4a","ios":"levelo://app?vid=467a8ed9-8f9d-4f9c-a7a2-b2a4bc21bd4a"},"vehicle_type_id":"4","last_reported":1733998257,"current_range_meters":36000,"station_id":"ce4bhg12rcd13ifvqf60","pricing_plan_id":"cebpf4jnsgd1na2vs0mg"},{"bike_id":"fdcb7a12-5e5b-4db1-bb4e-de1150a4341e","system_id":"levelo_inurba_marseille","lat":43.2955,"lon":5.42278,"is_reserved":false,"is_disabled":false,"rental_uris":{"android":"levelo://app?vid=fdcb7a12-5e5b-4db1-bb4e-de1150a4341e","ios":"levelo://app?vid=fdcb7a12-5e5b-4db1-bb4e-de1150a4341e"},"vehicle_type_id":"4","last_reported":1733998257,"current_range_meters":24000,"station_id":"ce4bhph2rcd13ifvqhdg","pricing_plan_id":"cebpf4jnsgd1na2vs0mg"},{"bike_id":"33099d93-ce10-45ff-bd7c-95104a3498a9","system_id":"levelo_inurba_marseille","lat":43.27989,"lon":5.4167,"is_reserved":false,"is_disabled":false,"rental_uris":{"android":"levelo://app?vid=33099d93-ce10-45ff-bd7c-95104a3498a9","ios":"levelo://app?vid=33099d93-ce10-45ff-bd7c-95104a3498a9"},"vehicle_type_id":"4","last_reported":1733998257,"current_range_meters":36000,"station_id":"ce4bho12rcd13ifvqh1g","pricing_plan_id":"cebpf4jnsgd1na2vs0mg"},{"bike_id":"912c5f0e-910a-4394-955f-e5597c567fcc","system_id":"levelo_inurba_marseille","lat":43.337444,"lon":5.374475,"is_reserved":false,"is_disabled":false,"rental_uris":{"android":"levelo://app?vid=912c5f0e-910a-4394-955f-e5597c567fcc","ios":"levelo://app?vid=912c5f0e-910a-4394-955f-e5597c567fcc"},"vehicle_type_id":"4","last_reported":1733998257,"current_range_meters":22800,"station_id":"","pricing_plan_id":"cebpf4jnsgd1na2vs0mg"},{"bike_id":"a5589391-a7e4-412b-9a87-f917b2322580","system_id":"levelo_inurba_marseille","lat":43.23056,"lon":5.3549,"is_reserved":false,"is_disabled":false,"rental_uris":{"android":"levelo://app?vid=a5589391-a7e4-412b-9a87-f917b2322580","ios":"levelo://app?vid=a5589391-a7e4-412b-9a87-f917b2322580"},"vehicle_type_id":"4","last_reported":1733998257,"current_range_meters":15200,"station_id":"cpo3342slgdg3j2ifvpg","pricing_plan_id":"cebpf4jnsgd1na2vs0mg"},{"bike_id":"1ac25f57-d61f-4b3f-b565-480d33d7852d","system_id":"levelo_inurba_marseille","lat":43.29044,"lon":5.39946,"is_reserved":false,"is_disabled":true,"rental_uris":{"android":"levelo://app?vid=1ac25f57-d61f-4b3f-b565-480d33d7852d","ios":"levelo://app?vid=1ac25f57-d61f-4b3f-b565-480d33d7852d"},"vehicle_type_id":"4","last_reported":1733998257,"current_range_meters":0,"station_id":"ce4bh392rcd13ifvqdm0","pricing_plan_id":"cebpf4jnsgd1na2vs0mg"},{"bike_id":"4adbefe7-e022-4183-953c-b8d94d86066c","system_id":"levelo_inurba_marseille","lat":43.29856,"lon":5.36257,"is_reserved":false,"is_disabled":false,"rental_uris":{"android":"levelo://app?vid=4adbefe7-e022-4183-953c-b8d94d86066c","ios":"levelo://app?vid=4adbefe7-e022-4183-953c-b8d94d86066c"},"vehicle_type_id":"4","last_reported":1733998257,"current_range_meters":35600,"station_id":"ce4bgpp2rcd13ifvqc3g","pricing_plan_id":"cebpf4jnsgd1na2vs0mg"},{"bike_id":"146c18c0-2d54-4c53-8578-b97326fbb246","system_id":"levelo_inurba_marseille","lat":43.32469,"lon":5.36568,"is_reserved":false,"is_disabled":false,"rental_uris":{"android":"levelo://app?vid=146c18c0-2d54-4c53-8578-b97326fbb246","ios":"levelo://app?vid=146c18c0-2d54-4c53-8578-b97326fbb246"},"vehicle_type_id":"4","last_reported":1733998257,"current_range_meters":38800,"station_id":"ce4bhs12rcd13ifvqhvg","pricing_plan_id":"cebpf4jnsgd1na2vs0mg"},{"bike_id":"9562be95-9d6a-49ef-8900-0a3823f44be4","system_id":"levelo_inurba_marseille","lat":43.29194,"lon":5.35809,"is_reserved":false,"is_disabled":false,"rental_uris":{"android":"levelo://app?vid=9562be95-9d6a-49ef-8900-0a3823f44be4","ios":"levelo://app?vid=9562be95-9d6a-49ef-8900-0a3823f44be4"},"vehicle_type_id":"4","last_reported":1733998257,"current_range_meters":38800,"station_id":"ce4bhb12rcd13ifvqel0","pricing_plan_id":"cebpf4jnsgd1na2vs0mg"},{"bike_id":"837ea001-3dca-43b1-bf44-3c63cdc8ec4f","system_id":"levelo_inurba_marseille","lat":43.24075,"lon":5.37751,"is_reserved":false,"is_disabled":false,"rental_uris":{"android":"levelo://app?vid=837ea001-3dca-43b1-bf44-3c63cdc8ec4f","ios":"levelo://app?vid=837ea001-3dca-43b1-bf44-3c63cdc8ec4f"},"vehicle_type_id":"4","last_reported":1733998257,"current_range_meters":38800,"station_id":"ce4bhnp2rcd13ifvqgvg","pricing_plan_id":"cebpf4jnsgd1na2vs0mg"},{"bike_id":"cb3ae327-e15e-4a4b-a09c-e1d30e70b31f","system_id":"levelo_inurba_marseille","lat":43.25938,"lon":5.40905,"is_reserved":false,"is_disabled":false,"rental_uris":{"android":"levelo://app?vid=cb3ae327-e15e-4a4b-a09c-e1d30e70b31f","ios":"levelo://app?vid=cb3ae327-e15e-4a4b-a09c-e1d30e70b31f"},"vehicle_type_id":"4","last_reported":1733998257,"current_range_meters":9600,"station_id":"ce4bhm92rcd13ifvqglg","pricing_plan_id":"cebpf4jnsgd1na2vs0mg"},{"bike_id":"10d9a998-b998-4d10-9e70-77a1ce1068b1","system_id":"levelo_inurba_marseille","lat":43.2621,"lon":5.37455,"is_reserved":false,"is_disabled":false,"rental_uris":{"android":"levelo://app?vid=10d9a998-b998-4d10-9e70-77a1ce1068b1","ios":"levelo://app?vid=10d9a998-b998-4d10-9e70-77a1ce1068b1"},"vehicle_type_id":"4","last_reported":1733998257,"current_range_meters":16800,"station_id":"ce4bhgp2rcd13ifvqfc0","pricing_plan_id":"cebpf4jnsgd1na2vs0mg"},{"bike_id":"43c11533-6c80-4707-8c5e-17176954a27e","system_id":"levelo_inurba_marseille","lat":43.26208,"lon":5.3744,"is_reserved":false,"is_disabled":false,"rental_uris":{"android":"levelo://app?vid=43c11533-6c80-4707-8c5e-17176954a27e","ios":"levelo://app?vid=43c11533-6c80-4707-8c5e-17176954a27e"},"vehicle_type_id":"4","last_reported":1733998257,"current_range_meters":32800,"station_id":"ce4bhgp2rcd13ifvqfc0","pricing_plan_id":"cebpf4jnsgd1na2vs0mg"},{"bike_id":"54238831-b2f8-4803-a465-8faa1bf52ffc","system_id":"levelo_inurba_marseille","lat":43.24084,"lon":5.37743,"is_reserved":false,"is_disabled":false,"rental_uris":{"android":"levelo://app?vid=54238831-b2f8-4803-a465-8faa1bf52ffc","ios":"levelo://app?vid=54238831-b2f8-4803-a465-8faa1bf52ffc"},"vehicle_type_id":"4","last_reported":1733998257,"current_range_meters":37600,"station_id":"ce4bhnp2rcd13ifvqgvg","pricing_plan_id":"cebpf4jnsgd1na2vs0mg"},{"bike_id":"61df4582-7c9f-489e-b7da-d6a0cfdcd7c7","system_id":"levelo_inurba_marseille","lat":43.28654,"lon":5.3636,"is_reserved":false,"is_disabled":true,"rental_uris":{"android":"levelo://app?vid=61df4582-7c9f-489e-b7da-d6a0cfdcd7c7","ios":"levelo://app?vid=61df4582-7c9f-489e-b7da-d6a0cfdcd7c7"},"vehicle_type_id":"4","last_reported":1733998257,"current_range_meters":0,"station_id":"ce4bhah2rcd13ifvqej0","pricing_plan_id":"cebpf4jnsgd1na2vs0mg"},{"bike_id":"46674d8d-a9e4-4076-b0f7-639bb4a07060","system_id":"levelo_inurba_marseille","lat":43.293043,"lon":5.371773,"is_reserved":false,"is_disabled":false,"rental_uris":{"android":"levelo://app?vid=46674d8d-a9e4-4076-b0f7-639bb4a07060","ios":"levelo://app?vid=46674d8d-a9e4-4076-b0f7-639bb4a07060"},"vehicle_type_id":"4","last_reported":1733998257,"current_range_meters":34000,"station_id":"ce4bgh92rcd13ifvqb40","pricing_plan_id":"cebpf4jnsgd1na2vs0mg"},{"bike_id":"c3a7ecdd-5659-4915-847f-1af1fee194ca","system_id":"levelo_inurba_marseille","lat":43.29838,"lon":5.3626,"is_reserved":false,"is_disabled":false,"rental_uris":{"android":"levelo://app?vid=c3a7ecdd-5659-4915-847f-1af1fee194ca","ios":"levelo://app?vid=c3a7ecdd-5659-4915-847f-1af1fee194ca"},"vehicle_type_id":"4","last_reported":1733998257,"current_range_meters":11600,"station_id":"ce4bgpp2rcd13ifvqc3g","pricing_plan_id":"cebpf4jnsgd1na2vs0mg"},{"bike_id":"ca3bf6a0-806c-4046-b219-bbea4c2ba646","system_id":"levelo_inurba_marseille","lat":43.23195,"lon":5.35543,"is_reserved":false,"is_disabled":false,"rental_uris":{"android":"levelo://app?vid=ca3bf6a0-806c-4046-b219-bbea4c2ba646","ios":"levelo://app?vid=ca3bf6a0-806c-4046-b219-bbea4c2ba646"},"vehicle_type_id":"4","last_reported":1733998257,"current_range_meters":38800,"station_id":"ce4bhu92rcd13ifvqi70","pricing_plan_id":"cebpf4jnsgd1na2vs0mg"},{"bike_id":"6eacd25b-da2d-4451-a77d-49deccc6af6d","system_id":"levelo_inurba_marseille","lat":43.27192,"lon":5.39179,"is_reserved":false,"is_disabled":false,"rental_uris":{"android":"levelo://app?vid=6eacd25b-da2d-4451-a77d-49deccc6af6d","ios":"levelo://app?vid=6eacd25b-da2d-4451-a77d-49deccc6af6d"},"vehicle_type_id":"4","last_reported":1733998257,"current_range_meters":38800,"station_id":"ce4bhhp2rcd13ifvqfm0","pricing_plan_id":"cebpf4jnsgd1na2vs0mg"},{"bike_id":"52570a85-7df5-4923-b819-36719dfbb495","system_id":"levelo_inurba_marseille","lat":43.27069,"lon":5.42289,"is_reserved":false,"is_disabled":false,"rental_uris":{"android":"levelo://app?vid=52570a85-7df5-4923-b819-36719dfbb495","ios":"levelo://app?vid=52570a85-7df5-4923-b819-36719dfbb495"},"vehicle_type_id":"4","last_reported":1733998257,"current_range_meters":11600,"station_id":"ce4bhk92rcd13ifvqgb0","pricing_plan_id":"cebpf4jnsgd1na2vs0mg"},{"bike_id":"46b2fdec-0870-4ae2-84dc-b1f57512351e","system_id":"levelo_inurba_marseille","lat":43.337444,"lon":5.374475,"is_reserved":false,"is_disabled":true,"rental_uris":{"android":"levelo://app?vid=46b2fdec-0870-4ae2-84dc-b1f57512351e","ios":"levelo://app?vid=46b2fdec-0870-4ae2-84dc-b1f57512351e"},"vehicle_type_id":"4","last_reported":1733998257,"current_range_meters":0,"station_id":"","pricing_plan_id":"cebpf4jnsgd1na2vs0mg"},{"bike_id":"b1738d66-2c3a-45b1-8e49-1b517d07423a","system_id":"levelo_inurba_marseille","lat":43.31277,"lon":5.40148,"is_reserved":false,"is_disabled":false,"rental_uris":{"android":"levelo://app?vid=b1738d66-2c3a-45b1-8e49-1b517d07423a","ios":"levelo://app?vid=b1738d66-2c3a-45b1-8e49-1b517d07423a"},"vehicle_type_id":"4","last_reported":1733998257,"current_range_meters":23200,"station_id":"ce4bh092rcd13ifvqd30","pricing_plan_id":"cebpf4jnsgd1na2vs0mg"},{"bike_id":"371a634b-72d6-436a-b598-3b69df0a41b6","system_id":"levelo_inurba_marseille","lat":43.28153,"lon":5.42649,"is_reserved":false,"is_disabled":false,"rental_uris":{"android":"levelo://app?vid=371a634b-72d6-436a-b598-3b69df0a41b6","ios":"levelo://app?vid=371a634b-72d6-436a-b598-3b69df0a41b6"},"vehicle_type_id":"4","last_reported":1733998257,"current_range_meters":31200,"station_id":"ce4bhnh2rcd13ifvqgug","pricing_plan_id":"cebpf4jnsgd1na2vs0mg"},{"bike_id":"32c4fe20-bcb4-4015-a688-d270498459b4","system_id":"levelo_inurba_marseille","lat":43.31327,"lon":5.39695,"is_reserved":false,"is_disabled":false,"rental_uris":{"android":"levelo://app?vid=32c4fe20-bcb4-4015-a688-d270498459b4","ios":"levelo://app?vid=32c4fe20-bcb4-4015-a688-d270498459b4"},"vehicle_type_id":"4","last_reported":1733998257,"current_range_meters":9600,"station_id":"ce4bgvp2rcd13ifvqcu0","pricing_plan_id":"cebpf4jnsgd1na2vs0mg"},{"bike_id":"f9c17646-b043-4130-9f2c-20df94d99d69","system_id":"levelo_inurba_marseille","lat":43.2898,"lon":5.37833,"is_reserved":false,"is_disabled":false,"rental_uris":{"android":"levelo://app?vid=f9c17646-b043-4130-9f2c-20df94d99d69","ios":"levelo://app?vid=f9c17646-b043-4130-9f2c-20df94d99d69"},"vehicle_type_id":"4","last_reported":1733998257,"current_range_meters":32800,"station_id":"ce4bh9p2rcd13ifvqed0","pricing_plan_id":"cebpf4jnsgd1na2vs0mg"},{"bike_id":"5866fd57-0def-4a15-a94b-d2cdcc3ef1e6","system_id":"levelo_inurba_marseille","lat":43.27497,"lon":5.42454,"is_reserved":false,"is_disabled":true,"rental_uris":{"android":"levelo://app?vid=5866fd57-0def-4a15-a94b-d2cdcc3ef1e6","ios":"levelo://app?vid=5866fd57-0def-4a15-a94b-d2cdcc3ef1e6"},"vehicle_type_id":"4","last_reported":1733998257,"current_range_meters":8800,"station_id":"ce4bhn92rcd13ifvqgrg","pricing_plan_id":"cebpf4jnsgd1na2vs0mg"},{"bike_id":"3d85156b-7336-4a22-941d-36eceacd40ef","system_id":"levelo_inurba_marseille","lat":43.29634,"lon":5.37145,"is_reserved":false,"is_disabled":false,"rental_uris":{"android":"levelo://app?vid=3d85156b-7336-4a22-941d-36eceacd40ef","ios":"levelo://app?vid=3d85156b-7336-4a22-941d-36eceacd40ef"},"vehicle_type_id":"4","last_reported":1733998257,"current_range_meters":38000,"station_id":"ce4bgnh2rcd13ifvqc0g","pricing_plan_id":"cebpf4jnsgd1na2vs0mg"},{"bike_id":"8a8e5dc4-ec39-4f90-b4a6-78aaeb75c504","system_id":"levelo_inurba_marseille","lat":43.27214,"lon":5.3918,"is_reserved":false,"is_disabled":false,"rental_uris":{"android":"levelo://app?vid=8a8e5dc4-ec39-4f90-b4a6-78aaeb75c504","ios":"levelo://app?vid=8a8e5dc4-ec39-4f90-b4a6-78aaeb75c504"},"vehicle_type_id":"4","last_reported":1733998257,"current_range_meters":9600,"station_id":"ce4bhhp2rcd13ifvqfm0","pricing_plan_id":"cebpf4jnsgd1na2vs0mg"},{"bike_id":"aba04a4a-713d-4755-a05f-c3c99a8bf8c4","system_id":"levelo_inurba_marseille","lat":43.2961,"lon":5.37707,"is_reserved":false,"is_disabled":false,"rental_uris":{"android":"levelo://app?vid=aba04a4a-713d-4755-a05f-c3c99a8bf8c4","ios":"levelo://app?vid=aba04a4a-713d-4755-a05f-c3c99a8bf8c4"},"vehicle_type_id":"4","last_reported":1733998257,"current_range_meters":7200,"station_id":"ce4bgi92rcd13ifvqb90","pricing_plan_id":"cebpf4jnsgd1na2vs0mg"},{"bike_id":"34cb8e10-2fa9-442c-8150-4ada5ee464ad","system_id":"levelo_inurba_marseille","lat":43.27202,"lon":5.39174,"is_reserved":false,"is_disabled":false,"rental_uris":{"android":"levelo://app?vid=34cb8e10-2fa9-442c-8150-4ada5ee464ad","ios":"levelo://app?vid=34cb8e10-2fa9-442c-8150-4ada5ee464ad"},