{"last_updated":1700636803,"ttl":30,"version":"2.2","data":{"bikes":[{"bike_id":"3884a088-af18-46fe-8e18-558686e70f22","system_id":"levelo_inurba_marseille","lat":43.313391,"lon":5.36706,"is_reserved":false,"is_disabled":false,"rental_uris":{"android":"levelo://app?vid=3884a088-af18-46fe-8e18-558686e70f22","ios":"levelo://app?vid=3884a088-af18-46fe-8e18-558686e70f22"},"vehicle_type_id":"4","last_reported":1700636803,"current_range_meters":30400,"station_id":"ce4bgr92rcd13ifvqc6g","pricing_plan_id":"free"},{"bike_id":"452d0500-0114-4433-86a9-63d9b0ac3b65","system_id":"levelo_inurba_marseille","lat":43.313391,"lon":5.36706,"is_reserved":false,"is_disabled":false,"rental_uris":{"android":"levelo://app?vid=452d0500-0114-4433-86a9-63d9b0ac3b65","ios":"levelo://app?vid=452d0500-0114-4433-86a9-63d9b0ac3b65"},"vehicle_type_id":"4","last_reported":1700636803,"current_range_meters":31200,"station_id":"ce4bgr92rcd13ifvqc6g","pricing_plan_id":"free"},{"bike_id":"adb09375-8dd0-4d73-bec8-fec7f9068a24","system_id":"levelo_inurba_marseille","lat":43.312239,"lon":5.368562,"is_reserved":false,"is_disabled":false,"rental_uris":{"android":"levelo://app?vid=adb09375-8dd0-4d73-bec8-fec7f9068a24","ios":"levelo://app?vid=adb09375-8dd0-4d73-bec8-fec7f9068a24"},"vehicle_type_id":"4","last_reported":1700636803,"current_range_meters":22000,"station_id":"ce4bgl92rcd13ifvqbq0","pricing_plan_id":"free"},{"bike_id":"eeef4dbc-7602-4f26-b2c1-c3771c9b5dae","system_id":"levelo_inurba_marseille","lat":43.3115,"lon":5.36889,"is_reserved":false,"is_disabled":false,"rental_uris":{"android":"levelo://app?vid=eeef4dbc-7602-4f26-b2c1-c3771c9b5dae","ios":"levelo://app?vid=eeef4dbc-7602-4f26-b2c1-c3771c9b5dae"},"vehicle_type_id":"4","last_reported":1700636803,"current_range_meters":0,"station_id":"","pricing_plan_id":"free"},{"bike_id":"28af8b7b-60a6-44df-af2d-a4c6d21c9d06","system_id":"levelo_inurba_marseille","lat":43.309076,"lon":5.368465,"is_reserved":false,"is_disabled":false,"rental_uris":{"android":"levelo://app?vid=28af8b7b-60a6-44df-af2d-a4c6d21c9d06","ios":"levelo://app?vid=28af8b7b-60a6-44df-af2d-a4c6d21c9d06"},"vehicle_type_id":"4","last_reported":1700636803,"current_range_meters":28400,"station_id":"ce4bgn92rcd13ifvqbvg","pricing_plan_id":"free"},{"bike_id":"dcc6e61f-f126-496d-a01a-41208c966a50","system_id":"levelo_inurba_marseille","lat":43.309076,"lon":5.368465,"is_reserved":false,"is_disabled":false,"rental_uris":{"android":"levelo://app?vid=dcc6e61f-f126-496d-a01a-41208c966a50","ios":"levelo://app?vid=dcc6e61f-f126-496d-a01a-41208c966a50"},"vehicle_type_id":"4","last_reported":1700636803,"current_range_meters":22400,"station_id":"ce4bgn92rcd13ifvqbvg","pricing_plan_id":"free"},{"bike_id":"261103cc-d591-457e-8551-620fc2b07b4e","system_id":"levelo_inurba_marseille","lat":43.314811,"lon":5.373103,"is_reserved":false,"is_disabled":false,"rental_uris":{"android":"levelo://app?vid=261103cc-d591-457e-8551-620fc2b07b4e","ios":"levelo://app?vid=261103cc-d591-457e-8551-620fc2b07b4e"},"vehicle_type_id":"4","last_reported":1700636803,"current_range_meters":21600,"station_id":"ce4bgt12rcd13ifvqcd0","pricing_plan_id":"free"},{"bike_id":"2bc311dc-da0b-403e-8cae-84f8764bc67c","system_id":"levelo_inurba_marseille","lat":43.30679,"lon":5.3679,"is_reserved":false,"is_disabled":false,"rental_uris":{"android":"levelo://app?vid=2bc311dc-da0b-403e-8cae-84f8764bc67c","ios":"levelo://app?vid=2bc311dc-da0b-403e-8cae-84f8764bc67c"},"vehicle_type_id":"4","last_reported":1700636803,"current_range_meters":400,"station_id":"","pricing_plan_id":"free"},{"bike_id":"4fdc8957-f88a-4534-92c3-2224f7f27145","system_id":"levelo_inurba_marseille","lat":43.305712,"lon":5.365641,"is_reserved":false,"is_disabled":false,"rental_uris":{"android":"levelo://app?vid=4fdc8957-f88a-4534-92c3-2224f7f27145","ios":"levelo://app?vid=4fdc8957-f88a-4534-92c3-2224f7f27145"},"vehicle_type_id":"4","last_reported":1700636803,"current_range_meters":14400,"station_id":"ce4bgs12rcd13ifvqcag","pricing_plan_id":"free"},{"bike_id":"498e4793-5975-4fd3-abd7-6609b7278436","system_id":"levelo_inurba_marseille","lat":43.305714,"lon":5.365633,"is_reserved":false,"is_disabled":false,"rental_uris":{"android":"levelo://app?vid=498e4793-5975-4fd3-abd7-6609b7278436","ios":"levelo://app?vid=498e4793-5975-4fd3-abd7-6609b7278436"},"vehicle_type_id":"4","last_reported":1700636803,"current_range_meters":22800,"station_id":"ce4bgs12rcd13ifvqcag","pricing_plan_id":"free"},{"bike_id":"95583d67-b9fc-4ff1-93fd-5e2fbf3996b7","system_id":"levelo_inurba_marseille","lat":43.31961,"lon":5.3706,"is_reserved":false,"is_disabled":false,"rental_uris":{"android":"levelo://app?vid=95583d67-b9fc-4ff1-93fd-5e2fbf3996b7","ios":"levelo://app?vid=95583d67-b9fc-4ff1-93fd-5e2fbf3996b7"},"vehicle_type_id":"4","last_reported":1700636803,"current_range_meters":0,"station_id":"","pricing_plan_id":"free"},{"bike_id":"8f647ef9-e5ef-4b37-9b67-9232ba9eb850","system_id":"levelo_inurba_marseille","lat":43.305706,"lon":5.365654,"is_reserved":false,"is_disabled":false,"rental_uris":{"android":"levelo://app?vid=8f647ef9-e5ef-4b37-9b67-9232ba9eb850","ios":"levelo://app?vid=8f647ef9-e5ef-4b37-9b67-9232ba9eb850"},"vehicle_type_id":"4","last_reported":1700636803,"current_range_meters":24800,"station_id":"ce4bgs12rcd13ifvqcag","pricing_plan_id":"free"},{"bike_id":"9dc1db1b-f4c0-422d-97d3-9806f04b651f","system_id":"levelo_inurba_marseille","lat":43.305706,"lon":5.365654,"is_reserved":false,"is_disabled":false,"rental_uris":{"android":"levelo://app?vid=9dc1db1b-f4c0-422d-97d3-9806f04b651f","ios":"levelo://app?vid=9dc1db1b-f4c0-422d-97d3-9806f04b651f"},"vehicle_type_id":"4","last_reported":1700636803,"current_range_meters":31600,"station_id":"ce4bgs12rcd13ifvqcag","pricing_plan_id":"free"},{"bike_id":"1ee681aa-0c8f-480b-ae93-1f3bbf6c9d9a","system_id":"levelo_inurba_marseille","lat":43.305989,"lon":5.37225,"is_reserved":false,"is_disabled":false,"rental_uris":{"android":"levelo://app?vid=1ee681aa-0c8f-480b-ae93-1f3bbf6c9d9a","ios":"levelo://app?vid=1ee681aa-0c8f-480b-ae93-1f3bbf6c9d9a"},"vehicle_type_id":"4","last_reported":1700636803,"current_range_meters":24800,"station_id":"ce4bgqh2rcd13ifvqc4g","pricing_plan_id":"free"},{"bike_id":"6212636a-b049-4428-b4e6-5f1116cedeab","system_id":"levelo_inurba_marseille","lat":43.305989,"lon":5.37225,"is_reserved":false,"is_disabled":false,"rental_uris":{"android":"levelo://app?vid=6212636a-b049-4428-b4e6-5f1116cedeab","ios":"levelo://app?vid=6212636a-b049-4428-b4e6-5f1116cedeab"},"vehicle_type_id":"4","last_reported":1700636803,"current_range_meters":22400,"station_id":"ce4bgqh2rcd13ifvqc4g","pricing_plan_id":"free"},{"bike_id":"06284047-1e80-4933-bc3c-a8606f20a4a9","system_id":"levelo_inurba_marseille","lat":43.30814,"lon":5.376542,"is_reserved":false,"is_disabled":false,"rental_uris":{"android":"levelo://app?vid=06284047-1e80-4933-bc3c-a8606f20a4a9","ios":"levelo://app?vid=06284047-1e80-4933-bc3c-a8606f20a4a9"},"vehicle_type_id":"4","last_reported":1700636803,"current_range_meters":16400,"station_id":"ce4bgv92rcd13ifvqcq0","pricing_plan_id":"free"},{"bike_id":"5008a410-b005-41c8-8fbb-6aab3581e607","system_id":"levelo_inurba_marseille","lat":43.317075,"lon":5.377367,"is_reserved":false,"is_disabled":false,"rental_uris":{"android":"levelo://app?vid=5008a410-b005-41c8-8fbb-6aab3581e607","ios":"levelo://app?vid=5008a410-b005-41c8-8fbb-6aab3581e607"},"vehicle_type_id":"4","last_reported":1700636803,"current_range_meters":26800,"station_id":"ce4bgth2rcd13ifvqch0","pricing_plan_id":"free"},{"bike_id":"a01947ce-d3f1-4178-a24b-0cddef23cdbe","system_id":"levelo_inurba_marseille","lat":43.30326,"lon":5.366236,"is_reserved":false,"is_disabled":false,"rental_uris":{"android":"levelo://app?vid=a01947ce-d3f1-4178-a24b-0cddef23cdbe","ios":"levelo://app?vid=a01947ce-d3f1-4178-a24b-0cddef23cdbe"},"vehicle_type_id":"4","last_reported":1700636803,"current_range_meters":0,"station_id":"","pricing_plan_id":"free"},{"bike_id":"867c7df6-9411-4bd7-9529-403ffe27d9ef","system_id":"levelo_inurba_marseille","lat":43.31533,"lon":5.38032,"is_reserved":false,"is_disabled":false,"rental_uris":{"android":"levelo://app?vid=867c7df6-9411-4bd7-9529-403ffe27d9ef","ios":"levelo://app?vid=867c7df6-9411-4bd7-9529-403ffe27d9ef"},"vehicle_type_id":"4","last_reported":1700636803,"current_range_meters":23200,"station_id":"ce4bhsp2rcd13ifvqi50","pricing_plan_id":"free"},{"bike_id":"5a426c0c-898a-4703-87be-f6ef5d24ca46","system_id":"levelo_inurba_marseille","lat":43.301939,"lon":5.366286,"is_reserved":false,"is_disabled":false,"rental_uris":{"android":"levelo://app?vid=5a426c0c-898a-4703-87be-f6ef5d24ca46","ios":"levelo://app?vid=5a426c0c-898a-4703-87be-f6ef5d24ca46"},"vehicle_type_id":"4","last_reported":1700636803,"current_range_meters":28400,"station_id":"ce4bgrh2rcd13ifvqc8g","pricing_plan_id":"free"},{"bike_id":"0327687b-f51e-4077-bf49-2ec73a6de092","system_id":"levelo_inurba_marseille","lat":43.32233,"lon":5.375595,"is_reserved":false,"is_disabled":false,"rental_uris":{"android":"levelo://app?vid=0327687b-f51e-4077-bf49-2ec73a6de092","ios":"levelo://app?vid=0327687b-f51e-4077-bf49-2ec73a6de092"},"vehicle_type_id":"4","last_reported":1700636803,"current_range_meters":17200,"station_id":"","pricing_plan_id":"free"},{"bike_id":"f91c3af0-c346-4466-9c35-1e9e5d2b6c67","system_id":"levelo_inurba_marseille","lat":43.304606,"lon":5.379026,"is_reserved":false,"is_disabled":false,"rental_uris":{"android":"levelo://app?vid=f91c3af0-c346-4466-9c35-1e9e5d2b6c67","ios":"levelo://app?vid=f91c3af0-c346-4466-9c35-1e9e5d2b6c67"},"vehicle_type_id":"4","last_reported":1700636803,"current_range_meters":18800,"station_id":"ce4bgup2rcd13ifvqcn0","pricing_plan_id":"free"},{"bike_id":"fbc7bcfa-2e1d-44a0-b806-d60eba3fc59d","system_id":"levelo_inurba_marseille","lat":43.304606,"lon":5.379026,"is_reserved":false,"is_disabled":false,"rental_uris":{"android":"levelo://app?vid=fbc7bcfa-2e1d-44a0-b806-d60eba3fc59d","ios":"levelo://app?vid=fbc7bcfa-2e1d-44a0-b806-d60eba3fc59d"},"vehicle_type_id":"4","last_reported":1700636803,"current_range_meters":14000,"station_id":"ce4bgup2rcd13ifvqcn0","pricing_plan_id":"free"},{"bike_id":"dfa1cc90-43bb-44b5-9668-a1d343d493e7","system_id":"levelo_inurba_marseille","lat":43.304606,"lon":5.379026,"is_reserved":false,"is_disabled":false,"rental_uris":{"android":"levelo://app?vid=dfa1cc90-43bb-44b5-9668-a1d343d493e7","ios":"levelo://app?vid=dfa1cc90-43bb-44b5-9668-a1d343d493e7"},"vehicle_type_id":"4","last_reported":1700636803,"current_range_meters":24800,"station_id":"ce4bgup2rcd13ifvqcn0","pricing_plan_id":"free"},{"bike_id":"fcb9a187-260d-405d-b6ad-7401b119b45f","system_id":"levelo_inurba_marseille","lat":43.30469,"lon":5.37905,"is_reserved":false,"is_disabled":false,"rental_uris":{"android":"levelo://app?vid=fcb9a187-260d-405d-b6ad-7401b119b45f","ios":"levelo://app?vid=fcb9a187-260d-405d-b6ad-7401b119b45f"},"vehicle_type_id":"4","last_reported":1700636803,"current_range_meters":11600,"station_id":"ce4bgup2rcd13ifvqcn0","pricing_plan_id":"free"},{"bike_id":"07416aa9-3943-40b3-a82e-71b6bf2f00d4","system_id":"levelo_inurba_marseille","lat":43.304606,"lon":5.379026,"is_reserved":false,"is_disabled":false,"rental_uris":{"android":"levelo://app?vid=07416aa9-3943-40b3-a82e-71b6bf2f00d4","ios":"levelo://app?vid=07416aa9-3943-40b3-a82e-71b6bf2f00d4"},"vehicle_type_id":"4","last_reported":1700636803,"current_range_meters":31200,"station_id":"ce4bgup2rcd13ifvqcn0","pricing_plan_id":"free"},{"bike_id":"8f6607eb-3303-476e-8c6c-962365c390b7","system_id":"levelo_inurba_marseille","lat":43.304606,"lon":5.379026,"is_reserved":false,"is_disabled":false,"rental_uris":{"android":"levelo://app?vid=8f6607eb-3303-476e-8c6c-962365c390b7","ios":"levelo://app?vid=8f6607eb-3303-476e-8c6c-962365c390b7"},"vehicle_type_id":"4","last_reported":1700636803,"current_range_meters":12800,"station_id":"ce4bgup2rcd13ifvqcn0","pricing_plan_id":"free"},{"bike_id":"bc34910f-e814-4ae9-b8a7-8b8a77440ba7","system_id":"levelo_inurba_marseille","lat":43.304606,"lon":5.379026,"is_reserved":false,"is_disabled":false,"rental_uris":{"android":"levelo://app?vid=bc34910f-e814-4ae9-b8a7-8b8a77440ba7","ios":"levelo://app?vid=bc34910f-e814-4ae9-b8a7-8b8a77440ba7"},"vehicle_type_id":"4","last_reported":1700636803,"current_range_meters":26000,"station_id":"ce4bgup2rcd13ifvqcn0","pricing_plan_id":"free"},{"bike_id":"05b9e36e-ea59-4be3-adf0-a4760d9b48b8","system_id":"levelo_inurba_marseille","lat":43.304606,"lon":5.379026,"is_reserved":false,"is_disabled":false,"rental_uris":{"android":"levelo://app?vid=05b9e36e-ea59-4be3-adf0-a4760d9b48b8","ios":"levelo://app?vid=05b9e36e-ea59-4be3-adf0-a4760d9b48b8"},"vehicle_type_id":"4","last_reported":1700636803,"current_range_meters":27200,"station_id":"ce4bgup2rcd13ifvqcn0","pricing_plan_id":"free"},{"bike_id":"dd8b7bab-7081-441f-bb6a-0ccc6ac637bb","system_id":"levelo_inurba_marseille","lat":43.30467,"lon":5.37909,"is_reserved":false,"is_disabled":false,"rental_uris":{"android":"levelo://app?vid=dd8b7bab-7081-441f-bb6a-0ccc6ac637bb","ios":"levelo://app?vid=dd8b7bab-7081-441f-bb6a-0ccc6ac637bb"},"vehicle_type_id":"4","last_reported":1700636803,"current_range_meters":24400,"station_id":"ce4bgup2rcd13ifvqcn0","pricing_plan_id":"free"},{"bike_id":"f270a0c9-fe1d-41b8-81df-04d04a5f2265","system_id":"levelo_inurba_marseille","lat":43.304606,"lon":5.379026,"is_reserved":false,"is_disabled":false,"rental_uris":{"android":"levelo://app?vid=f270a0c9-fe1d-41b8-81df-04d04a5f2265","ios":"levelo://app?vid=f270a0c9-fe1d-41b8-81df-04d04a5f2265"},"vehicle_type_id":"4","last_reported":1700636803,"current_range_meters":21600,"station_id":"ce4bgup2rcd13ifvqcn0","pricing_plan_id":"free"},{"bike_id":"199ec526-4731-4398-9b9a-18c040bfb356","system_id":"levelo_inurba_marseille","lat":43.304606,"lon":5.379026,"is_reserved":false,"is_disabled":false,"rental_uris":{"android":"levelo://app?vid=199ec526-4731-4398-9b9a-18c040bfb356","ios":"levelo://app?vid=199ec526-4731-4398-9b9a-18c040bfb356"},"vehicle_type_id":"4","last_reported":1700636803,"current_range_meters":22400,"station_id":"ce4bgup2rcd13ifvqcn0","pricing_plan_id":"free"},{"bike_id":"b1279936-f66a-4b04-abe6-10a6c47ced3d","system_id":"levelo_inurba_marseille","lat":43.304606,"lon":5.379026,"is_reserved":false,"is_disabled":false,"rental_uris":{"android":"levelo://app?vid=b1279936-f66a-4b04-abe6-10a6c47ced3d","ios":"levelo://app?vid=b1279936-f66a-4b04-abe6-10a6c47ced3d"},"vehicle_type_id":"4","last_reported":1700636803,"current_range_meters":23200,"station_id":"ce4bgup2rcd13ifvqcn0","pricing_plan_id":"free"},{"bike_id":"b30cb631-f2ff-470f-ac68-9ba335844cf6","system_id":"levelo_inurba_marseille","lat":43.304606,"lon":5.379026,"is_reserved":false,"is_disabled":false,"rental_uris":{"android":"levelo://app?vid=b30cb631-f2ff-470f-ac68-9ba335844cf6","ios":"levelo://app?vid=b30cb631-f2ff-470f-ac68-9ba335844cf6"},"vehicle_type_id":"4","last_reported":1700636803,"current_range_meters":28800,"station_id":"ce4bgup2rcd13ifvqcn0","pricing_plan_id":"free"},{"bike_id":"dbac94f6-a847-4037-9d2d-b1ef269be1ab","system_id":"levelo_inurba_marseille","lat":43.30463,"lon":5.3791,"is_reserved":false,"is_disabled":false,"rental_uris":{"android":"levelo://app?vid=dbac94f6-a847-4037-9d2d-b1ef269be1ab","ios":"levelo://app?vid=dbac94f6-a847-4037-9d2d-b1ef269be1ab"},"vehicle_type_id":"4","last_reported":1700636803,"current_range_meters":24400,"station_id":"ce4bgup2rcd13ifvqcn0","pricing_plan_id":"free"},{"bike_id":"9d543b5a-119d-480d-9d94-df22828d0ba8","system_id":"levelo_inurba_marseille","lat":43.30462,"lon":5.37909,"is_reserved":false,"is_disabled":false,"rental_uris":{"android":"levelo://app?vid=9d543b5a-119d-480d-9d94-df22828d0ba8","ios":"levelo://app?vid=9d543b5a-119d-480d-9d94-df22828d0ba8"},"vehicle_type_id":"4","last_reported":1700636803,"current_range_meters":28400,"station_id":"ce4bgup2rcd13ifvqcn0","pricing_plan_id":"free"},{"bike_id":"76f9b41e-c0b8-4144-aaa9-f0854b1f2c21","system_id":"levelo_inurba_marseille","lat":43.304606,"lon":5.379026,"is_reserved":false,"is_disabled":false,"rental_uris":{"android":"levelo://app?vid=76f9b41e-c0b8-4144-aaa9-f0854b1f2c21","ios":"levelo://app?vid=76f9b41e-c0b8-4144-aaa9-f0854b1f2c21"},"vehicle_type_id":"4","last_reported":1700636803,"current_range_meters":26000,"station_id":"ce4bgup2rcd13ifvqcn0","pricing_plan_id":"free"},{"bike_id":"8088c818-5cda-4d68-9f64-1ceaa135db6a","system_id":"levelo_inurba_marseille","lat":43.304606,"lon":5.379026,"is_reserved":false,"is_disabled":false,"rental_uris":{"android":"levelo://app?vid=8088c818-5cda-4d68-9f64-1ceaa135db6a","ios":"levelo://app?vid=8088c818-5cda-4d68-9f64-1ceaa135db6a"},"vehicle_type_id":"4","last_reported":1700636803,"current_range_meters":22800,"station_id":"ce4bgup2rcd13ifvqcn0","pricing_plan_id":"free"},{"bike_id":"a037806c-504f-410e-8380-5102d23eea79","system_id":"levelo_inurba_marseille","lat":43.324771,"lon":5.36557,"is_reserved":false,"is_disabled":false,"rental_uris":{"android":"levelo://app?vid=a037806c-504f-410e-8380-5102d23eea79","ios":"levelo://app?vid=a037806c-504f-410e-8380-5102d23eea79"},"vehicle_type_id":"4","last_reported":1700636803,"current_range_meters":27600,"station_id":"ce4bhs12rcd13ifvqhvg","pricing_plan_id":"free"},{"bike_id":"afa921fc-ca50-4532-aeb1-1de14ee2fe50","system_id":"levelo_inurba_marseille","lat":43.324771,"lon":5.36557,"is_reserved":false,"is_disabled":false,"rental_uris":{"android":"levelo://app?vid=afa921fc-ca50-4532-aeb1-1de14ee2fe50","ios":"levelo://app?vid=afa921fc-ca50-4532-aeb1-1de14ee2fe50"},"vehicle_type_id":"4","last_reported":1700636803,"current_range_meters":22800,"station_id":"ce4bhs12rcd13ifvqhvg","pricing_plan_id":"free"},{"bike_id":"24c1c1a9-b388-43fd-a96f-844a89779dd4","system_id":"levelo_inurba_marseille","lat":43.302864,"lon":5.376926,"is_reserved":false,"is_disabled":false,"rental_uris":{"android":"levelo://app?vid=24c1c1a9-b388-43fd-a96f-844a89779dd4","ios":"levelo://app?vid=24c1c1a9-b388-43fd-a96f-844a89779dd4"},"vehicle_type_id":"4","last_reported":1700636803,"current_range_meters":22800,"station_id":"ce4bguh2rcd13ifvqcj0","pricing_plan_id":"free"},{"bike_id":"d191167d-56fd-43c4-80b2-7b180f494c1d","system_id":"levelo_inurba_marseille","lat":43.301429,"lon":5.37413,"is_reserved":false,"is_disabled":false,"rental_uris":{"android":"levelo://app?vid=d191167d-56fd-43c4-80b2-7b180f494c1d","ios":"levelo://app?vid=d191167d-56fd-43c4-80b2-7b180f494c1d"},"vehicle_type_id":"4","last_reported":1700636803,"current_range_meters":21200,"station_id":"ce4bgs92rcd13ifvqcc0","pricing_plan_id":"free"},{"bike_id":"b42a012a-3641-476c-a2c0-c60fc79e037d","system_id":"levelo_inurba_marseille","lat":43.301429,"lon":5.37413,"is_reserved":false,"is_disabled":false,"rental_uris":{"android":"levelo://app?vid=b42a012a-3641-476c-a2c0-c60fc79e037d","ios":"levelo://app?vid=b42a012a-3641-476c-a2c0-c60fc79e037d"},"vehicle_type_id":"4","last_reported":1700636803,"current_range_meters":7200,"station_id":"ce4bgs92rcd13ifvqcc0","pricing_plan_id":"free"},{"bike_id":"a9475794-e53e-45f1-907f-cca565d7a6af","system_id":"levelo_inurba_marseille","lat":43.30137,"lon":5.37422,"is_reserved":false,"is_disabled":false,"rental_uris":{"android":"levelo://app?vid=a9475794-e53e-45f1-907f-cca565d7a6af","ios":"levelo://app?vid=a9475794-e53e-45f1-907f-cca565d7a6af"},"vehicle_type_id":"4","last_reported":1700636803,"current_range_meters":26000,"station_id":"ce4bgs92rcd13ifvqcc0","pricing_plan_id":"free"},{"bike_id":"efabff1c-3100-47ab-b0c1-c4c402701731","system_id":"levelo_inurba_marseille","lat":43.301429,"lon":5.37413,"is_reserved":false,"is_disabled":false,"rental_uris":{"android":"levelo://app?vid=efabff1c-3100-47ab-b0c1-c4c402701731","ios":"levelo://app?vid=efabff1c-3100-47ab-b0c1-c4c402701731"},"vehicle_type_id":"4","last_reported":1700636803,"current_range_meters":31200,"station_id":"ce4bgs92rcd13ifvqcc0","pricing_plan_id":"free"},{"bike_id":"36f36412-6132-477c-abaf-17a5302db7c5","system_id":"levelo_inurba_marseille","lat":43.319967,"lon":5.381487,"is_reserved":false,"is_disabled":false,"rental_uris":{"android":"levelo://app?vid=36f36412-6132-477c-abaf-17a5302db7c5","ios":"levelo://app?vid=36f36412-6132-477c-abaf-17a5302db7c5"},"vehicle_type_id":"4","last_reported":1700636803,"current_range_meters":6400,"station_id":"ce4bhr12rcd13ifvqhpg","pricing_plan_id":"free"},{"bike_id":"e93bd933-400d-4aaf-8b10-c9a0ef9e2dd1","system_id":"levelo_inurba_marseille","lat":43.29975,"lon":5.371822,"is_reserved":false,"is_disabled":false,"rental_uris":{"android":"levelo://app?vid=e93bd933-400d-4aaf-8b10-c9a0ef9e2dd1","ios":"levelo://app?vid=e93bd933-400d-4aaf-8b10-c9a0ef9e2dd1"},"vehicle_type_id":"4","last_reported":1700636803,"current_range_meters":29200,"station_id":"","pricing_plan_id":"free"},{"bike_id":"35960f2f-b869-442a-afb2-aef6d409c34c","system_id":"levelo_inurba_marseille","lat":43.299243,"lon":5.37481,"is_reserved":false,"is_disabled":false,"rental_uris":{"android":"levelo://app?vid=35960f2f-b869-442a-afb2-aef6d409c34c","ios":"levelo://app?vid=35960f2f-b869-442a-afb2-aef6d409c34c"},"vehicle_type_id":"4","last_reported":1700636803,"current_range_meters":5200,"station_id":"ce4bgjh2rcd13ifvqbg0","pricing_plan_id":"free"},{"bike_id":"28466f1b-7712-4dff-9638-46e40af80137","system_id":"levelo_inurba_marseille","lat":43.31173,"lon":5.38712,"is_reserved":false,"is_disabled":false,"rental_uris":{"android":"levelo://app?vid=28466f1b-7712-4dff-9638-46e40af80137","ios":"levelo://app?vid=28466f1b-7712-4dff-9638-46e40af80137"},"vehicle_type_id":"4","last_reported":1700636803,"current_range_meters":23600,"station_id":"ce4bgv12rcd13ifvqcp0","pricing_plan_id":"free"},{"bike_id":"7b15a367-bc91-404a-a289-df72732d7316","system_id":"levelo_inurba_marseille","lat":43.297794,"lon":5.370888,"is_reserved":false,"is_disabled":false,"rental_uris":{"android":"levelo://app?vid=7b15a367-bc91-404a-a289-df72732d7316","ios":"levelo://app?vid=7b15a367-bc91-404a-a289-df72732d7316"},"vehicle_type_id":"4","last_reported":1700636803,"current_range_meters":17200,"station_id":"ce4bgop2rcd13ifvqc1g","pricing_plan_id":"free"},{"bike_id":"d42732ee-3d1a-47b1-9598-db3afd7b4663","system_id":"levelo_inurba_marseille","lat":43.328198,"lon":5.36664,"is_reserved":false,"is_disabled":false,"rental_uris":{"android":"levelo://app?vid=d42732ee-3d1a-47b1-9598-db3afd7b4663","ios":"levelo://app?vid=d42732ee-3d1a-47b1-9598-db3afd7b4663"},"vehicle_type_id":"4","last_reported":1700636803,"current_range_meters":4000,"station_id":"ce4bhs92rcd13ifvqi0g","pricing_plan_id":"free"},{"bike_id":"69a91a93-657b-4159-bd9e-e19ad5a7ab42","system_id":"levelo_inurba_marseille","lat":43.32828,"lon":5.36689,"is_reserved":false,"is_disabled":false,"rental_uris":{"android":"levelo://app?vid=69a91a93-657b-4159-bd9e-e19ad5a7ab42","ios":"levelo://app?vid=69a91a93-657b-4159-bd9e-e19ad5a7ab42"},"vehicle_type_id":"4","last_reported":1700636803,"current_range_meters":11600,"station_id":"","pricing_plan_id":"free"},{"bike_id":"6152776f-9b5a-4ba2-8519-780d74b2e6da","system_id":"levelo_inurba_marseille","lat":43.29712,"lon":5.36577,"is_reserved":false,"is_disabled":false,"rental_uris":{"android":"levelo://app?vid=6152776f-9b5a-4ba2-8519-780d74b2e6da","ios":"levelo://app?vid=6152776f-9b5a-4ba2-8519-780d74b2e6da"},"vehicle_type_id":"4","last_reported":1700636803,"current_range_meters":0,"station_id":"ce4bgn12rcd13ifvqbt0","pricing_plan_id":"free"},{"bike_id":"ef8fdd57-20a9-43fc-a4cb-1626c330521e","system_id":"levelo_inurba_marseille","lat":43.297163,"lon":5.365866,"is_reserved":false,"is_disabled":false,"rental_uris":{"android":"levelo://app?vid=ef8fdd57-20a9-43fc-a4cb-1626c330521e","ios":"levelo://app?vid=ef8fdd57-20a9-43fc-a4cb-1626c330521e"},"vehicle_type_id":"4","last_reported":1700636803,"current_range_meters":0,"station_id":"ce4bgn12rcd13ifvqbt0","pricing_plan_id":"free"},{"bike_id":"e2ce0729-1859-4807-a54a-a63442ecebdf","system_id":"levelo_inurba_marseille","lat":43.296131,"lon":5.370791,"is_reserved":false,"is_disabled":false,"rental_uris":{"android":"levelo://app?vid=e2ce0729-1859-4807-a54a-a63442ecebdf","ios":"levelo://app?vid=e2ce0729-1859-4807-a54a-a63442ecebdf"},"vehicle_type_id":"4","last_reported":1700636803,"current_range_meters":30800,"station_id":"ce4bgnh2rcd13ifvqc0g","pricing_plan_id":"free"},{"bike_id":"31fb0829-4f6e-4fb8-928d-b8e832ed928b","system_id":"levelo_inurba_marseille","lat":43.3095,"lon":5.3903,"is_reserved":false,"is_disabled":false,"rental_uris":{"android":"levelo://app?vid=31fb0829-4f6e-4fb8-928d-b8e832ed928b","ios":"levelo://app?vid=31fb0829-4f6e-4fb8-928d-b8e832ed928b"},"vehicle_type_id":"4","last_reported":1700636803,"current_range_meters":24000,"station_id":"ce4bgup2rcd13ifvqco0","pricing_plan_id":"free"},{"bike_id":"9fb402a7-7a41-4473-81d2-1fec663a6035","system_id":"levelo_inurba_marseille","lat":43.305605,"lon":5.388678,"is_reserved":false,"is_disabled":false,"rental_uris":{"android":"levelo://app?vid=9fb402a7-7a41-4473-81d2-1fec663a6035","ios":"levelo://app?vid=9fb402a7-7a41-4473-81d2-1fec663a6035"},"vehicle_type_id":"4","last_reported":1700636803,"current_range_meters":26000,"station_id":"","pricing_plan_id":"free"},{"bike_id":"cacbdb3c-0b76-4eb6-8c70-53a15456aa49","system_id":"levelo_inurba_marseille","lat":43.317553,"lon":5.390107,"is_reserved":false,"is_disabled":false,"rental_uris":{"android":"levelo://app?vid=cacbdb3c-0b76-4eb6-8c70-53a15456aa49","ios":"levelo://app?vid=cacbdb3c-0b76-4eb6-8c70-53a15456aa49"},"vehicle_type_id":"4","last_reported":1700636803,"current_range_meters":24000,"station_id":"ce4bhqp2rcd13ifvqhng","pricing_plan_id":"free"},{"bike_id":"3059d4c1-3d42-4321-a339-0fea9a03ef82","system_id":"levelo_inurba_marseille","lat":43.328154,"lon":5.380034,"is_reserved":false,"is_disabled":false,"rental_uris":{"android":"levelo://app?vid=3059d4c1-3d42-4321-a339-0fea9a03ef82","ios":"levelo://app?vid=3059d4c1-3d42-4321-a339-0fea9a03ef82"},"vehicle_type_id":"4","last_reported":1700636803,"current_range_meters":0,"station_id":"","pricing_plan_id":"free"},{"bike_id":"b8103e47-facd-49b8-906a-cb85cff9f1ac","system_id":"levelo_inurba_marseille","lat":43.299717,"lon":5.384845,"is_reserved":false,"is_disabled":false,"rental_uris":{"android":"levelo://app?vid=b8103e47-facd-49b8-906a-cb85cff9f1ac","ios":"levelo://app?vid=b8103e47-facd-49b8-906a-cb85cff9f1ac"},"vehicle_type_id":"4","last_reported":1700636803,"current_range_meters":28000,"station_id":"ce4bgj92rcd13ifvqbd0","pricing_plan_id":"free"},{"bike_id":"bd02802f-0e56-4786-8105-682ae1dd5bf8","system_id":"levelo_inurba_marseille","lat":43.299724,"lon":5.384848,"is_reserved":false,"is_disabled":false,"rental_uris":{"android":"levelo://app?vid=bd02802f-0e56-4786-8105-682ae1dd5bf8","ios":"levelo://app?vid=bd02802f-0e56-4786-8105-682ae1dd5bf8"},"vehicle_type_id":"4","last_reported":1700636803,"current_range_meters":22000,"station_id":"ce4bgj92rcd13ifvqbd0","pricing_plan_id":"free"},{"bike_id":"6b621983-5e9e-42f7-990d-ad5a093820d2","system_id":"levelo_inurba_marseille","lat":43.293801,"lon":5.363066,"is_reserved":false,"is_disabled":false,"rental_uris":{"android":"levelo://app?vid=6b621983-5e9e-42f7-990d-ad5a093820d2","ios":"levelo://app?vid=6b621983-5e9e-42f7-990d-ad5a093820d2"},"vehicle_type_id":"4","last_reported":1700636803,"current_range_meters":13200,"station_id":"","pricing_plan_id":"free"},{"bike_id":"89b29b5a-d802-43db-962f-ffe92f87d98e","system_id":"levelo_inurba_marseille","lat":43.296723,"lon":5.381567,"is_reserved":false,"is_disabled":false,"rental_uris":{"android":"levelo://app?vid=89b29b5a-d802-43db-962f-ffe92f87d98e","ios":"levelo://app?vid=89b29b5a-d802-43db-962f-ffe92f87d98e"},"vehicle_type_id":"4","last_reported":1700636803,"current_range_meters":19600,"station_id":"","pricing_plan_id":"free"},{"bike_id":"d08f04bf-d1cb-49fb-9aa7-04e7f7676b3c","system_id":"levelo_inurba_marseille","lat":43.323405,"lon":5.389588,"is_reserved":false,"is_disabled":false,"rental_uris":{"android":"levelo://app?vid=d08f04bf-d1cb-49fb-9aa7-04e7f7676b3c","ios":"levelo://app?vid=d08f04bf-d1cb-49fb-9aa7-04e7f7676b3c"},"vehicle_type_id":"4","last_reported":1700636803,"current_range_meters":0,"station_id":"","pricing_plan_id":"free"},{"bike_id":"adf2c56b-e9c6-4570-b8e2-c3542e35c1d3","system_id":"levelo_inurba_marseille","lat":43.29602,"lon":5.381084,"is_reserved":false,"is_disabled":false,"rental_uris":{"android":"levelo://app?vid=adf2c56b-e9c6-4570-b8e2-c3542e35c1d3","ios":"levelo://app?vid=adf2c56b-e9c6-4570-b8e2-c3542e35c1d3"},"vehicle_type_id":"4","last_reported":1700636803,"current_range_meters":26400,"station_id":"ce4bgl12rcd13ifvqbo0","pricing_plan_id":"free"},{"bike_id":"a6127ee7-4dc3-463e-9275-d659337cfa84","system_id":"levelo_inurba_marseille","lat":43.29602,"lon":5.381084,"is_reserved":false,"is_disabled":false,"rental_uris":{"android":"levelo://app?vid=a6127ee7-4dc3-463e-9275-d659337cfa84","ios":"levelo://app?vid=a6127ee7-4dc3-463e-9275-d659337cfa84"},"vehicle_type_id":"4","last_reported":1700636803,"current_range_meters":22000,"station_id":"ce4bgl12rcd13ifvqbo0","pricing_plan_id":"free"},{"bike_id":"f00ce1a7-adbf-4ac1-8d7b-995bec606272","system_id":"levelo_inurba_marseille","lat":43.29602,"lon":5.381084,"is_reserved":false,"is_disabled":false,"rental_uris":{"android":"levelo://app?vid=f00ce1a7-adbf-4ac1-8d7b-995bec606272","ios":"levelo://app?vid=f00ce1a7-adbf-4ac1-8d7b-995bec606272"},"vehicle_type_id":"4","last_reported":1700636803,"current_range_meters":4000,"station_id":"ce4bgl12rcd13ifvqbo0","pricing_plan_id":"free"},{"bike_id":"5adae164-79b5-45da-b574-c9334c2557e4","system_id":"levelo_inurba_marseille","lat":43.29585,"lon":5.38236,"is_reserved":false,"is_disabled":false,"rental_uris":{"android":"levelo://app?vid=5adae164-79b5-45da-b574-c9334c2557e4","ios":"levelo://app?vid=5adae164-79b5-45da-b574-c9334c2557e4"},"vehicle_type_id":"4","last_reported":1700636803,"current_range_meters":30000,"station_id":"","pricing_plan_id":"free"},{"bike_id":"42e751b2-35f4-44b6-99e5-ce6ac22c416c","system_id":"levelo_inurba_marseille","lat":43.305917,"lon":5.393523,"is_reserved":false,"is_disabled":false,"rental_uris":{"android":"levelo://app?vid=42e751b2-35f4-44b6-99e5-ce6ac22c416c","ios":"levelo://app?vid=42e751b2-35f4-44b6-99e5-ce6ac22c416c"},"vehicle_type_id":"4","last_reported":1700636803,"current_range_meters":31200,"station_id":"ce4bh0p2rcd13ifvqd80","pricing_plan_id":"free"},{"bike_id":"aa92e126-939b-44fc-bd71-2ebbcbbcabd7","system_id":"levelo_inurba_marseille","lat":43.305994,"lon":5.393687,"is_reserved":false,"is_disabled":false,"rental_uris":{"android":"levelo://app?vid=aa92e126-939b-44fc-bd71-2ebbcbbcabd7","ios":"levelo://app?vid=aa92e126-939b-44fc-bd71-2ebbcbbcabd7"},"vehicle_type_id":"4","last_reported":1700636803,"current_range_meters":21600,"station_id":"ce4bh0p2rcd13ifvqd80","pricing_plan_id":"free"},{"bike_id":"4c57c451-3d76-4dcd-88be-fbafb0dd6543","system_id":"levelo_inurba_marseille","lat":43.30594,"lon":5.39358,"is_reserved":false,"is_disabled":false,"rental_uris":{"android":"levelo://app?vid=4c57c451-3d76-4dcd-88be-fbafb0dd6543","ios":"levelo://app?vid=4c57c451-3d76-4dcd-88be-fbafb0dd6543"},"vehicle_type_id":"4","last_reported":1700636803,"current_range_meters":0,"station_id":"ce4bh0p2rcd13ifvqd80","pricing_plan_id":"free"},{"bike_id":"6e9dc0cd-7be2-4448-b084-351a9e29b569","system_id":"levelo_inurba_marseille","lat":43.30589,"lon":5.3936,"is_reserved":false,"is_disabled":false,"rental_uris":{"android":"levelo://app?vid=6e9dc0cd-7be2-4448-b084-351a9e29b569","ios":"levelo://app?vid=6e9dc0cd-7be2-4448-b084-351a9e29b569"},"vehicle_type_id":"4","last_reported":1700636803,"current_range_meters":26000,"station_id":"ce4bh0p2rcd13ifvqd80","pricing_plan_id":"free"},{"bike_id":"3be38c60-dd6b-455a-835e-58ef0aa3c0fb","system_id":"levelo_inurba_marseille","lat":43.2922,"lon":5.360633,"is_reserved":false,"is_disabled":false,"rental_uris":{"android":"levelo://app?vid=3be38c60-dd6b-455a-835e-58ef0aa3c0fb","ios":"levelo://app?vid=3be38c60-dd6b-455a-835e-58ef0aa3c0fb"},"vehicle_type_id":"4","last_reported":1700636803,"current_range_meters":25200,"station_id":"ce4bhbh2rcd13ifvqeqg","pricing_plan_id":"free"},{"bike_id":"df4ef8f8-d71b-4f5d-b02e-61c10c5bc698","system_id":"levelo_inurba_marseille","lat":43.290327,"lon":5.375711,"is_reserved":false,"is_disabled":false,"rental_uris":{"android":"levelo://app?vid=df4ef8f8-d71b-4f5d-b02e-61c10c5bc698","ios":"levelo://app?vid=df4ef8f8-d71b-4f5d-b02e-61c10c5bc698"},"vehicle_type_id":"4","last_reported":1700636803,"current_range_meters":26800,"station_id":"ce4bh692rcd13ifvqe90","pricing_plan_id":"free"},{"bike_id":"6136c839-d070-4570-84d4-b5b47aac94d3","system_id":"levelo_inurba_marseille","lat":43.298764,"lon":5.388973,"is_reserved":false,"is_disabled":false,"rental_uris":{"android":"levelo://app?vid=6136c839-d070-4570-84d4-b5b47aac94d3","ios":"levelo://app?vid=6136c839-d070-4570-84d4-b5b47aac94d3"},"vehicle_type_id":"4","last_reported":1700636803,"current_range_meters":26800,"station_id":"ce4bh392rcd13ifvqdl0","pricing_plan_id":"free"},{"bike_id":"cb33dfcd-9a60-46f4-871d-6659c3334182","system_id":"levelo_inurba_marseille","lat":43.30981,"lon":5.39609,"is_reserved":false,"is_disabled":false,"rental_uris":{"android":"levelo://app?vid=cb33dfcd-9a60-46f4-871d-6659c3334182","ios":"levelo://app?vid=cb33dfcd-9a60-46f4-871d-6659c3334182"},"vehicle_type_id":"4","last_reported":1700636803,"current_range_meters":8000,"station_id":"","pricing_plan_id":"free"},{"bike_id":"6d84f195-20fd-4657-b77a-d13c1b7a9220","system_id":"levelo_inurba_marseille","lat":43.309047,"lon":5.396551,"is_reserved":false,"is_disabled":false,"rental_uris":{"android":"levelo://app?vid=6d84f195-20fd-4657-b77a-d13c1b7a9220","ios":"levelo://app?vid=6d84f195-20fd-4657-b77a-d13c1b7a9220"},"vehicle_type_id":"4","last_reported":1700636803,"current_range_meters":31200,"station_id":"ce4bh012rcd13ifvqcv0","pricing_plan_id":"free"},{"bike_id":"1d10a1b1-d55f-4279-928a-9c6858f32ca9","system_id":"levelo_inurba_marseille","lat":43.33211,"lon":5.38112,"is_reserved":false,"is_disabled":false,"rental_uris":{"android":"levelo://app?vid=1d10a1b1-d55f-4279-928a-9c6858f32ca9","ios":"levelo://app?vid=1d10a1b1-d55f-4279-928a-9c6858f32ca9"},"vehicle_type_id":"4","last_reported":1700636803,"current_range_meters":4400,"station_id":"","pricing_plan_id":"free"},{"bike_id":"a9dc19b8-971f-4b95-a309-5141b0343a00","system_id":"levelo_inurba_marseille","lat":43.302008,"lon":5.394694,"is_reserved":false,"is_disabled":false,"rental_uris":{"android":"levelo://app?vid=a9dc19b8-971f-4b95-a309-5141b0343a00","ios":"levelo://app?vid=a9dc19b8-971f-4b95-a309-5141b0343a00"},"vehicle_type_id":"4","last_reported":1700636803,"current_range_meters":25200,"station_id":"ce4bh0p2rcd13ifvqd70","pricing_plan_id":"free"},{"bike_id":"48f088a6-24b9-4c91-8aae-56bc087eec58","system_id":"levelo_inurba_marseille","lat":43.289184,"lon":5.366408,"is_reserved":false,"is_disabled":false,"rental_uris":{"android":"levelo://app?vid=48f088a6-24b9-4c91-8aae-56bc087eec58","ios":"levelo://app?vid=48f088a6-24b9-4c91-8aae-56bc087eec58"},"vehicle_type_id":"4","last_reported":1700636803,"current_range_meters":26400,"station_id":"ce4bhap2rcd13ifvqek0","pricing_plan_id":"free"},{"bike_id":"043bbfd7-bc00-4b85-9e07-78a74b1e703e","system_id":"levelo_inurba_marseille","lat":43.304258,"lon":5.397381,"is_reserved":false,"is_disabled":false,"rental_uris":{"android":"levelo://app?vid=043bbfd7-bc00-4b85-9e07-78a74b1e703e","ios":"levelo://app?vid=043bbfd7-bc00-4b85-9e07-78a74b1e703e"},"vehicle_type_id":"4","last_reported":1700636803,"current_range_meters":26800,"station_id":"","pricing_plan_id":"free"},{"bike_id":"e1d204f0-9ec5-4251-8d54-9dd17ac65deb","system_id":"levelo_inurba_marseille","lat":43.33042,"lon":5.38913,"is_reserved":false,"is_disabled":false,"rental_uris":{"android":"levelo://app?vid=e1d204f0-9ec5-4251-8d54-9dd17ac65deb","ios":"levelo://app?vid=e1d204f0-9ec5-4251-8d54-9dd17ac65deb"},"vehicle_type_id":"4","last_reported":1700636803,"current_range_meters":24400,"station_id":"ce4bhr92rcd13ifvqhrg","pricing_plan_id":"free"},{"bike_id":"a9d85e14-7aa4-42f1-92fd-77e7532db0c7","system_id":"levelo_inurba_marseille","lat":43.290104,"lon":5.356111,"is_reserved":false,"is_disabled":false,"rental_uris":{"android":"levelo://app?vid=a9d85e14-7aa4-42f1-92fd-77e7532db0c7","ios":"levelo://app?vid=a9d85e14-7aa4-42f1-92fd-77e7532db0c7"},"vehicle_type_id":"4","last_reported":1700636803,"current_range_meters":10800,"station_id":"ce4bhb92rcd13ifvqen0","pricing_plan_id":"free"},{"bike_id":"a6037071-df5e-4186-b52f-af96b04ec1dd","system_id":"levelo_inurba_marseille","lat":43.290104,"lon":5.356111,"is_reserved":false,"is_disabled":false,"rental_uris":{"android":"levelo://app?vid=a6037071-df5e-4186-b52f-af96b04ec1dd","ios":"levelo://app?vid=a6037071-df5e-4186-b52f-af96b04ec1dd"},"vehicle_type_id":"4","last_reported":1700636803,"current_range_meters":21200,"station_id":"ce4bhb92rcd13ifvqen0","pricing_plan_id":"free"},{"bike_id":"ef1d81e1-1a2a-4341-9d3f-43a322b27b79","system_id":"levelo_inurba_marseille","lat":43.290103,"lon":5.356114,"is_reserved":false,"is_disabled":false,"rental_uris":{"android":"levelo://app?vid=ef1d81e1-1a2a-4341-9d3f-43a322b27b79","ios":"levelo://app?vid=ef1d81e1-1a2a-4341-9d3f-43a322b27b79"},"vehicle_type_id":"4","last_reported":1700636803,"current_range_meters":18400,"station_id":"ce4bhb92rcd13ifvqen0","pricing_plan_id":"free"},{"bike_id":"95541c83-577f-4d31-b60c-8c99e42683ef","system_id":"levelo_inurba_marseille","lat":43.289743,"lon":5.378304,"is_reserved":false,"is_disabled":false,"rental_uris":{"android":"levelo://app?vid=95541c83-577f-4d31-b60c-8c99e42683ef","ios":"levelo://app?vid=95541c83-577f-4d31-b60c-8c99e42683ef"},"vehicle_type_id":"4","last_reported":1700636803,"current_range_meters":25600,"station_id":"ce4bh9p2rcd13ifvqed0","pricing_plan_id":"free"},{"bike_id":"5ab7eed5-7d5c-42cd-acfe-f52539c0b288","system_id":"levelo_inurba_marseille","lat":43.28983,"lon":5.37836,"is_reserved":false,"is_disabled":false,"rental_uris":{"android":"levelo://app?vid=5ab7eed5-7d5c-42cd-acfe-f52539c0b288","ios":"levelo://app?vid=5ab7eed5-7d5c-42cd-acfe-f52539c0b288"},"vehicle_type_id":"4","last_reported":1700636803,"current_range_meters":29600,"station_id":"ce4bh9p2rcd13ifvqed0","pricing_plan_id":"free"},{"bike_id":"45007866-2876-4153-a55a-c2b17e07c41d","system_id":"levelo_inurba_marseille","lat":43.28856,"lon":5.358371,"is_reserved":false,"is_disabled":false,"rental_uris":{"android":"levelo://app?vid=45007866-2876-4153-a55a-c2b17e07c41d","ios":"levelo://app?vid=45007866-2876-4153-a55a-c2b17e07c41d"},"vehicle_type_id":"4","last_reported":1700636803,"current_range_meters":20800,"station_id":"ce4bhb12rcd13ifvqem0","pricing_plan_id":"free"},{"bike_id":"472d29d6-e61e-40f7-af94-55f9708f3d0c","system_id":"levelo_inurba_marseille","lat":43.28856,"lon":5.358371,"is_reserved":false,"is_disabled":false,"rental_uris":{"android":"levelo://app?vid=472d29d6-e61e-40f7-af94-55f9708f3d0c","ios":"levelo://app?vid=472d29d6-e61e-40f7-af94-55f9708f3d0c"},"vehicle_type_id":"4","last_reported":1700636803,"current_range_meters":28000,"station_id":"ce4bhb12rcd13ifvqem0","pricing_plan_id":"free"},{"bike_id":"7389e0f5-fb39-4494-ae6f-f0dc361fa269","system_id":"levelo_inurba_marseille","lat":43.31276,"lon":5.40161,"is_reserved":false,"is_disabled":false,"rental_uris":{"android":"levelo://app?vid=7389e0f5-fb39-4494-ae6f-f0dc361fa269","ios":"levelo://app?vid=7389e0f5-fb39-4494-ae6f-f0dc361fa269"},"vehicle_type_id":"4","last_reported":1700636803,"current_range_meters":29600,"station_id":"ce4bh092rcd13ifvqd30","pricing_plan_id":"free"},{"bike_id":"aad9a792-6976-4183-919a-aef819ff2e25","system_id":"levelo_inurba_marseille","lat":43.31251,"lon":5.40162,"is_reserved":false,"is_disabled":false,"rental_uris":{"android":"levelo://app?vid=aad9a792-6976-4183-919a-aef819ff2e25","ios":"levelo://app?vid=aad9a792-6976-4183-919a-aef819ff2e25"},"vehicle_type_id":"4","last_reported":1700636803,"current_range_meters":400,"station_id":"","pricing_plan_id":"free"},{"bike_id":"92d64120-be95-4931-8086-a7b60f0b3e4c","system_id":"levelo_inurba_marseille","lat":43.312609,"lon":5.401662,"is_reserved":false,"is_disabled":false,"rental_uris":{"android":"levelo://app?vid=92d64120-be95-4931-8086-a7b60f0b3e4c","ios":"levelo://app?vid=92d64120-be95-4931-8086-a7b60f0b3e4c"},"vehicle_type_id":"4","last_reported":1700636803,"current_range_meters":0,"station_id":"ce4bh092rcd13ifvqd30","pricing_plan_id":"free"},{"bike_id":"f0e45f3a-3a31-4b84-b7f2-770281ff8b6b","system_id":"levelo_inurba_marseille","lat":43.309371,"lon":5.401449,"is_reserved":false,"is_disabled":false,"rental_uris":{"android":"levelo://app?vid=f0e45f3a-3a31-4b84-b7f2-770281ff8b6b","ios":"levelo://app?vid=f0e45f3a-3a31-4b84-b7f2-770281ff8b6b"},"vehicle_type_id":"4","last_reported":1700636803,"current_range_meters":12000,"station_id":"ce4bgvp2rcd13ifvqct0","pricing_plan_id":"free"},{"bike_id":"6dde8866-485c-4f35-8297-a266641dc306","system_id":"levelo_inurba_marseille","lat":43.30642,"lon":5.401031,"is_reserved":false,"is_disabled":false,"rental_uris":{"android":"levelo://app?vid=6dde8866-485c-4f35-8297-a266641dc306","ios":"levelo://app?vid=6dde8866-485c-4f35-8297-a266641dc306"},"vehicle_type_id":"4","last_reported":1700636803,"current_range_meters":0,"station_id":"ce4bh112rcd13ifvqda0","pricing_plan_id":"free"},{"bike_id":"1e5f9b7c-ce69-4d52-80d0-edbd66d45f4f","system_id":"levelo_inurba_marseille","lat":43.28727,"lon":5.36078,"is_reserved":false,"is_disabled":false,"rental_uris":{"android":"levelo://app?vid=1e5f9b7c-ce69-4d52-80d0-edbd66d45f4f","ios":"levelo://app?vid=1e5f9b7c-ce69-4d52-80d0-edbd66d45f4f"},"vehicle_type_id":"4","last_reported":1700636803,"current_range_meters":30000,"station_id":"cki0cbj6b192h4jlfktg","pricing_plan_id":"free"},{"bike_id":"5aa8ff98-98bc-4b95-a8fc-ba24aab95f38","system_id":"levelo_inurba_marseille","lat":43.28718,"lon":5.36081,"is_reserved":false,"is_disabled":false,"rental_uris":{"android":"levelo://app?vid=5aa8ff98-98bc-4b95-a8fc-ba24aab95f38","ios":"levelo://app?vid=5aa8ff98-98bc-4b95-a8fc-ba24aab95f38"},"vehicle_type_id":"4","last_reported":1700636803,"current_range_meters":6800,"station_id":"cki0cbj6b192h4jlfktg","pricing_plan_id":"free"},{"bike_id":"e9a15f4c-133b-482b-b68f-008b62012d2b","system_id":"levelo_inurba_marseille","lat":43.28711,"lon":5.37387,"is_reserved":false,"is_disabled":false,"rental_uris":{"android":"levelo://app?vid=e9a15f4c-133b-482b-b68f-008b62012d2b","ios":"levelo://app?vid=e9a15f4c-133b-482b-b68f-008b62012d2b"},"vehicle_type_id":"4","last_reported":1700636803,"current_range_meters":25600,"station_id":"","pricing_plan_id":"free"},{"bike_id":"3be57416-d965-43db-b29e-b1718ea62446","system_id":"levelo_inurba_marseille","lat":43.29043,"lon":5.38626,"is_reserved":false,"is_disabled":false,"rental_uris":{"android":"levelo://app?vid=3be57416-d965-43db-b29e-b1718ea62446","ios":"levelo://app?vid=3be57416-d965-43db-b29e-b1718ea62446"},"vehicle_type_id":"4","last_reported":1700636803,"current_range_meters":14000,"station_id":"ce4bh4p2rcd13ifvqe0g","pricing_plan_id":"free"},{"bike_id":"8dde203e-a418-4e16-9a63-c520c7aa5419","system_id":"levelo_inurba_marseille","lat":43.29041,"lon":5.38626,"is_reserved":false,"is_disabled":false,"rental_uris":{"android":"levelo://app?vid=8dde203e-a418-4e16-9a63-c520c7aa5419","ios":"levelo://app?vid=8dde203e-a418-4e16-9a63-c520c7aa5419"},"vehicle_type_id":"4","last_reported":1700636803,"current_range_meters":4800,"station_id":"ce4bh4p2rcd13ifvqe0g","pricing_plan_id":"free"},{"bike_id":"5adc065a-a84f-44c6-94b7-1aee4e21f9ae","system_id":"levelo_inurba_marseille","lat":43.29513,"lon":5.39397,"is_reserved":false,"is_disabled":false,"rental_uris":{"android":"levelo://app?vid=5adc065a-a84f-44c6-94b7-1aee4e21f9ae","ios":"levelo://app?vid=5adc065a-a84f-44c6-94b7-1aee4e21f9ae"},"vehicle_type_id":"4","last_reported":1700636803,"current_range_meters":10400,"station_id":"ce4bh292rcd13ifvqdf0","pricing_plan_id":"free"},{"bike_id":"fda10ddc-0534-43ca-afa5-6b785baf2575","system_id":"levelo_inurba_marseille","lat":43.29032,"lon":5.38629,"is_reserved":false,"is_disabled":false,"rental_uris":{"android":"levelo://app?vid=fda10ddc-0534-43ca-afa5-6b785baf2575","ios":"levelo://app?vid=fda10ddc-0534-43ca-afa5-6b785baf2575"},"vehicle_type_id":"4","last_reported":1700636803,"current_range_meters":4800,"station_id":"ce4bh4p2rcd13ifvqe0g","pricing_plan_id":"free"},{"bike_id":"c4b13a37-486b-4f6b-8bb8-eed6dea65e34","system_id":"levelo_inurba_marseille","lat":43.302759,"lon":5.400793,"is_reserved":false,"is_disabled":false,"rental_uris":{"android":"levelo://app?vid=c4b13a37-486b-4f6b-8bb8-eed6dea65e34","ios":"levelo://app?vid=c4b13a37-486b-4f6b-8bb8-eed6dea65e34"},"vehicle_type_id":"4","last_reported":1700636803,"current_range_meters":29200,"station_id":"ce4bgvh2rcd13ifvqcs0","pricing_plan_id":"free"},{"bike_id":"dc09fc1e-dc4a-4549-b5b8-3aea69bede88","system_id":"levelo_inurba_marseille","lat":43.302759,"lon":5.400793,"is_reserved":false,"is_disabled":false,"rental_uris":{"android":"levelo://app?vid=dc09fc1e-dc4a-4549-b5b8-3aea69bede88","ios":"levelo://app?vid=dc09fc1e-dc4a-4549-b5b8-3aea69bede88"},"vehicle_type_id":"4","last_reported":1700636803,"current_range_meters":25600,"station_id":"ce4bgvh2rcd13ifvqcs0","pricing_plan_id":"free"},{"bike_id":"365cdea8-ccf5-46d8-9a25-8383a626f8fe","system_id":"levelo_inurba_marseille","lat":43.302759,"lon":5.400793,"is_reserved":false,"is_disabled":false,"rental_uris":{"android":"levelo://app?vid=365cdea8-ccf5-46d8-9a25-8383a626f8fe","ios":"levelo://app?vid=365cdea8-ccf5-46d8-9a25-8383a626f8fe"},"vehicle_type_id":"4","last_reported":1700636803,"current_range_meters":21200,"station_id":"ce4bgvh2rcd13ifvqcs0","pricing_plan_id":"free"},{"bike_id":"5c1460e6-c781-40d7-8acc-19584c35a7f3","system_id":"levelo_inurba_marseille","lat":43.31643,"lon":5.40428,"is_reserved":false,"is_disabled":false,"rental_uris":{"android":"levelo://app?vid=5c1460e6-c781-40d7-8acc-19584c35a7f3","ios":"levelo://app?vid=5c1460e6-c781-40d7-8acc-19584c35a7f3"},"vehicle_type_id":"4","last_reported":1700636803,"current_range_meters":0,"station_id":"ce4bh012rcd13ifvqd00","pricing_plan_id":"free"},{"bike_id":"8371fb8c-d050-4618-a413-c9bfe7b84e96","system_id":"levelo_inurba_marseille","lat":43.316517,"lon":5.404375,"is_reserved":false,"is_disabled":false,"rental_uris":{"android":"levelo://app?vid=8371fb8c-d050-4618-a413-c9bfe7b84e96","ios":"levelo://app?vid=8371fb8c-d050-4618-a413-c9bfe7b84e96"},"vehicle_type_id":"4","last_reported":1700636803,"current_range_meters":23600,"station_id":"ce4bh012rcd13ifvqd00","pricing_plan_id":"free"},{"bike_id":"256693d5-4129-43ed-a31e-c1180e1a99ed","system_id":"levelo_inurba_marseille","lat":43.291994,"lon":5.392907,"is_reserved":false,"is_disabled":false,"rental_uris":{"android":"levelo://app?vid=256693d5-4129-43ed-a31e-c1180e1a99ed","ios":"levelo://app?vid=256693d5-4129-43ed-a31e-c1180e1a99ed"},"vehicle_type_id":"4","last_reported":1700636803,"current_range_meters":20400,"station_id":"ce4bh192rcd13ifvqdd0","pricing_plan_id":"free"},{"bike_id":"e22be1ba-1e32-4410-8b33-295d1abefd8c","system_id":"levelo_inurba_marseille","lat":43.291985,"lon":5.39317,"is_reserved":false,"is_disabled":false,"rental_uris":{"android":"levelo://app?vid=e22be1ba-1e32-4410-8b33-295d1abefd8c","ios":"levelo://app?vid=e22be1ba-1e32-4410-8b33-295d1abefd8c"},"vehicle_type_id":"4","last_reported":1700636803,"current_range_meters":22800,"station_id":"ce4bh192rcd13ifvqdd0","pricing_plan_id":"free"},{"bike_id":"9690c128-0dcd-44bc-ad68-3f3ca6c25c55","system_id":"levelo_inurba_marseille","lat":43.29203,"lon":5.39324,"is_reserved":false,"is_disabled":false,"rental_uris":{"android":"levelo://app?vid=9690c128-0dcd-44bc-ad68-3f3ca6c25c55","ios":"levelo://app?vid=9690c128-0dcd-44bc-ad68-3f3ca6c25c55"},"vehicle_type_id":"4","last_reported":1700636803,"current_range_meters":13600,"station_id":"ce4bh192rcd13ifvqdd0","pricing_plan_id":"free"},{"bike_id":"3a8072c2-f476-47d0-843f-76f76826e821","system_id":"levelo_inurba_marseille","lat":43.291994,"lon":5.392907,"is_reserved":false,"is_disabled":false,"rental_uris":{"android":"levelo://app?vid=3a8072c2-f476-47d0-843f-76f76826e821","ios":"levelo://app?vid=3a8072c2-f476-47d0-843f-76f76826e821"},"vehicle_type_id":"4","last_reported":1700636803,"current_range_meters":25200,"station_id":"ce4bh192rcd13ifvqdd0","pricing_plan_id":"free"},{"bike_id":"31bac94d-335a-44bd-b93c-7260913d8cc9","system_id":"levelo_inurba_marseille","lat":43.291994,"lon":5.392907,"is_reserved":false,"is_disabled":false,"rental_uris":{"android":"levelo://app?vid=31bac94d-335a-44bd-b93c-7260913d8cc9","ios":"levelo://app?vid=31bac94d-335a-44bd-b93c-7260913d8cc9"},"vehicle_type_id":"4","last_reported":1700636803,"current_range_meters":26800,"station_id":"ce4bh192rcd13ifvqdd0","pricing_plan_id":"free"},{"bike_id":"b731facb-30c9-4328-a1fe-3009618f7eef","system_id":"levelo_inurba_marseille","lat":43.28459,"lon":5.35889,"is_reserved":false,"is_disabled":false,"rental_uris":{"android":"levelo://app?vid=b731facb-30c9-4328-a1fe-3009618f7eef","ios":"levelo://app?vid=b731facb-30c9-4328-a1fe-3009618f7eef"},"vehicle_type_id":"4","last_reported":1700636803,"current_range_meters":0,"station_id":"ce4bhah2rcd13ifvqei0","pricing_plan_id":"free"},{"bike_id":"57f30b2e-e2b1-4660-a7bf-0cbd9a0cc8b4","system_id":"levelo_inurba_marseille","lat":43.28455,"lon":5.358903,"is_reserved":false,"is_disabled":false,"rental_uris":{"android":"levelo://app?vid=57f30b2e-e2b1-4660-a7bf-0cbd9a0cc8b4","ios":"levelo://app?vid=57f30b2e-e2b1-4660-a7bf-0cbd9a0cc8b4"},"vehicle_type_id":"4","last_reported":1700636803,"current_range_meters":29600,"station_id":"ce4bhah2rcd13ifvqei0","pricing_plan_id":"free"},{"bike_id":"7fb2d654-d744-4652-b789-08c8ca12bc50","system_id":"levelo_inurba_marseille","lat":43.286086,"lon":5.351127,"is_reserved":false,"is_disabled":false,"rental_uris":{"android":"levelo://app?vid=7fb2d654-d744-4652-b789-08c8ca12bc50","ios":"levelo://app?vid=7fb2d654-d744-4652-b789-08c8ca12bc50"},"vehicle_type_id":"4","last_reported":1700636803,"current_range_meters":24000,"station_id":"ce4bhch2rcd13ifvqeug","pricing_plan_id":"free"},{"bike_id":"c39c3ac7-ccfe-4146-aad8-48d06d3214c0","system_id":"levelo_inurba_marseille","lat":43.319179,"lon":5.407725,"is_reserved":false,"is_disabled":false,"rental_uris":{"android":"levelo://app?vid=c39c3ac7-ccfe-4146-aad8-48d06d3214c0","ios":"levelo://app?vid=c39c3ac7-ccfe-4146-aad8-48d06d3214c0"},"vehicle_type_id":"4","last_reported":1700636803,"current_range_meters":2400,"station_id":"ce4bhq12rcd13ifvqhig","pricing_plan_id":"free"},{"bike_id":"b4319b18-5548-4691-90e2-2eac47989fae","system_id":"levelo_inurba_marseille","lat":43.323464,"lon":5.406297,"is_reserved":false,"is_disabled":false,"rental_uris":{"android":"levelo://app?vid=b4319b18-5548-4691-90e2-2eac47989fae","ios":"levelo://app?vid=b4319b18-5548-4691-90e2-2eac47989fae"},"vehicle_type_id":"4","last_reported":1700636803,"current_range_meters":31200,"station_id":"ce4bhq92rcd13ifvqhjg","pricing_plan_id":"free"},{"bike_id":"cfeebfe5-ea8d-4ddb-9c81-b0a8cde4b3da","system_id":"levelo_inurba_marseille","lat":43.323464,"lon":5.406297,"is_reserved":false,"is_disabled":false,"rental_uris":{"android":"levelo://app?vid=cfeebfe5-ea8d-4ddb-9c81-b0a8cde4b3da","ios":"levelo://app?vid=cfeebfe5-ea8d-4ddb-9c81-b0a8cde4b3da"},"vehicle_type_id":"4","last_reported":1700636803,"current_range_meters":28400,"station_id":"ce4bhq92rcd13ifvqhjg","pricing_plan_id":"free"},{"bike_id":"83e1a59f-9909-4754-9bd0-38eaea9e0fdf","system_id":"levelo_inurba_marseille","lat":43.284787,"lon":5.384116,"is_reserved":false,"is_disabled":false,"rental_uris":{"android":"levelo://app?vid=83e1a59f-9909-4754-9bd0-38eaea9e0fdf","ios":"levelo://app?vid=83e1a59f-9909-4754-9bd0-38eaea9e0fdf"},"vehicle_type_id":"4","last_reported":1700636803,"current_range_meters":18000,"station_id":"ce4bh512rcd13ifvqe3g","pricing_plan_id":"free"},{"bike_id":"e5ed7912-5d83-4c0b-87db-b6cdc710ccef","system_id":"levelo_inurba_marseille","lat":43.284793,"lon":5.384113,"is_reserved":false,"is_disabled":false,"rental_uris":{"android":"levelo://app?vid=e5ed7912-5d83-4c0b-87db-b6cdc710ccef","ios":"levelo://app?vid=e5ed7912-5d83-4c0b-87db-b6cdc710ccef"},"vehicle_type_id":"4","last_reported":1700636803,"current_range_meters":12800,"station_id":"ce4bh512rcd13ifvqe3g","pricing_plan_id":"free"},{"bike_id":"46dbde4e-825b-403f-b6b6-91f886c4539f","system_id":"levelo_inurba_marseille","lat":43.297946,"lon":5.404063,"is_reserved":false,"is_disabled":false,"rental_uris":{"android":"levelo://app?vid=46dbde4e-825b-403f-b6b6-91f886c4539f","ios":"levelo://app?vid=46dbde4e-825b-403f-b6b6-91f886c4539f"},"vehicle_type_id":"4","last_reported":1700636803,"current_range_meters":27200,"station_id":"ce4bh112rcd13ifvqd90","pricing_plan_id":"free"},{"bike_id":"cc182dcd-962e-4179-940b-ec2e03f2c39d","system_id":"levelo_inurba_marseille","lat":43.283494,"lon":5.380945,"is_reserved":false,"is_disabled":false,"rental_uris":{"android":"levelo://app?vid=cc182dcd-962e-4179-940b-ec2e03f2c39d","ios":"levelo://app?vid=cc182dcd-962e-4179-940b-ec2e03f2c39d"},"vehicle_type_id":"4","last_reported":1700636803,"current_range_meters":17600,"station_id":"ce4bh412rcd13ifvqdr0","pricing_plan_id":"free"},{"bike_id":"e4a6c764-4443-40a8-b053-ac7c6bc37351","system_id":"levelo_inurba_marseille","lat":43.283494,"lon":5.380945,"is_reserved":false,"is_disabled":false,"rental_uris":{"android":"levelo://app?vid=e4a6c764-4443-40a8-b053-ac7c6bc37351","ios":"levelo://app?vid=e4a6c764-4443-40a8-b053-ac7c6bc37351"},"vehicle_type_id":"4","last_reported":1700636803,"current_range_meters":15600,"station_id":"ce4bh412rcd13ifvqdr0","pricing_plan_id":"free"},{"bike_id":"d15b8c40-048b-4c26-a9e0-4e4ace11ac78","system_id":"levelo_inurba_marseille","lat":43.283494,"lon":5.380945,"is_reserved":false,"is_disabled":false,"rental_uris":{"android":"levelo://app?vid=d15b8c40-048b-4c26-a9e0-4e4ace11ac78","ios":"levelo://app?vid=d15b8c40-048b-4c26-a9e0-4e4ace11ac78"},"vehicle_type_id":"4","last_reported":1700636803,"current_range_meters":22400,"station_id":"ce4bh412rcd13ifvqdr0","pricing_plan_id":"free"},{"bike_id":"e57c9540-512f-4490-8f63-010ef0e8c825","system_id":"levelo_inurba_marseille","lat":43.28429,"lon":5.34994,"is_reserved":false,"is_disabled":false,"rental_uris":{"android":"levelo://app?vid=e57c9540-512f-4490-8f63-010ef0e8c825","ios":"levelo://app?vid=e57c9540-512f-4490-8f63-010ef0e8c825"},"vehicle_type_id":"4","last_reported":1700636803,"current_range_meters":28400,"station_id":"ce4bhbh2rcd13ifvqepg","pricing_plan_id":"free"},{"bike_id":"2a41fac7-1f30-4d55-a6c5-5380cde75405","system_id":"levelo_inurba_marseille","lat":43.284217,"lon":5.349697,"is_reserved":false,"is_disabled":false,"rental_uris":{"android":"levelo://app?vid=2a41fac7-1f30-4d55-a6c5-5380cde75405","ios":"levelo://app?vid=2a41fac7-1f30-4d55-a6c5-5380cde75405"},"vehicle_type_id":"4","last_reported":1700636803,"current_range_meters":25200,"station_id":"ce4bhbh2rcd13ifvqepg","pricing_plan_id":"free"},{"bike_id":"520144d5-ebe8-41fe-bfd4-22b67c166198","system_id":"levelo_inurba_marseille","lat":43.283498,"lon":5.380948,"is_reserved":false,"is_disabled":false,"rental_uris":{"android":"levelo://app?vid=520144d5-ebe8-41fe-bfd4-22b67c166198","ios":"levelo://app?vid=520144d5-ebe8-41fe-bfd4-22b67c166198"},"vehicle_type_id":"4","last_reported":1700636803,"current_range_meters":30000,"station_id":"ce4bh412rcd13ifvqdr0","pricing_plan_id":"free"},{"bike_id":"a915fd1c-9128-4c2f-bc4f-b0c446622785","system_id":"levelo_inurba_marseille","lat":43.284217,"lon":5.349697,"is_reserved":false,"is_disabled":false,"rental_uris":{"android":"levelo://app?vid=a915fd1c-9128-4c2f-bc4f-b0c446622785","ios":"levelo://app?vid=a915fd1c-9128-4c2f-bc4f-b0c446622785"},"vehicle_type_id":"4","last_reported":1700636803,"current_range_meters":28400,"station_id":"ce4bhbh2rcd13ifvqepg","pricing_plan_id":"free"},{"bike_id":"9d46c555-a24c-4ab2-b004-a425f60c0ce4","system_id":"levelo_inurba_marseille","lat":43.28418,"lon":5.34983,"is_reserved":false,"is_disabled":false,"rental_uris":{"android":"levelo://app?vid=9d46c555-a24c-4ab2-b004-a425f60c0ce4","ios":"levelo://app?vid=9d46c555-a24c-4ab2-b004-a425f60c0ce4"},"vehicle_type_id":"4","last_reported":1700636803,"current_range_meters":7200,"station_id":"ce4bhbh2rcd13ifvqepg","pricing_plan_id":"free"},{"bike_id":"c8cfd9ab-d3bf-4c62-a1f3-f8793f300892","system_id":"levelo_inurba_marseille","lat":43.28413,"lon":5.34987,"is_reserved":false,"is_disabled":false,"rental_uris":{"android":"levelo://app?vid=c8cfd9ab-d3bf-4c62-a1f3-f8793f300892","ios":"levelo://app?vid=c8cfd9ab-d3bf-4c62-a1f3-f8793f300892"},"vehicle_type_id":"4","last_reported":1700636803,"current_range_meters":30000,"station_id":"ce4bhbh2rcd13ifvqepg","pricing_plan_id":"free"},{"bike_id":"ef54811b-e8c2-4c2f-83b7-04b5b07ad1c0","system_id":"levelo_inurba_marseille","lat":43.28936,"lon":5.39635,"is_reserved":false,"is_disabled":false,"rental_uris":{"android":"levelo://app?vid=ef54811b-e8c2-4c2f-83b7-04b5b07ad1c0","ios":"levelo://app?vid=ef54811b-e8c2-4c2f-83b7-04b5b07ad1c0"},"vehicle_type_id":"4","last_reported":1700636803,"current_range_meters":0,"station_id":"ce4bh3h2rcd13ifvqdn0","pricing_plan_id":"free"},{"bike_id":"6d068ae4-8aba-4958-a002-11c2ac3f318a","system_id":"levelo_inurba_marseille","lat":43.282754,"lon":5.350519,"is_reserved":false,"is_disabled":false,"rental_uris":{"android":"levelo://app?vid=6d068ae4-8aba-4958-a002-11c2ac3f318a","ios":"levelo://app?vid=6d068ae4-8aba-4958-a002-11c2ac3f318a"},"vehicle_type_id":"4","last_reported":1700636803,"current_range_meters":31200,"station_id":"ce4bhbp2rcd13ifvqerg","pricing_plan_id":"free"},{"bike_id":"49b4c011-618e-45f7-b321-5a2afe0f4e49","system_id":"levelo_inurba_marseille","lat":43.282754,"lon":5.350519,"is_reserved":false,"is_disabled":false,"rental_uris":{"android":"levelo://app?vid=49b4c011-618e-45f7-b321-5a2afe0f4e49","ios":"levelo://app?vid=49b4c011-618e-45f7-b321-5a2afe0f4e49"},"vehicle_type_id":"4","last_reported":1700636803,"current_range_meters":31200,"station_id":"ce4bhbp2rcd13ifvqerg","pricing_plan_id":"free"},{"bike_id":"3e5e3059-083a-49d0-9b09-b52e942c9fc3","system_id":"levelo_inurba_marseille","lat":43.282754,"lon":5.350519,"is_reserved":false,"is_disabled":false,"rental_uris":{"android":"levelo://app?vid=3e5e3059-083a-49d0-9b09-b52e942c9fc3","ios":"levelo://app?vid=3e5e3059-083a-49d0-9b09-b52e942c9fc3"},"vehicle_type_id":"4","last_reported":1700636803,"current_range_meters":18400,"station_id":"ce4bhbp2rcd13ifvqerg","pricing_plan_id":"free"},{"bike_id":"f9cf0bdb-c0fb-49f4-b6b4-769f918de82c","system_id":"levelo_inurba_marseille","lat":43.282744,"lon":5.350533,"is_reserved":false,"is_disabled":false,"rental_uris":{"android":"levelo://app?vid=f9cf0bdb-c0fb-49f4-b6b4-769f918de82c","ios":"levelo://app?vid=f9cf0bdb-c0fb-49f4-b6b4-769f918de82c"},"vehicle_type_id":"4","last_reported":1700636803,"current_range_meters":6400,"station_id":"ce4bhbp2rcd13ifvqerg","pricing_plan_id":"free"},{"bike_id":"0571e252-5acc-4741-aa6f-ba8321e320f8","system_id":"levelo_inurba_marseille","lat":43.282744,"lon":5.350533,"is_reserved":false,"is_disabled":false,"rental_uris":{"android":"levelo://app?vid=0571e252-5acc-4741-aa6f-ba8321e320f8","ios":"levelo://app?vid=0571e252-5acc-4741-aa6f-ba8321e320f8"},"vehicle_type_id":"4","last_reported":1700636803,"current_range_meters":31200,"station_id":"ce4bhbp2rcd13ifvqerg","pricing_plan_id":"free"},{"bike_id":"872f4cbc-f361-40c7-9b56-14e9cc1fec3f","system_id":"levelo_inurba_marseille","lat":43.282744,"lon":5.350533,"is_reserved":false,"is_disabled":false,"rental_uris":{"android":"levelo://app?vid=872f4cbc-f361-40c7-9b56-14e9cc1fec3f","ios":"levelo://app?vid=872f4cbc-f361-40c7-9b56-14e9cc1fec3f"},"vehicle_type_id":"4","last_reported":1700636803,"current_range_meters":7200,"station_id":"ce4bhbp2rcd13ifvqerg","pricing_plan_id":"free"},{"bike_id":"d07f5039-c857-48e2-9031-46b214ed6918","system_id":"levelo_inurba_marseille","lat":43.296263,"lon":5.40601,"is_reserved":false,"is_disabled":false,"rental_uris":{"android":"levelo://app?vid=d07f5039-c857-48e2-9031-46b214ed6918","ios":"levelo://app?vid=d07f5039-c857-48e2-9031-46b214ed6918"},"vehicle_type_id":"4","last_reported":1700636803,"current_range_meters":19600,"station_id":"ce4bh0h2rcd13ifvqd60","pricing_plan_id":"free"},{"bike_id":"356a2ec0-7605-4ce2-861d-d31385817fda","system_id":"levelo_inurba_marseille","lat":43.296263,"lon":5.40601,"is_reserved":false,"is_disabled":false,"rental_uris":{"android":"levelo://app?vid=356a2ec0-7605-4ce2-861d-d31385817fda","ios":"levelo://app?vid=356a2ec0-7605-4ce2-861d-d31385817fda"},"vehicle_type_id":"4","last_reported":1700636803,"current_range_meters":27600,"station_id":"ce4bh0h2rcd13ifvqd60","pricing_plan_id":"free"},{"bike_id":"7c530e59-4059-45fb-bf83-06c2f5ee1a22","system_id":"levelo_inurba_marseille","lat":43.326605,"lon":5.409903,"is_reserved":false,"is_disabled":false,"rental_uris":{"android":"levelo://app?vid=7c530e59-4059-45fb-bf83-06c2f5ee1a22","ios":"levelo://app?vid=7c530e59-4059-45fb-bf83-06c2f5ee1a22"},"vehicle_type_id":"4","last_reported":1700636803,"current_range_meters":26400,"station_id":"ce4bhpp2rcd13ifvqhgg","pricing_plan_id":"free"},{"bike_id":"80201ad3-2ee5-4db5-bc72-237faacf9abf","system_id":"levelo_inurba_marseille","lat":43.279087,"lon":5.380114,"is_reserved":false,"is_disabled":false,"rental_uris":{"android":"levelo://app?vid=80201ad3-2ee5-4db5-bc72-237faacf9abf","ios":"levelo://app?vid=80201ad3-2ee5-4db5-bc72-237faacf9abf"},"vehicle_type_id":"4","last_reported":1700636803,"current_range_meters":25200,"station_id":"ce4bhf92rcd13ifvqf50","pricing_plan_id":"free"},{"bike_id":"544bf1c7-d505-4f01-929e-7802e263fdb8","system_id":"levelo_inurba_marseille","lat":43.320045,"lon":5.415048,"is_reserved":false,"is_disabled":false,"rental_uris":{"android":"levelo://app?vid=544bf1c7-d505-4f01-929e-7802e263fdb8","ios":"levelo://app?vid=544bf1c7-d505-4f01-929e-7802e263fdb8"},"vehicle_type_id":"4","last_reported":1700636803,"current_range_meters":24400,"station_id":"ce4bhq92rcd13ifvqhkg","pricing_plan_id":"free"},{"bike_id":"cf7c6503-d761-4e4a-b826-f55f74848caf","system_id":"levelo_inurba_marseille","lat":43.34888,"lon":5.37512,"is_reserved":false,"is_disabled":false,"rental_uris":{"android":"levelo://app?vid=cf7c6503-d761-4e4a-b826-f55f74848caf","ios":"levelo://app?vid=cf7c6503-d761-4e4a-b826-f55f74848caf"},"vehicle_type_id":"4","last_reported":1700636803,"current_range_meters":6000,"station_id":"","pricing_plan_id":"free"},{"bike_id":"e709c08e-6284-4689-a9d6-07caf9663a54","system_id":"levelo_inurba_marseille","lat":43.29256,"lon":5.40904,"is_reserved":false,"is_disabled":false,"rental_uris":{"android":"levelo://app?vid=e709c08e-6284-4689-a9d6-07caf9663a54","ios":"levelo://app?vid=e709c08e-6284-4689-a9d6-07caf9663a54"},"vehicle_type_id":"4","last_reported":1700636803,"current_range_meters":0,"station_id":"ce4bh192rcd13ifvqdc0","pricing_plan_id":"free"},{"bike_id":"4f4eb560-a0f0-4e58-ba95-804cd5e5b204","system_id":"levelo_inurba_marseille","lat":43.325233,"lon":5.414318,"is_reserved":false,"is_disabled":false,"rental_uris":{"android":"levelo://app?vid=4f4eb560-a0f0-4e58-ba95-804cd5e5b204","ios":"levelo://app?vid=4f4eb560-a0f0-4e58-ba95-804cd5e5b204"},"vehicle_type_id":"4","last_reported":1700636803,"current_range_meters":28000,"station_id":"ce4bhq12rcd13ifvqhhg","pricing_plan_id":"free"},{"bike_id":"f45f78ce-f8e3-4fee-a677-03daafe95d46","system_id":"levelo_inurba_marseille","lat":43.275625,"lon":5.384392,"is_reserved":false,"is_disabled":false,"rental_uris":{"android":"levelo://app?vid=f45f78ce-f8e3-4fee-a677-03daafe95d46","ios":"levelo://app?vid=f45f78ce-f8e3-4fee-a677-03daafe95d46"},"vehicle_type_id":"4","last_reported":1700636803,"current_range_meters":2000,"station_id":"ce4bhh92rcd13ifvqfi0","pricing_plan_id":"free"},{"bike_id":"4f9c3b73-2fb7-4d4c-bd48-cf9a96083e81","system_id":"levelo_inurba_marseille","lat":43.325233,"lon":5.414318,"is_reserved":false,"is_disabled":false,"rental_uris":{"android":"levelo://app?vid=4f9c3b73-2fb7-4d4c-bd48-cf9a96083e81","ios":"levelo://app?vid=4f9c3b73-2fb7-4d4c-bd48-cf9a96083e81"},"vehicle_type_id":"4","last_reported":1700636803,"current_range_meters":24400,"station_id":"ce4bhq12rcd13ifvqhhg","pricing_plan_id":"free"},{"bike_id":"964c7dd0-959c-4948-b5b4-36dbdfe4fb8a","system_id":"levelo_inurba_marseille","lat":43.325233,"lon":5.414318,"is_reserved":false,"is_disabled":false,"rental_uris":{"android":"levelo://app?vid=964c7dd0-959c-4948-b5b4-36dbdfe4fb8a","ios":"levelo://app?vid=964c7dd0-959c-4948-b5b4-36dbdfe4fb8a"},"vehicle_type_id":"4","last_reported":1700636803,"current_range_meters":20400,"station_id":"ce4bhq12rcd13ifvqhhg","pricing_plan_id":"free"},{"bike_id":"99b7b3e2-fb47-4e03-b5b8-5bf5b8fd0d6c","system_id":"levelo_inurba_marseille","lat":43.293645,"lon":5.412664,"is_reserved":false,"is_disabled":false,"rental_uris":{"android":"levelo://app?vid=99b7b3e2-fb47-4e03-b5b8-5bf5b8fd0d6c","ios":"levelo://app?vid=99b7b3e2-fb47-4e03-b5b8-5bf5b8fd0d6c"},"vehicle_type_id":"4","last_reported":1700636803,"current_range_meters":1200,"station_id":"","pricing_plan_id":"free"},{"bike_id":"aaa0a063-9fd9-450c-954b-b25ba4e5165f","system_id":"levelo_inurba_marseille","lat":43.280784,"lon":5.396622,"is_reserved":false,"is_disabled":false,"rental_uris":{"android":"levelo://app?vid=aaa0a063-9fd9-450c-954b-b25ba4e5165f","ios":"levelo://app?vid=aaa0a063-9fd9-450c-954b-b25ba4e5165f"},"vehicle_type_id":"4","last_reported":1700636803,"current_range_meters":9600,"station_id":"ce4bho12rcd13ifvqh2g","pricing_plan_id":"free"},{"bike_id":"b9c95184-e0c5-4a1a-9f07-8b1cc98692b9","system_id":"levelo_inurba_marseille","lat":43.278399,"lon":5.392139,"is_reserved":false,"is_disabled":false,"rental_uris":{"android":"levelo://app?vid=b9c95184-e0c5-4a1a-9f07-8b1cc98692b9","ios":"levelo://app?vid=b9c95184-e0c5-4a1a-9f07-8b1cc98692b9"},"vehicle_type_id":"4","last_reported":1700636803,"current_range_meters":23200,"station_id":"ce4bhjp2rcd13ifvqga0","pricing_plan_id":"free"},{"bike_id":"a3d2c6c7-a908-41ec-a6ee-2b09e32b8850","system_id":"levelo_inurba_marseille","lat":43.273609,"lon":5.362708,"is_reserved":false,"is_disabled":false,"rental_uris":{"android":"levelo://app?vid=a3d2c6c7-a908-41ec-a6ee-2b09e32b8850","ios":"levelo://app?vid=a3d2c6c7-a908-41ec-a6ee-2b09e32b8850"},"vehicle_type_id":"4","last_reported":1700636803,"current_range_meters":30400,"station_id":"ce4bhbh2rcd13ifvqeo0","pricing_plan_id":"free"},{"bike_id":"9be523d5-6e60-4e39-86e8-bf99942fbd14","system_id":"levelo_inurba_marseille","lat":43.336134,"lon":5.410341,"is_reserved":false,"is_disabled":false,"rental_uris":{"android":"levelo://app?vid=9be523d5-6e60-4e39-86e8-bf99942fbd14","ios":"levelo://app?vid=9be523d5-6e60-4e39-86e8-bf99942fbd14"},"vehicle_type_id":"4","last_reported":1700636803,"current_range_meters":16800,"station_id":"ce4bhqh2rcd13ifvqhmg","pricing_plan_id":"free"},{"bike_id":"ea655f1d-7f12-4d11-a469-b7850a639515","system_id":"levelo_inurba_marseille","lat":43.336134,"lon":5.410341,"is_reserved":false,"is_disabled":false,"rental_uris":{"android":"levelo://app?vid=ea655f1d-7f12-4d11-a469-b7850a639515","ios":"levelo://app?vid=ea655f1d-7f12-4d11-a469-b7850a639515"},"vehicle_type_id":"4","last_reported":1700636803,"current_range_meters":2400,"station_id":"ce4bhqh2rcd13ifvqhmg","pricing_plan_id":"free"},{"bike_id":"e1b55124-3678-4f35-bcd5-df0abc78cbb3","system_id":"levelo_inurba_marseille","lat":43.33612,"lon":5.410321,"is_reserved":false,"is_disabled":false,"rental_uris":{"android":"levelo://app?vid=e1b55124-3678-4f35-bcd5-df0abc78cbb3","ios":"levelo://app?vid=e1b55124-3678-4f35-bcd5-df0abc78cbb3"},"vehicle_type_id":"4","last_reported":1700636803,"current_range_meters":31600,"station_id":"ce4bhqh2rcd13ifvqhmg","pricing_plan_id":"free"},{"bike_id":"422365d0-9afb-4ccf-8866-dbe0d302eaf1","system_id":"levelo_inurba_marseille","lat":43.336148,"lon":5.410349,"is_reserved":false,"is_disabled":false,"rental_uris":{"android":"levelo://app?vid=422365d0-9afb-4ccf-8866-dbe0d302eaf1","ios":"levelo://app?vid=422365d0-9afb-4ccf-8866-dbe0d302eaf1"},"vehicle_type_id":"4","last_reported":1700636803,"current_range_meters":29200,"station_id":"ce4bhqh2rcd13ifvqhmg","pricing_plan_id":"free"},{"bike_id":"4938601d-1813-4b91-9fec-d465b840db39","system_id":"levelo_inurba_marseille","lat":43.336134,"lon":5.410341,"is_reserved":false,"is_disabled":false,"rental_uris":{"android":"levelo://app?vid=4938601d-1813-4b91-9fec-d465b840db39","ios":"levelo://app?vid=4938601d-1813-4b91-9fec-d465b840db39"},"vehicle_type_id":"4","last_reported":1700636803,"current_range_meters":22000,"station_id":"ce4bhqh2rcd13ifvqhmg","pricing_plan_id":"free"},{"bike_id":"114187af-32af-4dba-9a5b-7cf8db15d20c","system_id":"levelo_inurba_marseille","lat":43.310785,"lon":5.424305,"is_reserved":false,"is_disabled":false,"rental_uris":{"android":"levelo://app?vid=114187af-32af-4dba-9a5b-7cf8db15d20c","ios":"levelo://app?vid=114187af-32af-4dba-9a5b-7cf8db15d20c"},"vehicle_type_id":"4","last_reported":1700636803,"current_range_meters":31200,"station_id":"ce4bhp92rcd13ifvqhag","pricing_plan_id":"free"},{"bike_id":"046a1592-e371-4373-8640-74aebd7f5e72","system_id":"levelo_inurba_marseille","lat":43.340804,"lon":5.410219,"is_reserved":false,"is_disabled":false,"rental_uris":{"android":"levelo://app?vid=046a1592-e371-4373-8640-74aebd7f5e72","ios":"levelo://app?vid=046a1592-e371-4373-8640-74aebd7f5e72"},"vehicle_type_id":"4","last_reported":1700636803,"current_range_meters":8000,"station_id":"ce4bhqh2rcd13ifvqhlg","pricing_plan_id":"free"},{"bike_id":"b8f8de69-b0ef-4a0a-8c6b-cd4d5e98bed4","system_id":"levelo_inurba_marseille","lat":43.340804,"lon":5.410219,"is_reserved":false,"is_disabled":false,"rental_uris":{"android":"levelo://app?vid=b8f8de69-b0ef-4a0a-8c6b-cd4d5e98bed4","ios":"levelo://app?vid=b8f8de69-b0ef-4a0a-8c6b-cd4d5e98bed4"},"vehicle_type_id":"4","last_reported":1700636803,"current_range_meters":0,"station_id":"ce4bhqh2rcd13ifvqhlg","pricing_plan_id":"free"},{"bike_id":"1c717397-6a5f-44cd-a48b-62270270187d","system_id":"levelo_inurba_marseille","lat":43.340804,"lon":5.410219,"is_reserved":false,"is_disabled":false,"rental_uris":{"android":"levelo://app?vid=1c717397-6a5f-44cd-a48b-62270270187d","ios":"levelo://app?vid=1c717397-6a5f-44cd-a48b-62270270187d"},"vehicle_type_id":"4","last_reported":1700636803,"current_range_meters":20400,"station_id":"ce4bhqh2rcd13ifvqhlg","pricing_plan_id":"free"},{"bike_id":"d0401f46-c9a4-48d4-afe8-a5f7b1154588","system_id":"levelo_inurba_marseille","lat":43.340804,"lon":5.410219,"is_reserved":false,"is_disabled":false,"rental_uris":{"android":"levelo://app?vid=d0401f46-c9a4-48d4-afe8-a5f7b1154588","ios":"levelo://app?vid=d0401f46-c9a4-48d4-afe8-a5f7b1154588"},"vehicle_type_id":"4","last_reported":1700636803,"current_range_meters":0,"station_id":"ce4bhqh2rcd13ifvqhlg","pricing_plan_id":"free"},{"bike_id":"f592bd96-cc29-4f0f-b6af-90518383de8e","system_id":"levelo_inurba_marseille","lat":43.340804,"lon":5.410219,"is_reserved":false,"is_disabled":false,"rental_uris":{"android":"levelo://app?vid=f592bd96-cc29-4f0f-b6af-90518383de8e","ios":"levelo://app?vid=f592bd96-cc29-4f0f-b6af-90518383de8e"},"vehicle_type_id":"4","last_reported":1700636803,"current_range_meters":31200,"station_id":"ce4bhqh2rcd13ifvqhlg","pricing_plan_id":"free"},{"bike_id":"af7f2a75-d277-4fe6-a58a-10802a993678","system_id":"levelo_inurba_marseille","lat":43.273125,"lon":5.390731,"is_reserved":false,"is_disabled":false,"rental_uris":{"android":"levelo://app?vid=af7f2a75-d277-4fe6-a58a-10802a993678","ios":"levelo://app?vid=af7f2a75-d277-4fe6-a58a-10802a993678"},"vehicle_type_id":"4","last_reported":1700636803,"current_range_meters":27200,"station_id":"ce4bhgp2rcd13ifvqfe0","pricing_plan_id":"free"},{"bike_id":"12b0a4fb-b3a6-449f-a0fd-66c547576249","system_id":"levelo_inurba_marseille","lat":43.273125,"lon":5.390731,"is_reserved":false,"is_disabled":false,"rental_uris":{"android":"levelo://app?vid=12b0a4fb-b3a6-449f-a0fd-66c547576249","ios":"levelo://app?vid=12b0a4fb-b3a6-449f-a0fd-66c547576249"},"vehicle_type_id":"4","last_reported":1700636803,"current_range_meters":400,"station_id":"ce4bhgp2rcd13ifvqfe0","pricing_plan_id":"free"},{"bike_id":"047064be-c3a7-4470-8d35-33830f8d085d","system_id":"levelo_inurba_marseille","lat":43.29551,"lon":5.42273,"is_reserved":false,"is_disabled":false,"rental_uris":{"android":"levelo://app?vid=047064be-c3a7-4470-8d35-33830f8d085d","ios":"levelo://app?vid=047064be-c3a7-4470-8d35-33830f8d085d"},"vehicle_type_id":"4","last_reported":1700636803,"current_range_meters":31200,"station_id":"ce4bhph2rcd13ifvqhdg","pricing_plan_id":"free"},{"bike_id":"3f2e18a5-6e6b-4b6f-8485-0b6f0262f917","system_id":"levelo_inurba_marseille","lat":43.272118,"lon":5.391758,"is_reserved":false,"is_disabled":false,"rental_uris":{"android":"levelo://app?vid=3f2e18a5-6e6b-4b6f-8485-0b6f0262f917","ios":"levelo://app?vid=3f2e18a5-6e6b-4b6f-8485-0b6f0262f917"},"vehicle_type_id":"4","last_reported":1700636803,"current_range_meters":26800,"station_id":"ce4bhhp2rcd13ifvqfm0","pricing_plan_id":"free"},{"bike_id":"d63f0213-db4d-4ade-9fb5-b0161bcbc51a","system_id":"levelo_inurba_marseille","lat":43.27223,"lon":5.39258,"is_reserved":false,"is_disabled":false,"rental_uris":{"android":"levelo://app?vid=d63f0213-db4d-4ade-9fb5-b0161bcbc51a","ios":"levelo://app?vid=d63f0213-db4d-4ade-9fb5-b0161bcbc51a"},"vehicle_type_id":"4","last_reported":1700636803,"current_range_meters":0,"station_id":"","pricing_plan_id":"free"},{"bike_id":"d0bb53f7-f1b8-4609-a668-27efdac67f66","system_id":"levelo_inurba_marseille","lat":43.27195,"lon":5.39248,"is_reserved":false,"is_disabled":false,"rental_uris":{"android":"levelo://app?vid=d0bb53f7-f1b8-4609-a668-27efdac67f66","ios":"levelo://app?vid=d0bb53f7-f1b8-4609-a668-27efdac67f66"},"vehicle_type_id":"4","last_reported":1700636803,"current_range_meters":0,"station_id":"","pricing_plan_id":"free"},{"bike_id":"cbc2fb9f-e1d7-438a-87af-611b36f7eeb3","system_id":"levelo_inurba_marseille","lat":43.271891,"lon":5.392412,"is_reserved":false,"is_disabled":false,"rental_uris":{"android":"levelo://app?vid=cbc2fb9f-e1d7-438a-87af-611b36f7eeb3","ios":"levelo://app?vid=cbc2fb9f-e1d7-438a-87af-611b36f7eeb3"},"vehicle_type_id":"4","last_reported":1700636803,"current_range_meters":0,"station_id":"","pricing_plan_id":"free"},{"bike_id":"ec166817-0bff-49c5-bade-210bd2da7e7a","system_id":"levelo_inurba_marseille","lat":43.27817,"lon":5.40713,"is_reserved":false,"is_disabled":false,"rental_uris":{"android":"levelo://app?vid=ec166817-0bff-49c5-bade-210bd2da7e7a","ios":"levelo://app?vid=ec166817-0bff-49c5-bade-210bd2da7e7a"},"vehicle_type_id":"4","last_reported":1700636803,"current_range_meters":12800,"station_id":"ce4bhnh2rcd13ifvqgtg","pricing_plan_id":"free"},{"bike_id":"7a3c31be-b4b7-478d-aa1d-7e57baae11fa","system_id":"levelo_inurba_marseille","lat":43.269467,"lon":5.386439,"is_reserved":false,"is_disabled":false,"rental_uris":{"android":"levelo://app?vid=7a3c31be-b4b7-478d-aa1d-7e57baae11fa","ios":"levelo://app?vid=7a3c31be-b4b7-478d-aa1d-7e57baae11fa"},"vehicle_type_id":"4","last_reported":1700636803,"current_range_meters":28000,"station_id":"ce4bhh92rcd13ifvqfh0","pricing_plan_id":"free"},{"bike_id":"09f30566-262b-4621-b086-d31fdb2508c9","system_id":"levelo_inurba_marseille","lat":43.269467,"lon":5.386439,"is_reserved":false,"is_disabled":false,"rental_uris":{"android":"levelo://app?vid=09f30566-262b-4621-b086-d31fdb2508c9","ios":"levelo://app?vid=09f30566-262b-4621-b086-d31fdb2508c9"},"vehicle_type_id":"4","last_reported":1700636803,"current_range_meters":12000,"station_id":"ce4bhh92rcd13ifvqfh0","pricing_plan_id":"free"},{"bike_id":"9dbfd858-6231-4a23-be1f-870f5e8d353c","system_id":"levelo_inurba_marseille","lat":43.269467,"lon":5.386439,"is_reserved":false,"is_disabled":false,"rental_uris":{"android":"levelo://app?vid=9dbfd858-6231-4a23-be1f-870f5e8d353c","ios":"levelo://app?vid=9dbfd858-6231-4a23-be1f-870f5e8d353c"},"vehicle_type_id":"4","last_reported":1700636803,"current_range_meters":26400,"station_id":"ce4bhh92rcd13ifvqfh0","pricing_plan_id":"free"},{"bike_id":"10f5ec50-e62b-47b7-b374-2bec34b624cf","system_id":"levelo_inurba_marseille","lat":43.269467,"lon":5.386439,"is_reserved":false,"is_disabled":false,"rental_uris":{"android":"levelo://app?vid=10f5ec50-e62b-47b7-b374-2bec34b624cf","ios":"levelo://app?vid=10f5ec50-e62b-47b7-b374-2bec34b624cf"},"vehicle_type_id":"4","last_reported":1700636803,"current_range_meters":24800,"station_id":"ce4bhh92rcd13ifvqfh0","pricing_plan_id":"free"},{"bike_id":"e807bf22-d5f0-44ab-9025-2449b32c0c52","system_id":"levelo_inurba_marseille","lat":43.269467,"lon":5.386439,"is_reserved":false,"is_disabled":false,"rental_uris":{"android":"levelo://app?vid=e807bf22-d5f0-44ab-9025-2449b32c0c52","ios":"levelo://app?vid=e807bf22-d5f0-44ab-9025-2449b32c0c52"},"vehicle_type_id":"4","last_reported":1700636803,"current_range_meters":30000,"station_id":"ce4bhh92rcd13ifvqfh0","pricing_plan_id":"free"},{"bike_id":"b3bd8026-7a94-46e7-9a9e-c69582e92558","system_id":"levelo_inurba_marseille","lat":43.279414,"lon":5.41043,"is_reserved":false,"is_disabled":false,"rental_uris":{"android":"levelo://app?vid=b3bd8026-7a94-46e7-9a9e-c69582e92558","ios":"levelo://app?vid=b3bd8026-7a94-46e7-9a9e-c69582e92558"},"vehicle_type_id":"4","last_reported":1700636803,"current_range_meters":26000,"station_id":"ce4bhnp2rcd13ifvqh0g","pricing_plan_id":"free"},{"bike_id":"e2d1caa2-48ff-495c-b02a-31ef4b1d01c9","system_id":"levelo_inurba_marseille","lat":43.269319,"lon":5.389397,"is_reserved":false,"is_disabled":false,"rental_uris":{"android":"levelo://app?vid=e2d1caa2-48ff-495c-b02a-31ef4b1d01c9","ios":"levelo://app?vid=e2d1caa2-48ff-495c-b02a-31ef4b1d01c9"},"vehicle_type_id":"4","last_reported":1700636803,"current_range_meters":18800,"station_id":"ce4bhhh2rcd13ifvqfl0","pricing_plan_id":"free"},{"bike_id":"b2100089-8e95-4b12-86ba-340181edf9d5","system_id":"levelo_inurba_marseille","lat":43.26681,"lon":5.38269,"is_reserved":false,"is_disabled":false,"rental_uris":{"android":"levelo://app?vid=b2100089-8e95-4b12-86ba-340181edf9d5","ios":"levelo://app?vid=b2100089-8e95-4b12-86ba-340181edf9d5"},"vehicle_type_id":"4","last_reported":1700636803,"current_range_meters":25200,"station_id":"ce4bhg92rcd13ifvqf90","pricing_plan_id":"free"},{"bike_id":"a0665b30-5c20-4c3e-a32e-3bb2cacdf164","system_id":"levelo_inurba_marseille","lat":43.26681,"lon":5.382694,"is_reserved":false,"is_disabled":false,"rental_uris":{"android":"levelo://app?vid=a0665b30-5c20-4c3e-a32e-3bb2cacdf164","ios":"levelo://app?vid=a0665b30-5c20-4c3e-a32e-3bb2cacdf164"},"vehicle_type_id":"4","last_reported":1700636803,"current_range_meters":31200,"station_id":"ce4bhg92rcd13ifvqf90","pricing_plan_id":"free"},{"bike_id":"5603db1e-c946-4d9f-a2df-928678f679ad","system_id":"levelo_inurba_marseille","lat":43.26681,"lon":5.382694,"is_reserved":false,"is_disabled":false,"rental_uris":{"android":"levelo://app?vid=5603db1e-c946-4d9f-a2df-928678f679ad","ios":"levelo://app?vid=5603db1e-c946-4d9f-a2df-928678f679ad"},"vehicle_type_id":"4","last_reported":1700636803,"current_range_meters":29200,"station_id":"ce4bhg92rcd13ifvqf90","pricing_plan_id":"free"},{"bike_id":"28e8ce00-6b21-4e06-9930-c7c4408cc650","system_id":"levelo_inurba_marseille","lat":43.326174,"lon":5.430584,"is_reserved":false,"is_disabled":false,"rental_uris":{"android":"levelo://app?vid=28e8ce00-6b21-4e06-9930-c7c4408cc650","ios":"levelo://app?vid=28e8ce00-6b21-4e06-9930-c7c4408cc650"},"vehicle_type_id":"4","last_reported":1700636803,"current_range_meters":7600,"station_id":"","pricing_plan_id":"free"},{"bike_id":"077f7259-c92a-4916-96b0-c254bad75530","system_id":"levelo_inurba_marseille","lat":43.27996,"lon":5.416624,"is_reserved":false,"is_disabled":false,"rental_uris":{"android":"levelo://app?vid=077f7259-c92a-4916-96b0-c254bad75530","ios":"levelo://app?vid=077f7259-c92a-4916-96b0-c254bad75530"},"vehicle_type_id":"4","last_reported":1700636803,"current_range_meters":29600,"station_id":"ce4bho12rcd13ifvqh1g","pricing_plan_id":"free"},{"bike_id":"67cf48e5-7a4a-42d5-9143-8c674825d2f5","system_id":"levelo_inurba_marseille","lat":43.265569,"lon":5.390047,"is_reserved":false,"is_disabled":false,"rental_uris":{"android":"levelo://app?vid=67cf48e5-7a4a-42d5-9143-8c674825d2f5","ios":"levelo://app?vid=67cf48e5-7a4a-42d5-9143-8c674825d2f5"},"vehicle_type_id":"4","last_reported":1700636803,"current_range_meters":21600,"station_id":"ce4bhe12rcd13ifvqf30","pricing_plan_id":"free"},{"bike_id":"85827c15-6f3c-47a4-8de9-cd0bc7dce835","system_id":"levelo_inurba_marseille","lat":43.267966,"lon":5.393976,"is_reserved":false,"is_disabled":false,"rental_uris":{"android":"levelo://app?vid=85827c15-6f3c-47a4-8de9-cd0bc7dce835","ios":"levelo://app?vid=85827c15-6f3c-47a4-8de9-cd0bc7dce835"},"vehicle_type_id":"4","last_reported":1700636803,"current_range_meters":28000,"station_id":"ce4bhh12rcd13ifvqfg0","pricing_plan_id":"free"},{"bike_id":"83224d9d-37d7-46f9-90b5-7692e424c360","system_id":"levelo_inurba_marseille","lat":43.26566,"lon":5.39004,"is_reserved":false,"is_disabled":false,"rental_uris":{"android":"levelo://app?vid=83224d9d-37d7-46f9-90b5-7692e424c360","ios":"levelo://app?vid=83224d9d-37d7-46f9-90b5-7692e424c360"},"vehicle_type_id":"4","last_reported":1700636803,"current_range_meters":30000,"station_id":"ce4bhe12rcd13ifvqf30","pricing_plan_id":"free"},{"bike_id":"e38d1e88-767c-43d4-a41c-fb5e57178b0c","system_id":"levelo_inurba_marseille","lat":43.265569,"lon":5.390047,"is_reserved":false,"is_disabled":false,"rental_uris":{"android":"levelo://app?vid=e38d1e88-767c-43d4-a41c-fb5e57178b0c","ios":"levelo://app?vid=e38d1e88-767c-43d4-a41c-fb5e57178b0c"},"vehicle_type_id":"4","last_reported":1700636803,"current_range_meters":26000,"station_id":"ce4bhe12rcd13ifvqf30","pricing_plan_id":"free"},{"bike_id":"fdb127d4-4a94-4f69-a5b1-662affbc8bec","system_id":"levelo_inurba_marseille","lat":43.26949,"lon":5.40262,"is_reserved":false,"is_disabled":false,"rental_uris":{"android":"levelo://app?vid=fdb127d4-4a94-4f69-a5b1-662affbc8bec","ios":"levelo://app?vid=fdb127d4-4a94-4f69-a5b1-662affbc8bec"},"vehicle_type_id":"4","last_reported":1700636803,"current_range_meters":0,"station_id":"cjm6bp8fraef2m0cb0m0","pricing_plan_id":"free"},{"bike_id":"fa8d6082-dd92-406f-b373-1ce20dc6d958","system_id":"levelo_inurba_marseille","lat":43.26949,"lon":5.40262,"is_reserved":false,"is_disabled":false,"rental_uris":{"android":"levelo://app?vid=fa8d6082-dd92-406f-b373-1ce20dc6d958","ios":"levelo://app?vid=fa8d6082-dd92-406f-b373-1ce20dc6d958"},"vehicle_type_id":"4","last_reported":1700636803,"current_range_meters":0,"station_id":"cjm6bp8fraef2m0cb0m0","pricing_plan_id":"free"},{"bike_id":"509874e2-95a5-463e-bd26-c6ad1b80f337","system_id":"levelo_inurba_marseille","lat":43.261782,"lon":5.374515,"is_reserved":false,"is_disabled":false,"rental_uris":{"android":"levelo://app?vid=509874e2-95a5-463e-bd26-c6ad1b80f337","ios":"levelo://app?vid=509874e2-95a5-463e-bd26-c6ad1b80f337"},"vehicle_type_id":"4","last_reported":1700636803,"current_range_meters":0,"station_id":"ce4bhgp2rcd13ifvqfc0","pricing_plan_id":"free"},{"bike_id":"a0007485-b344-46d3-acb7-f7b497d04e15","system_id":"levelo_inurba_marseille","lat":43.261782,"lon":5.374515,"is_reserved":false,"is_disabled":false,"rental_uris":{"android":"levelo://app?vid=a0007485-b344-46d3-acb7-f7b497d04e15","ios":"levelo://app?vid=a0007485-b344-46d3-acb7-f7b497d04e15"},"vehicle_type_id":"4","last_reported":1700636803,"current_range_meters":31200,"station_id":"ce4bhgp2rcd13ifvqfc0","pricing_plan_id":"free"},{"bike_id":"42907c39-1a84-4646-87b9-0f8cacc91492","system_id":"levelo_inurba_marseille","lat":43.26202,"lon":5.379299,"is_reserved":false,"is_disabled":false,"rental_uris":{"android":"levelo://app?vid=42907c39-1a84-4646-87b9-0f8cacc91492","ios":"levelo://app?vid=42907c39-1a84-4646-87b9-0f8cacc91492"},"vehicle_type_id":"4","last_reported":1700636803,"current_range_meters":31200,"station_id":"ce4bhjp2rcd13ifvqg90","pricing_plan_id":"free"},{"bike_id":"cb16d7ee-4d8d-44c4-bc7a-142b1234ab63","system_id":"levelo_inurba_marseille","lat":43.31725,"lon":5.43786,"is_reserved":false,"is_disabled":false,"rental_uris":{"android":"levelo://app?vid=cb16d7ee-4d8d-44c4-bc7a-142b1234ab63","ios":"levelo://app?vid=cb16d7ee-4d8d-44c4-bc7a-142b1234ab63"},"vehicle_type_id":"4","last_reported":1700636803,"current_range_meters":4000,"station_id":"","pricing_plan_id":"free"},{"bike_id":"7efda71b-fda6-4984-b10f-e30b5635d8df","system_id":"levelo_inurba_marseille","lat":43.298768,"lon":5.43643,"is_reserved":false,"is_disabled":false,"rental_uris":{"android":"levelo://app?vid=7efda71b-fda6-4984-b10f-e30b5635d8df","ios":"levelo://app?vid=7efda71b-fda6-4984-b10f-e30b5635d8df"},"vehicle_type_id":"4","last_reported":1700636803,"current_range_meters":30000,"station_id":"ce4bhpp2rcd13ifvqhfg","pricing_plan_id":"free"},{"bike_id":"c521421c-191b-434d-a3fd-732c502af0ef","system_id":"levelo_inurba_marseille","lat":43.298768,"lon":5.43643,"is_reserved":false,"is_disabled":false,"rental_uris":{"android":"levelo://app?vid=c521421c-191b-434d-a3fd-732c502af0ef","ios":"levelo://app?vid=c521421c-191b-434d-a3fd-732c502af0ef"},"vehicle_type_id":"4","last_reported":1700636803,"current_range_meters":30800,"station_id":"ce4bhpp2rcd13ifvqhfg","pricing_plan_id":"free"},{"bike_id":"cb70a0a7-a3ba-40be-8f5b-54253a525851","system_id":"levelo_inurba_marseille","lat":43.299005,"lon":5.436849,"is_reserved":false,"is_disabled":false,"rental_uris":{"android":"levelo://app?vid=cb70a0a7-a3ba-40be-8f5b-54253a525851","ios":"levelo://app?vid=cb70a0a7-a3ba-40be-8f5b-54253a525851"},"vehicle_type_id":"4","last_reported":1700636803,"current_range_meters":0,"station_id":"ce4bhpp2rcd13ifvqhfg","pricing_plan_id":"free"},{"bike_id":"6cb403bb-6eca-4a0d-8b6f-365a2ec38992","system_id":"levelo_inurba_marseille","lat":43.28155,"lon":5.42638,"is_reserved":false,"is_disabled":false,"rental_uris":{"android":"levelo://app?vid=6cb403bb-6eca-4a0d-8b6f-365a2ec38992","ios":"levelo://app?vid=6cb403bb-6eca-4a0d-8b6f-365a2ec38992"},"vehicle_type_id":"4","last_reported":1700636803,"current_range_meters":26800,"station_id":"ce4bhnh2rcd13ifvqgug","pricing_plan_id":"free"},{"bike_id":"45f2601d-fd80-4374-baa6-a1ef45b995b9","system_id":"levelo_inurba_marseille","lat":43.275028,"lon":5.424534,"is_reserved":false,"is_disabled":false,"rental_uris":{"android":"levelo://app?vid=45f2601d-fd80-4374-baa6-a1ef45b995b9","ios":"levelo://app?vid=45f2601d-fd80-4374-baa6-a1ef45b995b9"},"vehicle_type_id":"4","last_reported":1700636803,"current_range_meters":30000,"station_id":"ce4bhn92rcd13ifvqgrg","pricing_plan_id":"free"},{"bike_id":"c3fc1e0e-aca5-47ca-9637-a5b1253e0309","system_id":"levelo_inurba_marseille","lat":43.275028,"lon":5.424534,"is_reserved":false,"is_disabled":false,"rental_uris":{"android":"levelo://app?vid=c3fc1e0e-aca5-47ca-9637-a5b1253e0309","ios":"levelo://app?vid=c3fc1e0e-aca5-47ca-9637-a5b1253e0309"},"vehicle_type_id":"4","last_reported":1700636803,"current_range_meters":17200,"station_id":"ce4bhn92rcd13ifvqgrg","pricing_plan_id":"free"},{"bike_id":"ce6750e7-a385-4f32-8fcc-a7ccbfaf13ef","system_id":"levelo_inurba_marseille","lat":43.275028,"lon":5.424534,"is_reserved":false,"is_disabled":false,"rental_uris":{"android":"levelo://app?vid=ce6750e7-a385-4f32-8fcc-a7ccbfaf13ef","ios":"levelo://app?vid=ce6750e7-a385-4f32-8fcc-a7ccbfaf13ef"},"vehicle_type_id":"4","last_reported":1700636803,"current_range_meters":4400,"station_id":"ce4bhn92rcd13ifvqgrg","pricing_plan_id":"free"},{"bike_id":"b3c75916-995d-4823-b86e-7b610885f7c9","system_id":"levelo_inurba_marseille","lat":43.275028,"lon":5.424534,"is_reserved":false,"is_disabled":false,"rental_uris":{"android":"levelo://app?vid=b3c75916-995d-4823-b86e-7b610885f7c9","ios":"levelo://app?vid=b3c75916-995d-4823-b86e-7b610885f7c9"},"vehicle_type_id":"4","last_reported":1700636803,"current_range_meters":6800,"station_id":"ce4bhn92rcd13ifvqgrg","pricing_plan_id":"free"},{"bike_id":"12601f8a-76b2-41e0-8874-e706ff3fc464","system_id":"levelo_inurba_marseille","lat":43.275028,"lon":5.424534,"is_reserved":false,"is_disabled":false,"rental_uris":{"android":"levelo://app?vid=12601f8a-76b2-41e0-8874-e706ff3fc464","ios":"levelo://app?vid=12601f8a-76b2-41e0-8874-e706ff3fc464"},"vehicle_type_id":"4","last_reported":1700636803,"current_range_meters":24000,"station_id":"ce4bhn92rcd13ifvqgrg","pricing_plan_id":"free"},{"bike_id":"c00673f6-0ec0-40a1-89e1-31ad5b193eaa","system_id":"levelo_inurba_marseille","lat":43.27495,"lon":5.42448,"is_reserved":false,"is_disabled":false,"rental_uris":{"android":"levelo://app?vid=c00673f6-0ec0-40a1-89e1-31ad5b193eaa","ios":"levelo://app?vid=c00673f6-0ec0-40a1-89e1-31ad5b193eaa"},"vehicle_type_id":"4","last_reported":1700636803,"current_range_meters":1600,"station_id":"ce4bhn92rcd13ifvqgrg","pricing_plan_id":"free"},{"bike_id":"b73b9567-7a96-43bf-8f6f-7778370f40a4","system_id":"levelo_inurba_marseille","lat":43.275028,"lon":5.424534,"is_reserved":false,"is_disabled":false,"rental_uris":{"android":"levelo://app?vid=b73b9567-7a96-43bf-8f6f-7778370f40a4","ios":"levelo://app?vid=b73b9567-7a96-43bf-8f6f-7778370f40a4"},"vehicle_type_id":"4","last_reported":1700636803,"current_range_meters":29200,"station_id":"ce4bhn92rcd13ifvqgrg","pricing_plan_id":"free"},{"bike_id":"5d9a4797-c5bf-4fa0-aebd-ddf71a1a80b6","system_id":"levelo_inurba_marseille","lat":43.275028,"lon":5.424534,"is_reserved":false,"is_disabled":false,"rental_uris":{"android":"levelo://app?vid=5d9a4797-c5bf-4fa0-aebd-ddf71a1a80b6","ios":"levelo://app?vid=5d9a4797-c5bf-4fa0-aebd-ddf71a1a80b6"},"vehicle_type_id":"4","last_reported":1700636803,"current_range_meters":2800,"station_id":"ce4bhn92rcd13ifvqgrg","pricing_plan_id":"free"},{"bike_id":"3f2696f0-a4fc-4009-8f57-de0eb6faec35","system_id":"levelo_inurba_marseille","lat":43.275028,"lon":5.424534,"is_reserved":false,"is_disabled":false,"rental_uris":{"android":"levelo://app?vid=3f2696f0-a4fc-4009-8f57-de0eb6faec35","ios":"levelo://app?vid=3f2696f0-a4fc-4009-8f57-de0eb6faec35"},"vehicle_type_id":"4","last_reported":1700636803,"current_range_meters":27200,"station_id":"ce4bhn92rcd13ifvqgrg","pricing_plan_id":"free"},{"bike_id":"9b1d5df9-0408-4106-9c9d-efe73d549af4","system_id":"levelo_inurba_marseille","lat":43.275028,"lon":5.424534,"is_reserved":false,"is_disabled":false,"rental_uris":{"android":"levelo://app?vid=9b1d5df9-0408-4106-9c9d-efe73d549af4","ios":"levelo://app?vid=9b1d5df9-0408-4106-9c9d-efe73d549af4"},"vehicle_type_id":"4","last_reported":1700636803,"current_range_meters":25200,"station_id":"ce4bhn92rcd13ifvqgrg","pricing_plan_id":"free"},{"bike_id":"169902c5-9150-4c60-951b-0a7412e66e30","system_id":"levelo_inurba_marseille","lat":43.275028,"lon":5.424534,"is_reserved":false,"is_disabled":false,"rental_uris":{"android":"levelo://app?vid=169902c5-9150-4c60-951b-0a7412e66e30","ios":"levelo://app?vid=169902c5-9150-4c60-951b-0a7412e66e30"},"vehicle_type_id":"4","last_reported":1700636803,"current_range_meters":21200,"station_id":"ce4bhn92rcd13ifvqgrg","pricing_plan_id":"free"},{"bike_id":"15cccaa3-5e1a-4345-a3c8-2f660ff37b77","system_id":"levelo_inurba_marseille","lat":43.275028,"lon":5.424534,"is_reserved":false,"is_disabled":false,"rental_uris":{"android":"levelo://app?vid=15cccaa3-5e1a-4345-a3c8-2f660ff37b77","ios":"levelo://app?vid=15cccaa3-5e1a-4345-a3c8-2f660ff37b77"},"vehicle_type_id":"4","last_reported":1700636803,"current_range_meters":18800,"station_id":"ce4bhn92rcd13ifvqgrg","pricing_plan_id":"free"},{"bike_id":"852950a4-b37a-4cd8-95d0-591e4321138e","system_id":"levelo_inurba_marseille","lat":43.275028,"lon":5.424534,"is_reserved":false,"is_disabled":false,"rental_uris":{"android":"levelo://app?vid=852950a4-b37a-4cd8-95d0-591e4321138e","ios":"levelo://app?vid=852950a4-b37a-4cd8-95d0-591e4321138e"},"vehicle_type_id":"4","last_reported":1700636803,"current_range_meters":4000,"station_id":"ce4bhn92rcd13ifvqgrg","pricing_plan_id":"free"},{"bike_id":"a7e6dfaf-9024-4a99-aa23-c67959292c3a","system_id":"levelo_inurba_marseille","lat":43.275028,"lon":5.424534,"is_reserved":false,"is_disabled":false,"rental_uris":{"android":"levelo://app?vid=a7e6dfaf-9024-4a99-aa23-c67959292c3a","ios":"levelo://app?vid=a7e6dfaf-9024-4a99-aa23-c67959292c3a"},"vehicle_type_id":"4","last_reported":1700636803,"current_range_meters":11200,"station_id":"ce4bhn92rcd13ifvqgrg","pricing_plan_id":"free"},{"bike_id":"b3b8a0b6-df57-4797-9772-4b7f8364c3c4","system_id":"levelo_inurba_marseille","lat":43.275028,"lon":5.424534,"is_reserved":false,"is_disabled":false,"rental_uris":{"android":"levelo://app?vid=b3b8a0b6-df57-4797-9772-4b7f8364c3c4","ios":"levelo://app?vid=b3b8a0b6-df57-4797-9772-4b7f8364c3c4"},"vehicle_type_id":"4","last_reported":1700636803,"current_range_meters":25200,"station_id":"ce4bhn92rcd13ifvqgrg","pricing_plan_id":"free"},{"bike_id":"6b188708-9907-4cc6-a7fa-bcdecbd5a74b","system_id":"levelo_inurba_marseille","lat":43.27495,"lon":5.42454,"is_reserved":false,"is_disabled":false,"rental_uris":{"android":"levelo://app?vid=6b188708-9907-4cc6-a7fa-bcdecbd5a74b","ios":"levelo://app?vid=6b188708-9907-4cc6-a7fa-bcdecbd5a74b"},"vehicle_type_id":"4","last_reported":1700636803,"current_range_meters":2800,"station_id":"ce4bhn92rcd13ifvqgrg","pricing_plan_id":"free"},{"bike_id":"27f68421-d382-487e-9871-fca44cb7abb5","system_id":"levelo_inurba_marseille","lat":43.275028,"lon":5.424534,"is_reserved":false,"is_disabled":false,"rental_uris":{"android":"levelo://app?vid=27f68421-d382-487e-9871-fca44cb7abb5","ios":"levelo://app?vid=27f68421-d382-487e-9871-fca44cb7abb5"},"vehicle_type_id":"4","last_reported":1700636803,"current_range_meters":21600,"station_id":"ce4bhn92rcd13ifvqgrg","pricing_plan_id":"free"},{"bike_id":"a5eefd59-1e11-4a3a-aa18-f295a07e0215","system_id":"levelo_inurba_marseille","lat":43.275028,"lon":5.424534,"is_reserved":false,"is_disabled":false,"rental_uris":{"android":"levelo://app?vid=a5eefd59-1e11-4a3a-aa18-f295a07e0215","ios":"levelo://app?vid=a5eefd59-1e11-4a3a-aa18-f295a07e0215"},"vehicle_type_id":"4","last_reported":1700636803,"current_range_meters":17600,"station_id":"ce4bhn92rcd13ifvqgrg","pricing_plan_id":"free"},{"bike_id":"a1c52dae-784c-44e0-9c38-3442c8956222","system_id":"levelo_inurba_marseille","lat":43.25833,"lon":5.394264,"is_reserved":false,"is_disabled":false,"rental_uris":{"android":"levelo://app?vid=a1c52dae-784c-44e0-9c38-3442c8956222","ios":"levelo://app?vid=a1c52dae-784c-44e0-9c38-3442c8956222"},"vehicle_type_id":"4","last_reported":1700636803,"current_range_meters":22000,"station_id":"ce4bhip2rcd13ifvqft0","pricing_plan_id":"free"},{"bike_id":"bc24f250-27f9-4d96-a741-08e3a99a1ba9","system_id":"levelo_inurba_marseille","lat":43.25586,"lon":5.38232,"is_reserved":false,"is_disabled":false,"rental_uris":{"android":"levelo://app?vid=bc24f250-27f9-4d96-a741-08e3a99a1ba9","ios":"levelo://app?vid=bc24f250-27f9-4d96-a741-08e3a99a1ba9"},"vehicle_type_id":"4","last_reported":1700636803,"current_range_meters":14800,"station_id":"ce4bhih2rcd13ifvqfs0","pricing_plan_id":"free"},{"bike_id":"4f1f9409-5d61-4f56-b465-7c83eb02b1a6","system_id":"levelo_inurba_marseille","lat":43.25579,"lon":5.38223,"is_reserved":false,"is_disabled":false,"rental_uris":{"android":"levelo://app?vid=4f1f9409-5d61-4f56-b465-7c83eb02b1a6","ios":"levelo://app?vid=4f1f9409-5d61-4f56-b465-7c83eb02b1a6"},"vehicle_type_id":"4","last_reported":1700636803,"current_range_meters":17200,"station_id":"ce4bhih2rcd13ifvqfs0","pricing_plan_id":"free"},{"bike_id":"4c2e6b4f-a281-4418-9a81-704d24bb28f9","system_id":"levelo_inurba_marseille","lat":43.255756,"lon":5.382303,"is_reserved":false,"is_disabled":false,"rental_uris":{"android":"levelo://app?vid=4c2e6b4f-a281-4418-9a81-704d24bb28f9","ios":"levelo://app?vid=4c2e6b4f-a281-4418-9a81-704d24bb28f9"},"vehicle_type_id":"4","last_reported":1700636803,"current_range_meters":4800,"station_id":"ce4bhih2rcd13ifvqfs0","pricing_plan_id":"free"},{"bike_id":"9db15eaa-bfe9-4b19-9f44-b4d9d8b18c48","system_id":"levelo_inurba_marseille","lat":43.255756,"lon":5.382303,"is_reserved":false,"is_disabled":false,"rental_uris":{"android":"levelo://app?vid=9db15eaa-bfe9-4b19-9f44-b4d9d8b18c48","ios":"levelo://app?vid=9db15eaa-bfe9-4b19-9f44-b4d9d8b18c48"},"vehicle_type_id":"4","last_reported":1700636803,"current_range_meters":22800,"station_id":"ce4bhih2rcd13ifvqfs0","pricing_plan_id":"free"},{"bike_id":"b5617a6c-6323-4e27-8ef0-057082354e28","system_id":"levelo_inurba_marseille","lat":43.258224,"lon":5.394369,"is_reserved":false,"is_disabled":false,"rental_uris":{"android":"levelo://app?vid=b5617a6c-6323-4e27-8ef0-057082354e28","ios":"levelo://app?vid=b5617a6c-6323-4e27-8ef0-057082354e28"},"vehicle_type_id":"4","last_reported":1700636803,"current_range_meters":19600,"station_id":"ce4bhip2rcd13ifvqft0","pricing_plan_id":"free"},{"bike_id":"7f595c23-ab62-476e-bb22-6e02002f6dae","system_id":"levelo_inurba_marseille","lat":43.258224,"lon":5.394369,"is_reserved":false,"is_disabled":false,"rental_uris":{"android":"levelo://app?vid=7f595c23-ab62-476e-bb22-6e02002f6dae","ios":"levelo://app?vid=7f595c23-ab62-476e-bb22-6e02002f6dae"},"vehicle_type_id":"4","last_reported":1700636803,"current_range_meters":11600,"station_id":"ce4bhip2rcd13ifvqft0","pricing_plan_id":"free"},{"bike_id":"00bf0a86-bc44-4eb2-83e5-e73982744e24","system_id":"levelo_inurba_marseille","lat":43.270721,"lon":5.422764,"is_reserved":false,"is_disabled":false,"rental_uris":{"android":"levelo://app?vid=00bf0a86-bc44-4eb2-83e5-e73982744e24","ios":"levelo://app?vid=00bf0a86-bc44-4eb2-83e5-e73982744e24"},"vehicle_type_id":"4","last_reported":1700636803,"current_range_meters":14800,"station_id":"ce4bhk92rcd13ifvqgb0","pricing_plan_id":"free"},{"bike_id":"994ffb9f-ba87-4f7d-9f07-38dc73604615","system_id":"levelo_inurba_marseille","lat":43.27071,"lon":5.42279,"is_reserved":false,"is_disabled":false,"rental_uris":{"android":"levelo://app?vid=994ffb9f-ba87-4f7d-9f07-38dc73604615","ios":"levelo://app?vid=994ffb9f-ba87-4f7d-9f07-38dc73604615"},"vehicle_type_id":"4","last_reported":1700636803,"current_range_meters":0,"station_id":"ce4bhk92rcd13ifvqgb0","pricing_plan_id":"free"},{"bike_id":"56b1535b-9906-4741-9306-de3b210bbfad","system_id":"levelo_inurba_marseille","lat":43.258658,"lon":5.398935,"is_reserved":false,"is_disabled":false,"rental_uris":{"android":"levelo://app?vid=56b1535b-9906-4741-9306-de3b210bbfad","ios":"levelo://app?vid=56b1535b-9906-4741-9306-de3b210bbfad"},"vehicle_type_id":"4","last_reported":1700636803,"current_range_meters":23200,"station_id":"ce4bhl92rcd13ifvqghg","pricing_plan_id":"free"},{"bike_id":"2761af64-2c39-49db-b8b0-a598b0913e1d","system_id":"levelo_inurba_marseille","lat":43.25286,"lon":5.37814,"is_reserved":false,"is_disabled":false,"rental_uris":{"android":"levelo://app?vid=2761af64-2c39-49db-b8b0-a598b0913e1d","ios":"levelo://app?vid=2761af64-2c39-49db-b8b0-a598b0913e1d"},"vehicle_type_id":"4","last_reported":1700636803,"current_range_meters":0,"station_id":"","pricing_plan_id":"free"},{"bike_id":"ce1dd411-4d96-4c05-984b-40253993a13a","system_id":"levelo_inurba_marseille","lat":43.259009,"lon":5.40929,"is_reserved":false,"is_disabled":false,"rental_uris":{"android":"levelo://app?vid=ce1dd411-4d96-4c05-984b-40253993a13a","ios":"levelo://app?vid=ce1dd411-4d96-4c05-984b-40253993a13a"},"vehicle_type_id":"4","last_reported":1700636803,"current_range_meters":4800,"station_id":"ce4bhm92rcd13ifvqglg","pricing_plan_id":"free"},{"bike_id":"9fb75779-784d-478b-9181-c222355fb976","system_id":"levelo_inurba_marseille","lat":43.257079,"lon":5.411051,"is_reserved":false,"is_disabled":false,"rental_uris":{"android":"levelo://app?vid=9fb75779-784d-478b-9181-c222355fb976","ios":"levelo://app?vid=9fb75779-784d-478b-9181-c222355fb976"},"vehicle_type_id":"4","last_reported":1700636803,"current_range_meters":30800,"station_id":"ce4bhkp2rcd13ifvqgd0","pricing_plan_id":"free"},