{"last_updated":1761808246,"ttl":60,"version":"2.2","data":{"bikes":[{"bike_id":"bab966f7-50e9-484a-9cc2-5ed31d9c2e96","system_id":"levelo_inurba_marseille","lat":43.337444,"lon":5.374475,"is_reserved":false,"is_disabled":false,"rental_uris":{"android":"levelo://app?vid=bab966f7-50e9-484a-9cc2-5ed31d9c2e96","ios":"levelo://app?vid=bab966f7-50e9-484a-9cc2-5ed31d9c2e96"},"vehicle_type_id":"4","last_reported":1761808246,"current_range_meters":0,"station_id":"","pricing_plan_id":"cebpf4jnsgd1na2vs0mg"},{"bike_id":"c2c8904e-d2fb-480d-95c3-fdd146139da4","system_id":"levelo_inurba_marseille","lat":43.33757,"lon":5.37442,"is_reserved":false,"is_disabled":false,"rental_uris":{"android":"levelo://app?vid=c2c8904e-d2fb-480d-95c3-fdd146139da4","ios":"levelo://app?vid=c2c8904e-d2fb-480d-95c3-fdd146139da4"},"vehicle_type_id":"4","last_reported":1761808246,"current_range_meters":0,"station_id":"","pricing_plan_id":"cebpf4jnsgd1na2vs0mg"},{"bike_id":"b00161fe-fd69-4d5c-bbcd-b67ce9e97ba9","system_id":"levelo_inurba_marseille","lat":43.337444,"lon":5.374475,"is_reserved":false,"is_disabled":false,"rental_uris":{"android":"levelo://app?vid=b00161fe-fd69-4d5c-bbcd-b67ce9e97ba9","ios":"levelo://app?vid=b00161fe-fd69-4d5c-bbcd-b67ce9e97ba9"},"vehicle_type_id":"4","last_reported":1761808246,"current_range_meters":0,"station_id":"","pricing_plan_id":"cebpf4jnsgd1na2vs0mg"},{"bike_id":"aacc01e3-6d9f-491a-b1ed-d10f639e29e2","system_id":"levelo_inurba_marseille","lat":43.337444,"lon":5.374475,"is_reserved":false,"is_disabled":false,"rental_uris":{"android":"levelo://app?vid=aacc01e3-6d9f-491a-b1ed-d10f639e29e2","ios":"levelo://app?vid=aacc01e3-6d9f-491a-b1ed-d10f639e29e2"},"vehicle_type_id":"4","last_reported":1761808246,"current_range_meters":0,"station_id":"","pricing_plan_id":"cebpf4jnsgd1na2vs0mg"},{"bike_id":"35ef2eb9-fe09-4124-a7ab-f792dcbd6ddc","system_id":"levelo_inurba_marseille","lat":43.337444,"lon":5.374475,"is_reserved":false,"is_disabled":false,"rental_uris":{"android":"levelo://app?vid=35ef2eb9-fe09-4124-a7ab-f792dcbd6ddc","ios":"levelo://app?vid=35ef2eb9-fe09-4124-a7ab-f792dcbd6ddc"},"vehicle_type_id":"4","last_reported":1761808246,"current_range_meters":0,"station_id":"","pricing_plan_id":"cebpf4jnsgd1na2vs0mg"},{"bike_id":"bc27d73f-60d0-452c-a53a-06c9bf9f8b70","system_id":"levelo_inurba_marseille","lat":43.337444,"lon":5.374475,"is_reserved":false,"is_disabled":false,"rental_uris":{"android":"levelo://app?vid=bc27d73f-60d0-452c-a53a-06c9bf9f8b70","ios":"levelo://app?vid=bc27d73f-60d0-452c-a53a-06c9bf9f8b70"},"vehicle_type_id":"4","last_reported":1761808246,"current_range_meters":0,"station_id":"","pricing_plan_id":"cebpf4jnsgd1na2vs0mg"},{"bike_id":"49ddb7e7-127c-434c-8992-2e05f2e3428d","system_id":"levelo_inurba_marseille","lat":43.337444,"lon":5.374475,"is_reserved":false,"is_disabled":false,"rental_uris":{"android":"levelo://app?vid=49ddb7e7-127c-434c-8992-2e05f2e3428d","ios":"levelo://app?vid=49ddb7e7-127c-434c-8992-2e05f2e3428d"},"vehicle_type_id":"4","last_reported":1761808246,"current_range_meters":0,"station_id":"","pricing_plan_id":"cebpf4jnsgd1na2vs0mg"},{"bike_id":"b3b460c5-2faa-45c2-8fde-7b54e8b4eaf5","system_id":"levelo_inurba_marseille","lat":43.337444,"lon":5.374475,"is_reserved":false,"is_disabled":false,"rental_uris":{"android":"levelo://app?vid=b3b460c5-2faa-45c2-8fde-7b54e8b4eaf5","ios":"levelo://app?vid=b3b460c5-2faa-45c2-8fde-7b54e8b4eaf5"},"vehicle_type_id":"4","last_reported":1761808246,"current_range_meters":0,"station_id":"","pricing_plan_id":"cebpf4jnsgd1na2vs0mg"},{"bike_id":"6b8eeff3-ec31-445f-be43-f1e3ba63fb37","system_id":"levelo_inurba_marseille","lat":43.337444,"lon":5.374475,"is_reserved":false,"is_disabled":false,"rental_uris":{"android":"levelo://app?vid=6b8eeff3-ec31-445f-be43-f1e3ba63fb37","ios":"levelo://app?vid=6b8eeff3-ec31-445f-be43-f1e3ba63fb37"},"vehicle_type_id":"4","last_reported":1761808246,"current_range_meters":0,"station_id":"","pricing_plan_id":"cebpf4jnsgd1na2vs0mg"},{"bike_id":"e0e86d10-d79a-47b9-82ad-a00ae7a62a8a","system_id":"levelo_inurba_marseille","lat":43.337444,"lon":5.374475,"is_reserved":false,"is_disabled":false,"rental_uris":{"android":"levelo://app?vid=e0e86d10-d79a-47b9-82ad-a00ae7a62a8a","ios":"levelo://app?vid=e0e86d10-d79a-47b9-82ad-a00ae7a62a8a"},"vehicle_type_id":"4","last_reported":1761808246,"current_range_meters":0,"station_id":"","pricing_plan_id":"cebpf4jnsgd1na2vs0mg"},{"bike_id":"548f1c45-4f2a-4cfe-b981-5bc1daecb21b","system_id":"levelo_inurba_marseille","lat":43.337444,"lon":5.374475,"is_reserved":false,"is_disabled":false,"rental_uris":{"android":"levelo://app?vid=548f1c45-4f2a-4cfe-b981-5bc1daecb21b","ios":"levelo://app?vid=548f1c45-4f2a-4cfe-b981-5bc1daecb21b"},"vehicle_type_id":"4","last_reported":1761808246,"current_range_meters":0,"station_id":"","pricing_plan_id":"cebpf4jnsgd1na2vs0mg"},{"bike_id":"1da71de9-4b81-4047-a28f-376406d108b8","system_id":"levelo_inurba_marseille","lat":43.337444,"lon":5.374475,"is_reserved":false,"is_disabled":false,"rental_uris":{"android":"levelo://app?vid=1da71de9-4b81-4047-a28f-376406d108b8","ios":"levelo://app?vid=1da71de9-4b81-4047-a28f-376406d108b8"},"vehicle_type_id":"4","last_reported":1761808246,"current_range_meters":0,"station_id":"","pricing_plan_id":"cebpf4jnsgd1na2vs0mg"},{"bike_id":"5260dce0-6ede-4de4-b006-1466527b5fbe","system_id":"levelo_inurba_marseille","lat":43.337444,"lon":5.374475,"is_reserved":false,"is_disabled":false,"rental_uris":{"android":"levelo://app?vid=5260dce0-6ede-4de4-b006-1466527b5fbe","ios":"levelo://app?vid=5260dce0-6ede-4de4-b006-1466527b5fbe"},"vehicle_type_id":"4","last_reported":1761808246,"current_range_meters":0,"station_id":"","pricing_plan_id":"cebpf4jnsgd1na2vs0mg"},{"bike_id":"fb1816a3-8e74-463a-88d2-d6b63cf0a426","system_id":"levelo_inurba_marseille","lat":43.337444,"lon":5.374475,"is_reserved":false,"is_disabled":false,"rental_uris":{"android":"levelo://app?vid=fb1816a3-8e74-463a-88d2-d6b63cf0a426","ios":"levelo://app?vid=fb1816a3-8e74-463a-88d2-d6b63cf0a426"},"vehicle_type_id":"4","last_reported":1761808246,"current_range_meters":0,"station_id":"","pricing_plan_id":"cebpf4jnsgd1na2vs0mg"},{"bike_id":"3c881d8d-608f-4c39-9df3-b2aa54f8afcf","system_id":"levelo_inurba_marseille","lat":43.337444,"lon":5.374475,"is_reserved":false,"is_disabled":false,"rental_uris":{"android":"levelo://app?vid=3c881d8d-608f-4c39-9df3-b2aa54f8afcf","ios":"levelo://app?vid=3c881d8d-608f-4c39-9df3-b2aa54f8afcf"},"vehicle_type_id":"4","last_reported":1761808246,"current_range_meters":0,"station_id":"","pricing_plan_id":"cebpf4jnsgd1na2vs0mg"},{"bike_id":"a26e4937-215f-44d2-a8de-a7d3ec75d32b","system_id":"levelo_inurba_marseille","lat":43.337444,"lon":5.374475,"is_reserved":false,"is_disabled":false,"rental_uris":{"android":"levelo://app?vid=a26e4937-215f-44d2-a8de-a7d3ec75d32b","ios":"levelo://app?vid=a26e4937-215f-44d2-a8de-a7d3ec75d32b"},"vehicle_type_id":"4","last_reported":1761808246,"current_range_meters":0,"station_id":"","pricing_plan_id":"cebpf4jnsgd1na2vs0mg"},{"bike_id":"fadc4e19-b9ad-4402-a5bc-a0eff5c2b634","system_id":"levelo_inurba_marseille","lat":43.337444,"lon":5.374475,"is_reserved":false,"is_disabled":false,"rental_uris":{"android":"levelo://app?vid=fadc4e19-b9ad-4402-a5bc-a0eff5c2b634","ios":"levelo://app?vid=fadc4e19-b9ad-4402-a5bc-a0eff5c2b634"},"vehicle_type_id":"4","last_reported":1761808246,"current_range_meters":0,"station_id":"","pricing_plan_id":"cebpf4jnsgd1na2vs0mg"},{"bike_id":"e294c151-4441-4e4a-a116-13c66dfb9429","system_id":"levelo_inurba_marseille","lat":43.337444,"lon":5.374475,"is_reserved":false,"is_disabled":false,"rental_uris":{"android":"levelo://app?vid=e294c151-4441-4e4a-a116-13c66dfb9429","ios":"levelo://app?vid=e294c151-4441-4e4a-a116-13c66dfb9429"},"vehicle_type_id":"4","last_reported":1761808246,"current_range_meters":0,"station_id":"","pricing_plan_id":"cebpf4jnsgd1na2vs0mg"},{"bike_id":"0baff1cc-f548-40f7-a934-77958566d6a5","system_id":"levelo_inurba_marseille","lat":43.337444,"lon":5.374475,"is_reserved":false,"is_disabled":false,"rental_uris":{"android":"levelo://app?vid=0baff1cc-f548-40f7-a934-77958566d6a5","ios":"levelo://app?vid=0baff1cc-f548-40f7-a934-77958566d6a5"},"vehicle_type_id":"4","last_reported":1761808246,"current_range_meters":0,"station_id":"","pricing_plan_id":"cebpf4jnsgd1na2vs0mg"},{"bike_id":"1310c5d0-e39d-4b9c-84d7-1872f297ff18","system_id":"levelo_inurba_marseille","lat":43.337444,"lon":5.374475,"is_reserved":false,"is_disabled":false,"rental_uris":{"android":"levelo://app?vid=1310c5d0-e39d-4b9c-84d7-1872f297ff18","ios":"levelo://app?vid=1310c5d0-e39d-4b9c-84d7-1872f297ff18"},"vehicle_type_id":"4","last_reported":1761808246,"current_range_meters":0,"station_id":"","pricing_plan_id":"cebpf4jnsgd1na2vs0mg"},{"bike_id":"01eaacf7-8682-4054-bf38-52456d06e6f6","system_id":"levelo_inurba_marseille","lat":43.337444,"lon":5.374475,"is_reserved":false,"is_disabled":false,"rental_uris":{"android":"levelo://app?vid=01eaacf7-8682-4054-bf38-52456d06e6f6","ios":"levelo://app?vid=01eaacf7-8682-4054-bf38-52456d06e6f6"},"vehicle_type_id":"4","last_reported":1761808246,"current_range_meters":0,"station_id":"","pricing_plan_id":"cebpf4jnsgd1na2vs0mg"},{"bike_id":"4dbab57a-b708-409a-b815-3b9a5d92f753","system_id":"levelo_inurba_marseille","lat":43.337444,"lon":5.374475,"is_reserved":false,"is_disabled":false,"rental_uris":{"android":"levelo://app?vid=4dbab57a-b708-409a-b815-3b9a5d92f753","ios":"levelo://app?vid=4dbab57a-b708-409a-b815-3b9a5d92f753"},"vehicle_type_id":"4","last_reported":1761808246,"current_range_meters":0,"station_id":"","pricing_plan_id":"cebpf4jnsgd1na2vs0mg"},{"bike_id":"00f1260a-63f9-4663-ac1e-51258f9213bd","system_id":"levelo_inurba_marseille","lat":43.337444,"lon":5.374475,"is_reserved":false,"is_disabled":false,"rental_uris":{"android":"levelo://app?vid=00f1260a-63f9-4663-ac1e-51258f9213bd","ios":"levelo://app?vid=00f1260a-63f9-4663-ac1e-51258f9213bd"},"vehicle_type_id":"4","last_reported":1761808246,"current_range_meters":0,"station_id":"","pricing_plan_id":"cebpf4jnsgd1na2vs0mg"},{"bike_id":"50aa746e-d71a-437c-bb7a-ed648a03f81b","system_id":"levelo_inurba_marseille","lat":43.337444,"lon":5.374475,"is_reserved":false,"is_disabled":false,"rental_uris":{"android":"levelo://app?vid=50aa746e-d71a-437c-bb7a-ed648a03f81b","ios":"levelo://app?vid=50aa746e-d71a-437c-bb7a-ed648a03f81b"},"vehicle_type_id":"4","last_reported":1761808246,"current_range_meters":0,"station_id":"","pricing_plan_id":"cebpf4jnsgd1na2vs0mg"},{"bike_id":"3e68cf6e-17b6-46f5-8b08-d049449e0ca4","system_id":"levelo_inurba_marseille","lat":43.337444,"lon":5.374475,"is_reserved":false,"is_disabled":false,"rental_uris":{"android":"levelo://app?vid=3e68cf6e-17b6-46f5-8b08-d049449e0ca4","ios":"levelo://app?vid=3e68cf6e-17b6-46f5-8b08-d049449e0ca4"},"vehicle_type_id":"4","last_reported":1761808246,"current_range_meters":0,"station_id":"","pricing_plan_id":"cebpf4jnsgd1na2vs0mg"},{"bike_id":"b06c4997-7e4f-467a-922f-92f2f2e27e9d","system_id":"levelo_inurba_marseille","lat":43.337444,"lon":5.374475,"is_reserved":false,"is_disabled":false,"rental_uris":{"android":"levelo://app?vid=b06c4997-7e4f-467a-922f-92f2f2e27e9d","ios":"levelo://app?vid=b06c4997-7e4f-467a-922f-92f2f2e27e9d"},"vehicle_type_id":"4","last_reported":1761808246,"current_range_meters":0,"station_id":"","pricing_plan_id":"cebpf4jnsgd1na2vs0mg"},{"bike_id":"bb49b980-4cfb-49a5-9add-f3f9d4fc6db5","system_id":"levelo_inurba_marseille","lat":43.337444,"lon":5.374475,"is_reserved":false,"is_disabled":false,"rental_uris":{"android":"levelo://app?vid=bb49b980-4cfb-49a5-9add-f3f9d4fc6db5","ios":"levelo://app?vid=bb49b980-4cfb-49a5-9add-f3f9d4fc6db5"},"vehicle_type_id":"4","last_reported":1761808246,"current_range_meters":0,"station_id":"","pricing_plan_id":"cebpf4jnsgd1na2vs0mg"},{"bike_id":"b97206fc-6c94-4378-926a-a788d4f71c09","system_id":"levelo_inurba_marseille","lat":43.337444,"lon":5.374475,"is_reserved":false,"is_disabled":false,"rental_uris":{"android":"levelo://app?vid=b97206fc-6c94-4378-926a-a788d4f71c09","ios":"levelo://app?vid=b97206fc-6c94-4378-926a-a788d4f71c09"},"vehicle_type_id":"4","last_reported":1761808246,"current_range_meters":0,"station_id":"","pricing_plan_id":"cebpf4jnsgd1na2vs0mg"},{"bike_id":"37d7ebf5-2b3d-4af3-a7cd-4f29f464d5a0","system_id":"levelo_inurba_marseille","lat":43.337444,"lon":5.374475,"is_reserved":false,"is_disabled":false,"rental_uris":{"android":"levelo://app?vid=37d7ebf5-2b3d-4af3-a7cd-4f29f464d5a0","ios":"levelo://app?vid=37d7ebf5-2b3d-4af3-a7cd-4f29f464d5a0"},"vehicle_type_id":"4","last_reported":1761808246,"current_range_meters":0,"station_id":"","pricing_plan_id":"cebpf4jnsgd1na2vs0mg"},{"bike_id":"4ce4318f-b763-4325-8589-2aecbcc80add","system_id":"levelo_inurba_marseille","lat":43.337444,"lon":5.374475,"is_reserved":false,"is_disabled":false,"rental_uris":{"android":"levelo://app?vid=4ce4318f-b763-4325-8589-2aecbcc80add","ios":"levelo://app?vid=4ce4318f-b763-4325-8589-2aecbcc80add"},"vehicle_type_id":"4","last_reported":1761808246,"current_range_meters":0,"station_id":"","pricing_plan_id":"cebpf4jnsgd1na2vs0mg"},{"bike_id":"a6a3a590-5c2a-4683-a516-e9f5572de0f8","system_id":"levelo_inurba_marseille","lat":43.337444,"lon":5.374475,"is_reserved":false,"is_disabled":false,"rental_uris":{"android":"levelo://app?vid=a6a3a590-5c2a-4683-a516-e9f5572de0f8","ios":"levelo://app?vid=a6a3a590-5c2a-4683-a516-e9f5572de0f8"},"vehicle_type_id":"4","last_reported":1761808246,"current_range_meters":0,"station_id":"","pricing_plan_id":"cebpf4jnsgd1na2vs0mg"},{"bike_id":"111bdd74-3ae9-48f5-979c-2e177e7747d9","system_id":"levelo_inurba_marseille","lat":43.337444,"lon":5.374475,"is_reserved":false,"is_disabled":false,"rental_uris":{"android":"levelo://app?vid=111bdd74-3ae9-48f5-979c-2e177e7747d9","ios":"levelo://app?vid=111bdd74-3ae9-48f5-979c-2e177e7747d9"},"vehicle_type_id":"4","last_reported":1761808246,"current_range_meters":0,"station_id":"","pricing_plan_id":"cebpf4jnsgd1na2vs0mg"},{"bike_id":"b9d871b8-65b0-40af-afa3-0bf2492a45a9","system_id":"levelo_inurba_marseille","lat":43.337444,"lon":5.374475,"is_reserved":false,"is_disabled":false,"rental_uris":{"android":"levelo://app?vid=b9d871b8-65b0-40af-afa3-0bf2492a45a9","ios":"levelo://app?vid=b9d871b8-65b0-40af-afa3-0bf2492a45a9"},"vehicle_type_id":"4","last_reported":1761808246,"current_range_meters":0,"station_id":"","pricing_plan_id":"cebpf4jnsgd1na2vs0mg"},{"bike_id":"5bec735e-fcf4-48c7-8bdc-29590fc410b1","system_id":"levelo_inurba_marseille","lat":43.337444,"lon":5.374475,"is_reserved":false,"is_disabled":false,"rental_uris":{"android":"levelo://app?vid=5bec735e-fcf4-48c7-8bdc-29590fc410b1","ios":"levelo://app?vid=5bec735e-fcf4-48c7-8bdc-29590fc410b1"},"vehicle_type_id":"4","last_reported":1761808246,"current_range_meters":0,"station_id":"","pricing_plan_id":"cebpf4jnsgd1na2vs0mg"},{"bike_id":"026e76ec-bb30-48a3-8407-a17635ff5e4d","system_id":"levelo_inurba_marseille","lat":43.337444,"lon":5.374475,"is_reserved":false,"is_disabled":false,"rental_uris":{"android":"levelo://app?vid=026e76ec-bb30-48a3-8407-a17635ff5e4d","ios":"levelo://app?vid=026e76ec-bb30-48a3-8407-a17635ff5e4d"},"vehicle_type_id":"4","last_reported":1761808246,"current_range_meters":0,"station_id":"","pricing_plan_id":"cebpf4jnsgd1na2vs0mg"},{"bike_id":"46d34bff-7ac4-476c-bd3e-8e7dba53c807","system_id":"levelo_inurba_marseille","lat":43.337444,"lon":5.374475,"is_reserved":false,"is_disabled":false,"rental_uris":{"android":"levelo://app?vid=46d34bff-7ac4-476c-bd3e-8e7dba53c807","ios":"levelo://app?vid=46d34bff-7ac4-476c-bd3e-8e7dba53c807"},"vehicle_type_id":"4","last_reported":1761808246,"current_range_meters":0,"station_id":"","pricing_plan_id":"cebpf4jnsgd1na2vs0mg"},{"bike_id":"2c7e37d6-d4ca-47ae-a0e0-a648dd4e1706","system_id":"levelo_inurba_marseille","lat":43.337444,"lon":5.374475,"is_reserved":false,"is_disabled":false,"rental_uris":{"android":"levelo://app?vid=2c7e37d6-d4ca-47ae-a0e0-a648dd4e1706","ios":"levelo://app?vid=2c7e37d6-d4ca-47ae-a0e0-a648dd4e1706"},"vehicle_type_id":"4","last_reported":1761808246,"current_range_meters":0,"station_id":"","pricing_plan_id":"cebpf4jnsgd1na2vs0mg"},{"bike_id":"94eee6a6-2463-4d2a-b222-3ef19356212a","system_id":"levelo_inurba_marseille","lat":43.337444,"lon":5.374475,"is_reserved":false,"is_disabled":false,"rental_uris":{"android":"levelo://app?vid=94eee6a6-2463-4d2a-b222-3ef19356212a","ios":"levelo://app?vid=94eee6a6-2463-4d2a-b222-3ef19356212a"},"vehicle_type_id":"4","last_reported":1761808246,"current_range_meters":0,"station_id":"","pricing_plan_id":"cebpf4jnsgd1na2vs0mg"},{"bike_id":"4592e008-320c-4bcd-ae3b-d140e613f684","system_id":"levelo_inurba_marseille","lat":43.337444,"lon":5.374475,"is_reserved":false,"is_disabled":false,"rental_uris":{"android":"levelo://app?vid=4592e008-320c-4bcd-ae3b-d140e613f684","ios":"levelo://app?vid=4592e008-320c-4bcd-ae3b-d140e613f684"},"vehicle_type_id":"4","last_reported":1761808246,"current_range_meters":0,"station_id":"","pricing_plan_id":"cebpf4jnsgd1na2vs0mg"},{"bike_id":"5807ce94-1b62-42db-8c77-9488accc83d5","system_id":"levelo_inurba_marseille","lat":43.337444,"lon":5.374475,"is_reserved":false,"is_disabled":false,"rental_uris":{"android":"levelo://app?vid=5807ce94-1b62-42db-8c77-9488accc83d5","ios":"levelo://app?vid=5807ce94-1b62-42db-8c77-9488accc83d5"},"vehicle_type_id":"4","last_reported":1761808246,"current_range_meters":0,"station_id":"","pricing_plan_id":"cebpf4jnsgd1na2vs0mg"},{"bike_id":"487ceddd-469d-478f-9905-1c73e4191c20","system_id":"levelo_inurba_marseille","lat":43.337444,"lon":5.374475,"is_reserved":false,"is_disabled":false,"rental_uris":{"android":"levelo://app?vid=487ceddd-469d-478f-9905-1c73e4191c20","ios":"levelo://app?vid=487ceddd-469d-478f-9905-1c73e4191c20"},"vehicle_type_id":"4","last_reported":1761808246,"current_range_meters":0,"station_id":"","pricing_plan_id":"cebpf4jnsgd1na2vs0mg"},{"bike_id":"1880ebb9-7edb-463e-976b-226e958b9ebe","system_id":"levelo_inurba_marseille","lat":43.31097,"lon":5.37487,"is_reserved":false,"is_disabled":false,"rental_uris":{"android":"levelo://app?vid=1880ebb9-7edb-463e-976b-226e958b9ebe","ios":"levelo://app?vid=1880ebb9-7edb-463e-976b-226e958b9ebe"},"vehicle_type_id":"4","last_reported":1761808246,"current_range_meters":2800,"station_id":"ce4bgt12rcd13ifvqce0","pricing_plan_id":"cebpf4jnsgd1na2vs0mg"},{"bike_id":"9d201a3a-10f5-4d66-9144-cba2ad71ae9a","system_id":"levelo_inurba_marseille","lat":43.24175,"lon":5.39703,"is_reserved":false,"is_disabled":false,"rental_uris":{"android":"levelo://app?vid=9d201a3a-10f5-4d66-9144-cba2ad71ae9a","ios":"levelo://app?vid=9d201a3a-10f5-4d66-9144-cba2ad71ae9a"},"vehicle_type_id":"4","last_reported":1761808246,"current_range_meters":2800,"station_id":"ce4bhn12rcd13ifvqgpg","pricing_plan_id":"cebpf4jnsgd1na2vs0mg"},{"bike_id":"76ecc389-6e0e-4c40-9868-f433e353e8c1","system_id":"levelo_inurba_marseille","lat":43.29091,"lon":5.38111,"is_reserved":false,"is_disabled":false,"rental_uris":{"android":"levelo://app?vid=76ecc389-6e0e-4c40-9868-f433e353e8c1","ios":"levelo://app?vid=76ecc389-6e0e-4c40-9868-f433e353e8c1"},"vehicle_type_id":"4","last_reported":1761808246,"current_range_meters":2800,"station_id":"ce4bh512rcd13ifvqe2g","pricing_plan_id":"cebpf4jnsgd1na2vs0mg"},{"bike_id":"ff0af0a6-b487-4c7c-b41d-4621ffc02227","system_id":"levelo_inurba_marseille","lat":43.24637,"lon":5.3888,"is_reserved":false,"is_disabled":false,"rental_uris":{"android":"levelo://app?vid=ff0af0a6-b487-4c7c-b41d-4621ffc02227","ios":"levelo://app?vid=ff0af0a6-b487-4c7c-b41d-4621ffc02227"},"vehicle_type_id":"4","last_reported":1761808246,"current_range_meters":2800,"station_id":"ce4bhg12rcd13ifvqf60","pricing_plan_id":"cebpf4jnsgd1na2vs0mg"},{"bike_id":"3552da8a-a9ec-4038-b5e6-d71356b49896","system_id":"levelo_inurba_marseille","lat":43.25513,"lon":5.376602,"is_reserved":false,"is_disabled":false,"rental_uris":{"android":"levelo://app?vid=3552da8a-a9ec-4038-b5e6-d71356b49896","ios":"levelo://app?vid=3552da8a-a9ec-4038-b5e6-d71356b49896"},"vehicle_type_id":"4","last_reported":1761808246,"current_range_meters":2800,"station_id":"ce4bhh12rcd13ifvqff0","pricing_plan_id":"cebpf4jnsgd1na2vs0mg"},{"bike_id":"f51e633e-7894-4a69-bdab-cb4e69266ad5","system_id":"levelo_inurba_marseille","lat":43.30145,"lon":5.37408,"is_reserved":false,"is_disabled":false,"rental_uris":{"android":"levelo://app?vid=f51e633e-7894-4a69-bdab-cb4e69266ad5","ios":"levelo://app?vid=f51e633e-7894-4a69-bdab-cb4e69266ad5"},"vehicle_type_id":"4","last_reported":1761808246,"current_range_meters":2800,"station_id":"ce4bgs92rcd13ifvqcc0","pricing_plan_id":"cebpf4jnsgd1na2vs0mg"},{"bike_id":"34a6505b-4395-498a-b923-f12aa363c542","system_id":"levelo_inurba_marseille","lat":43.22924,"lon":5.35383,"is_reserved":false,"is_disabled":false,"rental_uris":{"android":"levelo://app?vid=34a6505b-4395-498a-b923-f12aa363c542","ios":"levelo://app?vid=34a6505b-4395-498a-b923-f12aa363c542"},"vehicle_type_id":"4","last_reported":1761808246,"current_range_meters":3600,"station_id":"cpo3532slgdg3j2ikp40","pricing_plan_id":"cebpf4jnsgd1na2vs0mg"},{"bike_id":"93eb6c66-3a24-4958-be9e-2579f0542bbe","system_id":"levelo_inurba_marseille","lat":43.287932,"lon":5.384582,"is_reserved":false,"is_disabled":false,"rental_uris":{"android":"levelo://app?vid=93eb6c66-3a24-4958-be9e-2579f0542bbe","ios":"levelo://app?vid=93eb6c66-3a24-4958-be9e-2579f0542bbe"},"vehicle_type_id":"4","last_reported":1761808246,"current_range_meters":3600,"station_id":"","pricing_plan_id":"cebpf4jnsgd1na2vs0mg"},{"bike_id":"a38032f4-5217-46f2-949e-c56fa2168c98","system_id":"levelo_inurba_marseille","lat":43.302167,"lon":5.394612,"is_reserved":false,"is_disabled":false,"rental_uris":{"android":"levelo://app?vid=a38032f4-5217-46f2-949e-c56fa2168c98","ios":"levelo://app?vid=a38032f4-5217-46f2-949e-c56fa2168c98"},"vehicle_type_id":"4","last_reported":1761808246,"current_range_meters":3600,"station_id":"ce4bh0p2rcd13ifvqd70","pricing_plan_id":"cebpf4jnsgd1na2vs0mg"},{"bike_id":"19ac1594-1201-4572-a92f-f9e172aa068f","system_id":"levelo_inurba_marseille","lat":43.286977,"lon":5.39984,"is_reserved":false,"is_disabled":false,"rental_uris":{"android":"levelo://app?vid=19ac1594-1201-4572-a92f-f9e172aa068f","ios":"levelo://app?vid=19ac1594-1201-4572-a92f-f9e172aa068f"},"vehicle_type_id":"4","last_reported":1761808246,"current_range_meters":4000,"station_id":"ce4bho92rcd13ifvqh3g","pricing_plan_id":"cebpf4jnsgd1na2vs0mg"},{"bike_id":"73a936d1-aa19-45f5-9a03-694f451ded31","system_id":"levelo_inurba_marseille","lat":43.30101,"lon":5.38112,"is_reserved":false,"is_disabled":false,"rental_uris":{"android":"levelo://app?vid=73a936d1-aa19-45f5-9a03-694f451ded31","ios":"levelo://app?vid=73a936d1-aa19-45f5-9a03-694f451ded31"},"vehicle_type_id":"4","last_reported":1761808246,"current_range_meters":4000,"station_id":"ce4bgjp2rcd13ifvqbh0","pricing_plan_id":"cebpf4jnsgd1na2vs0mg"},{"bike_id":"fa7d9a8f-3453-49ac-b0a9-9649704293ab","system_id":"levelo_inurba_marseille","lat":43.246389,"lon":5.431433,"is_reserved":false,"is_disabled":false,"rental_uris":{"android":"levelo://app?vid=fa7d9a8f-3453-49ac-b0a9-9649704293ab","ios":"levelo://app?vid=fa7d9a8f-3453-49ac-b0a9-9649704293ab"},"vehicle_type_id":"4","last_reported":1761808246,"current_range_meters":4400,"station_id":"st_d2m6c4gdas8pm72e190g","pricing_plan_id":"cebpf4jnsgd1na2vs0mg"},{"bike_id":"fc496909-04d2-4bad-a2f0-bcfdd52d2663","system_id":"levelo_inurba_marseille","lat":43.2843,"lon":5.39196,"is_reserved":false,"is_disabled":false,"rental_uris":{"android":"levelo://app?vid=fc496909-04d2-4bad-a2f0-bcfdd52d2663","ios":"levelo://app?vid=fc496909-04d2-4bad-a2f0-bcfdd52d2663"},"vehicle_type_id":"4","last_reported":1761808246,"current_range_meters":4800,"station_id":"ce4bhoh2rcd13ifvqh5g","pricing_plan_id":"cebpf4jnsgd1na2vs0mg"},{"bike_id":"94d2921f-3d63-4813-a698-2e2779c33248","system_id":"levelo_inurba_marseille","lat":43.23154,"lon":5.43722,"is_reserved":false,"is_disabled":false,"rental_uris":{"android":"levelo://app?vid=94d2921f-3d63-4813-a698-2e2779c33248","ios":"levelo://app?vid=94d2921f-3d63-4813-a698-2e2779c33248"},"vehicle_type_id":"4","last_reported":1761808246,"current_range_meters":4800,"station_id":"ce4bhmp2rcd13ifvqgog","pricing_plan_id":"cebpf4jnsgd1na2vs0mg"},{"bike_id":"d5ca831f-8041-403e-ada8-7b4196c3d5be","system_id":"levelo_inurba_marseille","lat":43.293714,"lon":5.379385,"is_reserved":false,"is_disabled":false,"rental_uris":{"android":"levelo://app?vid=d5ca831f-8041-403e-ada8-7b4196c3d5be","ios":"levelo://app?vid=d5ca831f-8041-403e-ada8-7b4196c3d5be"},"vehicle_type_id":"4","last_reported":1761808246,"current_range_meters":4800,"station_id":"","pricing_plan_id":"cebpf4jnsgd1na2vs0mg"},{"bike_id":"23116e79-da2c-4801-8234-4c471d0dd9b5","system_id":"levelo_inurba_marseille","lat":43.29906,"lon":5.38158,"is_reserved":false,"is_disabled":false,"rental_uris":{"android":"levelo://app?vid=23116e79-da2c-4801-8234-4c471d0dd9b5","ios":"levelo://app?vid=23116e79-da2c-4801-8234-4c471d0dd9b5"},"vehicle_type_id":"4","last_reported":1761808246,"current_range_meters":4800,"station_id":"ce4bgj12rcd13ifvqbc0","pricing_plan_id":"cebpf4jnsgd1na2vs0mg"},{"bike_id":"5e3752b8-593e-46fd-9f2d-f8a706a78c86","system_id":"levelo_inurba_marseille","lat":43.257272,"lon":5.41071,"is_reserved":false,"is_disabled":false,"rental_uris":{"android":"levelo://app?vid=5e3752b8-593e-46fd-9f2d-f8a706a78c86","ios":"levelo://app?vid=5e3752b8-593e-46fd-9f2d-f8a706a78c86"},"vehicle_type_id":"4","last_reported":1761808246,"current_range_meters":5600,"station_id":"ce4bhkp2rcd13ifvqgd0","pricing_plan_id":"cebpf4jnsgd1na2vs0mg"},{"bike_id":"43aaa191-46d9-423a-b927-c0ae04a77992","system_id":"levelo_inurba_marseille","lat":43.28284,"lon":5.35076,"is_reserved":false,"is_disabled":false,"rental_uris":{"android":"levelo://app?vid=43aaa191-46d9-423a-b927-c0ae04a77992","ios":"levelo://app?vid=43aaa191-46d9-423a-b927-c0ae04a77992"},"vehicle_type_id":"4","last_reported":1761808246,"current_range_meters":5600,"station_id":"ce4bhbp2rcd13ifvqerg","pricing_plan_id":"cebpf4jnsgd1na2vs0mg"},{"bike_id":"4c49e399-3dba-43c1-a179-b84d82ca3370","system_id":"levelo_inurba_marseille","lat":43.2994,"lon":5.36526,"is_reserved":false,"is_disabled":false,"rental_uris":{"android":"levelo://app?vid=4c49e399-3dba-43c1-a179-b84d82ca3370","ios":"levelo://app?vid=4c49e399-3dba-43c1-a179-b84d82ca3370"},"vehicle_type_id":"4","last_reported":1761808246,"current_range_meters":5600,"station_id":"ce4bgm92rcd13ifvqbr0","pricing_plan_id":"cebpf4jnsgd1na2vs0mg"},{"bike_id":"2f5b1c35-1c14-4d80-851d-acae99ef10b6","system_id":"levelo_inurba_marseille","lat":43.27423,"lon":5.40762,"is_reserved":false,"is_disabled":false,"rental_uris":{"android":"levelo://app?vid=2f5b1c35-1c14-4d80-851d-acae99ef10b6","ios":"levelo://app?vid=2f5b1c35-1c14-4d80-851d-acae99ef10b6"},"vehicle_type_id":"4","last_reported":1761808246,"current_range_meters":5600,"station_id":"","pricing_plan_id":"cebpf4jnsgd1na2vs0mg"},{"bike_id":"897d1025-cdde-48ec-9b73-6418bafdbbc5","system_id":"levelo_inurba_marseille","lat":43.280718,"lon":5.347617,"is_reserved":false,"is_disabled":false,"rental_uris":{"android":"levelo://app?vid=897d1025-cdde-48ec-9b73-6418bafdbbc5","ios":"levelo://app?vid=897d1025-cdde-48ec-9b73-6418bafdbbc5"},"vehicle_type_id":"4","last_reported":1761808246,"current_range_meters":5600,"station_id":"","pricing_plan_id":"cebpf4jnsgd1na2vs0mg"},{"bike_id":"6734ea4f-81f3-48a5-98ff-eb52308bd657","system_id":"levelo_inurba_marseille","lat":43.27946,"lon":5.41045,"is_reserved":false,"is_disabled":true,"rental_uris":{"android":"levelo://app?vid=6734ea4f-81f3-48a5-98ff-eb52308bd657","ios":"levelo://app?vid=6734ea4f-81f3-48a5-98ff-eb52308bd657"},"vehicle_type_id":"4","last_reported":1761808246,"current_range_meters":6000,"station_id":"ce4bhnp2rcd13ifvqh0g","pricing_plan_id":"cebpf4jnsgd1na2vs0mg"},{"bike_id":"4f2798ad-0c37-4267-9b84-46ffa64fda0a","system_id":"levelo_inurba_marseille","lat":43.31062,"lon":5.38346,"is_reserved":false,"is_disabled":false,"rental_uris":{"android":"levelo://app?vid=4f2798ad-0c37-4267-9b84-46ffa64fda0a","ios":"levelo://app?vid=4f2798ad-0c37-4267-9b84-46ffa64fda0a"},"vehicle_type_id":"4","last_reported":1761808246,"current_range_meters":6000,"station_id":"","pricing_plan_id":"cebpf4jnsgd1na2vs0mg"},{"bike_id":"1750b271-8d7a-4d6c-8c3e-96f3f7626dee","system_id":"levelo_inurba_marseille","lat":43.3096,"lon":5.39036,"is_reserved":false,"is_disabled":false,"rental_uris":{"android":"levelo://app?vid=1750b271-8d7a-4d6c-8c3e-96f3f7626dee","ios":"levelo://app?vid=1750b271-8d7a-4d6c-8c3e-96f3f7626dee"},"vehicle_type_id":"4","last_reported":1761808246,"current_range_meters":6000,"station_id":"ce4bgup2rcd13ifvqco0","pricing_plan_id":"cebpf4jnsgd1na2vs0mg"},{"bike_id":"e8cecdc3-ea04-4bed-a2e8-e4ef75d8bb5c","system_id":"levelo_inurba_marseille","lat":43.217529,"lon":5.346008,"is_reserved":false,"is_disabled":false,"rental_uris":{"android":"levelo://app?vid=e8cecdc3-ea04-4bed-a2e8-e4ef75d8bb5c","ios":"levelo://app?vid=e8cecdc3-ea04-4bed-a2e8-e4ef75d8bb5c"},"vehicle_type_id":"4","last_reported":1761808246,"current_range_meters":6000,"station_id":"st_cvj6r9ubvosntc0bgbag","pricing_plan_id":"cebpf4jnsgd1na2vs0mg"},{"bike_id":"76415e1f-20ff-437a-816a-dc0b3a0be3cc","system_id":"levelo_inurba_marseille","lat":43.29281,"lon":5.40136,"is_reserved":false,"is_disabled":false,"rental_uris":{"android":"levelo://app?vid=76415e1f-20ff-437a-816a-dc0b3a0be3cc","ios":"levelo://app?vid=76415e1f-20ff-437a-816a-dc0b3a0be3cc"},"vehicle_type_id":"4","last_reported":1761808246,"current_range_meters":6400,"station_id":"ce4bh312rcd13ifvqdk0","pricing_plan_id":"cebpf4jnsgd1na2vs0mg"},{"bike_id":"14a8fab3-d0e9-41d7-b531-f1ff12e02e15","system_id":"levelo_inurba_marseille","lat":43.262239,"lon":5.404609,"is_reserved":false,"is_disabled":false,"rental_uris":{"android":"levelo://app?vid=14a8fab3-d0e9-41d7-b531-f1ff12e02e15","ios":"levelo://app?vid=14a8fab3-d0e9-41d7-b531-f1ff12e02e15"},"vehicle_type_id":"4","last_reported":1761808246,"current_range_meters":6400,"station_id":"ce4bhmh2rcd13ifvqgmg","pricing_plan_id":"cebpf4jnsgd1na2vs0mg"},{"bike_id":"c5756757-2091-4626-9102-1ced4f88fc6c","system_id":"levelo_inurba_marseille","lat":43.217499,"lon":5.346011,"is_reserved":false,"is_disabled":true,"rental_uris":{"android":"levelo://app?vid=c5756757-2091-4626-9102-1ced4f88fc6c","ios":"levelo://app?vid=c5756757-2091-4626-9102-1ced4f88fc6c"},"vehicle_type_id":"4","last_reported":1761808246,"current_range_meters":6800,"station_id":"st_cvj6r9ubvosntc0bgbag","pricing_plan_id":"cebpf4jnsgd1na2vs0mg"},{"bike_id":"60243453-fa0b-4ef2-8729-915a963bf8e0","system_id":"levelo_inurba_marseille","lat":43.28708,"lon":5.36122,"is_reserved":false,"is_disabled":false,"rental_uris":{"android":"levelo://app?vid=60243453-fa0b-4ef2-8729-915a963bf8e0","ios":"levelo://app?vid=60243453-fa0b-4ef2-8729-915a963bf8e0"},"vehicle_type_id":"4","last_reported":1761808246,"current_range_meters":6800,"station_id":"cki0cbj6b192h4jlfktg","pricing_plan_id":"cebpf4jnsgd1na2vs0mg"},{"bike_id":"031ba078-e36f-4ed3-889c-1fe60e3a92e8","system_id":"levelo_inurba_marseille","lat":43.27085,"lon":5.42307,"is_reserved":false,"is_disabled":false,"rental_uris":{"android":"levelo://app?vid=031ba078-e36f-4ed3-889c-1fe60e3a92e8","ios":"levelo://app?vid=031ba078-e36f-4ed3-889c-1fe60e3a92e8"},"vehicle_type_id":"4","last_reported":1761808246,"current_range_meters":6800,"station_id":"ce4bhk92rcd13ifvqgb0","pricing_plan_id":"cebpf4jnsgd1na2vs0mg"},{"bike_id":"50df84e0-f835-418a-9066-509642bbb74f","system_id":"levelo_inurba_marseille","lat":43.28716,"lon":5.36117,"is_reserved":false,"is_disabled":false,"rental_uris":{"android":"levelo://app?vid=50df84e0-f835-418a-9066-509642bbb74f","ios":"levelo://app?vid=50df84e0-f835-418a-9066-509642bbb74f"},"vehicle_type_id":"4","last_reported":1761808246,"current_range_meters":6800,"station_id":"cki0cbj6b192h4jlfktg","pricing_plan_id":"cebpf4jnsgd1na2vs0mg"},{"bike_id":"f6adb9c1-4a78-4322-baec-aa5f6f5d93b6","system_id":"levelo_inurba_marseille","lat":43.337716,"lon":5.374484,"is_reserved":false,"is_disabled":false,"rental_uris":{"android":"levelo://app?vid=f6adb9c1-4a78-4322-baec-aa5f6f5d93b6","ios":"levelo://app?vid=f6adb9c1-4a78-4322-baec-aa5f6f5d93b6"},"vehicle_type_id":"4","last_reported":1761808246,"current_range_meters":6800,"station_id":"","pricing_plan_id":"cebpf4jnsgd1na2vs0mg"},{"bike_id":"dabdb822-70a2-495c-b5a1-ac4ba6f87615","system_id":"levelo_inurba_marseille","lat":43.28917,"lon":5.36647,"is_reserved":false,"is_disabled":false,"rental_uris":{"android":"levelo://app?vid=dabdb822-70a2-495c-b5a1-ac4ba6f87615","ios":"levelo://app?vid=dabdb822-70a2-495c-b5a1-ac4ba6f87615"},"vehicle_type_id":"4","last_reported":1761808246,"current_range_meters":7200,"station_id":"ce4bhap2rcd13ifvqek0","pricing_plan_id":"cebpf4jnsgd1na2vs0mg"},{"bike_id":"9adacb74-193f-4a74-9f81-f7b928a1768a","system_id":"levelo_inurba_marseille","lat":43.264806,"lon":5.395531,"is_reserved":false,"is_disabled":true,"rental_uris":{"android":"levelo://app?vid=9adacb74-193f-4a74-9f81-f7b928a1768a","ios":"levelo://app?vid=9adacb74-193f-4a74-9f81-f7b928a1768a"},"vehicle_type_id":"4","last_reported":1761808246,"current_range_meters":7200,"station_id":"ce4bhi12rcd13ifvqfq0","pricing_plan_id":"cebpf4jnsgd1na2vs0mg"},{"bike_id":"2faa34bf-11bd-4257-9aa2-d0d66cf0acc8","system_id":"levelo_inurba_marseille","lat":43.28448,"lon":5.35887,"is_reserved":false,"is_disabled":false,"rental_uris":{"android":"levelo://app?vid=2faa34bf-11bd-4257-9aa2-d0d66cf0acc8","ios":"levelo://app?vid=2faa34bf-11bd-4257-9aa2-d0d66cf0acc8"},"vehicle_type_id":"4","last_reported":1761808246,"current_range_meters":7200,"station_id":"ce4bhah2rcd13ifvqei0","pricing_plan_id":"cebpf4jnsgd1na2vs0mg"},{"bike_id":"ae8ebe94-fc0f-4409-8f77-39eb5c613a67","system_id":"levelo_inurba_marseille","lat":43.337444,"lon":5.374475,"is_reserved":false,"is_disabled":false,"rental_uris":{"android":"levelo://app?vid=ae8ebe94-fc0f-4409-8f77-39eb5c613a67","ios":"levelo://app?vid=ae8ebe94-fc0f-4409-8f77-39eb5c613a67"},"vehicle_type_id":"4","last_reported":1761808246,"current_range_meters":8000,"station_id":"","pricing_plan_id":"cebpf4jnsgd1na2vs0mg"},{"bike_id":"c0d8cfc2-58e9-4034-b687-0897dc3be2c0","system_id":"levelo_inurba_marseille","lat":43.31323,"lon":5.39701,"is_reserved":false,"is_disabled":false,"rental_uris":{"android":"levelo://app?vid=c0d8cfc2-58e9-4034-b687-0897dc3be2c0","ios":"levelo://app?vid=c0d8cfc2-58e9-4034-b687-0897dc3be2c0"},"vehicle_type_id":"4","last_reported":1761808246,"current_range_meters":8000,"station_id":"ce4bgvp2rcd13ifvqcu0","pricing_plan_id":"cebpf4jnsgd1na2vs0mg"},{"bike_id":"82c3d2c8-f0bf-446e-b125-018f07998329","system_id":"levelo_inurba_marseille","lat":43.32748,"lon":5.40152,"is_reserved":false,"is_disabled":false,"rental_uris":{"android":"levelo://app?vid=82c3d2c8-f0bf-446e-b125-018f07998329","ios":"levelo://app?vid=82c3d2c8-f0bf-446e-b125-018f07998329"},"vehicle_type_id":"4","last_reported":1761808246,"current_range_meters":8000,"station_id":"","pricing_plan_id":"cebpf4jnsgd1na2vs0mg"},{"bike_id":"3b2c8cc1-0c56-4f49-a5ea-0aa9772e80fc","system_id":"levelo_inurba_marseille","lat":43.29598,"lon":5.37721,"is_reserved":false,"is_disabled":false,"rental_uris":{"android":"levelo://app?vid=3b2c8cc1-0c56-4f49-a5ea-0aa9772e80fc","ios":"levelo://app?vid=3b2c8cc1-0c56-4f49-a5ea-0aa9772e80fc"},"vehicle_type_id":"4","last_reported":1761808246,"current_range_meters":8000,"station_id":"ce4bgi92rcd13ifvqb90","pricing_plan_id":"cebpf4jnsgd1na2vs0mg"},{"bike_id":"3c24659b-122d-4f02-b5c3-d40c9acefd45","system_id":"levelo_inurba_marseille","lat":43.246692,"lon":5.381753,"is_reserved":false,"is_disabled":false,"rental_uris":{"android":"levelo://app?vid=3c24659b-122d-4f02-b5c3-d40c9acefd45","ios":"levelo://app?vid=3c24659b-122d-4f02-b5c3-d40c9acefd45"},"vehicle_type_id":"4","last_reported":1761808246,"current_range_meters":8000,"station_id":"ce4bhih2rcd13ifvqfr0","pricing_plan_id":"cebpf4jnsgd1na2vs0mg"},{"bike_id":"fd09dbe7-0bec-431b-9705-875a0c7a7829","system_id":"levelo_inurba_marseille","lat":43.23065,"lon":5.35511,"is_reserved":false,"is_disabled":false,"rental_uris":{"android":"levelo://app?vid=fd09dbe7-0bec-431b-9705-875a0c7a7829","ios":"levelo://app?vid=fd09dbe7-0bec-431b-9705-875a0c7a7829"},"vehicle_type_id":"4","last_reported":1761808246,"current_range_meters":8400,"station_id":"cpo3342slgdg3j2ifvpg","pricing_plan_id":"cebpf4jnsgd1na2vs0mg"},{"bike_id":"5f63bd5a-98a8-4b17-b4b2-a2eab663b359","system_id":"levelo_inurba_marseille","lat":43.28125,"lon":5.402896,"is_reserved":false,"is_disabled":false,"rental_uris":{"android":"levelo://app?vid=5f63bd5a-98a8-4b17-b4b2-a2eab663b359","ios":"levelo://app?vid=5f63bd5a-98a8-4b17-b4b2-a2eab663b359"},"vehicle_type_id":"4","last_reported":1761808246,"current_range_meters":8400,"station_id":"","pricing_plan_id":"cebpf4jnsgd1na2vs0mg"},{"bike_id":"7e6a059e-f32e-4f21-93be-8ddbc01624ef","system_id":"levelo_inurba_marseille","lat":43.2997,"lon":5.37183,"is_reserved":false,"is_disabled":false,"rental_uris":{"android":"levelo://app?vid=7e6a059e-f32e-4f21-93be-8ddbc01624ef","ios":"levelo://app?vid=7e6a059e-f32e-4f21-93be-8ddbc01624ef"},"vehicle_type_id":"4","last_reported":1761808246,"current_range_meters":8400,"station_id":"ce4bgr92rcd13ifvqc7g","pricing_plan_id":"cebpf4jnsgd1na2vs0mg"},{"bike_id":"5ab53029-d0cc-4cc5-806a-3f0498e31826","system_id":"levelo_inurba_marseille","lat":43.231596,"lon":5.437268,"is_reserved":false,"is_disabled":false,"rental_uris":{"android":"levelo://app?vid=5ab53029-d0cc-4cc5-806a-3f0498e31826","ios":"levelo://app?vid=5ab53029-d0cc-4cc5-806a-3f0498e31826"},"vehicle_type_id":"4","last_reported":1761808246,"current_range_meters":8400,"station_id":"ce4bhmp2rcd13ifvqgog","pricing_plan_id":"cebpf4jnsgd1na2vs0mg"},{"bike_id":"0e7c56e4-e4a5-4592-a5c3-0912509a295d","system_id":"levelo_inurba_marseille","lat":43.26788,"lon":5.39412,"is_reserved":false,"is_disabled":false,"rental_uris":{"android":"levelo://app?vid=0e7c56e4-e4a5-4592-a5c3-0912509a295d","ios":"levelo://app?vid=0e7c56e4-e4a5-4592-a5c3-0912509a295d"},"vehicle_type_id":"4","last_reported":1761808246,"current_range_meters":8400,"station_id":"ce4bhh12rcd13ifvqfg0","pricing_plan_id":"cebpf4jnsgd1na2vs0mg"},{"bike_id":"d03f6b0e-52f1-4b1d-aa37-63c36e7ad0bf","system_id":"levelo_inurba_marseille","lat":43.30895,"lon":5.37186,"is_reserved":false,"is_disabled":false,"rental_uris":{"android":"levelo://app?vid=d03f6b0e-52f1-4b1d-aa37-63c36e7ad0bf","ios":"levelo://app?vid=d03f6b0e-52f1-4b1d-aa37-63c36e7ad0bf"},"vehicle_type_id":"4","last_reported":1761808246,"current_range_meters":8800,"station_id":"ce4bguh2rcd13ifvqckg","pricing_plan_id":"cebpf4jnsgd1na2vs0mg"},{"bike_id":"05b373f7-14a9-467b-8b63-944c33e892bd","system_id":"levelo_inurba_marseille","lat":43.24668,"lon":5.38159,"is_reserved":false,"is_disabled":false,"rental_uris":{"android":"levelo://app?vid=05b373f7-14a9-467b-8b63-944c33e892bd","ios":"levelo://app?vid=05b373f7-14a9-467b-8b63-944c33e892bd"},"vehicle_type_id":"4","last_reported":1761808246,"current_range_meters":8800,"station_id":"ce4bhih2rcd13ifvqfr0","pricing_plan_id":"cebpf4jnsgd1na2vs0mg"},{"bike_id":"a7320c8c-5445-4d38-929c-b72e1d108b67","system_id":"levelo_inurba_marseille","lat":43.265578,"lon":5.372936,"is_reserved":false,"is_disabled":false,"rental_uris":{"android":"levelo://app?vid=a7320c8c-5445-4d38-929c-b72e1d108b67","ios":"levelo://app?vid=a7320c8c-5445-4d38-929c-b72e1d108b67"},"vehicle_type_id":"4","last_reported":1761808246,"current_range_meters":8800,"station_id":"ce4bhg12rcd13ifvqf70","pricing_plan_id":"cebpf4jnsgd1na2vs0mg"},{"bike_id":"e9ee5ccc-04d3-4dfc-810d-bdc7196a27be","system_id":"levelo_inurba_marseille","lat":43.231482,"lon":5.437238,"is_reserved":false,"is_disabled":false,"rental_uris":{"android":"levelo://app?vid=e9ee5ccc-04d3-4dfc-810d-bdc7196a27be","ios":"levelo://app?vid=e9ee5ccc-04d3-4dfc-810d-bdc7196a27be"},"vehicle_type_id":"4","last_reported":1761808246,"current_range_meters":8800,"station_id":"ce4bhmp2rcd13ifvqgog","pricing_plan_id":"cebpf4jnsgd1na2vs0mg"},{"bike_id":"39d53fc1-35c1-4976-af6a-5427e898ee4b","system_id":"levelo_inurba_marseille","lat":43.26226,"lon":5.40457,"is_reserved":false,"is_disabled":false,"rental_uris":{"android":"levelo://app?vid=39d53fc1-35c1-4976-af6a-5427e898ee4b","ios":"levelo://app?vid=39d53fc1-35c1-4976-af6a-5427e898ee4b"},"vehicle_type_id":"4","last_reported":1761808246,"current_range_meters":9200,"station_id":"ce4bhmh2rcd13ifvqgmg","pricing_plan_id":"cebpf4jnsgd1na2vs0mg"},{"bike_id":"1a34b5a4-3c1e-479b-b6f5-76f97d5c5c52","system_id":"levelo_inurba_marseille","lat":43.285305,"lon":5.441044,"is_reserved":false,"is_disabled":false,"rental_uris":{"android":"levelo://app?vid=1a34b5a4-3c1e-479b-b6f5-76f97d5c5c52","ios":"levelo://app?vid=1a34b5a4-3c1e-479b-b6f5-76f97d5c5c52"},"vehicle_type_id":"4","last_reported":1761808246,"current_range_meters":9600,"station_id":"st_d3j3df2ikq2c7380ej80","pricing_plan_id":"cebpf4jnsgd1na2vs0mg"},{"bike_id":"4644b8ac-affa-4d50-b2ae-974d32d38290","system_id":"levelo_inurba_marseille","lat":43.30797,"lon":5.43528,"is_reserved":false,"is_disabled":false,"rental_uris":{"android":"levelo://app?vid=4644b8ac-affa-4d50-b2ae-974d32d38290","ios":"levelo://app?vid=4644b8ac-affa-4d50-b2ae-974d32d38290"},"vehicle_type_id":"4","last_reported":1761808246,"current_range_meters":9600,"station_id":"","pricing_plan_id":"cebpf4jnsgd1na2vs0mg"},{"bike_id":"38a6dc38-14d2-4dfb-a68e-032b2baa0b7a","system_id":"levelo_inurba_marseille","lat":43.292784,"lon":5.401388,"is_reserved":false,"is_disabled":false,"rental_uris":{"android":"levelo://app?vid=38a6dc38-14d2-4dfb-a68e-032b2baa0b7a","ios":"levelo://app?vid=38a6dc38-14d2-4dfb-a68e-032b2baa0b7a"},"vehicle_type_id":"4","last_reported":1761808246,"current_range_meters":9600,"station_id":"ce4bh312rcd13ifvqdk0","pricing_plan_id":"cebpf4jnsgd1na2vs0mg"},{"bike_id":"672d7b33-42ad-4e81-9039-3eed114133a1","system_id":"levelo_inurba_marseille","lat":43.24388,"lon":5.37063,"is_reserved":false,"is_disabled":false,"rental_uris":{"android":"levelo://app?vid=672d7b33-42ad-4e81-9039-3eed114133a1","ios":"levelo://app?vid=672d7b33-42ad-4e81-9039-3eed114133a1"},"vehicle_type_id":"4","last_reported":1761808246,"current_range_meters":9600,"station_id":"ce4bhhh2rcd13ifvqfk0","pricing_plan_id":"cebpf4jnsgd1na2vs0mg"},{"bike_id":"0f0fabbb-9855-4c5f-9fd5-59505bcfcb89","system_id":"levelo_inurba_marseille","lat":43.299435,"lon":5.365537,"is_reserved":false,"is_disabled":false,"rental_uris":{"android":"levelo://app?vid=0f0fabbb-9855-4c5f-9fd5-59505bcfcb89","ios":"levelo://app?vid=0f0fabbb-9855-4c5f-9fd5-59505bcfcb89"},"vehicle_type_id":"4","last_reported":1761808246,"current_range_meters":9600,"station_id":"ce4bgm92rcd13ifvqbr0","pricing_plan_id":"cebpf4jnsgd1na2vs0mg"},{"bike_id":"e3260d53-1f31-4048-a6b1-57d9b1375877","system_id":"levelo_inurba_marseille","lat":43.28534,"lon":5.44095,"is_reserved":false,"is_disabled":false,"rental_uris":{"android":"levelo://app?vid=e3260d53-1f31-4048-a6b1-57d9b1375877","ios":"levelo://app?vid=e3260d53-1f31-4048-a6b1-57d9b1375877"},"vehicle_type_id":"4","last_reported":1761808246,"current_range_meters":10000,"station_id":"st_d3j3df2ikq2c7380ej80","pricing_plan_id":"cebpf4jnsgd1na2vs0mg"},{"bike_id":"9e42d280-7811-4b74-93f1-464d65b7fada","system_id":"levelo_inurba_marseille","lat":43.2988,"lon":5.3975,"is_reserved":false,"is_disabled":true,"rental_uris":{"android":"levelo://app?vid=9e42d280-7811-4b74-93f1-464d65b7fada","ios":"levelo://app?vid=9e42d280-7811-4b74-93f1-464d65b7fada"},"vehicle_type_id":"4","last_reported":1761808246,"current_range_meters":10000,"station_id":"ce4bh0h2rcd13ifvqd50","pricing_plan_id":"cebpf4jnsgd1na2vs0mg"},{"bike_id":"c2e0fbe7-f501-4208-86e4-e6c1973f5419","system_id":"levelo_inurba_marseille","lat":43.26209,"lon":5.374447,"is_reserved":false,"is_disabled":false,"rental_uris":{"android":"levelo://app?vid=c2e0fbe7-f501-4208-86e4-e6c1973f5419","ios":"levelo://app?vid=c2e0fbe7-f501-4208-86e4-e6c1973f5419"},"vehicle_type_id":"4","last_reported":1761808246,"current_range_meters":10000,"station_id":"ce4bhgp2rcd13ifvqfc0","pricing_plan_id":"cebpf4jnsgd1na2vs0mg"},{"bike_id":"57e585b3-bfcc-4fbd-9d8a-3a44bf05bf07","system_id":"levelo_inurba_marseille","lat":43.26692,"lon":5.41215,"is_reserved":false,"is_disabled":false,"rental_uris":{"android":"levelo://app?vid=57e585b3-bfcc-4fbd-9d8a-3a44bf05bf07","ios":"levelo://app?vid=57e585b3-bfcc-4fbd-9d8a-3a44bf05bf07"},"vehicle_type_id":"4","last_reported":1761808246,"current_range_meters":10000,"station_id":"","pricing_plan_id":"cebpf4jnsgd1na2vs0mg"},{"bike_id":"faee4aed-34d1-4e59-9f3e-bc2337688920","system_id":"levelo_inurba_marseille","lat":43.31708,"lon":5.43706,"is_reserved":false,"is_disabled":true,"rental_uris":{"android":"levelo://app?vid=faee4aed-34d1-4e59-9f3e-bc2337688920","ios":"levelo://app?vid=faee4aed-34d1-4e59-9f3e-bc2337688920"},"vehicle_type_id":"4","last_reported":1761808246,"current_range_meters":10000,"station_id":"ce4bhp92rcd13ifvqhcg","pricing_plan_id":"cebpf4jnsgd1na2vs0mg"},{"bike_id":"7b2f3150-a75b-438c-b650-acd993a3bcab","system_id":"levelo_inurba_marseille","lat":43.28613,"lon":5.35093,"is_reserved":false,"is_disabled":false,"rental_uris":{"android":"levelo://app?vid=7b2f3150-a75b-438c-b650-acd993a3bcab","ios":"levelo://app?vid=7b2f3150-a75b-438c-b650-acd993a3bcab"},"vehicle_type_id":"4","last_reported":1761808246,"current_range_meters":10000,"station_id":"ce4bhch2rcd13ifvqeug","pricing_plan_id":"cebpf4jnsgd1na2vs0mg"},{"bike_id":"c36f415b-e2ea-4d64-b9bb-3d96847432bf","system_id":"levelo_inurba_marseille","lat":43.287228,"lon":5.360795,"is_reserved":false,"is_disabled":false,"rental_uris":{"android":"levelo://app?vid=c36f415b-e2ea-4d64-b9bb-3d96847432bf","ios":"levelo://app?vid=c36f415b-e2ea-4d64-b9bb-3d96847432bf"},"vehicle_type_id":"4","last_reported":1761808246,"current_range_meters":10000,"station_id":"cki0cbj6b192h4jlfktg","pricing_plan_id":"cebpf4jnsgd1na2vs0mg"},{"bike_id":"cd067ed5-878f-4bcc-b845-0a52cab0b453","system_id":"levelo_inurba_marseille","lat":43.27935,"lon":5.41047,"is_reserved":false,"is_disabled":false,"rental_uris":{"android":"levelo://app?vid=cd067ed5-878f-4bcc-b845-0a52cab0b453","ios":"levelo://app?vid=cd067ed5-878f-4bcc-b845-0a52cab0b453"},"vehicle_type_id":"4","last_reported":1761808246,"current_range_meters":10800,"station_id":"ce4bhnp2rcd13ifvqh0g","pricing_plan_id":"cebpf4jnsgd1na2vs0mg"},{"bike_id":"b5ff593c-6d9b-4813-823a-85b065482819","system_id":"levelo_inurba_marseille","lat":43.25583,"lon":5.38229,"is_reserved":false,"is_disabled":false,"rental_uris":{"android":"levelo://app?vid=b5ff593c-6d9b-4813-823a-85b065482819","ios":"levelo://app?vid=b5ff593c-6d9b-4813-823a-85b065482819"},"vehicle_type_id":"4","last_reported":1761808246,"current_range_meters":10800,"station_id":"ce4bhih2rcd13ifvqfs0","pricing_plan_id":"cebpf4jnsgd1na2vs0mg"},{"bike_id":"dafc7f51-358d-4778-a869-65ba20920fb3","system_id":"levelo_inurba_marseille","lat":43.24666,"lon":5.38164,"is_reserved":false,"is_disabled":false,"rental_uris":{"android":"levelo://app?vid=dafc7f51-358d-4778-a869-65ba20920fb3","ios":"levelo://app?vid=dafc7f51-358d-4778-a869-65ba20920fb3"},"vehicle_type_id":"4","last_reported":1761808246,"current_range_meters":10800,"station_id":"ce4bhih2rcd13ifvqfr0","pricing_plan_id":"cebpf4jnsgd1na2vs0mg"},{"bike_id":"3e824478-9e7f-4b49-a139-31e06709ef48","system_id":"levelo_inurba_marseille","lat":43.24099,"lon":5.37687,"is_reserved":false,"is_disabled":true,"rental_uris":{"android":"levelo://app?vid=3e824478-9e7f-4b49-a139-31e06709ef48","ios":"levelo://app?vid=3e824478-9e7f-4b49-a139-31e06709ef48"},"vehicle_type_id":"4","last_reported":1761808246,"current_range_meters":10800,"station_id":"ce4bhnp2rcd13ifvqgvg","pricing_plan_id":"cebpf4jnsgd1na2vs0mg"},{"bike_id":"cc16cf9b-46c5-4e80-840c-4fcc4f9a87b9","system_id":"levelo_inurba_marseille","lat":43.24808,"lon":5.37482,"is_reserved":false,"is_disabled":false,"rental_uris":{"android":"levelo://app?vid=cc16cf9b-46c5-4e80-840c-4fcc4f9a87b9","ios":"levelo://app?vid=cc16cf9b-46c5-4e80-840c-4fcc4f9a87b9"},"vehicle_type_id":"4","last_reported":1761808246,"current_range_meters":10800,"station_id":"ce4bhgh2rcd13ifvqfb0","pricing_plan_id":"cebpf4jnsgd1na2vs0mg"},{"bike_id":"f2490e6a-d59e-419e-ad90-25d5ce1a3314","system_id":"levelo_inurba_marseille","lat":43.285405,"lon":5.441027,"is_reserved":false,"is_disabled":false,"rental_uris":{"android":"levelo://app?vid=f2490e6a-d59e-419e-ad90-25d5ce1a3314","ios":"levelo://app?vid=f2490e6a-d59e-419e-ad90-25d5ce1a3314"},"vehicle_type_id":"4","last_reported":1761808246,"current_range_meters":11200,"station_id":"st_d3j3df2ikq2c7380ej80","pricing_plan_id":"cebpf4jnsgd1na2vs0mg"},{"bike_id":"922c022d-611a-41d0-8649-0bba83ab78b2","system_id":"levelo_inurba_marseille","lat":43.24673,"lon":5.38155,"is_reserved":false,"is_disabled":false,"rental_uris":{"android":"levelo://app?vid=922c022d-611a-41d0-8649-0bba83ab78b2","ios":"levelo://app?vid=922c022d-611a-41d0-8649-0bba83ab78b2"},"vehicle_type_id":"4","last_reported":1761808246,"current_range_meters":11200,"station_id":"ce4bhih2rcd13ifvqfr0","pricing_plan_id":"cebpf4jnsgd1na2vs0mg"},{"bike_id":"f35dde68-f187-4506-b837-4732721c2d56","system_id":"levelo_inurba_marseille","lat":43.26934,"lon":5.39281,"is_reserved":false,"is_disabled":false,"rental_uris":{"android":"levelo://app?vid=f35dde68-f187-4506-b837-4732721c2d56","ios":"levelo://app?vid=f35dde68-f187-4506-b837-4732721c2d56"},"vehicle_type_id":"4","last_reported":1761808246,"current_range_meters":11600,"station_id":"","pricing_plan_id":"cebpf4jnsgd1na2vs0mg"},{"bike_id":"d9e62bea-aadf-4e54-ac90-41eb19847883","system_id":"levelo_inurba_marseille","lat":43.24654,"lon":5.3815,"is_reserved":false,"is_disabled":false,"rental_uris":{"android":"levelo://app?vid=d9e62bea-aadf-4e54-ac90-41eb19847883","ios":"levelo://app?vid=d9e62bea-aadf-4e54-ac90-41eb19847883"},"vehicle_type_id":"4","last_reported":1761808246,"current_range_meters":11600,"station_id":"ce4bhih2rcd13ifvqfr0","pricing_plan_id":"cebpf4jnsgd1na2vs0mg"},{"bike_id":"556c95c4-e39d-4a50-b32b-6e1b11658636","system_id":"levelo_inurba_marseille","lat":43.241643,"lon":5.364057,"is_reserved":false,"is_disabled":false,"rental_uris":{"android":"levelo://app?vid=556c95c4-e39d-4a50-b32b-6e1b11658636","ios":"levelo://app?vid=556c95c4-e39d-4a50-b32b-6e1b11658636"},"vehicle_type_id":"4","last_reported":1761808246,"current_range_meters":11600,"station_id":"cpo36qri1sfpv3e86is0","pricing_plan_id":"cebpf4jnsgd1na2vs0mg"},{"bike_id":"79bb1f87-15bc-4871-94cf-5a631117ae1d","system_id":"levelo_inurba_marseille","lat":43.246737,"lon":5.381629,"is_reserved":false,"is_disabled":false,"rental_uris":{"android":"levelo://app?vid=79bb1f87-15bc-4871-94cf-5a631117ae1d","ios":"levelo://app?vid=79bb1f87-15bc-4871-94cf-5a631117ae1d"},"vehicle_type_id":"4","last_reported":1761808246,"current_range_meters":11600,"station_id":"ce4bhih2rcd13ifvqfr0","pricing_plan_id":"cebpf4jnsgd1na2vs0mg"},{"bike_id":"b8666720-8c51-432d-b326-75267e7c9e11","system_id":"levelo_inurba_marseille","lat":43.31687,"lon":5.40473,"is_reserved":false,"is_disabled":false,"rental_uris":{"android":"levelo://app?vid=b8666720-8c51-432d-b326-75267e7c9e11","ios":"levelo://app?vid=b8666720-8c51-432d-b326-75267e7c9e11"},"vehicle_type_id":"4","last_reported":1761808246,"current_range_meters":12000,"station_id":"ce4bh012rcd13ifvqd00","pricing_plan_id":"cebpf4jnsgd1na2vs0mg"},{"bike_id":"9fdcd833-5a46-46ae-8be3-787a502e790d","system_id":"levelo_inurba_marseille","lat":43.26204,"lon":5.37449,"is_reserved":false,"is_disabled":false,"rental_uris":{"android":"levelo://app?vid=9fdcd833-5a46-46ae-8be3-787a502e790d","ios":"levelo://app?vid=9fdcd833-5a46-46ae-8be3-787a502e790d"},"vehicle_type_id":"4","last_reported":1761808246,"current_range_meters":12000,"station_id":"ce4bhgp2rcd13ifvqfc0","pricing_plan_id":"cebpf4jnsgd1na2vs0mg"},{"bike_id":"30d428d9-9449-4ff3-9e2b-1d54e8c19249","system_id":"levelo_inurba_marseille","lat":43.24637,"lon":5.43136,"is_reserved":false,"is_disabled":false,"rental_uris":{"android":"levelo://app?vid=30d428d9-9449-4ff3-9e2b-1d54e8c19249","ios":"levelo://app?vid=30d428d9-9449-4ff3-9e2b-1d54e8c19249"},"vehicle_type_id":"4","last_reported":1761808246,"current_range_meters":12000,"station_id":"st_d2m6c4gdas8pm72e190g","pricing_plan_id":"cebpf4jnsgd1na2vs0mg"},{"bike_id":"f0adbc82-23c7-440d-a051-0c3132d5ec3f","system_id":"levelo_inurba_marseille","lat":43.297055,"lon":5.376853,"is_reserved":false,"is_disabled":false,"rental_uris":{"android":"levelo://app?vid=f0adbc82-23c7-440d-a051-0c3132d5ec3f","ios":"levelo://app?vid=f0adbc82-23c7-440d-a051-0c3132d5ec3f"},"vehicle_type_id":"4","last_reported":1761808246,"current_range_meters":12000,"station_id":"ce4bgkh2rcd13ifvqbl0","pricing_plan_id":"cebpf4jnsgd1na2vs0mg"},{"bike_id":"2e4dfe7f-1d17-4c5a-b378-40fa1b0ab528","system_id":"levelo_inurba_marseille","lat":43.29597,"lon":5.3809,"is_reserved":false,"is_disabled":false,"rental_uris":{"android":"levelo://app?vid=2e4dfe7f-1d17-4c5a-b378-40fa1b0ab528","ios":"levelo://app?vid=2e4dfe7f-1d17-4c5a-b378-40fa1b0ab528"},"vehicle_type_id":"4","last_reported":1761808246,"current_range_meters":12000,"station_id":"ce4bgl12rcd13ifvqbo0","pricing_plan_id":"cebpf4jnsgd1na2vs0mg"},{"bike_id":"7f4baae0-8521-4a98-a363-10e68624299c","system_id":"levelo_inurba_marseille","lat":43.261874,"lon":5.374576,"is_reserved":false,"is_disabled":false,"rental_uris":{"android":"levelo://app?vid=7f4baae0-8521-4a98-a363-10e68624299c","ios":"levelo://app?vid=7f4baae0-8521-4a98-a363-10e68624299c"},"vehicle_type_id":"4","last_reported":1761808246,"current_range_meters":12400,"station_id":"ce4bhgp2rcd13ifvqfc0","pricing_plan_id":"cebpf4jnsgd1na2vs0mg"},{"bike_id":"1dda554c-3147-4b4c-a878-afc7bdc42e8b","system_id":"levelo_inurba_marseille","lat":43.30128,"lon":5.39848,"is_reserved":false,"is_disabled":false,"rental_uris":{"android":"levelo://app?vid=1dda554c-3147-4b4c-a878-afc7bdc42e8b","ios":"levelo://app?vid=1dda554c-3147-4b4c-a878-afc7bdc42e8b"},"vehicle_type_id":"4","last_reported":1761808246,"current_range_meters":12400,"station_id":"ce4bh0h2rcd13ifvqd40","pricing_plan_id":"cebpf4jnsgd1na2vs0mg"},{"bike_id":"ca47072e-cb10-4acd-9c3b-1b9667687492","system_id":"levelo_inurba_marseille","lat":43.29256,"lon":5.38433,"is_reserved":false,"is_disabled":false,"rental_uris":{"android":"levelo://app?vid=ca47072e-cb10-4acd-9c3b-1b9667687492","ios":"levelo://app?vid=ca47072e-cb10-4acd-9c3b-1b9667687492"},"vehicle_type_id":"4","last_reported":1761808246,"current_range_meters":12400,"station_id":"ce4bh692rcd13ifvqea0","pricing_plan_id":"cebpf4jnsgd1na2vs0mg"},{"bike_id":"b74c92f3-4751-4b0d-9599-1203fef139e8","system_id":"levelo_inurba_marseille","lat":43.22554,"lon":5.41652,"is_reserved":false,"is_disabled":false,"rental_uris":{"android":"levelo://app?vid=b74c92f3-4751-4b0d-9599-1203fef139e8","ios":"levelo://app?vid=b74c92f3-4751-4b0d-9599-1203fef139e8"},"vehicle_type_id":"4","last_reported":1761808246,"current_range_meters":12400,"station_id":"st_d2o4gvlbi1j2169b742g","pricing_plan_id":"cebpf4jnsgd1na2vs0mg"},{"bike_id":"476462df-2913-42a0-8e11-0cb35c888393","system_id":"levelo_inurba_marseille","lat":43.29027,"lon":5.38128,"is_reserved":false,"is_disabled":false,"rental_uris":{"android":"levelo://app?vid=476462df-2913-42a0-8e11-0cb35c888393","ios":"levelo://app?vid=476462df-2913-42a0-8e11-0cb35c888393"},"vehicle_type_id":"4","last_reported":1761808246,"current_range_meters":12400,"station_id":"ce4bh4p2rcd13ifvqe1g","pricing_plan_id":"cebpf4jnsgd1na2vs0mg"},{"bike_id":"6defcef5-bde2-4337-af3e-89707155ebbd","system_id":"levelo_inurba_marseille","lat":43.284222,"lon":5.349856,"is_reserved":false,"is_disabled":false,"rental_uris":{"android":"levelo://app?vid=6defcef5-bde2-4337-af3e-89707155ebbd","ios":"levelo://app?vid=6defcef5-bde2-4337-af3e-89707155ebbd"},"vehicle_type_id":"4","last_reported":1761808246,"current_range_meters":12400,"station_id":"ce4bhbh2rcd13ifvqepg","pricing_plan_id":"cebpf4jnsgd1na2vs0mg"},{"bike_id":"4e940400-6550-49d8-b70b-5002aae35815","system_id":"levelo_inurba_marseille","lat":43.23776,"lon":5.36636,"is_reserved":false,"is_disabled":false,"rental_uris":{"android":"levelo://app?vid=4e940400-6550-49d8-b70b-5002aae35815","ios":"levelo://app?vid=4e940400-6550-49d8-b70b-5002aae35815"},"vehicle_type_id":"4","last_reported":1761808246,"current_range_meters":12800,"station_id":"st_d3nk18o9ro0c73en2l3g","pricing_plan_id":"cebpf4jnsgd1na2vs0mg"},{"bike_id":"96681a22-1170-4fbd-957b-d204396d27d6","system_id":"levelo_inurba_marseille","lat":43.253325,"lon":5.421698,"is_reserved":false,"is_disabled":false,"rental_uris":{"android":"levelo://app?vid=96681a22-1170-4fbd-957b-d204396d27d6","ios":"levelo://app?vid=96681a22-1170-4fbd-957b-d204396d27d6"},"vehicle_type_id":"4","last_reported":1761808246,"current_range_meters":12800,"station_id":"st_d2m65c5bi1j21697t3ng","pricing_plan_id":"cebpf4jnsgd1na2vs0mg"},{"bike_id":"00e5df0f-1cb7-420a-b470-616dc5cd7798","system_id":"levelo_inurba_marseille","lat":43.230582,"lon":5.354937,"is_reserved":false,"is_disabled":false,"rental_uris":{"android":"levelo://app?vid=00e5df0f-1cb7-420a-b470-616dc5cd7798","ios":"levelo://app?vid=00e5df0f-1cb7-420a-b470-616dc5cd7798"},"vehicle_type_id":"4","last_reported":1761808246,"current_range_meters":12800,"station_id":"cpo3342slgdg3j2ifvpg","pricing_plan_id":"cebpf4jnsgd1na2vs0mg"},{"bike_id":"9f2a15ac-211b-450a-a351-eeb783b009e1","system_id":"levelo_inurba_marseille","lat":43.26209,"lon":5.37926,"is_reserved":false,"is_disabled":false,"rental_uris":{"android":"levelo://app?vid=9f2a15ac-211b-450a-a351-eeb783b009e1","ios":"levelo://app?vid=9f2a15ac-211b-450a-a351-eeb783b009e1"},"vehicle_type_id":"4","last_reported":1761808246,"current_range_meters":12800,"station_id":"ce4bhjp2rcd13ifvqg90","pricing_plan_id":"cebpf4jnsgd1na2vs0mg"},{"bike_id":"f54d56bd-bf2c-48a7-a2b8-bdd3133044af","system_id":"levelo_inurba_marseille","lat":43.24553,"lon":5.39524,"is_reserved":false,"is_disabled":false,"rental_uris":{"android":"levelo://app?vid=f54d56bd-bf2c-48a7-a2b8-bdd3133044af","ios":"levelo://app?vid=f54d56bd-bf2c-48a7-a2b8-bdd3133044af"},"vehicle_type_id":"4","last_reported":1761808246,"current_range_meters":14000,"station_id":"ce4bhlp2rcd13ifvqgjg","pricing_plan_id":"cebpf4jnsgd1na2vs0mg"},{"bike_id":"76be96f0-2614-40d4-a63a-2984a119ec62","system_id":"levelo_inurba_marseille","lat":43.24174,"lon":5.36391,"is_reserved":false,"is_disabled":false,"rental_uris":{"android":"levelo://app?vid=76be96f0-2614-40d4-a63a-2984a119ec62","ios":"levelo://app?vid=76be96f0-2614-40d4-a63a-2984a119ec62"},"vehicle_type_id":"4","last_reported":1761808246,"current_range_meters":14000,"station_id":"cpo36qri1sfpv3e86is0","pricing_plan_id":"cebpf4jnsgd1na2vs0mg"},{"bike_id":"21ad142f-ef4c-48e9-be1d-914ffa7e08d2","system_id":"levelo_inurba_marseille","lat":43.302179,"lon":5.39471,"is_reserved":false,"is_disabled":false,"rental_uris":{"android":"levelo://app?vid=21ad142f-ef4c-48e9-be1d-914ffa7e08d2","ios":"levelo://app?vid=21ad142f-ef4c-48e9-be1d-914ffa7e08d2"},"vehicle_type_id":"4","last_reported":1761808246,"current_range_meters":14000,"station_id":"ce4bh0p2rcd13ifvqd70","pricing_plan_id":"cebpf4jnsgd1na2vs0mg"},{"bike_id":"4353749e-abfe-4c80-a5e8-ba06b5fd7764","system_id":"levelo_inurba_marseille","lat":43.237969,"lon":5.366224,"is_reserved":false,"is_disabled":true,"rental_uris":{"android":"levelo://app?vid=4353749e-abfe-4c80-a5e8-ba06b5fd7764","ios":"levelo://app?vid=4353749e-abfe-4c80-a5e8-ba06b5fd7764"},"vehicle_type_id":"4","last_reported":1761808246,"current_range_meters":14000,"station_id":"st_d3nk18o9ro0c73en2l3g","pricing_plan_id":"cebpf4jnsgd1na2vs0mg"},{"bike_id":"a47ae016-4ab2-4b71-916a-aa63b42661a4","system_id":"levelo_inurba_marseille","lat":43.248072,"lon":5.374612,"is_reserved":false,"is_disabled":false,"rental_uris":{"android":"levelo://app?vid=a47ae016-4ab2-4b71-916a-aa63b42661a4","ios":"levelo://app?vid=a47ae016-4ab2-4b71-916a-aa63b42661a4"},"vehicle_type_id":"4","last_reported":1761808246,"current_range_meters":14400,"station_id":"ce4bhgh2rcd13ifvqfb0","pricing_plan_id":"cebpf4jnsgd1na2vs0mg"},{"bike_id":"21149ae6-d2d5-4572-b8b7-172c30652746","system_id":"levelo_inurba_marseille","lat":43.24658,"lon":5.3816,"is_reserved":false,"is_disabled":false,"rental_uris":{"android":"levelo://app?vid=21149ae6-d2d5-4572-b8b7-172c30652746","ios":"levelo://app?vid=21149ae6-d2d5-4572-b8b7-172c30652746"},"vehicle_type_id":"4","last_reported":1761808246,"current_range_meters":14400,"station_id":"ce4bhih2rcd13ifvqfr0","pricing_plan_id":"cebpf4jnsgd1na2vs0mg"},{"bike_id":"08fe8e28-30e7-4060-bd13-066e444394fe","system_id":"levelo_inurba_marseille","lat":43.28322,"lon":5.41076,"is_reserved":false,"is_disabled":false,"rental_uris":{"android":"levelo://app?vid=08fe8e28-30e7-4060-bd13-066e444394fe","ios":"levelo://app?vid=08fe8e28-30e7-4060-bd13-066e444394fe"},"vehicle_type_id":"4","last_reported":1761808246,"current_range_meters":14400,"station_id":"","pricing_plan_id":"cebpf4jnsgd1na2vs0mg"},{"bike_id":"a4a81a3a-b1a5-4e69-b8f2-fc130ffc3362","system_id":"levelo_inurba_marseille","lat":43.26558,"lon":5.37293,"is_reserved":false,"is_disabled":false,"rental_uris":{"android":"levelo://app?vid=a4a81a3a-b1a5-4e69-b8f2-fc130ffc3362","ios":"levelo://app?vid=a4a81a3a-b1a5-4e69-b8f2-fc130ffc3362"},"vehicle_type_id":"4","last_reported":1761808246,"current_range_meters":14400,"station_id":"ce4bhg12rcd13ifvqf70","pricing_plan_id":"cebpf4jnsgd1na2vs0mg"},{"bike_id":"c9661f60-6e00-4af0-9adb-688f47d695a3","system_id":"levelo_inurba_marseille","lat":43.3014,"lon":5.38779,"is_reserved":false,"is_disabled":true,"rental_uris":{"android":"levelo://app?vid=c9661f60-6e00-4af0-9adb-688f47d695a3","ios":"levelo://app?vid=c9661f60-6e00-4af0-9adb-688f47d695a3"},"vehicle_type_id":"4","last_reported":1761808246,"current_range_meters":14400,"station_id":"ce4bghh2rcd13ifvqb60","pricing_plan_id":"cebpf4jnsgd1na2vs0mg"},{"bike_id":"d00da312-c40b-48c9-aee8-26374c425ea4","system_id":"levelo_inurba_marseille","lat":43.27549,"lon":5.41168,"is_reserved":false,"is_disabled":false,"rental_uris":{"android":"levelo://app?vid=d00da312-c40b-48c9-aee8-26374c425ea4","ios":"levelo://app?vid=d00da312-c40b-48c9-aee8-26374c425ea4"},"vehicle_type_id":"4","last_reported":1761808246,"current_range_meters":14400,"station_id":"","pricing_plan_id":"cebpf4jnsgd1na2vs0mg"},{"bike_id":"8062c369-ff3b-4a48-b2ef-d270e82c4cf4","system_id":"levelo_inurba_marseille","lat":43.23057,"lon":5.35483,"is_reserved":false,"is_disabled":false,"rental_uris":{"android":"levelo://app?vid=8062c369-ff3b-4a48-b2ef-d270e82c4cf4","ios":"levelo://app?vid=8062c369-ff3b-4a48-b2ef-d270e82c4cf4"},"vehicle_type_id":"4","last_reported":1761808246,"current_range_meters":14800,"station_id":"cpo3342slgdg3j2ifvpg","pricing_plan_id":"cebpf4jnsgd1na2vs0mg"},{"bike_id":"10d4f717-a0ed-4c28-acf8-282cf0d364ae","system_id":"levelo_inurba_marseille","lat":43.29527,"lon":5.37849,"is_reserved":false,"is_disabled":false,"rental_uris":{"android":"levelo://app?vid=10d4f717-a0ed-4c28-acf8-282cf0d364ae","ios":"levelo://app?vid=10d4f717-a0ed-4c28-acf8-282cf0d364ae"},"vehicle_type_id":"4","last_reported":1761808246,"current_range_meters":14800,"station_id":"","pricing_plan_id":"cebpf4jnsgd1na2vs0mg"},{"bike_id":"75df00d1-b79d-4514-b45c-0d363788a217","system_id":"levelo_inurba_marseille","lat":43.32079,"lon":5.36789,"is_reserved":false,"is_disabled":false,"rental_uris":{"android":"levelo://app?vid=75df00d1-b79d-4514-b45c-0d363788a217","ios":"levelo://app?vid=75df00d1-b79d-4514-b45c-0d363788a217"},"vehicle_type_id":"4","last_reported":1761808246,"current_range_meters":14800,"station_id":"ce4bhrh2rcd13ifvqhug","pricing_plan_id":"cebpf4jnsgd1na2vs0mg"},{"bike_id":"8b8cd37c-bd81-4d43-9b6a-2cf18a88e3f7","system_id":"levelo_inurba_marseille","lat":43.27204,"lon":5.39178,"is_reserved":false,"is_disabled":false,"rental_uris":{"android":"levelo://app?vid=8b8cd37c-bd81-4d43-9b6a-2cf18a88e3f7","ios":"levelo://app?vid=8b8cd37c-bd81-4d43-9b6a-2cf18a88e3f7"},"vehicle_type_id":"4","last_reported":1761808246,"current_range_meters":14800,"station_id":"ce4bhhp2rcd13ifvqfm0","pricing_plan_id":"cebpf4jnsgd1na2vs0mg"},{"bike_id":"69784158-23ce-4182-b68d-3b3e30a0474f","system_id":"levelo_inurba_marseille","lat":43.23777,"lon":5.36626,"is_reserved":false,"is_disabled":false,"rental_uris":{"android":"levelo://app?vid=69784158-23ce-4182-b68d-3b3e30a0474f","ios":"levelo://app?vid=69784158-23ce-4182-b68d-3b3e30a0474f"},"vehicle_type_id":"4","last_reported":1761808246,"current_range_meters":14800,"station_id":"st_d3nk18o9ro0c73en2l3g","pricing_plan_id":"cebpf4jnsgd1na2vs0mg"},{"bike_id":"9a47f147-cf75-4f32-8fd7-5af99662d3a5","system_id":"levelo_inurba_marseille","lat":43.25937,"lon":5.40903,"is_reserved":false,"is_disabled":false,"rental_uris":{"android":"levelo://app?vid=9a47f147-cf75-4f32-8fd7-5af99662d3a5","ios":"levelo://app?vid=9a47f147-cf75-4f32-8fd7-5af99662d3a5"},"vehicle_type_id":"4","last_reported":1761808246,"current_range_meters":14800,"station_id":"ce4bhm92rcd13ifvqglg","pricing_plan_id":"cebpf4jnsgd1na2vs0mg"},{"bike_id":"53b9ea54-1899-4571-ab75-8d3245809a5a","system_id":"levelo_inurba_marseille","lat":43.230603,"lon":5.35502,"is_reserved":false,"is_disabled":true,"rental_uris":{"android":"levelo://app?vid=53b9ea54-1899-4571-ab75-8d3245809a5a","ios":"levelo://app?vid=53b9ea54-1899-4571-ab75-8d3245809a5a"},"vehicle_type_id":"4","last_reported":1761808246,"current_range_meters":14800,"station_id":"cpo3342slgdg3j2ifvpg","pricing_plan_id":"cebpf4jnsgd1na2vs0mg"},{"bike_id":"0a24e2d9-3d16-4fe4-9b38-340a4b0850d4","system_id":"levelo_inurba_marseille","lat":43.28696,"lon":5.39981,"is_reserved":false,"is_disabled":false,"rental_uris":{"android":"levelo://app?vid=0a24e2d9-3d16-4fe4-9b38-340a4b0850d4","ios":"levelo://app?vid=0a24e2d9-3d16-4fe4-9b38-340a4b0850d4"},"vehicle_type_id":"4","last_reported":1761808246,"current_range_meters":14800,"station_id":"ce4bho92rcd13ifvqh3g","pricing_plan_id":"cebpf4jnsgd1na2vs0mg"},{"bike_id":"eb54eecd-18d3-428b-885d-73da37d3da86","system_id":"levelo_inurba_marseille","lat":43.3137,"lon":5.38495,"is_reserved":false,"is_disabled":false,"rental_uris":{"android":"levelo://app?vid=eb54eecd-18d3-428b-885d-73da37d3da86","ios":"levelo://app?vid=eb54eecd-18d3-428b-885d-73da37d3da86"},"vehicle_type_id":"4","last_reported":1761808246,"current_range_meters":15200,"station_id":"ce4bgt92rcd13ifvqcf0","pricing_plan_id":"cebpf4jnsgd1na2vs0mg"},{"bike_id":"777ff719-548c-48c7-aa40-fa024ed1effa","system_id":"levelo_inurba_marseille","lat":43.2858,"lon":5.39492,"is_reserved":false,"is_disabled":false,"rental_uris":{"android":"levelo://app?vid=777ff719-548c-48c7-aa40-fa024ed1effa","ios":"levelo://app?vid=777ff719-548c-48c7-aa40-fa024ed1effa"},"vehicle_type_id":"4","last_reported":1761808246,"current_range_meters":15200,"station_id":"ce4bh292rcd13ifvqdg0","pricing_plan_id":"cebpf4jnsgd1na2vs0mg"},{"bike_id":"868c9f67-46db-40c2-8054-2388a5f9841e","system_id":"levelo_inurba_marseille","lat":43.32359,"lon":5.36743,"is_reserved":false,"is_disabled":false,"rental_uris":{"android":"levelo://app?vid=868c9f67-46db-40c2-8054-2388a5f9841e","ios":"levelo://app?vid=868c9f67-46db-40c2-8054-2388a5f9841e"},"vehicle_type_id":"4","last_reported":1761808246,"current_range_meters":15200,"station_id":"ce4bhsh2rcd13ifvqi2g","pricing_plan_id":"cebpf4jnsgd1na2vs0mg"},{"bike_id":"38271bdc-29a6-475b-909c-e43ec5d3bc75","system_id":"levelo_inurba_marseille","lat":43.240669,"lon":5.377631,"is_reserved":false,"is_disabled":false,"rental_uris":{"android":"levelo://app?vid=38271bdc-29a6-475b-909c-e43ec5d3bc75","ios":"levelo://app?vid=38271bdc-29a6-475b-909c-e43ec5d3bc75"},"vehicle_type_id":"4","last_reported":1761808246,"current_range_meters":15200,"station_id":"ce4bhnp2rcd13ifvqgvg","pricing_plan_id":"cebpf4jnsgd1na2vs0mg"},{"bike_id":"fe558ef9-b17c-48a1-a5ed-0eedc149351e","system_id":"levelo_inurba_marseille","lat":43.253319,"lon":5.421666,"is_reserved":false,"is_disabled":false,"rental_uris":{"android":"levelo://app?vid=fe558ef9-b17c-48a1-a5ed-0eedc149351e","ios":"levelo://app?vid=fe558ef9-b17c-48a1-a5ed-0eedc149351e"},"vehicle_type_id":"4","last_reported":1761808246,"current_range_meters":16000,"station_id":"st_d2m65c5bi1j21697t3ng","pricing_plan_id":"cebpf4jnsgd1na2vs0mg"},{"bike_id":"3a499934-9140-435e-968f-fa10dd280f36","system_id":"levelo_inurba_marseille","lat":43.246397,"lon":5.431468,"is_reserved":false,"is_disabled":false,"rental_uris":{"android":"levelo://app?vid=3a499934-9140-435e-968f-fa10dd280f36","ios":"levelo://app?vid=3a499934-9140-435e-968f-fa10dd280f36"},"vehicle_type_id":"4","last_reported":1761808246,"current_range_meters":16000,"station_id":"st_d2m6c4gdas8pm72e190g","pricing_plan_id":"cebpf4jnsgd1na2vs0mg"},{"bike_id":"69ec8265-d991-49a2-81d7-afaddab5649b","system_id":"levelo_inurba_marseille","lat":43.29339,"lon":5.38658,"is_reserved":false,"is_disabled":false,"rental_uris":{"android":"levelo://app?vid=69ec8265-d991-49a2-81d7-afaddab5649b","ios":"levelo://app?vid=69ec8265-d991-49a2-81d7-afaddab5649b"},"vehicle_type_id":"4","last_reported":1761808246,"current_range_meters":16000,"station_id":"","pricing_plan_id":"cebpf4jnsgd1na2vs0mg"},{"bike_id":"0c003ebf-0f85-4149-8935-7c08c6a5cd23","system_id":"levelo_inurba_marseille","lat":43.24165,"lon":5.36398,"is_reserved":false,"is_disabled":false,"rental_uris":{"android":"levelo://app?vid=0c003ebf-0f85-4149-8935-7c08c6a5cd23","ios":"levelo://app?vid=0c003ebf-0f85-4149-8935-7c08c6a5cd23"},"vehicle_type_id":"4","last_reported":1761808246,"current_range_meters":16000,"station_id":"cpo36qri1sfpv3e86is0","pricing_plan_id":"cebpf4jnsgd1na2vs0mg"},{"bike_id":"a18dbf48-2c4d-4fa4-a4c5-c9871d73c9a0","system_id":"levelo_inurba_marseille","lat":43.301994,"lon":5.383462,"is_reserved":false,"is_disabled":false,"rental_uris":{"android":"levelo://app?vid=a18dbf48-2c4d-4fa4-a4c5-c9871d73c9a0","ios":"levelo://app?vid=a18dbf48-2c4d-4fa4-a4c5-c9871d73c9a0"},"vehicle_type_id":"4","last_reported":1761808246,"current_range_meters":16000,"station_id":"ce4bgup2rcd13ifvqcn0","pricing_plan_id":"cebpf4jnsgd1na2vs0mg"},{"bike_id":"15e2c5dd-bae1-46fb-906a-d29fa37d6e53","system_id":"levelo_inurba_marseille","lat":43.31325,"lon":5.37279,"is_reserved":false,"is_disabled":false,"rental_uris":{"android":"levelo://app?vid=15e2c5dd-bae1-46fb-906a-d29fa37d6e53","ios":"levelo://app?vid=15e2c5dd-bae1-46fb-906a-d29fa37d6e53"},"vehicle_type_id":"4","last_reported":1761808246,"current_range_meters":16000,"station_id":"","pricing_plan_id":"cebpf4jnsgd1na2vs0mg"},{"bike_id":"96264bbe-b6ae-4d3c-a33f-3ab6d9377db5","system_id":"levelo_inurba_marseille","lat":43.29929,"lon":5.36543,"is_reserved":false,"is_disabled":false,"rental_uris":{"android":"levelo://app?vid=96264bbe-b6ae-4d3c-a33f-3ab6d9377db5","ios":"levelo://app?vid=96264bbe-b6ae-4d3c-a33f-3ab6d9377db5"},"vehicle_type_id":"4","last_reported":1761808246,"current_range_meters":16000,"station_id":"ce4bgm92rcd13ifvqbr0","pricing_plan_id":"cebpf4jnsgd1na2vs0mg"},{"bike_id":"47515cc3-7999-4646-b140-9b73e932f5f5","system_id":"levelo_inurba_marseille","lat":43.33312,"lon":5.38466,"is_reserved":false,"is_disabled":false,"rental_uris":{"android":"levelo://app?vid=47515cc3-7999-4646-b140-9b73e932f5f5","ios":"levelo://app?vid=47515cc3-7999-4646-b140-9b73e932f5f5"},"vehicle_type_id":"4","last_reported":1761808246,"current_range_meters":16400,"station_id":"","pricing_plan_id":"cebpf4jnsgd1na2vs0mg"},{"bike_id":"dd35898a-5c1f-400e-a618-df35495e3447","system_id":"levelo_inurba_marseille","lat":43.27945,"lon":5.41055,"is_reserved":false,"is_disabled":false,"rental_uris":{"android":"levelo://app?vid=dd35898a-5c1f-400e-a618-df35495e3447","ios":"levelo://app?vid=dd35898a-5c1f-400e-a618-df35495e3447"},"vehicle_type_id":"4","last_reported":1761808246,"current_range_meters":16400,"station_id":"ce4bhnp2rcd13ifvqh0g","pricing_plan_id":"cebpf4jnsgd1na2vs0mg"},{"bike_id":"e5e47073-b275-4471-9b0a-2d27a646bfde","system_id":"levelo_inurba_marseille","lat":43.28273,"lon":5.35075,"is_reserved":false,"is_disabled":false,"rental_uris":{"android":"levelo://app?vid=e5e47073-b275-4471-9b0a-2d27a646bfde","ios":"levelo://app?vid=e5e47073-b275-4471-9b0a-2d27a646bfde"},"vehicle_type_id":"4","last_reported":1761808246,"current_range_meters":16400,"station_id":"ce4bhbp2rcd13ifvqerg","pricing_plan_id":"cebpf4jnsgd1na2vs0mg"},{"bike_id":"b250a777-4b8d-4104-8d4d-4cf432814998","system_id":"levelo_inurba_marseille","lat":43.293594,"lon":5.375967,"is_reserved":false,"is_disabled":false,"rental_uris":{"android":"levelo://app?vid=b250a777-4b8d-4104-8d4d-4cf432814998","ios":"levelo://app?vid=b250a777-4b8d-4104-8d4d-4cf432814998"},"vehicle_type_id":"4","last_reported":1761808246,"current_range_meters":16400,"station_id":"","pricing_plan_id":"cebpf4jnsgd1na2vs0mg"},{"bike_id":"8ff7698c-7e5c-4194-9f4c-b674091b39a8","system_id":"levelo_inurba_marseille","lat":43.279253,"lon":5.403897,"is_reserved":false,"is_disabled":false,"rental_uris":{"android":"levelo://app?vid=8ff7698c-7e5c-4194-9f4c-b674091b39a8","ios":"levelo://app?vid=8ff7698c-7e5c-4194-9f4c-b674091b39a8"},"vehicle_type_id":"4","last_reported":1761808246,"current_range_meters":16400,"station_id":"","pricing_plan_id":"cebpf4jnsgd1na2vs0mg"},{"bike_id":"e831e04e-6444-496e-8d49-ac226c63e0fb","system_id":"levelo_inurba_marseille","lat":43.24676,"lon":5.381724,"is_reserved":false,"is_disabled":false,"rental_uris":{"android":"levelo://app?vid=e831e04e-6444-496e-8d49-ac226c63e0fb","ios":"levelo://app?vid=e831e04e-6444-496e-8d49-ac226c63e0fb"},"vehicle_type_id":"4","last_reported":1761808246,"current_range_meters":16400,"station_id":"ce4bhih2rcd13ifvqfr0","pricing_plan_id":"cebpf4jnsgd1na2vs0mg"},{"bike_id":"a3be85a8-3026-4b14-88a9-fc9020d5df93","system_id":"levelo_inurba_marseille","lat":43.249486,"lon":5.404979,"is_reserved":false,"is_disabled":false,"rental_uris":{"android":"levelo://app?vid=a3be85a8-3026-4b14-88a9-fc9020d5df93","ios":"levelo://app?vid=a3be85a8-3026-4b14-88a9-fc9020d5df93"},"vehicle_type_id":"4","last_reported":1761808246,"current_range_meters":16400,"station_id":"st_d2ngiaodas8pm72gd1h0","pricing_plan_id":"cebpf4jnsgd1na2vs0mg"},{"bike_id":"03474086-ff8e-46e3-87e1-a24f0e6b47f0","system_id":"levelo_inurba_marseille","lat":43.24584,"lon":5.37483,"is_reserved":false,"is_disabled":false,"rental_uris":{"android":"levelo://app?vid=03474086-ff8e-46e3-87e1-a24f0e6b47f0","ios":"levelo://app?vid=03474086-ff8e-46e3-87e1-a24f0e6b47f0"},"vehicle_type_id":"4","last_reported":1761808246,"current_range_meters":16400,"station_id":"","pricing_plan_id":"cebpf4jnsgd1na2vs0mg"},{"bike_id":"4c45f3e6-22d5-42bb-a317-fb92a5d2691e","system_id":"levelo_inurba_marseille","lat":43.29032,"lon":5.39967,"is_reserved":false,"is_disabled":false,"rental_uris":{"android":"levelo://app?vid=4c45f3e6-22d5-42bb-a317-fb92a5d2691e","ios":"levelo://app?vid=4c45f3e6-22d5-42bb-a317-fb92a5d2691e"},"vehicle_type_id":"4","last_reported":1761808246,"current_range_meters":16400,"station_id":"ce4bh392rcd13ifvqdm0","pricing_plan_id":"cebpf4jnsgd1na2vs0mg"},{"bike_id":"9b93b5e1-c939-4745-bf85-2d21945442dc","system_id":"levelo_inurba_marseille","lat":43.29998,"lon":5.36397,"is_reserved":false,"is_disabled":false,"rental_uris":{"android":"levelo://app?vid=9b93b5e1-c939-4745-bf85-2d21945442dc","ios":"levelo://app?vid=9b93b5e1-c939-4745-bf85-2d21945442dc"},"vehicle_type_id":"4","last_reported":1761808246,"current_range_meters":16800,"station_id":"","pricing_plan_id":"cebpf4jnsgd1na2vs0mg"},{"bike_id":"bd561299-e0b5-4283-95aa-e008d593df59","system_id":"levelo_inurba_marseille","lat":43.298479,"lon":5.383489,"is_reserved":false,"is_disabled":false,"rental_uris":{"android":"levelo://app?vid=bd561299-e0b5-4283-95aa-e008d593df59","ios":"levelo://app?vid=bd561299-e0b5-4283-95aa-e008d593df59"},"vehicle_type_id":"4","last_reported":1761808246,"current_range_meters":16800,"station_id":"","pricing_plan_id":"cebpf4jnsgd1na2vs0mg"},{"bike_id":"a4f50802-f02a-4234-88ab-7f809defba91","system_id":"levelo_inurba_marseille","lat":43.27938,"lon":5.41047,"is_reserved":false,"is_disabled":false,"rental_uris":{"android":"levelo://app?vid=a4f50802-f02a-4234-88ab-7f809defba91","ios":"levelo://app?vid=a4f50802-f02a-4234-88ab-7f809defba91"},"vehicle_type_id":"4","last_reported":1761808246,"current_range_meters":16800,"station_id":"ce4bhnp2rcd13ifvqh0g","pricing_plan_id":"cebpf4jnsgd1na2vs0mg"},{"bike_id":"c898612d-5c77-478b-a9e4-9bb42a196f4e","system_id":"levelo_inurba_marseille","lat":43.330239,"lon":5.390495,"is_reserved":false,"is_disabled":false,"rental_uris":{"android":"levelo://app?vid=c898612d-5c77-478b-a9e4-9bb42a196f4e","ios":"levelo://app?vid=c898612d-5c77-478b-a9e4-9bb42a196f4e"},"vehicle_type_id":"4","last_reported":1761808246,"current_range_meters":16800,"station_id":"ce4bhr92rcd13ifvqhrg","pricing_plan_id":"cebpf4jnsgd1na2vs0mg"},{"bike_id":"fc4c86ba-a67d-4b95-9291-deea0443316f","system_id":"levelo_inurba_marseille","lat":43.30932,"lon":5.37181,"is_reserved":false,"is_disabled":false,"rental_uris":{"android":"levelo://app?vid=fc4c86ba-a67d-4b95-9291-deea0443316f","ios":"levelo://app?vid=fc4c86ba-a67d-4b95-9291-deea0443316f"},"vehicle_type_id":"4","last_reported":1761808246,"current_range_meters":17200,"station_id":"ce4bguh2rcd13ifvqckg","pricing_plan_id":"cebpf4jnsgd1na2vs0mg"},{"bike_id":"17798230-b1f4-4830-9e3a-109241f9c381","system_id":"levelo_inurba_marseille","lat":43.30015,"lon":5.40398,"is_reserved":false,"is_disabled":false,"rental_uris":{"android":"levelo://app?vid=17798230-b1f4-4830-9e3a-109241f9c381","ios":"levelo://app?vid=17798230-b1f4-4830-9e3a-109241f9c381"},"vehicle_type_id":"4","last_reported":1761808246,"current_range_meters":17200,"station_id":"","pricing_plan_id":"cebpf4jnsgd1na2vs0mg"},{"bike_id":"932ad1c2-4305-4dbf-ad9d-624ed36a7479","system_id":"levelo_inurba_marseille","lat":43.30107,"lon":5.38753,"is_reserved":false,"is_disabled":false,"rental_uris":{"android":"levelo://app?vid=932ad1c2-4305-4dbf-ad9d-624ed36a7479","ios":"levelo://app?vid=932ad1c2-4305-4dbf-ad9d-624ed36a7479"},"vehicle_type_id":"4","last_reported":1761808246,"current_range_meters":17200,"station_id":"","pricing_plan_id":"cebpf4jnsgd1na2vs0mg"},{"bike_id":"25b7b87e-0773-4b9d-98a0-7d1683e8729d","system_id":"levelo_inurba_marseille","lat":43.28703,"lon":5.39985,"is_reserved":false,"is_disabled":false,"rental_uris":{"android":"levelo://app?vid=25b7b87e-0773-4b9d-98a0-7d1683e8729d","ios":"levelo://app?vid=25b7b87e-0773-4b9d-98a0-7d1683e8729d"},"vehicle_type_id":"4","last_reported":1761808246,"current_range_meters":17200,"station_id":"ce4bho92rcd13ifvqh3g","pricing_plan_id":"cebpf4jnsgd1na2vs0mg"},{"bike_id":"fec296cc-e65e-4754-b5f2-31966aaee0d3","system_id":"levelo_inurba_marseille","lat":43.24638,"lon":5.38897,"is_reserved":false,"is_disabled":false,"rental_uris":{"android":"levelo://app?vid=fec296cc-e65e-4754-b5f2-31966aaee0d3","ios":"levelo://app?vid=fec296cc-e65e-4754-b5f2-31966aaee0d3"},"vehicle_type_id":"4","last_reported":1761808246,"current_range_meters":17200,"station_id":"ce4bhg12rcd13ifvqf60","pricing_plan_id":"cebpf4jnsgd1na2vs0mg"},{"bike_id":"6847a61d-2205-4b0e-b4ad-daa107c05850","system_id":"levelo_inurba_marseille","lat":43.26192,"lon":5.374517,"is_reserved":false,"is_disabled":false,"rental_uris":{"android":"levelo://app?vid=6847a61d-2205-4b0e-b4ad-daa107c05850","ios":"levelo://app?vid=6847a61d-2205-4b0e-b4ad-daa107c05850"},"vehicle_type_id":"4","last_reported":1761808246,"current_range_meters":17200,"station_id":"ce4bhgp2rcd13ifvqfc0","pricing_plan_id":"cebpf4jnsgd1na2vs0mg"},{"bike_id":"667a4a8e-bd76-4fb1-b40f-6d82b3d1d948","system_id":"levelo_inurba_marseille","lat":43.31756,"lon":5.39002,"is_reserved":false,"is_disabled":false,"rental_uris":{"android":"levelo://app?vid=667a4a8e-bd76-4fb1-b40f-6d82b3d1d948","ios":"levelo://app?vid=667a4a8e-bd76-4fb1-b40f-6d82b3d1d948"},"vehicle_type_id":"4","last_reported":1761808246,"current_range_meters":17200,"station_id":"ce4bhqp2rcd13ifvqhng","pricing_plan_id":"cebpf4jnsgd1na2vs0mg"},{"bike_id":"52a753d3-3ac4-4caa-88bc-c038122b2bbb","system_id":"levelo_inurba_marseille","lat":43.26227,"lon":5.4045,"is_reserved":false,"is_disabled":false,"rental_uris":{"android":"levelo://app?vid=52a753d3-3ac4-4caa-88bc-c038122b2bbb","ios":"levelo://app?vid=52a753d3-3ac4-4caa-88bc-c038122b2bbb"},"vehicle_type_id":"4","last_reported":1761808246,"current_range_meters":17200,"station_id":"ce4bhmh2rcd13ifvqgmg","pricing_plan_id":"cebpf4jnsgd1na2vs0mg"},{"bike_id":"28bedbc9-dec5-4da8-875a-ffa9fb413e53","system_id":"levelo_inurba_marseille","lat":43.326569,"lon":5.409956,"is_reserved":false,"is_disabled":false,"rental_uris":{"android":"levelo://app?vid=28bedbc9-dec5-4da8-875a-ffa9fb413e53","ios":"levelo://app?vid=28bedbc9-dec5-4da8-875a-ffa9fb413e53"},"vehicle_type_id":"4","last_reported":1761808246,"current_range_meters":17200,"station_id":"ce4bhpp2rcd13ifvqhgg","pricing_plan_id":"cebpf4jnsgd1na2vs0mg"},{"bike_id":"2fd86c53-d195-4ab3-a5e6-984f6c0f4c38","system_id":"levelo_inurba_marseille","lat":43.26561,"lon":5.3731,"is_reserved":false,"is_disabled":false,"rental_uris":{"android":"levelo://app?vid=2fd86c53-d195-4ab3-a5e6-984f6c0f4c38","ios":"levelo://app?vid=2fd86c53-d195-4ab3-a5e6-984f6c0f4c38"},"vehicle_type_id":"4","last_reported":1761808246,"current_range_meters":17600,"station_id":"ce4bhg12rcd13ifvqf70","pricing_plan_id":"cebpf4jnsgd1na2vs0mg"},{"bike_id":"3e015a0c-489b-4c11-be52-20f33a65c819","system_id":"levelo_inurba_marseille","lat":43.33031,"lon":5.39242,"is_reserved":false,"is_disabled":false,"rental_uris":{"android":"levelo://app?vid=3e015a0c-489b-4c11-be52-20f33a65c819","ios":"levelo://app?vid=3e015a0c-489b-4c11-be52-20f33a65c819"},"vehicle_type_id":"4","last_reported":1761808246,"current_range_meters":17600,"station_id":"","pricing_plan_id":"cebpf4jnsgd1na2vs0mg"},{"bike_id":"b42419cb-e4e7-4368-90a5-d65b599e764e","system_id":"levelo_inurba_marseille","lat":43.28621,"lon":5.35118,"is_reserved":false,"is_disabled":false,"rental_uris":{"android":"levelo://app?vid=b42419cb-e4e7-4368-90a5-d65b599e764e","ios":"levelo://app?vid=b42419cb-e4e7-4368-90a5-d65b599e764e"},"vehicle_type_id":"4","last_reported":1761808246,"current_range_meters":17600,"station_id":"ce4bhch2rcd13ifvqeug","pricing_plan_id":"cebpf4jnsgd1na2vs0mg"},{"bike_id":"bd13818b-bec7-4fc9-8845-8cfa877a54dd","system_id":"levelo_inurba_marseille","lat":43.287266,"lon":5.360781,"is_reserved":false,"is_disabled":false,"rental_uris":{"android":"levelo://app?vid=bd13818b-bec7-4fc9-8845-8cfa877a54dd","ios":"levelo://app?vid=bd13818b-bec7-4fc9-8845-8cfa877a54dd"},"vehicle_type_id":"4","last_reported":1761808246,"current_range_meters":17600,"station_id":"cki0cbj6b192h4jlfktg","pricing_plan_id":"cebpf4jnsgd1na2vs0mg"},{"bike_id":"a24d557a-67d1-453d-8497-fdbe1e9e58db","system_id":"levelo_inurba_marseille","lat":43.24636,"lon":5.38178,"is_reserved":false,"is_disabled":false,"rental_uris":{"android":"levelo://app?vid=a24d557a-67d1-453d-8497-fdbe1e9e58db","ios":"levelo://app?vid=a24d557a-67d1-453d-8497-fdbe1e9e58db"},"vehicle_type_id":"4","last_reported":1761808246,"current_range_meters":17600,"station_id":"ce4bhih2rcd13ifvqfr0","pricing_plan_id":"cebpf4jnsgd1na2vs0mg"},{"bike_id":"cba6a587-6064-4dbf-9494-df34d855fc0b","system_id":"levelo_inurba_marseille","lat":43.25113,"lon":5.4033,"is_reserved":false,"is_disabled":false,"rental_uris":{"android":"levelo://app?vid=cba6a587-6064-4dbf-9494-df34d855fc0b","ios":"levelo://app?vid=cba6a587-6064-4dbf-9494-df34d855fc0b"},"vehicle_type_id":"4","last_reported":1761808246,"current_range_meters":17600,"station_id":"ce4bhlh2rcd13ifvqgig","pricing_plan_id":"cebpf4jnsgd1na2vs0mg"},{"bike_id":"88327406-ba65-4ce0-831c-3da476dbb691","system_id":"levelo_inurba_marseille","lat":43.23757,"lon":5.36609,"is_reserved":false,"is_disabled":false,"rental_uris":{"android":"levelo://app?vid=88327406-ba65-4ce0-831c-3da476dbb691","ios":"levelo://app?vid=88327406-ba65-4ce0-831c-3da476dbb691"},"vehicle_type_id":"4","last_reported":1761808246,"current_range_meters":18000,"station_id":"st_d3nk18o9ro0c73en2l3g","pricing_plan_id":"cebpf4jnsgd1na2vs0mg"},{"bike_id":"76716ed3-f126-4ae8-aba6-3af13511933e","system_id":"levelo_inurba_marseille","lat":43.29038,"lon":5.35918,"is_reserved":false,"is_disabled":false,"rental_uris":{"android":"levelo://app?vid=76716ed3-f126-4ae8-aba6-3af13511933e","ios":"levelo://app?vid=76716ed3-f126-4ae8-aba6-3af13511933e"},"vehicle_type_id":"4","last_reported":1761808246,"current_range_meters":18000,"station_id":"ce4bha92rcd13ifvqeg0","pricing_plan_id":"cebpf4jnsgd1na2vs0mg"},{"bike_id":"9852e0a1-4995-4628-84f2-0d56389f5aef","system_id":"levelo_inurba_marseille","lat":43.33301,"lon":5.3848,"is_reserved":false,"is_disabled":false,"rental_uris":{"android":"levelo://app?vid=9852e0a1-4995-4628-84f2-0d56389f5aef","ios":"levelo://app?vid=9852e0a1-4995-4628-84f2-0d56389f5aef"},"vehicle_type_id":"4","last_reported":1761808246,"current_range_meters":18000,"station_id":"","pricing_plan_id":"cebpf4jnsgd1na2vs0mg"},{"bike_id":"1904b823-872a-4a74-8cf4-493a7f4ccf3a","system_id":"levelo_inurba_marseille","lat":43.29246,"lon":5.38455,"is_reserved":false,"is_disabled":true,"rental_uris":{"android":"levelo://app?vid=1904b823-872a-4a74-8cf4-493a7f4ccf3a","ios":"levelo://app?vid=1904b823-872a-4a74-8cf4-493a7f4ccf3a"},"vehicle_type_id":"4","last_reported":1761808246,"current_range_meters":18000,"station_id":"ce4bh692rcd13ifvqea0","pricing_plan_id":"cebpf4jnsgd1na2vs0mg"},{"bike_id":"0137dec7-abd2-4bb1-984c-0ba5484bca3b","system_id":"levelo_inurba_marseille","lat":43.33745,"lon":5.3744,"is_reserved":false,"is_disabled":false,"rental_uris":{"android":"levelo://app?vid=0137dec7-abd2-4bb1-984c-0ba5484bca3b","ios":"levelo://app?vid=0137dec7-abd2-4bb1-984c-0ba5484bca3b"},"vehicle_type_id":"4","last_reported":1761808246,"current_range_meters":18000,"station_id":"","pricing_plan_id":"cebpf4jnsgd1na2vs0mg"},{"bike_id":"216e46ca-be00-4e8e-a1e1-fb94531ee1ae","system_id":"levelo_inurba_marseille","lat":43.29559,"lon":5.42273,"is_reserved":false,"is_disabled":true,"rental_uris":{"android":"levelo://app?vid=216e46ca-be00-4e8e-a1e1-fb94531ee1ae","ios":"levelo://app?vid=216e46ca-be00-4e8e-a1e1-fb94531ee1ae"},"vehicle_type_id":"4","last_reported":1761808246,"current_range_meters":18800,"station_id":"ce4bhph2rcd13ifvqhdg","pricing_plan_id":"cebpf4jnsgd1na2vs0mg"},{"bike_id":"020689f1-1064-4ab1-84eb-2e5412484677","system_id":"levelo_inurba_marseille","lat":43.23141,"lon":5.43733,"is_reserved":false,"is_disabled":false,"rental_uris":{"android":"levelo://app?vid=020689f1-1064-4ab1-84eb-2e5412484677","ios":"levelo://app?vid=020689f1-1064-4ab1-84eb-2e5412484677"},"vehicle_type_id":"4","last_reported":1761808246,"current_range_meters":18800,"station_id":"ce4bhmp2rcd13ifvqgog","pricing_plan_id":"cebpf4jnsgd1na2vs0mg"},{"bike_id":"e88e7c0e-39ae-4a70-b025-d145d03c2069","system_id":"levelo_inurba_marseille","lat":43.29263,"lon":5.38438,"is_reserved":false,"is_disabled":false,"rental_uris":{"android":"levelo://app?vid=e88e7c0e-39ae-4a70-b025-d145d03c2069","ios":"levelo://app?vid=e88e7c0e-39ae-4a70-b025-d145d03c2069"},"vehicle_type_id":"4","last_reported":1761808246,"current_range_meters":18800,"station_id":"ce4bh692rcd13ifvqea0","pricing_plan_id":"cebpf4jnsgd1na2vs0mg"},{"bike_id":"48006ef3-d26d-4d00-8591-e011a08a9d8f","system_id":"levelo_inurba_marseille","lat":43.281035,"lon":5.378475,"is_reserved":false,"is_disabled":false,"rental_uris":{"android":"levelo://app?vid=48006ef3-d26d-4d00-8591-e011a08a9d8f","ios":"levelo://app?vid=48006ef3-d26d-4d00-8591-e011a08a9d8f"},"vehicle_type_id":"4","last_reported":1761808246,"current_range_meters":18800,"station_id":"ce4bha12rcd13ifvqee0","pricing_plan_id":"cebpf4jnsgd1na2vs0mg"},{"bike_id":"e4294533-f6db-4a5e-a15f-f4e7213a95b1","system_id":"levelo_inurba_marseille","lat":43.29025,"lon":5.39977,"is_reserved":false,"is_disabled":false,"rental_uris":{"android":"levelo://app?vid=e4294533-f6db-4a5e-a15f-f4e7213a95b1","ios":"levelo://app?vid=e4294533-f6db-4a5e-a15f-f4e7213a95b1"},"vehicle_type_id":"4","last_reported":1761808246,"current_range_meters":18800,"station_id":"ce4bh392rcd13ifvqdm0","pricing_plan_id":"cebpf4jnsgd1na2vs0mg"},{"bike_id":"a2b3ec9b-f519-4f50-882f-dd11ba22cf35","system_id":"levelo_inurba_marseille","lat":43.29624,"lon":5.37711,"is_reserved":false,"is_disabled":false,"rental_uris":{"android":"levelo://app?vid=a2b3ec9b-f519-4f50-882f-dd11ba22cf35","ios":"levelo://app?vid=a2b3ec9b-f519-4f50-882f-dd11ba22cf35"},"vehicle_type_id":"4","last_reported":1761808246,"current_range_meters":18800,"station_id":"ce4bgi92rcd13ifvqb90","pricing_plan_id":"cebpf4jnsgd1na2vs0mg"},{"bike_id":"05a47c24-c74d-4482-aade-5974399cb310","system_id":"levelo_inurba_marseille","lat":43.29606,"lon":5.37672,"is_reserved":false,"is_disabled":false,"rental_uris":{"android":"levelo://app?vid=05a47c24-c74d-4482-aade-5974399cb310","ios":"levelo://app?vid=05a47c24-c74d-4482-aade-5974399cb310"},"vehicle_type_id":"4","last_reported":1761808246,"current_range_meters":18800,"station_id":"ce4bgi92rcd13ifvqb90","pricing_plan_id":"cebpf4jnsgd1na2vs0mg"},{"bike_id":"09771819-2ec1-485a-975e-019748d2f642","system_id":"levelo_inurba_marseille","lat":43.27939,"lon":5.41048,"is_reserved":false,"is_disabled":false,"rental_uris":{"android":"levelo://app?vid=09771819-2ec1-485a-975e-019748d2f642","ios":"levelo://app?vid=09771819-2ec1-485a-975e-019748d2f642"},"vehicle_type_id":"4","last_reported":1761808246,"current_range_meters":18800,"station_id":"ce4bhnp2rcd13ifvqh0g","pricing_plan_id":"cebpf4jnsgd1na2vs0mg"},{"bike_id":"1d16d20a-dbf1-4a69-8537-89211ea34b71","system_id":"levelo_inurba_marseille","lat":43.31268,"lon":5.37834,"is_reserved":false,"is_disabled":false,"rental_uris":{"android":"levelo://app?vid=1d16d20a-dbf1-4a69-8537-89211ea34b71","ios":"levelo://app?vid=1d16d20a-dbf1-4a69-8537-89211ea34b71"},"vehicle_type_id":"4","last_reported":1761808246,"current_range_meters":18800,"station_id":"","pricing_plan_id":"cebpf4jnsgd1na2vs0mg"},{"bike_id":"e5007143-0a21-4c85-a988-fb2101930b94","system_id":"levelo_inurba_marseille","lat":43.24076,"lon":5.3776,"is_reserved":false,"is_disabled":false,"rental_uris":{"android":"levelo://app?vid=e5007143-0a21-4c85-a988-fb2101930b94","ios":"levelo://app?vid=e5007143-0a21-4c85-a988-fb2101930b94"},"vehicle_type_id":"4","last_reported":1761808246,"current_range_meters":18800,"station_id":"ce4bhnp2rcd13ifvqgvg","pricing_plan_id":"cebpf4jnsgd1na2vs0mg"},{"bike_id":"f6e41c21-0e74-476c-8273-8a6a7b44e6bc","system_id":"levelo_inurba_marseille","lat":43.30758,"lon":5.42464,"is_reserved":false,"is_disabled":false,"rental_uris":{"android":"levelo://app?vid=f6e41c21-0e74-476c-8273-8a6a7b44e6bc","ios":"levelo://app?vid=f6e41c21-0e74-476c-8273-8a6a7b44e6bc"},"vehicle_type_id":"4","last_reported":1761808246,"current_range_meters":18800,"station_id":"st_cvj6ca6bvosntc0bfgr0","pricing_plan_id":"cebpf4jnsgd1na2vs0mg"},{"bike_id":"b3145fb6-fafb-4029-a4fc-58fd96331a6b","system_id":"levelo_inurba_marseille","lat":43.30593,"lon":5.39364,"is_reserved":false,"is_disabled":true,"rental_uris":{"android":"levelo://app?vid=b3145fb6-fafb-4029-a4fc-58fd96331a6b","ios":"levelo://app?vid=b3145fb6-fafb-4029-a4fc-58fd96331a6b"},"vehicle_type_id":"4","last_reported":1761808246,"current_range_meters":19200,"station_id":"ce4bh0p2rcd13ifvqd80","pricing_plan_id":"cebpf4jnsgd1na2vs0mg"},{"bike_id":"642bad72-e6ed-42ad-9ec9-3ea8edd380a1","system_id":"levelo_inurba_marseille","lat":43.296021,"lon":5.381087,"is_reserved":false,"is_disabled":false,"rental_uris":{"android":"levelo://app?vid=642bad72-e6ed-42ad-9ec9-3ea8edd380a1","ios":"levelo://app?vid=642bad72-e6ed-42ad-9ec9-3ea8edd380a1"},"vehicle_type_id":"4","last_reported":1761808246,"current_range_meters":19200,"station_id":"ce4bgl12rcd13ifvqbo0","pricing_plan_id":"cebpf4jnsgd1na2vs0mg"},{"bike_id":"f80a0055-c873-4e76-98bc-f952a6f624c9","system_id":"levelo_inurba_marseille","lat":43.27931,"lon":5.41078,"is_reserved":false,"is_disabled":false,"rental_uris":{"android":"levelo://app?vid=f80a0055-c873-4e76-98bc-f952a6f624c9","ios":"levelo://app?vid=f80a0055-c873-4e76-98bc-f952a6f624c9"},"vehicle_type_id":"4","last_reported":1761808246,"current_range_meters":19200,"station_id":"ce4bhnp2rcd13ifvqh0g","pricing_plan_id":"cebpf4jnsgd1na2vs0mg"},{"bike_id":"cc221443-ff27-4eb4-8db7-6ec13cb296d2","system_id":"levelo_inurba_marseille","lat":43.285345,"lon":5.441009,"is_reserved":false,"is_disabled":false,"rental_uris":{"android":"levelo://app?vid=cc221443-ff27-4eb4-8db7-6ec13cb296d2","ios":"levelo://app?vid=cc221443-ff27-4eb4-8db7-6ec13cb296d2"},"vehicle_type_id":"4","last_reported":1761808246,"current_range_meters":19200,"station_id":"st_d3j3df2ikq2c7380ej80","pricing_plan_id":"cebpf4jnsgd1na2vs0mg"},{"bike_id":"ac054415-4e37-4567-b95e-73970b5e64bc","system_id":"levelo_inurba_marseille","lat":43.32492,"lon":5.36585,"is_reserved":false,"is_disabled":false,"rental_uris":{"android":"levelo://app?vid=ac054415-4e37-4567-b95e-73970b5e64bc","ios":"levelo://app?vid=ac054415-4e37-4567-b95e-73970b5e64bc"},"vehicle_type_id":"4","last_reported":1761808246,"current_range_meters":19200,"station_id":"ce4bhs12rcd13ifvqhvg","pricing_plan_id":"cebpf4jnsgd1na2vs0mg"},{"bike_id":"b8f404d3-62c4-4489-a471-d37212346558","system_id":"levelo_inurba_marseille","lat":43.310471,"lon":5.378785,"is_reserved":false,"is_disabled":false,"rental_uris":{"android":"levelo://app?vid=b8f404d3-62c4-4489-a471-d37212346558","ios":"levelo://app?vid=b8f404d3-62c4-4489-a471-d37212346558"},"vehicle_type_id":"4","last_reported":1761808246,"current_range_meters":19200,"station_id":"","pricing_plan_id":"cebpf4jnsgd1na2vs0mg"},{"bike_id":"2b72f986-4836-459b-ba8b-0f7729a1c7de","system_id":"levelo_inurba_marseille","lat":43.30918,"lon":5.40183,"is_reserved":false,"is_disabled":false,"rental_uris":{"android":"levelo://app?vid=2b72f986-4836-459b-ba8b-0f7729a1c7de","ios":"levelo://app?vid=2b72f986-4836-459b-ba8b-0f7729a1c7de"},"vehicle_type_id":"4","last_reported":1761808246,"current_range_meters":19200,"station_id":"ce4bgvp2rcd13ifvqct0","pricing_plan_id":"cebpf4jnsgd1na2vs0mg"},{"bike_id":"32a35b9b-6aca-4b70-9bd2-e6acde4ddbcc","system_id":"levelo_inurba_marseille","lat":43.22933,"lon":5.35383,"is_reserved":false,"is_disabled":false,"rental_uris":{"android":"levelo://app?vid=32a35b9b-6aca-4b70-9bd2-e6acde4ddbcc","ios":"levelo://app?vid=32a35b9b-6aca-4b70-9bd2-e6acde4ddbcc"},"vehicle_type_id":"4","last_reported":1761808246,"current_range_meters":19200,"station_id":"cpo3532slgdg3j2ikp40","pricing_plan_id":"cebpf4jnsgd1na2vs0mg"},{"bike_id":"9eebcbf9-622f-4e01-9407-960fbde43ed9","system_id":"levelo_inurba_marseille","lat":43.295957,"lon":5.380967,"is_reserved":false,"is_disabled":false,"rental_uris":{"android":"levelo://app?vid=9eebcbf9-622f-4e01-9407-960fbde43ed9","ios":"levelo://app?vid=9eebcbf9-622f-4e01-9407-960fbde43ed9"},"vehicle_type_id":"4","last_reported":1761808246,"current_range_meters":19600,"station_id":"","pricing_plan_id":"cebpf4jnsgd1na2vs0mg"},{"bike_id":"31bb2618-d2cf-4569-a501-3dbb3dadc507","system_id":"levelo_inurba_marseille","lat":43.30306,"lon":5.39204,"is_reserved":false,"is_disabled":false,"rental_uris":{"android":"levelo://app?vid=31bb2618-d2cf-4569-a501-3dbb3dadc507","ios":"levelo://app?vid=31bb2618-d2cf-4569-a501-3dbb3dadc507"},"vehicle_type_id":"4","last_reported":1761808246,"current_range_meters":19600,"station_id":"ce4bgkh2rcd13ifvqbk0","pricing_plan_id":"cebpf4jnsgd1na2vs0mg"},{"bike_id":"a4dac4fa-66e6-48be-a654-6e17cdc7ca0b","system_id":"levelo_inurba_marseille","lat":43.337571,"lon":5.374323,"is_reserved":false,"is_disabled":false,"rental_uris":{"android":"levelo://app?vid=a4dac4fa-66e6-48be-a654-6e17cdc7ca0b","ios":"levelo://app?vid=a4dac4fa-66e6-48be-a654-6e17cdc7ca0b"},"vehicle_type_id":"4","last_reported":1761808246,"current_range_meters":19600,"station_id":"","pricing_plan_id":"cebpf4jnsgd1na2vs0mg"},{"bike_id":"d1067135-22f7-4c31-81b5-6cefa9c2ae8b","system_id":"levelo_inurba_marseille","lat":43.30905,"lon":5.40157,"is_reserved":false,"is_disabled":false,"rental_uris":{"android":"levelo://app?vid=d1067135-22f7-4c31-81b5-6cefa9c2ae8b","ios":"levelo://app?vid=d1067135-22f7-4c31-81b5-6cefa9c2ae8b"},"vehicle_type_id":"4","last_reported":1761808246,"current_range_meters":19600,"station_id":"ce4bgvp2rcd13ifvqct0","pricing_plan_id":"cebpf4jnsgd1na2vs0mg"},{"bike_id":"12a94fa6-8ea5-4e89-a550-82d76baf1848","system_id":"levelo_inurba_marseille","lat":43.23188,"lon":5.39997,"is_reserved":false,"is_disabled":false,"rental_uris":{"android":"levelo://app?vid=12a94fa6-8ea5-4e89-a550-82d76baf1848","ios":"levelo://app?vid=12a94fa6-8ea5-4e89-a550-82d76baf1848"},"vehicle_type_id":"4","last_reported":1761808246,"current_range_meters":19600,"station_id":"ce4bhn12rcd13ifvqgqg","pricing_plan_id":"cebpf4jnsgd1na2vs0mg"},{"bike_id":"20c1c26d-be2a-4cac-8028-038f5ffc2f00","system_id":"levelo_inurba_marseille","lat":43.29267,"lon":5.36847,"is_reserved":false,"is_disabled":true,"rental_uris":{"android":"levelo://app?vid=20c1c26d-be2a-4cac-8028-038f5ffc2f00","ios":"levelo://app?vid=20c1c26d-be2a-4cac-8028-038f5ffc2f00"},"vehicle_type_id":"4","last_reported":1761808246,"current_range_meters":19600,"station_id":"ce4bhbp2rcd13ifvqesg","pricing_plan_id":"cebpf4jnsgd1na2vs0mg"},{"bike_id":"b22c42ff-4285-4504-9e58-c6df4a616eed","system_id":"levelo_inurba_marseille","lat":43.30858,"lon":5.37212,"is_reserved":false,"is_disabled":false,"rental_uris":{"android":"levelo://app?vid=b22c42ff-4285-4504-9e58-c6df4a616eed","ios":"levelo://app?vid=b22c42ff-4285-4504-9e58-c6df4a616eed"},"vehicle_type_id":"4","last_reported":1761808246,"current_range_meters":19600,"station_id":"","pricing_plan_id":"cebpf4jnsgd1na2vs0mg"},{"bike_id":"1ce2f7f5-8859-45c2-b214-629945731c97","system_id":"levelo_inurba_marseille","lat":43.33775,"lon":5.37472,"is_reserved":false,"is_disabled":false,"rental_uris":{"android":"levelo://app?vid=1ce2f7f5-8859-45c2-b214-629945731c97","ios":"levelo://app?vid=1ce2f7f5-8859-45c2-b214-629945731c97"},"vehicle_type_id":"4","last_reported":1761808246,"current_range_meters":19600,"station_id":"","pricing_plan_id":"cebpf4jnsgd1na2vs0mg"},{"bike_id":"f7986849-5488-47e8-b8c2-0ebfdf9d8390","system_id":"levelo_inurba_marseille","lat":43.24672,"lon":5.38171,"is_reserved":false,"is_disabled":false,"rental_uris":{"android":"levelo://app?vid=f7986849-5488-47e8-b8c2-0ebfdf9d8390","ios":"levelo://app?vid=f7986849-5488-47e8-b8c2-0ebfdf9d8390"},"vehicle_type_id":"4","last_reported":1761808246,"current_range_meters":19600,"station_id":"ce4bhih2rcd13ifvqfr0","pricing_plan_id":"cebpf4jnsgd1na2vs0mg"},{"bike_id":"1f4a1c41-d8fc-4176-a959-968b068c3d04","system_id":"levelo_inurba_marseille","lat":43.264363,"lon":5.393067,"is_reserved":false,"is_disabled":true,"rental_uris":{"android":"levelo://app?vid=1f4a1c41-d8fc-4176-a959-968b068c3d04","ios":"levelo://app?vid=1f4a1c41-d8fc-4176-a959-968b068c3d04"},"vehicle_type_id":"4","last_reported":1761808246,"current_range_meters":19600,"station_id":"","pricing_plan_id":"cebpf4jnsgd1na2vs0mg"},{"bike_id":"adf368df-4068-4830-b26c-cdf061c41096","system_id":"levelo_inurba_marseille","lat":43.31333,"lon":5.36712,"is_reserved":false,"is_disabled":false,"rental_uris":{"android":"levelo://app?vid=adf368df-4068-4830-b26c-cdf061c41096","ios":"levelo://app?vid=adf368df-4068-4830-b26c-cdf061c41096"},"vehicle_type_id":"4","last_reported":1761808246,"current_range_meters":20000,"station_id":"ce4bgr92rcd13ifvqc6g","pricing_plan_id":"cebpf4jnsgd1na2vs0mg"},{"bike_id":"48d3b96f-8416-4329-ac85-a1ebb32987c2","system_id":"levelo_inurba_marseille","lat":43.276635,"lon":5.388816,"is_reserved":false,"is_disabled":false,"rental_uris":{"android":"levelo://app?vid=48d3b96f-8416-4329-ac85-a1ebb32987c2","ios":"levelo://app?vid=48d3b96f-8416-4329-ac85-a1ebb32987c2"},"vehicle_type_id":"4","last_reported":1761808246,"current_range_meters":20000,"station_id":"ce4bhi12rcd13ifvqfo0","pricing_plan_id":"cebpf4jnsgd1na2vs0mg"},