{"last_updated":1743123016,"ttl":60,"version":"2.2","data":{"bikes":[{"bike_id":"9233b18c-c550-4d9b-bef1-8690e70b9c83","system_id":"levelo_inurba_marseille","lat":43.2998,"lon":5.37174,"is_reserved":false,"is_disabled":false,"rental_uris":{"android":"levelo://app?vid=9233b18c-c550-4d9b-bef1-8690e70b9c83","ios":"levelo://app?vid=9233b18c-c550-4d9b-bef1-8690e70b9c83"},"vehicle_type_id":"4","last_reported":1743123016,"current_range_meters":2800,"station_id":"ce4bgr92rcd13ifvqc7g","pricing_plan_id":"cebpf4jnsgd1na2vs0mg"},{"bike_id":"8ed22674-ee6f-4295-82f9-802e266ce37f","system_id":"levelo_inurba_marseille","lat":43.279987,"lon":5.400077,"is_reserved":false,"is_disabled":false,"rental_uris":{"android":"levelo://app?vid=8ed22674-ee6f-4295-82f9-802e266ce37f","ios":"levelo://app?vid=8ed22674-ee6f-4295-82f9-802e266ce37f"},"vehicle_type_id":"4","last_reported":1743123016,"current_range_meters":2800,"station_id":"ce4bho92rcd13ifvqh4g","pricing_plan_id":"cebpf4jnsgd1na2vs0mg"},{"bike_id":"14c89bea-87f4-4ed5-8da1-8e07e34be293","system_id":"levelo_inurba_marseille","lat":43.2992,"lon":5.37123,"is_reserved":false,"is_disabled":false,"rental_uris":{"android":"levelo://app?vid=14c89bea-87f4-4ed5-8da1-8e07e34be293","ios":"levelo://app?vid=14c89bea-87f4-4ed5-8da1-8e07e34be293"},"vehicle_type_id":"4","last_reported":1743123016,"current_range_meters":2800,"station_id":"","pricing_plan_id":"cebpf4jnsgd1na2vs0mg"},{"bike_id":"88389ca4-fffc-4a82-ba2c-026702e49109","system_id":"levelo_inurba_marseille","lat":43.29195,"lon":5.358,"is_reserved":false,"is_disabled":false,"rental_uris":{"android":"levelo://app?vid=88389ca4-fffc-4a82-ba2c-026702e49109","ios":"levelo://app?vid=88389ca4-fffc-4a82-ba2c-026702e49109"},"vehicle_type_id":"4","last_reported":1743123016,"current_range_meters":2800,"station_id":"ce4bhb12rcd13ifvqel0","pricing_plan_id":"cebpf4jnsgd1na2vs0mg"},{"bike_id":"5e187ad1-bb14-42e5-8f54-b13a2f1781e9","system_id":"levelo_inurba_marseille","lat":43.29262,"lon":5.38439,"is_reserved":false,"is_disabled":true,"rental_uris":{"android":"levelo://app?vid=5e187ad1-bb14-42e5-8f54-b13a2f1781e9","ios":"levelo://app?vid=5e187ad1-bb14-42e5-8f54-b13a2f1781e9"},"vehicle_type_id":"4","last_reported":1743123016,"current_range_meters":3200,"station_id":"ce4bh692rcd13ifvqea0","pricing_plan_id":"cebpf4jnsgd1na2vs0mg"},{"bike_id":"a3e6f248-b75b-40dc-9ce0-a569e7377691","system_id":"levelo_inurba_marseille","lat":43.25933,"lon":5.40897,"is_reserved":false,"is_disabled":true,"rental_uris":{"android":"levelo://app?vid=a3e6f248-b75b-40dc-9ce0-a569e7377691","ios":"levelo://app?vid=a3e6f248-b75b-40dc-9ce0-a569e7377691"},"vehicle_type_id":"4","last_reported":1743123016,"current_range_meters":3200,"station_id":"ce4bhm92rcd13ifvqglg","pricing_plan_id":"cebpf4jnsgd1na2vs0mg"},{"bike_id":"380e9f45-01d5-4ebd-ae1f-a7d98a8f6dc2","system_id":"levelo_inurba_marseille","lat":43.27908,"lon":5.37993,"is_reserved":false,"is_disabled":false,"rental_uris":{"android":"levelo://app?vid=380e9f45-01d5-4ebd-ae1f-a7d98a8f6dc2","ios":"levelo://app?vid=380e9f45-01d5-4ebd-ae1f-a7d98a8f6dc2"},"vehicle_type_id":"4","last_reported":1743123016,"current_range_meters":3200,"station_id":"ce4bhf92rcd13ifvqf50","pricing_plan_id":"cebpf4jnsgd1na2vs0mg"},{"bike_id":"99efc1f2-d62d-419c-a0db-cfaadfa06cd6","system_id":"levelo_inurba_marseille","lat":43.23198,"lon":5.3999,"is_reserved":false,"is_disabled":false,"rental_uris":{"android":"levelo://app?vid=99efc1f2-d62d-419c-a0db-cfaadfa06cd6","ios":"levelo://app?vid=99efc1f2-d62d-419c-a0db-cfaadfa06cd6"},"vehicle_type_id":"4","last_reported":1743123016,"current_range_meters":3200,"station_id":"ce4bhn12rcd13ifvqgqg","pricing_plan_id":"cebpf4jnsgd1na2vs0mg"},{"bike_id":"3400ba5e-2e42-480d-a2ee-c9a64cb0d0ed","system_id":"levelo_inurba_marseille","lat":43.23156,"lon":5.43705,"is_reserved":false,"is_disabled":false,"rental_uris":{"android":"levelo://app?vid=3400ba5e-2e42-480d-a2ee-c9a64cb0d0ed","ios":"levelo://app?vid=3400ba5e-2e42-480d-a2ee-c9a64cb0d0ed"},"vehicle_type_id":"4","last_reported":1743123016,"current_range_meters":2800,"station_id":"ce4bhmp2rcd13ifvqgog","pricing_plan_id":"cebpf4jnsgd1na2vs0mg"},{"bike_id":"607d53c1-0a6d-4721-888e-5ce24c7060e5","system_id":"levelo_inurba_marseille","lat":43.29884,"lon":5.38922,"is_reserved":false,"is_disabled":false,"rental_uris":{"android":"levelo://app?vid=607d53c1-0a6d-4721-888e-5ce24c7060e5","ios":"levelo://app?vid=607d53c1-0a6d-4721-888e-5ce24c7060e5"},"vehicle_type_id":"4","last_reported":1743123016,"current_range_meters":3600,"station_id":"ce4bh392rcd13ifvqdl0","pricing_plan_id":"cebpf4jnsgd1na2vs0mg"},{"bike_id":"1dd765a9-64b4-439c-a196-df55419cc971","system_id":"levelo_inurba_marseille","lat":43.24164,"lon":5.36392,"is_reserved":false,"is_disabled":false,"rental_uris":{"android":"levelo://app?vid=1dd765a9-64b4-439c-a196-df55419cc971","ios":"levelo://app?vid=1dd765a9-64b4-439c-a196-df55419cc971"},"vehicle_type_id":"4","last_reported":1743123016,"current_range_meters":3600,"station_id":"cpo36qri1sfpv3e86is0","pricing_plan_id":"cebpf4jnsgd1na2vs0mg"},{"bike_id":"f2704b9c-c316-4f5f-9155-65f7581186ce","system_id":"levelo_inurba_marseille","lat":43.28036,"lon":5.36931,"is_reserved":false,"is_disabled":false,"rental_uris":{"android":"levelo://app?vid=f2704b9c-c316-4f5f-9155-65f7581186ce","ios":"levelo://app?vid=f2704b9c-c316-4f5f-9155-65f7581186ce"},"vehicle_type_id":"4","last_reported":1743123016,"current_range_meters":3600,"station_id":"ce4bha12rcd13ifvqef0","pricing_plan_id":"cebpf4jnsgd1na2vs0mg"},{"bike_id":"12361615-4d37-4f0e-96cc-944b90494721","system_id":"levelo_inurba_marseille","lat":43.26224,"lon":5.40461,"is_reserved":false,"is_disabled":false,"rental_uris":{"android":"levelo://app?vid=12361615-4d37-4f0e-96cc-944b90494721","ios":"levelo://app?vid=12361615-4d37-4f0e-96cc-944b90494721"},"vehicle_type_id":"4","last_reported":1743123016,"current_range_meters":4000,"station_id":"ce4bhmh2rcd13ifvqgmg","pricing_plan_id":"cebpf4jnsgd1na2vs0mg"},{"bike_id":"4a20d9b9-3f5a-408e-9507-d31bf6a35466","system_id":"levelo_inurba_marseille","lat":43.25499,"lon":5.37656,"is_reserved":false,"is_disabled":false,"rental_uris":{"android":"levelo://app?vid=4a20d9b9-3f5a-408e-9507-d31bf6a35466","ios":"levelo://app?vid=4a20d9b9-3f5a-408e-9507-d31bf6a35466"},"vehicle_type_id":"4","last_reported":1743123016,"current_range_meters":4000,"station_id":"ce4bhh12rcd13ifvqff0","pricing_plan_id":"cebpf4jnsgd1na2vs0mg"},{"bike_id":"1c5989e0-2222-4a28-ba37-9ea967af93e5","system_id":"levelo_inurba_marseille","lat":43.31167,"lon":5.38724,"is_reserved":false,"is_disabled":false,"rental_uris":{"android":"levelo://app?vid=1c5989e0-2222-4a28-ba37-9ea967af93e5","ios":"levelo://app?vid=1c5989e0-2222-4a28-ba37-9ea967af93e5"},"vehicle_type_id":"4","last_reported":1743123016,"current_range_meters":4000,"station_id":"ce4bgv12rcd13ifvqcp0","pricing_plan_id":"cebpf4jnsgd1na2vs0mg"},{"bike_id":"147fe4f3-e29b-44a3-8da9-e46dcd3ae5a0","system_id":"levelo_inurba_marseille","lat":43.28284,"lon":5.35063,"is_reserved":false,"is_disabled":false,"rental_uris":{"android":"levelo://app?vid=147fe4f3-e29b-44a3-8da9-e46dcd3ae5a0","ios":"levelo://app?vid=147fe4f3-e29b-44a3-8da9-e46dcd3ae5a0"},"vehicle_type_id":"4","last_reported":1743123016,"current_range_meters":4000,"station_id":"ce4bhbp2rcd13ifvqerg","pricing_plan_id":"cebpf4jnsgd1na2vs0mg"},{"bike_id":"4d29673d-54e7-48d2-9c9f-1d02cf66fc24","system_id":"levelo_inurba_marseille","lat":43.28653,"lon":5.38408,"is_reserved":false,"is_disabled":false,"rental_uris":{"android":"levelo://app?vid=4d29673d-54e7-48d2-9c9f-1d02cf66fc24","ios":"levelo://app?vid=4d29673d-54e7-48d2-9c9f-1d02cf66fc24"},"vehicle_type_id":"4","last_reported":1743123016,"current_range_meters":4400,"station_id":"","pricing_plan_id":"cebpf4jnsgd1na2vs0mg"},{"bike_id":"f483c0fc-53f5-4277-b17a-51429a8cd7a5","system_id":"levelo_inurba_marseille","lat":43.27625,"lon":5.36114,"is_reserved":false,"is_disabled":false,"rental_uris":{"android":"levelo://app?vid=f483c0fc-53f5-4277-b17a-51429a8cd7a5","ios":"levelo://app?vid=f483c0fc-53f5-4277-b17a-51429a8cd7a5"},"vehicle_type_id":"4","last_reported":1743123016,"current_range_meters":4400,"station_id":"ce4bgj92rcd13ifvqbe0","pricing_plan_id":"cebpf4jnsgd1na2vs0mg"},{"bike_id":"0a66299f-ae8e-48e0-af7a-343db9bc16e9","system_id":"levelo_inurba_marseille","lat":43.286831,"lon":5.399919,"is_reserved":false,"is_disabled":false,"rental_uris":{"android":"levelo://app?vid=0a66299f-ae8e-48e0-af7a-343db9bc16e9","ios":"levelo://app?vid=0a66299f-ae8e-48e0-af7a-343db9bc16e9"},"vehicle_type_id":"4","last_reported":1743123016,"current_range_meters":4800,"station_id":"","pricing_plan_id":"cebpf4jnsgd1na2vs0mg"},{"bike_id":"9909698b-2726-42ef-a75a-24e460d5e183","system_id":"levelo_inurba_marseille","lat":43.24543,"lon":5.3953,"is_reserved":false,"is_disabled":false,"rental_uris":{"android":"levelo://app?vid=9909698b-2726-42ef-a75a-24e460d5e183","ios":"levelo://app?vid=9909698b-2726-42ef-a75a-24e460d5e183"},"vehicle_type_id":"4","last_reported":1743123016,"current_range_meters":4800,"station_id":"ce4bhlp2rcd13ifvqgjg","pricing_plan_id":"cebpf4jnsgd1na2vs0mg"},{"bike_id":"85d0fa0c-b5b9-41cd-ba43-951901672dab","system_id":"levelo_inurba_marseille","lat":43.25608,"lon":5.38981,"is_reserved":false,"is_disabled":false,"rental_uris":{"android":"levelo://app?vid=85d0fa0c-b5b9-41cd-ba43-951901672dab","ios":"levelo://app?vid=85d0fa0c-b5b9-41cd-ba43-951901672dab"},"vehicle_type_id":"4","last_reported":1743123016,"current_range_meters":4800,"station_id":"","pricing_plan_id":"cebpf4jnsgd1na2vs0mg"},{"bike_id":"9b0db4f1-c6a1-4ca7-86c5-ec1daffe0ea2","system_id":"levelo_inurba_marseille","lat":43.25093,"lon":5.39522,"is_reserved":false,"is_disabled":false,"rental_uris":{"android":"levelo://app?vid=9b0db4f1-c6a1-4ca7-86c5-ec1daffe0ea2","ios":"levelo://app?vid=9b0db4f1-c6a1-4ca7-86c5-ec1daffe0ea2"},"vehicle_type_id":"4","last_reported":1743123016,"current_range_meters":4800,"station_id":"ce4bhm12rcd13ifvqgkg","pricing_plan_id":"cebpf4jnsgd1na2vs0mg"},{"bike_id":"e62e2f35-f797-4cb0-b8cd-a8d619e448fc","system_id":"levelo_inurba_marseille","lat":43.28736,"lon":5.39976,"is_reserved":false,"is_disabled":false,"rental_uris":{"android":"levelo://app?vid=e62e2f35-f797-4cb0-b8cd-a8d619e448fc","ios":"levelo://app?vid=e62e2f35-f797-4cb0-b8cd-a8d619e448fc"},"vehicle_type_id":"4","last_reported":1743123016,"current_range_meters":5600,"station_id":"ce4bho92rcd13ifvqh3g","pricing_plan_id":"cebpf4jnsgd1na2vs0mg"},{"bike_id":"6165ca97-d152-4535-bb35-dd51f65c8b56","system_id":"levelo_inurba_marseille","lat":43.278193,"lon":5.407128,"is_reserved":false,"is_disabled":false,"rental_uris":{"android":"levelo://app?vid=6165ca97-d152-4535-bb35-dd51f65c8b56","ios":"levelo://app?vid=6165ca97-d152-4535-bb35-dd51f65c8b56"},"vehicle_type_id":"4","last_reported":1743123016,"current_range_meters":5600,"station_id":"ce4bhnh2rcd13ifvqgtg","pricing_plan_id":"cebpf4jnsgd1na2vs0mg"},{"bike_id":"745db27b-7d09-42e9-857e-1a3c13cd5302","system_id":"levelo_inurba_marseille","lat":43.23198,"lon":5.35547,"is_reserved":false,"is_disabled":false,"rental_uris":{"android":"levelo://app?vid=745db27b-7d09-42e9-857e-1a3c13cd5302","ios":"levelo://app?vid=745db27b-7d09-42e9-857e-1a3c13cd5302"},"vehicle_type_id":"4","last_reported":1743123016,"current_range_meters":5600,"station_id":"ce4bhu92rcd13ifvqi70","pricing_plan_id":"cebpf4jnsgd1na2vs0mg"},{"bike_id":"b23a18f8-619d-4580-8b65-a001e546f2de","system_id":"levelo_inurba_marseille","lat":43.30367,"lon":5.41887,"is_reserved":false,"is_disabled":true,"rental_uris":{"android":"levelo://app?vid=b23a18f8-619d-4580-8b65-a001e546f2de","ios":"levelo://app?vid=b23a18f8-619d-4580-8b65-a001e546f2de"},"vehicle_type_id":"4","last_reported":1743123016,"current_range_meters":5600,"station_id":"ce4bhop2rcd13ifvqh7g","pricing_plan_id":"cebpf4jnsgd1na2vs0mg"},{"bike_id":"b1d443ea-0a9b-45b3-b54b-ee844688df1f","system_id":"levelo_inurba_marseille","lat":43.23187,"lon":5.39982,"is_reserved":false,"is_disabled":false,"rental_uris":{"android":"levelo://app?vid=b1d443ea-0a9b-45b3-b54b-ee844688df1f","ios":"levelo://app?vid=b1d443ea-0a9b-45b3-b54b-ee844688df1f"},"vehicle_type_id":"4","last_reported":1743123016,"current_range_meters":5600,"station_id":"ce4bhn12rcd13ifvqgqg","pricing_plan_id":"cebpf4jnsgd1na2vs0mg"},{"bike_id":"dc8ccdc9-a018-4504-b0a9-676297905591","system_id":"levelo_inurba_marseille","lat":43.29308,"lon":5.36978,"is_reserved":false,"is_disabled":false,"rental_uris":{"android":"levelo://app?vid=dc8ccdc9-a018-4504-b0a9-676297905591","ios":"levelo://app?vid=dc8ccdc9-a018-4504-b0a9-676297905591"},"vehicle_type_id":"4","last_reported":1743123016,"current_range_meters":5600,"station_id":"","pricing_plan_id":"cebpf4jnsgd1na2vs0mg"},{"bike_id":"0d275473-88fa-4856-9e77-62617f945d08","system_id":"levelo_inurba_marseille","lat":43.28709,"lon":5.37922,"is_reserved":false,"is_disabled":false,"rental_uris":{"android":"levelo://app?vid=0d275473-88fa-4856-9e77-62617f945d08","ios":"levelo://app?vid=0d275473-88fa-4856-9e77-62617f945d08"},"vehicle_type_id":"4","last_reported":1743123016,"current_range_meters":6000,"station_id":"ce4bh9p2rcd13ifvqec0","pricing_plan_id":"cebpf4jnsgd1na2vs0mg"},{"bike_id":"c752cc87-456e-4134-9a44-62eff5dadbd0","system_id":"levelo_inurba_marseille","lat":43.278185,"lon":5.406946,"is_reserved":false,"is_disabled":false,"rental_uris":{"android":"levelo://app?vid=c752cc87-456e-4134-9a44-62eff5dadbd0","ios":"levelo://app?vid=c752cc87-456e-4134-9a44-62eff5dadbd0"},"vehicle_type_id":"4","last_reported":1743123016,"current_range_meters":6000,"station_id":"ce4bhnh2rcd13ifvqgtg","pricing_plan_id":"cebpf4jnsgd1na2vs0mg"},{"bike_id":"cc0a66da-20f9-44b3-a3bd-e1d2c0474fa7","system_id":"levelo_inurba_marseille","lat":43.24657,"lon":5.38885,"is_reserved":false,"is_disabled":false,"rental_uris":{"android":"levelo://app?vid=cc0a66da-20f9-44b3-a3bd-e1d2c0474fa7","ios":"levelo://app?vid=cc0a66da-20f9-44b3-a3bd-e1d2c0474fa7"},"vehicle_type_id":"4","last_reported":1743123016,"current_range_meters":6000,"station_id":"ce4bhg12rcd13ifvqf60","pricing_plan_id":"cebpf4jnsgd1na2vs0mg"},{"bike_id":"84a7a785-5392-42bc-8088-fb903bcc7f5c","system_id":"levelo_inurba_marseille","lat":43.23079,"lon":5.35493,"is_reserved":false,"is_disabled":false,"rental_uris":{"android":"levelo://app?vid=84a7a785-5392-42bc-8088-fb903bcc7f5c","ios":"levelo://app?vid=84a7a785-5392-42bc-8088-fb903bcc7f5c"},"vehicle_type_id":"4","last_reported":1743123016,"current_range_meters":6000,"station_id":"cpo3342slgdg3j2ifvpg","pricing_plan_id":"cebpf4jnsgd1na2vs0mg"},{"bike_id":"18cf2e35-ced7-456c-9cdf-6c3d31d9091d","system_id":"levelo_inurba_marseille","lat":43.231978,"lon":5.355476,"is_reserved":false,"is_disabled":false,"rental_uris":{"android":"levelo://app?vid=18cf2e35-ced7-456c-9cdf-6c3d31d9091d","ios":"levelo://app?vid=18cf2e35-ced7-456c-9cdf-6c3d31d9091d"},"vehicle_type_id":"4","last_reported":1743123016,"current_range_meters":6400,"station_id":"ce4bhu92rcd13ifvqi70","pricing_plan_id":"cebpf4jnsgd1na2vs0mg"},{"bike_id":"dd5783c6-158d-4cbc-b771-8d0cc786b4bb","system_id":"levelo_inurba_marseille","lat":43.26571,"lon":5.3904,"is_reserved":false,"is_disabled":false,"rental_uris":{"android":"levelo://app?vid=dd5783c6-158d-4cbc-b771-8d0cc786b4bb","ios":"levelo://app?vid=dd5783c6-158d-4cbc-b771-8d0cc786b4bb"},"vehicle_type_id":"4","last_reported":1743123016,"current_range_meters":6400,"station_id":"ce4bhe12rcd13ifvqf30","pricing_plan_id":"cebpf4jnsgd1na2vs0mg"},{"bike_id":"a2cca4d0-900f-4d24-81a4-a34f6c38f996","system_id":"levelo_inurba_marseille","lat":43.26951,"lon":5.4025,"is_reserved":false,"is_disabled":false,"rental_uris":{"android":"levelo://app?vid=a2cca4d0-900f-4d24-81a4-a34f6c38f996","ios":"levelo://app?vid=a2cca4d0-900f-4d24-81a4-a34f6c38f996"},"vehicle_type_id":"4","last_reported":1743123016,"current_range_meters":6400,"station_id":"cjm6bp8fraef2m0cb0m0","pricing_plan_id":"cebpf4jnsgd1na2vs0mg"},{"bike_id":"3c5b9de9-2126-4391-ae19-7c9396efc28b","system_id":"levelo_inurba_marseille","lat":43.25584,"lon":5.38233,"is_reserved":false,"is_disabled":false,"rental_uris":{"android":"levelo://app?vid=3c5b9de9-2126-4391-ae19-7c9396efc28b","ios":"levelo://app?vid=3c5b9de9-2126-4391-ae19-7c9396efc28b"},"vehicle_type_id":"4","last_reported":1743123016,"current_range_meters":6400,"station_id":"ce4bhih2rcd13ifvqfs0","pricing_plan_id":"cebpf4jnsgd1na2vs0mg"},{"bike_id":"3a5e18ad-6a23-4442-9c34-19c7bd17a17e","system_id":"levelo_inurba_marseille","lat":43.22923,"lon":5.35383,"is_reserved":false,"is_disabled":false,"rental_uris":{"android":"levelo://app?vid=3a5e18ad-6a23-4442-9c34-19c7bd17a17e","ios":"levelo://app?vid=3a5e18ad-6a23-4442-9c34-19c7bd17a17e"},"vehicle_type_id":"4","last_reported":1743123016,"current_range_meters":6400,"station_id":"cpo3532slgdg3j2ikp40","pricing_plan_id":"cebpf4jnsgd1na2vs0mg"},{"bike_id":"c91985f1-ed63-4953-a4ca-7162692cc38a","system_id":"levelo_inurba_marseille","lat":43.2951,"lon":5.39379,"is_reserved":false,"is_disabled":false,"rental_uris":{"android":"levelo://app?vid=c91985f1-ed63-4953-a4ca-7162692cc38a","ios":"levelo://app?vid=c91985f1-ed63-4953-a4ca-7162692cc38a"},"vehicle_type_id":"4","last_reported":1743123016,"current_range_meters":6400,"station_id":"ce4bh292rcd13ifvqdf0","pricing_plan_id":"cebpf4jnsgd1na2vs0mg"},{"bike_id":"eb993723-35b5-4171-a0c3-8265760301bc","system_id":"levelo_inurba_marseille","lat":43.29797,"lon":5.39347,"is_reserved":false,"is_disabled":false,"rental_uris":{"android":"levelo://app?vid=eb993723-35b5-4171-a0c3-8265760301bc","ios":"levelo://app?vid=eb993723-35b5-4171-a0c3-8265760301bc"},"vehicle_type_id":"4","last_reported":1743123016,"current_range_meters":6400,"station_id":"chh1huq6cuj3fo74tm60","pricing_plan_id":"cebpf4jnsgd1na2vs0mg"},{"bike_id":"bf8f689d-9d07-4902-b5ae-7d4e985b967a","system_id":"levelo_inurba_marseille","lat":43.2948,"lon":5.38963,"is_reserved":false,"is_disabled":true,"rental_uris":{"android":"levelo://app?vid=bf8f689d-9d07-4902-b5ae-7d4e985b967a","ios":"levelo://app?vid=bf8f689d-9d07-4902-b5ae-7d4e985b967a"},"vehicle_type_id":"4","last_reported":1743123016,"current_range_meters":6400,"station_id":"","pricing_plan_id":"cebpf4jnsgd1na2vs0mg"},{"bike_id":"1265d3a0-46d6-4ded-9c3a-391d97180c1b","system_id":"levelo_inurba_marseille","lat":43.317595,"lon":5.390091,"is_reserved":false,"is_disabled":false,"rental_uris":{"android":"levelo://app?vid=1265d3a0-46d6-4ded-9c3a-391d97180c1b","ios":"levelo://app?vid=1265d3a0-46d6-4ded-9c3a-391d97180c1b"},"vehicle_type_id":"4","last_reported":1743123016,"current_range_meters":6800,"station_id":"ce4bhqp2rcd13ifvqhng","pricing_plan_id":"cebpf4jnsgd1na2vs0mg"},{"bike_id":"5fbb8541-57ed-40e4-a4a5-1acbcf038d1c","system_id":"levelo_inurba_marseille","lat":43.30222,"lon":5.39436,"is_reserved":false,"is_disabled":false,"rental_uris":{"android":"levelo://app?vid=5fbb8541-57ed-40e4-a4a5-1acbcf038d1c","ios":"levelo://app?vid=5fbb8541-57ed-40e4-a4a5-1acbcf038d1c"},"vehicle_type_id":"4","last_reported":1743123016,"current_range_meters":6800,"station_id":"ce4bh0p2rcd13ifvqd70","pricing_plan_id":"cebpf4jnsgd1na2vs0mg"},{"bike_id":"72407b9c-71b7-4feb-83e9-97e5f2a36163","system_id":"levelo_inurba_marseille","lat":43.241632,"lon":5.364006,"is_reserved":false,"is_disabled":false,"rental_uris":{"android":"levelo://app?vid=72407b9c-71b7-4feb-83e9-97e5f2a36163","ios":"levelo://app?vid=72407b9c-71b7-4feb-83e9-97e5f2a36163"},"vehicle_type_id":"4","last_reported":1743123016,"current_range_meters":6800,"station_id":"cpo36qri1sfpv3e86is0","pricing_plan_id":"cebpf4jnsgd1na2vs0mg"},{"bike_id":"7909fddf-cb14-45c3-8c06-c79cce207a3a","system_id":"levelo_inurba_marseille","lat":43.25684,"lon":5.39728,"is_reserved":false,"is_disabled":false,"rental_uris":{"android":"levelo://app?vid=7909fddf-cb14-45c3-8c06-c79cce207a3a","ios":"levelo://app?vid=7909fddf-cb14-45c3-8c06-c79cce207a3a"},"vehicle_type_id":"4","last_reported":1743123016,"current_range_meters":6800,"station_id":"","pricing_plan_id":"cebpf4jnsgd1na2vs0mg"},{"bike_id":"1b876d6c-62d8-4868-9c6d-7a787cd07989","system_id":"levelo_inurba_marseille","lat":43.28714,"lon":5.39984,"is_reserved":false,"is_disabled":false,"rental_uris":{"android":"levelo://app?vid=1b876d6c-62d8-4868-9c6d-7a787cd07989","ios":"levelo://app?vid=1b876d6c-62d8-4868-9c6d-7a787cd07989"},"vehicle_type_id":"4","last_reported":1743123016,"current_range_meters":6800,"station_id":"ce4bho92rcd13ifvqh3g","pricing_plan_id":"cebpf4jnsgd1na2vs0mg"},{"bike_id":"a4d800e4-39bc-4da7-938b-6d70bc0258cd","system_id":"levelo_inurba_marseille","lat":43.28455,"lon":5.35891,"is_reserved":false,"is_disabled":false,"rental_uris":{"android":"levelo://app?vid=a4d800e4-39bc-4da7-938b-6d70bc0258cd","ios":"levelo://app?vid=a4d800e4-39bc-4da7-938b-6d70bc0258cd"},"vehicle_type_id":"4","last_reported":1743123016,"current_range_meters":6800,"station_id":"ce4bhah2rcd13ifvqei0","pricing_plan_id":"cebpf4jnsgd1na2vs0mg"},{"bike_id":"40046afd-c6aa-43ea-88bd-183a4d2ec61c","system_id":"levelo_inurba_marseille","lat":43.3163,"lon":5.41665,"is_reserved":false,"is_disabled":false,"rental_uris":{"android":"levelo://app?vid=40046afd-c6aa-43ea-88bd-183a4d2ec61c","ios":"levelo://app?vid=40046afd-c6aa-43ea-88bd-183a4d2ec61c"},"vehicle_type_id":"4","last_reported":1743123016,"current_range_meters":7200,"station_id":"","pricing_plan_id":"cebpf4jnsgd1na2vs0mg"},{"bike_id":"4ea2dc4a-53b8-4d21-b056-faf850ab7b24","system_id":"levelo_inurba_marseille","lat":43.2957,"lon":5.4228,"is_reserved":false,"is_disabled":false,"rental_uris":{"android":"levelo://app?vid=4ea2dc4a-53b8-4d21-b056-faf850ab7b24","ios":"levelo://app?vid=4ea2dc4a-53b8-4d21-b056-faf850ab7b24"},"vehicle_type_id":"4","last_reported":1743123016,"current_range_meters":7200,"station_id":"ce4bhph2rcd13ifvqhdg","pricing_plan_id":"cebpf4jnsgd1na2vs0mg"},{"bike_id":"e53a1eb8-e926-4f74-b3ac-c2f1945803ef","system_id":"levelo_inurba_marseille","lat":43.28079,"lon":5.39662,"is_reserved":false,"is_disabled":true,"rental_uris":{"android":"levelo://app?vid=e53a1eb8-e926-4f74-b3ac-c2f1945803ef","ios":"levelo://app?vid=e53a1eb8-e926-4f74-b3ac-c2f1945803ef"},"vehicle_type_id":"4","last_reported":1743123016,"current_range_meters":7200,"station_id":"ce4bho12rcd13ifvqh2g","pricing_plan_id":"cebpf4jnsgd1na2vs0mg"},{"bike_id":"67372431-a0a3-4e95-b53b-6e36bdd9f44f","system_id":"levelo_inurba_marseille","lat":43.314834,"lon":5.373017,"is_reserved":false,"is_disabled":false,"rental_uris":{"android":"levelo://app?vid=67372431-a0a3-4e95-b53b-6e36bdd9f44f","ios":"levelo://app?vid=67372431-a0a3-4e95-b53b-6e36bdd9f44f"},"vehicle_type_id":"4","last_reported":1743123016,"current_range_meters":7200,"station_id":"ce4bgt12rcd13ifvqcd0","pricing_plan_id":"cebpf4jnsgd1na2vs0mg"},{"bike_id":"2e013db2-c4bf-4ece-9b86-255ce2c33732","system_id":"levelo_inurba_marseille","lat":43.27811,"lon":5.40726,"is_reserved":false,"is_disabled":false,"rental_uris":{"android":"levelo://app?vid=2e013db2-c4bf-4ece-9b86-255ce2c33732","ios":"levelo://app?vid=2e013db2-c4bf-4ece-9b86-255ce2c33732"},"vehicle_type_id":"4","last_reported":1743123016,"current_range_meters":7200,"station_id":"ce4bhnh2rcd13ifvqgtg","pricing_plan_id":"cebpf4jnsgd1na2vs0mg"},{"bike_id":"0e173472-5a4b-4021-b0c5-dd55f1f57390","system_id":"levelo_inurba_marseille","lat":43.25095,"lon":5.39519,"is_reserved":false,"is_disabled":false,"rental_uris":{"android":"levelo://app?vid=0e173472-5a4b-4021-b0c5-dd55f1f57390","ios":"levelo://app?vid=0e173472-5a4b-4021-b0c5-dd55f1f57390"},"vehicle_type_id":"4","last_reported":1743123016,"current_range_meters":7200,"station_id":"ce4bhm12rcd13ifvqgkg","pricing_plan_id":"cebpf4jnsgd1na2vs0mg"},{"bike_id":"46c92c67-a9e1-4996-b4c8-2976ff580333","system_id":"levelo_inurba_marseille","lat":43.2408,"lon":5.37741,"is_reserved":false,"is_disabled":false,"rental_uris":{"android":"levelo://app?vid=46c92c67-a9e1-4996-b4c8-2976ff580333","ios":"levelo://app?vid=46c92c67-a9e1-4996-b4c8-2976ff580333"},"vehicle_type_id":"4","last_reported":1743123016,"current_range_meters":7200,"station_id":"ce4bhnp2rcd13ifvqgvg","pricing_plan_id":"cebpf4jnsgd1na2vs0mg"},{"bike_id":"3c4fd66e-3c94-485d-83d0-4718eb89e82d","system_id":"levelo_inurba_marseille","lat":43.30137,"lon":5.39854,"is_reserved":false,"is_disabled":false,"rental_uris":{"android":"levelo://app?vid=3c4fd66e-3c94-485d-83d0-4718eb89e82d","ios":"levelo://app?vid=3c4fd66e-3c94-485d-83d0-4718eb89e82d"},"vehicle_type_id":"4","last_reported":1743123016,"current_range_meters":7200,"station_id":"ce4bh0h2rcd13ifvqd40","pricing_plan_id":"cebpf4jnsgd1na2vs0mg"},{"bike_id":"2bedb86a-2cb2-4440-9de1-d77c0174ff1c","system_id":"levelo_inurba_marseille","lat":43.306443,"lon":5.40098,"is_reserved":false,"is_disabled":false,"rental_uris":{"android":"levelo://app?vid=2bedb86a-2cb2-4440-9de1-d77c0174ff1c","ios":"levelo://app?vid=2bedb86a-2cb2-4440-9de1-d77c0174ff1c"},"vehicle_type_id":"4","last_reported":1743123016,"current_range_meters":7200,"station_id":"ce4bh112rcd13ifvqda0","pricing_plan_id":"cebpf4jnsgd1na2vs0mg"},{"bike_id":"169d7fcf-280d-4645-acdf-db059c46d533","system_id":"levelo_inurba_marseille","lat":43.23962,"lon":5.36649,"is_reserved":false,"is_disabled":false,"rental_uris":{"android":"levelo://app?vid=169d7fcf-280d-4645-acdf-db059c46d533","ios":"levelo://app?vid=169d7fcf-280d-4645-acdf-db059c46d533"},"vehicle_type_id":"4","last_reported":1743123016,"current_range_meters":7200,"station_id":"ce4bhi12rcd13ifvqfp0","pricing_plan_id":"cebpf4jnsgd1na2vs0mg"},{"bike_id":"61aebee5-66c7-4c27-9cb3-fcca8ef32f9b","system_id":"levelo_inurba_marseille","lat":43.27069,"lon":5.42267,"is_reserved":false,"is_disabled":false,"rental_uris":{"android":"levelo://app?vid=61aebee5-66c7-4c27-9cb3-fcca8ef32f9b","ios":"levelo://app?vid=61aebee5-66c7-4c27-9cb3-fcca8ef32f9b"},"vehicle_type_id":"4","last_reported":1743123016,"current_range_meters":8000,"station_id":"ce4bhk92rcd13ifvqgb0","pricing_plan_id":"cebpf4jnsgd1na2vs0mg"},{"bike_id":"102b4a68-b003-44dd-a55c-3cf7a81794eb","system_id":"levelo_inurba_marseille","lat":43.28011,"lon":5.39998,"is_reserved":false,"is_disabled":false,"rental_uris":{"android":"levelo://app?vid=102b4a68-b003-44dd-a55c-3cf7a81794eb","ios":"levelo://app?vid=102b4a68-b003-44dd-a55c-3cf7a81794eb"},"vehicle_type_id":"4","last_reported":1743123016,"current_range_meters":8000,"station_id":"ce4bho92rcd13ifvqh4g","pricing_plan_id":"cebpf4jnsgd1na2vs0mg"},{"bike_id":"5c6fd83b-ada2-4000-b9ac-f78b80d149eb","system_id":"levelo_inurba_marseille","lat":43.30327,"lon":5.40448,"is_reserved":false,"is_disabled":false,"rental_uris":{"android":"levelo://app?vid=5c6fd83b-ada2-4000-b9ac-f78b80d149eb","ios":"levelo://app?vid=5c6fd83b-ada2-4000-b9ac-f78b80d149eb"},"vehicle_type_id":"4","last_reported":1743123016,"current_range_meters":8000,"station_id":"ce4bh012rcd13ifvqd10","pricing_plan_id":"cebpf4jnsgd1na2vs0mg"},{"bike_id":"af69edf2-4482-4ac5-b909-0d583a382cae","system_id":"levelo_inurba_marseille","lat":43.28436,"lon":5.35891,"is_reserved":false,"is_disabled":false,"rental_uris":{"android":"levelo://app?vid=af69edf2-4482-4ac5-b909-0d583a382cae","ios":"levelo://app?vid=af69edf2-4482-4ac5-b909-0d583a382cae"},"vehicle_type_id":"4","last_reported":1743123016,"current_range_meters":8000,"station_id":"ce4bhah2rcd13ifvqei0","pricing_plan_id":"cebpf4jnsgd1na2vs0mg"},{"bike_id":"de523b40-8361-4fbc-92e6-b8178b0420b3","system_id":"levelo_inurba_marseille","lat":43.286161,"lon":5.350924,"is_reserved":false,"is_disabled":false,"rental_uris":{"android":"levelo://app?vid=de523b40-8361-4fbc-92e6-b8178b0420b3","ios":"levelo://app?vid=de523b40-8361-4fbc-92e6-b8178b0420b3"},"vehicle_type_id":"4","last_reported":1743123016,"current_range_meters":8000,"station_id":"ce4bhch2rcd13ifvqeug","pricing_plan_id":"cebpf4jnsgd1na2vs0mg"},{"bike_id":"34805b4a-ac2d-4367-961b-5651d4251865","system_id":"levelo_inurba_marseille","lat":43.2871,"lon":5.39982,"is_reserved":false,"is_disabled":false,"rental_uris":{"android":"levelo://app?vid=34805b4a-ac2d-4367-961b-5651d4251865","ios":"levelo://app?vid=34805b4a-ac2d-4367-961b-5651d4251865"},"vehicle_type_id":"4","last_reported":1743123016,"current_range_meters":8000,"station_id":"ce4bho92rcd13ifvqh3g","pricing_plan_id":"cebpf4jnsgd1na2vs0mg"},{"bike_id":"c18155db-65c7-4d5a-8c5b-923eb75c675d","system_id":"levelo_inurba_marseille","lat":43.32132,"lon":5.36812,"is_reserved":false,"is_disabled":false,"rental_uris":{"android":"levelo://app?vid=c18155db-65c7-4d5a-8c5b-923eb75c675d","ios":"levelo://app?vid=c18155db-65c7-4d5a-8c5b-923eb75c675d"},"vehicle_type_id":"4","last_reported":1743123016,"current_range_meters":8000,"station_id":"ce4bhrh2rcd13ifvqhug","pricing_plan_id":"cebpf4jnsgd1na2vs0mg"},{"bike_id":"87c956d3-f221-4ed3-ae86-04fa68654cdc","system_id":"levelo_inurba_marseille","lat":43.28944,"lon":5.36408,"is_reserved":false,"is_disabled":false,"rental_uris":{"android":"levelo://app?vid=87c956d3-f221-4ed3-ae86-04fa68654cdc","ios":"levelo://app?vid=87c956d3-f221-4ed3-ae86-04fa68654cdc"},"vehicle_type_id":"4","last_reported":1743123016,"current_range_meters":8000,"station_id":"ce4bhc92rcd13ifvqetg","pricing_plan_id":"cebpf4jnsgd1na2vs0mg"},{"bike_id":"30cd612a-8cb0-4fab-9e3a-cd08e9fc22b5","system_id":"levelo_inurba_marseille","lat":43.29532,"lon":5.39407,"is_reserved":false,"is_disabled":true,"rental_uris":{"android":"levelo://app?vid=30cd612a-8cb0-4fab-9e3a-cd08e9fc22b5","ios":"levelo://app?vid=30cd612a-8cb0-4fab-9e3a-cd08e9fc22b5"},"vehicle_type_id":"4","last_reported":1743123016,"current_range_meters":8400,"station_id":"ce4bh292rcd13ifvqdf0","pricing_plan_id":"cebpf4jnsgd1na2vs0mg"},{"bike_id":"b692cfb6-c9c0-405d-8e0a-61268b620404","system_id":"levelo_inurba_marseille","lat":43.292573,"lon":5.384319,"is_reserved":false,"is_disabled":true,"rental_uris":{"android":"levelo://app?vid=b692cfb6-c9c0-405d-8e0a-61268b620404","ios":"levelo://app?vid=b692cfb6-c9c0-405d-8e0a-61268b620404"},"vehicle_type_id":"4","last_reported":1743123016,"current_range_meters":8400,"station_id":"ce4bh692rcd13ifvqea0","pricing_plan_id":"cebpf4jnsgd1na2vs0mg"},{"bike_id":"370669e1-a28f-4d18-9e7c-43dfbbad498e","system_id":"levelo_inurba_marseille","lat":43.24178,"lon":5.39729,"is_reserved":false,"is_disabled":false,"rental_uris":{"android":"levelo://app?vid=370669e1-a28f-4d18-9e7c-43dfbbad498e","ios":"levelo://app?vid=370669e1-a28f-4d18-9e7c-43dfbbad498e"},"vehicle_type_id":"4","last_reported":1743123016,"current_range_meters":8400,"station_id":"ce4bhn12rcd13ifvqgpg","pricing_plan_id":"cebpf4jnsgd1na2vs0mg"},{"bike_id":"e110c135-ffaa-4ee4-bb95-b2c04dc26dca","system_id":"levelo_inurba_marseille","lat":43.307986,"lon":5.435249,"is_reserved":false,"is_disabled":false,"rental_uris":{"android":"levelo://app?vid=e110c135-ffaa-4ee4-bb95-b2c04dc26dca","ios":"levelo://app?vid=e110c135-ffaa-4ee4-bb95-b2c04dc26dca"},"vehicle_type_id":"4","last_reported":1743123016,"current_range_meters":8400,"station_id":"ce4bhph2rcd13ifvqheg","pricing_plan_id":"cebpf4jnsgd1na2vs0mg"},{"bike_id":"c5d17eb8-cde1-49a3-9672-ac8d8cf34632","system_id":"levelo_inurba_marseille","lat":43.334107,"lon":5.399937,"is_reserved":false,"is_disabled":false,"rental_uris":{"android":"levelo://app?vid=c5d17eb8-cde1-49a3-9672-ac8d8cf34632","ios":"levelo://app?vid=c5d17eb8-cde1-49a3-9672-ac8d8cf34632"},"vehicle_type_id":"4","last_reported":1743123016,"current_range_meters":8400,"station_id":"","pricing_plan_id":"cebpf4jnsgd1na2vs0mg"},{"bike_id":"bade919b-7de9-4473-a727-f22b7f1adc34","system_id":"levelo_inurba_marseille","lat":43.30539,"lon":5.38421,"is_reserved":false,"is_disabled":false,"rental_uris":{"android":"levelo://app?vid=bade919b-7de9-4473-a727-f22b7f1adc34","ios":"levelo://app?vid=bade919b-7de9-4473-a727-f22b7f1adc34"},"vehicle_type_id":"4","last_reported":1743123016,"current_range_meters":8400,"station_id":"ce4bgg92rcd13ifvqb30","pricing_plan_id":"cebpf4jnsgd1na2vs0mg"},{"bike_id":"638c8e6b-6bbe-4946-a05d-753bcac50810","system_id":"levelo_inurba_marseille","lat":43.28082,"lon":5.39653,"is_reserved":false,"is_disabled":false,"rental_uris":{"android":"levelo://app?vid=638c8e6b-6bbe-4946-a05d-753bcac50810","ios":"levelo://app?vid=638c8e6b-6bbe-4946-a05d-753bcac50810"},"vehicle_type_id":"4","last_reported":1743123016,"current_range_meters":8400,"station_id":"ce4bho12rcd13ifvqh2g","pricing_plan_id":"cebpf4jnsgd1na2vs0mg"},{"bike_id":"11eb2dd9-7913-4da7-88e1-b980157f5f4b","system_id":"levelo_inurba_marseille","lat":43.33601,"lon":5.41011,"is_reserved":false,"is_disabled":false,"rental_uris":{"android":"levelo://app?vid=11eb2dd9-7913-4da7-88e1-b980157f5f4b","ios":"levelo://app?vid=11eb2dd9-7913-4da7-88e1-b980157f5f4b"},"vehicle_type_id":"4","last_reported":1743123016,"current_range_meters":8400,"station_id":"ce4bhqh2rcd13ifvqhmg","pricing_plan_id":"cebpf4jnsgd1na2vs0mg"},{"bike_id":"d4d5963a-cb27-46de-9f1c-185490377ac1","system_id":"levelo_inurba_marseille","lat":43.31341,"lon":5.39672,"is_reserved":false,"is_disabled":false,"rental_uris":{"android":"levelo://app?vid=d4d5963a-cb27-46de-9f1c-185490377ac1","ios":"levelo://app?vid=d4d5963a-cb27-46de-9f1c-185490377ac1"},"vehicle_type_id":"4","last_reported":1743123016,"current_range_meters":8800,"station_id":"ce4bgvp2rcd13ifvqcu0","pricing_plan_id":"cebpf4jnsgd1na2vs0mg"},{"bike_id":"3a9bdcca-abab-46db-a40a-336182c98f57","system_id":"levelo_inurba_marseille","lat":43.27843,"lon":5.40702,"is_reserved":false,"is_disabled":false,"rental_uris":{"android":"levelo://app?vid=3a9bdcca-abab-46db-a40a-336182c98f57","ios":"levelo://app?vid=3a9bdcca-abab-46db-a40a-336182c98f57"},"vehicle_type_id":"4","last_reported":1743123016,"current_range_meters":8800,"station_id":"ce4bhnh2rcd13ifvqgtg","pricing_plan_id":"cebpf4jnsgd1na2vs0mg"},{"bike_id":"ff4019a9-dd1d-4915-9c87-9b475eaf143c","system_id":"levelo_inurba_marseille","lat":43.28008,"lon":5.36937,"is_reserved":false,"is_disabled":false,"rental_uris":{"android":"levelo://app?vid=ff4019a9-dd1d-4915-9c87-9b475eaf143c","ios":"levelo://app?vid=ff4019a9-dd1d-4915-9c87-9b475eaf143c"},"vehicle_type_id":"4","last_reported":1743123016,"current_range_meters":8800,"station_id":"ce4bha12rcd13ifvqef0","pricing_plan_id":"cebpf4jnsgd1na2vs0mg"},{"bike_id":"09a227f9-e81f-4ae4-8d74-65daf422601e","system_id":"levelo_inurba_marseille","lat":43.24814,"lon":5.37458,"is_reserved":false,"is_disabled":false,"rental_uris":{"android":"levelo://app?vid=09a227f9-e81f-4ae4-8d74-65daf422601e","ios":"levelo://app?vid=09a227f9-e81f-4ae4-8d74-65daf422601e"},"vehicle_type_id":"4","last_reported":1743123016,"current_range_meters":8800,"station_id":"ce4bhgh2rcd13ifvqfb0","pricing_plan_id":"cebpf4jnsgd1na2vs0mg"},{"bike_id":"e8230e4e-d9a7-46c2-83b0-eec450bbd0c3","system_id":"levelo_inurba_marseille","lat":43.28735,"lon":5.36087,"is_reserved":false,"is_disabled":false,"rental_uris":{"android":"levelo://app?vid=e8230e4e-d9a7-46c2-83b0-eec450bbd0c3","ios":"levelo://app?vid=e8230e4e-d9a7-46c2-83b0-eec450bbd0c3"},"vehicle_type_id":"4","last_reported":1743123016,"current_range_meters":8800,"station_id":"cki0cbj6b192h4jlfktg","pricing_plan_id":"cebpf4jnsgd1na2vs0mg"},{"bike_id":"2079e143-15fb-4fca-b428-1dcdbd2da2aa","system_id":"levelo_inurba_marseille","lat":43.27812,"lon":5.40723,"is_reserved":false,"is_disabled":false,"rental_uris":{"android":"levelo://app?vid=2079e143-15fb-4fca-b428-1dcdbd2da2aa","ios":"levelo://app?vid=2079e143-15fb-4fca-b428-1dcdbd2da2aa"},"vehicle_type_id":"4","last_reported":1743123016,"current_range_meters":8800,"station_id":"ce4bhnh2rcd13ifvqgtg","pricing_plan_id":"cebpf4jnsgd1na2vs0mg"},{"bike_id":"0d268bc8-088b-4f54-90a0-0d14ccc60ae3","system_id":"levelo_inurba_marseille","lat":43.29298,"lon":5.37439,"is_reserved":false,"is_disabled":true,"rental_uris":{"android":"levelo://app?vid=0d268bc8-088b-4f54-90a0-0d14ccc60ae3","ios":"levelo://app?vid=0d268bc8-088b-4f54-90a0-0d14ccc60ae3"},"vehicle_type_id":"4","last_reported":1743123016,"current_range_meters":8800,"station_id":"ce4bgi12rcd13ifvqb70","pricing_plan_id":"cebpf4jnsgd1na2vs0mg"},{"bike_id":"0ac88cdf-dd3a-494f-aaa5-2b24d1ce393f","system_id":"levelo_inurba_marseille","lat":43.23187,"lon":5.35565,"is_reserved":false,"is_disabled":false,"rental_uris":{"android":"levelo://app?vid=0ac88cdf-dd3a-494f-aaa5-2b24d1ce393f","ios":"levelo://app?vid=0ac88cdf-dd3a-494f-aaa5-2b24d1ce393f"},"vehicle_type_id":"4","last_reported":1743123016,"current_range_meters":8800,"station_id":"ce4bhu92rcd13ifvqi70","pricing_plan_id":"cebpf4jnsgd1na2vs0mg"},{"bike_id":"1fc1e0ea-eb84-4932-b41d-f9a6da82e3dd","system_id":"levelo_inurba_marseille","lat":43.33012,"lon":5.39031,"is_reserved":false,"is_disabled":false,"rental_uris":{"android":"levelo://app?vid=1fc1e0ea-eb84-4932-b41d-f9a6da82e3dd","ios":"levelo://app?vid=1fc1e0ea-eb84-4932-b41d-f9a6da82e3dd"},"vehicle_type_id":"4","last_reported":1743123016,"current_range_meters":8800,"station_id":"ce4bhr92rcd13ifvqhrg","pricing_plan_id":"cebpf4jnsgd1na2vs0mg"},{"bike_id":"a8cb7b4b-8bee-4b66-88cc-bdc18306d3c8","system_id":"levelo_inurba_marseille","lat":43.27939,"lon":5.41046,"is_reserved":false,"is_disabled":false,"rental_uris":{"android":"levelo://app?vid=a8cb7b4b-8bee-4b66-88cc-bdc18306d3c8","ios":"levelo://app?vid=a8cb7b4b-8bee-4b66-88cc-bdc18306d3c8"},"vehicle_type_id":"4","last_reported":1743123016,"current_range_meters":8800,"station_id":"ce4bhnp2rcd13ifvqh0g","pricing_plan_id":"cebpf4jnsgd1na2vs0mg"},{"bike_id":"70e04b11-ca9f-431f-a36b-34bd5eed8c0e","system_id":"levelo_inurba_marseille","lat":43.23155,"lon":5.43715,"is_reserved":false,"is_disabled":false,"rental_uris":{"android":"levelo://app?vid=70e04b11-ca9f-431f-a36b-34bd5eed8c0e","ios":"levelo://app?vid=70e04b11-ca9f-431f-a36b-34bd5eed8c0e"},"vehicle_type_id":"4","last_reported":1743123016,"current_range_meters":8800,"station_id":"ce4bhmp2rcd13ifvqgog","pricing_plan_id":"cebpf4jnsgd1na2vs0mg"},{"bike_id":"fc8e8371-f4e9-4721-bc19-563801e389dc","system_id":"levelo_inurba_marseille","lat":43.337444,"lon":5.374475,"is_reserved":false,"is_disabled":false,"rental_uris":{"android":"levelo://app?vid=fc8e8371-f4e9-4721-bc19-563801e389dc","ios":"levelo://app?vid=fc8e8371-f4e9-4721-bc19-563801e389dc"},"vehicle_type_id":"4","last_reported":1743123016,"current_range_meters":8800,"station_id":"","pricing_plan_id":"cebpf4jnsgd1na2vs0mg"},{"bike_id":"653b8eba-a23a-45fe-87c3-6a270637d839","system_id":"levelo_inurba_marseille","lat":43.30318,"lon":5.40438,"is_reserved":false,"is_disabled":false,"rental_uris":{"android":"levelo://app?vid=653b8eba-a23a-45fe-87c3-6a270637d839","ios":"levelo://app?vid=653b8eba-a23a-45fe-87c3-6a270637d839"},"vehicle_type_id":"4","last_reported":1743123016,"current_range_meters":9200,"station_id":"ce4bh012rcd13ifvqd10","pricing_plan_id":"cebpf4jnsgd1na2vs0mg"},{"bike_id":"3696bc51-8c25-4c56-b61d-dcce493da387","system_id":"levelo_inurba_marseille","lat":43.30318,"lon":5.40436,"is_reserved":false,"is_disabled":false,"rental_uris":{"android":"levelo://app?vid=3696bc51-8c25-4c56-b61d-dcce493da387","ios":"levelo://app?vid=3696bc51-8c25-4c56-b61d-dcce493da387"},"vehicle_type_id":"4","last_reported":1743123016,"current_range_meters":9200,"station_id":"ce4bh012rcd13ifvqd10","pricing_plan_id":"cebpf4jnsgd1na2vs0mg"},{"bike_id":"e5047771-2082-4dba-9477-d8725027152d","system_id":"levelo_inurba_marseille","lat":43.25444,"lon":5.41886,"is_reserved":false,"is_disabled":false,"rental_uris":{"android":"levelo://app?vid=e5047771-2082-4dba-9477-d8725027152d","ios":"levelo://app?vid=e5047771-2082-4dba-9477-d8725027152d"},"vehicle_type_id":"4","last_reported":1743123016,"current_range_meters":9200,"station_id":"","pricing_plan_id":"cebpf4jnsgd1na2vs0mg"},{"bike_id":"ec940620-2a09-4eae-aace-1a0a72b62180","system_id":"levelo_inurba_marseille","lat":43.302879,"lon":5.400826,"is_reserved":false,"is_disabled":false,"rental_uris":{"android":"levelo://app?vid=ec940620-2a09-4eae-aace-1a0a72b62180","ios":"levelo://app?vid=ec940620-2a09-4eae-aace-1a0a72b62180"},"vehicle_type_id":"4","last_reported":1743123016,"current_range_meters":9200,"station_id":"ce4bgvh2rcd13ifvqcs0","pricing_plan_id":"cebpf4jnsgd1na2vs0mg"},{"bike_id":"d46ff930-e785-44f9-bf74-2f9202a8045b","system_id":"levelo_inurba_marseille","lat":43.28807,"lon":5.35867,"is_reserved":false,"is_disabled":false,"rental_uris":{"android":"levelo://app?vid=d46ff930-e785-44f9-bf74-2f9202a8045b","ios":"levelo://app?vid=d46ff930-e785-44f9-bf74-2f9202a8045b"},"vehicle_type_id":"4","last_reported":1743123016,"current_range_meters":9200,"station_id":"ce4bhb12rcd13ifvqem0","pricing_plan_id":"cebpf4jnsgd1na2vs0mg"},{"bike_id":"3e058c99-2d25-4554-8d4d-6f99ec285bba","system_id":"levelo_inurba_marseille","lat":43.29265,"lon":5.40906,"is_reserved":false,"is_disabled":false,"rental_uris":{"android":"levelo://app?vid=3e058c99-2d25-4554-8d4d-6f99ec285bba","ios":"levelo://app?vid=3e058c99-2d25-4554-8d4d-6f99ec285bba"},"vehicle_type_id":"4","last_reported":1743123016,"current_range_meters":9200,"station_id":"ce4bh192rcd13ifvqdc0","pricing_plan_id":"cebpf4jnsgd1na2vs0mg"},{"bike_id":"5a7f605c-2a74-4026-82f7-f55a72384599","system_id":"levelo_inurba_marseille","lat":43.28732,"lon":5.3608,"is_reserved":false,"is_disabled":false,"rental_uris":{"android":"levelo://app?vid=5a7f605c-2a74-4026-82f7-f55a72384599","ios":"levelo://app?vid=5a7f605c-2a74-4026-82f7-f55a72384599"},"vehicle_type_id":"4","last_reported":1743123016,"current_range_meters":9200,"station_id":"cki0cbj6b192h4jlfktg","pricing_plan_id":"cebpf4jnsgd1na2vs0mg"},{"bike_id":"19221227-42ec-4f4b-8f04-42a0818e22f5","system_id":"levelo_inurba_marseille","lat":43.321055,"lon":5.367742,"is_reserved":false,"is_disabled":false,"rental_uris":{"android":"levelo://app?vid=19221227-42ec-4f4b-8f04-42a0818e22f5","ios":"levelo://app?vid=19221227-42ec-4f4b-8f04-42a0818e22f5"},"vehicle_type_id":"4","last_reported":1743123016,"current_range_meters":9200,"station_id":"ce4bhrh2rcd13ifvqhug","pricing_plan_id":"cebpf4jnsgd1na2vs0mg"},{"bike_id":"64f0ea86-1180-4755-95e1-3cbc9c8d4cf5","system_id":"levelo_inurba_marseille","lat":43.33031,"lon":5.43853,"is_reserved":false,"is_disabled":true,"rental_uris":{"android":"levelo://app?vid=64f0ea86-1180-4755-95e1-3cbc9c8d4cf5","ios":"levelo://app?vid=64f0ea86-1180-4755-95e1-3cbc9c8d4cf5"},"vehicle_type_id":"4","last_reported":1743123016,"current_range_meters":9200,"station_id":"","pricing_plan_id":"cebpf4jnsgd1na2vs0mg"},{"bike_id":"039e06cd-a88f-474e-9b34-6e28e3e4565e","system_id":"levelo_inurba_marseille","lat":43.28405,"lon":5.37524,"is_reserved":false,"is_disabled":false,"rental_uris":{"android":"levelo://app?vid=039e06cd-a88f-474e-9b34-6e28e3e4565e","ios":"levelo://app?vid=039e06cd-a88f-474e-9b34-6e28e3e4565e"},"vehicle_type_id":"4","last_reported":1743123016,"current_range_meters":9200,"station_id":"ce4bh412rcd13ifvqds0","pricing_plan_id":"cebpf4jnsgd1na2vs0mg"},{"bike_id":"17ad65fb-68d1-4f5a-8936-4a8b650acc48","system_id":"levelo_inurba_marseille","lat":43.29287,"lon":5.40125,"is_reserved":false,"is_disabled":false,"rental_uris":{"android":"levelo://app?vid=17ad65fb-68d1-4f5a-8936-4a8b650acc48","ios":"levelo://app?vid=17ad65fb-68d1-4f5a-8936-4a8b650acc48"},"vehicle_type_id":"4","last_reported":1743123016,"current_range_meters":9200,"station_id":"ce4bh312rcd13ifvqdk0","pricing_plan_id":"cebpf4jnsgd1na2vs0mg"},{"bike_id":"308affa0-f7e4-4e9c-992c-6abe90a252dc","system_id":"levelo_inurba_marseille","lat":43.306506,"lon":5.400992,"is_reserved":false,"is_disabled":false,"rental_uris":{"android":"levelo://app?vid=308affa0-f7e4-4e9c-992c-6abe90a252dc","ios":"levelo://app?vid=308affa0-f7e4-4e9c-992c-6abe90a252dc"},"vehicle_type_id":"4","last_reported":1743123016,"current_range_meters":9200,"station_id":"ce4bh112rcd13ifvqda0","pricing_plan_id":"cebpf4jnsgd1na2vs0mg"},{"bike_id":"6018f228-b321-41b9-9d12-4b704446d546","system_id":"levelo_inurba_marseille","lat":43.29265,"lon":5.40898,"is_reserved":false,"is_disabled":false,"rental_uris":{"android":"levelo://app?vid=6018f228-b321-41b9-9d12-4b704446d546","ios":"levelo://app?vid=6018f228-b321-41b9-9d12-4b704446d546"},"vehicle_type_id":"4","last_reported":1743123016,"current_range_meters":9200,"station_id":"ce4bh192rcd13ifvqdc0","pricing_plan_id":"cebpf4jnsgd1na2vs0mg"},{"bike_id":"d19d6529-c8de-4827-b446-49058018aec1","system_id":"levelo_inurba_marseille","lat":43.29088,"lon":5.38147,"is_reserved":false,"is_disabled":false,"rental_uris":{"android":"levelo://app?vid=d19d6529-c8de-4827-b446-49058018aec1","ios":"levelo://app?vid=d19d6529-c8de-4827-b446-49058018aec1"},"vehicle_type_id":"4","last_reported":1743123016,"current_range_meters":9200,"station_id":"ce4bh512rcd13ifvqe2g","pricing_plan_id":"cebpf4jnsgd1na2vs0mg"},{"bike_id":"b6277294-9c97-4bd2-bb72-519bd900d431","system_id":"levelo_inurba_marseille","lat":43.29316,"lon":5.37452,"is_reserved":false,"is_disabled":true,"rental_uris":{"android":"levelo://app?vid=b6277294-9c97-4bd2-bb72-519bd900d431","ios":"levelo://app?vid=b6277294-9c97-4bd2-bb72-519bd900d431"},"vehicle_type_id":"4","last_reported":1743123016,"current_range_meters":9600,"station_id":"ce4bgi12rcd13ifvqb70","pricing_plan_id":"cebpf4jnsgd1na2vs0mg"},{"bike_id":"a8ed19fc-d86c-48c2-bfe0-33f8fd6b1c33","system_id":"levelo_inurba_marseille","lat":43.28025,"lon":5.36941,"is_reserved":false,"is_disabled":false,"rental_uris":{"android":"levelo://app?vid=a8ed19fc-d86c-48c2-bfe0-33f8fd6b1c33","ios":"levelo://app?vid=a8ed19fc-d86c-48c2-bfe0-33f8fd6b1c33"},"vehicle_type_id":"4","last_reported":1743123016,"current_range_meters":9600,"station_id":"ce4bha12rcd13ifvqef0","pricing_plan_id":"cebpf4jnsgd1na2vs0mg"},{"bike_id":"25c93242-72e6-4525-aea7-7d96e2cd1825","system_id":"levelo_inurba_marseille","lat":43.33126,"lon":5.40851,"is_reserved":false,"is_disabled":false,"rental_uris":{"android":"levelo://app?vid=25c93242-72e6-4525-aea7-7d96e2cd1825","ios":"levelo://app?vid=25c93242-72e6-4525-aea7-7d96e2cd1825"},"vehicle_type_id":"4","last_reported":1743123016,"current_range_meters":9600,"station_id":"","pricing_plan_id":"cebpf4jnsgd1na2vs0mg"},{"bike_id":"f723ecb5-ef4a-4824-82bd-e2df88abfb45","system_id":"levelo_inurba_marseille","lat":43.3229,"lon":5.38257,"is_reserved":false,"is_disabled":false,"rental_uris":{"android":"levelo://app?vid=f723ecb5-ef4a-4824-82bd-e2df88abfb45","ios":"levelo://app?vid=f723ecb5-ef4a-4824-82bd-e2df88abfb45"},"vehicle_type_id":"4","last_reported":1743123016,"current_range_meters":9600,"station_id":"ce4bhr12rcd13ifvqhqg","pricing_plan_id":"cebpf4jnsgd1na2vs0mg"},{"bike_id":"813634ed-e21d-4b9e-88e8-aa8b87581eb3","system_id":"levelo_inurba_marseille","lat":43.32121,"lon":5.36799,"is_reserved":false,"is_disabled":false,"rental_uris":{"android":"levelo://app?vid=813634ed-e21d-4b9e-88e8-aa8b87581eb3","ios":"levelo://app?vid=813634ed-e21d-4b9e-88e8-aa8b87581eb3"},"vehicle_type_id":"4","last_reported":1743123016,"current_range_meters":10000,"station_id":"ce4bhrh2rcd13ifvqhug","pricing_plan_id":"cebpf4jnsgd1na2vs0mg"},{"bike_id":"85dbb91e-4a5b-4d1d-8d58-9c0a316213a9","system_id":"levelo_inurba_marseille","lat":43.29513,"lon":5.39433,"is_reserved":false,"is_disabled":false,"rental_uris":{"android":"levelo://app?vid=85dbb91e-4a5b-4d1d-8d58-9c0a316213a9","ios":"levelo://app?vid=85dbb91e-4a5b-4d1d-8d58-9c0a316213a9"},"vehicle_type_id":"4","last_reported":1743123016,"current_range_meters":10000,"station_id":"ce4bh292rcd13ifvqdf0","pricing_plan_id":"cebpf4jnsgd1na2vs0mg"},{"bike_id":"f00e0bf1-e77c-4752-8f1b-63a2e565cf51","system_id":"levelo_inurba_marseille","lat":43.27956,"lon":5.38717,"is_reserved":false,"is_disabled":true,"rental_uris":{"android":"levelo://app?vid=f00e0bf1-e77c-4752-8f1b-63a2e565cf51","ios":"levelo://app?vid=f00e0bf1-e77c-4752-8f1b-63a2e565cf51"},"vehicle_type_id":"4","last_reported":1743123016,"current_range_meters":10000,"station_id":"ce4bhg12rcd13ifvqf80","pricing_plan_id":"cebpf4jnsgd1na2vs0mg"},{"bike_id":"74d27e6b-e3c6-45b6-9eb1-918c740be7b3","system_id":"levelo_inurba_marseille","lat":43.29282,"lon":5.40116,"is_reserved":false,"is_disabled":false,"rental_uris":{"android":"levelo://app?vid=74d27e6b-e3c6-45b6-9eb1-918c740be7b3","ios":"levelo://app?vid=74d27e6b-e3c6-45b6-9eb1-918c740be7b3"},"vehicle_type_id":"4","last_reported":1743123016,"current_range_meters":10000,"station_id":"ce4bh312rcd13ifvqdk0","pricing_plan_id":"cebpf4jnsgd1na2vs0mg"},{"bike_id":"bc3f138a-3af0-4b4e-9b07-2d2a8e540795","system_id":"levelo_inurba_marseille","lat":43.264852,"lon":5.395564,"is_reserved":false,"is_disabled":true,"rental_uris":{"android":"levelo://app?vid=bc3f138a-3af0-4b4e-9b07-2d2a8e540795","ios":"levelo://app?vid=bc3f138a-3af0-4b4e-9b07-2d2a8e540795"},"vehicle_type_id":"4","last_reported":1743123016,"current_range_meters":10000,"station_id":"ce4bhi12rcd13ifvqfq0","pricing_plan_id":"cebpf4jnsgd1na2vs0mg"},{"bike_id":"1144b78b-ff9c-4536-8a7b-4358a021ccd4","system_id":"levelo_inurba_marseille","lat":43.32354,"lon":5.38892,"is_reserved":false,"is_disabled":false,"rental_uris":{"android":"levelo://app?vid=1144b78b-ff9c-4536-8a7b-4358a021ccd4","ios":"levelo://app?vid=1144b78b-ff9c-4536-8a7b-4358a021ccd4"},"vehicle_type_id":"4","last_reported":1743123016,"current_range_meters":10000,"station_id":"ce4bhqp2rcd13ifvqhog","pricing_plan_id":"cebpf4jnsgd1na2vs0mg"},{"bike_id":"e8d201f1-9aa9-4ae6-a427-58a645e166df","system_id":"levelo_inurba_marseille","lat":43.29906,"lon":5.39733,"is_reserved":false,"is_disabled":false,"rental_uris":{"android":"levelo://app?vid=e8d201f1-9aa9-4ae6-a427-58a645e166df","ios":"levelo://app?vid=e8d201f1-9aa9-4ae6-a427-58a645e166df"},"vehicle_type_id":"4","last_reported":1743123016,"current_range_meters":10000,"station_id":"ce4bh0h2rcd13ifvqd50","pricing_plan_id":"cebpf4jnsgd1na2vs0mg"},{"bike_id":"97598caa-f881-4c11-b13b-ad62623fc261","system_id":"levelo_inurba_marseille","lat":43.28085,"lon":5.39665,"is_reserved":false,"is_disabled":false,"rental_uris":{"android":"levelo://app?vid=97598caa-f881-4c11-b13b-ad62623fc261","ios":"levelo://app?vid=97598caa-f881-4c11-b13b-ad62623fc261"},"vehicle_type_id":"4","last_reported":1743123016,"current_range_meters":10000,"station_id":"ce4bho12rcd13ifvqh2g","pricing_plan_id":"cebpf4jnsgd1na2vs0mg"},{"bike_id":"eb3cf403-8b3f-4893-9f27-c4512d6833f5","system_id":"levelo_inurba_marseille","lat":43.29795,"lon":5.39343,"is_reserved":false,"is_disabled":false,"rental_uris":{"android":"levelo://app?vid=eb3cf403-8b3f-4893-9f27-c4512d6833f5","ios":"levelo://app?vid=eb3cf403-8b3f-4893-9f27-c4512d6833f5"},"vehicle_type_id":"4","last_reported":1743123016,"current_range_meters":10800,"station_id":"chh1huq6cuj3fo74tm60","pricing_plan_id":"cebpf4jnsgd1na2vs0mg"},{"bike_id":"4c732124-8b69-4726-a111-e3a8d012a4e3","system_id":"levelo_inurba_marseille","lat":43.30327,"lon":5.40435,"is_reserved":false,"is_disabled":false,"rental_uris":{"android":"levelo://app?vid=4c732124-8b69-4726-a111-e3a8d012a4e3","ios":"levelo://app?vid=4c732124-8b69-4726-a111-e3a8d012a4e3"},"vehicle_type_id":"4","last_reported":1743123016,"current_range_meters":10800,"station_id":"ce4bh012rcd13ifvqd10","pricing_plan_id":"cebpf4jnsgd1na2vs0mg"},{"bike_id":"107c2394-7d63-4ba0-9a5b-757759b8e3ef","system_id":"levelo_inurba_marseille","lat":43.23963,"lon":5.36631,"is_reserved":false,"is_disabled":false,"rental_uris":{"android":"levelo://app?vid=107c2394-7d63-4ba0-9a5b-757759b8e3ef","ios":"levelo://app?vid=107c2394-7d63-4ba0-9a5b-757759b8e3ef"},"vehicle_type_id":"4","last_reported":1743123016,"current_range_meters":10800,"station_id":"ce4bhi12rcd13ifvqfp0","pricing_plan_id":"cebpf4jnsgd1na2vs0mg"},{"bike_id":"cfed900d-e17f-46a7-9847-c8d921508ac3","system_id":"levelo_inurba_marseille","lat":43.23965,"lon":5.36648,"is_reserved":false,"is_disabled":false,"rental_uris":{"android":"levelo://app?vid=cfed900d-e17f-46a7-9847-c8d921508ac3","ios":"levelo://app?vid=cfed900d-e17f-46a7-9847-c8d921508ac3"},"vehicle_type_id":"4","last_reported":1743123016,"current_range_meters":10800,"station_id":"ce4bhi12rcd13ifvqfp0","pricing_plan_id":"cebpf4jnsgd1na2vs0mg"},{"bike_id":"e29d1a2b-35d0-4d6b-9e81-558cc174acf3","system_id":"levelo_inurba_marseille","lat":43.257313,"lon":5.411023,"is_reserved":false,"is_disabled":false,"rental_uris":{"android":"levelo://app?vid=e29d1a2b-35d0-4d6b-9e81-558cc174acf3","ios":"levelo://app?vid=e29d1a2b-35d0-4d6b-9e81-558cc174acf3"},"vehicle_type_id":"4","last_reported":1743123016,"current_range_meters":10800,"station_id":"ce4bhkp2rcd13ifvqgd0","pricing_plan_id":"cebpf4jnsgd1na2vs0mg"},{"bike_id":"5a193ba4-1e21-479f-bd65-c3dcbd16b945","system_id":"levelo_inurba_marseille","lat":43.308798,"lon":5.396439,"is_reserved":false,"is_disabled":false,"rental_uris":{"android":"levelo://app?vid=5a193ba4-1e21-479f-bd65-c3dcbd16b945","ios":"levelo://app?vid=5a193ba4-1e21-479f-bd65-c3dcbd16b945"},"vehicle_type_id":"4","last_reported":1743123016,"current_range_meters":10800,"station_id":"ce4bh012rcd13ifvqcv0","pricing_plan_id":"cebpf4jnsgd1na2vs0mg"},{"bike_id":"e39f0277-8842-447f-8838-fb2880aa78ea","system_id":"levelo_inurba_marseille","lat":43.2895,"lon":5.36616,"is_reserved":false,"is_disabled":false,"rental_uris":{"android":"levelo://app?vid=e39f0277-8842-447f-8838-fb2880aa78ea","ios":"levelo://app?vid=e39f0277-8842-447f-8838-fb2880aa78ea"},"vehicle_type_id":"4","last_reported":1743123016,"current_range_meters":10800,"station_id":"ce4bhap2rcd13ifvqek0","pricing_plan_id":"cebpf4jnsgd1na2vs0mg"},{"bike_id":"d75f9f5e-4772-4de2-8f78-058b650907ab","system_id":"levelo_inurba_marseille","lat":43.24165,"lon":5.36396,"is_reserved":false,"is_disabled":false,"rental_uris":{"android":"levelo://app?vid=d75f9f5e-4772-4de2-8f78-058b650907ab","ios":"levelo://app?vid=d75f9f5e-4772-4de2-8f78-058b650907ab"},"vehicle_type_id":"4","last_reported":1743123016,"current_range_meters":10800,"station_id":"cpo36qri1sfpv3e86is0","pricing_plan_id":"cebpf4jnsgd1na2vs0mg"},{"bike_id":"c11a4eb9-648f-4fa7-aefc-e342d02ebe0d","system_id":"levelo_inurba_marseille","lat":43.287288,"lon":5.360778,"is_reserved":false,"is_disabled":false,"rental_uris":{"android":"levelo://app?vid=c11a4eb9-648f-4fa7-aefc-e342d02ebe0d","ios":"levelo://app?vid=c11a4eb9-648f-4fa7-aefc-e342d02ebe0d"},"vehicle_type_id":"4","last_reported":1743123016,"current_range_meters":11200,"station_id":"cki0cbj6b192h4jlfktg","pricing_plan_id":"cebpf4jnsgd1na2vs0mg"},{"bike_id":"155e3fe2-30b5-42ce-ba12-b1f697461e90","system_id":"levelo_inurba_marseille","lat":43.30145,"lon":5.39862,"is_reserved":false,"is_disabled":false,"rental_uris":{"android":"levelo://app?vid=155e3fe2-30b5-42ce-ba12-b1f697461e90","ios":"levelo://app?vid=155e3fe2-30b5-42ce-ba12-b1f697461e90"},"vehicle_type_id":"4","last_reported":1743123016,"current_range_meters":11200,"station_id":"ce4bh0h2rcd13ifvqd40","pricing_plan_id":"cebpf4jnsgd1na2vs0mg"},{"bike_id":"4a42ca1e-41e4-4233-a4bb-a180f04564d6","system_id":"levelo_inurba_marseille","lat":43.29177,"lon":5.37145,"is_reserved":false,"is_disabled":true,"rental_uris":{"android":"levelo://app?vid=4a42ca1e-41e4-4233-a4bb-a180f04564d6","ios":"levelo://app?vid=4a42ca1e-41e4-4233-a4bb-a180f04564d6"},"vehicle_type_id":"4","last_reported":1743123016,"current_range_meters":11200,"station_id":"ce4bha92rcd13ifvqeh0","pricing_plan_id":"cebpf4jnsgd1na2vs0mg"},{"bike_id":"cbf7177e-6e28-4340-bbb6-69b4f76d24c6","system_id":"levelo_inurba_marseille","lat":43.30337,"lon":5.4045,"is_reserved":false,"is_disabled":false,"rental_uris":{"android":"levelo://app?vid=cbf7177e-6e28-4340-bbb6-69b4f76d24c6","ios":"levelo://app?vid=cbf7177e-6e28-4340-bbb6-69b4f76d24c6"},"vehicle_type_id":"4","last_reported":1743123016,"current_range_meters":11200,"station_id":"ce4bh012rcd13ifvqd10","pricing_plan_id":"cebpf4jnsgd1na2vs0mg"},{"bike_id":"2e919ca5-ce98-4c47-a9d7-66e6ab7584e4","system_id":"levelo_inurba_marseille","lat":43.32114,"lon":5.36793,"is_reserved":false,"is_disabled":false,"rental_uris":{"android":"levelo://app?vid=2e919ca5-ce98-4c47-a9d7-66e6ab7584e4","ios":"levelo://app?vid=2e919ca5-ce98-4c47-a9d7-66e6ab7584e4"},"vehicle_type_id":"4","last_reported":1743123016,"current_range_meters":11200,"station_id":"ce4bhrh2rcd13ifvqhug","pricing_plan_id":"cebpf4jnsgd1na2vs0mg"},{"bike_id":"34d07891-8c02-4c2b-a31e-e054161d5fa3","system_id":"levelo_inurba_marseille","lat":43.28436,"lon":5.37501,"is_reserved":false,"is_disabled":false,"rental_uris":{"android":"levelo://app?vid=34d07891-8c02-4c2b-a31e-e054161d5fa3","ios":"levelo://app?vid=34d07891-8c02-4c2b-a31e-e054161d5fa3"},"vehicle_type_id":"4","last_reported":1743123016,"current_range_meters":11200,"station_id":"ce4bh412rcd13ifvqds0","pricing_plan_id":"cebpf4jnsgd1na2vs0mg"},{"bike_id":"1b1aa963-5d87-46c9-8b5b-1a666c786917","system_id":"levelo_inurba_marseille","lat":43.255813,"lon":5.382369,"is_reserved":false,"is_disabled":false,"rental_uris":{"android":"levelo://app?vid=1b1aa963-5d87-46c9-8b5b-1a666c786917","ios":"levelo://app?vid=1b1aa963-5d87-46c9-8b5b-1a666c786917"},"vehicle_type_id":"4","last_reported":1743123016,"current_range_meters":11200,"station_id":"ce4bhih2rcd13ifvqfs0","pricing_plan_id":"cebpf4jnsgd1na2vs0mg"},{"bike_id":"bfa018d7-4766-430e-8a9d-9b17e9a65a71","system_id":"levelo_inurba_marseille","lat":43.25084,"lon":5.39505,"is_reserved":false,"is_disabled":false,"rental_uris":{"android":"levelo://app?vid=bfa018d7-4766-430e-8a9d-9b17e9a65a71","ios":"levelo://app?vid=bfa018d7-4766-430e-8a9d-9b17e9a65a71"},"vehicle_type_id":"4","last_reported":1743123016,"current_range_meters":11200,"station_id":"ce4bhm12rcd13ifvqgkg","pricing_plan_id":"cebpf4jnsgd1na2vs0mg"},{"bike_id":"4f38e468-4f96-4507-9d29-f031ca6c463c","system_id":"levelo_inurba_marseille","lat":43.27916,"lon":5.38017,"is_reserved":false,"is_disabled":false,"rental_uris":{"android":"levelo://app?vid=4f38e468-4f96-4507-9d29-f031ca6c463c","ios":"levelo://app?vid=4f38e468-4f96-4507-9d29-f031ca6c463c"},"vehicle_type_id":"4","last_reported":1743123016,"current_range_meters":11600,"station_id":"ce4bhf92rcd13ifvqf50","pricing_plan_id":"cebpf4jnsgd1na2vs0mg"},{"bike_id":"ed3f340d-7b56-49a7-952a-c79c8daa5f0f","system_id":"levelo_inurba_marseille","lat":43.3013,"lon":5.38774,"is_reserved":false,"is_disabled":true,"rental_uris":{"android":"levelo://app?vid=ed3f340d-7b56-49a7-952a-c79c8daa5f0f","ios":"levelo://app?vid=ed3f340d-7b56-49a7-952a-c79c8daa5f0f"},"vehicle_type_id":"4","last_reported":1743123016,"current_range_meters":11600,"station_id":"ce4bghh2rcd13ifvqb60","pricing_plan_id":"cebpf4jnsgd1na2vs0mg"},{"bike_id":"74bb3be4-214a-4907-a0a6-cb5edcf13a83","system_id":"levelo_inurba_marseille","lat":43.29717,"lon":5.36587,"is_reserved":false,"is_disabled":true,"rental_uris":{"android":"levelo://app?vid=74bb3be4-214a-4907-a0a6-cb5edcf13a83","ios":"levelo://app?vid=74bb3be4-214a-4907-a0a6-cb5edcf13a83"},"vehicle_type_id":"4","last_reported":1743123016,"current_range_meters":11600,"station_id":"ce4bgn12rcd13ifvqbt0","pricing_plan_id":"cebpf4jnsgd1na2vs0mg"},{"bike_id":"1c14bf9c-ada4-4a36-8853-740a1a2c000a","system_id":"levelo_inurba_marseille","lat":43.231904,"lon":5.355659,"is_reserved":false,"is_disabled":false,"rental_uris":{"android":"levelo://app?vid=1c14bf9c-ada4-4a36-8853-740a1a2c000a","ios":"levelo://app?vid=1c14bf9c-ada4-4a36-8853-740a1a2c000a"},"vehicle_type_id":"4","last_reported":1743123016,"current_range_meters":11600,"station_id":"ce4bhu92rcd13ifvqi70","pricing_plan_id":"cebpf4jnsgd1na2vs0mg"},{"bike_id":"e40a1280-38e7-4f68-874d-33a9044a1031","system_id":"levelo_inurba_marseille","lat":43.30653,"lon":5.40061,"is_reserved":false,"is_disabled":false,"rental_uris":{"android":"levelo://app?vid=e40a1280-38e7-4f68-874d-33a9044a1031","ios":"levelo://app?vid=e40a1280-38e7-4f68-874d-33a9044a1031"},"vehicle_type_id":"4","last_reported":1743123016,"current_range_meters":12000,"station_id":"ce4bh112rcd13ifvqda0","pricing_plan_id":"cebpf4jnsgd1na2vs0mg"},{"bike_id":"7cdf40e9-5bfc-47d5-b577-41d7c0c94acd","system_id":"levelo_inurba_marseille","lat":43.30237,"lon":5.40055,"is_reserved":false,"is_disabled":false,"rental_uris":{"android":"levelo://app?vid=7cdf40e9-5bfc-47d5-b577-41d7c0c94acd","ios":"levelo://app?vid=7cdf40e9-5bfc-47d5-b577-41d7c0c94acd"},"vehicle_type_id":"4","last_reported":1743123016,"current_range_meters":12000,"station_id":"ce4bgvh2rcd13ifvqcs0","pricing_plan_id":"cebpf4jnsgd1na2vs0mg"},{"bike_id":"21df7ecd-9789-4647-b3d9-f06ca6714059","system_id":"levelo_inurba_marseille","lat":43.28932,"lon":5.36635,"is_reserved":false,"is_disabled":false,"rental_uris":{"android":"levelo://app?vid=21df7ecd-9789-4647-b3d9-f06ca6714059","ios":"levelo://app?vid=21df7ecd-9789-4647-b3d9-f06ca6714059"},"vehicle_type_id":"4","last_reported":1743123016,"current_range_meters":12000,"station_id":"ce4bhap2rcd13ifvqek0","pricing_plan_id":"cebpf4jnsgd1na2vs0mg"},{"bike_id":"648a3707-3d5d-415a-b57f-06c9fee3b748","system_id":"levelo_inurba_marseille","lat":43.29197,"lon":5.3931,"is_reserved":false,"is_disabled":false,"rental_uris":{"android":"levelo://app?vid=648a3707-3d5d-415a-b57f-06c9fee3b748","ios":"levelo://app?vid=648a3707-3d5d-415a-b57f-06c9fee3b748"},"vehicle_type_id":"4","last_reported":1743123016,"current_range_meters":12000,"station_id":"ce4bh192rcd13ifvqdd0","pricing_plan_id":"cebpf4jnsgd1na2vs0mg"},{"bike_id":"ceedbaa5-79be-4cab-b403-7432db2b68cb","system_id":"levelo_inurba_marseille","lat":43.28666,"lon":5.38661,"is_reserved":false,"is_disabled":false,"rental_uris":{"android":"levelo://app?vid=ceedbaa5-79be-4cab-b403-7432db2b68cb","ios":"levelo://app?vid=ceedbaa5-79be-4cab-b403-7432db2b68cb"},"vehicle_type_id":"4","last_reported":1743123016,"current_range_meters":12000,"station_id":"ce4bh492rcd13ifvqdug","pricing_plan_id":"cebpf4jnsgd1na2vs0mg"},{"bike_id":"ff3c1f83-137f-4504-ac9d-326f0bc71bb2","system_id":"levelo_inurba_marseille","lat":43.28953,"lon":5.36625,"is_reserved":false,"is_disabled":false,"rental_uris":{"android":"levelo://app?vid=ff3c1f83-137f-4504-ac9d-326f0bc71bb2","ios":"levelo://app?vid=ff3c1f83-137f-4504-ac9d-326f0bc71bb2"},"vehicle_type_id":"4","last_reported":1743123016,"current_range_meters":12400,"station_id":"ce4bhap2rcd13ifvqek0","pricing_plan_id":"cebpf4jnsgd1na2vs0mg"},{"bike_id":"e3d53ea2-a43c-4e3c-b03f-446c2324e5d1","system_id":"levelo_inurba_marseille","lat":43.308042,"lon":5.376533,"is_reserved":false,"is_disabled":false,"rental_uris":{"android":"levelo://app?vid=e3d53ea2-a43c-4e3c-b03f-446c2324e5d1","ios":"levelo://app?vid=e3d53ea2-a43c-4e3c-b03f-446c2324e5d1"},"vehicle_type_id":"4","last_reported":1743123016,"current_range_meters":12400,"station_id":"ce4bgv92rcd13ifvqcq0","pricing_plan_id":"cebpf4jnsgd1na2vs0mg"},{"bike_id":"f4e5bf40-21e3-4962-9b82-6bdd533ef0ec","system_id":"levelo_inurba_marseille","lat":43.24657,"lon":5.38894,"is_reserved":false,"is_disabled":false,"rental_uris":{"android":"levelo://app?vid=f4e5bf40-21e3-4962-9b82-6bdd533ef0ec","ios":"levelo://app?vid=f4e5bf40-21e3-4962-9b82-6bdd533ef0ec"},"vehicle_type_id":"4","last_reported":1743123016,"current_range_meters":12400,"station_id":"ce4bhg12rcd13ifvqf60","pricing_plan_id":"cebpf4jnsgd1na2vs0mg"},{"bike_id":"9b6b02c7-cfb4-40b4-829c-2e3a58d88e4d","system_id":"levelo_inurba_marseille","lat":43.29786,"lon":5.3935,"is_reserved":false,"is_disabled":false,"rental_uris":{"android":"levelo://app?vid=9b6b02c7-cfb4-40b4-829c-2e3a58d88e4d","ios":"levelo://app?vid=9b6b02c7-cfb4-40b4-829c-2e3a58d88e4d"},"vehicle_type_id":"4","last_reported":1743123016,"current_range_meters":12400,"station_id":"chh1huq6cuj3fo74tm60","pricing_plan_id":"cebpf4jnsgd1na2vs0mg"},{"bike_id":"767b3de5-c408-4bff-92a2-6b38b23a008d","system_id":"levelo_inurba_marseille","lat":43.295129,"lon":5.389153,"is_reserved":false,"is_disabled":false,"rental_uris":{"android":"levelo://app?vid=767b3de5-c408-4bff-92a2-6b38b23a008d","ios":"levelo://app?vid=767b3de5-c408-4bff-92a2-6b38b23a008d"},"vehicle_type_id":"4","last_reported":1743123016,"current_range_meters":12400,"station_id":"","pricing_plan_id":"cebpf4jnsgd1na2vs0mg"},{"bike_id":"c5b747b8-0a33-4be6-a6c0-180ceea5e00d","system_id":"levelo_inurba_marseille","lat":43.28079,"lon":5.396544,"is_reserved":false,"is_disabled":true,"rental_uris":{"android":"levelo://app?vid=c5b747b8-0a33-4be6-a6c0-180ceea5e00d","ios":"levelo://app?vid=c5b747b8-0a33-4be6-a6c0-180ceea5e00d"},"vehicle_type_id":"4","last_reported":1743123016,"current_range_meters":12400,"station_id":"ce4bho12rcd13ifvqh2g","pricing_plan_id":"cebpf4jnsgd1na2vs0mg"},{"bike_id":"c6f209dd-967d-4602-baf0-976ad69db6db","system_id":"levelo_inurba_marseille","lat":43.29787,"lon":5.39316,"is_reserved":false,"is_disabled":false,"rental_uris":{"android":"levelo://app?vid=c6f209dd-967d-4602-baf0-976ad69db6db","ios":"levelo://app?vid=c6f209dd-967d-4602-baf0-976ad69db6db"},"vehicle_type_id":"4","last_reported":1743123016,"current_range_meters":12800,"station_id":"chh1huq6cuj3fo74tm60","pricing_plan_id":"cebpf4jnsgd1na2vs0mg"},{"bike_id":"a9108b2d-3767-4909-a20b-64076bd66645","system_id":"levelo_inurba_marseille","lat":43.28035,"lon":5.36947,"is_reserved":false,"is_disabled":false,"rental_uris":{"android":"levelo://app?vid=a9108b2d-3767-4909-a20b-64076bd66645","ios":"levelo://app?vid=a9108b2d-3767-4909-a20b-64076bd66645"},"vehicle_type_id":"4","last_reported":1743123016,"current_range_meters":12800,"station_id":"ce4bha12rcd13ifvqef0","pricing_plan_id":"cebpf4jnsgd1na2vs0mg"},{"bike_id":"21c23e58-1912-4f71-a00e-f6c0c41af9d9","system_id":"levelo_inurba_marseille","lat":43.29221,"lon":5.40897,"is_reserved":false,"is_disabled":false,"rental_uris":{"android":"levelo://app?vid=21c23e58-1912-4f71-a00e-f6c0c41af9d9","ios":"levelo://app?vid=21c23e58-1912-4f71-a00e-f6c0c41af9d9"},"vehicle_type_id":"4","last_reported":1743123016,"current_range_meters":12800,"station_id":"ce4bh192rcd13ifvqdc0","pricing_plan_id":"cebpf4jnsgd1na2vs0mg"},{"bike_id":"ac5c8581-8b1d-4bb3-a75d-36c5fd98dff0","system_id":"levelo_inurba_marseille","lat":43.26956,"lon":5.38636,"is_reserved":false,"is_disabled":false,"rental_uris":{"android":"levelo://app?vid=ac5c8581-8b1d-4bb3-a75d-36c5fd98dff0","ios":"levelo://app?vid=ac5c8581-8b1d-4bb3-a75d-36c5fd98dff0"},"vehicle_type_id":"4","last_reported":1743123016,"current_range_meters":12800,"station_id":"ce4bhh92rcd13ifvqfh0","pricing_plan_id":"cebpf4jnsgd1na2vs0mg"},{"bike_id":"213522d2-34be-42dc-a861-71dacdd3d79c","system_id":"levelo_inurba_marseille","lat":43.2512,"lon":5.40321,"is_reserved":false,"is_disabled":false,"rental_uris":{"android":"levelo://app?vid=213522d2-34be-42dc-a861-71dacdd3d79c","ios":"levelo://app?vid=213522d2-34be-42dc-a861-71dacdd3d79c"},"vehicle_type_id":"4","last_reported":1743123016,"current_range_meters":12800,"station_id":"ce4bhlh2rcd13ifvqgig","pricing_plan_id":"cebpf4jnsgd1na2vs0mg"},{"bike_id":"0f1f83e7-db71-4d69-bca1-763d2105909b","system_id":"levelo_inurba_marseille","lat":43.30334,"lon":5.40437,"is_reserved":false,"is_disabled":false,"rental_uris":{"android":"levelo://app?vid=0f1f83e7-db71-4d69-bca1-763d2105909b","ios":"levelo://app?vid=0f1f83e7-db71-4d69-bca1-763d2105909b"},"vehicle_type_id":"4","last_reported":1743123016,"current_range_meters":12800,"station_id":"ce4bh012rcd13ifvqd10","pricing_plan_id":"cebpf4jnsgd1na2vs0mg"},{"bike_id":"855fd122-c3f8-4a4e-a851-cb10801b8791","system_id":"levelo_inurba_marseille","lat":43.30885,"lon":5.39636,"is_reserved":false,"is_disabled":false,"rental_uris":{"android":"levelo://app?vid=855fd122-c3f8-4a4e-a851-cb10801b8791","ios":"levelo://app?vid=855fd122-c3f8-4a4e-a851-cb10801b8791"},"vehicle_type_id":"4","last_reported":1743123016,"current_range_meters":12800,"station_id":"ce4bh012rcd13ifvqcv0","pricing_plan_id":"cebpf4jnsgd1na2vs0mg"},{"bike_id":"f43662ee-c720-4d57-a460-0de05ea9047c","system_id":"levelo_inurba_marseille","lat":43.32404,"lon":5.38893,"is_reserved":false,"is_disabled":false,"rental_uris":{"android":"levelo://app?vid=f43662ee-c720-4d57-a460-0de05ea9047c","ios":"levelo://app?vid=f43662ee-c720-4d57-a460-0de05ea9047c"},"vehicle_type_id":"4","last_reported":1743123016,"current_range_meters":12800,"station_id":"ce4bhqp2rcd13ifvqhog","pricing_plan_id":"cebpf4jnsgd1na2vs0mg"},{"bike_id":"62feeb8e-b2cc-48d6-9f73-3dd1b580c165","system_id":"levelo_inurba_marseille","lat":43.25121,"lon":5.40317,"is_reserved":false,"is_disabled":false,"rental_uris":{"android":"levelo://app?vid=62feeb8e-b2cc-48d6-9f73-3dd1b580c165","ios":"levelo://app?vid=62feeb8e-b2cc-48d6-9f73-3dd1b580c165"},"vehicle_type_id":"4","last_reported":1743123016,"current_range_meters":13600,"station_id":"ce4bhlh2rcd13ifvqgig","pricing_plan_id":"cebpf4jnsgd1na2vs0mg"},{"bike_id":"3fbcdfd8-5176-471d-aa84-e8e20bb4418e","system_id":"levelo_inurba_marseille","lat":43.32112,"lon":5.36788,"is_reserved":false,"is_disabled":false,"rental_uris":{"android":"levelo://app?vid=3fbcdfd8-5176-471d-aa84-e8e20bb4418e","ios":"levelo://app?vid=3fbcdfd8-5176-471d-aa84-e8e20bb4418e"},"vehicle_type_id":"4","last_reported":1743123016,"current_range_meters":13600,"station_id":"ce4bhrh2rcd13ifvqhug","pricing_plan_id":"cebpf4jnsgd1na2vs0mg"},{"bike_id":"889389b5-737f-4fa1-9dd2-71f9cb4ea254","system_id":"levelo_inurba_marseille","lat":43.27912,"lon":5.39598,"is_reserved":false,"is_disabled":false,"rental_uris":{"android":"levelo://app?vid=889389b5-737f-4fa1-9dd2-71f9cb4ea254","ios":"levelo://app?vid=889389b5-737f-4fa1-9dd2-71f9cb4ea254"},"vehicle_type_id":"4","last_reported":1743123016,"current_range_meters":13600,"station_id":"ce4bhf92rcd13ifvqf40","pricing_plan_id":"cebpf4jnsgd1na2vs0mg"},{"bike_id":"ac6a9dc9-aa2d-4512-8f11-583719abe48e","system_id":"levelo_inurba_marseille","lat":43.28954,"lon":5.36619,"is_reserved":false,"is_disabled":false,"rental_uris":{"android":"levelo://app?vid=ac6a9dc9-aa2d-4512-8f11-583719abe48e","ios":"levelo://app?vid=ac6a9dc9-aa2d-4512-8f11-583719abe48e"},"vehicle_type_id":"4","last_reported":1743123016,"current_range_meters":13600,"station_id":"ce4bhap2rcd13ifvqek0","pricing_plan_id":"cebpf4jnsgd1na2vs0mg"},{"bike_id":"aeee719e-56c9-4414-9561-e5b2a78b28a9","system_id":"levelo_inurba_marseille","lat":43.25083,"lon":5.39506,"is_reserved":false,"is_disabled":false,"rental_uris":{"android":"levelo://app?vid=aeee719e-56c9-4414-9561-e5b2a78b28a9","ios":"levelo://app?vid=aeee719e-56c9-4414-9561-e5b2a78b28a9"},"vehicle_type_id":"4","last_reported":1743123016,"current_range_meters":13600,"station_id":"ce4bhm12rcd13ifvqgkg","pricing_plan_id":"cebpf4jnsgd1na2vs0mg"},{"bike_id":"7655d9b7-ab68-4d9e-ba5f-6243a4ea0a8a","system_id":"levelo_inurba_marseille","lat":43.25095,"lon":5.40334,"is_reserved":false,"is_disabled":false,"rental_uris":{"android":"levelo://app?vid=7655d9b7-ab68-4d9e-ba5f-6243a4ea0a8a","ios":"levelo://app?vid=7655d9b7-ab68-4d9e-ba5f-6243a4ea0a8a"},"vehicle_type_id":"4","last_reported":1743123016,"current_range_meters":13600,"station_id":"ce4bhlh2rcd13ifvqgig","pricing_plan_id":"cebpf4jnsgd1na2vs0mg"},{"bike_id":"d8688447-b8ce-4bc0-9571-24215d635277","system_id":"levelo_inurba_marseille","lat":43.28481,"lon":5.35882,"is_reserved":false,"is_disabled":false,"rental_uris":{"android":"levelo://app?vid=d8688447-b8ce-4bc0-9571-24215d635277","ios":"levelo://app?vid=d8688447-b8ce-4bc0-9571-24215d635277"},"vehicle_type_id":"4","last_reported":1743123016,"current_range_meters":13600,"station_id":"ce4bhah2rcd13ifvqei0","pricing_plan_id":"cebpf4jnsgd1na2vs0mg"},{"bike_id":"ac776cf5-d9af-47cc-83cc-cf37e00c8684","system_id":"levelo_inurba_marseille","lat":43.30303,"lon":5.40261,"is_reserved":false,"is_disabled":false,"rental_uris":{"android":"levelo://app?vid=ac776cf5-d9af-47cc-83cc-cf37e00c8684","ios":"levelo://app?vid=ac776cf5-d9af-47cc-83cc-cf37e00c8684"},"vehicle_type_id":"4","last_reported":1743123016,"current_range_meters":13600,"station_id":"","pricing_plan_id":"cebpf4jnsgd1na2vs0mg"},{"bike_id":"cea38d8c-f3ab-4e30-9c93-859813b3fc71","system_id":"levelo_inurba_marseille","lat":43.27564,"lon":5.38412,"is_reserved":false,"is_disabled":false,"rental_uris":{"android":"levelo://app?vid=cea38d8c-f3ab-4e30-9c93-859813b3fc71","ios":"levelo://app?vid=cea38d8c-f3ab-4e30-9c93-859813b3fc71"},"vehicle_type_id":"4","last_reported":1743123016,"current_range_meters":14000,"station_id":"ce4bhh92rcd13ifvqfi0","pricing_plan_id":"cebpf4jnsgd1na2vs0mg"},{"bike_id":"0ddc3ef9-c9ca-479a-8b28-e2773a58874a","system_id":"levelo_inurba_marseille","lat":43.284095,"lon":5.375339,"is_reserved":false,"is_disabled":false,"rental_uris":{"android":"levelo://app?vid=0ddc3ef9-c9ca-479a-8b28-e2773a58874a","ios":"levelo://app?vid=0ddc3ef9-c9ca-479a-8b28-e2773a58874a"},"vehicle_type_id":"4","last_reported":1743123016,"current_range_meters":14000,"station_id":"ce4bh412rcd13ifvqds0","pricing_plan_id":"cebpf4jnsgd1na2vs0mg"},{"bike_id":"a81ae25c-5bbc-499b-9e68-1b1ad7365b0f","system_id":"levelo_inurba_marseille","lat":43.25723,"lon":5.41114,"is_reserved":false,"is_disabled":false,"rental_uris":{"android":"levelo://app?vid=a81ae25c-5bbc-499b-9e68-1b1ad7365b0f","ios":"levelo://app?vid=a81ae25c-5bbc-499b-9e68-1b1ad7365b0f"},"vehicle_type_id":"4","last_reported":1743123016,"current_range_meters":14000,"station_id":"ce4bhkp2rcd13ifvqgd0","pricing_plan_id":"cebpf4jnsgd1na2vs0mg"},{"bike_id":"6082a6d8-29f3-4441-bd82-d0f95ead75d7","system_id":"levelo_inurba_marseille","lat":43.23196,"lon":5.35536,"is_reserved":false,"is_disabled":false,"rental_uris":{"android":"levelo://app?vid=6082a6d8-29f3-4441-bd82-d0f95ead75d7","ios":"levelo://app?vid=6082a6d8-29f3-4441-bd82-d0f95ead75d7"},"vehicle_type_id":"4","last_reported":1743123016,"current_range_meters":14000,"station_id":"ce4bhu92rcd13ifvqi70","pricing_plan_id":"cebpf4jnsgd1na2vs0mg"},{"bike_id":"68e9fc26-8998-4bf7-8da8-af47209f9b7c","system_id":"levelo_inurba_marseille","lat":43.32111,"lon":5.36802,"is_reserved":false,"is_disabled":false,"rental_uris":{"android":"levelo://app?vid=68e9fc26-8998-4bf7-8da8-af47209f9b7c","ios":"levelo://app?vid=68e9fc26-8998-4bf7-8da8-af47209f9b7c"},"vehicle_type_id":"4","last_reported":1743123016,"current_range_meters":14000,"station_id":"ce4bhrh2rcd13ifvqhug","pricing_plan_id":"cebpf4jnsgd1na2vs0mg"},{"bike_id":"520692e3-de93-4ca9-8fdd-f1dbe2f2a471","system_id":"levelo_inurba_marseille","lat":43.29529,"lon":5.39396,"is_reserved":false,"is_disabled":false,"rental_uris":{"android":"levelo://app?vid=520692e3-de93-4ca9-8fdd-f1dbe2f2a471","ios":"levelo://app?vid=520692e3-de93-4ca9-8fdd-f1dbe2f2a471"},"vehicle_type_id":"4","last_reported":1743123016,"current_range_meters":14000,"station_id":"ce4bh292rcd13ifvqdf0","pricing_plan_id":"cebpf4jnsgd1na2vs0mg"},{"bike_id":"6d249512-c4ef-4c94-abf5-52cc6421d62a","system_id":"levelo_inurba_marseille","lat":43.28094,"lon":5.39661,"is_reserved":false,"is_disabled":false,"rental_uris":{"android":"levelo://app?vid=6d249512-c4ef-4c94-abf5-52cc6421d62a","ios":"levelo://app?vid=6d249512-c4ef-4c94-abf5-52cc6421d62a"},"vehicle_type_id":"4","last_reported":1743123016,"current_range_meters":14000,"station_id":"ce4bho12rcd13ifvqh2g","pricing_plan_id":"cebpf4jnsgd1na2vs0mg"},{"bike_id":"c137871e-a58c-4f51-8021-faf24fe0f355","system_id":"levelo_inurba_marseille","lat":43.28741,"lon":5.36086,"is_reserved":false,"is_disabled":false,"rental_uris":{"android":"levelo://app?vid=c137871e-a58c-4f51-8021-faf24fe0f355","ios":"levelo://app?vid=c137871e-a58c-4f51-8021-faf24fe0f355"},"vehicle_type_id":"4","last_reported":1743123016,"current_range_meters":14000,"station_id":"cki0cbj6b192h4jlfktg","pricing_plan_id":"cebpf4jnsgd1na2vs0mg"},{"bike_id":"794262a6-2812-48d9-b7fa-f2c9665d76e2","system_id":"levelo_inurba_marseille","lat":43.28451,"lon":5.35894,"is_reserved":false,"is_disabled":false,"rental_uris":{"android":"levelo://app?vid=794262a6-2812-48d9-b7fa-f2c9665d76e2","ios":"levelo://app?vid=794262a6-2812-48d9-b7fa-f2c9665d76e2"},"vehicle_type_id":"4","last_reported":1743123016,"current_range_meters":14000,"station_id":"ce4bhah2rcd13ifvqei0","pricing_plan_id":"cebpf4jnsgd1na2vs0mg"},{"bike_id":"3133b510-15be-45b7-858c-49d08d44d638","system_id":"levelo_inurba_marseille","lat":43.29033,"lon":5.38639,"is_reserved":false,"is_disabled":false,"rental_uris":{"android":"levelo://app?vid=3133b510-15be-45b7-858c-49d08d44d638","ios":"levelo://app?vid=3133b510-15be-45b7-858c-49d08d44d638"},"vehicle_type_id":"4","last_reported":1743123016,"current_range_meters":14000,"station_id":"ce4bh4p2rcd13ifvqe0g","pricing_plan_id":"cebpf4jnsgd1na2vs0mg"},{"bike_id":"81dccb60-4bab-47c3-b325-dba53db53080","system_id":"levelo_inurba_marseille","lat":43.25119,"lon":5.4037,"is_reserved":false,"is_disabled":false,"rental_uris":{"android":"levelo://app?vid=81dccb60-4bab-47c3-b325-dba53db53080","ios":"levelo://app?vid=81dccb60-4bab-47c3-b325-dba53db53080"},"vehicle_type_id":"4","last_reported":1743123016,"current_range_meters":14400,"station_id":"ce4bhlh2rcd13ifvqgig","pricing_plan_id":"cebpf4jnsgd1na2vs0mg"},{"bike_id":"c527ac51-4362-4d1f-b9e1-306c1ebece74","system_id":"levelo_inurba_marseille","lat":43.29908,"lon":5.43689,"is_reserved":false,"is_disabled":false,"rental_uris":{"android":"levelo://app?vid=c527ac51-4362-4d1f-b9e1-306c1ebece74","ios":"levelo://app?vid=c527ac51-4362-4d1f-b9e1-306c1ebece74"},"vehicle_type_id":"4","last_reported":1743123016,"current_range_meters":14400,"station_id":"","pricing_plan_id":"cebpf4jnsgd1na2vs0mg"},{"bike_id":"ab79c7bb-1730-4a4c-b7ca-6d520982e325","system_id":"levelo_inurba_marseille","lat":43.24085,"lon":5.37757,"is_reserved":false,"is_disabled":false,"rental_uris":{"android":"levelo://app?vid=ab79c7bb-1730-4a4c-b7ca-6d520982e325","ios":"levelo://app?vid=ab79c7bb-1730-4a4c-b7ca-6d520982e325"},"vehicle_type_id":"4","last_reported":1743123016,"current_range_meters":14400,"station_id":"ce4bhnp2rcd13ifvqgvg","pricing_plan_id":"cebpf4jnsgd1na2vs0mg"},{"bike_id":"d7dfb900-e1fc-4b30-a420-5f0b81aeabc6","system_id":"levelo_inurba_marseille","lat":43.28464,"lon":5.35876,"is_reserved":false,"is_disabled":false,"rental_uris":{"android":"levelo://app?vid=d7dfb900-e1fc-4b30-a420-5f0b81aeabc6","ios":"levelo://app?vid=d7dfb900-e1fc-4b30-a420-5f0b81aeabc6"},"vehicle_type_id":"4","last_reported":1743123016,"current_range_meters":14400,"station_id":"ce4bhah2rcd13ifvqei0","pricing_plan_id":"cebpf4jnsgd1na2vs0mg"},{"bike_id":"106cdfd0-8bc5-492b-9b06-e6924aace05a","system_id":"levelo_inurba_marseille","lat":43.30143,"lon":5.37424,"is_reserved":false,"is_disabled":false,"rental_uris":{"android":"levelo://app?vid=106cdfd0-8bc5-492b-9b06-e6924aace05a","ios":"levelo://app?vid=106cdfd0-8bc5-492b-9b06-e6924aace05a"},"vehicle_type_id":"4","last_reported":1743123016,"current_range_meters":14400,"station_id":"ce4bgs92rcd13ifvqcc0","pricing_plan_id":"cebpf4jnsgd1na2vs0mg"},{"bike_id":"5d39d3fc-59cf-4938-b87b-b1a101e5f6b0","system_id":"levelo_inurba_marseille","lat":43.31198,"lon":5.38709,"is_reserved":false,"is_disabled":false,"rental_uris":{"android":"levelo://app?vid=5d39d3fc-59cf-4938-b87b-b1a101e5f6b0","ios":"levelo://app?vid=5d39d3fc-59cf-4938-b87b-b1a101e5f6b0"},"vehicle_type_id":"4","last_reported":1743123016,"current_range_meters":14400,"station_id":"ce4bgv12rcd13ifvqcp0","pricing_plan_id":"cebpf4jnsgd1na2vs0mg"},{"bike_id":"8170275f-440c-41fd-a526-a4772bf7b5b2","system_id":"levelo_inurba_marseille","lat":43.28383,"lon":5.37473,"is_reserved":false,"is_disabled":false,"rental_uris":{"android":"levelo://app?vid=8170275f-440c-41fd-a526-a4772bf7b5b2","ios":"levelo://app?vid=8170275f-440c-41fd-a526-a4772bf7b5b2"},"vehicle_type_id":"4","last_reported":1743123016,"current_range_meters":14400,"station_id":"ce4bh412rcd13ifvqds0","pricing_plan_id":"cebpf4jnsgd1na2vs0mg"},{"bike_id":"929922ae-6aab-4bc3-af6d-7b28fbdb57ee","system_id":"levelo_inurba_marseille","lat":43.28469,"lon":5.35883,"is_reserved":false,"is_disabled":false,"rental_uris":{"android":"levelo://app?vid=929922ae-6aab-4bc3-af6d-7b28fbdb57ee","ios":"levelo://app?vid=929922ae-6aab-4bc3-af6d-7b28fbdb57ee"},"vehicle_type_id":"4","last_reported":1743123016,"current_range_meters":14400,"station_id":"ce4bhah2rcd13ifvqei0","pricing_plan_id":"cebpf4jnsgd1na2vs0mg"},{"bike_id":"65c86302-8ef0-46f4-ab6e-bac7149a2865","system_id":"levelo_inurba_marseille","lat":43.32133,"lon":5.36763,"is_reserved":false,"is_disabled":false,"rental_uris":{"android":"levelo://app?vid=65c86302-8ef0-46f4-ab6e-bac7149a2865","ios":"levelo://app?vid=65c86302-8ef0-46f4-ab6e-bac7149a2865"},"vehicle_type_id":"4","last_reported":1743123016,"current_range_meters":14400,"station_id":"ce4bhrh2rcd13ifvqhug","pricing_plan_id":"cebpf4jnsgd1na2vs0mg"},{"bike_id":"b1c6b5eb-b3e3-44e4-ab47-ce04ca5e2364","system_id":"levelo_inurba_marseille","lat":43.24184,"lon":5.39708,"is_reserved":false,"is_disabled":true,"rental_uris":{"android":"levelo://app?vid=b1c6b5eb-b3e3-44e4-ab47-ce04ca5e2364","ios":"levelo://app?vid=b1c6b5eb-b3e3-44e4-ab47-ce04ca5e2364"},"vehicle_type_id":"4","last_reported":1743123016,"current_range_meters":14800,"station_id":"ce4bhn12rcd13ifvqgpg","pricing_plan_id":"cebpf4jnsgd1na2vs0mg"},{"bike_id":"fb348b09-6abb-47a4-a266-91f2eeaee291","system_id":"levelo_inurba_marseille","lat":43.32126,"lon":5.36738,"is_reserved":false,"is_disabled":false,"rental_uris":{"android":"levelo://app?vid=fb348b09-6abb-47a4-a266-91f2eeaee291","ios":"levelo://app?vid=fb348b09-6abb-47a4-a266-91f2eeaee291"},"vehicle_type_id":"4","last_reported":1743123016,"current_range_meters":14800,"station_id":"ce4bhrh2rcd13ifvqhug","pricing_plan_id":"cebpf4jnsgd1na2vs0mg"},{"bike_id":"6aa02f06-3267-4d63-8b2d-0be90997853f","system_id":"levelo_inurba_marseille","lat":43.29516,"lon":5.39404,"is_reserved":false,"is_disabled":false,"rental_uris":{"android":"levelo://app?vid=6aa02f06-3267-4d63-8b2d-0be90997853f","ios":"levelo://app?vid=6aa02f06-3267-4d63-8b2d-0be90997853f"},"vehicle_type_id":"4","last_reported":1743123016,"current_range_meters":14800,"station_id":"ce4bh292rcd13ifvqdf0","pricing_plan_id":"cebpf4jnsgd1na2vs0mg"},{"bike_id":"da72873e-97f6-4c40-b521-506e54769144","system_id":"levelo_inurba_marseille","lat":43.27816,"lon":5.4072,"is_reserved":false,"is_disabled":false,"rental_uris":{"android":"levelo://app?vid=da72873e-97f6-4c40-b521-506e54769144","ios":"levelo://app?vid=da72873e-97f6-4c40-b521-506e54769144"},"vehicle_type_id":"4","last_reported":1743123016,"current_range_meters":14800,"station_id":"ce4bhnh2rcd13ifvqgtg","pricing_plan_id":"cebpf4jnsgd1na2vs0mg"},{"bike_id":"93ce7381-ad02-44d3-9870-8973b4f82d45","system_id":"levelo_inurba_marseille","lat":43.284407,"lon":5.39196,"is_reserved":false,"is_disabled":false,"rental_uris":{"android":"levelo://app?vid=93ce7381-ad02-44d3-9870-8973b4f82d45","ios":"levelo://app?vid=93ce7381-ad02-44d3-9870-8973b4f82d45"},"vehicle_type_id":"4","last_reported":1743123016,"current_range_meters":14800,"station_id":"ce4bhoh2rcd13ifvqh5g","pricing_plan_id":"cebpf4jnsgd1na2vs0mg"},{"bike_id":"1b733ee8-1894-4dc9-ba19-4de13a195823","system_id":"levelo_inurba_marseille","lat":43.24667,"lon":5.38893,"is_reserved":false,"is_disabled":false,"rental_uris":{"android":"levelo://app?vid=1b733ee8-1894-4dc9-ba19-4de13a195823","ios":"levelo://app?vid=1b733ee8-1894-4dc9-ba19-4de13a195823"},"vehicle_type_id":"4","last_reported":1743123016,"current_range_meters":14800,"station_id":"ce4bhg12rcd13ifvqf60","pricing_plan_id":"cebpf4jnsgd1na2vs0mg"},{"bike_id":"aed2caaf-e63e-4d9f-9fab-effd4b56045d","system_id":"levelo_inurba_marseille","lat":43.26233,"lon":5.40458,"is_reserved":false,"is_disabled":false,"rental_uris":{"android":"levelo://app?vid=aed2caaf-e63e-4d9f-9fab-effd4b56045d","ios":"levelo://app?vid=aed2caaf-e63e-4d9f-9fab-effd4b56045d"},"vehicle_type_id":"4","last_reported":1743123016,"current_range_meters":14800,"station_id":"ce4bhmh2rcd13ifvqgmg","pricing_plan_id":"cebpf4jnsgd1na2vs0mg"},{"bike_id":"d2a93798-e4be-4fdc-a4d6-af8dd55b3cfe","system_id":"levelo_inurba_marseille","lat":43.28931,"lon":5.38387,"is_reserved":false,"is_disabled":false,"rental_uris":{"android":"levelo://app?vid=d2a93798-e4be-4fdc-a4d6-af8dd55b3cfe","ios":"levelo://app?vid=d2a93798-e4be-4fdc-a4d6-af8dd55b3cfe"},"vehicle_type_id":"4","last_reported":1743123016,"current_range_meters":14800,"station_id":"ce4bh612rcd13ifvqe6g","pricing_plan_id":"cebpf4jnsgd1na2vs0mg"},{"bike_id":"b586c1d7-f0e2-4059-9ca7-191498982cf0","system_id":"levelo_inurba_marseille","lat":43.24046,"lon":5.3767,"is_reserved":false,"is_disabled":false,"rental_uris":{"android":"levelo://app?vid=b586c1d7-f0e2-4059-9ca7-191498982cf0","ios":"levelo://app?vid=b586c1d7-f0e2-4059-9ca7-191498982cf0"},"vehicle_type_id":"4","last_reported":1743123016,"current_range_meters":14800,"station_id":"ce4bhnp2rcd13ifvqgvg","pricing_plan_id":"cebpf4jnsgd1na2vs0mg"},{"bike_id":"9462a91b-8b4b-430a-ac7a-4612f1bebb31","system_id":"levelo_inurba_marseille","lat":43.29104,"lon":5.38158,"is_reserved":false,"is_disabled":true,"rental_uris":{"android":"levelo://app?vid=9462a91b-8b4b-430a-ac7a-4612f1bebb31","ios":"levelo://app?vid=9462a91b-8b4b-430a-ac7a-4612f1bebb31"},"vehicle_type_id":"4","last_reported":1743123016,"current_range_meters":14800,"station_id":"ce4bh512rcd13ifvqe2g","pricing_plan_id":"cebpf4jnsgd1na2vs0mg"},{"bike_id":"e357ff7e-4fdf-469d-9350-00d626a076d5","system_id":"levelo_inurba_marseille","lat":43.31336,"lon":5.3971,"is_reserved":false,"is_disabled":false,"rental_uris":{"android":"levelo://app?vid=e357ff7e-4fdf-469d-9350-00d626a076d5","ios":"levelo://app?vid=e357ff7e-4fdf-469d-9350-00d626a076d5"},"vehicle_type_id":"4","last_reported":1743123016,"current_range_meters":14800,"station_id":"ce4bgvp2rcd13ifvqcu0","pricing_plan_id":"cebpf4jnsgd1na2vs0mg"},{"bike_id":"11cb49bf-37c4-40a2-8859-7646c0dddb51","system_id":"levelo_inurba_marseille","lat":43.27819,"lon":5.40714,"is_reserved":false,"is_disabled":false,"rental_uris":{"android":"levelo://app?vid=11cb49bf-37c4-40a2-8859-7646c0dddb51","ios":"levelo://app?vid=11cb49bf-37c4-40a2-8859-7646c0dddb51"},"vehicle_type_id":"4","last_reported":1743123016,"current_range_meters":14800,"station_id":"ce4bhnh2rcd13ifvqgtg","pricing_plan_id":"cebpf4jnsgd1na2vs0mg"},{"bike_id":"d6ee57b7-1d01-4c1e-a9a6-f28d31a2aabe","system_id":"levelo_inurba_marseille","lat":43.28945,"lon":5.39629,"is_reserved":false,"is_disabled":false,"rental_uris":{"android":"levelo://app?vid=d6ee57b7-1d01-4c1e-a9a6-f28d31a2aabe","ios":"levelo://app?vid=d6ee57b7-1d01-4c1e-a9a6-f28d31a2aabe"},"vehicle_type_id":"4","last_reported":1743123016,"current_range_meters":14800,"station_id":"ce4bh3h2rcd13ifvqdn0","pricing_plan_id":"cebpf4jnsgd1na2vs0mg"},{"bike_id":"2f59b69a-8d79-4aff-a569-a4f4f097dd47","system_id":"levelo_inurba_marseille","lat":43.26566,"lon":5.39056,"is_reserved":false,"is_disabled":false,"rental_uris":{"android":"levelo://app?vid=2f59b69a-8d79-4aff-a569-a4f4f097dd47","ios":"levelo://app?vid=2f59b69a-8d79-4aff-a569-a4f4f097dd47"},"vehicle_type_id":"4","last_reported":1743123016,"current_range_meters":15200,"station_id":"ce4bhe12rcd13ifvqf30","pricing_plan_id":"cebpf4jnsgd1na2vs0mg"},{"bike_id":"ca7e0dc1-95b1-41ee-bfb6-6f7d653c8926","system_id":"levelo_inurba_marseille","lat":43.30374,"lon":5.37549,"is_reserved":false,"is_disabled":false,"rental_uris":{"android":"levelo://app?vid=ca7e0dc1-95b1-41ee-bfb6-6f7d653c8926","ios":"levelo://app?vid=ca7e0dc1-95b1-41ee-bfb6-6f7d653c8926"},"vehicle_type_id":"4","last_reported":1743123016,"current_range_meters":15200,"station_id":"","pricing_plan_id":"cebpf4jnsgd1na2vs0mg"},{"bike_id":"a84b3a51-eb20-4937-b0a4-5b7394b04845","system_id":"levelo_inurba_marseille","lat":43.29801,"lon":5.40405,"is_reserved":false,"is_disabled":false,"rental_uris":{"android":"levelo://app?vid=a84b3a51-eb20-4937-b0a4-5b7394b04845","ios":"levelo://app?vid=a84b3a51-eb20-4937-b0a4-5b7394b04845"},"vehicle_type_id":"4","last_reported":1743123016,"current_range_meters":15200,"station_id":"ce4bh112rcd13ifvqd90","pricing_plan_id":"cebpf4jnsgd1na2vs0mg"},{"bike_id":"5a8b4983-c8cb-4485-abc3-471ad0e92cdf","system_id":"levelo_inurba_marseille","lat":43.301354,"lon":5.39848,"is_reserved":false,"is_disabled":false,"rental_uris":{"android":"levelo://app?vid=5a8b4983-c8cb-4485-abc3-471ad0e92cdf","ios":"levelo://app?vid=5a8b4983-c8cb-4485-abc3-471ad0e92cdf"},"vehicle_type_id":"4","last_reported":1743123016,"current_range_meters":15200,"station_id":"ce4bh0h2rcd13ifvqd40","pricing_plan_id":"cebpf4jnsgd1na2vs0mg"},{"bike_id":"52d3653b-04a8-4ed6-bc62-5cef2a068b3e","system_id":"levelo_inurba_marseille","lat":43.29051,"lon":5.39985,"is_reserved":false,"is_disabled":false,"rental_uris":{"android":"levelo://app?vid=52d3653b-04a8-4ed6-bc62-5cef2a068b3e","ios":"levelo://app?vid=52d3653b-04a8-4ed6-bc62-5cef2a068b3e"},"vehicle_type_id":"4","last_reported":1743123016,"current_range_meters":15200,"station_id":"ce4bh392rcd13ifvqdm0","pricing_plan_id":"cebpf4jnsgd1na2vs0mg"},{"bike_id":"c41db25c-a59a-40c1-a49c-f477cbeba5a7","system_id":"levelo_inurba_marseille","lat":43.28079,"lon":5.39631,"is_reserved":false,"is_disabled":false,"rental_uris":{"android":"levelo://app?vid=c41db25c-a59a-40c1-a49c-f477cbeba5a7","ios":"levelo://app?vid=c41db25c-a59a-40c1-a49c-f477cbeba5a7"},"vehicle_type_id":"4","last_reported":1743123016,"current_range_meters":15200,"station_id":"ce4bho12rcd13ifvqh2g","pricing_plan_id":"cebpf4jnsgd1na2vs0mg"},{"bike_id":"7f9d4433-4e2b-4ff0-b944-2dadd6027623","system_id":"levelo_inurba_marseille","lat":43.32145,"lon":5.36808,"is_reserved":false,"is_disabled":false,"rental_uris":{"android":"levelo://app?vid=7f9d4433-4e2b-4ff0-b944-2dadd6027623","ios":"levelo://app?vid=7f9d4433-4e2b-4ff0-b944-2dadd6027623"},"vehicle_type_id":"4","last_reported":1743123016,"current_range_meters":15200,"station_id":"","pricing_plan_id":"cebpf4jnsgd1na2vs0mg"},{"bike_id":"22dfe4d3-9632-4fa5-b85e-eb8bf7a33a75","system_id":"levelo_inurba_marseille","lat":43.28713,"lon":5.37938,"is_reserved":false,"is_disabled":false,"rental_uris":{"android":"levelo://app?vid=22dfe4d3-9632-4fa5-b85e-eb8bf7a33a75","ios":"levelo://app?vid=22dfe4d3-9632-4fa5-b85e-eb8bf7a33a75"},"vehicle_type_id":"4","last_reported":1743123016,"current_range_meters":15200,"station_id":"ce4bh9p2rcd13ifvqec0","pricing_plan_id":"cebpf4jnsgd1na2vs0mg"},{"bike_id":"39e0c735-b50e-4953-acd7-8896ed9a5331","system_id":"levelo_inurba_marseille","lat":43.29288,"lon":5.40117,"is_reserved":false,"is_disabled":false,"rental_uris":{"android":"levelo://app?vid=39e0c735-b50e-4953-acd7-8896ed9a5331","ios":"levelo://app?vid=39e0c735-b50e-4953-acd7-8896ed9a5331"},"vehicle_type_id":"4","last_reported":1743123016,"current_range_meters":15200,"station_id":"ce4bh312rcd13ifvqdk0","pricing_plan_id":"cebpf4jnsgd1na2vs0mg"},{"bike_id":"c6c8fb31-86de-4758-859b-e74b70125ab7","system_id":"levelo_inurba_marseille","lat":43.3211,"lon":5.36784,"is_reserved":false,"is_disabled":false,"rental_uris":{"android":"levelo://app?vid=c6c8fb31-86de-4758-859b-e74b70125ab7","ios":"levelo://app?vid=c6c8fb31-86de-4758-859b-e74b70125ab7"},"vehicle_type_id":"4","last_reported":1743123016,"current_range_meters":15200,"station_id":"ce4bhrh2rcd13ifvqhug","pricing_plan_id":"cebpf4jnsgd1na2vs0mg"},{"bike_id":"62a65bab-dee1-4ec8-be58-569b3ad661eb","system_id":"levelo_inurba_marseille","lat":43.2903,"lon":5.38647,"is_reserved":false,"is_disabled":false,"rental_uris":{"android":"levelo://app?vid=62a65bab-dee1-4ec8-be58-569b3ad661eb","ios":"levelo://app?vid=62a65bab-dee1-4ec8-be58-569b3ad661eb"},"vehicle_type_id":"4","last_reported":1743123016,"current_range_meters":15200,"station_id":"ce4bh4p2rcd13ifvqe0g","pricing_plan_id":"cebpf4jnsgd1na2vs0mg"},{"bike_id":"3a0adc3f-14d3-4b98-b1d3-b422e23c387a","system_id":"levelo_inurba_marseille","lat":43.30809,"lon":5.43528,"is_reserved":false,"is_disabled":false,"rental_uris":{"android":"levelo://app?vid=3a0adc3f-14d3-4b98-b1d3-b422e23c387a","ios":"levelo://app?vid=3a0adc3f-14d3-4b98-b1d3-b422e23c387a"},"vehicle_type_id":"4","last_reported":1743123016,"current_range_meters":16000,"station_id":"ce4bhph2rcd13ifvqheg","pricing_plan_id":"cebpf4jnsgd1na2vs0mg"},{"bike_id":"65e0ff93-ce4d-47ff-90b5-21c7e73e585e","system_id":"levelo_inurba_marseille","lat":43.27947,"lon":5.38695,"is_reserved":false,"is_disabled":false,"rental_uris":{"android":"levelo://app?vid=65e0ff93-ce4d-47ff-90b5-21c7e73e585e","ios":"levelo://app?vid=65e0ff93-ce4d-47ff-90b5-21c7e73e585e"},"vehicle_type_id":"4","last_reported":1743123016,"current_range_meters":16000,"station_id":"ce4bhg12rcd13ifvqf80","pricing_plan_id":"cebpf4jnsgd1na2vs0mg"},{"bike_id":"c14b619a-d8da-4bbf-846f-02b7c7eb6274","system_id":"levelo_inurba_marseille","lat":43.32121,"lon":5.36773,"is_reserved":false,"is_disabled":false,"rental_uris":{"android":"levelo://app?vid=c14b619a-d8da-4bbf-846f-02b7c7eb6274","ios":"levelo://app?vid=c14b619a-d8da-4bbf-846f-02b7c7eb6274"},"vehicle_type_id":"4","last_reported":1743123016,"current_range_meters":16000,"station_id":"ce4bhrh2rcd13ifvqhug","pricing_plan_id":"cebpf4jnsgd1na2vs0mg"},{"bike_id":"533fc0f8-9ab2-49c1-9c64-12c6aaef63a8","system_id":"levelo_inurba_marseille","lat":43.302088,"lon":5.394614,"is_reserved":false,"is_disabled":false,"rental_uris":{"android":"levelo://app?vid=533fc0f8-9ab2-49c1-9c64-12c6aaef63a8","ios":"levelo://app?vid=533fc0f8-9ab2-49c1-9c64-12c6aaef63a8"},"vehicle_type_id":"4","last_reported":1743123016,"current_range_meters":16000,"station_id":"ce4bh0p2rcd13ifvqd70","pricing_plan_id":"cebpf4jnsgd1na2vs0mg"},{"bike_id":"eb39d99e-618f-4be1-b759-b1bd0fb5006d","system_id":"levelo_inurba_marseille","lat":43.31536,"lon":5.38047,"is_reserved":false,"is_disabled":false,"rental_uris":{"android":"levelo://app?vid=eb39d99e-618f-4be1-b759-b1bd0fb5006d","ios":"levelo://app?vid=eb39d99e-618f-4be1-b759-b1bd0fb5006d"},"vehicle_type_id":"4","last_reported":1743123016,"current_range_meters":16000,"station_id":"ce4bhsp2rcd13ifvqi50","pricing_plan_id":"cebpf4jnsgd1na2vs0mg"},{"bike_id":"7c5937cd-9b8a-4a66-b604-3a6cb98744b3","system_id":"levelo_inurba_marseille","lat":43.28153,"lon":5.42647,"is_reserved":false,"is_disabled":false,"rental_uris":{"android":"levelo://app?vid=7c5937cd-9b8a-4a66-b604-3a6cb98744b3","ios":"levelo://app?vid=7c5937cd-9b8a-4a66-b604-3a6cb98744b3"},"vehicle_type_id":"4","last_reported":1743123016,"current_range_meters":16000,"station_id":"ce4bhnh2rcd13ifvqgug","pricing_plan_id":"cebpf4jnsgd1na2vs0mg"},{"bike_id":"9492c0b3-582b-414f-8ce3-8444d654aada","system_id":"levelo_inurba_marseille","lat":43.26567,"lon":5.39005,"is_reserved":false,"is_disabled":false,"rental_uris":{"android":"levelo://app?vid=9492c0b3-582b-414f-8ce3-8444d654aada","ios":"levelo://app?vid=9492c0b3-582b-414f-8ce3-8444d654aada"},"vehicle_type_id":"4","last_reported":1743123016,"current_range_meters":16000,"station_id":"ce4bhe12rcd13ifvqf30","pricing_plan_id":"cebpf4jnsgd1na2vs0mg"},{"bike_id":"4fa73ed0-42fd-47ee-b5d8-d68fd4392e6c","system_id":"levelo_inurba_marseille","lat":43.26195,"lon":5.42077,"is_reserved":false,"is_disabled":false,"rental_uris":{"android":"levelo://app?vid=4fa73ed0-42fd-47ee-b5d8-d68fd4392e6c","ios":"levelo://app?vid=4fa73ed0-42fd-47ee-b5d8-d68fd4392e6c"},"vehicle_type_id":"4","last_reported":1743123016,"current_range_meters":16000,"station_id":"","pricing_plan_id":"cebpf4jnsgd1na2vs0mg"},{"bike_id":"b67d25d2-bc54-4416-bef3-cd0fe519ec82","system_id":"levelo_inurba_marseille","lat":43.28668,"lon":5.36357,"is_reserved":false,"is_disabled":false,"rental_uris":{"android":"levelo://app?vid=b67d25d2-bc54-4416-bef3-cd0fe519ec82","ios":"levelo://app?vid=b67d25d2-bc54-4416-bef3-cd0fe519ec82"},"vehicle_type_id":"4","last_reported":1743123016,"current_range_meters":16000,"station_id":"ce4bhah2rcd13ifvqej0","pricing_plan_id":"cebpf4jnsgd1na2vs0mg"},{"bike_id":"2069114f-a483-4b58-b6e7-fe6695da5f18","system_id":"levelo_inurba_marseille","lat":43.28536,"lon":5.39978,"is_reserved":false,"is_disabled":false,"rental_uris":{"android":"levelo://app?vid=2069114f-a483-4b58-b6e7-fe6695da5f18","ios":"levelo://app?vid=2069114f-a483-4b58-b6e7-fe6695da5f18"},"vehicle_type_id":"4","last_reported":1743123016,"current_range_meters":16000,"station_id":"","pricing_plan_id":"cebpf4jnsgd1na2vs0mg"},{"bike_id":"938b6d80-c940-4a47-9dbc-f24cc0f9aea7","system_id":"levelo_inurba_marseille","lat":43.2395,"lon":5.3664,"is_reserved":false,"is_disabled":false,"rental_uris":{"android":"levelo://app?vid=938b6d80-c940-4a47-9dbc-f24cc0f9aea7","ios":"levelo://app?vid=938b6d80-c940-4a47-9dbc-f24cc0f9aea7"},"vehicle_type_id":"4","last_reported":1743123016,"current_range_meters":16000,"station_id":"ce4bhi12rcd13ifvqfp0","pricing_plan_id":"cebpf4jnsgd1na2vs0mg"},{"bike_id":"6cbddcc1-9609-4503-9874-4b78c26df24e","system_id":"levelo_inurba_marseille","lat":43.3197,"lon":5.37102,"is_reserved":false,"is_disabled":false,"rental_uris":{"android":"levelo://app?vid=6cbddcc1-9609-4503-9874-4b78c26df24e","ios":"levelo://app?vid=6cbddcc1-9609-4503-9874-4b78c26df24e"},"vehicle_type_id":"4","last_reported":1743123016,"current_range_meters":16000,"station_id":"","pricing_plan_id":"cebpf4jnsgd1na2vs0mg"},{"bike_id":"3dc4f6d9-7eab-4008-be97-1f5eaa8a8e7e","system_id":"levelo_inurba_marseille","lat":43.28444,"lon":5.35889,"is_reserved":false,"is_disabled":false,"rental_uris":{"android":"levelo://app?vid=3dc4f6d9-7eab-4008-be97-1f5eaa8a8e7e","ios":"levelo://app?vid=3dc4f6d9-7eab-4008-be97-1f5eaa8a8e7e"},"vehicle_type_id":"4","last_reported":1743123016,"current_range_meters":16000,"station_id":"ce4bhah2rcd13ifvqei0","pricing_plan_id":"cebpf4jnsgd1na2vs0mg"},{"bike_id":"0ba287f6-e97b-4d23-8414-6d14b26e6d32","system_id":"levelo_inurba_marseille","lat":43.32365,"lon":5.36763,"is_reserved":false,"is_disabled":false,"rental_uris":{"android":"levelo://app?vid=0ba287f6-e97b-4d23-8414-6d14b26e6d32","ios":"levelo://app?vid=0ba287f6-e97b-4d23-8414-6d14b26e6d32"},"vehicle_type_id":"4","last_reported":1743123016,"current_range_meters":16000,"station_id":"ce4bhsh2rcd13ifvqi2g","pricing_plan_id":"cebpf4jnsgd1na2vs0mg"},{"bike_id":"049b7bbb-7a3b-4e40-a718-7b80fbcdd5fc","system_id":"levelo_inurba_marseille","lat":43.28944,"lon":5.36405,"is_reserved":false,"is_disabled":false,"rental_uris":{"android":"levelo://app?vid=049b7bbb-7a3b-4e40-a718-7b80fbcdd5fc","ios":"levelo://app?vid=049b7bbb-7a3b-4e40-a718-7b80fbcdd5fc"},"vehicle_type_id":"4","last_reported":1743123016,"current_range_meters":16400,"station_id":"ce4bhc92rcd13ifvqetg","pricing_plan_id":"cebpf4jnsgd1na2vs0mg"},{"bike_id":"cc1dff8f-9801-41ad-94af-3016b7e1ec09","system_id":"levelo_inurba_marseille","lat":43.30532,"lon":5.38435,"is_reserved":false,"is_disabled":false,"rental_uris":{"android":"levelo://app?vid=cc1dff8f-9801-41ad-94af-3016b7e1ec09","ios":"levelo://app?vid=cc1dff8f-9801-41ad-94af-3016b7e1ec09"},"vehicle_type_id":"4","last_reported":1743123016,"current_range_meters":16400,"station_id":"ce4bgg92rcd13ifvqb30","pricing_plan_id":"cebpf4jnsgd1na2vs0mg"},{"bike_id":"da2bdeee-16dc-49fa-a192-c1fcf8184552","system_id":"levelo_inurba_marseille","lat":43.26947,"lon":5.38657,"is_reserved":false,"is_disabled":false,"rental_uris":{"android":"levelo://app?vid=da2bdeee-16dc-49fa-a192-c1fcf8184552","ios":"levelo://app?vid=da2bdeee-16dc-49fa-a192-c1fcf8184552"},"vehicle_type_id":"4","last_reported":1743123016,"current_range_meters":16400,"station_id":"ce4bhh92rcd13ifvqfh0","pricing_plan_id":"cebpf4jnsgd1na2vs0mg"},{"bike_id":"c7b1e734-8645-46e3-a8aa-254b2cea6dc5","system_id":"levelo_inurba_marseille","lat":43.30247,"lon":5.40053,"is_reserved":false,"is_disabled":false,"rental_uris":{"android":"levelo://app?vid=c7b1e734-8645-46e3-a8aa-254b2cea6dc5","ios":"levelo://app?vid=c7b1e734-8645-46e3-a8aa-254b2cea6dc5"},"vehicle_type_id":"4","last_reported":1743123016,"current_range_meters":16400,"station_id":"ce4bgvh2rcd13ifvqcs0","pricing_plan_id":"cebpf4jnsgd1na2vs0mg"},{"bike_id":"57c03374-e2e3-466b-a358-3b7ab41c163e","system_id":"levelo_inurba_marseille","lat":43.30413,"lon":5.41285,"is_reserved":false,"is_disabled":false,"rental_uris":{"android":"levelo://app?vid=57c03374-e2e3-466b-a358-3b7ab41c163e","ios":"levelo://app?vid=57c03374-e2e3-466b-a358-3b7ab41c163e"},"vehicle_type_id":"4","last_reported":1743123016,"current_range_meters":16400,"station_id":"ce4bhop2rcd13ifvqh8g","pricing_plan_id":"cebpf4jnsgd1na2vs0mg"},{"bike_id":"fbf4b0ad-74a9-45ec-b0fd-6f3edbe73caf","system_id":"levelo_inurba_marseille","lat":43.28707,"lon":5.37372,"is_reserved":false,"is_disabled":false,"rental_uris":{"android":"levelo://app?vid=fbf4b0ad-74a9-45ec-b0fd-6f3edbe73caf","ios":"levelo://app?vid=fbf4b0ad-74a9-45ec-b0fd-6f3edbe73caf"},