{"last_updated":1727571010,"ttl":60,"version":"2.2","data":{"bikes":[{"bike_id":"e003e6d5-3a4f-4fa6-b67b-c95797b7f8ee","system_id":"levelo_inurba_marseille","lat":43.29005,"lon":5.35616,"is_reserved":false,"is_disabled":false,"rental_uris":{"android":"levelo://app?vid=e003e6d5-3a4f-4fa6-b67b-c95797b7f8ee","ios":"levelo://app?vid=e003e6d5-3a4f-4fa6-b67b-c95797b7f8ee"},"vehicle_type_id":"4","last_reported":1727571011,"current_range_meters":22400,"station_id":"ce4bhb92rcd13ifvqen0","pricing_plan_id":"cebpf4jnsgd1na2vs0mg"},{"bike_id":"6103b553-d24f-40fb-9867-6ef9176545d9","system_id":"levelo_inurba_marseille","lat":43.2793,"lon":5.39588,"is_reserved":false,"is_disabled":false,"rental_uris":{"android":"levelo://app?vid=6103b553-d24f-40fb-9867-6ef9176545d9","ios":"levelo://app?vid=6103b553-d24f-40fb-9867-6ef9176545d9"},"vehicle_type_id":"4","last_reported":1727571011,"current_range_meters":38400,"station_id":"ce4bhf92rcd13ifvqf40","pricing_plan_id":"cebpf4jnsgd1na2vs0mg"},{"bike_id":"1f67e8a5-7545-4f70-9a7b-0b7f6b5a2813","system_id":"levelo_inurba_marseille","lat":43.28359,"lon":5.38636,"is_reserved":false,"is_disabled":false,"rental_uris":{"android":"levelo://app?vid=1f67e8a5-7545-4f70-9a7b-0b7f6b5a2813","ios":"levelo://app?vid=1f67e8a5-7545-4f70-9a7b-0b7f6b5a2813"},"vehicle_type_id":"4","last_reported":1727571011,"current_range_meters":16000,"station_id":"ce4bh492rcd13ifvqdvg","pricing_plan_id":"cebpf4jnsgd1na2vs0mg"},{"bike_id":"409f8e56-7b05-4fc8-983d-fadc6468525f","system_id":"levelo_inurba_marseille","lat":43.28434,"lon":5.39184,"is_reserved":false,"is_disabled":false,"rental_uris":{"android":"levelo://app?vid=409f8e56-7b05-4fc8-983d-fadc6468525f","ios":"levelo://app?vid=409f8e56-7b05-4fc8-983d-fadc6468525f"},"vehicle_type_id":"4","last_reported":1727571011,"current_range_meters":38800,"station_id":"ce4bhoh2rcd13ifvqh5g","pricing_plan_id":"cebpf4jnsgd1na2vs0mg"},{"bike_id":"d3c2fe0e-3f4e-4303-ae23-7f25f368fade","system_id":"levelo_inurba_marseille","lat":43.32368,"lon":5.38877,"is_reserved":false,"is_disabled":false,"rental_uris":{"android":"levelo://app?vid=d3c2fe0e-3f4e-4303-ae23-7f25f368fade","ios":"levelo://app?vid=d3c2fe0e-3f4e-4303-ae23-7f25f368fade"},"vehicle_type_id":"4","last_reported":1727571011,"current_range_meters":8800,"station_id":"ce4bhqp2rcd13ifvqhog","pricing_plan_id":"cebpf4jnsgd1na2vs0mg"},{"bike_id":"acf0da7d-e6b3-48a2-8905-5de8bc3b795a","system_id":"levelo_inurba_marseille","lat":43.32,"lon":5.38133,"is_reserved":false,"is_disabled":false,"rental_uris":{"android":"levelo://app?vid=acf0da7d-e6b3-48a2-8905-5de8bc3b795a","ios":"levelo://app?vid=acf0da7d-e6b3-48a2-8905-5de8bc3b795a"},"vehicle_type_id":"4","last_reported":1727571011,"current_range_meters":10800,"station_id":"ce4bhr12rcd13ifvqhpg","pricing_plan_id":"cebpf4jnsgd1na2vs0mg"},{"bike_id":"0ea9e4c4-cc08-41d9-862d-a80f7d54740c","system_id":"levelo_inurba_marseille","lat":43.32286,"lon":5.38267,"is_reserved":false,"is_disabled":false,"rental_uris":{"android":"levelo://app?vid=0ea9e4c4-cc08-41d9-862d-a80f7d54740c","ios":"levelo://app?vid=0ea9e4c4-cc08-41d9-862d-a80f7d54740c"},"vehicle_type_id":"4","last_reported":1727571011,"current_range_meters":38000,"station_id":"ce4bhr12rcd13ifvqhqg","pricing_plan_id":"cebpf4jnsgd1na2vs0mg"},{"bike_id":"8bbdfff8-2668-43c2-ab59-5151c602d727","system_id":"levelo_inurba_marseille","lat":43.30591,"lon":5.3936,"is_reserved":false,"is_disabled":false,"rental_uris":{"android":"levelo://app?vid=8bbdfff8-2668-43c2-ab59-5151c602d727","ios":"levelo://app?vid=8bbdfff8-2668-43c2-ab59-5151c602d727"},"vehicle_type_id":"4","last_reported":1727571011,"current_range_meters":28400,"station_id":"ce4bh0p2rcd13ifvqd80","pricing_plan_id":"cebpf4jnsgd1na2vs0mg"},{"bike_id":"a7f78ba6-f302-4191-9898-adba7098a8f9","system_id":"levelo_inurba_marseille","lat":43.25001,"lon":5.38932,"is_reserved":false,"is_disabled":false,"rental_uris":{"android":"levelo://app?vid=a7f78ba6-f302-4191-9898-adba7098a8f9","ios":"levelo://app?vid=a7f78ba6-f302-4191-9898-adba7098a8f9"},"vehicle_type_id":"4","last_reported":1727571011,"current_range_meters":16000,"station_id":"ce4bhgp2rcd13ifvqfd0","pricing_plan_id":"cebpf4jnsgd1na2vs0mg"},{"bike_id":"2d3249f7-ef4c-4fe0-ab5a-b79d1f9efe86","system_id":"levelo_inurba_marseille","lat":43.2919,"lon":5.35801,"is_reserved":false,"is_disabled":false,"rental_uris":{"android":"levelo://app?vid=2d3249f7-ef4c-4fe0-ab5a-b79d1f9efe86","ios":"levelo://app?vid=2d3249f7-ef4c-4fe0-ab5a-b79d1f9efe86"},"vehicle_type_id":"4","last_reported":1727571011,"current_range_meters":38800,"station_id":"ce4bhb12rcd13ifvqel0","pricing_plan_id":"cebpf4jnsgd1na2vs0mg"},{"bike_id":"30267a5c-36b3-47f8-be66-a3c926903716","system_id":"levelo_inurba_marseille","lat":43.27617,"lon":5.36107,"is_reserved":false,"is_disabled":false,"rental_uris":{"android":"levelo://app?vid=30267a5c-36b3-47f8-be66-a3c926903716","ios":"levelo://app?vid=30267a5c-36b3-47f8-be66-a3c926903716"},"vehicle_type_id":"4","last_reported":1727571011,"current_range_meters":37600,"station_id":"ce4bgj92rcd13ifvqbe0","pricing_plan_id":"cebpf4jnsgd1na2vs0mg"},{"bike_id":"e8f339a7-5e65-4275-8576-718fc09f5e43","system_id":"levelo_inurba_marseille","lat":43.27611,"lon":5.36109,"is_reserved":false,"is_disabled":false,"rental_uris":{"android":"levelo://app?vid=e8f339a7-5e65-4275-8576-718fc09f5e43","ios":"levelo://app?vid=e8f339a7-5e65-4275-8576-718fc09f5e43"},"vehicle_type_id":"4","last_reported":1727571011,"current_range_meters":38800,"station_id":"ce4bgj92rcd13ifvqbe0","pricing_plan_id":"cebpf4jnsgd1na2vs0mg"},{"bike_id":"9ae9a0e9-1fff-4bed-b39c-08cfa9601a74","system_id":"levelo_inurba_marseille","lat":43.33602,"lon":5.41027,"is_reserved":false,"is_disabled":false,"rental_uris":{"android":"levelo://app?vid=9ae9a0e9-1fff-4bed-b39c-08cfa9601a74","ios":"levelo://app?vid=9ae9a0e9-1fff-4bed-b39c-08cfa9601a74"},"vehicle_type_id":"4","last_reported":1727571011,"current_range_meters":38800,"station_id":"ce4bhqh2rcd13ifvqhmg","pricing_plan_id":"cebpf4jnsgd1na2vs0mg"},{"bike_id":"9b5f5642-2491-4749-8ae4-e6530ea426af","system_id":"levelo_inurba_marseille","lat":43.24392,"lon":5.37062,"is_reserved":false,"is_disabled":false,"rental_uris":{"android":"levelo://app?vid=9b5f5642-2491-4749-8ae4-e6530ea426af","ios":"levelo://app?vid=9b5f5642-2491-4749-8ae4-e6530ea426af"},"vehicle_type_id":"4","last_reported":1727571011,"current_range_meters":37600,"station_id":"ce4bhhh2rcd13ifvqfk0","pricing_plan_id":"cebpf4jnsgd1na2vs0mg"},{"bike_id":"e673b20f-f89b-49a7-a8fd-a8caf9fb8574","system_id":"levelo_inurba_marseille","lat":43.31168,"lon":5.38709,"is_reserved":false,"is_disabled":false,"rental_uris":{"android":"levelo://app?vid=e673b20f-f89b-49a7-a8fd-a8caf9fb8574","ios":"levelo://app?vid=e673b20f-f89b-49a7-a8fd-a8caf9fb8574"},"vehicle_type_id":"4","last_reported":1727571011,"current_range_meters":38800,"station_id":"ce4bgv12rcd13ifvqcp0","pricing_plan_id":"cebpf4jnsgd1na2vs0mg"},{"bike_id":"3ad7adea-ec3d-49ba-9586-a7c4b0047b01","system_id":"levelo_inurba_marseille","lat":43.30945,"lon":5.39033,"is_reserved":false,"is_disabled":false,"rental_uris":{"android":"levelo://app?vid=3ad7adea-ec3d-49ba-9586-a7c4b0047b01","ios":"levelo://app?vid=3ad7adea-ec3d-49ba-9586-a7c4b0047b01"},"vehicle_type_id":"4","last_reported":1727571011,"current_range_meters":32400,"station_id":"ce4bgup2rcd13ifvqco0","pricing_plan_id":"cebpf4jnsgd1na2vs0mg"},{"bike_id":"9a47dcb1-61bb-411f-affb-55731480b4cc","system_id":"levelo_inurba_marseille","lat":43.23964,"lon":5.36613,"is_reserved":false,"is_disabled":false,"rental_uris":{"android":"levelo://app?vid=9a47dcb1-61bb-411f-affb-55731480b4cc","ios":"levelo://app?vid=9a47dcb1-61bb-411f-affb-55731480b4cc"},"vehicle_type_id":"4","last_reported":1727571011,"current_range_meters":38400,"station_id":"ce4bhi12rcd13ifvqfp0","pricing_plan_id":"cebpf4jnsgd1na2vs0mg"},{"bike_id":"2f504a24-b9a4-4f81-9caa-a1f3fb224178","system_id":"levelo_inurba_marseille","lat":43.27969,"lon":5.38736,"is_reserved":false,"is_disabled":false,"rental_uris":{"android":"levelo://app?vid=2f504a24-b9a4-4f81-9caa-a1f3fb224178","ios":"levelo://app?vid=2f504a24-b9a4-4f81-9caa-a1f3fb224178"},"vehicle_type_id":"4","last_reported":1727571011,"current_range_meters":6400,"station_id":"ce4bhg12rcd13ifvqf80","pricing_plan_id":"cebpf4jnsgd1na2vs0mg"},{"bike_id":"48861334-2dd9-42d2-ba9c-ef337f962331","system_id":"levelo_inurba_marseille","lat":43.306335,"lon":5.400621,"is_reserved":false,"is_disabled":false,"rental_uris":{"android":"levelo://app?vid=48861334-2dd9-42d2-ba9c-ef337f962331","ios":"levelo://app?vid=48861334-2dd9-42d2-ba9c-ef337f962331"},"vehicle_type_id":"4","last_reported":1727571011,"current_range_meters":6400,"station_id":"ce4bh112rcd13ifvqda0","pricing_plan_id":"cebpf4jnsgd1na2vs0mg"},{"bike_id":"3153391e-1fe5-447f-8d27-51a81c70d662","system_id":"levelo_inurba_marseille","lat":43.30237,"lon":5.4005,"is_reserved":false,"is_disabled":false,"rental_uris":{"android":"levelo://app?vid=3153391e-1fe5-447f-8d27-51a81c70d662","ios":"levelo://app?vid=3153391e-1fe5-447f-8d27-51a81c70d662"},"vehicle_type_id":"4","last_reported":1727571011,"current_range_meters":30800,"station_id":"ce4bgvh2rcd13ifvqcs0","pricing_plan_id":"cebpf4jnsgd1na2vs0mg"},{"bike_id":"fd2ef7a4-1938-491f-bf1a-ac8ab0ad8d5b","system_id":"levelo_inurba_marseille","lat":43.27433,"lon":5.394,"is_reserved":false,"is_disabled":false,"rental_uris":{"android":"levelo://app?vid=fd2ef7a4-1938-491f-bf1a-ac8ab0ad8d5b","ios":"levelo://app?vid=fd2ef7a4-1938-491f-bf1a-ac8ab0ad8d5b"},"vehicle_type_id":"4","last_reported":1727571011,"current_range_meters":34000,"station_id":"ce4bhdp2rcd13ifvqf20","pricing_plan_id":"cebpf4jnsgd1na2vs0mg"},{"bike_id":"737fadf7-7b87-481f-b8ab-a7b67cb77008","system_id":"levelo_inurba_marseille","lat":43.3108,"lon":5.38352,"is_reserved":false,"is_disabled":false,"rental_uris":{"android":"levelo://app?vid=737fadf7-7b87-481f-b8ab-a7b67cb77008","ios":"levelo://app?vid=737fadf7-7b87-481f-b8ab-a7b67cb77008"},"vehicle_type_id":"4","last_reported":1727571011,"current_range_meters":31200,"station_id":"ce4bgv92rcd13ifvqcr0","pricing_plan_id":"cebpf4jnsgd1na2vs0mg"},{"bike_id":"efb21e2e-5c82-417c-ab4e-ff8afd90868f","system_id":"levelo_inurba_marseille","lat":43.30803,"lon":5.43525,"is_reserved":false,"is_disabled":false,"rental_uris":{"android":"levelo://app?vid=efb21e2e-5c82-417c-ab4e-ff8afd90868f","ios":"levelo://app?vid=efb21e2e-5c82-417c-ab4e-ff8afd90868f"},"vehicle_type_id":"4","last_reported":1727571011,"current_range_meters":36800,"station_id":"ce4bhph2rcd13ifvqheg","pricing_plan_id":"cebpf4jnsgd1na2vs0mg"},{"bike_id":"a6563da1-c61b-46a8-896c-26658203a445","system_id":"levelo_inurba_marseille","lat":43.31168,"lon":5.38701,"is_reserved":false,"is_disabled":false,"rental_uris":{"android":"levelo://app?vid=a6563da1-c61b-46a8-896c-26658203a445","ios":"levelo://app?vid=a6563da1-c61b-46a8-896c-26658203a445"},"vehicle_type_id":"4","last_reported":1727571011,"current_range_meters":38800,"station_id":"ce4bgv12rcd13ifvqcp0","pricing_plan_id":"cebpf4jnsgd1na2vs0mg"},{"bike_id":"65b9b958-16f1-411c-a2c7-3c2353d4d07c","system_id":"levelo_inurba_marseille","lat":43.31762,"lon":5.3901,"is_reserved":false,"is_disabled":false,"rental_uris":{"android":"levelo://app?vid=65b9b958-16f1-411c-a2c7-3c2353d4d07c","ios":"levelo://app?vid=65b9b958-16f1-411c-a2c7-3c2353d4d07c"},"vehicle_type_id":"4","last_reported":1727571011,"current_range_meters":28400,"station_id":"ce4bhqp2rcd13ifvqhng","pricing_plan_id":"cebpf4jnsgd1na2vs0mg"},{"bike_id":"1318bdc3-2821-40e3-a091-8f42f09db68d","system_id":"levelo_inurba_marseille","lat":43.23962,"lon":5.36637,"is_reserved":false,"is_disabled":false,"rental_uris":{"android":"levelo://app?vid=1318bdc3-2821-40e3-a091-8f42f09db68d","ios":"levelo://app?vid=1318bdc3-2821-40e3-a091-8f42f09db68d"},"vehicle_type_id":"4","last_reported":1727571011,"current_range_meters":38800,"station_id":"ce4bhi12rcd13ifvqfp0","pricing_plan_id":"cebpf4jnsgd1na2vs0mg"},{"bike_id":"a5564a9a-3d9e-405c-b3bf-4c7bb6eae734","system_id":"levelo_inurba_marseille","lat":43.2861,"lon":5.37063,"is_reserved":false,"is_disabled":false,"rental_uris":{"android":"levelo://app?vid=a5564a9a-3d9e-405c-b3bf-4c7bb6eae734","ios":"levelo://app?vid=a5564a9a-3d9e-405c-b3bf-4c7bb6eae734"},"vehicle_type_id":"4","last_reported":1727571011,"current_range_meters":37600,"station_id":"ce4bht12rcd13ifvqi60","pricing_plan_id":"cebpf4jnsgd1na2vs0mg"},{"bike_id":"068708ae-427f-4495-a710-061be8d8cd5c","system_id":"levelo_inurba_marseille","lat":43.28701,"lon":5.39989,"is_reserved":false,"is_disabled":false,"rental_uris":{"android":"levelo://app?vid=068708ae-427f-4495-a710-061be8d8cd5c","ios":"levelo://app?vid=068708ae-427f-4495-a710-061be8d8cd5c"},"vehicle_type_id":"4","last_reported":1727571011,"current_range_meters":20000,"station_id":"ce4bho92rcd13ifvqh3g","pricing_plan_id":"cebpf4jnsgd1na2vs0mg"},{"bike_id":"0521cc37-3a0f-4bc8-964a-96f026706e98","system_id":"levelo_inurba_marseille","lat":43.28014,"lon":5.36073,"is_reserved":false,"is_disabled":false,"rental_uris":{"android":"levelo://app?vid=0521cc37-3a0f-4bc8-964a-96f026706e98","ios":"levelo://app?vid=0521cc37-3a0f-4bc8-964a-96f026706e98"},"vehicle_type_id":"4","last_reported":1727571011,"current_range_meters":26000,"station_id":"","pricing_plan_id":"cebpf4jnsgd1na2vs0mg"},{"bike_id":"22b463e1-22d7-402e-91d5-802bf742d7f7","system_id":"levelo_inurba_marseille","lat":43.29548,"lon":5.42282,"is_reserved":false,"is_disabled":false,"rental_uris":{"android":"levelo://app?vid=22b463e1-22d7-402e-91d5-802bf742d7f7","ios":"levelo://app?vid=22b463e1-22d7-402e-91d5-802bf742d7f7"},"vehicle_type_id":"4","last_reported":1727571011,"current_range_meters":30000,"station_id":"ce4bhph2rcd13ifvqhdg","pricing_plan_id":"cebpf4jnsgd1na2vs0mg"},{"bike_id":"259a6f89-57c2-4fa2-bec1-62e847679bf7","system_id":"levelo_inurba_marseille","lat":43.28853,"lon":5.3585,"is_reserved":false,"is_disabled":false,"rental_uris":{"android":"levelo://app?vid=259a6f89-57c2-4fa2-bec1-62e847679bf7","ios":"levelo://app?vid=259a6f89-57c2-4fa2-bec1-62e847679bf7"},"vehicle_type_id":"4","last_reported":1727571011,"current_range_meters":25600,"station_id":"ce4bhb12rcd13ifvqem0","pricing_plan_id":"cebpf4jnsgd1na2vs0mg"},{"bike_id":"c529090c-5370-45e9-ba3f-f55585b5289b","system_id":"levelo_inurba_marseille","lat":43.25006,"lon":5.38924,"is_reserved":false,"is_disabled":false,"rental_uris":{"android":"levelo://app?vid=c529090c-5370-45e9-ba3f-f55585b5289b","ios":"levelo://app?vid=c529090c-5370-45e9-ba3f-f55585b5289b"},"vehicle_type_id":"4","last_reported":1727571011,"current_range_meters":29600,"station_id":"ce4bhgp2rcd13ifvqfd0","pricing_plan_id":"cebpf4jnsgd1na2vs0mg"},{"bike_id":"eb6a5a2e-b5aa-42c7-9e77-b398423b6925","system_id":"levelo_inurba_marseille","lat":43.29987,"lon":5.37174,"is_reserved":false,"is_disabled":false,"rental_uris":{"android":"levelo://app?vid=eb6a5a2e-b5aa-42c7-9e77-b398423b6925","ios":"levelo://app?vid=eb6a5a2e-b5aa-42c7-9e77-b398423b6925"},"vehicle_type_id":"4","last_reported":1727571011,"current_range_meters":38800,"station_id":"ce4bgr92rcd13ifvqc7g","pricing_plan_id":"cebpf4jnsgd1na2vs0mg"},{"bike_id":"784443d8-15b4-46d7-b31f-5703c5b64e23","system_id":"levelo_inurba_marseille","lat":43.27369,"lon":5.36251,"is_reserved":false,"is_disabled":false,"rental_uris":{"android":"levelo://app?vid=784443d8-15b4-46d7-b31f-5703c5b64e23","ios":"levelo://app?vid=784443d8-15b4-46d7-b31f-5703c5b64e23"},"vehicle_type_id":"4","last_reported":1727571011,"current_range_meters":38800,"station_id":"ce4bhbh2rcd13ifvqeo0","pricing_plan_id":"cebpf4jnsgd1na2vs0mg"},{"bike_id":"8bbfb954-7ff3-43dc-ab19-55e66ad5a1ff","system_id":"levelo_inurba_marseille","lat":43.27373,"lon":5.36259,"is_reserved":false,"is_disabled":false,"rental_uris":{"android":"levelo://app?vid=8bbfb954-7ff3-43dc-ab19-55e66ad5a1ff","ios":"levelo://app?vid=8bbfb954-7ff3-43dc-ab19-55e66ad5a1ff"},"vehicle_type_id":"4","last_reported":1727571011,"current_range_meters":38800,"station_id":"ce4bhbh2rcd13ifvqeo0","pricing_plan_id":"cebpf4jnsgd1na2vs0mg"},{"bike_id":"a4a80944-40bd-46d0-aa51-1f93c481ae36","system_id":"levelo_inurba_marseille","lat":43.31276,"lon":5.40162,"is_reserved":false,"is_disabled":false,"rental_uris":{"android":"levelo://app?vid=a4a80944-40bd-46d0-aa51-1f93c481ae36","ios":"levelo://app?vid=a4a80944-40bd-46d0-aa51-1f93c481ae36"},"vehicle_type_id":"4","last_reported":1727571011,"current_range_meters":7200,"station_id":"ce4bh092rcd13ifvqd30","pricing_plan_id":"cebpf4jnsgd1na2vs0mg"},{"bike_id":"8de4c3b4-4234-4850-a29d-da6f86d94621","system_id":"levelo_inurba_marseille","lat":43.28461,"lon":5.35878,"is_reserved":false,"is_disabled":false,"rental_uris":{"android":"levelo://app?vid=8de4c3b4-4234-4850-a29d-da6f86d94621","ios":"levelo://app?vid=8de4c3b4-4234-4850-a29d-da6f86d94621"},"vehicle_type_id":"4","last_reported":1727571011,"current_range_meters":38800,"station_id":"ce4bhah2rcd13ifvqei0","pricing_plan_id":"cebpf4jnsgd1na2vs0mg"},{"bike_id":"1ce7c25b-6bd2-4b64-b4ae-543ea784fc5d","system_id":"levelo_inurba_marseille","lat":43.337444,"lon":5.374475,"is_reserved":false,"is_disabled":false,"rental_uris":{"android":"levelo://app?vid=1ce7c25b-6bd2-4b64-b4ae-543ea784fc5d","ios":"levelo://app?vid=1ce7c25b-6bd2-4b64-b4ae-543ea784fc5d"},"vehicle_type_id":"4","last_reported":1727571011,"current_range_meters":35200,"station_id":"","pricing_plan_id":"cebpf4jnsgd1na2vs0mg"},{"bike_id":"a1c3dd20-86c0-4dad-a795-b2047bec3f5b","system_id":"levelo_inurba_marseille","lat":43.31756,"lon":5.39011,"is_reserved":false,"is_disabled":false,"rental_uris":{"android":"levelo://app?vid=a1c3dd20-86c0-4dad-a795-b2047bec3f5b","ios":"levelo://app?vid=a1c3dd20-86c0-4dad-a795-b2047bec3f5b"},"vehicle_type_id":"4","last_reported":1727571011,"current_range_meters":38800,"station_id":"ce4bhqp2rcd13ifvqhng","pricing_plan_id":"cebpf4jnsgd1na2vs0mg"},{"bike_id":"8ebb382c-4990-47fa-88d0-106d66e64af6","system_id":"levelo_inurba_marseille","lat":43.29635,"lon":5.40598,"is_reserved":false,"is_disabled":false,"rental_uris":{"android":"levelo://app?vid=8ebb382c-4990-47fa-88d0-106d66e64af6","ios":"levelo://app?vid=8ebb382c-4990-47fa-88d0-106d66e64af6"},"vehicle_type_id":"4","last_reported":1727571011,"current_range_meters":38800,"station_id":"ce4bh0h2rcd13ifvqd60","pricing_plan_id":"cebpf4jnsgd1na2vs0mg"},{"bike_id":"35a6ca74-a0b6-4f73-bcf2-e86397ec7a04","system_id":"levelo_inurba_marseille","lat":43.24808,"lon":5.37454,"is_reserved":false,"is_disabled":false,"rental_uris":{"android":"levelo://app?vid=35a6ca74-a0b6-4f73-bcf2-e86397ec7a04","ios":"levelo://app?vid=35a6ca74-a0b6-4f73-bcf2-e86397ec7a04"},"vehicle_type_id":"4","last_reported":1727571011,"current_range_meters":4400,"station_id":"ce4bhgh2rcd13ifvqfb0","pricing_plan_id":"cebpf4jnsgd1na2vs0mg"},{"bike_id":"691af550-40f2-46d0-a7de-1ee88b12e159","system_id":"levelo_inurba_marseille","lat":43.31884,"lon":5.40728,"is_reserved":false,"is_disabled":false,"rental_uris":{"android":"levelo://app?vid=691af550-40f2-46d0-a7de-1ee88b12e159","ios":"levelo://app?vid=691af550-40f2-46d0-a7de-1ee88b12e159"},"vehicle_type_id":"4","last_reported":1727571011,"current_range_meters":8000,"station_id":"ce4bhq12rcd13ifvqhig","pricing_plan_id":"cebpf4jnsgd1na2vs0mg"},{"bike_id":"0c6a3edd-0259-43fd-a8d1-3d4bb6023605","system_id":"levelo_inurba_marseille","lat":43.24388,"lon":5.37051,"is_reserved":false,"is_disabled":false,"rental_uris":{"android":"levelo://app?vid=0c6a3edd-0259-43fd-a8d1-3d4bb6023605","ios":"levelo://app?vid=0c6a3edd-0259-43fd-a8d1-3d4bb6023605"},"vehicle_type_id":"4","last_reported":1727571011,"current_range_meters":38800,"station_id":"ce4bhhh2rcd13ifvqfk0","pricing_plan_id":"cebpf4jnsgd1na2vs0mg"},{"bike_id":"7d11f55e-bdff-49f9-8860-bcb2fb004427","system_id":"levelo_inurba_marseille","lat":43.29521,"lon":5.39405,"is_reserved":false,"is_disabled":false,"rental_uris":{"android":"levelo://app?vid=7d11f55e-bdff-49f9-8860-bcb2fb004427","ios":"levelo://app?vid=7d11f55e-bdff-49f9-8860-bcb2fb004427"},"vehicle_type_id":"4","last_reported":1727571011,"current_range_meters":8000,"station_id":"ce4bh292rcd13ifvqdf0","pricing_plan_id":"cebpf4jnsgd1na2vs0mg"},{"bike_id":"08c36d1e-77a7-4de5-beb1-abd12dc73382","system_id":"levelo_inurba_marseille","lat":43.24807,"lon":5.37451,"is_reserved":false,"is_disabled":false,"rental_uris":{"android":"levelo://app?vid=08c36d1e-77a7-4de5-beb1-abd12dc73382","ios":"levelo://app?vid=08c36d1e-77a7-4de5-beb1-abd12dc73382"},"vehicle_type_id":"4","last_reported":1727571011,"current_range_meters":38800,"station_id":"ce4bhgh2rcd13ifvqfb0","pricing_plan_id":"cebpf4jnsgd1na2vs0mg"},{"bike_id":"b54fdcda-42f0-4a1b-b3c7-a428d3775509","system_id":"levelo_inurba_marseille","lat":43.25866,"lon":5.39898,"is_reserved":false,"is_disabled":false,"rental_uris":{"android":"levelo://app?vid=b54fdcda-42f0-4a1b-b3c7-a428d3775509","ios":"levelo://app?vid=b54fdcda-42f0-4a1b-b3c7-a428d3775509"},"vehicle_type_id":"4","last_reported":1727571011,"current_range_meters":26800,"station_id":"ce4bhl92rcd13ifvqghg","pricing_plan_id":"cebpf4jnsgd1na2vs0mg"},{"bike_id":"3e4ae6dd-5305-4d10-a79a-b5ff877edb8c","system_id":"levelo_inurba_marseille","lat":43.28444,"lon":5.39184,"is_reserved":false,"is_disabled":false,"rental_uris":{"android":"levelo://app?vid=3e4ae6dd-5305-4d10-a79a-b5ff877edb8c","ios":"levelo://app?vid=3e4ae6dd-5305-4d10-a79a-b5ff877edb8c"},"vehicle_type_id":"4","last_reported":1727571011,"current_range_meters":26800,"station_id":"ce4bhoh2rcd13ifvqh5g","pricing_plan_id":"cebpf4jnsgd1na2vs0mg"},{"bike_id":"37e8e9aa-2e52-4101-b083-3093283218eb","system_id":"levelo_inurba_marseille","lat":43.31362,"lon":5.38498,"is_reserved":false,"is_disabled":false,"rental_uris":{"android":"levelo://app?vid=37e8e9aa-2e52-4101-b083-3093283218eb","ios":"levelo://app?vid=37e8e9aa-2e52-4101-b083-3093283218eb"},"vehicle_type_id":"4","last_reported":1727571011,"current_range_meters":19600,"station_id":"ce4bgt92rcd13ifvqcf0","pricing_plan_id":"cebpf4jnsgd1na2vs0mg"},{"bike_id":"53723ec1-4486-4d43-958f-19d45a23b8fa","system_id":"levelo_inurba_marseille","lat":43.30938,"lon":5.39032,"is_reserved":false,"is_disabled":false,"rental_uris":{"android":"levelo://app?vid=53723ec1-4486-4d43-958f-19d45a23b8fa","ios":"levelo://app?vid=53723ec1-4486-4d43-958f-19d45a23b8fa"},"vehicle_type_id":"4","last_reported":1727571011,"current_range_meters":38800,"station_id":"ce4bgup2rcd13ifvqco0","pricing_plan_id":"cebpf4jnsgd1na2vs0mg"},{"bike_id":"6a52f468-9bf5-46c2-819d-2c732c18128e","system_id":"levelo_inurba_marseille","lat":43.239638,"lon":5.366221,"is_reserved":false,"is_disabled":false,"rental_uris":{"android":"levelo://app?vid=6a52f468-9bf5-46c2-819d-2c732c18128e","ios":"levelo://app?vid=6a52f468-9bf5-46c2-819d-2c732c18128e"},"vehicle_type_id":"4","last_reported":1727571011,"current_range_meters":37600,"station_id":"ce4bhi12rcd13ifvqfp0","pricing_plan_id":"cebpf4jnsgd1na2vs0mg"},{"bike_id":"6542600a-0331-4a7b-bf1b-8aced53610f0","system_id":"levelo_inurba_marseille","lat":43.2843,"lon":5.3918,"is_reserved":false,"is_disabled":false,"rental_uris":{"android":"levelo://app?vid=6542600a-0331-4a7b-bf1b-8aced53610f0","ios":"levelo://app?vid=6542600a-0331-4a7b-bf1b-8aced53610f0"},"vehicle_type_id":"4","last_reported":1727571011,"current_range_meters":17200,"station_id":"ce4bhoh2rcd13ifvqh5g","pricing_plan_id":"cebpf4jnsgd1na2vs0mg"},{"bike_id":"cdeae8c9-ba56-4b50-8d73-1e30acc71661","system_id":"levelo_inurba_marseille","lat":43.31996,"lon":5.38157,"is_reserved":false,"is_disabled":false,"rental_uris":{"android":"levelo://app?vid=cdeae8c9-ba56-4b50-8d73-1e30acc71661","ios":"levelo://app?vid=cdeae8c9-ba56-4b50-8d73-1e30acc71661"},"vehicle_type_id":"4","last_reported":1727571011,"current_range_meters":32400,"station_id":"ce4bhr12rcd13ifvqhpg","pricing_plan_id":"cebpf4jnsgd1na2vs0mg"},{"bike_id":"67b9eb05-c36e-4582-9b61-98d56d57348d","system_id":"levelo_inurba_marseille","lat":43.26052,"lon":5.39388,"is_reserved":false,"is_disabled":false,"rental_uris":{"android":"levelo://app?vid=67b9eb05-c36e-4582-9b61-98d56d57348d","ios":"levelo://app?vid=67b9eb05-c36e-4582-9b61-98d56d57348d"},"vehicle_type_id":"4","last_reported":1727571011,"current_range_meters":38800,"station_id":"ce4bhh92rcd13ifvqfj0","pricing_plan_id":"cebpf4jnsgd1na2vs0mg"},{"bike_id":"4d4842cd-4e24-4ddf-ada9-4c71cb2f461d","system_id":"levelo_inurba_marseille","lat":43.30958,"lon":5.39059,"is_reserved":false,"is_disabled":false,"rental_uris":{"android":"levelo://app?vid=4d4842cd-4e24-4ddf-ada9-4c71cb2f461d","ios":"levelo://app?vid=4d4842cd-4e24-4ddf-ada9-4c71cb2f461d"},"vehicle_type_id":"4","last_reported":1727571011,"current_range_meters":28000,"station_id":"ce4bgup2rcd13ifvqco0","pricing_plan_id":"cebpf4jnsgd1na2vs0mg"},{"bike_id":"0d8c20b1-a2e8-4e8b-b550-37b2370b38b1","system_id":"levelo_inurba_marseille","lat":43.30423,"lon":5.41282,"is_reserved":false,"is_disabled":false,"rental_uris":{"android":"levelo://app?vid=0d8c20b1-a2e8-4e8b-b550-37b2370b38b1","ios":"levelo://app?vid=0d8c20b1-a2e8-4e8b-b550-37b2370b38b1"},"vehicle_type_id":"4","last_reported":1727571011,"current_range_meters":31200,"station_id":"ce4bhop2rcd13ifvqh8g","pricing_plan_id":"cebpf4jnsgd1na2vs0mg"},{"bike_id":"a97bc587-7f27-4871-906b-7a9829f73fa5","system_id":"levelo_inurba_marseille","lat":43.24544,"lon":5.39525,"is_reserved":false,"is_disabled":false,"rental_uris":{"android":"levelo://app?vid=a97bc587-7f27-4871-906b-7a9829f73fa5","ios":"levelo://app?vid=a97bc587-7f27-4871-906b-7a9829f73fa5"},"vehicle_type_id":"4","last_reported":1727571011,"current_range_meters":9200,"station_id":"ce4bhlp2rcd13ifvqgjg","pricing_plan_id":"cebpf4jnsgd1na2vs0mg"},{"bike_id":"6811c9ec-ea64-44b4-93d3-158194024def","system_id":"levelo_inurba_marseille","lat":43.30531,"lon":5.384286,"is_reserved":false,"is_disabled":false,"rental_uris":{"android":"levelo://app?vid=6811c9ec-ea64-44b4-93d3-158194024def","ios":"levelo://app?vid=6811c9ec-ea64-44b4-93d3-158194024def"},"vehicle_type_id":"4","last_reported":1727571011,"current_range_meters":38800,"station_id":"ce4bgg92rcd13ifvqb30","pricing_plan_id":"cebpf4jnsgd1na2vs0mg"},{"bike_id":"1a08eb27-5616-4615-8c7f-aaa33811054b","system_id":"levelo_inurba_marseille","lat":43.24806,"lon":5.37454,"is_reserved":false,"is_disabled":false,"rental_uris":{"android":"levelo://app?vid=1a08eb27-5616-4615-8c7f-aaa33811054b","ios":"levelo://app?vid=1a08eb27-5616-4615-8c7f-aaa33811054b"},"vehicle_type_id":"4","last_reported":1727571011,"current_range_meters":36800,"station_id":"ce4bhgh2rcd13ifvqfb0","pricing_plan_id":"cebpf4jnsgd1na2vs0mg"},{"bike_id":"9cab4b77-e73b-485b-9196-05681379298d","system_id":"levelo_inurba_marseille","lat":43.32278,"lon":5.38324,"is_reserved":false,"is_disabled":false,"rental_uris":{"android":"levelo://app?vid=9cab4b77-e73b-485b-9196-05681379298d","ios":"levelo://app?vid=9cab4b77-e73b-485b-9196-05681379298d"},"vehicle_type_id":"4","last_reported":1727571011,"current_range_meters":38800,"station_id":"ce4bhr12rcd13ifvqhqg","pricing_plan_id":"cebpf4jnsgd1na2vs0mg"},{"bike_id":"815abeb5-1f5d-4787-8295-cfdd1932afe7","system_id":"levelo_inurba_marseille","lat":43.31167,"lon":5.38708,"is_reserved":false,"is_disabled":false,"rental_uris":{"android":"levelo://app?vid=815abeb5-1f5d-4787-8295-cfdd1932afe7","ios":"levelo://app?vid=815abeb5-1f5d-4787-8295-cfdd1932afe7"},"vehicle_type_id":"4","last_reported":1727571011,"current_range_meters":22400,"station_id":"ce4bgv12rcd13ifvqcp0","pricing_plan_id":"cebpf4jnsgd1na2vs0mg"},{"bike_id":"f6692a04-fd04-4663-94a3-4418e3afb60c","system_id":"levelo_inurba_marseille","lat":43.30804,"lon":5.38165,"is_reserved":false,"is_disabled":false,"rental_uris":{"android":"levelo://app?vid=f6692a04-fd04-4663-94a3-4418e3afb60c","ios":"levelo://app?vid=f6692a04-fd04-4663-94a3-4418e3afb60c"},"vehicle_type_id":"4","last_reported":1727571011,"current_range_meters":32000,"station_id":"ce4bgt12rcd13ifvqce0","pricing_plan_id":"cebpf4jnsgd1na2vs0mg"},{"bike_id":"8e047d7f-c072-44a2-8170-7786551c1be3","system_id":"levelo_inurba_marseille","lat":43.28705,"lon":5.39981,"is_reserved":false,"is_disabled":false,"rental_uris":{"android":"levelo://app?vid=8e047d7f-c072-44a2-8170-7786551c1be3","ios":"levelo://app?vid=8e047d7f-c072-44a2-8170-7786551c1be3"},"vehicle_type_id":"4","last_reported":1727571011,"current_range_meters":27200,"station_id":"ce4bho92rcd13ifvqh3g","pricing_plan_id":"cebpf4jnsgd1na2vs0mg"},{"bike_id":"d01974cd-cd64-4379-a1db-5c048c9adabf","system_id":"levelo_inurba_marseille","lat":43.28571,"lon":5.39498,"is_reserved":false,"is_disabled":false,"rental_uris":{"android":"levelo://app?vid=d01974cd-cd64-4379-a1db-5c048c9adabf","ios":"levelo://app?vid=d01974cd-cd64-4379-a1db-5c048c9adabf"},"vehicle_type_id":"4","last_reported":1727571011,"current_range_meters":27600,"station_id":"ce4bh292rcd13ifvqdg0","pricing_plan_id":"cebpf4jnsgd1na2vs0mg"},{"bike_id":"d0a255de-5280-4fc9-a1e8-fc0557b5f08c","system_id":"levelo_inurba_marseille","lat":43.29557,"lon":5.4228,"is_reserved":false,"is_disabled":false,"rental_uris":{"android":"levelo://app?vid=d0a255de-5280-4fc9-a1e8-fc0557b5f08c","ios":"levelo://app?vid=d0a255de-5280-4fc9-a1e8-fc0557b5f08c"},"vehicle_type_id":"4","last_reported":1727571011,"current_range_meters":34000,"station_id":"ce4bhph2rcd13ifvqhdg","pricing_plan_id":"cebpf4jnsgd1na2vs0mg"},{"bike_id":"17727ddd-b3b2-4a18-af94-8a60b6428766","system_id":"levelo_inurba_marseille","lat":43.28702,"lon":5.37394,"is_reserved":false,"is_disabled":false,"rental_uris":{"android":"levelo://app?vid=17727ddd-b3b2-4a18-af94-8a60b6428766","ios":"levelo://app?vid=17727ddd-b3b2-4a18-af94-8a60b6428766"},"vehicle_type_id":"4","last_reported":1727571011,"current_range_meters":38800,"station_id":"ce4bh3p2rcd13ifvqdq0","pricing_plan_id":"cebpf4jnsgd1na2vs0mg"},{"bike_id":"56f7910d-52ac-4666-ae4d-1add0cdeeda1","system_id":"levelo_inurba_marseille","lat":43.30801,"lon":5.38151,"is_reserved":false,"is_disabled":false,"rental_uris":{"android":"levelo://app?vid=56f7910d-52ac-4666-ae4d-1add0cdeeda1","ios":"levelo://app?vid=56f7910d-52ac-4666-ae4d-1add0cdeeda1"},"vehicle_type_id":"4","last_reported":1727571011,"current_range_meters":24400,"station_id":"ce4bgt12rcd13ifvqce0","pricing_plan_id":"cebpf4jnsgd1na2vs0mg"},{"bike_id":"c461601d-3770-42d3-b850-f6196138e0e3","system_id":"levelo_inurba_marseille","lat":43.31326,"lon":5.39697,"is_reserved":false,"is_disabled":false,"rental_uris":{"android":"levelo://app?vid=c461601d-3770-42d3-b850-f6196138e0e3","ios":"levelo://app?vid=c461601d-3770-42d3-b850-f6196138e0e3"},"vehicle_type_id":"4","last_reported":1727571011,"current_range_meters":39200,"station_id":"ce4bgvp2rcd13ifvqcu0","pricing_plan_id":"cebpf4jnsgd1na2vs0mg"},{"bike_id":"6bd79052-280b-4428-8de8-892ce42e806e","system_id":"levelo_inurba_marseille","lat":43.317588,"lon":5.390182,"is_reserved":false,"is_disabled":false,"rental_uris":{"android":"levelo://app?vid=6bd79052-280b-4428-8de8-892ce42e806e","ios":"levelo://app?vid=6bd79052-280b-4428-8de8-892ce42e806e"},"vehicle_type_id":"4","last_reported":1727571011,"current_range_meters":38800,"station_id":"ce4bhqp2rcd13ifvqhng","pricing_plan_id":"cebpf4jnsgd1na2vs0mg"},{"bike_id":"58e674b1-b2f0-4949-97a4-2eaf7c317faa","system_id":"levelo_inurba_marseille","lat":43.28933,"lon":5.3663,"is_reserved":false,"is_disabled":false,"rental_uris":{"android":"levelo://app?vid=58e674b1-b2f0-4949-97a4-2eaf7c317faa","ios":"levelo://app?vid=58e674b1-b2f0-4949-97a4-2eaf7c317faa"},"vehicle_type_id":"4","last_reported":1727571011,"current_range_meters":36800,"station_id":"ce4bhap2rcd13ifvqek0","pricing_plan_id":"cebpf4jnsgd1na2vs0mg"},{"bike_id":"dddd9fd8-f049-43ad-a677-7f095f63d2ad","system_id":"levelo_inurba_marseille","lat":43.28098,"lon":5.37831,"is_reserved":false,"is_disabled":false,"rental_uris":{"android":"levelo://app?vid=dddd9fd8-f049-43ad-a677-7f095f63d2ad","ios":"levelo://app?vid=dddd9fd8-f049-43ad-a677-7f095f63d2ad"},"vehicle_type_id":"4","last_reported":1727571011,"current_range_meters":38800,"station_id":"ce4bha12rcd13ifvqee0","pricing_plan_id":"cebpf4jnsgd1na2vs0mg"},{"bike_id":"7140e453-f332-495d-81d8-84ebfd05d324","system_id":"levelo_inurba_marseille","lat":43.25586,"lon":5.38218,"is_reserved":false,"is_disabled":false,"rental_uris":{"android":"levelo://app?vid=7140e453-f332-495d-81d8-84ebfd05d324","ios":"levelo://app?vid=7140e453-f332-495d-81d8-84ebfd05d324"},"vehicle_type_id":"4","last_reported":1727571011,"current_range_meters":33600,"station_id":"ce4bhih2rcd13ifvqfs0","pricing_plan_id":"cebpf4jnsgd1na2vs0mg"},{"bike_id":"cf2a99f0-171d-46e2-b5f9-b8e518581e33","system_id":"levelo_inurba_marseille","lat":43.23962,"lon":5.36624,"is_reserved":false,"is_disabled":false,"rental_uris":{"android":"levelo://app?vid=cf2a99f0-171d-46e2-b5f9-b8e518581e33","ios":"levelo://app?vid=cf2a99f0-171d-46e2-b5f9-b8e518581e33"},"vehicle_type_id":"4","last_reported":1727571011,"current_range_meters":36000,"station_id":"ce4bhi12rcd13ifvqfp0","pricing_plan_id":"cebpf4jnsgd1na2vs0mg"},{"bike_id":"e5f96fcd-0538-4d74-8ab8-d19e4df7cc95","system_id":"levelo_inurba_marseille","lat":43.31765,"lon":5.39003,"is_reserved":false,"is_disabled":false,"rental_uris":{"android":"levelo://app?vid=e5f96fcd-0538-4d74-8ab8-d19e4df7cc95","ios":"levelo://app?vid=e5f96fcd-0538-4d74-8ab8-d19e4df7cc95"},"vehicle_type_id":"4","last_reported":1727571011,"current_range_meters":12000,"station_id":"ce4bhqp2rcd13ifvqhng","pricing_plan_id":"cebpf4jnsgd1na2vs0mg"},{"bike_id":"60d9ce3d-2af9-47ba-90ad-995a8191b45d","system_id":"levelo_inurba_marseille","lat":43.30795,"lon":5.38155,"is_reserved":false,"is_disabled":false,"rental_uris":{"android":"levelo://app?vid=60d9ce3d-2af9-47ba-90ad-995a8191b45d","ios":"levelo://app?vid=60d9ce3d-2af9-47ba-90ad-995a8191b45d"},"vehicle_type_id":"4","last_reported":1727571011,"current_range_meters":30800,"station_id":"ce4bgt12rcd13ifvqce0","pricing_plan_id":"cebpf4jnsgd1na2vs0mg"},{"bike_id":"e1e4a491-f30a-4aa2-a0ed-ba6d58ca431f","system_id":"levelo_inurba_marseille","lat":43.30951,"lon":5.39043,"is_reserved":false,"is_disabled":false,"rental_uris":{"android":"levelo://app?vid=e1e4a491-f30a-4aa2-a0ed-ba6d58ca431f","ios":"levelo://app?vid=e1e4a491-f30a-4aa2-a0ed-ba6d58ca431f"},"vehicle_type_id":"4","last_reported":1727571011,"current_range_meters":34800,"station_id":"ce4bgup2rcd13ifvqco0","pricing_plan_id":"cebpf4jnsgd1na2vs0mg"},{"bike_id":"a1585792-a705-409d-93a4-c31da8100088","system_id":"levelo_inurba_marseille","lat":43.23195,"lon":5.35551,"is_reserved":false,"is_disabled":false,"rental_uris":{"android":"levelo://app?vid=a1585792-a705-409d-93a4-c31da8100088","ios":"levelo://app?vid=a1585792-a705-409d-93a4-c31da8100088"},"vehicle_type_id":"4","last_reported":1727571011,"current_range_meters":12000,"station_id":"ce4bhu92rcd13ifvqi70","pricing_plan_id":"cebpf4jnsgd1na2vs0mg"},{"bike_id":"b8e2d9f3-2bfa-4db2-9db3-10638d12c8e0","system_id":"levelo_inurba_marseille","lat":43.2737,"lon":5.36241,"is_reserved":false,"is_disabled":false,"rental_uris":{"android":"levelo://app?vid=b8e2d9f3-2bfa-4db2-9db3-10638d12c8e0","ios":"levelo://app?vid=b8e2d9f3-2bfa-4db2-9db3-10638d12c8e0"},"vehicle_type_id":"4","last_reported":1727571011,"current_range_meters":38400,"station_id":"ce4bhbh2rcd13ifvqeo0","pricing_plan_id":"cebpf4jnsgd1na2vs0mg"},{"bike_id":"fdb61897-97d0-4689-adc4-02e79ee31d57","system_id":"levelo_inurba_marseille","lat":43.23962,"lon":5.36635,"is_reserved":false,"is_disabled":false,"rental_uris":{"android":"levelo://app?vid=fdb61897-97d0-4689-adc4-02e79ee31d57","ios":"levelo://app?vid=fdb61897-97d0-4689-adc4-02e79ee31d57"},"vehicle_type_id":"4","last_reported":1727571011,"current_range_meters":38000,"station_id":"ce4bhi12rcd13ifvqfp0","pricing_plan_id":"cebpf4jnsgd1na2vs0mg"},{"bike_id":"52f17877-110a-422d-89ae-fdeda162e6f3","system_id":"levelo_inurba_marseille","lat":43.23956,"lon":5.36628,"is_reserved":false,"is_disabled":false,"rental_uris":{"android":"levelo://app?vid=52f17877-110a-422d-89ae-fdeda162e6f3","ios":"levelo://app?vid=52f17877-110a-422d-89ae-fdeda162e6f3"},"vehicle_type_id":"4","last_reported":1727571011,"current_range_meters":8800,"station_id":"ce4bhi12rcd13ifvqfp0","pricing_plan_id":"cebpf4jnsgd1na2vs0mg"},{"bike_id":"7a8f28c6-ab6f-49c3-b59d-8e597cfc4655","system_id":"levelo_inurba_marseille","lat":43.33717,"lon":5.39177,"is_reserved":false,"is_disabled":false,"rental_uris":{"android":"levelo://app?vid=7a8f28c6-ab6f-49c3-b59d-8e597cfc4655","ios":"levelo://app?vid=7a8f28c6-ab6f-49c3-b59d-8e597cfc4655"},"vehicle_type_id":"4","last_reported":1727571011,"current_range_meters":20400,"station_id":"ce4bhr92rcd13ifvqhsg","pricing_plan_id":"cebpf4jnsgd1na2vs0mg"},{"bike_id":"a12cb5ac-2e0e-4f34-897a-86afd359af59","system_id":"levelo_inurba_marseille","lat":43.31331,"lon":5.39695,"is_reserved":false,"is_disabled":false,"rental_uris":{"android":"levelo://app?vid=a12cb5ac-2e0e-4f34-897a-86afd359af59","ios":"levelo://app?vid=a12cb5ac-2e0e-4f34-897a-86afd359af59"},"vehicle_type_id":"4","last_reported":1727571011,"current_range_meters":25200,"station_id":"ce4bgvp2rcd13ifvqcu0","pricing_plan_id":"cebpf4jnsgd1na2vs0mg"},{"bike_id":"76f413e3-c612-4d1b-b17d-3b3c1dd4352a","system_id":"levelo_inurba_marseille","lat":43.25581,"lon":5.38227,"is_reserved":false,"is_disabled":false,"rental_uris":{"android":"levelo://app?vid=76f413e3-c612-4d1b-b17d-3b3c1dd4352a","ios":"levelo://app?vid=76f413e3-c612-4d1b-b17d-3b3c1dd4352a"},"vehicle_type_id":"4","last_reported":1727571011,"current_range_meters":38800,"station_id":"ce4bhih2rcd13ifvqfs0","pricing_plan_id":"cebpf4jnsgd1na2vs0mg"},{"bike_id":"b8a84599-21c4-4ad5-8144-9b55effe5257","system_id":"levelo_inurba_marseille","lat":43.28978,"lon":5.37836,"is_reserved":false,"is_disabled":false,"rental_uris":{"android":"levelo://app?vid=b8a84599-21c4-4ad5-8144-9b55effe5257","ios":"levelo://app?vid=b8a84599-21c4-4ad5-8144-9b55effe5257"},"vehicle_type_id":"4","last_reported":1727571011,"current_range_meters":35200,"station_id":"","pricing_plan_id":"cebpf4jnsgd1na2vs0mg"},{"bike_id":"61bfd186-0f27-4fc9-b2b6-ffff2e6b74f7","system_id":"levelo_inurba_marseille","lat":43.27382,"lon":5.36271,"is_reserved":false,"is_disabled":false,"rental_uris":{"android":"levelo://app?vid=61bfd186-0f27-4fc9-b2b6-ffff2e6b74f7","ios":"levelo://app?vid=61bfd186-0f27-4fc9-b2b6-ffff2e6b74f7"},"vehicle_type_id":"4","last_reported":1727571011,"current_range_meters":38800,"station_id":"ce4bhbh2rcd13ifvqeo0","pricing_plan_id":"cebpf4jnsgd1na2vs0mg"},{"bike_id":"ab994941-8182-4cf4-af2e-1d33fc2c5393","system_id":"levelo_inurba_marseille","lat":43.25723,"lon":5.411,"is_reserved":false,"is_disabled":false,"rental_uris":{"android":"levelo://app?vid=ab994941-8182-4cf4-af2e-1d33fc2c5393","ios":"levelo://app?vid=ab994941-8182-4cf4-af2e-1d33fc2c5393"},"vehicle_type_id":"4","last_reported":1727571011,"current_range_meters":5600,"station_id":"ce4bhkp2rcd13ifvqgd0","pricing_plan_id":"cebpf4jnsgd1na2vs0mg"},{"bike_id":"1347408c-e17f-4890-9dba-2621d2b63fef","system_id":"levelo_inurba_marseille","lat":43.28071,"lon":5.39646,"is_reserved":false,"is_disabled":false,"rental_uris":{"android":"levelo://app?vid=1347408c-e17f-4890-9dba-2621d2b63fef","ios":"levelo://app?vid=1347408c-e17f-4890-9dba-2621d2b63fef"},"vehicle_type_id":"4","last_reported":1727571011,"current_range_meters":38800,"station_id":"ce4bho12rcd13ifvqh2g","pricing_plan_id":"cebpf4jnsgd1na2vs0mg"},{"bike_id":"8706dbad-74a1-4401-bd4a-b4ae01455ac4","system_id":"levelo_inurba_marseille","lat":43.27624,"lon":5.36099,"is_reserved":false,"is_disabled":false,"rental_uris":{"android":"levelo://app?vid=8706dbad-74a1-4401-bd4a-b4ae01455ac4","ios":"levelo://app?vid=8706dbad-74a1-4401-bd4a-b4ae01455ac4"},"vehicle_type_id":"4","last_reported":1727571011,"current_range_meters":18000,"station_id":"ce4bgj92rcd13ifvqbe0","pricing_plan_id":"cebpf4jnsgd1na2vs0mg"},{"bike_id":"a3d8adc6-a419-41b7-9a8f-1b8309bbbc94","system_id":"levelo_inurba_marseille","lat":43.32532,"lon":5.41447,"is_reserved":false,"is_disabled":false,"rental_uris":{"android":"levelo://app?vid=a3d8adc6-a419-41b7-9a8f-1b8309bbbc94","ios":"levelo://app?vid=a3d8adc6-a419-41b7-9a8f-1b8309bbbc94"},"vehicle_type_id":"4","last_reported":1727571011,"current_range_meters":34800,"station_id":"ce4bhq12rcd13ifvqhhg","pricing_plan_id":"cebpf4jnsgd1na2vs0mg"},{"bike_id":"9e0e602a-711e-4e75-a4b3-f0d70db8f823","system_id":"levelo_inurba_marseille","lat":43.23967,"lon":5.3662,"is_reserved":false,"is_disabled":false,"rental_uris":{"android":"levelo://app?vid=9e0e602a-711e-4e75-a4b3-f0d70db8f823","ios":"levelo://app?vid=9e0e602a-711e-4e75-a4b3-f0d70db8f823"},"vehicle_type_id":"4","last_reported":1727571011,"current_range_meters":17200,"station_id":"ce4bhi12rcd13ifvqfp0","pricing_plan_id":"cebpf4jnsgd1na2vs0mg"},{"bike_id":"64287320-744d-4ddf-8d29-f29a538a1023","system_id":"levelo_inurba_marseille","lat":43.3046,"lon":5.37901,"is_reserved":false,"is_disabled":false,"rental_uris":{"android":"levelo://app?vid=64287320-744d-4ddf-8d29-f29a538a1023","ios":"levelo://app?vid=64287320-744d-4ddf-8d29-f29a538a1023"},"vehicle_type_id":"4","last_reported":1727571011,"current_range_meters":30800,"station_id":"ce4bgup2rcd13ifvqcn0","pricing_plan_id":"cebpf4jnsgd1na2vs0mg"},{"bike_id":"594923ab-6151-46ef-b1e9-625586026106","system_id":"levelo_inurba_marseille","lat":43.31334,"lon":5.39696,"is_reserved":false,"is_disabled":false,"rental_uris":{"android":"levelo://app?vid=594923ab-6151-46ef-b1e9-625586026106","ios":"levelo://app?vid=594923ab-6151-46ef-b1e9-625586026106"},"vehicle_type_id":"4","last_reported":1727571011,"current_range_meters":6400,"station_id":"ce4bgvp2rcd13ifvqcu0","pricing_plan_id":"cebpf4jnsgd1na2vs0mg"},{"bike_id":"5dccdce7-b1a1-4eb6-81a2-8dca1382289c","system_id":"levelo_inurba_marseille","lat":43.33019,"lon":5.39038,"is_reserved":false,"is_disabled":false,"rental_uris":{"android":"levelo://app?vid=5dccdce7-b1a1-4eb6-81a2-8dca1382289c","ios":"levelo://app?vid=5dccdce7-b1a1-4eb6-81a2-8dca1382289c"},"vehicle_type_id":"4","last_reported":1727571011,"current_range_meters":38800,"station_id":"ce4bhr92rcd13ifvqhrg","pricing_plan_id":"cebpf4jnsgd1na2vs0mg"},{"bike_id":"2d527b57-f1c3-402a-bdb7-1a17c2c3785a","system_id":"levelo_inurba_marseille","lat":43.30603,"lon":5.3936,"is_reserved":false,"is_disabled":false,"rental_uris":{"android":"levelo://app?vid=2d527b57-f1c3-402a-bdb7-1a17c2c3785a","ios":"levelo://app?vid=2d527b57-f1c3-402a-bdb7-1a17c2c3785a"},"vehicle_type_id":"4","last_reported":1727571011,"current_range_meters":36800,"station_id":"ce4bh0p2rcd13ifvqd80","pricing_plan_id":"cebpf4jnsgd1na2vs0mg"},{"bike_id":"4b66f5f2-c486-47ac-bf11-139e5b2e7872","system_id":"levelo_inurba_marseille","lat":43.31084,"lon":5.42435,"is_reserved":false,"is_disabled":false,"rental_uris":{"android":"levelo://app?vid=4b66f5f2-c486-47ac-bf11-139e5b2e7872","ios":"levelo://app?vid=4b66f5f2-c486-47ac-bf11-139e5b2e7872"},"vehicle_type_id":"4","last_reported":1727571011,"current_range_meters":36800,"station_id":"ce4bhp92rcd13ifvqhag","pricing_plan_id":"cebpf4jnsgd1na2vs0mg"},{"bike_id":"5f0d5c99-8030-458d-9ec5-e24ec96db0ec","system_id":"levelo_inurba_marseille","lat":43.30143,"lon":5.39865,"is_reserved":false,"is_disabled":false,"rental_uris":{"android":"levelo://app?vid=5f0d5c99-8030-458d-9ec5-e24ec96db0ec","ios":"levelo://app?vid=5f0d5c99-8030-458d-9ec5-e24ec96db0ec"},"vehicle_type_id":"4","last_reported":1727571011,"current_range_meters":28400,"station_id":"ce4bh0h2rcd13ifvqd40","pricing_plan_id":"cebpf4jnsgd1na2vs0mg"},{"bike_id":"c4d29d53-7958-4594-90bb-b85ab3fd69c4","system_id":"levelo_inurba_marseille","lat":43.31172,"lon":5.38709,"is_reserved":false,"is_disabled":false,"rental_uris":{"android":"levelo://app?vid=c4d29d53-7958-4594-90bb-b85ab3fd69c4","ios":"levelo://app?vid=c4d29d53-7958-4594-90bb-b85ab3fd69c4"},"vehicle_type_id":"4","last_reported":1727571011,"current_range_meters":17600,"station_id":"ce4bgv12rcd13ifvqcp0","pricing_plan_id":"cebpf4jnsgd1na2vs0mg"},{"bike_id":"801dee94-6df9-4ac7-b8ff-19b18de3acb6","system_id":"levelo_inurba_marseille","lat":43.31988,"lon":5.38142,"is_reserved":false,"is_disabled":false,"rental_uris":{"android":"levelo://app?vid=801dee94-6df9-4ac7-b8ff-19b18de3acb6","ios":"levelo://app?vid=801dee94-6df9-4ac7-b8ff-19b18de3acb6"},"vehicle_type_id":"4","last_reported":1727571011,"current_range_meters":25200,"station_id":"ce4bhr12rcd13ifvqhpg","pricing_plan_id":"cebpf4jnsgd1na2vs0mg"},{"bike_id":"18ea8fba-dd38-4c1e-b15a-2b4a2edf1b4d","system_id":"levelo_inurba_marseille","lat":43.30884,"lon":5.39639,"is_reserved":false,"is_disabled":false,"rental_uris":{"android":"levelo://app?vid=18ea8fba-dd38-4c1e-b15a-2b4a2edf1b4d","ios":"levelo://app?vid=18ea8fba-dd38-4c1e-b15a-2b4a2edf1b4d"},"vehicle_type_id":"4","last_reported":1727571011,"current_range_meters":24000,"station_id":"ce4bh012rcd13ifvqcv0","pricing_plan_id":"cebpf4jnsgd1na2vs0mg"},{"bike_id":"848da01c-249f-40a1-a74f-e4a7991db9ba","system_id":"levelo_inurba_marseille","lat":43.27567,"lon":5.38425,"is_reserved":false,"is_disabled":false,"rental_uris":{"android":"levelo://app?vid=848da01c-249f-40a1-a74f-e4a7991db9ba","ios":"levelo://app?vid=848da01c-249f-40a1-a74f-e4a7991db9ba"},"vehicle_type_id":"4","last_reported":1727571011,"current_range_meters":7200,"station_id":"ce4bhh92rcd13ifvqfi0","pricing_plan_id":"cebpf4jnsgd1na2vs0mg"},{"bike_id":"02445b2d-cba6-4635-a53c-c1cbb0644eb1","system_id":"levelo_inurba_marseille","lat":43.27836,"lon":5.39207,"is_reserved":false,"is_disabled":false,"rental_uris":{"android":"levelo://app?vid=02445b2d-cba6-4635-a53c-c1cbb0644eb1","ios":"levelo://app?vid=02445b2d-cba6-4635-a53c-c1cbb0644eb1"},"vehicle_type_id":"4","last_reported":1727571011,"current_range_meters":33600,"station_id":"ce4bhjp2rcd13ifvqga0","pricing_plan_id":"cebpf4jnsgd1na2vs0mg"},{"bike_id":"14e6435e-3051-4b48-9562-4e428d1050a4","system_id":"levelo_inurba_marseille","lat":43.31117,"lon":5.37757,"is_reserved":false,"is_disabled":false,"rental_uris":{"android":"levelo://app?vid=14e6435e-3051-4b48-9562-4e428d1050a4","ios":"levelo://app?vid=14e6435e-3051-4b48-9562-4e428d1050a4"},"vehicle_type_id":"4","last_reported":1727571011,"current_range_meters":38800,"station_id":"ce4bgt92rcd13ifvqcg0","pricing_plan_id":"cebpf4jnsgd1na2vs0mg"},{"bike_id":"5667981f-e35c-4801-90dd-6e56d87feaaf","system_id":"levelo_inurba_marseille","lat":43.23152,"lon":5.43705,"is_reserved":false,"is_disabled":false,"rental_uris":{"android":"levelo://app?vid=5667981f-e35c-4801-90dd-6e56d87feaaf","ios":"levelo://app?vid=5667981f-e35c-4801-90dd-6e56d87feaaf"},"vehicle_type_id":"4","last_reported":1727571011,"current_range_meters":6000,"station_id":"ce4bhmp2rcd13ifvqgog","pricing_plan_id":"cebpf4jnsgd1na2vs0mg"},{"bike_id":"258e025d-f605-4338-84a0-17f713af0b8d","system_id":"levelo_inurba_marseille","lat":43.24806,"lon":5.37452,"is_reserved":false,"is_disabled":false,"rental_uris":{"android":"levelo://app?vid=258e025d-f605-4338-84a0-17f713af0b8d","ios":"levelo://app?vid=258e025d-f605-4338-84a0-17f713af0b8d"},"vehicle_type_id":"4","last_reported":1727571011,"current_range_meters":37600,"station_id":"ce4bhgh2rcd13ifvqfb0","pricing_plan_id":"cebpf4jnsgd1na2vs0mg"},{"bike_id":"e4a8085c-73dc-4acb-ac48-224d38a0de10","system_id":"levelo_inurba_marseille","lat":43.31278,"lon":5.40164,"is_reserved":false,"is_disabled":false,"rental_uris":{"android":"levelo://app?vid=e4a8085c-73dc-4acb-ac48-224d38a0de10","ios":"levelo://app?vid=e4a8085c-73dc-4acb-ac48-224d38a0de10"},"vehicle_type_id":"4","last_reported":1727571011,"current_range_meters":19200,"station_id":"ce4bh092rcd13ifvqd30","pricing_plan_id":"cebpf4jnsgd1na2vs0mg"},{"bike_id":"48ac0a00-7daa-4c12-9a4d-5dab28220f2e","system_id":"levelo_inurba_marseille","lat":43.32366,"lon":5.38876,"is_reserved":false,"is_disabled":false,"rental_uris":{"android":"levelo://app?vid=48ac0a00-7daa-4c12-9a4d-5dab28220f2e","ios":"levelo://app?vid=48ac0a00-7daa-4c12-9a4d-5dab28220f2e"},"vehicle_type_id":"4","last_reported":1727571011,"current_range_meters":9200,"station_id":"ce4bhqp2rcd13ifvqhog","pricing_plan_id":"cebpf4jnsgd1na2vs0mg"},{"bike_id":"c6638d32-9ecd-4fa3-9332-f6c79a15bec5","system_id":"levelo_inurba_marseille","lat":43.28616,"lon":5.35111,"is_reserved":false,"is_disabled":false,"rental_uris":{"android":"levelo://app?vid=c6638d32-9ecd-4fa3-9332-f6c79a15bec5","ios":"levelo://app?vid=c6638d32-9ecd-4fa3-9332-f6c79a15bec5"},"vehicle_type_id":"4","last_reported":1727571011,"current_range_meters":38800,"station_id":"ce4bhch2rcd13ifvqeug","pricing_plan_id":"cebpf4jnsgd1na2vs0mg"},{"bike_id":"2b89b034-9d48-4061-89ca-7cd2f5925637","system_id":"levelo_inurba_marseille","lat":43.28669,"lon":5.36352,"is_reserved":false,"is_disabled":false,"rental_uris":{"android":"levelo://app?vid=2b89b034-9d48-4061-89ca-7cd2f5925637","ios":"levelo://app?vid=2b89b034-9d48-4061-89ca-7cd2f5925637"},"vehicle_type_id":"4","last_reported":1727571011,"current_range_meters":38800,"station_id":"ce4bhah2rcd13ifvqej0","pricing_plan_id":"cebpf4jnsgd1na2vs0mg"},{"bike_id":"109b3c0c-8bf1-4c6c-995c-e118c5a0c15c","system_id":"levelo_inurba_marseille","lat":43.27562,"lon":5.38418,"is_reserved":false,"is_disabled":false,"rental_uris":{"android":"levelo://app?vid=109b3c0c-8bf1-4c6c-995c-e118c5a0c15c","ios":"levelo://app?vid=109b3c0c-8bf1-4c6c-995c-e118c5a0c15c"},"vehicle_type_id":"4","last_reported":1727571011,"current_range_meters":38800,"station_id":"ce4bhh92rcd13ifvqfi0","pricing_plan_id":"cebpf4jnsgd1na2vs0mg"},{"bike_id":"e0597488-ca3d-4f29-b463-27df216e4321","system_id":"levelo_inurba_marseille","lat":43.28467,"lon":5.35886,"is_reserved":false,"is_disabled":false,"rental_uris":{"android":"levelo://app?vid=e0597488-ca3d-4f29-b463-27df216e4321","ios":"levelo://app?vid=e0597488-ca3d-4f29-b463-27df216e4321"},"vehicle_type_id":"4","last_reported":1727571011,"current_range_meters":38800,"station_id":"ce4bhah2rcd13ifvqei0","pricing_plan_id":"cebpf4jnsgd1na2vs0mg"},{"bike_id":"1f313afb-1cf8-4bb7-8831-2c9f193c2d0c","system_id":"levelo_inurba_marseille","lat":43.248,"lon":5.37449,"is_reserved":false,"is_disabled":false,"rental_uris":{"android":"levelo://app?vid=1f313afb-1cf8-4bb7-8831-2c9f193c2d0c","ios":"levelo://app?vid=1f313afb-1cf8-4bb7-8831-2c9f193c2d0c"},"vehicle_type_id":"4","last_reported":1727571011,"current_range_meters":38800,"station_id":"ce4bhgh2rcd13ifvqfb0","pricing_plan_id":"cebpf4jnsgd1na2vs0mg"},{"bike_id":"a63d4449-4f5a-4f1c-9a3c-27c8d74bd2a3","system_id":"levelo_inurba_marseille","lat":43.24391,"lon":5.37063,"is_reserved":false,"is_disabled":false,"rental_uris":{"android":"levelo://app?vid=a63d4449-4f5a-4f1c-9a3c-27c8d74bd2a3","ios":"levelo://app?vid=a63d4449-4f5a-4f1c-9a3c-27c8d74bd2a3"},"vehicle_type_id":"4","last_reported":1727571011,"current_range_meters":12400,"station_id":"ce4bhhh2rcd13ifvqfk0","pricing_plan_id":"cebpf4jnsgd1na2vs0mg"},{"bike_id":"f053546e-9417-4cdc-8c24-aa8dc21c1501","system_id":"levelo_inurba_marseille","lat":43.28463,"lon":5.35884,"is_reserved":false,"is_disabled":false,"rental_uris":{"android":"levelo://app?vid=f053546e-9417-4cdc-8c24-aa8dc21c1501","ios":"levelo://app?vid=f053546e-9417-4cdc-8c24-aa8dc21c1501"},"vehicle_type_id":"4","last_reported":1727571011,"current_range_meters":33200,"station_id":"ce4bhah2rcd13ifvqei0","pricing_plan_id":"cebpf4jnsgd1na2vs0mg"},{"bike_id":"1f9a9c65-5108-4be0-9fb9-4c7311975c6f","system_id":"levelo_inurba_marseille","lat":43.30914,"lon":5.36848,"is_reserved":false,"is_disabled":false,"rental_uris":{"android":"levelo://app?vid=1f9a9c65-5108-4be0-9fb9-4c7311975c6f","ios":"levelo://app?vid=1f9a9c65-5108-4be0-9fb9-4c7311975c6f"},"vehicle_type_id":"4","last_reported":1727571011,"current_range_meters":26800,"station_id":"ce4bgn92rcd13ifvqbvg","pricing_plan_id":"cebpf4jnsgd1na2vs0mg"},{"bike_id":"bc7dc6a9-589f-4649-9e06-6ce7434d3293","system_id":"levelo_inurba_marseille","lat":43.2866,"lon":5.36351,"is_reserved":false,"is_disabled":false,"rental_uris":{"android":"levelo://app?vid=bc7dc6a9-589f-4649-9e06-6ce7434d3293","ios":"levelo://app?vid=bc7dc6a9-589f-4649-9e06-6ce7434d3293"},"vehicle_type_id":"4","last_reported":1727571011,"current_range_meters":23200,"station_id":"ce4bhah2rcd13ifvqej0","pricing_plan_id":"cebpf4jnsgd1na2vs0mg"},{"bike_id":"f8cd1665-2182-42bb-993d-799437deb95c","system_id":"levelo_inurba_marseille","lat":43.23188,"lon":5.35556,"is_reserved":false,"is_disabled":false,"rental_uris":{"android":"levelo://app?vid=f8cd1665-2182-42bb-993d-799437deb95c","ios":"levelo://app?vid=f8cd1665-2182-42bb-993d-799437deb95c"},"vehicle_type_id":"4","last_reported":1727571011,"current_range_meters":6400,"station_id":"ce4bhu92rcd13ifvqi70","pricing_plan_id":"cebpf4jnsgd1na2vs0mg"},{"bike_id":"17669bbd-72f7-41bf-9d7b-c9a0882145b4","system_id":"levelo_inurba_marseille","lat":43.29206,"lon":5.39319,"is_reserved":false,"is_disabled":false,"rental_uris":{"android":"levelo://app?vid=17669bbd-72f7-41bf-9d7b-c9a0882145b4","ios":"levelo://app?vid=17669bbd-72f7-41bf-9d7b-c9a0882145b4"},"vehicle_type_id":"4","last_reported":1727571011,"current_range_meters":19200,"station_id":"ce4bh192rcd13ifvqdd0","pricing_plan_id":"cebpf4jnsgd1na2vs0mg"},{"bike_id":"31fa25e9-2d65-4c2d-b7d1-53ad6527cbe6","system_id":"levelo_inurba_marseille","lat":43.3082,"lon":5.38163,"is_reserved":false,"is_disabled":false,"rental_uris":{"android":"levelo://app?vid=31fa25e9-2d65-4c2d-b7d1-53ad6527cbe6","ios":"levelo://app?vid=31fa25e9-2d65-4c2d-b7d1-53ad6527cbe6"},"vehicle_type_id":"4","last_reported":1727571011,"current_range_meters":38800,"station_id":"ce4bgt12rcd13ifvqce0","pricing_plan_id":"cebpf4jnsgd1na2vs0mg"},{"bike_id":"0769877c-c4e7-47ae-99ae-b7d49750ae44","system_id":"levelo_inurba_marseille","lat":43.28695,"lon":5.39977,"is_reserved":false,"is_disabled":false,"rental_uris":{"android":"levelo://app?vid=0769877c-c4e7-47ae-99ae-b7d49750ae44","ios":"levelo://app?vid=0769877c-c4e7-47ae-99ae-b7d49750ae44"},"vehicle_type_id":"4","last_reported":1727571011,"current_range_meters":38400,"station_id":"ce4bho92rcd13ifvqh3g","pricing_plan_id":"cebpf4jnsgd1na2vs0mg"},{"bike_id":"3b39c6b7-5d9c-4a0b-8d4e-ca79a2c006c2","system_id":"levelo_inurba_marseille","lat":43.294342,"lon":5.374089,"is_reserved":false,"is_disabled":false,"rental_uris":{"android":"levelo://app?vid=3b39c6b7-5d9c-4a0b-8d4e-ca79a2c006c2","ios":"levelo://app?vid=3b39c6b7-5d9c-4a0b-8d4e-ca79a2c006c2"},"vehicle_type_id":"4","last_reported":1727571011,"current_range_meters":28000,"station_id":"ce4bgvh2rcd13ifvqcs0","pricing_plan_id":"cebpf4jnsgd1na2vs0mg"},{"bike_id":"09821d9b-80c1-443f-9e66-63848c6692e3","system_id":"levelo_inurba_marseille","lat":43.30948,"lon":5.39041,"is_reserved":false,"is_disabled":false,"rental_uris":{"android":"levelo://app?vid=09821d9b-80c1-443f-9e66-63848c6692e3","ios":"levelo://app?vid=09821d9b-80c1-443f-9e66-63848c6692e3"},"vehicle_type_id":"4","last_reported":1727571011,"current_range_meters":10000,"station_id":"ce4bgup2rcd13ifvqco0","pricing_plan_id":"cebpf4jnsgd1na2vs0mg"},{"bike_id":"02c85c47-c574-4439-ab43-a1fe4054bee2","system_id":"levelo_inurba_marseille","lat":43.30956,"lon":5.39037,"is_reserved":false,"is_disabled":false,"rental_uris":{"android":"levelo://app?vid=02c85c47-c574-4439-ab43-a1fe4054bee2","ios":"levelo://app?vid=02c85c47-c574-4439-ab43-a1fe4054bee2"},"vehicle_type_id":"4","last_reported":1727571011,"current_range_meters":38800,"station_id":"ce4bgup2rcd13ifvqco0","pricing_plan_id":"cebpf4jnsgd1na2vs0mg"},{"bike_id":"e46673cc-635b-4ede-8536-49cc3960a833","system_id":"levelo_inurba_marseille","lat":43.26367,"lon":5.38947,"is_reserved":false,"is_disabled":false,"rental_uris":{"android":"levelo://app?vid=e46673cc-635b-4ede-8536-49cc3960a833","ios":"levelo://app?vid=e46673cc-635b-4ede-8536-49cc3960a833"},"vehicle_type_id":"4","last_reported":1727571011,"current_range_meters":31200,"station_id":"","pricing_plan_id":"cebpf4jnsgd1na2vs0mg"},{"bike_id":"6dbcdd02-2acc-4d5b-909e-db280eb5b7f0","system_id":"levelo_inurba_marseille","lat":43.26573,"lon":5.39006,"is_reserved":false,"is_disabled":false,"rental_uris":{"android":"levelo://app?vid=6dbcdd02-2acc-4d5b-909e-db280eb5b7f0","ios":"levelo://app?vid=6dbcdd02-2acc-4d5b-909e-db280eb5b7f0"},"vehicle_type_id":"4","last_reported":1727571011,"current_range_meters":24400,"station_id":"ce4bhe12rcd13ifvqf30","pricing_plan_id":"cebpf4jnsgd1na2vs0mg"},{"bike_id":"98c5367f-8c22-4856-aaa7-6126d738d39f","system_id":"levelo_inurba_marseille","lat":43.30953,"lon":5.39039,"is_reserved":false,"is_disabled":false,"rental_uris":{"android":"levelo://app?vid=98c5367f-8c22-4856-aaa7-6126d738d39f","ios":"levelo://app?vid=98c5367f-8c22-4856-aaa7-6126d738d39f"},"vehicle_type_id":"4","last_reported":1727571011,"current_range_meters":30800,"station_id":"ce4bgup2rcd13ifvqco0","pricing_plan_id":"cebpf4jnsgd1na2vs0mg"},{"bike_id":"2d0b0bbd-5a31-4c40-acb0-100c5b8393aa","system_id":"levelo_inurba_marseille","lat":43.3094,"lon":5.39036,"is_reserved":false,"is_disabled":false,"rental_uris":{"android":"levelo://app?vid=2d0b0bbd-5a31-4c40-acb0-100c5b8393aa","ios":"levelo://app?vid=2d0b0bbd-5a31-4c40-acb0-100c5b8393aa"},"vehicle_type_id":"4","last_reported":1727571011,"current_range_meters":17200,"station_id":"ce4bgup2rcd13ifvqco0","pricing_plan_id":"cebpf4jnsgd1na2vs0mg"},{"bike_id":"ed84faff-17c5-48fb-8753-c2f883b40c1d","system_id":"levelo_inurba_marseille","lat":43.23967,"lon":5.36628,"is_reserved":false,"is_disabled":false,"rental_uris":{"android":"levelo://app?vid=ed84faff-17c5-48fb-8753-c2f883b40c1d","ios":"levelo://app?vid=ed84faff-17c5-48fb-8753-c2f883b40c1d"},"vehicle_type_id":"4","last_reported":1727571011,"current_range_meters":39200,"station_id":"ce4bhi12rcd13ifvqfp0","pricing_plan_id":"cebpf4jnsgd1na2vs0mg"},{"bike_id":"1fc6360b-b716-4868-9d7c-71fb261a0a10","system_id":"levelo_inurba_marseille","lat":43.31995,"lon":5.38153,"is_reserved":false,"is_disabled":false,"rental_uris":{"android":"levelo://app?vid=1fc6360b-b716-4868-9d7c-71fb261a0a10","ios":"levelo://app?vid=1fc6360b-b716-4868-9d7c-71fb261a0a10"},"vehicle_type_id":"4","last_reported":1727571011,"current_range_meters":30400,"station_id":"ce4bhr12rcd13ifvqhpg","pricing_plan_id":"cebpf4jnsgd1na2vs0mg"},{"bike_id":"3b170ecf-4bbb-421f-886d-94818fba1de8","system_id":"levelo_inurba_marseille","lat":43.2848,"lon":5.40021,"is_reserved":false,"is_disabled":false,"rental_uris":{"android":"levelo://app?vid=3b170ecf-4bbb-421f-886d-94818fba1de8","ios":"levelo://app?vid=3b170ecf-4bbb-421f-886d-94818fba1de8"},"vehicle_type_id":"4","last_reported":1727571011,"current_range_meters":34000,"station_id":"ce4bh2h2rcd13ifvqdh0","pricing_plan_id":"cebpf4jnsgd1na2vs0mg"},{"bike_id":"3d8c04ca-d2d1-4a3b-b928-49302d184469","system_id":"levelo_inurba_marseille","lat":43.30951,"lon":5.3904,"is_reserved":false,"is_disabled":false,"rental_uris":{"android":"levelo://app?vid=3d8c04ca-d2d1-4a3b-b928-49302d184469","ios":"levelo://app?vid=3d8c04ca-d2d1-4a3b-b928-49302d184469"},"vehicle_type_id":"4","last_reported":1727571011,"current_range_meters":30000,"station_id":"ce4bgup2rcd13ifvqco0","pricing_plan_id":"cebpf4jnsgd1na2vs0mg"},{"bike_id":"a84742ce-84eb-4d21-873c-4e72b449188c","system_id":"levelo_inurba_marseille","lat":43.26194,"lon":5.37923,"is_reserved":false,"is_disabled":false,"rental_uris":{"android":"levelo://app?vid=a84742ce-84eb-4d21-873c-4e72b449188c","ios":"levelo://app?vid=a84742ce-84eb-4d21-873c-4e72b449188c"},"vehicle_type_id":"4","last_reported":1727571011,"current_range_meters":36800,"station_id":"ce4bhjp2rcd13ifvqg90","pricing_plan_id":"cebpf4jnsgd1na2vs0mg"},{"bike_id":"b1fbf633-158f-4826-87cd-61ac506ccf65","system_id":"levelo_inurba_marseille","lat":43.33606,"lon":5.41026,"is_reserved":false,"is_disabled":false,"rental_uris":{"android":"levelo://app?vid=b1fbf633-158f-4826-87cd-61ac506ccf65","ios":"levelo://app?vid=b1fbf633-158f-4826-87cd-61ac506ccf65"},"vehicle_type_id":"4","last_reported":1727571011,"current_range_meters":39200,"station_id":"ce4bhqh2rcd13ifvqhmg","pricing_plan_id":"cebpf4jnsgd1na2vs0mg"},{"bike_id":"b0770d00-c38f-4e37-b240-ed7bc5977b1a","system_id":"levelo_inurba_marseille","lat":43.24653,"lon":5.38896,"is_reserved":false,"is_disabled":false,"rental_uris":{"android":"levelo://app?vid=b0770d00-c38f-4e37-b240-ed7bc5977b1a","ios":"levelo://app?vid=b0770d00-c38f-4e37-b240-ed7bc5977b1a"},"vehicle_type_id":"4","last_reported":1727571011,"current_range_meters":38800,"station_id":"ce4bhg12rcd13ifvqf60","pricing_plan_id":"cebpf4jnsgd1na2vs0mg"},{"bike_id":"a3688464-e73a-4d75-ac1f-64edd469d10b","system_id":"levelo_inurba_marseille","lat":43.30602,"lon":5.37222,"is_reserved":false,"is_disabled":false,"rental_uris":{"android":"levelo://app?vid=a3688464-e73a-4d75-ac1f-64edd469d10b","ios":"levelo://app?vid=a3688464-e73a-4d75-ac1f-64edd469d10b"},"vehicle_type_id":"4","last_reported":1727571011,"current_range_meters":38800,"station_id":"ce4bgqh2rcd13ifvqc4g","pricing_plan_id":"cebpf4jnsgd1na2vs0mg"},{"bike_id":"7cbdd151-1e4e-434f-a539-3a67c68f4471","system_id":"levelo_inurba_marseille","lat":43.2319,"lon":5.39974,"is_reserved":false,"is_disabled":false,"rental_uris":{"android":"levelo://app?vid=7cbdd151-1e4e-434f-a539-3a67c68f4471","ios":"levelo://app?vid=7cbdd151-1e4e-434f-a539-3a67c68f4471"},"vehicle_type_id":"4","last_reported":1727571011,"current_range_meters":28000,"station_id":"ce4bhn12rcd13ifvqgqg","pricing_plan_id":"cebpf4jnsgd1na2vs0mg"},{"bike_id":"8db7e629-facb-4f32-893e-62621f01ceb1","system_id":"levelo_inurba_marseille","lat":43.2956,"lon":5.42293,"is_reserved":false,"is_disabled":false,"rental_uris":{"android":"levelo://app?vid=8db7e629-facb-4f32-893e-62621f01ceb1","ios":"levelo://app?vid=8db7e629-facb-4f32-893e-62621f01ceb1"},"vehicle_type_id":"4","last_reported":1727571011,"current_range_meters":27600,"station_id":"ce4bhph2rcd13ifvqhdg","pricing_plan_id":"cebpf4jnsgd1na2vs0mg"},{"bike_id":"b4d5cc87-74f3-4d5f-891d-6e50dc9154a1","system_id":"levelo_inurba_marseille","lat":43.28432,"lon":5.39183,"is_reserved":false,"is_disabled":false,"rental_uris":{"android":"levelo://app?vid=b4d5cc87-74f3-4d5f-891d-6e50dc9154a1","ios":"levelo://app?vid=b4d5cc87-74f3-4d5f-891d-6e50dc9154a1"},"vehicle_type_id":"4","last_reported":1727571011,"current_range_meters":26000,"station_id":"ce4bhoh2rcd13ifvqh5g","pricing_plan_id":"cebpf4jnsgd1na2vs0mg"},{"bike_id":"a7f02e11-7266-4284-bcaf-f042ff58ae8a","system_id":"levelo_inurba_marseille","lat":43.2926,"lon":5.40904,"is_reserved":false,"is_disabled":false,"rental_uris":{"android":"levelo://app?vid=a7f02e11-7266-4284-bcaf-f042ff58ae8a","ios":"levelo://app?vid=a7f02e11-7266-4284-bcaf-f042ff58ae8a"},"vehicle_type_id":"4","last_reported":1727571011,"current_range_meters":37600,"station_id":"ce4bh192rcd13ifvqdc0","pricing_plan_id":"cebpf4jnsgd1na2vs0mg"},{"bike_id":"c51e285c-8141-4023-9ee3-49bcc68cf98c","system_id":"levelo_inurba_marseille","lat":43.25092,"lon":5.39517,"is_reserved":false,"is_disabled":false,"rental_uris":{"android":"levelo://app?vid=c51e285c-8141-4023-9ee3-49bcc68cf98c","ios":"levelo://app?vid=c51e285c-8141-4023-9ee3-49bcc68cf98c"},"vehicle_type_id":"4","last_reported":1727571011,"current_range_meters":38800,"station_id":"ce4bhm12rcd13ifvqgkg","pricing_plan_id":"cebpf4jnsgd1na2vs0mg"},{"bike_id":"28805098-09eb-4895-ac25-0248db865370","system_id":"levelo_inurba_marseille","lat":43.30786,"lon":5.37648,"is_reserved":false,"is_disabled":false,"rental_uris":{"android":"levelo://app?vid=28805098-09eb-4895-ac25-0248db865370","ios":"levelo://app?vid=28805098-09eb-4895-ac25-0248db865370"},"vehicle_type_id":"4","last_reported":1727571011,"current_range_meters":15200,"station_id":"ce4bgv92rcd13ifvqcq0","pricing_plan_id":"cebpf4jnsgd1na2vs0mg"},{"bike_id":"e73d2f8f-2974-4cdf-987c-a13b580a58f4","system_id":"levelo_inurba_marseille","lat":43.30432,"lon":5.38887,"is_reserved":false,"is_disabled":false,"rental_uris":{"android":"levelo://app?vid=e73d2f8f-2974-4cdf-987c-a13b580a58f4","ios":"levelo://app?vid=e73d2f8f-2974-4cdf-987c-a13b580a58f4"},"vehicle_type_id":"4","last_reported":1727571011,"current_range_meters":30800,"station_id":"ce4bgk12rcd13ifvqbi0","pricing_plan_id":"cebpf4jnsgd1na2vs0mg"},{"bike_id":"f71847c8-2159-4faa-96a8-b0113de2b7b7","system_id":"levelo_inurba_marseille","lat":43.31715,"lon":5.37754,"is_reserved":false,"is_disabled":false,"rental_uris":{"android":"levelo://app?vid=f71847c8-2159-4faa-96a8-b0113de2b7b7","ios":"levelo://app?vid=f71847c8-2159-4faa-96a8-b0113de2b7b7"},"vehicle_type_id":"4","last_reported":1727571011,"current_range_meters":35200,"station_id":"ce4bgth2rcd13ifvqch0","pricing_plan_id":"cebpf4jnsgd1na2vs0mg"},{"bike_id":"02afdac9-b709-4569-9d30-01807b436617","system_id":"levelo_inurba_marseille","lat":43.29572,"lon":5.37489,"is_reserved":false,"is_disabled":false,"rental_uris":{"android":"levelo://app?vid=02afdac9-b709-4569-9d30-01807b436617","ios":"levelo://app?vid=02afdac9-b709-4569-9d30-01807b436617"},"vehicle_type_id":"4","last_reported":1727571011,"current_range_meters":37600,"station_id":"ce4bgh92rcd13ifvqb50","pricing_plan_id":"cebpf4jnsgd1na2vs0mg"},{"bike_id":"7cfbd935-09f5-4a64-9e66-38667ba738a9","system_id":"levelo_inurba_marseille","lat":43.30537,"lon":5.38436,"is_reserved":false,"is_disabled":false,"rental_uris":{"android":"levelo://app?vid=7cfbd935-09f5-4a64-9e66-38667ba738a9","ios":"levelo://app?vid=7cfbd935-09f5-4a64-9e66-38667ba738a9"},"vehicle_type_id":"4","last_reported":1727571011,"current_range_meters":28400,"station_id":"ce4bgg92rcd13ifvqb30","pricing_plan_id":"cebpf4jnsgd1na2vs0mg"},{"bike_id":"c4a8f360-1206-4f4f-a92d-ac3dc185d9ac","system_id":"levelo_inurba_marseille","lat":43.30959,"lon":5.39053,"is_reserved":false,"is_disabled":false,"rental_uris":{"android":"levelo://app?vid=c4a8f360-1206-4f4f-a92d-ac3dc185d9ac","ios":"levelo://app?vid=c4a8f360-1206-4f4f-a92d-ac3dc185d9ac"},"vehicle_type_id":"4","last_reported":1727571011,"current_range_meters":27200,"station_id":"ce4bgup2rcd13ifvqco0","pricing_plan_id":"cebpf4jnsgd1na2vs0mg"},{"bike_id":"b0a72c88-459b-4686-a2b8-8e68bceab7c9","system_id":"levelo_inurba_marseille","lat":43.27911,"lon":5.3958,"is_reserved":false,"is_disabled":false,"rental_uris":{"android":"levelo://app?vid=b0a72c88-459b-4686-a2b8-8e68bceab7c9","ios":"levelo://app?vid=b0a72c88-459b-4686-a2b8-8e68bceab7c9"},"vehicle_type_id":"4","last_reported":1727571011,"current_range_meters":28800,"station_id":"ce4bhf92rcd13ifvqf40","pricing_plan_id":"cebpf4jnsgd1na2vs0mg"},{"bike_id":"eb35b74a-e100-4849-baf8-86135e114bef","system_id":"levelo_inurba_marseille","lat":43.23148,"lon":5.43702,"is_reserved":false,"is_disabled":false,"rental_uris":{"android":"levelo://app?vid=eb35b74a-e100-4849-baf8-86135e114bef","ios":"levelo://app?vid=eb35b74a-e100-4849-baf8-86135e114bef"},"vehicle_type_id":"4","last_reported":1727571011,"current_range_meters":34800,"station_id":"ce4bhmp2rcd13ifvqgog","pricing_plan_id":"cebpf4jnsgd1na2vs0mg"},{"bike_id":"d6e69148-d42f-450d-b56d-d72d079bdc9a","system_id":"levelo_inurba_marseille","lat":43.291005,"lon":5.3816,"is_reserved":false,"is_disabled":false,"rental_uris":{"android":"levelo://app?vid=d6e69148-d42f-450d-b56d-d72d079bdc9a","ios":"levelo://app?vid=d6e69148-d42f-450d-b56d-d72d079bdc9a"},"vehicle_type_id":"4","last_reported":1727571011,"current_range_meters":14400,"station_id":"ce4bh512rcd13ifvqe2g","pricing_plan_id":"cebpf4jnsgd1na2vs0mg"},{"bike_id":"5c415a90-b72b-4e8c-9f4b-792ddccd5b2b","system_id":"levelo_inurba_marseille","lat":43.31332,"lon":5.39699,"is_reserved":false,"is_disabled":false,"rental_uris":{"android":"levelo://app?vid=5c415a90-b72b-4e8c-9f4b-792ddccd5b2b","ios":"levelo://app?vid=5c415a90-b72b-4e8c-9f4b-792ddccd5b2b"},"vehicle_type_id":"4","last_reported":1727571011,"current_range_meters":38000,"station_id":"ce4bgvp2rcd13ifvqcu0","pricing_plan_id":"cebpf4jnsgd1na2vs0mg"},{"bike_id":"daa85053-e956-4f93-94da-c3a2ec0c9a9e","system_id":"levelo_inurba_marseille","lat":43.29553,"lon":5.42291,"is_reserved":false,"is_disabled":false,"rental_uris":{"android":"levelo://app?vid=daa85053-e956-4f93-94da-c3a2ec0c9a9e","ios":"levelo://app?vid=daa85053-e956-4f93-94da-c3a2ec0c9a9e"},"vehicle_type_id":"4","last_reported":1727571011,"current_range_meters":23200,"station_id":"ce4bhph2rcd13ifvqhdg","pricing_plan_id":"cebpf4jnsgd1na2vs0mg"},{"bike_id":"ec031ee8-d5aa-4504-b193-b76ff1fe44a4","system_id":"levelo_inurba_marseille","lat":43.30352,"lon":5.41879,"is_reserved":false,"is_disabled":false,"rental_uris":{"android":"levelo://app?vid=ec031ee8-d5aa-4504-b193-b76ff1fe44a4","ios":"levelo://app?vid=ec031ee8-d5aa-4504-b193-b76ff1fe44a4"},"vehicle_type_id":"4","last_reported":1727571011,"current_range_meters":22800,"station_id":"ce4bhop2rcd13ifvqh7g","pricing_plan_id":"cebpf4jnsgd1na2vs0mg"},{"bike_id":"40ff7732-bf7f-44dc-8434-dc5fcb280bc9","system_id":"levelo_inurba_marseille","lat":43.2846,"lon":5.3588,"is_reserved":false,"is_disabled":false,"rental_uris":{"android":"levelo://app?vid=40ff7732-bf7f-44dc-8434-dc5fcb280bc9","ios":"levelo://app?vid=40ff7732-bf7f-44dc-8434-dc5fcb280bc9"},"vehicle_type_id":"4","last_reported":1727571011,"current_range_meters":9600,"station_id":"ce4bhah2rcd13ifvqei0","pricing_plan_id":"cebpf4jnsgd1na2vs0mg"},{"bike_id":"5e54b452-ef58-4674-9b2d-4f9ba7c220ea","system_id":"levelo_inurba_marseille","lat":43.28099,"lon":5.37841,"is_reserved":false,"is_disabled":false,"rental_uris":{"android":"levelo://app?vid=5e54b452-ef58-4674-9b2d-4f9ba7c220ea","ios":"levelo://app?vid=5e54b452-ef58-4674-9b2d-4f9ba7c220ea"},"vehicle_type_id":"4","last_reported":1727571011,"current_range_meters":38800,"station_id":"ce4bha12rcd13ifvqee0","pricing_plan_id":"cebpf4jnsgd1na2vs0mg"},{"bike_id":"8eb5911f-c95e-4f31-a6d6-b3cd459f46bc","system_id":"levelo_inurba_marseille","lat":43.324809,"lon":5.365545,"is_reserved":false,"is_disabled":false,"rental_uris":{"android":"levelo://app?vid=8eb5911f-c95e-4f31-a6d6-b3cd459f46bc","ios":"levelo://app?vid=8eb5911f-c95e-4f31-a6d6-b3cd459f46bc"},"vehicle_type_id":"4","last_reported":1727571011,"current_range_meters":38800,"station_id":"ce4bhs12rcd13ifvqhvg","pricing_plan_id":"cebpf4jnsgd1na2vs0mg"},{"bike_id":"e6ac12bb-8565-4468-80c2-aff7850a0dda","system_id":"levelo_inurba_marseille","lat":43.28451,"lon":5.38404,"is_reserved":false,"is_disabled":false,"rental_uris":{"android":"levelo://app?vid=e6ac12bb-8565-4468-80c2-aff7850a0dda","ios":"levelo://app?vid=e6ac12bb-8565-4468-80c2-aff7850a0dda"},"vehicle_type_id":"4","last_reported":1727571011,"current_range_meters":16000,"station_id":"ce4bh512rcd13ifvqe3g","pricing_plan_id":"cebpf4jnsgd1na2vs0mg"},{"bike_id":"16b7522c-3d76-48b0-b927-b37269d4490a","system_id":"levelo_inurba_marseille","lat":43.31363,"lon":5.38494,"is_reserved":false,"is_disabled":false,"rental_uris":{"android":"levelo://app?vid=16b7522c-3d76-48b0-b927-b37269d4490a","ios":"levelo://app?vid=16b7522c-3d76-48b0-b927-b37269d4490a"},"vehicle_type_id":"4","last_reported":1727571011,"current_range_meters":36000,"station_id":"ce4bgt92rcd13ifvqcf0","pricing_plan_id":"cebpf4jnsgd1na2vs0mg"},{"bike_id":"2cee1cba-5de8-4115-88f8-9dd26eb81e4e","system_id":"levelo_inurba_marseille","lat":43.28434,"lon":5.39187,"is_reserved":false,"is_disabled":false,"rental_uris":{"android":"levelo://app?vid=2cee1cba-5de8-4115-88f8-9dd26eb81e4e","ios":"levelo://app?vid=2cee1cba-5de8-4115-88f8-9dd26eb81e4e"},"vehicle_type_id":"4","last_reported":1727571011,"current_range_meters":36800,"station_id":"ce4bhoh2rcd13ifvqh5g","pricing_plan_id":"cebpf4jnsgd1na2vs0mg"},{"bike_id":"a4b3be87-d47f-490d-9d83-26f3f511b770","system_id":"levelo_inurba_marseille","lat":43.30532,"lon":5.36715,"is_reserved":false,"is_disabled":false,"rental_uris":{"android":"levelo://app?vid=a4b3be87-d47f-490d-9d83-26f3f511b770","ios":"levelo://app?vid=a4b3be87-d47f-490d-9d83-26f3f511b770"},"vehicle_type_id":"4","last_reported":1727571011,"current_range_meters":37600,"station_id":"ce4bgrp2rcd13ifvqc9g","pricing_plan_id":"cebpf4jnsgd1na2vs0mg"},{"bike_id":"df4b172c-c1b7-4591-b5dd-babd03060aba","system_id":"levelo_inurba_marseille","lat":43.24068,"lon":5.37763,"is_reserved":false,"is_disabled":false,"rental_uris":{"android":"levelo://app?vid=df4b172c-c1b7-4591-b5dd-babd03060aba","ios":"levelo://app?vid=df4b172c-c1b7-4591-b5dd-babd03060aba"},"vehicle_type_id":"4","last_reported":1727571011,"current_range_meters":17200,"station_id":"ce4bhnp2rcd13ifvqgvg","pricing_plan_id":"cebpf4jnsgd1na2vs0mg"},{"bike_id":"82657748-dafa-473e-a064-9a1e2aff5637","system_id":"levelo_inurba_marseille","lat":43.291958,"lon":5.358015,"is_reserved":false,"is_disabled":false,"rental_uris":{"android":"levelo://app?vid=82657748-dafa-473e-a064-9a1e2aff5637","ios":"levelo://app?vid=82657748-dafa-473e-a064-9a1e2aff5637"},"vehicle_type_id":"4","last_reported":1727571011,"current_range_meters":38800,"station_id":"ce4bhb12rcd13ifvqel0","pricing_plan_id":"cebpf4jnsgd1na2vs0mg"},{"bike_id":"86685f06-45fc-4e6f-ae06-7b5cdca31bc3","system_id":"levelo_inurba_marseille","lat":43.30591,"lon":5.39358,"is_reserved":false,"is_disabled":false,"rental_uris":{"android":"levelo://app?vid=86685f06-45fc-4e6f-ae06-7b5cdca31bc3","ios":"levelo://app?vid=86685f06-45fc-4e6f-ae06-7b5cdca31bc3"},"vehicle_type_id":"4","last_reported":1727571011,"current_range_meters":28400,"station_id":"ce4bh0p2rcd13ifvqd80","pricing_plan_id":"cebpf4jnsgd1na2vs0mg"},{"bike_id":"c7141d15-44a4-4fbf-989e-1abbc95e031c","system_id":"levelo_inurba_marseille","lat":43.2794,"lon":5.41046,"is_reserved":false,"is_disabled":false,"rental_uris":{"android":"levelo://app?vid=c7141d15-44a4-4fbf-989e-1abbc95e031c","ios":"levelo://app?vid=c7141d15-44a4-4fbf-989e-1abbc95e031c"},"vehicle_type_id":"4","last_reported":1727571011,"current_range_meters":33600,"station_id":"ce4bhnp2rcd13ifvqh0g","pricing_plan_id":"cebpf4jnsgd1na2vs0mg"},{"bike_id":"6a66b30d-b7e8-4317-88c5-fb9f52bf2878","system_id":"levelo_inurba_marseille","lat":43.23958,"lon":5.36618,"is_reserved":false,"is_disabled":false,"rental_uris":{"android":"levelo://app?vid=6a66b30d-b7e8-4317-88c5-fb9f52bf2878","ios":"levelo://app?vid=6a66b30d-b7e8-4317-88c5-fb9f52bf2878"},"vehicle_type_id":"4","last_reported":1727571011,"current_range_meters":38800,"station_id":"ce4bhi12rcd13ifvqfp0","pricing_plan_id":"cebpf4jnsgd1na2vs0mg"},{"bike_id":"9de0b148-f770-4dd7-833c-4ccee05e3af0","system_id":"levelo_inurba_marseille","lat":43.32659,"lon":5.4099,"is_reserved":false,"is_disabled":false,"rental_uris":{"android":"levelo://app?vid=9de0b148-f770-4dd7-833c-4ccee05e3af0","ios":"levelo://app?vid=9de0b148-f770-4dd7-833c-4ccee05e3af0"},"vehicle_type_id":"4","last_reported":1727571011,"current_range_meters":28400,"station_id":"ce4bhpp2rcd13ifvqhgg","pricing_plan_id":"cebpf4jnsgd1na2vs0mg"},{"bike_id":"c988cd7d-26c1-4bd0-ae7e-36efe31c873b","system_id":"levelo_inurba_marseille","lat":43.24649,"lon":5.38889,"is_reserved":false,"is_disabled":false,"rental_uris":{"android":"levelo://app?vid=c988cd7d-26c1-4bd0-ae7e-36efe31c873b","ios":"levelo://app?vid=c988cd7d-26c1-4bd0-ae7e-36efe31c873b"},"vehicle_type_id":"4","last_reported":1727571011,"current_range_meters":30400,"station_id":"ce4bhg12rcd13ifvqf60","pricing_plan_id":"cebpf4jnsgd1na2vs0mg"},{"bike_id":"36e28af7-ddee-4540-a244-b5691f735fa0","system_id":"levelo_inurba_marseille","lat":43.31715,"lon":5.37744,"is_reserved":false,"is_disabled":false,"rental_uris":{"android":"levelo://app?vid=36e28af7-ddee-4540-a244-b5691f735fa0","ios":"levelo://app?vid=36e28af7-ddee-4540-a244-b5691f735fa0"},"vehicle_type_id":"4","last_reported":1727571011,"current_range_meters":9600,"station_id":"ce4bgth2rcd13ifvqch0","pricing_plan_id":"cebpf4jnsgd1na2vs0mg"},{"bike_id":"9efdf05c-571e-4c3a-a0bf-af0e0fbc032d","system_id":"levelo_inurba_marseille","lat":43.25088,"lon":5.39519,"is_reserved":false,"is_disabled":false,"rental_uris":{"android":"levelo://app?vid=9efdf05c-571e-4c3a-a0bf-af0e0fbc032d","ios":"levelo://app?vid=9efdf05c-571e-4c3a-a0bf-af0e0fbc032d"},"vehicle_type_id":"4","last_reported":1727571011,"current_range_meters":20000,"station_id":"ce4bhm12rcd13ifvqgkg","pricing_plan_id":"cebpf4jnsgd1na2vs0mg"},{"bike_id":"559ebd32-f4a0-411d-b560-2c2353c345c1","system_id":"levelo_inurba_marseille","lat":43.3063,"lon":5.40079,"is_reserved":false,"is_disabled":false,"rental_uris":{"android":"levelo://app?vid=559ebd32-f4a0-411d-b560-2c2353c345c1","ios":"levelo://app?vid=559ebd32-f4a0-411d-b560-2c2353c345c1"},"vehicle_type_id":"4","last_reported":1727571011,"current_range_meters":28800,"station_id":"ce4bh112rcd13ifvqda0","pricing_plan_id":"cebpf4jnsgd1na2vs0mg"},{"bike_id":"433a4133-e036-4f3d-910d-1e752d956d6e","system_id":"levelo_inurba_marseille","lat":43.28465,"lon":5.3589,"is_reserved":false,"is_disabled":false,"rental_uris":{"android":"levelo://app?vid=433a4133-e036-4f3d-910d-1e752d956d6e","ios":"levelo://app?vid=433a4133-e036-4f3d-910d-1e752d956d6e"},"vehicle_type_id":"4","last_reported":1727571011,"current_range_meters":38800,"station_id":"ce4bhah2rcd13ifvqei0","pricing_plan_id":"cebpf4jnsgd1na2vs0mg"},{"bike_id":"8537bd26-c143-480b-ac7c-86d2b5338011","system_id":"levelo_inurba_marseille","lat":43.26214,"lon":5.37444,"is_reserved":false,"is_disabled":false,"rental_uris":{"android":"levelo://app?vid=8537bd26-c143-480b-ac7c-86d2b5338011","ios":"levelo://app?vid=8537bd26-c143-480b-ac7c-86d2b5338011"},"vehicle_type_id":"4","last_reported":1727571011,"current_range_meters":38800,"station_id":"ce4bhgp2rcd13ifvqfc0","pricing_plan_id":"cebpf4jnsgd1na2vs0mg"},{"bike_id":"199f764e-7942-4511-a407-33ff4a7dc457","system_id":"levelo_inurba_marseille","lat":43.26028,"lon":5.37557,"is_reserved":false,"is_disabled":false,"rental_uris":{"android":"levelo://app?vid=199f764e-7942-4511-a407-33ff4a7dc457","ios":"levelo://app?vid=199f764e-7942-4511-a407-33ff4a7dc457"},"vehicle_type_id":"4","last_reported":1727571011,"current_range_meters":38800,"station_id":"ce4bhgh2rcd13ifvqfa0","pricing_plan_id":"cebpf4jnsgd1na2vs0mg"},{"bike_id":"0701cf2a-674c-4c9d-af1e-6650acbaaf74","system_id":"levelo_inurba_marseille","lat":43.28383,"lon":5.37296,"is_reserved":false,"is_disabled":false,"rental_uris":{"android":"levelo://app?vid=0701cf2a-674c-4c9d-af1e-6650acbaaf74","ios":"levelo://app?vid=0701cf2a-674c-4c9d-af1e-6650acbaaf74"},"vehicle_type_id":"4","last_reported":1727571011,"current_range_meters":12400,"station_id":"","pricing_plan_id":"cebpf4jnsgd1na2vs0mg"},{"bike_id":"26d19603-8175-4b6f-aa29-c8a304bccb18","system_id":"levelo_inurba_marseille","lat":43.24185,"lon":5.39731,"is_reserved":false,"is_disabled":false,"rental_uris":{"android":"levelo://app?vid=26d19603-8175-4b6f-aa29-c8a304bccb18","ios":"levelo://app?vid=26d19603-8175-4b6f-aa29-c8a304bccb18"},"vehicle_type_id":"4","last_reported":1727571011,"current_range_meters":9200,"station_id":"ce4bhn12rcd13ifvqgpg","pricing_plan_id":"cebpf4jnsgd1na2vs0mg"},{"bike_id":"07b2ddc3-3bf0-43f2-a213-ce4b66d54f1f","system_id":"levelo_inurba_marseille","lat":43.31177,"lon":5.38708,"is_reserved":false,"is_disabled":false,"rental_uris":{"android":"levelo://app?vid=07b2ddc3-3bf0-43f2-a213-ce4b66d54f1f","ios":"levelo://app?vid=07b2ddc3-3bf0-43f2-a213-ce4b66d54f1f"},"vehicle_type_id":"4","last_reported":1727571011,"current_range_meters":10000,"station_id":"ce4bgv12rcd13ifvqcp0","pricing_plan_id":"cebpf4jnsgd1na2vs0mg"},{"bike_id":"8dc67aea-8c43-4618-97ea-d8c40591f0a3","system_id":"levelo_inurba_marseille","lat":43.30884,"lon":5.39639,"is_reserved":false,"is_disabled":false,"rental_uris":{"android":"levelo://app?vid=8dc67aea-8c43-4618-97ea-d8c40591f0a3","ios":"levelo://app?vid=8dc67aea-8c43-4618-97ea-d8c40591f0a3"},"vehicle_type_id":"4","last_reported":1727571011,"current_range_meters":38800,"station_id":"ce4bh012rcd13ifvqcv0","pricing_plan_id":"cebpf4jnsgd1na2vs0mg"},{"bike_id":"85a015c0-c4c9-4a4f-b766-42ac9c9a1b08","system_id":"levelo_inurba_marseille","lat":43.30249,"lon":5.40059,"is_reserved":false,"is_disabled":false,"rental_uris":{"android":"levelo://app?vid=85a015c0-c4c9-4a4f-b766-42ac9c9a1b08","ios":"levelo://app?vid=85a015c0-c4c9-4a4f-b766-42ac9c9a1b08"},"vehicle_type_id":"4","last_reported":1727571011,"current_range_meters":34800,"station_id":"ce4bgvh2rcd13ifvqcs0","pricing_plan_id":"cebpf4jnsgd1na2vs0mg"},{"bike_id":"7c4071a4-9719-4e76-b949-99424a6ceea1","system_id":"levelo_inurba_marseille","lat":43.28456,"lon":5.35881,"is_reserved":false,"is_disabled":false,"rental_uris":{"android":"levelo://app?vid=7c4071a4-9719-4e76-b949-99424a6ceea1","ios":"levelo://app?vid=7c4071a4-9719-4e76-b949-99424a6ceea1"},"vehicle_type_id":"4","last_reported":1727571011,"current_range_meters":16400,"station_id":"ce4bhah2rcd13ifvqei0","pricing_plan_id":"cebpf4jnsgd1na2vs0mg"},{"bike_id":"420580b5-10a3-4293-8084-f8846fbc415a","system_id":"levelo_inurba_marseille","lat":43.28271,"lon":5.35081,"is_reserved":false,"is_disabled":false,"rental_uris":{"android":"levelo://app?vid=420580b5-10a3-4293-8084-f8846fbc415a","ios":"levelo://app?vid=420580b5-10a3-4293-8084-f8846fbc415a"},"vehicle_type_id":"4","last_reported":1727571011,"current_range_meters":38800,"station_id":"ce4bhbp2rcd13ifvqerg","pricing_plan_id":"cebpf4jnsgd1na2vs0mg"},{"bike_id":"91dce4e8-64ff-4b6c-a5c6-cdb6b952027b","system_id":"levelo_inurba_marseille","lat":43.31277,"lon":5.40163,"is_reserved":false,"is_disabled":false,"rental_uris":{"android":"levelo://app?vid=91dce4e8-64ff-4b6c-a5c6-cdb6b952027b","ios":"levelo://app?vid=91dce4e8-64ff-4b6c-a5c6-cdb6b952027b"},"vehicle_type_id":"4","last_reported":1727571011,"current_range_meters":33600,"station_id":"ce4bh092rcd13ifvqd30","pricing_plan_id":"cebpf4jnsgd1na2vs0mg"},{"bike_id":"d275d077-d0e4-45f6-b800-93db28a2b4ff","system_id":"levelo_inurba_marseille","lat":43.31484,"lon":5.37304,"is_reserved":false,"is_disabled":false,"rental_uris":{"android":"levelo://app?vid=d275d077-d0e4-45f6-b800-93db28a2b4ff","ios":"levelo://app?vid=d275d077-d0e4-45f6-b800-93db28a2b4ff"},"vehicle_type_id":"4","last_reported":1727571011,"current_range_meters":10000,"station_id":"ce4bgt12rcd13ifvqcd0","pricing_plan_id":"cebpf4jnsgd1na2vs0mg"},{"bike_id":"f389741c-aa7d-460e-a8b7-712fd6efee59","system_id":"levelo_inurba_marseille","lat":43.2761,"lon":5.36122,"is_reserved":false,"is_disabled":false,"rental_uris":{"android":"levelo://app?vid=f389741c-aa7d-460e-a8b7-712fd6efee59","ios":"levelo://app?vid=f389741c-aa7d-460e-a8b7-712fd6efee59"},"vehicle_type_id":"4","last_reported":1727571011,"current_range_meters":38800,"station_id":"ce4bgj92rcd13ifvqbe0","pricing_plan_id":"cebpf4jnsgd1na2vs0mg"},{"bike_id":"6cdca13d-24d1-4302-912a-54d18c748242","system_id":"levelo_inurba_marseille","lat":43.31083,"lon":5.40132,"is_reserved":false,"is_disabled":false,"rental_uris":{"android":"levelo://app?vid=6cdca13d-24d1-4302-912a-54d18c748242","ios":"levelo://app?vid=6cdca13d-24d1-4302-912a-54d18c748242"},"vehicle_type_id":"4","last_reported":1727571011,"current_range_meters":6800,"station_id":"","pricing_plan_id":"cebpf4jnsgd1na2vs0mg"},{"bike_id":"8db0e5cd-2187-4a1e-887b-1a2f8d3b39de","system_id":"levelo_inurba_marseille","lat":43.3229,"lon":5.38271,"is_reserved":false,"is_disabled":false,"rental_uris":{"android":"levelo://app?vid=8db0e5cd-2187-4a1e-887b-1a2f8d3b39de","ios":"levelo://app?vid=8db0e5cd-2187-4a1e-887b-1a2f8d3b39de"},"vehicle_type_id":"4","last_reported":1727571011,"current_range_meters":21600,"station_id":"ce4bhr12rcd13ifvqhqg","pricing_plan_id":"cebpf4jnsgd1na2vs0mg"},{"bike_id":"4b02d02f-e4f8-4503-af33-737662778152","system_id":"levelo_inurba_marseille","lat":43.27986,"lon":5.40006,"is_reserved":false,"is_disabled":false,"rental_uris":{"android":"levelo://app?vid=4b02d02f-e4f8-4503-af33-737662778152","ios":"levelo://app?vid=4b02d02f-e4f8-4503-af33-737662778152"},"vehicle_type_id":"4","last_reported":1727571011,"current_range_meters":38800,"station_id":"ce4bho92rcd13ifvqh4g","pricing_plan_id":"cebpf4jnsgd1na2vs0mg"},{"bike_id":"c8f74eab-09dd-48e3-9326-9db1fc0aa6a9","system_id":"levelo_inurba_marseille","lat":43.25113,"lon":5.40322,"is_reserved":false,"is_disabled":false,"rental_uris":{"android":"levelo://app?vid=c8f74eab-09dd-48e3-9326-9db1fc0aa6a9","ios":"levelo://app?vid=c8f74eab-09dd-48e3-9326-9db1fc0aa6a9"},"vehicle_type_id":"4","last_reported":1727571011,"current_range_meters":2000,"station_id":"ce4bhlh2rcd13ifvqgig","pricing_plan_id":"cebpf4jnsgd1na2vs0mg"},{"bike_id":"4189ce78-ba10-4b9f-926a-8ccc721e2613","system_id":"levelo_inurba_marseille","lat":43.27998,"lon":5.40018,"is_reserved":false,"is_disabled":false,"rental_uris":{"android":"levelo://app?vid=4189ce78-ba10-4b9f-926a-8ccc721e2613","ios":"levelo://app?vid=4189ce78-ba10-4b9f-926a-8ccc721e2613"},"vehicle_type_id":"4","last_reported":1727571011,"current_range_meters":38400,"station_id":"ce4bho92rcd13ifvqh4g","pricing_plan_id":"cebpf4jnsgd1na2vs0mg"},{"bike_id":"2739f21a-7d48-4a2c-8180-69d444e34103","system_id":"levelo_inurba_marseille","lat":43.2668,"lon":5.38273,"is_reserved":false,"is_disabled":false,"rental_uris":{"android":"levelo://app?vid=2739f21a-7d48-4a2c-8180-69d444e34103","ios":"levelo://app?vid=2739f21a-7d48-4a2c-8180-69d444e34103"},"vehicle_type_id":"4","last_reported":1727571011,"current_range_meters":35200,"station_id":"ce4bhg92rcd13ifvqf90","pricing_plan_id":"cebpf4jnsgd1na2vs0mg"},{"bike_id":"41520f05-81cc-425c-88bc-6a31e8b96652","system_id":"levelo_inurba_marseille","lat":43.31332,"lon":5.39698,"is_reserved":false,"is_disabled":false,"rental_uris":{"android":"levelo://app?vid=41520f05-81cc-425c-88bc-6a31e8b96652","ios":"levelo://app?vid=41520f05-81cc-425c-88bc-6a31e8b96652"},"vehicle_type_id":"4","last_reported":1727571011,"current_range_meters":32400,"station_id":"ce4bgvp2rcd13ifvqcu0","pricing_plan_id":"cebpf4jnsgd1na2vs0mg"},{"bike_id":"69ae3c53-f9ed-44c0-88fc-ca658486737b","system_id":"levelo_inurba_marseille","lat":43.295706,"lon":5.399736,"is_reserved":false,"is_disabled":false,"rental_uris":{"android":"levelo://app?vid=69ae3c53-f9ed-44c0-88fc-ca658486737b","ios":"levelo://app?vid=69ae3c53-f9ed-44c0-88fc-ca658486737b"},"vehicle_type_id":"4","last_reported":1727571011,"current_range_meters":24000,"station_id":"ce4bh312rcd13ifvqdj0","pricing_plan_id":"cebpf4jnsgd1na2vs0mg"},{"bike_id":"5220e7ba-5183-450c-986e-1a09b217d618","system_id":"levelo_inurba_marseille","lat":43.28267,"lon":5.35064,"is_reserved":false,"is_disabled":false,"rental_uris":{"android":"levelo://app?vid=5220e7ba-5183-450c-986e-1a09b217d618","ios":"levelo://app?vid=5220e7ba-5183-450c-986e-1a09b217d618"},"vehicle_type_id":"4","last_reported":1727571011,"current_range_meters":38800,"station_id":"ce4bhbp2rcd13ifvqerg","pricing_plan_id":"cebpf4jnsgd1na2vs0mg"},{"bike_id":"3407da71-e9f5-4375-9956-506983640a2f","system_id":"levelo_inurba_marseille","lat":43.29002,"lon":5.37589,"is_reserved":false,"is_disabled":false,"rental_uris":{"android":"levelo://app?vid=3407da71-e9f5-4375-9956-506983640a2f","ios":"levelo://app?vid=3407da71-e9f5-4375-9956-506983640a2f"},"vehicle_type_id":"4","last_reported":1727571011,"current_range_meters":26800,"station_id":"ce4bh692rcd13ifvqe90","pricing_plan_id":"cebpf4jnsgd1na2vs0mg"},{"bike_id":"90229d46-e6dc-4cb2-8d31-13c4ced060e1","system_id":"levelo_inurba_marseille","lat":43.29629,"lon":5.40592,"is_reserved":false,"is_disabled":false,"rental_uris":{"android":"levelo://app?vid=90229d46-e6dc-4cb2-8d31-13c4ced060e1","ios":"levelo://app?vid=90229d46-e6dc-4cb2-8d31-13c4ced060e1"},"vehicle_type_id":"4","last_reported":1727571011,"current_range_meters":30800,"station_id":"ce4bh0h2rcd13ifvqd60","pricing_plan_id":"cebpf4jnsgd1na2vs0mg"},{"bike_id":"50706d55-3aa6-40fe-9c0c-e224fd895e38","system_id":"levelo_inurba_marseille","lat":43.31368,"lon":5.38497,"is_reserved":false,"is_disabled":false,"rental_uris":{"android":"levelo://app?vid=50706d55-3aa6-40fe-9c0c-e224fd895e38","ios":"levelo://app?vid=50706d55-3aa6-40fe-9c0c-e224fd895e38"},"vehicle_type_id":"4","last_reported":1727571011,"current_range_meters":30000,"station_id":"ce4bgt92rcd13ifvqcf0","pricing_plan_id":"cebpf4jnsgd1na2vs0mg"},{"bike_id":"e66ea585-3401-4c11-b239-454e44cd71a2","system_id":"levelo_inurba_marseille","lat":43.30794,"lon":5.3817,"is_reserved":false,"is_disabled":false,"rental_uris":{"android":"levelo://app?vid=e66ea585-3401-4c11-b239-454e44cd71a2","ios":"levelo://app?vid=e66ea585-3401-4c11-b239-454e44cd71a2"},"vehicle_type_id":"4","last_reported":1727571011,"current_range_meters":37600,"station_id":"ce4bgt12rcd13ifvqce0","pricing_plan_id":"cebpf4jnsgd1na2vs0mg"},{"bike_id":"df4200b2-6a72-413d-9f09-d7539e057157","system_id":"levelo_inurba_marseille","lat":43.31164,"lon":5.38709,"is_reserved":false,"is_disabled":false,"rental_uris":{"android":"levelo://app?vid=df4200b2-6a72-413d-9f09-d7539e057157","ios":"levelo://app?vid=df4200b2-6a72-413d-9f09-d7539e057157"},"vehicle_type_id":"4","last_reported":1727571011,"current_range_meters":8400,"station_id":"ce4bgv12rcd13ifvqcp0","pricing_plan_id":"cebpf4jnsgd1na2vs0mg"},{"bike_id":"7363d669-645a-4bd6-bbf6-8d817ca7e68e","system_id":"levelo_inurba_marseille","lat":43.30431,"lon":5.38888,"is_reserved":false,"is_disabled":false,"rental_uris":{"android":"levelo://app?vid=7363d669-645a-4bd6-bbf6-8d817ca7e68e","ios":"levelo://app?vid=7363d669-645a-4bd6-bbf6-8d817ca7e68e"},"vehicle_type_id":"4","last_reported":1727571011,"current_range_meters":38800,"station_id":"ce4bgk12rcd13ifvqbi0","pricing_plan_id":"cebpf4jnsgd1na2vs0mg"},{"bike_id":"41ca4c63-8def-4c31-9103-fc1045ebe4a5","system_id":"levelo_inurba_marseille","lat":43.23192,"lon":5.35554,"is_reserved":false,"is_disabled":false,"rental_uris":{"android":"levelo://app?vid=41ca4c63-8def-4c31-9103-fc1045ebe4a5","ios":"levelo://app?vid=41ca4c63-8def-4c31-9103-fc1045ebe4a5"},"vehicle_type_id":"4","last_reported":1727571011,"current_range_meters":27200,"station_id":"ce4bhu92rcd13ifvqi70","pricing_plan_id":"cebpf4jnsgd1na2vs0mg"},{"bike_id":"0a199339-a1f6-40d6-9853-d66426462a31","system_id":"levelo_inurba_marseille","lat":43.29559,"lon":5.42279,"is_reserved":false,"is_disabled":false,"rental_uris":{"android":"levelo://app?vid=0a199339-a1f6-40d6-9853-d66426462a31","ios":"levelo://app?vid=0a199339-a1f6-40d6-9853-d66426462a31"},"vehicle_type_id":"4","last_reported":1727571011,"current_range_meters":37600,"station_id":"ce4bhph2rcd13ifvqhdg","pricing_plan_id":"cebpf4jnsgd1na2vs0mg"},{"bike_id":"63d59279-7897-4992-a91c-99431f9552ce","system_id":"levelo_inurba_marseille","lat":43.31165,"lon":5.38718,"is_reserved":false,"is_disabled":false,"rental_uris":{"android":"levelo://app?vid=63d59279-7897-4992-a91c-99431f9552ce","ios":"levelo://app?vid=63d59279-7897-4992-a91c-99431f9552ce"},"vehicle_type_id":"4","last_reported":1727571011,"current_range_meters":38800,"station_id":"ce4bgv12rcd13ifvqcp0","pricing_plan_id":"cebpf4jnsgd1na2vs0mg"},{"bike_id":"ad2828b2-2852-44f7-a21b-241451c370b5","system_id":"levelo_inurba_marseille","lat":43.33019,"lon":5.39045,"is_reserved":false,"is_disabled":false,"rental_uris":{"android":"levelo://app?vid=ad2828b2-2852-44f7-a21b-241451c370b5","ios":"levelo://app?vid=ad2828b2-2852-44f7-a21b-241451c370b5"},"vehicle_type_id":"4","last_reported":1727571011,"current_range_meters":39200,"station_id":"ce4bhr92rcd13ifvqhrg","pricing_plan_id":"cebpf4jnsgd1na2vs0mg"},{"bike_id":"28704e94-6d32-447e-bf92-213dabd0e2e8","system_id":"levelo_inurba_marseille","lat":43.23186,"lon":5.39982,"is_reserved":false,"is_disabled":false,"rental_uris":{"android":"levelo://app?vid=28704e94-6d32-447e-bf92-213dabd0e2e8","ios":"levelo://app?vid=28704e94-6d32-447e-bf92-213dabd0e2e8"},"vehicle_type_id":"4","last_reported":1727571011,"current_range_meters":16400,"station_id":"ce4bhn12rcd13ifvqgqg","pricing_plan_id":"cebpf4jnsgd1na2vs0mg"},{"bike_id":"fff97008-1bf3-4acf-ba4c-e2258080dc12","system_id":"levelo_inurba_marseille","lat":43.31081,"lon":5.38353,"is_reserved":false,"is_disabled":false,"rental_uris":{"android":"levelo://app?vid=fff97008-1bf3-4acf-ba4c-e2258080dc12","ios":"levelo://app?vid=fff97008-1bf3-4acf-ba4c-e2258080dc12"},"vehicle_type_id":"4","last_reported":1727571011,"current_range_meters":36400,"station_id":"ce4bgv92rcd13ifvqcr0","pricing_plan_id":"cebpf4jnsgd1na2vs0mg"},{"bike_id":"8f020b6a-2426-411b-8ad3-71a44f103914","system_id":"levelo_inurba_marseille","lat":43.33604,"lon":5.41036,"is_reserved":false,"is_disabled":false,"rental_uris":{"android":"levelo://app?vid=8f020b6a-2426-411b-8ad3-71a44f103914","ios":"levelo://app?vid=8f020b6a-2426-411b-8ad3-71a44f103914"},"vehicle_type_id":"4","last_reported":1727571011,"current_range_meters":18800,"station_id":"ce4bhqh2rcd13ifvqhmg","pricing_plan_id":"cebpf4jnsgd1na2vs0mg"},{"bike_id":"275b0a25-1a9f-498c-9202-be550b06c3de","system_id":"levelo_inurba_marseille","lat":43.32291,"lon":5.38274,"is_reserved":false,"is_disabled":false,"rental_uris":{"android":"levelo://app?vid=275b0a25-1a9f-498c-9202-be550b06c3de","ios":"levelo://app?vid=275b0a25-1a9f-498c-9202-be550b06c3de"},"vehicle_type_id":"4","last_reported":1727571011,"current_range_meters":38800,"station_id":"ce4bhr12rcd13ifvqhqg","pricing_plan_id":"cebpf4jnsgd1na2vs0mg"},{"bike_id":"589811c5-7952-408c-99c6-27831d825ec0","system_id":"levelo_inurba_marseille","lat":43.26197,"lon":5.3792,"is_reserved":false,"is_disabled":false,"rental_uris":{"android":"levelo://app?vid=589811c5-7952-408c-99c6-27831d825ec0","ios":"levelo://app?vid=589811c5-7952-408c-99c6-27831d825ec0"},"vehicle_type_id":"4","last_reported":1727571011,"current_range_meters":38000,"station_id":"ce4bhjp2rcd13ifvqg90","pricing_plan_id":"cebpf4jnsgd1na2vs0mg"},{"bike_id":"e0448498-1923-4013-96e2-5aec4fc93af7","system_id":"levelo_inurba_marseille","lat":43.24804,"lon":5.37454,"is_reserved":false,"is_disabled":false,"rental_uris":{"android":"levelo://app?vid=e0448498-1923-4013-96e2-5aec4fc93af7","ios":"levelo://app?vid=e0448498-1923-4013-96e2-5aec4fc93af7"},"vehicle_type_id":"4","last_reported":1727571011,"current_range_meters":36800,"station_id":"ce4bhgh2rcd13ifvqfb0","pricing_plan_id":"cebpf4jnsgd1na2vs0mg"},{"bike_id":"0c3f0369-7cdf-4cba-a0db-09435ab8c8da","system_id":"levelo_inurba_marseille","lat":43.23184,"lon":5.39997,"is_reserved":false,"is_disabled":false,"rental_uris":{"android":"levelo://app?vid=0c3f0369-7cdf-4cba-a0db-09435ab8c8da","ios":"levelo://app?vid=0c3f0369-7cdf-4cba-a0db-09435ab8c8da"},"vehicle_type_id":"4","last_reported":1727571011,"current_range_meters":28400,"station_id":"ce4bhn12rcd13ifvqgqg","pricing_plan_id":"cebpf4jnsgd1na2vs0mg"},{"bike_id":"0df5d59f-82a7-48dc-a845-6aecb73c4853","system_id":"levelo_inurba_marseille","lat":43.316936,"lon":5.377645,"is_reserved":false,"is_disabled":false,"rental_uris":{"android":"levelo://app?vid=0df5d59f-82a7-48dc-a845-6aecb73c4853","ios":"levelo://app?vid=0df5d59f-82a7-48dc-a845-6aecb73c4853"},"vehicle_type_id":"4","last_reported":1727571011,"current_range_meters":38800,"station_id":"ce4bgth2rcd13ifvqch0","pricing_plan_id":"cebpf4jnsgd1na2vs0mg"},{"bike_id":"77643dcd-0518-4c6a-8cec-2c2c74faa607","system_id":"levelo_inurba_marseille","lat":43.30886,"lon":5.39639,"is_reserved":false,"is_disabled":false,"rental_uris":{"android":"levelo://app?vid=77643dcd-0518-4c6a-8cec-2c2c74faa607","ios":"levelo://app?vid=77643dcd-0518-4c6a-8cec-2c2c74faa607"},"vehicle_type_id":"4","last_reported":1727571011,"current_range_meters":8800,"station_id":"ce4bh012rcd13ifvqcv0","pricing_plan_id":"cebpf4jnsgd1na2vs0mg"},{"bike_id":"7cae8da8-36fc-4b61-9e74-80fcd16616d6","system_id":"levelo_inurba_marseille","lat":43.29276,"lon":5.40114,"is_reserved":false,"is_disabled":false,"rental_uris":{"android":"levelo://app?vid=7cae8da8-36fc-4b61-9e74-80fcd16616d6","ios":"levelo://app?vid=7cae8da8-36fc-4b61-9e74-80fcd16616d6"},"vehicle_type_id":"4","last_reported":1727571011,"current_range_meters":38400,"station_id":"ce4bh312rcd13ifvqdk0","pricing_plan_id":"cebpf4jnsgd1na2vs0mg"},{"bike_id":"1b89fa20-6646-4f25-9318-35703e24f767","system_id":"levelo_inurba_marseille","lat":43.25494,"lon":5.37649,"is_reserved":false,"is_disabled":false,"rental_uris":{"android":"levelo://app?vid=1b89fa20-6646-4f25-9318-35703e24f767","ios":"levelo://app?vid=1b89fa20-6646-4f25-9318-35703e24f767"},"vehicle_type_id":"4","last_reported":1727571011,"current_range_meters":38800,"station_id":"ce4bhh12rcd13ifvqff0","pricing_plan_id":"cebpf4jnsgd1na2vs0mg"},{"bike_id":"578ce527-fa82-4bc5-9233-45e69a86eb22","system_id":"levelo_inurba_marseille","lat":43.31989,"lon":5.38141,"is_reserved":false,"is_disabled":false,"rental_uris":{"android":"levelo://app?vid=578ce527-fa82-4bc5-9233-45e69a86eb22","ios":"levelo://app?vid=578ce527-fa82-4bc5-9233-45e69a86eb22"},"vehicle_type_id":"4","last_reported":1727571011,"current_range_meters":38800,"station_id":"ce4bhr12rcd13ifvqhpg","pricing_plan_id":"cebpf4jnsgd1na2vs0mg"},{"bike_id":"304ffee2-053a-4207-b076-204e32afd088","system_id":"levelo_inurba_marseille","lat":43.24663,"lon":5.38164,"is_reserved":false,"is_disabled":false,"rental_uris":{"android":"levelo://app?vid=304ffee2-053a-4207-b076-204e32afd088","ios":"levelo://app?vid=304ffee2-053a-4207-b076-204e32afd088"},"vehicle_type_id":"4","last_reported":1727571011,"current_range_meters":19200,"station_id":"ce4bhih2rcd13ifvqfr0","pricing_plan_id":"cebpf4jnsgd1na2vs0mg"},{"bike_id":"d8e32f1c-4c32-4777-922d-4d90b15b71c7","system_id":"levelo_inurba_marseille","lat":43.30863,"lon":5.3685,"is_reserved":false,"is_disabled":false,"rental_uris":{"android":"levelo://app?vid=d8e32f1c-4c32-4777-922d-4d90b15b71c7","ios":"levelo://app?vid=d8e32f1c-4c32-4777-922d-4d90b15b71c7"},"vehicle_type_id":"4","last_reported":1727571011,"current_range_meters":7200,"station_id":"ce4bgn92rcd13ifvqbvg","pricing_plan_id":"cebpf4jnsgd1na2vs0mg"},{"bike_id":"9d872d59-f634-4a44-9ace-b8d6e1dd7cc8","system_id":"levelo_inurba_marseille","lat":43.2558,"lon":5.38232,"is_reserved":false,"is_disabled":false,"rental_uris":{"android":"levelo://app?vid=9d872d59-f634-4a44-9ace-b8d6e1dd7cc8","ios":"levelo://app?vid=9d872d59-f634-4a44-9ace-b8d6e1dd7cc8"},"vehicle_type_id":"4","last_reported":1727571011,"current_range_meters":38800,"station_id":"ce4bhih2rcd13ifvqfs0","pricing_plan_id":"cebpf4jnsgd1na2vs0mg"},{"bike_id":"b470945e-f45c-4291-ac95-d7061c9aab44","system_id":"levelo_inurba_marseille","lat":43.27365,"lon":5.41217,"is_reserved":false,"is_disabled":false,"rental_uris":{"android":"levelo://app?vid=b470945e-f45c-4291-ac95-d7061c9aab44","ios":"levelo://app?vid=b470945e-f45c-4291-ac95-d7061c9aab44"},"vehicle_type_id":"4","last_reported":1727571011,"current_range_meters":26000,"station_id":"","pricing_plan_id":"cebpf4jnsgd1na2vs0mg"},{"bike_id":"67809ac4-2aed-4a71-93b9-c31e9917aebd","system_id":"levelo_inurba_marseille","lat":43.30139,"lon":5.38782,"is_reserved":false,"is_disabled":false,"rental_uris":{"android":"levelo://app?vid=67809ac4-2aed-4a71-93b9-c31e9917aebd","ios":"levelo://app?vid=67809ac4-2aed-4a71-93b9-c31e9917aebd"},"vehicle_type_id":"4","last_reported":1727571011,"current_range_meters":29600,"station_id":"ce4bghh2rcd13ifvqb60","pricing_plan_id":"cebpf4jnsgd1na2vs0mg"},{"bike_id":"31552421-58c2-42f5-aeeb-efc97a1f3415","system_id":"levelo_inurba_marseille","lat":43.28409,"lon":5.34985,"is_reserved":false,"is_disabled":false,"rental_uris":{"android":"levelo://app?vid=31552421-58c2-42f5-aeeb-efc97a1f3415","ios":"levelo://app?vid=31552421-58c2-42f5-aeeb-efc97a1f3415"},"vehicle_type_id":"4","last_reported":1727571011,"current_range_meters":38800,"station_id":"ce4bhbh2rcd13ifvqepg","pricing_plan_id":"cebpf4jnsgd1na2vs0mg"},{"bike_id":"691997e3-ce5c-4df3-959e-2dc6c97bd43f","system_id":"levelo_inurba_marseille","lat":43.2905,"lon":5.35912,"is_reserved":false,"is_disabled":false,"rental_uris":{"android":"levelo://app?vid=691997e3-ce5c-4df3-959e-2dc6c97bd43f","ios":"levelo://app?vid=691997e3-ce5c-4df3-959e-2dc6c97bd43f"},"vehicle_type_id":"4","last_reported":1727571011,"current_range_meters":25200,"station_id":"ce4bha92rcd13ifvqeg0","pricing_plan_id":"cebpf4jnsgd1na2vs0mg"},{"bike_id":"e5bd8eea-1a45-47ca-bcb1-a3c35f96f172","system_id":"levelo_inurba_marseille","lat":43.304258,"lon":5.388803,"is_reserved":false,"is_disabled":false,"rental_uris":{"android":"levelo://app?vid=e5bd8eea-1a45-47ca-bcb1-a3c35f96f172","ios":"levelo://app?vid=e5bd8eea-1a45-47ca-bcb1-a3c35f96f172"},"vehicle_type_id":"4","last_reported":1727571011,"current_range_meters":32000,"station_id":"ce4bgk12rcd13ifvqbi0","pricing_plan_id":"cebpf4jnsgd1na2vs0mg"},