{"last_updated":1717175210,"ttl":30,"version":"2.2","data":{"bikes":[{"bike_id":"27152b8a-c612-42d2-a594-4bbf79136192","system_id":"levelo_inurba_marseille","lat":43.312239,"lon":5.368562,"is_reserved":false,"is_disabled":false,"rental_uris":{"android":"levelo://app?vid=27152b8a-c612-42d2-a594-4bbf79136192","ios":"levelo://app?vid=27152b8a-c612-42d2-a594-4bbf79136192"},"vehicle_type_id":"4","last_reported":1717175210,"current_range_meters":12800,"station_id":"ce4bgl92rcd13ifvqbq0","pricing_plan_id":"cebpf4jnsgd1na2vs0mg"},{"bike_id":"336d9e38-7137-47b1-9422-d51a518959b5","system_id":"levelo_inurba_marseille","lat":43.312239,"lon":5.368562,"is_reserved":false,"is_disabled":false,"rental_uris":{"android":"levelo://app?vid=336d9e38-7137-47b1-9422-d51a518959b5","ios":"levelo://app?vid=336d9e38-7137-47b1-9422-d51a518959b5"},"vehicle_type_id":"4","last_reported":1717175210,"current_range_meters":9600,"station_id":"ce4bgl92rcd13ifvqbq0","pricing_plan_id":"cebpf4jnsgd1na2vs0mg"},{"bike_id":"bb2adfb1-6db7-4564-8afb-39b0458a000b","system_id":"levelo_inurba_marseille","lat":43.312239,"lon":5.368562,"is_reserved":false,"is_disabled":false,"rental_uris":{"android":"levelo://app?vid=bb2adfb1-6db7-4564-8afb-39b0458a000b","ios":"levelo://app?vid=bb2adfb1-6db7-4564-8afb-39b0458a000b"},"vehicle_type_id":"4","last_reported":1717175210,"current_range_meters":2000,"station_id":"ce4bgl92rcd13ifvqbq0","pricing_plan_id":"cebpf4jnsgd1na2vs0mg"},{"bike_id":"f71df7c3-033a-4ffe-9ea9-d08212eefd74","system_id":"levelo_inurba_marseille","lat":43.309076,"lon":5.368465,"is_reserved":false,"is_disabled":false,"rental_uris":{"android":"levelo://app?vid=f71df7c3-033a-4ffe-9ea9-d08212eefd74","ios":"levelo://app?vid=f71df7c3-033a-4ffe-9ea9-d08212eefd74"},"vehicle_type_id":"4","last_reported":1717175210,"current_range_meters":18000,"station_id":"ce4bgn92rcd13ifvqbvg","pricing_plan_id":"cebpf4jnsgd1na2vs0mg"},{"bike_id":"4f16e35b-12e2-4a4e-8d35-150fd4dfc3b9","system_id":"levelo_inurba_marseille","lat":43.309076,"lon":5.368465,"is_reserved":false,"is_disabled":false,"rental_uris":{"android":"levelo://app?vid=4f16e35b-12e2-4a4e-8d35-150fd4dfc3b9","ios":"levelo://app?vid=4f16e35b-12e2-4a4e-8d35-150fd4dfc3b9"},"vehicle_type_id":"4","last_reported":1717175210,"current_range_meters":3200,"station_id":"ce4bgn92rcd13ifvqbvg","pricing_plan_id":"cebpf4jnsgd1na2vs0mg"},{"bike_id":"91e2766b-a874-4ef7-9f52-fdb746ae34aa","system_id":"levelo_inurba_marseille","lat":43.309076,"lon":5.368465,"is_reserved":false,"is_disabled":false,"rental_uris":{"android":"levelo://app?vid=91e2766b-a874-4ef7-9f52-fdb746ae34aa","ios":"levelo://app?vid=91e2766b-a874-4ef7-9f52-fdb746ae34aa"},"vehicle_type_id":"4","last_reported":1717175210,"current_range_meters":16400,"station_id":"ce4bgn92rcd13ifvqbvg","pricing_plan_id":"cebpf4jnsgd1na2vs0mg"},{"bike_id":"a2b1e035-c5ff-443c-bb68-8146e1c97b04","system_id":"levelo_inurba_marseille","lat":43.314811,"lon":5.373103,"is_reserved":false,"is_disabled":false,"rental_uris":{"android":"levelo://app?vid=a2b1e035-c5ff-443c-bb68-8146e1c97b04","ios":"levelo://app?vid=a2b1e035-c5ff-443c-bb68-8146e1c97b04"},"vehicle_type_id":"4","last_reported":1717175210,"current_range_meters":0,"station_id":"ce4bgt12rcd13ifvqcd0","pricing_plan_id":"cebpf4jnsgd1na2vs0mg"},{"bike_id":"33aa875f-d179-41e2-8adf-e2c77d15e29b","system_id":"levelo_inurba_marseille","lat":43.309051,"lon":5.371383,"is_reserved":false,"is_disabled":false,"rental_uris":{"android":"levelo://app?vid=33aa875f-d179-41e2-8adf-e2c77d15e29b","ios":"levelo://app?vid=33aa875f-d179-41e2-8adf-e2c77d15e29b"},"vehicle_type_id":"4","last_reported":1717175210,"current_range_meters":0,"station_id":"ce4bguh2rcd13ifvqckg","pricing_plan_id":"cebpf4jnsgd1na2vs0mg"},{"bike_id":"6935efa9-93f9-42a4-8d6c-2967c85009c5","system_id":"levelo_inurba_marseille","lat":43.314874,"lon":5.373066,"is_reserved":false,"is_disabled":false,"rental_uris":{"android":"levelo://app?vid=6935efa9-93f9-42a4-8d6c-2967c85009c5","ios":"levelo://app?vid=6935efa9-93f9-42a4-8d6c-2967c85009c5"},"vehicle_type_id":"4","last_reported":1717175210,"current_range_meters":0,"station_id":"ce4bgt12rcd13ifvqcd0","pricing_plan_id":"cebpf4jnsgd1na2vs0mg"},{"bike_id":"dbfedcd4-5793-4b21-a6e9-ab5ffc5339ea","system_id":"levelo_inurba_marseille","lat":43.314922,"lon":5.37306,"is_reserved":false,"is_disabled":false,"rental_uris":{"android":"levelo://app?vid=dbfedcd4-5793-4b21-a6e9-ab5ffc5339ea","ios":"levelo://app?vid=dbfedcd4-5793-4b21-a6e9-ab5ffc5339ea"},"vehicle_type_id":"4","last_reported":1717175210,"current_range_meters":15200,"station_id":"ce4bgt12rcd13ifvqcd0","pricing_plan_id":"cebpf4jnsgd1na2vs0mg"},{"bike_id":"294c54aa-a587-445d-9b17-0c03f89b7c86","system_id":"levelo_inurba_marseille","lat":43.31497,"lon":5.373051,"is_reserved":false,"is_disabled":false,"rental_uris":{"android":"levelo://app?vid=294c54aa-a587-445d-9b17-0c03f89b7c86","ios":"levelo://app?vid=294c54aa-a587-445d-9b17-0c03f89b7c86"},"vehicle_type_id":"4","last_reported":1717175210,"current_range_meters":2400,"station_id":"ce4bgt12rcd13ifvqcd0","pricing_plan_id":"cebpf4jnsgd1na2vs0mg"},{"bike_id":"62df488d-ba3d-40b1-91e3-aa1aa40c2c68","system_id":"levelo_inurba_marseille","lat":43.31492,"lon":5.3731,"is_reserved":false,"is_disabled":false,"rental_uris":{"android":"levelo://app?vid=62df488d-ba3d-40b1-91e3-aa1aa40c2c68","ios":"levelo://app?vid=62df488d-ba3d-40b1-91e3-aa1aa40c2c68"},"vehicle_type_id":"4","last_reported":1717175210,"current_range_meters":800,"station_id":"ce4bgt12rcd13ifvqcd0","pricing_plan_id":"cebpf4jnsgd1na2vs0mg"},{"bike_id":"e9966fec-57d4-480b-bff9-54bb6569f930","system_id":"levelo_inurba_marseille","lat":43.315058,"lon":5.373035,"is_reserved":false,"is_disabled":false,"rental_uris":{"android":"levelo://app?vid=e9966fec-57d4-480b-bff9-54bb6569f930","ios":"levelo://app?vid=e9966fec-57d4-480b-bff9-54bb6569f930"},"vehicle_type_id":"4","last_reported":1717175210,"current_range_meters":0,"station_id":"ce4bgt12rcd13ifvqcd0","pricing_plan_id":"cebpf4jnsgd1na2vs0mg"},{"bike_id":"7baa6c80-c883-42a9-bf94-48af49ed78cc","system_id":"levelo_inurba_marseille","lat":43.3144,"lon":5.37373,"is_reserved":false,"is_disabled":false,"rental_uris":{"android":"levelo://app?vid=7baa6c80-c883-42a9-bf94-48af49ed78cc","ios":"levelo://app?vid=7baa6c80-c883-42a9-bf94-48af49ed78cc"},"vehicle_type_id":"4","last_reported":1717175210,"current_range_meters":16400,"station_id":"","pricing_plan_id":"cebpf4jnsgd1na2vs0mg"},{"bike_id":"04fd668e-4def-4b7a-95d6-f9d1496dea6b","system_id":"levelo_inurba_marseille","lat":43.308938,"lon":5.371992,"is_reserved":false,"is_disabled":false,"rental_uris":{"android":"levelo://app?vid=04fd668e-4def-4b7a-95d6-f9d1496dea6b","ios":"levelo://app?vid=04fd668e-4def-4b7a-95d6-f9d1496dea6b"},"vehicle_type_id":"4","last_reported":1717175210,"current_range_meters":3600,"station_id":"ce4bguh2rcd13ifvqckg","pricing_plan_id":"cebpf4jnsgd1na2vs0mg"},{"bike_id":"ef00bcbb-f797-4bdd-ac8e-1734cf4e0c60","system_id":"levelo_inurba_marseille","lat":43.308894,"lon":5.371955,"is_reserved":false,"is_disabled":false,"rental_uris":{"android":"levelo://app?vid=ef00bcbb-f797-4bdd-ac8e-1734cf4e0c60","ios":"levelo://app?vid=ef00bcbb-f797-4bdd-ac8e-1734cf4e0c60"},"vehicle_type_id":"4","last_reported":1717175210,"current_range_meters":7200,"station_id":"ce4bguh2rcd13ifvqckg","pricing_plan_id":"cebpf4jnsgd1na2vs0mg"},{"bike_id":"130b8d48-ce8b-45b1-9492-8c8dfda3b32e","system_id":"levelo_inurba_marseille","lat":43.305714,"lon":5.365633,"is_reserved":false,"is_disabled":false,"rental_uris":{"android":"levelo://app?vid=130b8d48-ce8b-45b1-9492-8c8dfda3b32e","ios":"levelo://app?vid=130b8d48-ce8b-45b1-9492-8c8dfda3b32e"},"vehicle_type_id":"4","last_reported":1717175210,"current_range_meters":30400,"station_id":"ce4bgs12rcd13ifvqcag","pricing_plan_id":"cebpf4jnsgd1na2vs0mg"},{"bike_id":"4a2f2461-ea9f-4268-9a67-d2f1939a03f1","system_id":"levelo_inurba_marseille","lat":43.305989,"lon":5.37225,"is_reserved":false,"is_disabled":false,"rental_uris":{"android":"levelo://app?vid=4a2f2461-ea9f-4268-9a67-d2f1939a03f1","ios":"levelo://app?vid=4a2f2461-ea9f-4268-9a67-d2f1939a03f1"},"vehicle_type_id":"4","last_reported":1717175210,"current_range_meters":15600,"station_id":"ce4bgqh2rcd13ifvqc4g","pricing_plan_id":"cebpf4jnsgd1na2vs0mg"},{"bike_id":"076c388f-c94d-4ef0-8e21-ec798b5d00d0","system_id":"levelo_inurba_marseille","lat":43.311125,"lon":5.377624,"is_reserved":false,"is_disabled":false,"rental_uris":{"android":"levelo://app?vid=076c388f-c94d-4ef0-8e21-ec798b5d00d0","ios":"levelo://app?vid=076c388f-c94d-4ef0-8e21-ec798b5d00d0"},"vehicle_type_id":"4","last_reported":1717175210,"current_range_meters":0,"station_id":"ce4bgt92rcd13ifvqcg0","pricing_plan_id":"cebpf4jnsgd1na2vs0mg"},{"bike_id":"7567689d-4bd7-4df2-8652-f9f297d15fb8","system_id":"levelo_inurba_marseille","lat":43.311125,"lon":5.377624,"is_reserved":false,"is_disabled":false,"rental_uris":{"android":"levelo://app?vid=7567689d-4bd7-4df2-8652-f9f297d15fb8","ios":"levelo://app?vid=7567689d-4bd7-4df2-8652-f9f297d15fb8"},"vehicle_type_id":"4","last_reported":1717175210,"current_range_meters":22800,"station_id":"ce4bgt92rcd13ifvqcg0","pricing_plan_id":"cebpf4jnsgd1na2vs0mg"},{"bike_id":"3f9a6393-bd03-432e-b59b-526cf4538582","system_id":"levelo_inurba_marseille","lat":43.305706,"lon":5.365654,"is_reserved":false,"is_disabled":false,"rental_uris":{"android":"levelo://app?vid=3f9a6393-bd03-432e-b59b-526cf4538582","ios":"levelo://app?vid=3f9a6393-bd03-432e-b59b-526cf4538582"},"vehicle_type_id":"4","last_reported":1717175210,"current_range_meters":10800,"station_id":"ce4bgs12rcd13ifvqcag","pricing_plan_id":"cebpf4jnsgd1na2vs0mg"},{"bike_id":"71e466ca-d4ad-46c1-98a1-ef0c03dc16fe","system_id":"levelo_inurba_marseille","lat":43.30783,"lon":5.37653,"is_reserved":false,"is_disabled":false,"rental_uris":{"android":"levelo://app?vid=71e466ca-d4ad-46c1-98a1-ef0c03dc16fe","ios":"levelo://app?vid=71e466ca-d4ad-46c1-98a1-ef0c03dc16fe"},"vehicle_type_id":"4","last_reported":1717175210,"current_range_meters":0,"station_id":"ce4bgv92rcd13ifvqcq0","pricing_plan_id":"cebpf4jnsgd1na2vs0mg"},{"bike_id":"a8f13604-dbcc-4065-9fe5-ae8dee282fcc","system_id":"levelo_inurba_marseille","lat":43.307792,"lon":5.376611,"is_reserved":false,"is_disabled":false,"rental_uris":{"android":"levelo://app?vid=a8f13604-dbcc-4065-9fe5-ae8dee282fcc","ios":"levelo://app?vid=a8f13604-dbcc-4065-9fe5-ae8dee282fcc"},"vehicle_type_id":"4","last_reported":1717175210,"current_range_meters":0,"station_id":"ce4bgv92rcd13ifvqcq0","pricing_plan_id":"cebpf4jnsgd1na2vs0mg"},{"bike_id":"53503e72-a9e6-4752-ad4a-71ccaf277974","system_id":"levelo_inurba_marseille","lat":43.317075,"lon":5.377367,"is_reserved":false,"is_disabled":false,"rental_uris":{"android":"levelo://app?vid=53503e72-a9e6-4752-ad4a-71ccaf277974","ios":"levelo://app?vid=53503e72-a9e6-4752-ad4a-71ccaf277974"},"vehicle_type_id":"4","last_reported":1717175210,"current_range_meters":14000,"station_id":"ce4bgth2rcd13ifvqch0","pricing_plan_id":"cebpf4jnsgd1na2vs0mg"},{"bike_id":"3b827a6e-9c6a-4ee2-af36-b4a15d6247af","system_id":"levelo_inurba_marseille","lat":43.315293,"lon":5.380349,"is_reserved":false,"is_disabled":false,"rental_uris":{"android":"levelo://app?vid=3b827a6e-9c6a-4ee2-af36-b4a15d6247af","ios":"levelo://app?vid=3b827a6e-9c6a-4ee2-af36-b4a15d6247af"},"vehicle_type_id":"4","last_reported":1717175210,"current_range_meters":0,"station_id":"ce4bhsp2rcd13ifvqi50","pricing_plan_id":"cebpf4jnsgd1na2vs0mg"},{"bike_id":"3c9d8572-37f0-49ca-9b81-a870429d2536","system_id":"levelo_inurba_marseille","lat":43.301939,"lon":5.366286,"is_reserved":false,"is_disabled":false,"rental_uris":{"android":"levelo://app?vid=3c9d8572-37f0-49ca-9b81-a870429d2536","ios":"levelo://app?vid=3c9d8572-37f0-49ca-9b81-a870429d2536"},"vehicle_type_id":"4","last_reported":1717175210,"current_range_meters":1200,"station_id":"ce4bgrh2rcd13ifvqc8g","pricing_plan_id":"cebpf4jnsgd1na2vs0mg"},{"bike_id":"9327664e-b624-4ad1-ae5d-ce5eb4be3b31","system_id":"levelo_inurba_marseille","lat":43.301939,"lon":5.366286,"is_reserved":false,"is_disabled":false,"rental_uris":{"android":"levelo://app?vid=9327664e-b624-4ad1-ae5d-ce5eb4be3b31","ios":"levelo://app?vid=9327664e-b624-4ad1-ae5d-ce5eb4be3b31"},"vehicle_type_id":"4","last_reported":1717175210,"current_range_meters":25200,"station_id":"ce4bgrh2rcd13ifvqc8g","pricing_plan_id":"cebpf4jnsgd1na2vs0mg"},{"bike_id":"57dfbbeb-53a1-4574-a077-01ecdcff99e9","system_id":"levelo_inurba_marseille","lat":43.30187,"lon":5.36621,"is_reserved":false,"is_disabled":false,"rental_uris":{"android":"levelo://app?vid=57dfbbeb-53a1-4574-a077-01ecdcff99e9","ios":"levelo://app?vid=57dfbbeb-53a1-4574-a077-01ecdcff99e9"},"vehicle_type_id":"4","last_reported":1717175210,"current_range_meters":0,"station_id":"ce4bgrh2rcd13ifvqc8g","pricing_plan_id":"cebpf4jnsgd1na2vs0mg"},{"bike_id":"1aab4c75-7967-4301-8cc2-8394ce0776ae","system_id":"levelo_inurba_marseille","lat":43.301939,"lon":5.366286,"is_reserved":false,"is_disabled":false,"rental_uris":{"android":"levelo://app?vid=1aab4c75-7967-4301-8cc2-8394ce0776ae","ios":"levelo://app?vid=1aab4c75-7967-4301-8cc2-8394ce0776ae"},"vehicle_type_id":"4","last_reported":1717175210,"current_range_meters":0,"station_id":"ce4bgrh2rcd13ifvqc8g","pricing_plan_id":"cebpf4jnsgd1na2vs0mg"},{"bike_id":"5c216fff-59bc-48da-9be3-a80a49a065cd","system_id":"levelo_inurba_marseille","lat":43.304917,"lon":5.37919,"is_reserved":false,"is_disabled":false,"rental_uris":{"android":"levelo://app?vid=5c216fff-59bc-48da-9be3-a80a49a065cd","ios":"levelo://app?vid=5c216fff-59bc-48da-9be3-a80a49a065cd"},"vehicle_type_id":"4","last_reported":1717175210,"current_range_meters":0,"station_id":"ce4bgt12rcd13ifvqce0","pricing_plan_id":"cebpf4jnsgd1na2vs0mg"},{"bike_id":"7f75fdbf-7155-46da-bb04-f4add15afd3d","system_id":"levelo_inurba_marseille","lat":43.304606,"lon":5.379026,"is_reserved":false,"is_disabled":false,"rental_uris":{"android":"levelo://app?vid=7f75fdbf-7155-46da-bb04-f4add15afd3d","ios":"levelo://app?vid=7f75fdbf-7155-46da-bb04-f4add15afd3d"},"vehicle_type_id":"4","last_reported":1717175210,"current_range_meters":0,"station_id":"ce4bgup2rcd13ifvqcn0","pricing_plan_id":"cebpf4jnsgd1na2vs0mg"},{"bike_id":"2443d61c-37de-4fdb-9876-4194f06a9f61","system_id":"levelo_inurba_marseille","lat":43.304606,"lon":5.379026,"is_reserved":false,"is_disabled":false,"rental_uris":{"android":"levelo://app?vid=2443d61c-37de-4fdb-9876-4194f06a9f61","ios":"levelo://app?vid=2443d61c-37de-4fdb-9876-4194f06a9f61"},"vehicle_type_id":"4","last_reported":1717175210,"current_range_meters":0,"station_id":"ce4bgup2rcd13ifvqcn0","pricing_plan_id":"cebpf4jnsgd1na2vs0mg"},{"bike_id":"ab0e8de9-711a-4977-904c-377be4e5beb7","system_id":"levelo_inurba_marseille","lat":43.304606,"lon":5.379026,"is_reserved":false,"is_disabled":false,"rental_uris":{"android":"levelo://app?vid=ab0e8de9-711a-4977-904c-377be4e5beb7","ios":"levelo://app?vid=ab0e8de9-711a-4977-904c-377be4e5beb7"},"vehicle_type_id":"4","last_reported":1717175210,"current_range_meters":3600,"station_id":"ce4bgup2rcd13ifvqcn0","pricing_plan_id":"cebpf4jnsgd1na2vs0mg"},{"bike_id":"c4f8b310-47c5-40fa-a392-a8250cd83a11","system_id":"levelo_inurba_marseille","lat":43.324771,"lon":5.36557,"is_reserved":false,"is_disabled":false,"rental_uris":{"android":"levelo://app?vid=c4f8b310-47c5-40fa-a392-a8250cd83a11","ios":"levelo://app?vid=c4f8b310-47c5-40fa-a392-a8250cd83a11"},"vehicle_type_id":"4","last_reported":1717175210,"current_range_meters":0,"station_id":"ce4bhs12rcd13ifvqhvg","pricing_plan_id":"cebpf4jnsgd1na2vs0mg"},{"bike_id":"b3abe369-de9c-4992-ad31-8ddb8e01ed56","system_id":"levelo_inurba_marseille","lat":43.324771,"lon":5.36557,"is_reserved":false,"is_disabled":false,"rental_uris":{"android":"levelo://app?vid=b3abe369-de9c-4992-ad31-8ddb8e01ed56","ios":"levelo://app?vid=b3abe369-de9c-4992-ad31-8ddb8e01ed56"},"vehicle_type_id":"4","last_reported":1717175210,"current_range_meters":29200,"station_id":"ce4bhs12rcd13ifvqhvg","pricing_plan_id":"cebpf4jnsgd1na2vs0mg"},{"bike_id":"0cce203b-70e1-4c12-bec8-e995b59c42de","system_id":"levelo_inurba_marseille","lat":43.324771,"lon":5.36557,"is_reserved":false,"is_disabled":false,"rental_uris":{"android":"levelo://app?vid=0cce203b-70e1-4c12-bec8-e995b59c42de","ios":"levelo://app?vid=0cce203b-70e1-4c12-bec8-e995b59c42de"},"vehicle_type_id":"4","last_reported":1717175210,"current_range_meters":18800,"station_id":"ce4bhs12rcd13ifvqhvg","pricing_plan_id":"cebpf4jnsgd1na2vs0mg"},{"bike_id":"09a23f3e-71cb-406c-a41d-682846d49308","system_id":"levelo_inurba_marseille","lat":43.324771,"lon":5.36557,"is_reserved":false,"is_disabled":false,"rental_uris":{"android":"levelo://app?vid=09a23f3e-71cb-406c-a41d-682846d49308","ios":"levelo://app?vid=09a23f3e-71cb-406c-a41d-682846d49308"},"vehicle_type_id":"4","last_reported":1717175210,"current_range_meters":23200,"station_id":"ce4bhs12rcd13ifvqhvg","pricing_plan_id":"cebpf4jnsgd1na2vs0mg"},{"bike_id":"86dff028-dfae-49b0-ace8-74909438d31e","system_id":"levelo_inurba_marseille","lat":43.324834,"lon":5.365597,"is_reserved":false,"is_disabled":false,"rental_uris":{"android":"levelo://app?vid=86dff028-dfae-49b0-ace8-74909438d31e","ios":"levelo://app?vid=86dff028-dfae-49b0-ace8-74909438d31e"},"vehicle_type_id":"4","last_reported":1717175210,"current_range_meters":22400,"station_id":"ce4bhs12rcd13ifvqhvg","pricing_plan_id":"cebpf4jnsgd1na2vs0mg"},{"bike_id":"3f49693f-5911-4e21-a947-e9ce994caae7","system_id":"levelo_inurba_marseille","lat":43.324852,"lon":5.365718,"is_reserved":false,"is_disabled":false,"rental_uris":{"android":"levelo://app?vid=3f49693f-5911-4e21-a947-e9ce994caae7","ios":"levelo://app?vid=3f49693f-5911-4e21-a947-e9ce994caae7"},"vehicle_type_id":"4","last_reported":1717175210,"current_range_meters":0,"station_id":"ce4bhs12rcd13ifvqhvg","pricing_plan_id":"cebpf4jnsgd1na2vs0mg"},{"bike_id":"5d578c28-7369-4112-90f7-87a07e3b4816","system_id":"levelo_inurba_marseille","lat":43.324771,"lon":5.36557,"is_reserved":false,"is_disabled":false,"rental_uris":{"android":"levelo://app?vid=5d578c28-7369-4112-90f7-87a07e3b4816","ios":"levelo://app?vid=5d578c28-7369-4112-90f7-87a07e3b4816"},"vehicle_type_id":"4","last_reported":1717175210,"current_range_meters":22000,"station_id":"ce4bhs12rcd13ifvqhvg","pricing_plan_id":"cebpf4jnsgd1na2vs0mg"},{"bike_id":"bcbe4e8c-399a-4c3a-ad31-e31bd96e25bf","system_id":"levelo_inurba_marseille","lat":43.324771,"lon":5.36557,"is_reserved":false,"is_disabled":false,"rental_uris":{"android":"levelo://app?vid=bcbe4e8c-399a-4c3a-ad31-e31bd96e25bf","ios":"levelo://app?vid=bcbe4e8c-399a-4c3a-ad31-e31bd96e25bf"},"vehicle_type_id":"4","last_reported":1717175210,"current_range_meters":22000,"station_id":"ce4bhs12rcd13ifvqhvg","pricing_plan_id":"cebpf4jnsgd1na2vs0mg"},{"bike_id":"973e2987-6004-449d-a603-9598cc3cff5b","system_id":"levelo_inurba_marseille","lat":43.32489,"lon":5.365699,"is_reserved":false,"is_disabled":false,"rental_uris":{"android":"levelo://app?vid=973e2987-6004-449d-a603-9598cc3cff5b","ios":"levelo://app?vid=973e2987-6004-449d-a603-9598cc3cff5b"},"vehicle_type_id":"4","last_reported":1717175210,"current_range_meters":14400,"station_id":"ce4bhs12rcd13ifvqhvg","pricing_plan_id":"cebpf4jnsgd1na2vs0mg"},{"bike_id":"e7b5d43e-79e3-471c-8dbb-1d88bd546cd5","system_id":"levelo_inurba_marseille","lat":43.324771,"lon":5.36557,"is_reserved":false,"is_disabled":false,"rental_uris":{"android":"levelo://app?vid=e7b5d43e-79e3-471c-8dbb-1d88bd546cd5","ios":"levelo://app?vid=e7b5d43e-79e3-471c-8dbb-1d88bd546cd5"},"vehicle_type_id":"4","last_reported":1717175210,"current_range_meters":20000,"station_id":"ce4bhs12rcd13ifvqhvg","pricing_plan_id":"cebpf4jnsgd1na2vs0mg"},{"bike_id":"71053394-ccb3-48d4-bb45-db0ef124700f","system_id":"levelo_inurba_marseille","lat":43.302784,"lon":5.377158,"is_reserved":false,"is_disabled":false,"rental_uris":{"android":"levelo://app?vid=71053394-ccb3-48d4-bb45-db0ef124700f","ios":"levelo://app?vid=71053394-ccb3-48d4-bb45-db0ef124700f"},"vehicle_type_id":"4","last_reported":1717175210,"current_range_meters":400,"station_id":"ce4bguh2rcd13ifvqcj0","pricing_plan_id":"cebpf4jnsgd1na2vs0mg"},{"bike_id":"64bac8dd-2f23-4d3c-977b-f00d6863fa45","system_id":"levelo_inurba_marseille","lat":43.302784,"lon":5.377158,"is_reserved":false,"is_disabled":false,"rental_uris":{"android":"levelo://app?vid=64bac8dd-2f23-4d3c-977b-f00d6863fa45","ios":"levelo://app?vid=64bac8dd-2f23-4d3c-977b-f00d6863fa45"},"vehicle_type_id":"4","last_reported":1717175210,"current_range_meters":4400,"station_id":"ce4bguh2rcd13ifvqcj0","pricing_plan_id":"cebpf4jnsgd1na2vs0mg"},{"bike_id":"8497088d-da00-408b-b61e-f7c4f5e963fa","system_id":"levelo_inurba_marseille","lat":43.310804,"lon":5.38359,"is_reserved":false,"is_disabled":false,"rental_uris":{"android":"levelo://app?vid=8497088d-da00-408b-b61e-f7c4f5e963fa","ios":"levelo://app?vid=8497088d-da00-408b-b61e-f7c4f5e963fa"},"vehicle_type_id":"4","last_reported":1717175210,"current_range_meters":0,"station_id":"ce4bgv92rcd13ifvqcr0","pricing_plan_id":"cebpf4jnsgd1na2vs0mg"},{"bike_id":"04f47e1b-e171-4ef0-bb05-de0c34f49d8f","system_id":"levelo_inurba_marseille","lat":43.30143,"lon":5.37413,"is_reserved":false,"is_disabled":false,"rental_uris":{"android":"levelo://app?vid=04f47e1b-e171-4ef0-bb05-de0c34f49d8f","ios":"levelo://app?vid=04f47e1b-e171-4ef0-bb05-de0c34f49d8f"},"vehicle_type_id":"4","last_reported":1717175210,"current_range_meters":4800,"station_id":"ce4bgs92rcd13ifvqcc0","pricing_plan_id":"cebpf4jnsgd1na2vs0mg"},{"bike_id":"e1114b78-6798-4692-9b97-e48fb33cc17e","system_id":"levelo_inurba_marseille","lat":43.301429,"lon":5.37413,"is_reserved":false,"is_disabled":false,"rental_uris":{"android":"levelo://app?vid=e1114b78-6798-4692-9b97-e48fb33cc17e","ios":"levelo://app?vid=e1114b78-6798-4692-9b97-e48fb33cc17e"},"vehicle_type_id":"4","last_reported":1717175210,"current_range_meters":0,"station_id":"ce4bgs92rcd13ifvqcc0","pricing_plan_id":"cebpf4jnsgd1na2vs0mg"},{"bike_id":"674a18d2-7482-4f63-a329-27fc437535b1","system_id":"levelo_inurba_marseille","lat":43.302784,"lon":5.377158,"is_reserved":false,"is_disabled":false,"rental_uris":{"android":"levelo://app?vid=674a18d2-7482-4f63-a329-27fc437535b1","ios":"levelo://app?vid=674a18d2-7482-4f63-a329-27fc437535b1"},"vehicle_type_id":"4","last_reported":1717175210,"current_range_meters":0,"station_id":"ce4bguh2rcd13ifvqcj0","pricing_plan_id":"cebpf4jnsgd1na2vs0mg"},{"bike_id":"ad242788-8c89-42bf-9f1e-e97d1e87ecb4","system_id":"levelo_inurba_marseille","lat":43.320059,"lon":5.381171,"is_reserved":false,"is_disabled":false,"rental_uris":{"android":"levelo://app?vid=ad242788-8c89-42bf-9f1e-e97d1e87ecb4","ios":"levelo://app?vid=ad242788-8c89-42bf-9f1e-e97d1e87ecb4"},"vehicle_type_id":"4","last_reported":1717175210,"current_range_meters":7200,"station_id":"ce4bhr12rcd13ifvqhpg","pricing_plan_id":"cebpf4jnsgd1na2vs0mg"},{"bike_id":"71605c45-1be0-4933-8634-691f3383e575","system_id":"levelo_inurba_marseille","lat":43.319963,"lon":5.381442,"is_reserved":false,"is_disabled":false,"rental_uris":{"android":"levelo://app?vid=71605c45-1be0-4933-8634-691f3383e575","ios":"levelo://app?vid=71605c45-1be0-4933-8634-691f3383e575"},"vehicle_type_id":"4","last_reported":1717175210,"current_range_meters":12000,"station_id":"ce4bhr12rcd13ifvqhpg","pricing_plan_id":"cebpf4jnsgd1na2vs0mg"},{"bike_id":"0553f024-94b5-488a-831d-9a21dfc4f6ed","system_id":"levelo_inurba_marseille","lat":43.32002,"lon":5.38145,"is_reserved":false,"is_disabled":false,"rental_uris":{"android":"levelo://app?vid=0553f024-94b5-488a-831d-9a21dfc4f6ed","ios":"levelo://app?vid=0553f024-94b5-488a-831d-9a21dfc4f6ed"},"vehicle_type_id":"4","last_reported":1717175210,"current_range_meters":0,"station_id":"ce4bhr12rcd13ifvqhpg","pricing_plan_id":"cebpf4jnsgd1na2vs0mg"},{"bike_id":"573b1bc5-fd22-4b6f-a1cf-c184004b3a92","system_id":"levelo_inurba_marseille","lat":43.319966,"lon":5.381523,"is_reserved":false,"is_disabled":false,"rental_uris":{"android":"levelo://app?vid=573b1bc5-fd22-4b6f-a1cf-c184004b3a92","ios":"levelo://app?vid=573b1bc5-fd22-4b6f-a1cf-c184004b3a92"},"vehicle_type_id":"4","last_reported":1717175210,"current_range_meters":17200,"station_id":"ce4bhr12rcd13ifvqhpg","pricing_plan_id":"cebpf4jnsgd1na2vs0mg"},{"bike_id":"896dfba8-93b8-417b-b3fd-d5ba41396fdb","system_id":"levelo_inurba_marseille","lat":43.32003,"lon":5.3815,"is_reserved":false,"is_disabled":false,"rental_uris":{"android":"levelo://app?vid=896dfba8-93b8-417b-b3fd-d5ba41396fdb","ios":"levelo://app?vid=896dfba8-93b8-417b-b3fd-d5ba41396fdb"},"vehicle_type_id":"4","last_reported":1717175210,"current_range_meters":10400,"station_id":"ce4bhr12rcd13ifvqhpg","pricing_plan_id":"cebpf4jnsgd1na2vs0mg"},{"bike_id":"b0ba0ced-c4f2-4e25-b28b-95c8dab8117c","system_id":"levelo_inurba_marseille","lat":43.313571,"lon":5.384829,"is_reserved":false,"is_disabled":false,"rental_uris":{"android":"levelo://app?vid=b0ba0ced-c4f2-4e25-b28b-95c8dab8117c","ios":"levelo://app?vid=b0ba0ced-c4f2-4e25-b28b-95c8dab8117c"},"vehicle_type_id":"4","last_reported":1717175210,"current_range_meters":10400,"station_id":"ce4bgt92rcd13ifvqcf0","pricing_plan_id":"cebpf4jnsgd1na2vs0mg"},{"bike_id":"4188718b-a64a-46f7-a545-146500148fed","system_id":"levelo_inurba_marseille","lat":43.299222,"lon":5.365554,"is_reserved":false,"is_disabled":false,"rental_uris":{"android":"levelo://app?vid=4188718b-a64a-46f7-a545-146500148fed","ios":"levelo://app?vid=4188718b-a64a-46f7-a545-146500148fed"},"vehicle_type_id":"4","last_reported":1717175210,"current_range_meters":16000,"station_id":"ce4bgm92rcd13ifvqbr0","pricing_plan_id":"cebpf4jnsgd1na2vs0mg"},{"bike_id":"7d13197b-5def-4f58-b443-7a8574cd458b","system_id":"levelo_inurba_marseille","lat":43.29971,"lon":5.371839,"is_reserved":false,"is_disabled":false,"rental_uris":{"android":"levelo://app?vid=7d13197b-5def-4f58-b443-7a8574cd458b","ios":"levelo://app?vid=7d13197b-5def-4f58-b443-7a8574cd458b"},"vehicle_type_id":"4","last_reported":1717175210,"current_range_meters":2000,"station_id":"ce4bhe12rcd13ifvqf30","pricing_plan_id":"cebpf4jnsgd1na2vs0mg"},{"bike_id":"3db7d90f-9946-4717-9fb1-1aa5d11a2e1f","system_id":"levelo_inurba_marseille","lat":43.322872,"lon":5.382756,"is_reserved":false,"is_disabled":false,"rental_uris":{"android":"levelo://app?vid=3db7d90f-9946-4717-9fb1-1aa5d11a2e1f","ios":"levelo://app?vid=3db7d90f-9946-4717-9fb1-1aa5d11a2e1f"},"vehicle_type_id":"4","last_reported":1717175210,"current_range_meters":26000,"station_id":"ce4bhr12rcd13ifvqhqg","pricing_plan_id":"cebpf4jnsgd1na2vs0mg"},{"bike_id":"2b517024-e20b-4a88-91ae-035d9aba9bb5","system_id":"levelo_inurba_marseille","lat":43.298433,"lon":5.362774,"is_reserved":false,"is_disabled":false,"rental_uris":{"android":"levelo://app?vid=2b517024-e20b-4a88-91ae-035d9aba9bb5","ios":"levelo://app?vid=2b517024-e20b-4a88-91ae-035d9aba9bb5"},"vehicle_type_id":"4","last_reported":1717175210,"current_range_meters":6800,"station_id":"ce4bgpp2rcd13ifvqc3g","pricing_plan_id":"cebpf4jnsgd1na2vs0mg"},{"bike_id":"a3a52807-f861-46b4-8aa1-65f77d251172","system_id":"levelo_inurba_marseille","lat":43.305364,"lon":5.384119,"is_reserved":false,"is_disabled":false,"rental_uris":{"android":"levelo://app?vid=a3a52807-f861-46b4-8aa1-65f77d251172","ios":"levelo://app?vid=a3a52807-f861-46b4-8aa1-65f77d251172"},"vehicle_type_id":"4","last_reported":1717175210,"current_range_meters":0,"station_id":"ce4bgg92rcd13ifvqb30","pricing_plan_id":"cebpf4jnsgd1na2vs0mg"},{"bike_id":"7c0279c4-785e-41cc-9875-11b1aa5697b0","system_id":"levelo_inurba_marseille","lat":43.298433,"lon":5.362774,"is_reserved":false,"is_disabled":false,"rental_uris":{"android":"levelo://app?vid=7c0279c4-785e-41cc-9875-11b1aa5697b0","ios":"levelo://app?vid=7c0279c4-785e-41cc-9875-11b1aa5697b0"},"vehicle_type_id":"4","last_reported":1717175210,"current_range_meters":29200,"station_id":"ce4bgpp2rcd13ifvqc3g","pricing_plan_id":"cebpf4jnsgd1na2vs0mg"},{"bike_id":"c3b3aa79-a3bf-4216-b5e4-445a46cb6630","system_id":"levelo_inurba_marseille","lat":43.299243,"lon":5.374807,"is_reserved":false,"is_disabled":false,"rental_uris":{"android":"levelo://app?vid=c3b3aa79-a3bf-4216-b5e4-445a46cb6630","ios":"levelo://app?vid=c3b3aa79-a3bf-4216-b5e4-445a46cb6630"},"vehicle_type_id":"4","last_reported":1717175210,"current_range_meters":3200,"station_id":"ce4bgjh2rcd13ifvqbg0","pricing_plan_id":"cebpf4jnsgd1na2vs0mg"},{"bike_id":"c4d4555e-5046-4035-be86-72e5d43102e7","system_id":"levelo_inurba_marseille","lat":43.305364,"lon":5.384119,"is_reserved":false,"is_disabled":false,"rental_uris":{"android":"levelo://app?vid=c4d4555e-5046-4035-be86-72e5d43102e7","ios":"levelo://app?vid=c4d4555e-5046-4035-be86-72e5d43102e7"},"vehicle_type_id":"4","last_reported":1717175210,"current_range_meters":0,"station_id":"ce4bgg92rcd13ifvqb30","pricing_plan_id":"cebpf4jnsgd1na2vs0mg"},{"bike_id":"2eb6e389-ac0c-428b-bb3e-a3bb93e162fc","system_id":"levelo_inurba_marseille","lat":43.29785,"lon":5.37096,"is_reserved":false,"is_disabled":false,"rental_uris":{"android":"levelo://app?vid=2eb6e389-ac0c-428b-bb3e-a3bb93e162fc","ios":"levelo://app?vid=2eb6e389-ac0c-428b-bb3e-a3bb93e162fc"},"vehicle_type_id":"4","last_reported":1717175210,"current_range_meters":0,"station_id":"ce4bgop2rcd13ifvqc1g","pricing_plan_id":"cebpf4jnsgd1na2vs0mg"},{"bike_id":"10fb4334-c940-4455-979b-d3f1ca32e262","system_id":"levelo_inurba_marseille","lat":43.297794,"lon":5.370888,"is_reserved":false,"is_disabled":false,"rental_uris":{"android":"levelo://app?vid=10fb4334-c940-4455-979b-d3f1ca32e262","ios":"levelo://app?vid=10fb4334-c940-4455-979b-d3f1ca32e262"},"vehicle_type_id":"4","last_reported":1717175210,"current_range_meters":29600,"station_id":"ce4bgop2rcd13ifvqc1g","pricing_plan_id":"cebpf4jnsgd1na2vs0mg"},{"bike_id":"8eb673f6-643f-4490-bd29-c9223166f8c5","system_id":"levelo_inurba_marseille","lat":43.322872,"lon":5.382756,"is_reserved":false,"is_disabled":false,"rental_uris":{"android":"levelo://app?vid=8eb673f6-643f-4490-bd29-c9223166f8c5","ios":"levelo://app?vid=8eb673f6-643f-4490-bd29-c9223166f8c5"},"vehicle_type_id":"4","last_reported":1717175210,"current_range_meters":13600,"station_id":"ce4bhr12rcd13ifvqhqg","pricing_plan_id":"cebpf4jnsgd1na2vs0mg"},{"bike_id":"8f476e30-1c2d-4d66-a7a4-ba66fe9ea9c0","system_id":"levelo_inurba_marseille","lat":43.322872,"lon":5.382756,"is_reserved":false,"is_disabled":false,"rental_uris":{"android":"levelo://app?vid=8f476e30-1c2d-4d66-a7a4-ba66fe9ea9c0","ios":"levelo://app?vid=8f476e30-1c2d-4d66-a7a4-ba66fe9ea9c0"},"vehicle_type_id":"4","last_reported":1717175210,"current_range_meters":15600,"station_id":"ce4bhr12rcd13ifvqhqg","pricing_plan_id":"cebpf4jnsgd1na2vs0mg"},{"bike_id":"31e7a815-fe96-48f7-a05a-ca11036dc5a4","system_id":"levelo_inurba_marseille","lat":43.322872,"lon":5.382756,"is_reserved":false,"is_disabled":false,"rental_uris":{"android":"levelo://app?vid=31e7a815-fe96-48f7-a05a-ca11036dc5a4","ios":"levelo://app?vid=31e7a815-fe96-48f7-a05a-ca11036dc5a4"},"vehicle_type_id":"4","last_reported":1717175210,"current_range_meters":0,"station_id":"ce4bhr12rcd13ifvqhqg","pricing_plan_id":"cebpf4jnsgd1na2vs0mg"},{"bike_id":"53fa681e-0c29-4341-b759-f9f2ff09cbe0","system_id":"levelo_inurba_marseille","lat":43.322872,"lon":5.382756,"is_reserved":false,"is_disabled":false,"rental_uris":{"android":"levelo://app?vid=53fa681e-0c29-4341-b759-f9f2ff09cbe0","ios":"levelo://app?vid=53fa681e-0c29-4341-b759-f9f2ff09cbe0"},"vehicle_type_id":"4","last_reported":1717175210,"current_range_meters":0,"station_id":"ce4bhr12rcd13ifvqhqg","pricing_plan_id":"cebpf4jnsgd1na2vs0mg"},{"bike_id":"4cc54a41-1062-412a-abb6-431ffc410da5","system_id":"levelo_inurba_marseille","lat":43.322872,"lon":5.382756,"is_reserved":false,"is_disabled":false,"rental_uris":{"android":"levelo://app?vid=4cc54a41-1062-412a-abb6-431ffc410da5","ios":"levelo://app?vid=4cc54a41-1062-412a-abb6-431ffc410da5"},"vehicle_type_id":"4","last_reported":1717175210,"current_range_meters":32000,"station_id":"ce4bhr12rcd13ifvqhqg","pricing_plan_id":"cebpf4jnsgd1na2vs0mg"},{"bike_id":"c156348f-eb31-41c5-8716-9d2ce85c12e3","system_id":"levelo_inurba_marseille","lat":43.322946,"lon":5.382818,"is_reserved":false,"is_disabled":false,"rental_uris":{"android":"levelo://app?vid=c156348f-eb31-41c5-8716-9d2ce85c12e3","ios":"levelo://app?vid=c156348f-eb31-41c5-8716-9d2ce85c12e3"},"vehicle_type_id":"4","last_reported":1717175210,"current_range_meters":2400,"station_id":"ce4bhr12rcd13ifvqhqg","pricing_plan_id":"cebpf4jnsgd1na2vs0mg"},{"bike_id":"aed5ca0b-0105-49f1-bf22-24deee4558d8","system_id":"levelo_inurba_marseille","lat":43.297163,"lon":5.365866,"is_reserved":false,"is_disabled":false,"rental_uris":{"android":"levelo://app?vid=aed5ca0b-0105-49f1-bf22-24deee4558d8","ios":"levelo://app?vid=aed5ca0b-0105-49f1-bf22-24deee4558d8"},"vehicle_type_id":"4","last_reported":1717175210,"current_range_meters":0,"station_id":"ce4bgn12rcd13ifvqbt0","pricing_plan_id":"cebpf4jnsgd1na2vs0mg"},{"bike_id":"7080f249-60e8-4a8d-8780-045986176994","system_id":"levelo_inurba_marseille","lat":43.297163,"lon":5.365866,"is_reserved":false,"is_disabled":false,"rental_uris":{"android":"levelo://app?vid=7080f249-60e8-4a8d-8780-045986176994","ios":"levelo://app?vid=7080f249-60e8-4a8d-8780-045986176994"},"vehicle_type_id":"4","last_reported":1717175210,"current_range_meters":0,"station_id":"ce4bgn12rcd13ifvqbt0","pricing_plan_id":"cebpf4jnsgd1na2vs0mg"},{"bike_id":"b048a8ee-0720-4e6e-ad2a-03e8ed988dd9","system_id":"levelo_inurba_marseille","lat":43.297163,"lon":5.365866,"is_reserved":false,"is_disabled":false,"rental_uris":{"android":"levelo://app?vid=b048a8ee-0720-4e6e-ad2a-03e8ed988dd9","ios":"levelo://app?vid=b048a8ee-0720-4e6e-ad2a-03e8ed988dd9"},"vehicle_type_id":"4","last_reported":1717175210,"current_range_meters":0,"station_id":"ce4bgn12rcd13ifvqbt0","pricing_plan_id":"cebpf4jnsgd1na2vs0mg"},{"bike_id":"4a5145be-6de0-41d2-b148-df1dde795e8d","system_id":"levelo_inurba_marseille","lat":43.322872,"lon":5.382756,"is_reserved":false,"is_disabled":false,"rental_uris":{"android":"levelo://app?vid=4a5145be-6de0-41d2-b148-df1dde795e8d","ios":"levelo://app?vid=4a5145be-6de0-41d2-b148-df1dde795e8d"},"vehicle_type_id":"4","last_reported":1717175210,"current_range_meters":28800,"station_id":"ce4bhr12rcd13ifvqhqg","pricing_plan_id":"cebpf4jnsgd1na2vs0mg"},{"bike_id":"b75ad580-c894-47a4-9731-6ed1d26fe2f1","system_id":"levelo_inurba_marseille","lat":43.296122,"lon":5.363904,"is_reserved":false,"is_disabled":false,"rental_uris":{"android":"levelo://app?vid=b75ad580-c894-47a4-9731-6ed1d26fe2f1","ios":"levelo://app?vid=b75ad580-c894-47a4-9731-6ed1d26fe2f1"},"vehicle_type_id":"4","last_reported":1717175210,"current_range_meters":800,"station_id":"","pricing_plan_id":"cebpf4jnsgd1na2vs0mg"},{"bike_id":"b3608540-ac05-4ae4-a238-aef288d90d0a","system_id":"levelo_inurba_marseille","lat":43.296131,"lon":5.370773,"is_reserved":false,"is_disabled":false,"rental_uris":{"android":"levelo://app?vid=b3608540-ac05-4ae4-a238-aef288d90d0a","ios":"levelo://app?vid=b3608540-ac05-4ae4-a238-aef288d90d0a"},"vehicle_type_id":"4","last_reported":1717175210,"current_range_meters":0,"station_id":"ce4bgnh2rcd13ifvqc0g","pricing_plan_id":"cebpf4jnsgd1na2vs0mg"},{"bike_id":"bd23f386-3175-4d3b-8d74-6562c7b63eb1","system_id":"levelo_inurba_marseille","lat":43.296129,"lon":5.370777,"is_reserved":false,"is_disabled":false,"rental_uris":{"android":"levelo://app?vid=bd23f386-3175-4d3b-8d74-6562c7b63eb1","ios":"levelo://app?vid=bd23f386-3175-4d3b-8d74-6562c7b63eb1"},"vehicle_type_id":"4","last_reported":1717175210,"current_range_meters":19600,"station_id":"ce4bgnh2rcd13ifvqc0g","pricing_plan_id":"cebpf4jnsgd1na2vs0mg"},{"bike_id":"b58ca634-7f21-4461-aac3-bca72f72df78","system_id":"levelo_inurba_marseille","lat":43.296131,"lon":5.370791,"is_reserved":false,"is_disabled":false,"rental_uris":{"android":"levelo://app?vid=b58ca634-7f21-4461-aac3-bca72f72df78","ios":"levelo://app?vid=b58ca634-7f21-4461-aac3-bca72f72df78"},"vehicle_type_id":"4","last_reported":1717175210,"current_range_meters":6800,"station_id":"ce4bgnh2rcd13ifvqc0g","pricing_plan_id":"cebpf4jnsgd1na2vs0mg"},{"bike_id":"9d34d2a3-cce0-4128-a880-3670c18bde2f","system_id":"levelo_inurba_marseille","lat":43.299028,"lon":5.381509,"is_reserved":false,"is_disabled":false,"rental_uris":{"android":"levelo://app?vid=9d34d2a3-cce0-4128-a880-3670c18bde2f","ios":"levelo://app?vid=9d34d2a3-cce0-4128-a880-3670c18bde2f"},"vehicle_type_id":"4","last_reported":1717175210,"current_range_meters":800,"station_id":"ce4bgj12rcd13ifvqbc0","pricing_plan_id":"cebpf4jnsgd1na2vs0mg"},{"bike_id":"379fda8a-abb3-4463-bc00-5f4225ceb744","system_id":"levelo_inurba_marseille","lat":43.296921,"lon":5.376579,"is_reserved":false,"is_disabled":false,"rental_uris":{"android":"levelo://app?vid=379fda8a-abb3-4463-bc00-5f4225ceb744","ios":"levelo://app?vid=379fda8a-abb3-4463-bc00-5f4225ceb744"},"vehicle_type_id":"4","last_reported":1717175210,"current_range_meters":27600,"station_id":"ce4bgkh2rcd13ifvqbl0","pricing_plan_id":"cebpf4jnsgd1na2vs0mg"},{"bike_id":"678a4c0f-52f9-44db-aedc-f55258022622","system_id":"levelo_inurba_marseille","lat":43.296513,"lon":5.375738,"is_reserved":false,"is_disabled":false,"rental_uris":{"android":"levelo://app?vid=678a4c0f-52f9-44db-aedc-f55258022622","ios":"levelo://app?vid=678a4c0f-52f9-44db-aedc-f55258022622"},"vehicle_type_id":"4","last_reported":1717175210,"current_range_meters":14400,"station_id":"","pricing_plan_id":"cebpf4jnsgd1na2vs0mg"},{"bike_id":"3b72c5b3-ec9f-4728-b54d-a3373a8d88df","system_id":"levelo_inurba_marseille","lat":43.317557,"lon":5.390173,"is_reserved":false,"is_disabled":false,"rental_uris":{"android":"levelo://app?vid=3b72c5b3-ec9f-4728-b54d-a3373a8d88df","ios":"levelo://app?vid=3b72c5b3-ec9f-4728-b54d-a3373a8d88df"},"vehicle_type_id":"4","last_reported":1717175210,"current_range_meters":6400,"station_id":"ce4bhqp2rcd13ifvqhng","pricing_plan_id":"cebpf4jnsgd1na2vs0mg"},{"bike_id":"fb0ae294-8e42-44c8-9e4a-7a137b35ea06","system_id":"levelo_inurba_marseille","lat":43.317557,"lon":5.390173,"is_reserved":false,"is_disabled":false,"rental_uris":{"android":"levelo://app?vid=fb0ae294-8e42-44c8-9e4a-7a137b35ea06","ios":"levelo://app?vid=fb0ae294-8e42-44c8-9e4a-7a137b35ea06"},"vehicle_type_id":"4","last_reported":1717175210,"current_range_meters":14000,"station_id":"ce4bhqp2rcd13ifvqhng","pricing_plan_id":"cebpf4jnsgd1na2vs0mg"},{"bike_id":"35ddf430-e4cc-4642-92b2-308a2a35376b","system_id":"levelo_inurba_marseille","lat":43.295744,"lon":5.375254,"is_reserved":false,"is_disabled":false,"rental_uris":{"android":"levelo://app?vid=35ddf430-e4cc-4642-92b2-308a2a35376b","ios":"levelo://app?vid=35ddf430-e4cc-4642-92b2-308a2a35376b"},"vehicle_type_id":"4","last_reported":1717175210,"current_range_meters":0,"station_id":"ce4bgh92rcd13ifvqb50","pricing_plan_id":"cebpf4jnsgd1na2vs0mg"},{"bike_id":"a4b2b42e-c413-49af-9836-d799f2d82289","system_id":"levelo_inurba_marseille","lat":43.295748,"lon":5.37522,"is_reserved":false,"is_disabled":false,"rental_uris":{"android":"levelo://app?vid=a4b2b42e-c413-49af-9836-d799f2d82289","ios":"levelo://app?vid=a4b2b42e-c413-49af-9836-d799f2d82289"},"vehicle_type_id":"4","last_reported":1717175210,"current_range_meters":0,"station_id":"ce4bgh92rcd13ifvqb50","pricing_plan_id":"cebpf4jnsgd1na2vs0mg"},{"bike_id":"7926e53b-18d7-4785-a852-2307f0322513","system_id":"levelo_inurba_marseille","lat":43.304274,"lon":5.388873,"is_reserved":false,"is_disabled":false,"rental_uris":{"android":"levelo://app?vid=7926e53b-18d7-4785-a852-2307f0322513","ios":"levelo://app?vid=7926e53b-18d7-4785-a852-2307f0322513"},"vehicle_type_id":"4","last_reported":1717175210,"current_range_meters":11200,"station_id":"ce4bgk12rcd13ifvqbi0","pricing_plan_id":"cebpf4jnsgd1na2vs0mg"},{"bike_id":"ca96e758-b93b-446c-bc6f-cd4ff7c20097","system_id":"levelo_inurba_marseille","lat":43.295748,"lon":5.37522,"is_reserved":false,"is_disabled":false,"rental_uris":{"android":"levelo://app?vid=ca96e758-b93b-446c-bc6f-cd4ff7c20097","ios":"levelo://app?vid=ca96e758-b93b-446c-bc6f-cd4ff7c20097"},"vehicle_type_id":"4","last_reported":1717175210,"current_range_meters":0,"station_id":"ce4bgh92rcd13ifvqb50","pricing_plan_id":"cebpf4jnsgd1na2vs0mg"},{"bike_id":"8869be36-cc02-401c-920b-f1107c5ebe62","system_id":"levelo_inurba_marseille","lat":43.296277,"lon":5.377108,"is_reserved":false,"is_disabled":false,"rental_uris":{"android":"levelo://app?vid=8869be36-cc02-401c-920b-f1107c5ebe62","ios":"levelo://app?vid=8869be36-cc02-401c-920b-f1107c5ebe62"},"vehicle_type_id":"4","last_reported":1717175210,"current_range_meters":400,"station_id":"ce4bgi92rcd13ifvqb90","pricing_plan_id":"cebpf4jnsgd1na2vs0mg"},{"bike_id":"2cbdc472-a32f-4570-a591-ae50cea93d39","system_id":"levelo_inurba_marseille","lat":43.295279,"lon":5.375048,"is_reserved":false,"is_disabled":false,"rental_uris":{"android":"levelo://app?vid=2cbdc472-a32f-4570-a591-ae50cea93d39","ios":"levelo://app?vid=2cbdc472-a32f-4570-a591-ae50cea93d39"},"vehicle_type_id":"4","last_reported":1717175210,"current_range_meters":0,"station_id":"ce4bgkp2rcd13ifvqbmg","pricing_plan_id":"cebpf4jnsgd1na2vs0mg"},{"bike_id":"d9cec343-aa07-4728-939e-49526e956a7e","system_id":"levelo_inurba_marseille","lat":43.29605,"lon":5.37724,"is_reserved":false,"is_disabled":false,"rental_uris":{"android":"levelo://app?vid=d9cec343-aa07-4728-939e-49526e956a7e","ios":"levelo://app?vid=d9cec343-aa07-4728-939e-49526e956a7e"},"vehicle_type_id":"4","last_reported":1717175210,"current_range_meters":16800,"station_id":"","pricing_plan_id":"cebpf4jnsgd1na2vs0mg"},{"bike_id":"90027a44-f1ef-48a2-b51c-98fa3bd2293b","system_id":"levelo_inurba_marseille","lat":43.30401,"lon":5.389064,"is_reserved":false,"is_disabled":false,"rental_uris":{"android":"levelo://app?vid=90027a44-f1ef-48a2-b51c-98fa3bd2293b","ios":"levelo://app?vid=90027a44-f1ef-48a2-b51c-98fa3bd2293b"},"vehicle_type_id":"4","last_reported":1717175210,"current_range_meters":400,"station_id":"ce4bgk12rcd13ifvqbi0","pricing_plan_id":"cebpf4jnsgd1na2vs0mg"},{"bike_id":"6ba4148c-33ea-40b5-b2ee-04ced69395ad","system_id":"levelo_inurba_marseille","lat":43.295279,"lon":5.375048,"is_reserved":false,"is_disabled":false,"rental_uris":{"android":"levelo://app?vid=6ba4148c-33ea-40b5-b2ee-04ced69395ad","ios":"levelo://app?vid=6ba4148c-33ea-40b5-b2ee-04ced69395ad"},"vehicle_type_id":"4","last_reported":1717175210,"current_range_meters":12400,"station_id":"ce4bgkp2rcd13ifvqbmg","pricing_plan_id":"cebpf4jnsgd1na2vs0mg"},{"bike_id":"220c2228-7808-4f27-bde0-7c85f284b7e2","system_id":"levelo_inurba_marseille","lat":43.299707,"lon":5.384859,"is_reserved":false,"is_disabled":false,"rental_uris":{"android":"levelo://app?vid=220c2228-7808-4f27-bde0-7c85f284b7e2","ios":"levelo://app?vid=220c2228-7808-4f27-bde0-7c85f284b7e2"},"vehicle_type_id":"4","last_reported":1717175210,"current_range_meters":0,"station_id":"ce4bgj92rcd13ifvqbd0","pricing_plan_id":"cebpf4jnsgd1na2vs0mg"},{"bike_id":"98ccecb2-924e-4e8d-b5df-591e544d73af","system_id":"levelo_inurba_marseille","lat":43.299682,"lon":5.384898,"is_reserved":false,"is_disabled":false,"rental_uris":{"android":"levelo://app?vid=98ccecb2-924e-4e8d-b5df-591e544d73af","ios":"levelo://app?vid=98ccecb2-924e-4e8d-b5df-591e544d73af"},"vehicle_type_id":"4","last_reported":1717175210,"current_range_meters":0,"station_id":"ce4bgj92rcd13ifvqbd0","pricing_plan_id":"cebpf4jnsgd1na2vs0mg"},{"bike_id":"70fe5147-898c-4a09-b884-a6ee3b58e0f5","system_id":"levelo_inurba_marseille","lat":43.299688,"lon":5.384931,"is_reserved":false,"is_disabled":false,"rental_uris":{"android":"levelo://app?vid=70fe5147-898c-4a09-b884-a6ee3b58e0f5","ios":"levelo://app?vid=70fe5147-898c-4a09-b884-a6ee3b58e0f5"},"vehicle_type_id":"4","last_reported":1717175210,"current_range_meters":0,"station_id":"ce4bgj92rcd13ifvqbd0","pricing_plan_id":"cebpf4jnsgd1na2vs0mg"},{"bike_id":"f06ee386-c49c-44da-924e-d6e5d7bcc552","system_id":"levelo_inurba_marseille","lat":43.29966,"lon":5.38497,"is_reserved":false,"is_disabled":false,"rental_uris":{"android":"levelo://app?vid=f06ee386-c49c-44da-924e-d6e5d7bcc552","ios":"levelo://app?vid=f06ee386-c49c-44da-924e-d6e5d7bcc552"},"vehicle_type_id":"4","last_reported":1717175210,"current_range_meters":0,"station_id":"ce4bgj92rcd13ifvqbd0","pricing_plan_id":"cebpf4jnsgd1na2vs0mg"},{"bike_id":"fe1ed66b-0b97-4eda-bf01-534e299a2abc","system_id":"levelo_inurba_marseille","lat":43.299707,"lon":5.384859,"is_reserved":false,"is_disabled":false,"rental_uris":{"android":"levelo://app?vid=fe1ed66b-0b97-4eda-bf01-534e299a2abc","ios":"levelo://app?vid=fe1ed66b-0b97-4eda-bf01-534e299a2abc"},"vehicle_type_id":"4","last_reported":1717175210,"current_range_meters":0,"station_id":"ce4bgj92rcd13ifvqbd0","pricing_plan_id":"cebpf4jnsgd1na2vs0mg"},{"bike_id":"c2109202-5a92-440e-8d26-f9adc0a91a44","system_id":"levelo_inurba_marseille","lat":43.29963,"lon":5.38496,"is_reserved":false,"is_disabled":false,"rental_uris":{"android":"levelo://app?vid=c2109202-5a92-440e-8d26-f9adc0a91a44","ios":"levelo://app?vid=c2109202-5a92-440e-8d26-f9adc0a91a44"},"vehicle_type_id":"4","last_reported":1717175210,"current_range_meters":0,"station_id":"ce4bgj92rcd13ifvqbd0","pricing_plan_id":"cebpf4jnsgd1na2vs0mg"},{"bike_id":"22f07089-b4ac-4a8d-9f58-7ff045f68ced","system_id":"levelo_inurba_marseille","lat":43.296277,"lon":5.377108,"is_reserved":false,"is_disabled":false,"rental_uris":{"android":"levelo://app?vid=22f07089-b4ac-4a8d-9f58-7ff045f68ced","ios":"levelo://app?vid=22f07089-b4ac-4a8d-9f58-7ff045f68ced"},"vehicle_type_id":"4","last_reported":1717175210,"current_range_meters":0,"station_id":"ce4bgi92rcd13ifvqb90","pricing_plan_id":"cebpf4jnsgd1na2vs0mg"},{"bike_id":"ab05b58b-2c59-410f-9ea8-054bad04662a","system_id":"levelo_inurba_marseille","lat":43.294669,"lon":5.376339,"is_reserved":false,"is_disabled":false,"rental_uris":{"android":"levelo://app?vid=ab05b58b-2c59-410f-9ea8-054bad04662a","ios":"levelo://app?vid=ab05b58b-2c59-410f-9ea8-054bad04662a"},"vehicle_type_id":"4","last_reported":1717175210,"current_range_meters":2400,"station_id":"ce4bgi12rcd13ifvqb70","pricing_plan_id":"cebpf4jnsgd1na2vs0mg"},{"bike_id":"eefdd17b-b8c8-4c4d-9838-098cad96718f","system_id":"levelo_inurba_marseille","lat":43.323734,"lon":5.388966,"is_reserved":false,"is_disabled":false,"rental_uris":{"android":"levelo://app?vid=eefdd17b-b8c8-4c4d-9838-098cad96718f","ios":"levelo://app?vid=eefdd17b-b8c8-4c4d-9838-098cad96718f"},"vehicle_type_id":"4","last_reported":1717175210,"current_range_meters":0,"station_id":"ce4bhqp2rcd13ifvqhog","pricing_plan_id":"cebpf4jnsgd1na2vs0mg"},{"bike_id":"fef83061-cefd-4bd4-8325-04f7affd5aca","system_id":"levelo_inurba_marseille","lat":43.29603,"lon":5.381,"is_reserved":false,"is_disabled":false,"rental_uris":{"android":"levelo://app?vid=fef83061-cefd-4bd4-8325-04f7affd5aca","ios":"levelo://app?vid=fef83061-cefd-4bd4-8325-04f7affd5aca"},"vehicle_type_id":"4","last_reported":1717175210,"current_range_meters":0,"station_id":"ce4bgl12rcd13ifvqbo0","pricing_plan_id":"cebpf4jnsgd1na2vs0mg"},{"bike_id":"541415bc-cae9-4db1-acba-24f89cc0ac91","system_id":"levelo_inurba_marseille","lat":43.293146,"lon":5.371775,"is_reserved":false,"is_disabled":false,"rental_uris":{"android":"levelo://app?vid=541415bc-cae9-4db1-acba-24f89cc0ac91","ios":"levelo://app?vid=541415bc-cae9-4db1-acba-24f89cc0ac91"},"vehicle_type_id":"4","last_reported":1717175210,"current_range_meters":4400,"station_id":"ce4bgh92rcd13ifvqb40","pricing_plan_id":"cebpf4jnsgd1na2vs0mg"},{"bike_id":"e7224bc2-ab37-41b9-b84e-e40f2ca9dc58","system_id":"levelo_inurba_marseille","lat":43.310785,"lon":5.424305,"is_reserved":false,"is_disabled":false,"rental_uris":{"android":"levelo://app?vid=e7224bc2-ab37-41b9-b84e-e40f2ca9dc58","ios":"levelo://app?vid=e7224bc2-ab37-41b9-b84e-e40f2ca9dc58"},"vehicle_type_id":"4","last_reported":1717175210,"current_range_meters":9200,"station_id":"ce4bhp92rcd13ifvqhag","pricing_plan_id":"cebpf4jnsgd1na2vs0mg"},{"bike_id":"a518fb1c-08eb-4855-b6ed-d9ce769a55e7","system_id":"levelo_inurba_marseille","lat":43.2931,"lon":5.37177,"is_reserved":false,"is_disabled":false,"rental_uris":{"android":"levelo://app?vid=a518fb1c-08eb-4855-b6ed-d9ce769a55e7","ios":"levelo://app?vid=a518fb1c-08eb-4855-b6ed-d9ce769a55e7"},"vehicle_type_id":"4","last_reported":1717175210,"current_range_meters":9200,"station_id":"ce4bgh92rcd13ifvqb40","pricing_plan_id":"cebpf4jnsgd1na2vs0mg"},{"bike_id":"2135efe3-1d84-4d92-bbaf-a9df036436f9","system_id":"levelo_inurba_marseille","lat":43.29278,"lon":5.36849,"is_reserved":false,"is_disabled":false,"rental_uris":{"android":"levelo://app?vid=2135efe3-1d84-4d92-bbaf-a9df036436f9","ios":"levelo://app?vid=2135efe3-1d84-4d92-bbaf-a9df036436f9"},"vehicle_type_id":"4","last_reported":1717175210,"current_range_meters":8400,"station_id":"ce4bhbp2rcd13ifvqesg","pricing_plan_id":"cebpf4jnsgd1na2vs0mg"},{"bike_id":"dc76ebf6-c297-400d-ac30-c7d489e43d17","system_id":"levelo_inurba_marseille","lat":43.292749,"lon":5.368398,"is_reserved":false,"is_disabled":false,"rental_uris":{"android":"levelo://app?vid=dc76ebf6-c297-400d-ac30-c7d489e43d17","ios":"levelo://app?vid=dc76ebf6-c297-400d-ac30-c7d489e43d17"},"vehicle_type_id":"4","last_reported":1717175210,"current_range_meters":0,"station_id":"ce4bhbp2rcd13ifvqesg","pricing_plan_id":"cebpf4jnsgd1na2vs0mg"},{"bike_id":"0b031578-c5de-4279-bc87-c81269234d9e","system_id":"levelo_inurba_marseille","lat":43.29306,"lon":5.37186,"is_reserved":false,"is_disabled":false,"rental_uris":{"android":"levelo://app?vid=0b031578-c5de-4279-bc87-c81269234d9e","ios":"levelo://app?vid=0b031578-c5de-4279-bc87-c81269234d9e"},"vehicle_type_id":"4","last_reported":1717175210,"current_range_meters":6800,"station_id":"ce4bgh92rcd13ifvqb40","pricing_plan_id":"cebpf4jnsgd1na2vs0mg"},{"bike_id":"77748d82-f71f-456e-ae73-474d545e4161","system_id":"levelo_inurba_marseille","lat":43.292749,"lon":5.368398,"is_reserved":false,"is_disabled":false,"rental_uris":{"android":"levelo://app?vid=77748d82-f71f-456e-ae73-474d545e4161","ios":"levelo://app?vid=77748d82-f71f-456e-ae73-474d545e4161"},"vehicle_type_id":"4","last_reported":1717175210,"current_range_meters":4800,"station_id":"ce4bhbp2rcd13ifvqesg","pricing_plan_id":"cebpf4jnsgd1na2vs0mg"},{"bike_id":"ac0783af-edfb-48a1-bf7d-656108dd4f46","system_id":"levelo_inurba_marseille","lat":43.292749,"lon":5.368398,"is_reserved":false,"is_disabled":false,"rental_uris":{"android":"levelo://app?vid=ac0783af-edfb-48a1-bf7d-656108dd4f46","ios":"levelo://app?vid=ac0783af-edfb-48a1-bf7d-656108dd4f46"},"vehicle_type_id":"4","last_reported":1717175210,"current_range_meters":24400,"station_id":"ce4bhbp2rcd13ifvqesg","pricing_plan_id":"cebpf4jnsgd1na2vs0mg"},{"bike_id":"764bccbe-c1d7-4679-b3f4-1d1fb17dc523","system_id":"levelo_inurba_marseille","lat":43.29303,"lon":5.37179,"is_reserved":false,"is_disabled":false,"rental_uris":{"android":"levelo://app?vid=764bccbe-c1d7-4679-b3f4-1d1fb17dc523","ios":"levelo://app?vid=764bccbe-c1d7-4679-b3f4-1d1fb17dc523"},"vehicle_type_id":"4","last_reported":1717175210,"current_range_meters":10400,"station_id":"ce4bgh92rcd13ifvqb40","pricing_plan_id":"cebpf4jnsgd1na2vs0mg"},{"bike_id":"bdbc98b2-660e-4e07-b388-3cd4551abc6f","system_id":"levelo_inurba_marseille","lat":43.29303,"lon":5.37183,"is_reserved":false,"is_disabled":false,"rental_uris":{"android":"levelo://app?vid=bdbc98b2-660e-4e07-b388-3cd4551abc6f","ios":"levelo://app?vid=bdbc98b2-660e-4e07-b388-3cd4551abc6f"},"vehicle_type_id":"4","last_reported":1717175210,"current_range_meters":22000,"station_id":"ce4bgh92rcd13ifvqb40","pricing_plan_id":"cebpf4jnsgd1na2vs0mg"},{"bike_id":"364ea7be-475b-4cfd-a75c-8677f5c21bbd","system_id":"levelo_inurba_marseille","lat":43.292749,"lon":5.368398,"is_reserved":false,"is_disabled":false,"rental_uris":{"android":"levelo://app?vid=364ea7be-475b-4cfd-a75c-8677f5c21bbd","ios":"levelo://app?vid=364ea7be-475b-4cfd-a75c-8677f5c21bbd"},"vehicle_type_id":"4","last_reported":1717175210,"current_range_meters":0,"station_id":"ce4bhbp2rcd13ifvqesg","pricing_plan_id":"cebpf4jnsgd1na2vs0mg"},{"bike_id":"3b27f592-250f-4271-a25d-44d5208ff52e","system_id":"levelo_inurba_marseille","lat":43.29301,"lon":5.37177,"is_reserved":false,"is_disabled":false,"rental_uris":{"android":"levelo://app?vid=3b27f592-250f-4271-a25d-44d5208ff52e","ios":"levelo://app?vid=3b27f592-250f-4271-a25d-44d5208ff52e"},"vehicle_type_id":"4","last_reported":1717175210,"current_range_meters":18800,"station_id":"ce4bgh92rcd13ifvqb40","pricing_plan_id":"cebpf4jnsgd1na2vs0mg"},{"bike_id":"ff3bb547-c0a4-4af6-a792-4ffff5b893c9","system_id":"levelo_inurba_marseille","lat":43.293009,"lon":5.374584,"is_reserved":false,"is_disabled":false,"rental_uris":{"android":"levelo://app?vid=ff3bb547-c0a4-4af6-a792-4ffff5b893c9","ios":"levelo://app?vid=ff3bb547-c0a4-4af6-a792-4ffff5b893c9"},"vehicle_type_id":"4","last_reported":1717175210,"current_range_meters":31600,"station_id":"ce4bgi12rcd13ifvqb70","pricing_plan_id":"cebpf4jnsgd1na2vs0mg"},{"bike_id":"f2d608eb-a540-481d-a312-de9d11038757","system_id":"levelo_inurba_marseille","lat":43.305994,"lon":5.393687,"is_reserved":false,"is_disabled":false,"rental_uris":{"android":"levelo://app?vid=f2d608eb-a540-481d-a312-de9d11038757","ios":"levelo://app?vid=f2d608eb-a540-481d-a312-de9d11038757"},"vehicle_type_id":"4","last_reported":1717175210,"current_range_meters":0,"station_id":"ce4bh0p2rcd13ifvqd80","pricing_plan_id":"cebpf4jnsgd1na2vs0mg"},{"bike_id":"295d0068-5e44-48ed-8041-ddbf7cdd034d","system_id":"levelo_inurba_marseille","lat":43.29387,"lon":5.37833,"is_reserved":false,"is_disabled":false,"rental_uris":{"android":"levelo://app?vid=295d0068-5e44-48ed-8041-ddbf7cdd034d","ios":"levelo://app?vid=295d0068-5e44-48ed-8041-ddbf7cdd034d"},"vehicle_type_id":"4","last_reported":1717175210,"current_range_meters":0,"station_id":"ce4bgjh2rcd13ifvqbf0","pricing_plan_id":"cebpf4jnsgd1na2vs0mg"},{"bike_id":"06d6d345-cefb-4260-8aa0-ca0e3ec115ca","system_id":"levelo_inurba_marseille","lat":43.30303,"lon":5.39202,"is_reserved":false,"is_disabled":false,"rental_uris":{"android":"levelo://app?vid=06d6d345-cefb-4260-8aa0-ca0e3ec115ca","ios":"levelo://app?vid=06d6d345-cefb-4260-8aa0-ca0e3ec115ca"},"vehicle_type_id":"4","last_reported":1717175210,"current_range_meters":8400,"station_id":"ce4bgkh2rcd13ifvqbk0","pricing_plan_id":"cebpf4jnsgd1na2vs0mg"},{"bike_id":"47ca9ae7-61d5-4ab6-a252-4b2cc2f6d93f","system_id":"levelo_inurba_marseille","lat":43.30085,"lon":5.390856,"is_reserved":false,"is_disabled":false,"rental_uris":{"android":"levelo://app?vid=47ca9ae7-61d5-4ab6-a252-4b2cc2f6d93f","ios":"levelo://app?vid=47ca9ae7-61d5-4ab6-a252-4b2cc2f6d93f"},"vehicle_type_id":"4","last_reported":1717175210,"current_range_meters":13200,"station_id":"ce4bh192rcd13ifvqdb0","pricing_plan_id":"cebpf4jnsgd1na2vs0mg"},{"bike_id":"488cd1d9-aa0f-49fa-9d71-b7a8b9d8db7c","system_id":"levelo_inurba_marseille","lat":43.303031,"lon":5.392157,"is_reserved":false,"is_disabled":false,"rental_uris":{"android":"levelo://app?vid=488cd1d9-aa0f-49fa-9d71-b7a8b9d8db7c","ios":"levelo://app?vid=488cd1d9-aa0f-49fa-9d71-b7a8b9d8db7c"},"vehicle_type_id":"4","last_reported":1717175210,"current_range_meters":0,"station_id":"ce4bgkh2rcd13ifvqbk0","pricing_plan_id":"cebpf4jnsgd1na2vs0mg"},{"bike_id":"d92aa9ef-49b0-4cb0-875a-41f315a778e4","system_id":"levelo_inurba_marseille","lat":43.302992,"lon":5.392136,"is_reserved":false,"is_disabled":false,"rental_uris":{"android":"levelo://app?vid=d92aa9ef-49b0-4cb0-875a-41f315a778e4","ios":"levelo://app?vid=d92aa9ef-49b0-4cb0-875a-41f315a778e4"},"vehicle_type_id":"4","last_reported":1717175210,"current_range_meters":0,"station_id":"ce4bgkh2rcd13ifvqbk0","pricing_plan_id":"cebpf4jnsgd1na2vs0mg"},{"bike_id":"75aaea76-fe9a-48ab-9bba-f985ec82e110","system_id":"levelo_inurba_marseille","lat":43.292311,"lon":5.360731,"is_reserved":false,"is_disabled":false,"rental_uris":{"android":"levelo://app?vid=75aaea76-fe9a-48ab-9bba-f985ec82e110","ios":"levelo://app?vid=75aaea76-fe9a-48ab-9bba-f985ec82e110"},"vehicle_type_id":"4","last_reported":1717175210,"current_range_meters":4800,"station_id":"ce4bhbh2rcd13ifvqeqg","pricing_plan_id":"cebpf4jnsgd1na2vs0mg"},{"bike_id":"ba5dbb65-4c42-45c1-89db-d407b437007d","system_id":"levelo_inurba_marseille","lat":43.292311,"lon":5.360731,"is_reserved":false,"is_disabled":false,"rental_uris":{"android":"levelo://app?vid=ba5dbb65-4c42-45c1-89db-d407b437007d","ios":"levelo://app?vid=ba5dbb65-4c42-45c1-89db-d407b437007d"},"vehicle_type_id":"4","last_reported":1717175210,"current_range_meters":16400,"station_id":"ce4bhbh2rcd13ifvqeqg","pricing_plan_id":"cebpf4jnsgd1na2vs0mg"},{"bike_id":"208456e9-fb89-43d0-b84a-9a8ecbf5d64d","system_id":"levelo_inurba_marseille","lat":43.292311,"lon":5.360731,"is_reserved":false,"is_disabled":false,"rental_uris":{"android":"levelo://app?vid=208456e9-fb89-43d0-b84a-9a8ecbf5d64d","ios":"levelo://app?vid=208456e9-fb89-43d0-b84a-9a8ecbf5d64d"},"vehicle_type_id":"4","last_reported":1717175210,"current_range_meters":16400,"station_id":"ce4bhbh2rcd13ifvqeqg","pricing_plan_id":"cebpf4jnsgd1na2vs0mg"},{"bike_id":"8e7750d9-5c58-485b-99a9-9bf90ffca509","system_id":"levelo_inurba_marseille","lat":43.292311,"lon":5.360731,"is_reserved":false,"is_disabled":false,"rental_uris":{"android":"levelo://app?vid=8e7750d9-5c58-485b-99a9-9bf90ffca509","ios":"levelo://app?vid=8e7750d9-5c58-485b-99a9-9bf90ffca509"},"vehicle_type_id":"4","last_reported":1717175210,"current_range_meters":16800,"station_id":"ce4bhbh2rcd13ifvqeqg","pricing_plan_id":"cebpf4jnsgd1na2vs0mg"},{"bike_id":"cfe65cfc-d0f9-41d6-af86-dd2e0764f8f9","system_id":"levelo_inurba_marseille","lat":43.300852,"lon":5.390859,"is_reserved":false,"is_disabled":false,"rental_uris":{"android":"levelo://app?vid=cfe65cfc-d0f9-41d6-af86-dd2e0764f8f9","ios":"levelo://app?vid=cfe65cfc-d0f9-41d6-af86-dd2e0764f8f9"},"vehicle_type_id":"4","last_reported":1717175210,"current_range_meters":0,"station_id":"ce4bh192rcd13ifvqdb0","pricing_plan_id":"cebpf4jnsgd1na2vs0mg"},{"bike_id":"73391d00-1f78-4827-b46c-fe0475f978f3","system_id":"levelo_inurba_marseille","lat":43.292311,"lon":5.360731,"is_reserved":false,"is_disabled":false,"rental_uris":{"android":"levelo://app?vid=73391d00-1f78-4827-b46c-fe0475f978f3","ios":"levelo://app?vid=73391d00-1f78-4827-b46c-fe0475f978f3"},"vehicle_type_id":"4","last_reported":1717175210,"current_range_meters":28800,"station_id":"ce4bhbh2rcd13ifvqeqg","pricing_plan_id":"cebpf4jnsgd1na2vs0mg"},{"bike_id":"33ac47c3-85db-4b1a-9c6d-8e0387b7a514","system_id":"levelo_inurba_marseille","lat":43.292311,"lon":5.360731,"is_reserved":false,"is_disabled":false,"rental_uris":{"android":"levelo://app?vid=33ac47c3-85db-4b1a-9c6d-8e0387b7a514","ios":"levelo://app?vid=33ac47c3-85db-4b1a-9c6d-8e0387b7a514"},"vehicle_type_id":"4","last_reported":1717175210,"current_range_meters":22000,"station_id":"ce4bhbh2rcd13ifvqeqg","pricing_plan_id":"cebpf4jnsgd1na2vs0mg"},{"bike_id":"fb7820ec-1497-4779-8973-cc3dd815b39b","system_id":"levelo_inurba_marseille","lat":43.291671,"lon":5.371575,"is_reserved":false,"is_disabled":false,"rental_uris":{"android":"levelo://app?vid=fb7820ec-1497-4779-8973-cc3dd815b39b","ios":"levelo://app?vid=fb7820ec-1497-4779-8973-cc3dd815b39b"},"vehicle_type_id":"4","last_reported":1717175210,"current_range_meters":21200,"station_id":"ce4bha92rcd13ifvqeh0","pricing_plan_id":"cebpf4jnsgd1na2vs0mg"},{"bike_id":"e00df74b-4d0a-4e61-ad33-6a41a1917261","system_id":"levelo_inurba_marseille","lat":43.291721,"lon":5.37169,"is_reserved":false,"is_disabled":false,"rental_uris":{"android":"levelo://app?vid=e00df74b-4d0a-4e61-ad33-6a41a1917261","ios":"levelo://app?vid=e00df74b-4d0a-4e61-ad33-6a41a1917261"},"vehicle_type_id":"4","last_reported":1717175210,"current_range_meters":2400,"station_id":"","pricing_plan_id":"cebpf4jnsgd1na2vs0mg"},{"bike_id":"d61269b7-88cb-4e13-9a8f-2b50161e88b7","system_id":"levelo_inurba_marseille","lat":43.29882,"lon":5.3891,"is_reserved":false,"is_disabled":false,"rental_uris":{"android":"levelo://app?vid=d61269b7-88cb-4e13-9a8f-2b50161e88b7","ios":"levelo://app?vid=d61269b7-88cb-4e13-9a8f-2b50161e88b7"},"vehicle_type_id":"4","last_reported":1717175210,"current_range_meters":0,"station_id":"ce4bh392rcd13ifvqdl0","pricing_plan_id":"cebpf4jnsgd1na2vs0mg"},{"bike_id":"0f3b0680-5c1e-4c80-8ac5-9a77838daaf2","system_id":"levelo_inurba_marseille","lat":43.313291,"lon":5.396838,"is_reserved":false,"is_disabled":false,"rental_uris":{"android":"levelo://app?vid=0f3b0680-5c1e-4c80-8ac5-9a77838daaf2","ios":"levelo://app?vid=0f3b0680-5c1e-4c80-8ac5-9a77838daaf2"},"vehicle_type_id":"4","last_reported":1717175210,"current_range_meters":4400,"station_id":"ce4bgvp2rcd13ifvqcu0","pricing_plan_id":"cebpf4jnsgd1na2vs0mg"},{"bike_id":"67c4bcf1-b887-4df5-bb9d-be6951f50473","system_id":"levelo_inurba_marseille","lat":43.313291,"lon":5.396838,"is_reserved":false,"is_disabled":false,"rental_uris":{"android":"levelo://app?vid=67c4bcf1-b887-4df5-bb9d-be6951f50473","ios":"levelo://app?vid=67c4bcf1-b887-4df5-bb9d-be6951f50473"},"vehicle_type_id":"4","last_reported":1717175210,"current_range_meters":0,"station_id":"ce4bgvp2rcd13ifvqcu0","pricing_plan_id":"cebpf4jnsgd1na2vs0mg"},{"bike_id":"412667e6-7ce9-4901-a74f-1525ad05fe6e","system_id":"levelo_inurba_marseille","lat":43.292005,"lon":5.357875,"is_reserved":false,"is_disabled":false,"rental_uris":{"android":"levelo://app?vid=412667e6-7ce9-4901-a74f-1525ad05fe6e","ios":"levelo://app?vid=412667e6-7ce9-4901-a74f-1525ad05fe6e"},"vehicle_type_id":"4","last_reported":1717175210,"current_range_meters":0,"station_id":"ce4bhb12rcd13ifvqel0","pricing_plan_id":"cebpf4jnsgd1na2vs0mg"},{"bike_id":"8f80e5f8-487d-41ab-abe0-7edc77510ffa","system_id":"levelo_inurba_marseille","lat":43.308882,"lon":5.396409,"is_reserved":false,"is_disabled":false,"rental_uris":{"android":"levelo://app?vid=8f80e5f8-487d-41ab-abe0-7edc77510ffa","ios":"levelo://app?vid=8f80e5f8-487d-41ab-abe0-7edc77510ffa"},"vehicle_type_id":"4","last_reported":1717175210,"current_range_meters":0,"station_id":"ce4bh012rcd13ifvqcv0","pricing_plan_id":"cebpf4jnsgd1na2vs0mg"},{"bike_id":"55885fce-3341-4eb9-b5c8-905f4273c49c","system_id":"levelo_inurba_marseille","lat":43.313291,"lon":5.396838,"is_reserved":false,"is_disabled":false,"rental_uris":{"android":"levelo://app?vid=55885fce-3341-4eb9-b5c8-905f4273c49c","ios":"levelo://app?vid=55885fce-3341-4eb9-b5c8-905f4273c49c"},"vehicle_type_id":"4","last_reported":1717175210,"current_range_meters":28400,"station_id":"ce4bgvp2rcd13ifvqcu0","pricing_plan_id":"cebpf4jnsgd1na2vs0mg"},{"bike_id":"3765bb38-673f-4cb5-ab49-6d515055cec9","system_id":"levelo_inurba_marseille","lat":43.309038,"lon":5.396546,"is_reserved":false,"is_disabled":false,"rental_uris":{"android":"levelo://app?vid=3765bb38-673f-4cb5-ab49-6d515055cec9","ios":"levelo://app?vid=3765bb38-673f-4cb5-ab49-6d515055cec9"},"vehicle_type_id":"4","last_reported":1717175210,"current_range_meters":4400,"station_id":"ce4bh012rcd13ifvqcv0","pricing_plan_id":"cebpf4jnsgd1na2vs0mg"},{"bike_id":"ad047cc1-9f72-4c53-8dac-826fa9a8705d","system_id":"levelo_inurba_marseille","lat":43.308903,"lon":5.396443,"is_reserved":false,"is_disabled":false,"rental_uris":{"android":"levelo://app?vid=ad047cc1-9f72-4c53-8dac-826fa9a8705d","ios":"levelo://app?vid=ad047cc1-9f72-4c53-8dac-826fa9a8705d"},"vehicle_type_id":"4","last_reported":1717175210,"current_range_meters":0,"station_id":"ce4bh012rcd13ifvqcv0","pricing_plan_id":"cebpf4jnsgd1na2vs0mg"},{"bike_id":"1975215c-efb5-4d07-b781-249d27f999c0","system_id":"levelo_inurba_marseille","lat":43.313291,"lon":5.396838,"is_reserved":false,"is_disabled":false,"rental_uris":{"android":"levelo://app?vid=1975215c-efb5-4d07-b781-249d27f999c0","ios":"levelo://app?vid=1975215c-efb5-4d07-b781-249d27f999c0"},"vehicle_type_id":"4","last_reported":1717175210,"current_range_meters":0,"station_id":"ce4bgvp2rcd13ifvqcu0","pricing_plan_id":"cebpf4jnsgd1na2vs0mg"},{"bike_id":"4866e8e2-4303-4122-b1ad-7cf22c9a2917","system_id":"levelo_inurba_marseille","lat":43.313291,"lon":5.396838,"is_reserved":false,"is_disabled":false,"rental_uris":{"android":"levelo://app?vid=4866e8e2-4303-4122-b1ad-7cf22c9a2917","ios":"levelo://app?vid=4866e8e2-4303-4122-b1ad-7cf22c9a2917"},"vehicle_type_id":"4","last_reported":1717175210,"current_range_meters":20400,"station_id":"ce4bgvp2rcd13ifvqcu0","pricing_plan_id":"cebpf4jnsgd1na2vs0mg"},{"bike_id":"870a9fac-716a-4ea0-9014-e928f34d5411","system_id":"levelo_inurba_marseille","lat":43.313291,"lon":5.396838,"is_reserved":false,"is_disabled":false,"rental_uris":{"android":"levelo://app?vid=870a9fac-716a-4ea0-9014-e928f34d5411","ios":"levelo://app?vid=870a9fac-716a-4ea0-9014-e928f34d5411"},"vehicle_type_id":"4","last_reported":1717175210,"current_range_meters":19200,"station_id":"ce4bgvp2rcd13ifvqcu0","pricing_plan_id":"cebpf4jnsgd1na2vs0mg"},{"bike_id":"7b7f8beb-b283-4b93-9842-2e88f2b17d8f","system_id":"levelo_inurba_marseille","lat":43.313291,"lon":5.396838,"is_reserved":false,"is_disabled":false,"rental_uris":{"android":"levelo://app?vid=7b7f8beb-b283-4b93-9842-2e88f2b17d8f","ios":"levelo://app?vid=7b7f8beb-b283-4b93-9842-2e88f2b17d8f"},"vehicle_type_id":"4","last_reported":1717175210,"current_range_meters":14400,"station_id":"ce4bgvp2rcd13ifvqcu0","pricing_plan_id":"cebpf4jnsgd1na2vs0mg"},{"bike_id":"4d3c82a3-c6c6-4d5c-a61a-301f82f9bcdc","system_id":"levelo_inurba_marseille","lat":43.313291,"lon":5.396838,"is_reserved":false,"is_disabled":false,"rental_uris":{"android":"levelo://app?vid=4d3c82a3-c6c6-4d5c-a61a-301f82f9bcdc","ios":"levelo://app?vid=4d3c82a3-c6c6-4d5c-a61a-301f82f9bcdc"},"vehicle_type_id":"4","last_reported":1717175210,"current_range_meters":28400,"station_id":"ce4bgvp2rcd13ifvqcu0","pricing_plan_id":"cebpf4jnsgd1na2vs0mg"},{"bike_id":"17dcb514-145e-42f3-a1bf-15c67cf8b47f","system_id":"levelo_inurba_marseille","lat":43.313291,"lon":5.396838,"is_reserved":false,"is_disabled":false,"rental_uris":{"android":"levelo://app?vid=17dcb514-145e-42f3-a1bf-15c67cf8b47f","ios":"levelo://app?vid=17dcb514-145e-42f3-a1bf-15c67cf8b47f"},"vehicle_type_id":"4","last_reported":1717175210,"current_range_meters":0,"station_id":"ce4bgvp2rcd13ifvqcu0","pricing_plan_id":"cebpf4jnsgd1na2vs0mg"},{"bike_id":"42e00ab4-a8ed-46a0-b68a-a6b221d11a59","system_id":"levelo_inurba_marseille","lat":43.309038,"lon":5.396546,"is_reserved":false,"is_disabled":false,"rental_uris":{"android":"levelo://app?vid=42e00ab4-a8ed-46a0-b68a-a6b221d11a59","ios":"levelo://app?vid=42e00ab4-a8ed-46a0-b68a-a6b221d11a59"},"vehicle_type_id":"4","last_reported":1717175210,"current_range_meters":800,"station_id":"ce4bh012rcd13ifvqcv0","pricing_plan_id":"cebpf4jnsgd1na2vs0mg"},{"bike_id":"39c85072-3299-4a5d-b435-b62d659df49a","system_id":"levelo_inurba_marseille","lat":43.313291,"lon":5.396838,"is_reserved":false,"is_disabled":false,"rental_uris":{"android":"levelo://app?vid=39c85072-3299-4a5d-b435-b62d659df49a","ios":"levelo://app?vid=39c85072-3299-4a5d-b435-b62d659df49a"},"vehicle_type_id":"4","last_reported":1717175210,"current_range_meters":10000,"station_id":"ce4bgvp2rcd13ifvqcu0","pricing_plan_id":"cebpf4jnsgd1na2vs0mg"},{"bike_id":"a6b89b92-3fb5-44b4-a7fe-18a5a430e51b","system_id":"levelo_inurba_marseille","lat":43.309047,"lon":5.396551,"is_reserved":false,"is_disabled":false,"rental_uris":{"android":"levelo://app?vid=a6b89b92-3fb5-44b4-a7fe-18a5a430e51b","ios":"levelo://app?vid=a6b89b92-3fb5-44b4-a7fe-18a5a430e51b"},"vehicle_type_id":"4","last_reported":1717175210,"current_range_meters":18000,"station_id":"ce4bh012rcd13ifvqcv0","pricing_plan_id":"cebpf4jnsgd1na2vs0mg"},{"bike_id":"99996d12-5d99-4504-b96b-e668b2b30456","system_id":"levelo_inurba_marseille","lat":43.313291,"lon":5.396838,"is_reserved":false,"is_disabled":false,"rental_uris":{"android":"levelo://app?vid=99996d12-5d99-4504-b96b-e668b2b30456","ios":"levelo://app?vid=99996d12-5d99-4504-b96b-e668b2b30456"},"vehicle_type_id":"4","last_reported":1717175210,"current_range_meters":10800,"station_id":"ce4bgvp2rcd13ifvqcu0","pricing_plan_id":"cebpf4jnsgd1na2vs0mg"},{"bike_id":"dfdb2ea6-a819-4f11-8668-b967cc624c78","system_id":"levelo_inurba_marseille","lat":43.313291,"lon":5.396838,"is_reserved":false,"is_disabled":false,"rental_uris":{"android":"levelo://app?vid=dfdb2ea6-a819-4f11-8668-b967cc624c78","ios":"levelo://app?vid=dfdb2ea6-a819-4f11-8668-b967cc624c78"},"vehicle_type_id":"4","last_reported":1717175210,"current_range_meters":19200,"station_id":"ce4bgvp2rcd13ifvqcu0","pricing_plan_id":"cebpf4jnsgd1na2vs0mg"},{"bike_id":"2e396872-de43-466d-b083-ab7cbaebf1fb","system_id":"levelo_inurba_marseille","lat":43.309047,"lon":5.396551,"is_reserved":false,"is_disabled":false,"rental_uris":{"android":"levelo://app?vid=2e396872-de43-466d-b083-ab7cbaebf1fb","ios":"levelo://app?vid=2e396872-de43-466d-b083-ab7cbaebf1fb"},"vehicle_type_id":"4","last_reported":1717175210,"current_range_meters":3600,"station_id":"ce4bh012rcd13ifvqcv0","pricing_plan_id":"cebpf4jnsgd1na2vs0mg"},{"bike_id":"8905b989-4769-4b14-95b7-8f9ff98d5235","system_id":"levelo_inurba_marseille","lat":43.309047,"lon":5.396551,"is_reserved":false,"is_disabled":false,"rental_uris":{"android":"levelo://app?vid=8905b989-4769-4b14-95b7-8f9ff98d5235","ios":"levelo://app?vid=8905b989-4769-4b14-95b7-8f9ff98d5235"},"vehicle_type_id":"4","last_reported":1717175210,"current_range_meters":14000,"station_id":"ce4bh012rcd13ifvqcv0","pricing_plan_id":"cebpf4jnsgd1na2vs0mg"},{"bike_id":"1ba3834c-c809-4989-8e10-547722a2018a","system_id":"levelo_inurba_marseille","lat":43.309047,"lon":5.396551,"is_reserved":false,"is_disabled":false,"rental_uris":{"android":"levelo://app?vid=1ba3834c-c809-4989-8e10-547722a2018a","ios":"levelo://app?vid=1ba3834c-c809-4989-8e10-547722a2018a"},"vehicle_type_id":"4","last_reported":1717175210,"current_range_meters":10800,"station_id":"ce4bh012rcd13ifvqcv0","pricing_plan_id":"cebpf4jnsgd1na2vs0mg"},{"bike_id":"3c4c5e9b-99af-4532-aac5-ee0b84c004e8","system_id":"levelo_inurba_marseille","lat":43.29529,"lon":5.385581,"is_reserved":false,"is_disabled":false,"rental_uris":{"android":"levelo://app?vid=3c4c5e9b-99af-4532-aac5-ee0b84c004e8","ios":"levelo://app?vid=3c4c5e9b-99af-4532-aac5-ee0b84c004e8"},"vehicle_type_id":"4","last_reported":1717175210,"current_range_meters":12000,"station_id":"ce4bgih2rcd13ifvqba0","pricing_plan_id":"cebpf4jnsgd1na2vs0mg"},{"bike_id":"0567ea06-b58e-4e6f-b4bc-a303182a020c","system_id":"levelo_inurba_marseille","lat":43.309047,"lon":5.396551,"is_reserved":false,"is_disabled":false,"rental_uris":{"android":"levelo://app?vid=0567ea06-b58e-4e6f-b4bc-a303182a020c","ios":"levelo://app?vid=0567ea06-b58e-4e6f-b4bc-a303182a020c"},"vehicle_type_id":"4","last_reported":1717175210,"current_range_meters":12000,"station_id":"ce4bh012rcd13ifvqcv0","pricing_plan_id":"cebpf4jnsgd1na2vs0mg"},{"bike_id":"26a9dfed-a921-49a4-9e3e-9ea051ca7973","system_id":"levelo_inurba_marseille","lat":43.29529,"lon":5.385581,"is_reserved":false,"is_disabled":false,"rental_uris":{"android":"levelo://app?vid=26a9dfed-a921-49a4-9e3e-9ea051ca7973","ios":"levelo://app?vid=26a9dfed-a921-49a4-9e3e-9ea051ca7973"},"vehicle_type_id":"4","last_reported":1717175210,"current_range_meters":14800,"station_id":"ce4bgih2rcd13ifvqba0","pricing_plan_id":"cebpf4jnsgd1na2vs0mg"},{"bike_id":"994f8d97-52b1-4836-ad88-5420cb6d89f1","system_id":"levelo_inurba_marseille","lat":43.290779,"lon":5.371482,"is_reserved":false,"is_disabled":false,"rental_uris":{"android":"levelo://app?vid=994f8d97-52b1-4836-ad88-5420cb6d89f1","ios":"levelo://app?vid=994f8d97-52b1-4836-ad88-5420cb6d89f1"},"vehicle_type_id":"4","last_reported":1717175210,"current_range_meters":11200,"station_id":"ce4bh5p2rcd13ifvqe4g","pricing_plan_id":"cebpf4jnsgd1na2vs0mg"},{"bike_id":"00976e07-cdf5-4e88-a60f-44ba781a3b0c","system_id":"levelo_inurba_marseille","lat":43.273613,"lon":5.362705,"is_reserved":false,"is_disabled":false,"rental_uris":{"android":"levelo://app?vid=00976e07-cdf5-4e88-a60f-44ba781a3b0c","ios":"levelo://app?vid=00976e07-cdf5-4e88-a60f-44ba781a3b0c"},"vehicle_type_id":"4","last_reported":1717175210,"current_range_meters":21600,"station_id":"ce4bhbh2rcd13ifvqeo0","pricing_plan_id":"cebpf4jnsgd1na2vs0mg"},{"bike_id":"a78e8e97-ed28-4375-84f8-bf863a7064d5","system_id":"levelo_inurba_marseille","lat":43.291671,"lon":5.371575,"is_reserved":false,"is_disabled":false,"rental_uris":{"android":"levelo://app?vid=a78e8e97-ed28-4375-84f8-bf863a7064d5","ios":"levelo://app?vid=a78e8e97-ed28-4375-84f8-bf863a7064d5"},"vehicle_type_id":"4","last_reported":1717175210,"current_range_meters":8800,"station_id":"ce4bha92rcd13ifvqeh0","pricing_plan_id":"cebpf4jnsgd1na2vs0mg"},{"bike_id":"48970a06-d670-48df-835b-7d0027dec3ae","system_id":"levelo_inurba_marseille","lat":43.302008,"lon":5.394694,"is_reserved":false,"is_disabled":false,"rental_uris":{"android":"levelo://app?vid=48970a06-d670-48df-835b-7d0027dec3ae","ios":"levelo://app?vid=48970a06-d670-48df-835b-7d0027dec3ae"},"vehicle_type_id":"4","last_reported":1717175210,"current_range_meters":0,"station_id":"ce4bh0p2rcd13ifvqd70","pricing_plan_id":"cebpf4jnsgd1na2vs0mg"},{"bike_id":"556d7782-a683-40e0-9af1-8e7d2a352aac","system_id":"levelo_inurba_marseille","lat":43.302008,"lon":5.394694,"is_reserved":false,"is_disabled":false,"rental_uris":{"android":"levelo://app?vid=556d7782-a683-40e0-9af1-8e7d2a352aac","ios":"levelo://app?vid=556d7782-a683-40e0-9af1-8e7d2a352aac"},"vehicle_type_id":"4","last_reported":1717175210,"current_range_meters":8400,"station_id":"ce4bh0p2rcd13ifvqd70","pricing_plan_id":"cebpf4jnsgd1na2vs0mg"},{"bike_id":"d700f939-b22c-45ca-9b24-c3d8fa7e493e","system_id":"levelo_inurba_marseille","lat":43.292644,"lon":5.384257,"is_reserved":false,"is_disabled":false,"rental_uris":{"android":"levelo://app?vid=d700f939-b22c-45ca-9b24-c3d8fa7e493e","ios":"levelo://app?vid=d700f939-b22c-45ca-9b24-c3d8fa7e493e"},"vehicle_type_id":"4","last_reported":1717175210,"current_range_meters":0,"station_id":"ce4bh692rcd13ifvqea0","pricing_plan_id":"cebpf4jnsgd1na2vs0mg"},{"bike_id":"6597c870-276f-49a1-8007-3dbd8706cbd3","system_id":"levelo_inurba_marseille","lat":43.294153,"lon":5.386191,"is_reserved":false,"is_disabled":false,"rental_uris":{"android":"levelo://app?vid=6597c870-276f-49a1-8007-3dbd8706cbd3","ios":"levelo://app?vid=6597c870-276f-49a1-8007-3dbd8706cbd3"},"vehicle_type_id":"4","last_reported":1717175210,"current_range_meters":11600,"station_id":"ce4bh2h2rcd13ifvqdh0","pricing_plan_id":"cebpf4jnsgd1na2vs0mg"},{"bike_id":"9586f5e1-cc8c-4e7d-9b78-f23debeafa9e","system_id":"levelo_inurba_marseille","lat":43.294101,"lon":5.386118,"is_reserved":false,"is_disabled":false,"rental_uris":{"android":"levelo://app?vid=9586f5e1-cc8c-4e7d-9b78-f23debeafa9e","ios":"levelo://app?vid=9586f5e1-cc8c-4e7d-9b78-f23debeafa9e"},"vehicle_type_id":"4","last_reported":1717175210,"current_range_meters":0,"station_id":"ce4bh2h2rcd13ifvqdh0","pricing_plan_id":"cebpf4jnsgd1na2vs0mg"},{"bike_id":"34ac5034-4566-4b38-8920-a88722927d79","system_id":"levelo_inurba_marseille","lat":43.294194,"lon":5.386301,"is_reserved":false,"is_disabled":false,"rental_uris":{"android":"levelo://app?vid=34ac5034-4566-4b38-8920-a88722927d79","ios":"levelo://app?vid=34ac5034-4566-4b38-8920-a88722927d79"},"vehicle_type_id":"4","last_reported":1717175210,"current_range_meters":4800,"station_id":"ce4bh2h2rcd13ifvqdh0","pricing_plan_id":"cebpf4jnsgd1na2vs0mg"},{"bike_id":"a51fbf26-c7a6-4d50-84df-ec4a32b8f935","system_id":"levelo_inurba_marseille","lat":43.289468,"lon":5.363719,"is_reserved":false,"is_disabled":false,"rental_uris":{"android":"levelo://app?vid=a51fbf26-c7a6-4d50-84df-ec4a32b8f935","ios":"levelo://app?vid=a51fbf26-c7a6-4d50-84df-ec4a32b8f935"},"vehicle_type_id":"4","last_reported":1717175210,"current_range_meters":0,"station_id":"ce4bhc92rcd13ifvqetg","pricing_plan_id":"cebpf4jnsgd1na2vs0mg"},{"bike_id":"a871f57f-0360-4953-bd3e-2095f51ad6d4","system_id":"levelo_inurba_marseille","lat":43.303046,"lon":5.368981,"is_reserved":false,"is_disabled":false,"rental_uris":{"android":"levelo://app?vid=a871f57f-0360-4953-bd3e-2095f51ad6d4","ios":"levelo://app?vid=a871f57f-0360-4953-bd3e-2095f51ad6d4"},"vehicle_type_id":"4","last_reported":1717175210,"current_range_meters":25200,"station_id":"ce4bgqh2rcd13ifvqc5g","pricing_plan_id":"cebpf4jnsgd1na2vs0mg"},{"bike_id":"0877adf4-70aa-4f41-a45b-c6e45620cb23","system_id":"levelo_inurba_marseille","lat":43.289468,"lon":5.363719,"is_reserved":false,"is_disabled":false,"rental_uris":{"android":"levelo://app?vid=0877adf4-70aa-4f41-a45b-c6e45620cb23","ios":"levelo://app?vid=0877adf4-70aa-4f41-a45b-c6e45620cb23"},"vehicle_type_id":"4","last_reported":1717175210,"current_range_meters":19600,"station_id":"ce4bhc92rcd13ifvqetg","pricing_plan_id":"cebpf4jnsgd1na2vs0mg"},{"bike_id":"5ac977a1-fc80-40fb-8a3d-9305621bfacb","system_id":"levelo_inurba_marseille","lat":43.289468,"lon":5.363719,"is_reserved":false,"is_disabled":false,"rental_uris":{"android":"levelo://app?vid=5ac977a1-fc80-40fb-8a3d-9305621bfacb","ios":"levelo://app?vid=5ac977a1-fc80-40fb-8a3d-9305621bfacb"},"vehicle_type_id":"4","last_reported":1717175210,"current_range_meters":29600,"station_id":"ce4bhc92rcd13ifvqetg","pricing_plan_id":"cebpf4jnsgd1na2vs0mg"},{"bike_id":"e198d10e-8572-4c4c-ba29-8d4f8d8e143d","system_id":"levelo_inurba_marseille","lat":43.290995,"lon":5.381361,"is_reserved":false,"is_disabled":false,"rental_uris":{"android":"levelo://app?vid=e198d10e-8572-4c4c-ba29-8d4f8d8e143d","ios":"levelo://app?vid=e198d10e-8572-4c4c-ba29-8d4f8d8e143d"},"vehicle_type_id":"4","last_reported":1717175210,"current_range_meters":3600,"station_id":"ce4bh512rcd13ifvqe2g","pricing_plan_id":"cebpf4jnsgd1na2vs0mg"},{"bike_id":"93cdb458-be0a-45ff-a79e-6e379ecc0146","system_id":"levelo_inurba_marseille","lat":43.292644,"lon":5.384257,"is_reserved":false,"is_disabled":false,"rental_uris":{"android":"levelo://app?vid=93cdb458-be0a-45ff-a79e-6e379ecc0146","ios":"levelo://app?vid=93cdb458-be0a-45ff-a79e-6e379ecc0146"},"vehicle_type_id":"4","last_reported":1717175210,"current_range_meters":0,"station_id":"ce4bh692rcd13ifvqea0","pricing_plan_id":"cebpf4jnsgd1na2vs0mg"},{"bike_id":"58b1592b-e19a-458c-9083-6aa71f1fbd07","system_id":"levelo_inurba_marseille","lat":43.29274,"lon":5.38439,"is_reserved":false,"is_disabled":false,"rental_uris":{"android":"levelo://app?vid=58b1592b-e19a-458c-9083-6aa71f1fbd07","ios":"levelo://app?vid=58b1592b-e19a-458c-9083-6aa71f1fbd07"},"vehicle_type_id":"4","last_reported":1717175210,"current_range_meters":12000,"station_id":"ce4bh692rcd13ifvqea0","pricing_plan_id":"cebpf4jnsgd1na2vs0mg"},{"bike_id":"980c6b4a-5c53-441b-ba19-482562c0ce0b","system_id":"levelo_inurba_marseille","lat":43.292795,"lon":5.384525,"is_reserved":false,"is_disabled":false,"rental_uris":{"android":"levelo://app?vid=980c6b4a-5c53-441b-ba19-482562c0ce0b","ios":"levelo://app?vid=980c6b4a-5c53-441b-ba19-482562c0ce0b"},"vehicle_type_id":"4","last_reported":1717175210,"current_range_meters":15200,"station_id":"ce4bh692rcd13ifvqea0","pricing_plan_id":"cebpf4jnsgd1na2vs0mg"},{"bike_id":"7318c10f-1d97-40db-bf38-8237c615abc9","system_id":"levelo_inurba_marseille","lat":43.304296,"lon":5.397513,"is_reserved":false,"is_disabled":false,"rental_uris":{"android":"levelo://app?vid=7318c10f-1d97-40db-bf38-8237c615abc9","ios":"levelo://app?vid=7318c10f-1d97-40db-bf38-8237c615abc9"},"vehicle_type_id":"4","last_reported":1717175210,"current_range_meters":6000,"station_id":"ce4bh092rcd13ifvqd20","pricing_plan_id":"cebpf4jnsgd1na2vs0mg"},{"bike_id":"6c14247c-48a8-46ed-8cb4-aa7e565d4a13","system_id":"levelo_inurba_marseille","lat":43.29272,"lon":5.3844,"is_reserved":false,"is_disabled":false,"rental_uris":{"android":"levelo://app?vid=6c14247c-48a8-46ed-8cb4-aa7e565d4a13","ios":"levelo://app?vid=6c14247c-48a8-46ed-8cb4-aa7e565d4a13"},"vehicle_type_id":"4","last_reported":1717175210,"current_range_meters":9200,"station_id":"ce4bh692rcd13ifvqea0","pricing_plan_id":"cebpf4jnsgd1na2vs0mg"},{"bike_id":"a26a2b37-59e0-4ee2-88de-6b13382fa69c","system_id":"levelo_inurba_marseille","lat":43.292644,"lon":5.384257,"is_reserved":false,"is_disabled":false,"rental_uris":{"android":"levelo://app?vid=a26a2b37-59e0-4ee2-88de-6b13382fa69c","ios":"levelo://app?vid=a26a2b37-59e0-4ee2-88de-6b13382fa69c"},"vehicle_type_id":"4","last_reported":1717175210,"current_range_meters":21600,"station_id":"ce4bh692rcd13ifvqea0","pricing_plan_id":"cebpf4jnsgd1na2vs0mg"},{"bike_id":"0b2727a9-6ea9-4686-a110-1d96d7680dd8","system_id":"levelo_inurba_marseille","lat":43.304293,"lon":5.397472,"is_reserved":false,"is_disabled":false,"rental_uris":{"android":"levelo://app?vid=0b2727a9-6ea9-4686-a110-1d96d7680dd8","ios":"levelo://app?vid=0b2727a9-6ea9-4686-a110-1d96d7680dd8"},"vehicle_type_id":"4","last_reported":1717175210,"current_range_meters":0,"station_id":"ce4bh092rcd13ifvqd20","pricing_plan_id":"cebpf4jnsgd1na2vs0mg"},{"bike_id":"ec1613b3-9d73-41c4-ac87-e8b228ff17b7","system_id":"levelo_inurba_marseille","lat":43.292644,"lon":5.384257,"is_reserved":false,"is_disabled":false,"rental_uris":{"android":"levelo://app?vid=ec1613b3-9d73-41c4-ac87-e8b228ff17b7","ios":"levelo://app?vid=ec1613b3-9d73-41c4-ac87-e8b228ff17b7"},"vehicle_type_id":"4","last_reported":1717175210,"current_range_meters":0,"station_id":"ce4bh692rcd13ifvqea0","pricing_plan_id":"cebpf4jnsgd1na2vs0mg"},{"bike_id":"54ff2b29-dee1-4455-af3a-760e944f65c9","system_id":"levelo_inurba_marseille","lat":43.292644,"lon":5.384257,"is_reserved":false,"is_disabled":false,"rental_uris":{"android":"levelo://app?vid=54ff2b29-dee1-4455-af3a-760e944f65c9","ios":"levelo://app?vid=54ff2b29-dee1-4455-af3a-760e944f65c9"},"vehicle_type_id":"4","last_reported":1717175210,"current_range_meters":22400,"station_id":"ce4bh692rcd13ifvqea0","pricing_plan_id":"cebpf4jnsgd1na2vs0mg"},{"bike_id":"e278165e-7a05-4233-ba57-d897eb3661c6","system_id":"levelo_inurba_marseille","lat":43.292642,"lon":5.384254,"is_reserved":false,"is_disabled":false,"rental_uris":{"android":"levelo://app?vid=e278165e-7a05-4233-ba57-d897eb3661c6","ios":"levelo://app?vid=e278165e-7a05-4233-ba57-d897eb3661c6"},"vehicle_type_id":"4","last_reported":1717175210,"current_range_meters":2000,"station_id":"ce4bh692rcd13ifvqea0","pricing_plan_id":"cebpf4jnsgd1na2vs0mg"},{"bike_id":"9abcb088-ed7c-43bd-a796-b15a7cda59e3","system_id":"levelo_inurba_marseille","lat":43.292644,"lon":5.384257,"is_reserved":false,"is_disabled":false,"rental_uris":{"android":"levelo://app?vid=9abcb088-ed7c-43bd-a796-b15a7cda59e3","ios":"levelo://app?vid=9abcb088-ed7c-43bd-a796-b15a7cda59e3"},"vehicle_type_id":"4","last_reported":1717175210,"current_range_meters":27200,"station_id":"ce4bh692rcd13ifvqea0","pricing_plan_id":"cebpf4jnsgd1na2vs0mg"},{"bike_id":"5d84cd4f-5555-4987-bd34-2ab41c8781b2","system_id":"levelo_inurba_marseille","lat":43.292644,"lon":5.384257,"is_reserved":false,"is_disabled":false,"rental_uris":{"android":"levelo://app?vid=5d84cd4f-5555-4987-bd34-2ab41c8781b2","ios":"levelo://app?vid=5d84cd4f-5555-4987-bd34-2ab41c8781b2"},"vehicle_type_id":"4","last_reported":1717175210,"current_range_meters":0,"station_id":"ce4bh692rcd13ifvqea0","pricing_plan_id":"cebpf4jnsgd1na2vs0mg"},{"bike_id":"32b09314-a188-41b1-88d5-756caacf5a41","system_id":"levelo_inurba_marseille","lat":43.292644,"lon":5.384257,"is_reserved":false,"is_disabled":false,"rental_uris":{"android":"levelo://app?vid=32b09314-a188-41b1-88d5-756caacf5a41","ios":"levelo://app?vid=32b09314-a188-41b1-88d5-756caacf5a41"},"vehicle_type_id":"4","last_reported":1717175210,"current_range_meters":0,"station_id":"ce4bh692rcd13ifvqea0","pricing_plan_id":"cebpf4jnsgd1na2vs0mg"},{"bike_id":"0ed8f23f-fdcd-4b9a-b1d3-86de91af58a9","system_id":"levelo_inurba_marseille","lat":43.29265,"lon":5.38457,"is_reserved":false,"is_disabled":false,"rental_uris":{"android":"levelo://app?vid=0ed8f23f-fdcd-4b9a-b1d3-86de91af58a9","ios":"levelo://app?vid=0ed8f23f-fdcd-4b9a-b1d3-86de91af58a9"},"vehicle_type_id":"4","last_reported":1717175210,"current_range_meters":0,"station_id":"ce4bh692rcd13ifvqea0","pricing_plan_id":"cebpf4jnsgd1na2vs0mg"},{"bike_id":"dead85a2-d699-482a-a08d-0a2e07452728","system_id":"levelo_inurba_marseille","lat":43.304296,"lon":5.397513,"is_reserved":false,"is_disabled":false,"rental_uris":{"android":"levelo://app?vid=dead85a2-d699-482a-a08d-0a2e07452728","ios":"levelo://app?vid=dead85a2-d699-482a-a08d-0a2e07452728"},"vehicle_type_id":"4","last_reported":1717175210,"current_range_meters":7600,"station_id":"ce4bh092rcd13ifvqd20","pricing_plan_id":"cebpf4jnsgd1na2vs0mg"},{"bike_id":"bfc203da-4478-4e35-a993-5921a85e7637","system_id":"levelo_inurba_marseille","lat":43.292749,"lon":5.368398,"is_reserved":false,"is_disabled":false,"rental_uris":{"android":"levelo://app?vid=bfc203da-4478-4e35-a993-5921a85e7637","ios":"levelo://app?vid=bfc203da-4478-4e35-a993-5921a85e7637"},"vehicle_type_id":"4","last_reported":1717175210,"current_range_meters":30000,"station_id":"ce4bhbp2rcd13ifvqesg","pricing_plan_id":"cebpf4jnsgd1na2vs0mg"},{"bike_id":"f5f05b94-e21c-4e76-8b52-63f22ee5678e","system_id":"levelo_inurba_marseille","lat":43.290104,"lon":5.356111,"is_reserved":false,"is_disabled":false,"rental_uris":{"android":"levelo://app?vid=f5f05b94-e21c-4e76-8b52-63f22ee5678e","ios":"levelo://app?vid=f5f05b94-e21c-4e76-8b52-63f22ee5678e"},"vehicle_type_id":"4","last_reported":1717175210,"current_range_meters":12400,"station_id":"ce4bhb92rcd13ifvqen0","pricing_plan_id":"cebpf4jnsgd1na2vs0mg"},{"bike_id":"cefd41f3-0a47-45e0-8797-f4b1a6fec64c","system_id":"levelo_inurba_marseille","lat":43.290104,"lon":5.356111,"is_reserved":false,"is_disabled":false,"rental_uris":{"android":"levelo://app?vid=cefd41f3-0a47-45e0-8797-f4b1a6fec64c","ios":"levelo://app?vid=cefd41f3-0a47-45e0-8797-f4b1a6fec64c"},"vehicle_type_id":"4","last_reported":1717175210,"current_range_meters":6400,"station_id":"ce4bhb92rcd13ifvqen0","pricing_plan_id":"cebpf4jnsgd1na2vs0mg"},{"bike_id":"6d0ff26a-372c-4fb7-82c3-c776e8e71ffc","system_id":"levelo_inurba_marseille","lat":43.290103,"lon":5.356114,"is_reserved":false,"is_disabled":false,"rental_uris":{"android":"levelo://app?vid=6d0ff26a-372c-4fb7-82c3-c776e8e71ffc","ios":"levelo://app?vid=6d0ff26a-372c-4fb7-82c3-c776e8e71ffc"},"vehicle_type_id":"4","last_reported":1717175210,"current_range_meters":0,"station_id":"ce4bhb92rcd13ifvqen0","pricing_plan_id":"cebpf4jnsgd1na2vs0mg"},{"bike_id":"5b1b2fb1-21ec-43d6-a9ff-35a326626a08","system_id":"levelo_inurba_marseille","lat":43.29001,"lon":5.35609,"is_reserved":false,"is_disabled":false,"rental_uris":{"android":"levelo://app?vid=5b1b2fb1-21ec-43d6-a9ff-35a326626a08","ios":"levelo://app?vid=5b1b2fb1-21ec-43d6-a9ff-35a326626a08"},"vehicle_type_id":"4","last_reported":1717175210,"current_range_meters":13200,"station_id":"","pricing_plan_id":"cebpf4jnsgd1na2vs0mg"},{"bike_id":"f238f63f-08bf-492f-a706-32258509e83d","system_id":"levelo_inurba_marseille","lat":43.290995,"lon":5.381361,"is_reserved":false,"is_disabled":false,"rental_uris":{"android":"levelo://app?vid=f238f63f-08bf-492f-a706-32258509e83d","ios":"levelo://app?vid=f238f63f-08bf-492f-a706-32258509e83d"},"vehicle_type_id":"4","last_reported":1717175210,"current_range_meters":0,"station_id":"ce4bh512rcd13ifvqe2g","pricing_plan_id":"cebpf4jnsgd1na2vs0mg"},{"bike_id":"c88a227b-1cae-4662-bbad-fe4ececdef9a","system_id":"levelo_inurba_marseille","lat":43.290995,"lon":5.381361,"is_reserved":false,"is_disabled":false,"rental_uris":{"android":"levelo://app?vid=c88a227b-1cae-4662-bbad-fe4ececdef9a","ios":"levelo://app?vid=c88a227b-1cae-4662-bbad-fe4ececdef9a"},"vehicle_type_id":"4","last_reported":1717175210,"current_range_meters":2000,"station_id":"ce4bh512rcd13ifvqe2g","pricing_plan_id":"cebpf4jnsgd1na2vs0mg"},{"bike_id":"4e204817-978f-4dd3-9aaa-3882291382d8","system_id":"levelo_inurba_marseille","lat":43.290995,"lon":5.381361,"is_reserved":false,"is_disabled":false,"rental_uris":{"android":"levelo://app?vid=4e204817-978f-4dd3-9aaa-3882291382d8","ios":"levelo://app?vid=4e204817-978f-4dd3-9aaa-3882291382d8"},"vehicle_type_id":"4","last_reported":1717175210,"current_range_meters":25600,"station_id":"ce4bh512rcd13ifvqe2g","pricing_plan_id":"cebpf4jnsgd1na2vs0mg"},{"bike_id":"d2cc2c6a-5c34-4a90-beab-dd3f7954a8fa","system_id":"levelo_inurba_marseille","lat":43.29101,"lon":5.38144,"is_reserved":false,"is_disabled":false,"rental_uris":{"android":"levelo://app?vid=d2cc2c6a-5c34-4a90-beab-dd3f7954a8fa","ios":"levelo://app?vid=d2cc2c6a-5c34-4a90-beab-dd3f7954a8fa"},"vehicle_type_id":"4","last_reported":1717175210,"current_range_meters":0,"station_id":"ce4bh512rcd13ifvqe2g","pricing_plan_id":"cebpf4jnsgd1na2vs0mg"},{"bike_id":"a3cd8ec4-cb39-4512-84df-1178e96e52b1","system_id":"levelo_inurba_marseille","lat":43.290991,"lon":5.381553,"is_reserved":false,"is_disabled":false,"rental_uris":{"android":"levelo://app?vid=a3cd8ec4-cb39-4512-84df-1178e96e52b1","ios":"levelo://app?vid=a3cd8ec4-cb39-4512-84df-1178e96e52b1"},"vehicle_type_id":"4","last_reported":1717175210,"current_range_meters":0,"station_id":"ce4bh512rcd13ifvqe2g","pricing_plan_id":"cebpf4jnsgd1na2vs0mg"},{"bike_id":"41e01532-322f-4479-a408-e789c7baad04","system_id":"levelo_inurba_marseille","lat":43.295269,"lon":5.39002,"is_reserved":false,"is_disabled":false,"rental_uris":{"android":"levelo://app?vid=41e01532-322f-4479-a408-e789c7baad04","ios":"levelo://app?vid=41e01532-322f-4479-a408-e789c7baad04"},"vehicle_type_id":"4","last_reported":1717175210,"current_range_meters":20000,"station_id":"ce4bh3p2rcd13ifvqdp0","pricing_plan_id":"cebpf4jnsgd1na2vs0mg"},{"bike_id":"547a5959-5e59-4fe2-bb82-712606a65082","system_id":"levelo_inurba_marseille","lat":43.29796,"lon":5.393462,"is_reserved":false,"is_disabled":false,"rental_uris":{"android":"levelo://app?vid=547a5959-5e59-4fe2-bb82-712606a65082","ios":"levelo://app?vid=547a5959-5e59-4fe2-bb82-712606a65082"},"vehicle_type_id":"4","last_reported":1717175210,"current_range_meters":0,"station_id":"chh1huq6cuj3fo74tm60","pricing_plan_id":"cebpf4jnsgd1na2vs0mg"},{"bike_id":"2dcbf40d-b920-4d58-85e3-7daae779b31d","system_id":"levelo_inurba_marseille","lat":43.297823,"lon":5.393339,"is_reserved":false,"is_disabled":false,"rental_uris":{"android":"levelo://app?vid=2dcbf40d-b920-4d58-85e3-7daae779b31d","ios":"levelo://app?vid=2dcbf40d-b920-4d58-85e3-7daae779b31d"},"vehicle_type_id":"4","last_reported":1717175210,"current_range_meters":1200,"station_id":"chh1huq6cuj3fo74tm60","pricing_plan_id":"cebpf4jnsgd1na2vs0mg"},{"bike_id":"3cafbf8e-b279-41e5-a0c0-0411cdf0150f","system_id":"levelo_inurba_marseille","lat":43.295316,"lon":5.390274,"is_reserved":false,"is_disabled":false,"rental_uris":{"android":"levelo://app?vid=3cafbf8e-b279-41e5-a0c0-0411cdf0150f","ios":"levelo://app?vid=3cafbf8e-b279-41e5-a0c0-0411cdf0150f"},"vehicle_type_id":"4","last_reported":1717175210,"current_range_meters":0,"station_id":"ce4bh3p2rcd13ifvqdp0","pricing_plan_id":"cebpf4jnsgd1na2vs0mg"},{"bike_id":"b40e7a19-d7ab-44c1-b44d-f86c23725d41","system_id":"levelo_inurba_marseille","lat":43.295311,"lon":5.390326,"is_reserved":false,"is_disabled":false,"rental_uris":{"android":"levelo://app?vid=b40e7a19-d7ab-44c1-b44d-f86c23725d41","ios":"levelo://app?vid=b40e7a19-d7ab-44c1-b44d-f86c23725d41"},"vehicle_type_id":"4","last_reported":1717175210,"current_range_meters":0,"station_id":"ce4bh3p2rcd13ifvqdp0","pricing_plan_id":"cebpf4jnsgd1na2vs0mg"},{"bike_id":"a96d574a-0f6e-4a7f-8132-23bac0ee7b0b","system_id":"levelo_inurba_marseille","lat":43.29519,"lon":5.39022,"is_reserved":false,"is_disabled":false,"rental_uris":{"android":"levelo://app?vid=a96d574a-0f6e-4a7f-8132-23bac0ee7b0b","ios":"levelo://app?vid=a96d574a-0f6e-4a7f-8132-23bac0ee7b0b"},"vehicle_type_id":"4","last_reported":1717175210,"current_range_meters":26000,"station_id":"ce4bh3p2rcd13ifvqdp0","pricing_plan_id":"cebpf4jnsgd1na2vs0mg"},{"bike_id":"74834557-a02a-45a6-903b-7d1996bef282","system_id":"levelo_inurba_marseille","lat":43.330442,"lon":5.389148,"is_reserved":false,"is_disabled":false,"rental_uris":{"android":"levelo://app?vid=74834557-a02a-45a6-903b-7d1996bef282","ios":"levelo://app?vid=74834557-a02a-45a6-903b-7d1996bef282"},"vehicle_type_id":"4","last_reported":1717175210,"current_range_meters":5200,"station_id":"ce4bhr92rcd13ifvqhrg","pricing_plan_id":"cebpf4jnsgd1na2vs0mg"},{"bike_id":"7d3483f5-3449-400e-9826-ae452575468e","system_id":"levelo_inurba_marseille","lat":43.330442,"lon":5.389148,"is_reserved":false,"is_disabled":false,"rental_uris":{"android":"levelo://app?vid=7d3483f5-3449-400e-9826-ae452575468e","ios":"levelo://app?vid=7d3483f5-3449-400e-9826-ae452575468e"},"vehicle_type_id":"4","last_reported":1717175210,"current_range_meters":25600,"station_id":"ce4bhr92rcd13ifvqhrg","pricing_plan_id":"cebpf4jnsgd1na2vs0mg"},{"bike_id":"2d8a5379-9694-4acd-b3e9-3a9a6eeeb52c","system_id":"levelo_inurba_marseille","lat":43.306092,"lon":5.399386,"is_reserved":false,"is_disabled":false,"rental_uris":{"android":"levelo://app?vid=2d8a5379-9694-4acd-b3e9-3a9a6eeeb52c","ios":"levelo://app?vid=2d8a5379-9694-4acd-b3e9-3a9a6eeeb52c"},"vehicle_type_id":"4","last_reported":1717175210,"current_range_meters":0,"station_id":"","pricing_plan_id":"cebpf4jnsgd1na2vs0mg"},{"bike_id":"39d6eb9c-7f66-41fd-9b7e-b373202cfc40","system_id":"levelo_inurba_marseille","lat":43.295169,"lon":5.390426,"is_reserved":false,"is_disabled":false,"rental_uris":{"android":"levelo://app?vid=39d6eb9c-7f66-41fd-9b7e-b373202cfc40","ios":"levelo://app?vid=39d6eb9c-7f66-41fd-9b7e-b373202cfc40"},"vehicle_type_id":"4","last_reported":1717175210,"current_range_meters":22400,"station_id":"ce4bh3p2rcd13ifvqdp0","pricing_plan_id":"cebpf4jnsgd1na2vs0mg"},{"bike_id":"82b83079-e3e7-4f31-9e44-b3d001c0f69f","system_id":"levelo_inurba_marseille","lat":43.28856,"lon":5.358371,"is_reserved":false,"is_disabled":false,"rental_uris":{"android":"levelo://app?vid=82b83079-e3e7-4f31-9e44-b3d001c0f69f","ios":"levelo://app?vid=82b83079-e3e7-4f31-9e44-b3d001c0f69f"},"vehicle_type_id":"4","last_reported":1717175210,"current_range_meters":0,"station_id":"ce4bhb12rcd13ifvqem0","pricing_plan_id":"cebpf4jnsgd1na2vs0mg"},{"bike_id":"03714d1b-eac1-4e39-af3b-5cb9b3f2452e","system_id":"levelo_inurba_marseille","lat":43.31282,"lon":5.4017,"is_reserved":false,"is_disabled":false,"rental_uris":{"android":"levelo://app?vid=03714d1b-eac1-4e39-af3b-5cb9b3f2452e","ios":"levelo://app?vid=03714d1b-eac1-4e39-af3b-5cb9b3f2452e"},"vehicle_type_id":"4","last_reported":1717175210,"current_range_meters":4800,"station_id":"ce4bh092rcd13ifvqd30","pricing_plan_id":"cebpf4jnsgd1na2vs0mg"},{"bike_id":"06d0e070-a770-406a-a154-112ba1d4b4c8","system_id":"levelo_inurba_marseille","lat":43.312609,"lon":5.401662,"is_reserved":false,"is_disabled":false,"rental_uris":{"android":"levelo://app?vid=06d0e070-a770-406a-a154-112ba1d4b4c8","ios":"levelo://app?vid=06d0e070-a770-406a-a154-112ba1d4b4c8"},"vehicle_type_id":"4","last_reported":1717175210,"current_range_meters":2800,"station_id":"ce4bh092rcd13ifvqd30","pricing_plan_id":"cebpf4jnsgd1na2vs0mg"},{"bike_id":"395f757e-b245-47ac-96e5-f3d798421515","system_id":"levelo_inurba_marseille","lat":43.309356,"lon":5.401413,"is_reserved":false,"is_disabled":false,"rental_uris":{"android":"levelo://app?vid=395f757e-b245-47ac-96e5-f3d798421515","ios":"levelo://app?vid=395f757e-b245-47ac-96e5-f3d798421515"},"vehicle_type_id":"4","last_reported":1717175210,"current_range_meters":0,"station_id":"ce4bgvp2rcd13ifvqct0","pricing_plan_id":"cebpf4jnsgd1na2vs0mg"},{"bike_id":"fd6a7cb5-4d40-46b3-9863-93c47066b234","system_id":"levelo_inurba_marseille","lat":43.309371,"lon":5.401449,"is_reserved":false,"is_disabled":false,"rental_uris":{"android":"levelo://app?vid=fd6a7cb5-4d40-46b3-9863-93c47066b234","ios":"levelo://app?vid=fd6a7cb5-4d40-46b3-9863-93c47066b234"},"vehicle_type_id":"4","last_reported":1717175210,"current_range_meters":5600,"station_id":"ce4bgvp2rcd13ifvqct0","pricing_plan_id":"cebpf4jnsgd1na2vs0mg"},{"bike_id":"e81b44da-0343-46be-8765-b9f8c37aeb73","system_id":"levelo_inurba_marseille","lat":43.337484,"lon":5.374518,"is_reserved":false,"is_disabled":false,"rental_uris":{"android":"levelo://app?vid=e81b44da-0343-46be-8765-b9f8c37aeb73","ios":"levelo://app?vid=e81b44da-0343-46be-8765-b9f8c37aeb73"},"vehicle_type_id":"4","last_reported":1717175210,"current_range_meters":29600,"station_id":"","pricing_plan_id":"cebpf4jnsgd1na2vs0mg"},{"bike_id":"bb14cbf2-00ff-4d17-b7c7-6e61c6bcbcda","system_id":"levelo_inurba_marseille","lat":43.309344,"lon":5.401474,"is_reserved":false,"is_disabled":false,"rental_uris":{"android":"levelo://app?vid=bb14cbf2-00ff-4d17-b7c7-6e61c6bcbcda","ios":"levelo://app?vid=bb14cbf2-00ff-4d17-b7c7-6e61c6bcbcda"},"vehicle_type_id":"4","last_reported":1717175210,"current_range_meters":14400,"station_id":"ce4bgvp2rcd13ifvqct0","pricing_plan_id":"cebpf4jnsgd1na2vs0mg"},{"bike_id":"66248d9b-2147-4990-a840-c2ae886a5a82","system_id":"levelo_inurba_marseille","lat":43.28039,"lon":5.369297,"is_reserved":false,"is_disabled":false,"rental_uris":{"android":"levelo://app?vid=66248d9b-2147-4990-a840-c2ae886a5a82","ios":"levelo://app?vid=66248d9b-2147-4990-a840-c2ae886a5a82"},"vehicle_type_id":"4","last_reported":1717175210,"current_range_meters":2000,"station_id":"ce4bha12rcd13ifvqef0","pricing_plan_id":"cebpf4jnsgd1na2vs0mg"},{"bike_id":"368547c5-2d6e-494a-a87a-dbd410cb27c7","system_id":"levelo_inurba_marseille","lat":43.33751,"lon":5.37482,"is_reserved":false,"is_disabled":false,"rental_uris":{"android":"levelo://app?vid=368547c5-2d6e-494a-a87a-dbd410cb27c7","ios":"levelo://app?vid=368547c5-2d6e-494a-a87a-dbd410cb27c7"},"vehicle_type_id":"4","last_reported":1717175210,"current_range_meters":16400,"station_id":"","pricing_plan_id":"cebpf4jnsgd1na2vs0mg"},{"bike_id":"c088a6ee-53d1-4362-b62e-fb6828fc1587","system_id":"levelo_inurba_marseille","lat":43.33756,"lon":5.37461,"is_reserved":false,"is_disabled":false,"rental_uris":{"android":"levelo://app?vid=c088a6ee-53d1-4362-b62e-fb6828fc1587","ios":"levelo://app?vid=c088a6ee-53d1-4362-b62e-fb6828fc1587"},"vehicle_type_id":"4","last_reported":1717175210,"current_range_meters":16400,"station_id":"","pricing_plan_id":"cebpf4jnsgd1na2vs0mg"},{"bike_id":"a3ea2339-7f28-4c31-b37f-725883015fe3","system_id":"levelo_inurba_marseille","lat":43.312955,"lon":5.401934,"is_reserved":false,"is_disabled":false,"rental_uris":{"android":"levelo://app?vid=a3ea2339-7f28-4c31-b37f-725883015fe3","ios":"levelo://app?vid=a3ea2339-7f28-4c31-b37f-725883015fe3"},"vehicle_type_id":"4","last_reported":1717175210,"current_range_meters":4000,"station_id":"ce4bh092rcd13ifvqd30","pricing_plan_id":"cebpf4jnsgd1na2vs0mg"},{"bike_id":"149f0482-f59b-4042-a857-b56e663233cc","system_id":"levelo_inurba_marseille","lat":43.30642,"lon":5.401031,"is_reserved":false,"is_disabled":false,"rental_uris":{"android":"levelo://app?vid=149f0482-f59b-4042-a857-b56e663233cc","ios":"levelo://app?vid=149f0482-f59b-4042-a857-b56e663233cc"},"vehicle_type_id":"4","last_reported":1717175210,"current_range_meters":29200,"station_id":"ce4bh112rcd13ifvqda0","pricing_plan_id":"cebpf4jnsgd1na2vs0mg"},{"bike_id":"69c396ae-5706-41b6-a372-c445a9078895","system_id":"levelo_inurba_marseille","lat":43.30642,"lon":5.401031,"is_reserved":false,"is_disabled":false,"rental_uris":{"android":"levelo://app?vid=69c396ae-5706-41b6-a372-c445a9078895","ios":"levelo://app?vid=69c396ae-5706-41b6-a372-c445a9078895"},"vehicle_type_id":"4","last_reported":1717175210,"current_range_meters":16400,"station_id":"ce4bh112rcd13ifvqda0","pricing_plan_id":"cebpf4jnsgd1na2vs0mg"},{"bike_id":"d28f52d4-9d7c-4217-b789-00e02302b9a4","system_id":"levelo_inurba_marseille","lat":43.306411,"lon":5.400858,"is_reserved":false,"is_disabled":false,"rental_uris":{"android":"levelo://app?vid=d28f52d4-9d7c-4217-b789-00e02302b9a4","ios":"levelo://app?vid=d28f52d4-9d7c-4217-b789-00e02302b9a4"},"vehicle_type_id":"4","last_reported":1717175210,"current_range_meters":0,"station_id":"ce4bh112rcd13ifvqda0","pricing_plan_id":"cebpf4jnsgd1na2vs0mg"},