{"last_updated":1745924909,"ttl":60,"version":"2.2","data":{"bikes":[{"bike_id":"1b360c96-bb92-4526-9878-4be17eb75010","system_id":"levelo_inurba_marseille","lat":43.25502,"lon":5.3765,"is_reserved":false,"is_disabled":false,"rental_uris":{"android":"levelo://app?vid=1b360c96-bb92-4526-9878-4be17eb75010","ios":"levelo://app?vid=1b360c96-bb92-4526-9878-4be17eb75010"},"vehicle_type_id":"4","last_reported":1745924909,"current_range_meters":2000,"station_id":"ce4bhh12rcd13ifvqff0","pricing_plan_id":"cebpf4jnsgd1na2vs0mg"},{"bike_id":"06a1c6ea-0b9f-47fc-a9f1-ddf035e8f4aa","system_id":"levelo_inurba_marseille","lat":43.295197,"lon":5.393982,"is_reserved":false,"is_disabled":false,"rental_uris":{"android":"levelo://app?vid=06a1c6ea-0b9f-47fc-a9f1-ddf035e8f4aa","ios":"levelo://app?vid=06a1c6ea-0b9f-47fc-a9f1-ddf035e8f4aa"},"vehicle_type_id":"4","last_reported":1745924909,"current_range_meters":3200,"station_id":"ce4bh292rcd13ifvqdf0","pricing_plan_id":"cebpf4jnsgd1na2vs0mg"},{"bike_id":"ad39bbde-8bae-4084-9809-8a6226a1a735","system_id":"levelo_inurba_marseille","lat":43.30299,"lon":5.36874,"is_reserved":false,"is_disabled":false,"rental_uris":{"android":"levelo://app?vid=ad39bbde-8bae-4084-9809-8a6226a1a735","ios":"levelo://app?vid=ad39bbde-8bae-4084-9809-8a6226a1a735"},"vehicle_type_id":"4","last_reported":1745924909,"current_range_meters":3200,"station_id":"ce4bgqh2rcd13ifvqc5g","pricing_plan_id":"cebpf4jnsgd1na2vs0mg"},{"bike_id":"763b139a-b2b4-49ed-ba2c-5d0c508d9638","system_id":"levelo_inurba_marseille","lat":43.297826,"lon":5.371045,"is_reserved":false,"is_disabled":false,"rental_uris":{"android":"levelo://app?vid=763b139a-b2b4-49ed-ba2c-5d0c508d9638","ios":"levelo://app?vid=763b139a-b2b4-49ed-ba2c-5d0c508d9638"},"vehicle_type_id":"4","last_reported":1745924909,"current_range_meters":3600,"station_id":"ce4bgop2rcd13ifvqc1g","pricing_plan_id":"cebpf4jnsgd1na2vs0mg"},{"bike_id":"02b92339-9bc1-49ee-ac5c-1c3d28d11a4e","system_id":"levelo_inurba_marseille","lat":43.29309,"lon":5.37184,"is_reserved":false,"is_disabled":false,"rental_uris":{"android":"levelo://app?vid=02b92339-9bc1-49ee-ac5c-1c3d28d11a4e","ios":"levelo://app?vid=02b92339-9bc1-49ee-ac5c-1c3d28d11a4e"},"vehicle_type_id":"4","last_reported":1745924909,"current_range_meters":3600,"station_id":"ce4bgh92rcd13ifvqb40","pricing_plan_id":"cebpf4jnsgd1na2vs0mg"},{"bike_id":"7fa02c5a-4aab-424d-a9a0-0061d7355f6b","system_id":"levelo_inurba_marseille","lat":43.31481,"lon":5.37305,"is_reserved":false,"is_disabled":false,"rental_uris":{"android":"levelo://app?vid=7fa02c5a-4aab-424d-a9a0-0061d7355f6b","ios":"levelo://app?vid=7fa02c5a-4aab-424d-a9a0-0061d7355f6b"},"vehicle_type_id":"4","last_reported":1745924909,"current_range_meters":4000,"station_id":"ce4bgt12rcd13ifvqcd0","pricing_plan_id":"cebpf4jnsgd1na2vs0mg"},{"bike_id":"a4c8a335-745b-4d95-97e0-7bac3cb18549","system_id":"levelo_inurba_marseille","lat":43.28134,"lon":5.39849,"is_reserved":false,"is_disabled":false,"rental_uris":{"android":"levelo://app?vid=a4c8a335-745b-4d95-97e0-7bac3cb18549","ios":"levelo://app?vid=a4c8a335-745b-4d95-97e0-7bac3cb18549"},"vehicle_type_id":"4","last_reported":1745924909,"current_range_meters":4000,"station_id":"","pricing_plan_id":"cebpf4jnsgd1na2vs0mg"},{"bike_id":"ec658b61-83b3-4572-ada5-495b97ecdcd0","system_id":"levelo_inurba_marseille","lat":43.24549,"lon":5.39527,"is_reserved":false,"is_disabled":false,"rental_uris":{"android":"levelo://app?vid=ec658b61-83b3-4572-ada5-495b97ecdcd0","ios":"levelo://app?vid=ec658b61-83b3-4572-ada5-495b97ecdcd0"},"vehicle_type_id":"4","last_reported":1745924909,"current_range_meters":4000,"station_id":"ce4bhlp2rcd13ifvqgjg","pricing_plan_id":"cebpf4jnsgd1na2vs0mg"},{"bike_id":"f3686219-1868-4026-aece-a6fab8df7aa4","system_id":"levelo_inurba_marseille","lat":43.29032,"lon":5.3997,"is_reserved":false,"is_disabled":false,"rental_uris":{"android":"levelo://app?vid=f3686219-1868-4026-aece-a6fab8df7aa4","ios":"levelo://app?vid=f3686219-1868-4026-aece-a6fab8df7aa4"},"vehicle_type_id":"4","last_reported":1745924909,"current_range_meters":4400,"station_id":"ce4bh392rcd13ifvqdm0","pricing_plan_id":"cebpf4jnsgd1na2vs0mg"},{"bike_id":"53de78d7-d874-4d94-8b98-ab6165993028","system_id":"levelo_inurba_marseille","lat":43.250402,"lon":5.389532,"is_reserved":false,"is_disabled":false,"rental_uris":{"android":"levelo://app?vid=53de78d7-d874-4d94-8b98-ab6165993028","ios":"levelo://app?vid=53de78d7-d874-4d94-8b98-ab6165993028"},"vehicle_type_id":"4","last_reported":1745924909,"current_range_meters":4400,"station_id":"ce4bhgp2rcd13ifvqfd0","pricing_plan_id":"cebpf4jnsgd1na2vs0mg"},{"bike_id":"1a50920f-0637-4930-9a57-5655dfac244c","system_id":"levelo_inurba_marseille","lat":43.30475,"lon":5.37904,"is_reserved":false,"is_disabled":false,"rental_uris":{"android":"levelo://app?vid=1a50920f-0637-4930-9a57-5655dfac244c","ios":"levelo://app?vid=1a50920f-0637-4930-9a57-5655dfac244c"},"vehicle_type_id":"4","last_reported":1745924909,"current_range_meters":4400,"station_id":"ce4bgup2rcd13ifvqcn0","pricing_plan_id":"cebpf4jnsgd1na2vs0mg"},{"bike_id":"24272c51-0c4c-4128-9366-1e47fab4ff48","system_id":"levelo_inurba_marseille","lat":43.31342,"lon":5.36728,"is_reserved":false,"is_disabled":false,"rental_uris":{"android":"levelo://app?vid=24272c51-0c4c-4128-9366-1e47fab4ff48","ios":"levelo://app?vid=24272c51-0c4c-4128-9366-1e47fab4ff48"},"vehicle_type_id":"4","last_reported":1745924909,"current_range_meters":5600,"station_id":"ce4bgr92rcd13ifvqc6g","pricing_plan_id":"cebpf4jnsgd1na2vs0mg"},{"bike_id":"da530b5a-fcae-47a4-97dc-00c13a14da93","system_id":"levelo_inurba_marseille","lat":43.254934,"lon":5.375178,"is_reserved":false,"is_disabled":false,"rental_uris":{"android":"levelo://app?vid=da530b5a-fcae-47a4-97dc-00c13a14da93","ios":"levelo://app?vid=da530b5a-fcae-47a4-97dc-00c13a14da93"},"vehicle_type_id":"4","last_reported":1745924909,"current_range_meters":5600,"station_id":"ce4bhgh2rcd13ifvqfa0","pricing_plan_id":"cebpf4jnsgd1na2vs0mg"},{"bike_id":"780d2cb2-ff60-4602-a90e-d20d1957e35f","system_id":"levelo_inurba_marseille","lat":43.28685,"lon":5.38653,"is_reserved":false,"is_disabled":false,"rental_uris":{"android":"levelo://app?vid=780d2cb2-ff60-4602-a90e-d20d1957e35f","ios":"levelo://app?vid=780d2cb2-ff60-4602-a90e-d20d1957e35f"},"vehicle_type_id":"4","last_reported":1745924909,"current_range_meters":6000,"station_id":"ce4bh492rcd13ifvqdug","pricing_plan_id":"cebpf4jnsgd1na2vs0mg"},{"bike_id":"774f1868-bb65-4bec-a60c-4d994d59def9","system_id":"levelo_inurba_marseille","lat":43.31082,"lon":5.38354,"is_reserved":false,"is_disabled":false,"rental_uris":{"android":"levelo://app?vid=774f1868-bb65-4bec-a60c-4d994d59def9","ios":"levelo://app?vid=774f1868-bb65-4bec-a60c-4d994d59def9"},"vehicle_type_id":"4","last_reported":1745924909,"current_range_meters":6000,"station_id":"ce4bgv92rcd13ifvqcr0","pricing_plan_id":"cebpf4jnsgd1na2vs0mg"},{"bike_id":"26deac1f-c435-40bc-9469-9ae0b266bb77","system_id":"levelo_inurba_marseille","lat":43.302011,"lon":5.384605,"is_reserved":false,"is_disabled":false,"rental_uris":{"android":"levelo://app?vid=26deac1f-c435-40bc-9469-9ae0b266bb77","ios":"levelo://app?vid=26deac1f-c435-40bc-9469-9ae0b266bb77"},"vehicle_type_id":"4","last_reported":1745924909,"current_range_meters":6000,"station_id":"","pricing_plan_id":"cebpf4jnsgd1na2vs0mg"},{"bike_id":"f9d81e25-b88a-49d6-9d12-aa8fc65e8258","system_id":"levelo_inurba_marseille","lat":43.28356,"lon":5.38098,"is_reserved":false,"is_disabled":false,"rental_uris":{"android":"levelo://app?vid=f9d81e25-b88a-49d6-9d12-aa8fc65e8258","ios":"levelo://app?vid=f9d81e25-b88a-49d6-9d12-aa8fc65e8258"},"vehicle_type_id":"4","last_reported":1745924909,"current_range_meters":6000,"station_id":"ce4bh412rcd13ifvqdr0","pricing_plan_id":"cebpf4jnsgd1na2vs0mg"},{"bike_id":"95479e5e-3b25-440d-bd77-79467bee1ff6","system_id":"levelo_inurba_marseille","lat":43.29641,"lon":5.40598,"is_reserved":false,"is_disabled":true,"rental_uris":{"android":"levelo://app?vid=95479e5e-3b25-440d-bd77-79467bee1ff6","ios":"levelo://app?vid=95479e5e-3b25-440d-bd77-79467bee1ff6"},"vehicle_type_id":"4","last_reported":1745924909,"current_range_meters":6400,"station_id":"ce4bh0h2rcd13ifvqd60","pricing_plan_id":"cebpf4jnsgd1na2vs0mg"},{"bike_id":"bf05d069-2ec5-4246-9d82-6d6f716d8264","system_id":"levelo_inurba_marseille","lat":43.24165,"lon":5.36398,"is_reserved":false,"is_disabled":false,"rental_uris":{"android":"levelo://app?vid=bf05d069-2ec5-4246-9d82-6d6f716d8264","ios":"levelo://app?vid=bf05d069-2ec5-4246-9d82-6d6f716d8264"},"vehicle_type_id":"4","last_reported":1745924909,"current_range_meters":6400,"station_id":"cpo36qri1sfpv3e86is0","pricing_plan_id":"cebpf4jnsgd1na2vs0mg"},{"bike_id":"823a57dd-2179-498d-94b0-85f773446c0a","system_id":"levelo_inurba_marseille","lat":43.33611,"lon":5.40951,"is_reserved":false,"is_disabled":false,"rental_uris":{"android":"levelo://app?vid=823a57dd-2179-498d-94b0-85f773446c0a","ios":"levelo://app?vid=823a57dd-2179-498d-94b0-85f773446c0a"},"vehicle_type_id":"4","last_reported":1745924909,"current_range_meters":6400,"station_id":"","pricing_plan_id":"cebpf4jnsgd1na2vs0mg"},{"bike_id":"37332e27-3c0f-43b0-a78a-0eff23ffcebe","system_id":"levelo_inurba_marseille","lat":43.31702,"lon":5.40462,"is_reserved":false,"is_disabled":false,"rental_uris":{"android":"levelo://app?vid=37332e27-3c0f-43b0-a78a-0eff23ffcebe","ios":"levelo://app?vid=37332e27-3c0f-43b0-a78a-0eff23ffcebe"},"vehicle_type_id":"4","last_reported":1745924909,"current_range_meters":6400,"station_id":"ce4bh012rcd13ifvqd00","pricing_plan_id":"cebpf4jnsgd1na2vs0mg"},{"bike_id":"af4f0c69-e62d-4155-b1d1-a67b45271ae1","system_id":"levelo_inurba_marseille","lat":43.24783,"lon":5.41172,"is_reserved":false,"is_disabled":false,"rental_uris":{"android":"levelo://app?vid=af4f0c69-e62d-4155-b1d1-a67b45271ae1","ios":"levelo://app?vid=af4f0c69-e62d-4155-b1d1-a67b45271ae1"},"vehicle_type_id":"4","last_reported":1745924909,"current_range_meters":6800,"station_id":"","pricing_plan_id":"cebpf4jnsgd1na2vs0mg"},{"bike_id":"e316e9c9-3641-4187-83e7-351f605a3292","system_id":"levelo_inurba_marseille","lat":43.23197,"lon":5.35548,"is_reserved":false,"is_disabled":false,"rental_uris":{"android":"levelo://app?vid=e316e9c9-3641-4187-83e7-351f605a3292","ios":"levelo://app?vid=e316e9c9-3641-4187-83e7-351f605a3292"},"vehicle_type_id":"4","last_reported":1745924909,"current_range_meters":6800,"station_id":"ce4bhu92rcd13ifvqi70","pricing_plan_id":"cebpf4jnsgd1na2vs0mg"},{"bike_id":"a927ad15-b129-4085-9072-8cc54f2c8cf2","system_id":"levelo_inurba_marseille","lat":43.32095,"lon":5.36789,"is_reserved":false,"is_disabled":false,"rental_uris":{"android":"levelo://app?vid=a927ad15-b129-4085-9072-8cc54f2c8cf2","ios":"levelo://app?vid=a927ad15-b129-4085-9072-8cc54f2c8cf2"},"vehicle_type_id":"4","last_reported":1745924909,"current_range_meters":6800,"station_id":"ce4bhrh2rcd13ifvqhug","pricing_plan_id":"cebpf4jnsgd1na2vs0mg"},{"bike_id":"f200c58f-ac67-4e96-8a1a-5b20a5d72779","system_id":"levelo_inurba_marseille","lat":43.28346,"lon":5.38103,"is_reserved":false,"is_disabled":false,"rental_uris":{"android":"levelo://app?vid=f200c58f-ac67-4e96-8a1a-5b20a5d72779","ios":"levelo://app?vid=f200c58f-ac67-4e96-8a1a-5b20a5d72779"},"vehicle_type_id":"4","last_reported":1745924909,"current_range_meters":6800,"station_id":"ce4bh412rcd13ifvqdr0","pricing_plan_id":"cebpf4jnsgd1na2vs0mg"},{"bike_id":"06b9d8a1-cc18-4fda-a6e1-9f15898d47fe","system_id":"levelo_inurba_marseille","lat":43.24076,"lon":5.37717,"is_reserved":false,"is_disabled":true,"rental_uris":{"android":"levelo://app?vid=06b9d8a1-cc18-4fda-a6e1-9f15898d47fe","ios":"levelo://app?vid=06b9d8a1-cc18-4fda-a6e1-9f15898d47fe"},"vehicle_type_id":"4","last_reported":1745924909,"current_range_meters":7200,"station_id":"ce4bhnp2rcd13ifvqgvg","pricing_plan_id":"cebpf4jnsgd1na2vs0mg"},{"bike_id":"0e5de2d9-d392-414d-b55a-f2700939af8b","system_id":"levelo_inurba_marseille","lat":43.26808,"lon":5.4026,"is_reserved":false,"is_disabled":false,"rental_uris":{"android":"levelo://app?vid=0e5de2d9-d392-414d-b55a-f2700939af8b","ios":"levelo://app?vid=0e5de2d9-d392-414d-b55a-f2700939af8b"},"vehicle_type_id":"4","last_reported":1745924909,"current_range_meters":7200,"station_id":"ce501612rcd8frsf0b60","pricing_plan_id":"cebpf4jnsgd1na2vs0mg"},{"bike_id":"a33a26cf-b103-4c1d-b4c8-78610a3df846","system_id":"levelo_inurba_marseille","lat":43.27376,"lon":5.36271,"is_reserved":false,"is_disabled":false,"rental_uris":{"android":"levelo://app?vid=a33a26cf-b103-4c1d-b4c8-78610a3df846","ios":"levelo://app?vid=a33a26cf-b103-4c1d-b4c8-78610a3df846"},"vehicle_type_id":"4","last_reported":1745924909,"current_range_meters":7200,"station_id":"ce4bhbh2rcd13ifvqeo0","pricing_plan_id":"cebpf4jnsgd1na2vs0mg"},{"bike_id":"253230a5-170a-417c-81b7-77b731f9d383","system_id":"levelo_inurba_marseille","lat":43.29784,"lon":5.39335,"is_reserved":false,"is_disabled":false,"rental_uris":{"android":"levelo://app?vid=253230a5-170a-417c-81b7-77b731f9d383","ios":"levelo://app?vid=253230a5-170a-417c-81b7-77b731f9d383"},"vehicle_type_id":"4","last_reported":1745924909,"current_range_meters":7200,"station_id":"chh1huq6cuj3fo74tm60","pricing_plan_id":"cebpf4jnsgd1na2vs0mg"},{"bike_id":"11beab31-c7c5-4dd2-a927-f48a7ff7bce4","system_id":"levelo_inurba_marseille","lat":43.32465,"lon":5.36587,"is_reserved":false,"is_disabled":false,"rental_uris":{"android":"levelo://app?vid=11beab31-c7c5-4dd2-a927-f48a7ff7bce4","ios":"levelo://app?vid=11beab31-c7c5-4dd2-a927-f48a7ff7bce4"},"vehicle_type_id":"4","last_reported":1745924909,"current_range_meters":8400,"station_id":"ce4bhs12rcd13ifvqhvg","pricing_plan_id":"cebpf4jnsgd1na2vs0mg"},{"bike_id":"3b9777a3-5183-4f39-b330-514eb33d1dcb","system_id":"levelo_inurba_marseille","lat":43.29439,"lon":5.39756,"is_reserved":false,"is_disabled":false,"rental_uris":{"android":"levelo://app?vid=3b9777a3-5183-4f39-b330-514eb33d1dcb","ios":"levelo://app?vid=3b9777a3-5183-4f39-b330-514eb33d1dcb"},"vehicle_type_id":"4","last_reported":1745924909,"current_range_meters":8400,"station_id":"ce4bh3h2rcd13ifvqdo0","pricing_plan_id":"cebpf4jnsgd1na2vs0mg"},{"bike_id":"4f94e75a-5fd1-4e7f-939d-f44f46d1ce81","system_id":"levelo_inurba_marseille","lat":43.22935,"lon":5.35379,"is_reserved":false,"is_disabled":false,"rental_uris":{"android":"levelo://app?vid=4f94e75a-5fd1-4e7f-939d-f44f46d1ce81","ios":"levelo://app?vid=4f94e75a-5fd1-4e7f-939d-f44f46d1ce81"},"vehicle_type_id":"4","last_reported":1745924909,"current_range_meters":8400,"station_id":"cpo3532slgdg3j2ikp40","pricing_plan_id":"cebpf4jnsgd1na2vs0mg"},{"bike_id":"b65f8461-4c86-486f-9cfb-0bb29b5a42d6","system_id":"levelo_inurba_marseille","lat":43.24077,"lon":5.37761,"is_reserved":false,"is_disabled":false,"rental_uris":{"android":"levelo://app?vid=b65f8461-4c86-486f-9cfb-0bb29b5a42d6","ios":"levelo://app?vid=b65f8461-4c86-486f-9cfb-0bb29b5a42d6"},"vehicle_type_id":"4","last_reported":1745924909,"current_range_meters":8800,"station_id":"ce4bhnp2rcd13ifvqgvg","pricing_plan_id":"cebpf4jnsgd1na2vs0mg"},{"bike_id":"db87410b-c699-47fa-8ee4-123d3a7d8581","system_id":"levelo_inurba_marseille","lat":43.2315,"lon":5.43702,"is_reserved":false,"is_disabled":false,"rental_uris":{"android":"levelo://app?vid=db87410b-c699-47fa-8ee4-123d3a7d8581","ios":"levelo://app?vid=db87410b-c699-47fa-8ee4-123d3a7d8581"},"vehicle_type_id":"4","last_reported":1745924909,"current_range_meters":8800,"station_id":"ce4bhmp2rcd13ifvqgog","pricing_plan_id":"cebpf4jnsgd1na2vs0mg"},{"bike_id":"e5b4b90d-e268-4de2-98f4-f6d0513f8801","system_id":"levelo_inurba_marseille","lat":43.26545,"lon":5.42202,"is_reserved":false,"is_disabled":false,"rental_uris":{"android":"levelo://app?vid=e5b4b90d-e268-4de2-98f4-f6d0513f8801","ios":"levelo://app?vid=e5b4b90d-e268-4de2-98f4-f6d0513f8801"},"vehicle_type_id":"4","last_reported":1745924909,"current_range_meters":8800,"station_id":"","pricing_plan_id":"cebpf4jnsgd1na2vs0mg"},{"bike_id":"1371c5d5-9728-426e-aca6-c7cb89d02b15","system_id":"levelo_inurba_marseille","lat":43.269442,"lon":5.386414,"is_reserved":false,"is_disabled":false,"rental_uris":{"android":"levelo://app?vid=1371c5d5-9728-426e-aca6-c7cb89d02b15","ios":"levelo://app?vid=1371c5d5-9728-426e-aca6-c7cb89d02b15"},"vehicle_type_id":"4","last_reported":1745924909,"current_range_meters":8800,"station_id":"ce4bhh92rcd13ifvqfh0","pricing_plan_id":"cebpf4jnsgd1na2vs0mg"},{"bike_id":"7e4cd708-c161-43b3-a5ca-1ba5481b7631","system_id":"levelo_inurba_marseille","lat":43.29625,"lon":5.37717,"is_reserved":false,"is_disabled":false,"rental_uris":{"android":"levelo://app?vid=7e4cd708-c161-43b3-a5ca-1ba5481b7631","ios":"levelo://app?vid=7e4cd708-c161-43b3-a5ca-1ba5481b7631"},"vehicle_type_id":"4","last_reported":1745924909,"current_range_meters":8400,"station_id":"ce4bgi92rcd13ifvqb90","pricing_plan_id":"cebpf4jnsgd1na2vs0mg"},{"bike_id":"fae15554-3cc2-4462-acc7-be7cdf6df592","system_id":"levelo_inurba_marseille","lat":43.27561,"lon":5.38423,"is_reserved":false,"is_disabled":false,"rental_uris":{"android":"levelo://app?vid=fae15554-3cc2-4462-acc7-be7cdf6df592","ios":"levelo://app?vid=fae15554-3cc2-4462-acc7-be7cdf6df592"},"vehicle_type_id":"4","last_reported":1745924909,"current_range_meters":8800,"station_id":"ce4bhh92rcd13ifvqfi0","pricing_plan_id":"cebpf4jnsgd1na2vs0mg"},{"bike_id":"d987eb5c-7d68-47e3-a84f-39e10482beeb","system_id":"levelo_inurba_marseille","lat":43.28941,"lon":5.39646,"is_reserved":false,"is_disabled":false,"rental_uris":{"android":"levelo://app?vid=d987eb5c-7d68-47e3-a84f-39e10482beeb","ios":"levelo://app?vid=d987eb5c-7d68-47e3-a84f-39e10482beeb"},"vehicle_type_id":"4","last_reported":1745924909,"current_range_meters":8400,"station_id":"ce4bh3h2rcd13ifvqdn0","pricing_plan_id":"cebpf4jnsgd1na2vs0mg"},{"bike_id":"06bc9153-5549-4737-9a3f-2e331c3f5f42","system_id":"levelo_inurba_marseille","lat":43.30282,"lon":5.37708,"is_reserved":false,"is_disabled":false,"rental_uris":{"android":"levelo://app?vid=06bc9153-5549-4737-9a3f-2e331c3f5f42","ios":"levelo://app?vid=06bc9153-5549-4737-9a3f-2e331c3f5f42"},"vehicle_type_id":"4","last_reported":1745924909,"current_range_meters":8800,"station_id":"ce4bguh2rcd13ifvqcj0","pricing_plan_id":"cebpf4jnsgd1na2vs0mg"},{"bike_id":"47b17545-a235-42e7-a187-891a33ac25d2","system_id":"levelo_inurba_marseille","lat":43.31076,"lon":5.38359,"is_reserved":false,"is_disabled":false,"rental_uris":{"android":"levelo://app?vid=47b17545-a235-42e7-a187-891a33ac25d2","ios":"levelo://app?vid=47b17545-a235-42e7-a187-891a33ac25d2"},"vehicle_type_id":"4","last_reported":1745924909,"current_range_meters":9200,"station_id":"ce4bgv92rcd13ifvqcr0","pricing_plan_id":"cebpf4jnsgd1na2vs0mg"},{"bike_id":"b4f9d6b9-de2a-4ada-b0f8-e9c82866e827","system_id":"levelo_inurba_marseille","lat":43.30439,"lon":5.38892,"is_reserved":false,"is_disabled":false,"rental_uris":{"android":"levelo://app?vid=b4f9d6b9-de2a-4ada-b0f8-e9c82866e827","ios":"levelo://app?vid=b4f9d6b9-de2a-4ada-b0f8-e9c82866e827"},"vehicle_type_id":"4","last_reported":1745924909,"current_range_meters":10800,"station_id":"ce4bgk12rcd13ifvqbi0","pricing_plan_id":"cebpf4jnsgd1na2vs0mg"},{"bike_id":"d8fbc429-4aed-4066-8080-d40a727345cc","system_id":"levelo_inurba_marseille","lat":43.25587,"lon":5.38231,"is_reserved":false,"is_disabled":false,"rental_uris":{"android":"levelo://app?vid=d8fbc429-4aed-4066-8080-d40a727345cc","ios":"levelo://app?vid=d8fbc429-4aed-4066-8080-d40a727345cc"},"vehicle_type_id":"4","last_reported":1745924909,"current_range_meters":9200,"station_id":"ce4bhih2rcd13ifvqfs0","pricing_plan_id":"cebpf4jnsgd1na2vs0mg"},{"bike_id":"2ffcb5dc-6039-4018-8890-4d281a5d40f1","system_id":"levelo_inurba_marseille","lat":43.23157,"lon":5.43717,"is_reserved":false,"is_disabled":false,"rental_uris":{"android":"levelo://app?vid=2ffcb5dc-6039-4018-8890-4d281a5d40f1","ios":"levelo://app?vid=2ffcb5dc-6039-4018-8890-4d281a5d40f1"},"vehicle_type_id":"4","last_reported":1745924909,"current_range_meters":9200,"station_id":"ce4bhmp2rcd13ifvqgog","pricing_plan_id":"cebpf4jnsgd1na2vs0mg"},{"bike_id":"3566469e-5adf-4ae7-9fad-25ede3e08c1b","system_id":"levelo_inurba_marseille","lat":43.292585,"lon":5.384345,"is_reserved":false,"is_disabled":true,"rental_uris":{"android":"levelo://app?vid=3566469e-5adf-4ae7-9fad-25ede3e08c1b","ios":"levelo://app?vid=3566469e-5adf-4ae7-9fad-25ede3e08c1b"},"vehicle_type_id":"4","last_reported":1745924909,"current_range_meters":9200,"station_id":"ce4bh692rcd13ifvqea0","pricing_plan_id":"cebpf4jnsgd1na2vs0mg"},{"bike_id":"385f44c8-d47a-40fc-8235-8720929e4041","system_id":"levelo_inurba_marseille","lat":43.2316,"lon":5.43706,"is_reserved":false,"is_disabled":false,"rental_uris":{"android":"levelo://app?vid=385f44c8-d47a-40fc-8235-8720929e4041","ios":"levelo://app?vid=385f44c8-d47a-40fc-8235-8720929e4041"},"vehicle_type_id":"4","last_reported":1745924909,"current_range_meters":9600,"station_id":"ce4bhmp2rcd13ifvqgog","pricing_plan_id":"cebpf4jnsgd1na2vs0mg"},{"bike_id":"3dd6db84-8d98-4831-b736-fc287858b5af","system_id":"levelo_inurba_marseille","lat":43.33604,"lon":5.4104,"is_reserved":false,"is_disabled":false,"rental_uris":{"android":"levelo://app?vid=3dd6db84-8d98-4831-b736-fc287858b5af","ios":"levelo://app?vid=3dd6db84-8d98-4831-b736-fc287858b5af"},"vehicle_type_id":"4","last_reported":1745924909,"current_range_meters":9600,"station_id":"ce4bhqh2rcd13ifvqhmg","pricing_plan_id":"cebpf4jnsgd1na2vs0mg"},{"bike_id":"4f33f1fd-20a3-4897-9777-19066388bb99","system_id":"levelo_inurba_marseille","lat":43.299154,"lon":5.382736,"is_reserved":false,"is_disabled":true,"rental_uris":{"android":"levelo://app?vid=4f33f1fd-20a3-4897-9777-19066388bb99","ios":"levelo://app?vid=4f33f1fd-20a3-4897-9777-19066388bb99"},"vehicle_type_id":"4","last_reported":1745924909,"current_range_meters":9600,"station_id":"","pricing_plan_id":"cebpf4jnsgd1na2vs0mg"},{"bike_id":"0684fe9d-83dd-49cf-92d0-98416bf349d2","system_id":"levelo_inurba_marseille","lat":43.29806,"lon":5.38092,"is_reserved":false,"is_disabled":false,"rental_uris":{"android":"levelo://app?vid=0684fe9d-83dd-49cf-92d0-98416bf349d2","ios":"levelo://app?vid=0684fe9d-83dd-49cf-92d0-98416bf349d2"},"vehicle_type_id":"4","last_reported":1745924909,"current_range_meters":10000,"station_id":"ce4bgip2rcd13ifvqbb0","pricing_plan_id":"cebpf4jnsgd1na2vs0mg"},{"bike_id":"632dea09-8310-4e14-a89b-1d483d2053c2","system_id":"levelo_inurba_marseille","lat":43.26201,"lon":5.37935,"is_reserved":false,"is_disabled":false,"rental_uris":{"android":"levelo://app?vid=632dea09-8310-4e14-a89b-1d483d2053c2","ios":"levelo://app?vid=632dea09-8310-4e14-a89b-1d483d2053c2"},"vehicle_type_id":"4","last_reported":1745924909,"current_range_meters":10000,"station_id":"ce4bhjp2rcd13ifvqg90","pricing_plan_id":"cebpf4jnsgd1na2vs0mg"},{"bike_id":"d49ac673-b1e9-4fe0-9da6-7395d388ec81","system_id":"levelo_inurba_marseille","lat":43.30439,"lon":5.38897,"is_reserved":false,"is_disabled":false,"rental_uris":{"android":"levelo://app?vid=d49ac673-b1e9-4fe0-9da6-7395d388ec81","ios":"levelo://app?vid=d49ac673-b1e9-4fe0-9da6-7395d388ec81"},"vehicle_type_id":"4","last_reported":1745924909,"current_range_meters":10800,"station_id":"ce4bgk12rcd13ifvqbi0","pricing_plan_id":"cebpf4jnsgd1na2vs0mg"},{"bike_id":"6c394fb3-8255-4430-bd28-5181eb502d9b","system_id":"levelo_inurba_marseille","lat":43.32655,"lon":5.39492,"is_reserved":false,"is_disabled":false,"rental_uris":{"android":"levelo://app?vid=6c394fb3-8255-4430-bd28-5181eb502d9b","ios":"levelo://app?vid=6c394fb3-8255-4430-bd28-5181eb502d9b"},"vehicle_type_id":"4","last_reported":1745924909,"current_range_meters":10000,"station_id":"","pricing_plan_id":"cebpf4jnsgd1na2vs0mg"},{"bike_id":"a273dd95-99e2-4bb8-bee8-19cb9b13f516","system_id":"levelo_inurba_marseille","lat":43.299027,"lon":5.436626,"is_reserved":false,"is_disabled":true,"rental_uris":{"android":"levelo://app?vid=a273dd95-99e2-4bb8-bee8-19cb9b13f516","ios":"levelo://app?vid=a273dd95-99e2-4bb8-bee8-19cb9b13f516"},"vehicle_type_id":"4","last_reported":1745924909,"current_range_meters":10000,"station_id":"ce4bhpp2rcd13ifvqhfg","pricing_plan_id":"cebpf4jnsgd1na2vs0mg"},{"bike_id":"420cc75d-7e30-4b20-9483-21763448cc8f","system_id":"levelo_inurba_marseille","lat":43.28409,"lon":5.34981,"is_reserved":false,"is_disabled":false,"rental_uris":{"android":"levelo://app?vid=420cc75d-7e30-4b20-9483-21763448cc8f","ios":"levelo://app?vid=420cc75d-7e30-4b20-9483-21763448cc8f"},"vehicle_type_id":"4","last_reported":1745924909,"current_range_meters":10000,"station_id":"ce4bhbh2rcd13ifvqepg","pricing_plan_id":"cebpf4jnsgd1na2vs0mg"},{"bike_id":"221baf4d-c602-4577-a05a-e2579ad3dcd8","system_id":"levelo_inurba_marseille","lat":43.30927,"lon":5.36819,"is_reserved":false,"is_disabled":false,"rental_uris":{"android":"levelo://app?vid=221baf4d-c602-4577-a05a-e2579ad3dcd8","ios":"levelo://app?vid=221baf4d-c602-4577-a05a-e2579ad3dcd8"},"vehicle_type_id":"4","last_reported":1745924909,"current_range_meters":10000,"station_id":"ce4bgn92rcd13ifvqbvg","pricing_plan_id":"cebpf4jnsgd1na2vs0mg"},{"bike_id":"517eaf4d-2f55-46ab-b3a1-65f28f4f8a92","system_id":"levelo_inurba_marseille","lat":43.303056,"lon":5.36895,"is_reserved":false,"is_disabled":false,"rental_uris":{"android":"levelo://app?vid=517eaf4d-2f55-46ab-b3a1-65f28f4f8a92","ios":"levelo://app?vid=517eaf4d-2f55-46ab-b3a1-65f28f4f8a92"},"vehicle_type_id":"4","last_reported":1745924909,"current_range_meters":10800,"station_id":"ce4bgqh2rcd13ifvqc5g","pricing_plan_id":"cebpf4jnsgd1na2vs0mg"},{"bike_id":"b24d099b-c213-4d0e-8bed-0a6b1553f715","system_id":"levelo_inurba_marseille","lat":43.32472,"lon":5.36581,"is_reserved":false,"is_disabled":false,"rental_uris":{"android":"levelo://app?vid=b24d099b-c213-4d0e-8bed-0a6b1553f715","ios":"levelo://app?vid=b24d099b-c213-4d0e-8bed-0a6b1553f715"},"vehicle_type_id":"4","last_reported":1745924909,"current_range_meters":10800,"station_id":"ce4bhs12rcd13ifvqhvg","pricing_plan_id":"cebpf4jnsgd1na2vs0mg"},{"bike_id":"888488e5-b6d0-4c74-ba9e-d83329d812a1","system_id":"levelo_inurba_marseille","lat":43.3108,"lon":5.38354,"is_reserved":false,"is_disabled":false,"rental_uris":{"android":"levelo://app?vid=888488e5-b6d0-4c74-ba9e-d83329d812a1","ios":"levelo://app?vid=888488e5-b6d0-4c74-ba9e-d83329d812a1"},"vehicle_type_id":"4","last_reported":1745924909,"current_range_meters":10800,"station_id":"ce4bgv92rcd13ifvqcr0","pricing_plan_id":"cebpf4jnsgd1na2vs0mg"},{"bike_id":"18aeee17-e481-4b54-be4f-d6bc62919331","system_id":"levelo_inurba_marseille","lat":43.29104,"lon":5.38116,"is_reserved":false,"is_disabled":false,"rental_uris":{"android":"levelo://app?vid=18aeee17-e481-4b54-be4f-d6bc62919331","ios":"levelo://app?vid=18aeee17-e481-4b54-be4f-d6bc62919331"},"vehicle_type_id":"4","last_reported":1745924909,"current_range_meters":10800,"station_id":"ce4bh512rcd13ifvqe2g","pricing_plan_id":"cebpf4jnsgd1na2vs0mg"},{"bike_id":"56d3126a-5caf-4303-83cc-6be1581e9786","system_id":"levelo_inurba_marseille","lat":43.248129,"lon":5.374566,"is_reserved":false,"is_disabled":false,"rental_uris":{"android":"levelo://app?vid=56d3126a-5caf-4303-83cc-6be1581e9786","ios":"levelo://app?vid=56d3126a-5caf-4303-83cc-6be1581e9786"},"vehicle_type_id":"4","last_reported":1745924909,"current_range_meters":10800,"station_id":"ce4bhgh2rcd13ifvqfb0","pricing_plan_id":"cebpf4jnsgd1na2vs0mg"},{"bike_id":"e87a20b6-b55a-46e3-af63-b597a5e5b20b","system_id":"levelo_inurba_marseille","lat":43.282603,"lon":5.350521,"is_reserved":false,"is_disabled":false,"rental_uris":{"android":"levelo://app?vid=e87a20b6-b55a-46e3-af63-b597a5e5b20b","ios":"levelo://app?vid=e87a20b6-b55a-46e3-af63-b597a5e5b20b"},"vehicle_type_id":"4","last_reported":1745924909,"current_range_meters":17200,"station_id":"ce4bhbp2rcd13ifvqerg","pricing_plan_id":"cebpf4jnsgd1na2vs0mg"},{"bike_id":"f1d3c782-b9fe-425a-aebe-6d59fcaf2ad7","system_id":"levelo_inurba_marseille","lat":43.3047,"lon":5.37899,"is_reserved":false,"is_disabled":false,"rental_uris":{"android":"levelo://app?vid=f1d3c782-b9fe-425a-aebe-6d59fcaf2ad7","ios":"levelo://app?vid=f1d3c782-b9fe-425a-aebe-6d59fcaf2ad7"},"vehicle_type_id":"4","last_reported":1745924909,"current_range_meters":10800,"station_id":"ce4bgup2rcd13ifvqcn0","pricing_plan_id":"cebpf4jnsgd1na2vs0mg"},{"bike_id":"2df8927c-c353-4fc9-883b-9085297f0199","system_id":"levelo_inurba_marseille","lat":43.26962,"lon":5.38628,"is_reserved":false,"is_disabled":false,"rental_uris":{"android":"levelo://app?vid=2df8927c-c353-4fc9-883b-9085297f0199","ios":"levelo://app?vid=2df8927c-c353-4fc9-883b-9085297f0199"},"vehicle_type_id":"4","last_reported":1745924909,"current_range_meters":10800,"station_id":"ce4bhh92rcd13ifvqfh0","pricing_plan_id":"cebpf4jnsgd1na2vs0mg"},{"bike_id":"5773b8c3-4bce-4cd5-ae03-62ab7e7a7a59","system_id":"levelo_inurba_marseille","lat":43.32362,"lon":5.3889,"is_reserved":false,"is_disabled":false,"rental_uris":{"android":"levelo://app?vid=5773b8c3-4bce-4cd5-ae03-62ab7e7a7a59","ios":"levelo://app?vid=5773b8c3-4bce-4cd5-ae03-62ab7e7a7a59"},"vehicle_type_id":"4","last_reported":1745924909,"current_range_meters":10800,"station_id":"ce4bhqp2rcd13ifvqhog","pricing_plan_id":"cebpf4jnsgd1na2vs0mg"},{"bike_id":"a17dfbc6-c24a-4f6f-a28a-8c7675d89f62","system_id":"levelo_inurba_marseille","lat":43.304084,"lon":5.412799,"is_reserved":false,"is_disabled":true,"rental_uris":{"android":"levelo://app?vid=a17dfbc6-c24a-4f6f-a28a-8c7675d89f62","ios":"levelo://app?vid=a17dfbc6-c24a-4f6f-a28a-8c7675d89f62"},"vehicle_type_id":"4","last_reported":1745924909,"current_range_meters":10800,"station_id":"ce4bhop2rcd13ifvqh8g","pricing_plan_id":"cebpf4jnsgd1na2vs0mg"},{"bike_id":"274de418-4901-4594-96ba-14adb2b508fe","system_id":"levelo_inurba_marseille","lat":43.2593,"lon":5.40899,"is_reserved":false,"is_disabled":false,"rental_uris":{"android":"levelo://app?vid=274de418-4901-4594-96ba-14adb2b508fe","ios":"levelo://app?vid=274de418-4901-4594-96ba-14adb2b508fe"},"vehicle_type_id":"4","last_reported":1745924909,"current_range_meters":11200,"station_id":"ce4bhm92rcd13ifvqglg","pricing_plan_id":"cebpf4jnsgd1na2vs0mg"},{"bike_id":"28894e81-ede6-4351-84e3-e6b48081a345","system_id":"levelo_inurba_marseille","lat":43.33465,"lon":5.400537,"is_reserved":false,"is_disabled":false,"rental_uris":{"android":"levelo://app?vid=28894e81-ede6-4351-84e3-e6b48081a345","ios":"levelo://app?vid=28894e81-ede6-4351-84e3-e6b48081a345"},"vehicle_type_id":"4","last_reported":1745924909,"current_range_meters":11200,"station_id":"","pricing_plan_id":"cebpf4jnsgd1na2vs0mg"},{"bike_id":"b13f9913-27dd-4197-ba83-0d6b671b36d4","system_id":"levelo_inurba_marseille","lat":43.32495,"lon":5.36568,"is_reserved":false,"is_disabled":false,"rental_uris":{"android":"levelo://app?vid=b13f9913-27dd-4197-ba83-0d6b671b36d4","ios":"levelo://app?vid=b13f9913-27dd-4197-ba83-0d6b671b36d4"},"vehicle_type_id":"4","last_reported":1745924909,"current_range_meters":11200,"station_id":"ce4bhs12rcd13ifvqhvg","pricing_plan_id":"cebpf4jnsgd1na2vs0mg"},{"bike_id":"acbf0b8b-bd0b-420c-92ef-469c7e172ef4","system_id":"levelo_inurba_marseille","lat":43.28457,"lon":5.35876,"is_reserved":false,"is_disabled":false,"rental_uris":{"android":"levelo://app?vid=acbf0b8b-bd0b-420c-92ef-469c7e172ef4","ios":"levelo://app?vid=acbf0b8b-bd0b-420c-92ef-469c7e172ef4"},"vehicle_type_id":"4","last_reported":1745924909,"current_range_meters":11600,"station_id":"ce4bhah2rcd13ifvqei0","pricing_plan_id":"cebpf4jnsgd1na2vs0mg"},{"bike_id":"d58e03bb-19b9-469a-bcd7-0c3ce91d40b5","system_id":"levelo_inurba_marseille","lat":43.211942,"lon":5.350816,"is_reserved":false,"is_disabled":false,"rental_uris":{"android":"levelo://app?vid=d58e03bb-19b9-469a-bcd7-0c3ce91d40b5","ios":"levelo://app?vid=d58e03bb-19b9-469a-bcd7-0c3ce91d40b5"},"vehicle_type_id":"4","last_reported":1745924909,"current_range_meters":11600,"station_id":"","pricing_plan_id":"cebpf4jnsgd1na2vs0mg"},{"bike_id":"de9bb4ee-813f-47d5-b77b-0d79d9181f7a","system_id":"levelo_inurba_marseille","lat":43.30464,"lon":5.37926,"is_reserved":false,"is_disabled":false,"rental_uris":{"android":"levelo://app?vid=de9bb4ee-813f-47d5-b77b-0d79d9181f7a","ios":"levelo://app?vid=de9bb4ee-813f-47d5-b77b-0d79d9181f7a"},"vehicle_type_id":"4","last_reported":1745924909,"current_range_meters":11600,"station_id":"ce4bgup2rcd13ifvqcn0","pricing_plan_id":"cebpf4jnsgd1na2vs0mg"},{"bike_id":"2d9c95ed-03da-4456-8291-5fa85792ee1d","system_id":"levelo_inurba_marseille","lat":43.25119,"lon":5.40318,"is_reserved":false,"is_disabled":false,"rental_uris":{"android":"levelo://app?vid=2d9c95ed-03da-4456-8291-5fa85792ee1d","ios":"levelo://app?vid=2d9c95ed-03da-4456-8291-5fa85792ee1d"},"vehicle_type_id":"4","last_reported":1745924909,"current_range_meters":11600,"station_id":"ce4bhlh2rcd13ifvqgig","pricing_plan_id":"cebpf4jnsgd1na2vs0mg"},{"bike_id":"9bf0932a-8fc4-496b-8b8d-a70a613f6091","system_id":"levelo_inurba_marseille","lat":43.2835,"lon":5.38106,"is_reserved":false,"is_disabled":false,"rental_uris":{"android":"levelo://app?vid=9bf0932a-8fc4-496b-8b8d-a70a613f6091","ios":"levelo://app?vid=9bf0932a-8fc4-496b-8b8d-a70a613f6091"},"vehicle_type_id":"4","last_reported":1745924909,"current_range_meters":11600,"station_id":"ce4bh412rcd13ifvqdr0","pricing_plan_id":"cebpf4jnsgd1na2vs0mg"},{"bike_id":"4b895ffc-93de-4c0a-9a5a-22699c8c0ef4","system_id":"levelo_inurba_marseille","lat":43.30737,"lon":5.42431,"is_reserved":false,"is_disabled":true,"rental_uris":{"android":"levelo://app?vid=4b895ffc-93de-4c0a-9a5a-22699c8c0ef4","ios":"levelo://app?vid=4b895ffc-93de-4c0a-9a5a-22699c8c0ef4"},"vehicle_type_id":"4","last_reported":1745924909,"current_range_meters":11600,"station_id":"st_cvj6ca6bvosntc0bfgr0","pricing_plan_id":"cebpf4jnsgd1na2vs0mg"},{"bike_id":"b995dca3-1cbe-4f4a-bf6a-02fe16f66c58","system_id":"levelo_inurba_marseille","lat":43.24549,"lon":5.39526,"is_reserved":false,"is_disabled":false,"rental_uris":{"android":"levelo://app?vid=b995dca3-1cbe-4f4a-bf6a-02fe16f66c58","ios":"levelo://app?vid=b995dca3-1cbe-4f4a-bf6a-02fe16f66c58"},"vehicle_type_id":"4","last_reported":1745924909,"current_range_meters":11200,"station_id":"ce4bhlp2rcd13ifvqgjg","pricing_plan_id":"cebpf4jnsgd1na2vs0mg"},{"bike_id":"80a07c84-2161-4552-9e6a-4e61c854785d","system_id":"levelo_inurba_marseille","lat":43.27923,"lon":5.39584,"is_reserved":false,"is_disabled":false,"rental_uris":{"android":"levelo://app?vid=80a07c84-2161-4552-9e6a-4e61c854785d","ios":"levelo://app?vid=80a07c84-2161-4552-9e6a-4e61c854785d"},"vehicle_type_id":"4","last_reported":1745924909,"current_range_meters":12000,"station_id":"ce4bhf92rcd13ifvqf40","pricing_plan_id":"cebpf4jnsgd1na2vs0mg"},{"bike_id":"8c539aa2-ffb5-4abf-9b11-497e4c458051","system_id":"levelo_inurba_marseille","lat":43.28721,"lon":5.3793,"is_reserved":false,"is_disabled":false,"rental_uris":{"android":"levelo://app?vid=8c539aa2-ffb5-4abf-9b11-497e4c458051","ios":"levelo://app?vid=8c539aa2-ffb5-4abf-9b11-497e4c458051"},"vehicle_type_id":"4","last_reported":1745924909,"current_range_meters":12000,"station_id":"ce4bh9p2rcd13ifvqec0","pricing_plan_id":"cebpf4jnsgd1na2vs0mg"},{"bike_id":"978c4f03-4d43-4305-bd80-2431ab157904","system_id":"levelo_inurba_marseille","lat":43.31364,"lon":5.3849,"is_reserved":false,"is_disabled":false,"rental_uris":{"android":"levelo://app?vid=978c4f03-4d43-4305-bd80-2431ab157904","ios":"levelo://app?vid=978c4f03-4d43-4305-bd80-2431ab157904"},"vehicle_type_id":"4","last_reported":1745924909,"current_range_meters":12000,"station_id":"ce4bgt92rcd13ifvqcf0","pricing_plan_id":"cebpf4jnsgd1na2vs0mg"},{"bike_id":"0c31997d-e7ef-4d3a-9cd8-87211b9c681c","system_id":"levelo_inurba_marseille","lat":43.2439,"lon":5.37053,"is_reserved":false,"is_disabled":false,"rental_uris":{"android":"levelo://app?vid=0c31997d-e7ef-4d3a-9cd8-87211b9c681c","ios":"levelo://app?vid=0c31997d-e7ef-4d3a-9cd8-87211b9c681c"},"vehicle_type_id":"4","last_reported":1745924909,"current_range_meters":12400,"station_id":"ce4bhhh2rcd13ifvqfk0","pricing_plan_id":"cebpf4jnsgd1na2vs0mg"},{"bike_id":"c561163e-a003-49a9-bf4f-8ad31b0bbaac","system_id":"levelo_inurba_marseille","lat":43.25713,"lon":5.41859,"is_reserved":false,"is_disabled":false,"rental_uris":{"android":"levelo://app?vid=c561163e-a003-49a9-bf4f-8ad31b0bbaac","ios":"levelo://app?vid=c561163e-a003-49a9-bf4f-8ad31b0bbaac"},"vehicle_type_id":"4","last_reported":1745924909,"current_range_meters":12400,"station_id":"","pricing_plan_id":"cebpf4jnsgd1na2vs0mg"},{"bike_id":"bd4dd0d7-46f4-440a-a46e-451b65dfbb5a","system_id":"levelo_inurba_marseille","lat":43.30559,"lon":5.36719,"is_reserved":false,"is_disabled":false,"rental_uris":{"android":"levelo://app?vid=bd4dd0d7-46f4-440a-a46e-451b65dfbb5a","ios":"levelo://app?vid=bd4dd0d7-46f4-440a-a46e-451b65dfbb5a"},"vehicle_type_id":"4","last_reported":1745924909,"current_range_meters":12400,"station_id":"ce4bgrp2rcd13ifvqc9g","pricing_plan_id":"cebpf4jnsgd1na2vs0mg"},{"bike_id":"2f7a02bd-79cc-4b1a-9e70-3677cd42cfa8","system_id":"levelo_inurba_marseille","lat":43.24551,"lon":5.39524,"is_reserved":false,"is_disabled":false,"rental_uris":{"android":"levelo://app?vid=2f7a02bd-79cc-4b1a-9e70-3677cd42cfa8","ios":"levelo://app?vid=2f7a02bd-79cc-4b1a-9e70-3677cd42cfa8"},"vehicle_type_id":"4","last_reported":1745924909,"current_range_meters":12400,"station_id":"ce4bhlp2rcd13ifvqgjg","pricing_plan_id":"cebpf4jnsgd1na2vs0mg"},{"bike_id":"90ec756e-7d75-44ae-9837-bcc6f8c453df","system_id":"levelo_inurba_marseille","lat":43.232,"lon":5.35551,"is_reserved":false,"is_disabled":false,"rental_uris":{"android":"levelo://app?vid=90ec756e-7d75-44ae-9837-bcc6f8c453df","ios":"levelo://app?vid=90ec756e-7d75-44ae-9837-bcc6f8c453df"},"vehicle_type_id":"4","last_reported":1745924909,"current_range_meters":12800,"station_id":"ce4bhu92rcd13ifvqi70","pricing_plan_id":"cebpf4jnsgd1na2vs0mg"},{"bike_id":"7f9778aa-9d1a-41c2-b3aa-53b1794167e8","system_id":"levelo_inurba_marseille","lat":43.24389,"lon":5.37065,"is_reserved":false,"is_disabled":false,"rental_uris":{"android":"levelo://app?vid=7f9778aa-9d1a-41c2-b3aa-53b1794167e8","ios":"levelo://app?vid=7f9778aa-9d1a-41c2-b3aa-53b1794167e8"},"vehicle_type_id":"4","last_reported":1745924909,"current_range_meters":13600,"station_id":"ce4bhhh2rcd13ifvqfk0","pricing_plan_id":"cebpf4jnsgd1na2vs0mg"},{"bike_id":"d24f46f0-cf3d-4791-a5e3-4f8e2da0eb40","system_id":"levelo_inurba_marseille","lat":43.263349,"lon":5.377933,"is_reserved":false,"is_disabled":false,"rental_uris":{"android":"levelo://app?vid=d24f46f0-cf3d-4791-a5e3-4f8e2da0eb40","ios":"levelo://app?vid=d24f46f0-cf3d-4791-a5e3-4f8e2da0eb40"},"vehicle_type_id":"4","last_reported":1745924909,"current_range_meters":13600,"station_id":"ce4bhjp2rcd13ifvqg90","pricing_plan_id":"cebpf4jnsgd1na2vs0mg"},{"bike_id":"4b40f695-63b9-4e85-bcfa-13ae23a90fcb","system_id":"levelo_inurba_marseille","lat":43.25579,"lon":5.3823,"is_reserved":false,"is_disabled":false,"rental_uris":{"android":"levelo://app?vid=4b40f695-63b9-4e85-bcfa-13ae23a90fcb","ios":"levelo://app?vid=4b40f695-63b9-4e85-bcfa-13ae23a90fcb"},"vehicle_type_id":"4","last_reported":1745924909,"current_range_meters":12800,"station_id":"ce4bhih2rcd13ifvqfs0","pricing_plan_id":"cebpf4jnsgd1na2vs0mg"},{"bike_id":"cf4a346f-aa74-40af-9a97-6c2790fdaaf0","system_id":"levelo_inurba_marseille","lat":43.25119,"lon":5.40324,"is_reserved":false,"is_disabled":false,"rental_uris":{"android":"levelo://app?vid=cf4a346f-aa74-40af-9a97-6c2790fdaaf0","ios":"levelo://app?vid=cf4a346f-aa74-40af-9a97-6c2790fdaaf0"},"vehicle_type_id":"4","last_reported":1745924909,"current_range_meters":14000,"station_id":"ce4bhlh2rcd13ifvqgig","pricing_plan_id":"cebpf4jnsgd1na2vs0mg"},{"bike_id":"f9907103-73d4-450b-96aa-a56cfebb8476","system_id":"levelo_inurba_marseille","lat":43.29788,"lon":5.38101,"is_reserved":false,"is_disabled":false,"rental_uris":{"android":"levelo://app?vid=f9907103-73d4-450b-96aa-a56cfebb8476","ios":"levelo://app?vid=f9907103-73d4-450b-96aa-a56cfebb8476"},"vehicle_type_id":"4","last_reported":1745924909,"current_range_meters":13600,"station_id":"ce4bgip2rcd13ifvqbb0","pricing_plan_id":"cebpf4jnsgd1na2vs0mg"},{"bike_id":"489415b8-9254-45c1-b00c-e7554d56755c","system_id":"levelo_inurba_marseille","lat":43.24521,"lon":5.41224,"is_reserved":false,"is_disabled":false,"rental_uris":{"android":"levelo://app?vid=489415b8-9254-45c1-b00c-e7554d56755c","ios":"levelo://app?vid=489415b8-9254-45c1-b00c-e7554d56755c"},"vehicle_type_id":"4","last_reported":1745924909,"current_range_meters":14000,"station_id":"","pricing_plan_id":"cebpf4jnsgd1na2vs0mg"},{"bike_id":"e2345651-1f02-4a28-9927-56bb317aa2c6","system_id":"levelo_inurba_marseille","lat":43.2931,"lon":5.37179,"is_reserved":false,"is_disabled":false,"rental_uris":{"android":"levelo://app?vid=e2345651-1f02-4a28-9927-56bb317aa2c6","ios":"levelo://app?vid=e2345651-1f02-4a28-9927-56bb317aa2c6"},"vehicle_type_id":"4","last_reported":1745924909,"current_range_meters":14800,"station_id":"ce4bgh92rcd13ifvqb40","pricing_plan_id":"cebpf4jnsgd1na2vs0mg"},{"bike_id":"fb52263c-8dbb-453b-b1f6-ec83364d1767","system_id":"levelo_inurba_marseille","lat":43.25934,"lon":5.40914,"is_reserved":false,"is_disabled":false,"rental_uris":{"android":"levelo://app?vid=fb52263c-8dbb-453b-b1f6-ec83364d1767","ios":"levelo://app?vid=fb52263c-8dbb-453b-b1f6-ec83364d1767"},"vehicle_type_id":"4","last_reported":1745924909,"current_range_meters":14800,"station_id":"ce4bhm92rcd13ifvqglg","pricing_plan_id":"cebpf4jnsgd1na2vs0mg"},{"bike_id":"2d303286-1748-405f-b5c7-c9d6c2ec111c","system_id":"levelo_inurba_marseille","lat":43.24399,"lon":5.37036,"is_reserved":false,"is_disabled":false,"rental_uris":{"android":"levelo://app?vid=2d303286-1748-405f-b5c7-c9d6c2ec111c","ios":"levelo://app?vid=2d303286-1748-405f-b5c7-c9d6c2ec111c"},"vehicle_type_id":"4","last_reported":1745924909,"current_range_meters":14800,"station_id":"ce4bhhh2rcd13ifvqfk0","pricing_plan_id":"cebpf4jnsgd1na2vs0mg"},{"bike_id":"fd0a5d2b-09f6-46e1-a6a6-3661a2ef4771","system_id":"levelo_inurba_marseille","lat":43.25937,"lon":5.40902,"is_reserved":false,"is_disabled":false,"rental_uris":{"android":"levelo://app?vid=fd0a5d2b-09f6-46e1-a6a6-3661a2ef4771","ios":"levelo://app?vid=fd0a5d2b-09f6-46e1-a6a6-3661a2ef4771"},"vehicle_type_id":"4","last_reported":1745924909,"current_range_meters":14800,"station_id":"ce4bhm92rcd13ifvqglg","pricing_plan_id":"cebpf4jnsgd1na2vs0mg"},{"bike_id":"e27c9434-7cad-426a-accf-7de8131c5123","system_id":"levelo_inurba_marseille","lat":43.28616,"lon":5.35103,"is_reserved":false,"is_disabled":false,"rental_uris":{"android":"levelo://app?vid=e27c9434-7cad-426a-accf-7de8131c5123","ios":"levelo://app?vid=e27c9434-7cad-426a-accf-7de8131c5123"},"vehicle_type_id":"4","last_reported":1745924909,"current_range_meters":14800,"station_id":"ce4bhch2rcd13ifvqeug","pricing_plan_id":"cebpf4jnsgd1na2vs0mg"},{"bike_id":"7bb4951e-d339-4c44-ac4b-142199635971","system_id":"levelo_inurba_marseille","lat":43.29559,"lon":5.37526,"is_reserved":false,"is_disabled":false,"rental_uris":{"android":"levelo://app?vid=7bb4951e-d339-4c44-ac4b-142199635971","ios":"levelo://app?vid=7bb4951e-d339-4c44-ac4b-142199635971"},"vehicle_type_id":"4","last_reported":1745924909,"current_range_meters":14800,"station_id":"ce4bgh92rcd13ifvqb50","pricing_plan_id":"cebpf4jnsgd1na2vs0mg"},{"bike_id":"e5862ed2-10c2-4b58-b1c6-5b9b02cc2afa","system_id":"levelo_inurba_marseille","lat":43.286593,"lon":5.351657,"is_reserved":false,"is_disabled":false,"rental_uris":{"android":"levelo://app?vid=e5862ed2-10c2-4b58-b1c6-5b9b02cc2afa","ios":"levelo://app?vid=e5862ed2-10c2-4b58-b1c6-5b9b02cc2afa"},"vehicle_type_id":"4","last_reported":1745924909,"current_range_meters":15200,"station_id":"ce4bhch2rcd13ifvqeug","pricing_plan_id":"cebpf4jnsgd1na2vs0mg"},{"bike_id":"f48bc54a-1c7b-4384-b39b-1a568550c0de","system_id":"levelo_inurba_marseille","lat":43.312195,"lon":5.368565,"is_reserved":false,"is_disabled":false,"rental_uris":{"android":"levelo://app?vid=f48bc54a-1c7b-4384-b39b-1a568550c0de","ios":"levelo://app?vid=f48bc54a-1c7b-4384-b39b-1a568550c0de"},"vehicle_type_id":"4","last_reported":1745924909,"current_range_meters":16400,"station_id":"ce4bgl92rcd13ifvqbq0","pricing_plan_id":"cebpf4jnsgd1na2vs0mg"},{"bike_id":"bbc4344e-5038-45ae-9d8e-678ab2676960","system_id":"levelo_inurba_marseille","lat":43.28409,"lon":5.34988,"is_reserved":false,"is_disabled":false,"rental_uris":{"android":"levelo://app?vid=bbc4344e-5038-45ae-9d8e-678ab2676960","ios":"levelo://app?vid=bbc4344e-5038-45ae-9d8e-678ab2676960"},"vehicle_type_id":"4","last_reported":1745924909,"current_range_meters":15200,"station_id":"ce4bhbh2rcd13ifvqepg","pricing_plan_id":"cebpf4jnsgd1na2vs0mg"},{"bike_id":"16fd87f4-75c2-4749-baf3-6e672015831f","system_id":"levelo_inurba_marseille","lat":43.31716,"lon":5.40462,"is_reserved":false,"is_disabled":false,"rental_uris":{"android":"levelo://app?vid=16fd87f4-75c2-4749-baf3-6e672015831f","ios":"levelo://app?vid=16fd87f4-75c2-4749-baf3-6e672015831f"},"vehicle_type_id":"4","last_reported":1745924909,"current_range_meters":15200,"station_id":"ce4bh012rcd13ifvqd00","pricing_plan_id":"cebpf4jnsgd1na2vs0mg"},{"bike_id":"89ae2a75-bc1c-40ed-bf5d-2a4c8fda3812","system_id":"levelo_inurba_marseille","lat":43.28619,"lon":5.35109,"is_reserved":false,"is_disabled":false,"rental_uris":{"android":"levelo://app?vid=89ae2a75-bc1c-40ed-bf5d-2a4c8fda3812","ios":"levelo://app?vid=89ae2a75-bc1c-40ed-bf5d-2a4c8fda3812"},"vehicle_type_id":"4","last_reported":1745924909,"current_range_meters":15200,"station_id":"ce4bhch2rcd13ifvqeug","pricing_plan_id":"cebpf4jnsgd1na2vs0mg"},{"bike_id":"4d653b0b-f4a0-46f0-bd18-75e52a57324d","system_id":"levelo_inurba_marseille","lat":43.34145,"lon":5.40905,"is_reserved":false,"is_disabled":false,"rental_uris":{"android":"levelo://app?vid=4d653b0b-f4a0-46f0-bd18-75e52a57324d","ios":"levelo://app?vid=4d653b0b-f4a0-46f0-bd18-75e52a57324d"},"vehicle_type_id":"4","last_reported":1745924909,"current_range_meters":15200,"station_id":"ce4bhqh2rcd13ifvqhlg","pricing_plan_id":"cebpf4jnsgd1na2vs0mg"},{"bike_id":"0203dbd6-2a7a-47b1-867b-2990060b19fc","system_id":"levelo_inurba_marseille","lat":43.21747,"lon":5.34606,"is_reserved":false,"is_disabled":false,"rental_uris":{"android":"levelo://app?vid=0203dbd6-2a7a-47b1-867b-2990060b19fc","ios":"levelo://app?vid=0203dbd6-2a7a-47b1-867b-2990060b19fc"},"vehicle_type_id":"4","last_reported":1745924909,"current_range_meters":16000,"station_id":"st_cvj6r9ubvosntc0bgbag","pricing_plan_id":"cebpf4jnsgd1na2vs0mg"},{"bike_id":"ddf42e2f-5ba3-456f-b6b9-71a4fb220f7c","system_id":"levelo_inurba_marseille","lat":43.217516,"lon":5.345964,"is_reserved":false,"is_disabled":false,"rental_uris":{"android":"levelo://app?vid=ddf42e2f-5ba3-456f-b6b9-71a4fb220f7c","ios":"levelo://app?vid=ddf42e2f-5ba3-456f-b6b9-71a4fb220f7c"},"vehicle_type_id":"4","last_reported":1745924909,"current_range_meters":16000,"station_id":"","pricing_plan_id":"cebpf4jnsgd1na2vs0mg"},{"bike_id":"cf3c0a64-1e40-421b-bdb6-cf98c97656b1","system_id":"levelo_inurba_marseille","lat":43.28347,"lon":5.38093,"is_reserved":false,"is_disabled":false,"rental_uris":{"android":"levelo://app?vid=cf3c0a64-1e40-421b-bdb6-cf98c97656b1","ios":"levelo://app?vid=cf3c0a64-1e40-421b-bdb6-cf98c97656b1"},"vehicle_type_id":"4","last_reported":1745924909,"current_range_meters":16000,"station_id":"ce4bh412rcd13ifvqdr0","pricing_plan_id":"cebpf4jnsgd1na2vs0mg"},{"bike_id":"1cb3da76-f497-49e4-a8a6-5a0629444d60","system_id":"levelo_inurba_marseille","lat":43.29943,"lon":5.36698,"is_reserved":false,"is_disabled":false,"rental_uris":{"android":"levelo://app?vid=1cb3da76-f497-49e4-a8a6-5a0629444d60","ios":"levelo://app?vid=1cb3da76-f497-49e4-a8a6-5a0629444d60"},"vehicle_type_id":"4","last_reported":1745924909,"current_range_meters":16000,"station_id":"","pricing_plan_id":"cebpf4jnsgd1na2vs0mg"},{"bike_id":"3116d66b-5e57-4f41-b790-e11ad4af653f","system_id":"levelo_inurba_marseille","lat":43.27997,"lon":5.41656,"is_reserved":false,"is_disabled":false,"rental_uris":{"android":"levelo://app?vid=3116d66b-5e57-4f41-b790-e11ad4af653f","ios":"levelo://app?vid=3116d66b-5e57-4f41-b790-e11ad4af653f"},"vehicle_type_id":"4","last_reported":1745924909,"current_range_meters":16000,"station_id":"ce4bho12rcd13ifvqh1g","pricing_plan_id":"cebpf4jnsgd1na2vs0mg"},{"bike_id":"3a9bd96a-1d84-454e-b55b-a4ef583e3749","system_id":"levelo_inurba_marseille","lat":43.26688,"lon":5.38274,"is_reserved":false,"is_disabled":true,"rental_uris":{"android":"levelo://app?vid=3a9bd96a-1d84-454e-b55b-a4ef583e3749","ios":"levelo://app?vid=3a9bd96a-1d84-454e-b55b-a4ef583e3749"},"vehicle_type_id":"4","last_reported":1745924909,"current_range_meters":16000,"station_id":"ce4bhg92rcd13ifvqf90","pricing_plan_id":"cebpf4jnsgd1na2vs0mg"},{"bike_id":"d669cb91-aec5-42f7-ab66-a1eb60fa9404","system_id":"levelo_inurba_marseille","lat":43.2827,"lon":5.35076,"is_reserved":false,"is_disabled":false,"rental_uris":{"android":"levelo://app?vid=d669cb91-aec5-42f7-ab66-a1eb60fa9404","ios":"levelo://app?vid=d669cb91-aec5-42f7-ab66-a1eb60fa9404"},"vehicle_type_id":"4","last_reported":1745924909,"current_range_meters":16400,"station_id":"ce4bhbp2rcd13ifvqerg","pricing_plan_id":"cebpf4jnsgd1na2vs0mg"},{"bike_id":"ba2fdb68-0e80-4cbd-99d9-c86fd68774e8","system_id":"levelo_inurba_marseille","lat":43.28708,"lon":5.40001,"is_reserved":false,"is_disabled":false,"rental_uris":{"android":"levelo://app?vid=ba2fdb68-0e80-4cbd-99d9-c86fd68774e8","ios":"levelo://app?vid=ba2fdb68-0e80-4cbd-99d9-c86fd68774e8"},"vehicle_type_id":"4","last_reported":1745924909,"current_range_meters":16400,"station_id":"ce4bho92rcd13ifvqh3g","pricing_plan_id":"cebpf4jnsgd1na2vs0mg"},{"bike_id":"9acb650b-4ddf-4287-bee1-8cabb3d2000a","system_id":"levelo_inurba_marseille","lat":43.27378,"lon":5.36264,"is_reserved":false,"is_disabled":false,"rental_uris":{"android":"levelo://app?vid=9acb650b-4ddf-4287-bee1-8cabb3d2000a","ios":"levelo://app?vid=9acb650b-4ddf-4287-bee1-8cabb3d2000a"},"vehicle_type_id":"4","last_reported":1745924909,"current_range_meters":16400,"station_id":"ce4bhbh2rcd13ifvqeo0","pricing_plan_id":"cebpf4jnsgd1na2vs0mg"},{"bike_id":"4590f95f-b3ae-4e8c-9777-526a2af57802","system_id":"levelo_inurba_marseille","lat":43.24078,"lon":5.37759,"is_reserved":false,"is_disabled":false,"rental_uris":{"android":"levelo://app?vid=4590f95f-b3ae-4e8c-9777-526a2af57802","ios":"levelo://app?vid=4590f95f-b3ae-4e8c-9777-526a2af57802"},"vehicle_type_id":"4","last_reported":1745924909,"current_range_meters":16400,"station_id":"ce4bhnp2rcd13ifvqgvg","pricing_plan_id":"cebpf4jnsgd1na2vs0mg"},{"bike_id":"9f3727a4-65e1-4500-a436-10e0621cddaf","system_id":"levelo_inurba_marseille","lat":43.28155,"lon":5.42643,"is_reserved":false,"is_disabled":false,"rental_uris":{"android":"levelo://app?vid=9f3727a4-65e1-4500-a436-10e0621cddaf","ios":"levelo://app?vid=9f3727a4-65e1-4500-a436-10e0621cddaf"},"vehicle_type_id":"4","last_reported":1745924909,"current_range_meters":16400,"station_id":"ce4bhnh2rcd13ifvqgug","pricing_plan_id":"cebpf4jnsgd1na2vs0mg"},{"bike_id":"c3e6f5d5-4088-428b-88eb-d9a075c645f1","system_id":"levelo_inurba_marseille","lat":43.26958,"lon":5.38629,"is_reserved":false,"is_disabled":false,"rental_uris":{"android":"levelo://app?vid=c3e6f5d5-4088-428b-88eb-d9a075c645f1","ios":"levelo://app?vid=c3e6f5d5-4088-428b-88eb-d9a075c645f1"},"vehicle_type_id":"4","last_reported":1745924909,"current_range_meters":16400,"station_id":"ce4bhh92rcd13ifvqfh0","pricing_plan_id":"cebpf4jnsgd1na2vs0mg"},{"bike_id":"fe8960e1-228f-4306-bc25-b57b60a713c0","system_id":"levelo_inurba_marseille","lat":43.217513,"lon":5.346043,"is_reserved":false,"is_disabled":false,"rental_uris":{"android":"levelo://app?vid=fe8960e1-228f-4306-bc25-b57b60a713c0","ios":"levelo://app?vid=fe8960e1-228f-4306-bc25-b57b60a713c0"},"vehicle_type_id":"4","last_reported":1745924909,"current_range_meters":16800,"station_id":"st_cvj6r9ubvosntc0bgbag","pricing_plan_id":"cebpf4jnsgd1na2vs0mg"},{"bike_id":"6f5ae455-fcc6-469e-8940-5aae42fecf06","system_id":"levelo_inurba_marseille","lat":43.28619,"lon":5.35103,"is_reserved":false,"is_disabled":false,"rental_uris":{"android":"levelo://app?vid=6f5ae455-fcc6-469e-8940-5aae42fecf06","ios":"levelo://app?vid=6f5ae455-fcc6-469e-8940-5aae42fecf06"},"vehicle_type_id":"4","last_reported":1745924909,"current_range_meters":16800,"station_id":"ce4bhch2rcd13ifvqeug","pricing_plan_id":"cebpf4jnsgd1na2vs0mg"},{"bike_id":"ae095aae-17c1-432c-9c5e-8b34429c261b","system_id":"levelo_inurba_marseille","lat":43.29639,"lon":5.40592,"is_reserved":false,"is_disabled":false,"rental_uris":{"android":"levelo://app?vid=ae095aae-17c1-432c-9c5e-8b34429c261b","ios":"levelo://app?vid=ae095aae-17c1-432c-9c5e-8b34429c261b"},"vehicle_type_id":"4","last_reported":1745924909,"current_range_meters":16800,"station_id":"ce4bh0h2rcd13ifvqd60","pricing_plan_id":"cebpf4jnsgd1na2vs0mg"},{"bike_id":"32d6cce7-a5d8-4a36-af0d-3b8d1e02fab5","system_id":"levelo_inurba_marseille","lat":43.31498,"lon":5.37313,"is_reserved":false,"is_disabled":false,"rental_uris":{"android":"levelo://app?vid=32d6cce7-a5d8-4a36-af0d-3b8d1e02fab5","ios":"levelo://app?vid=32d6cce7-a5d8-4a36-af0d-3b8d1e02fab5"},"vehicle_type_id":"4","last_reported":1745924909,"current_range_meters":16800,"station_id":"ce4bgt12rcd13ifvqcd0","pricing_plan_id":"cebpf4jnsgd1na2vs0mg"},{"bike_id":"ea3a8a87-360a-48e1-b56e-0b7983d4eecb","system_id":"levelo_inurba_marseille","lat":43.30593,"lon":5.39364,"is_reserved":false,"is_disabled":false,"rental_uris":{"android":"levelo://app?vid=ea3a8a87-360a-48e1-b56e-0b7983d4eecb","ios":"levelo://app?vid=ea3a8a87-360a-48e1-b56e-0b7983d4eecb"},"vehicle_type_id":"4","last_reported":1745924909,"current_range_meters":17200,"station_id":"ce4bh0p2rcd13ifvqd80","pricing_plan_id":"cebpf4jnsgd1na2vs0mg"},{"bike_id":"cdcd14bd-4e57-45aa-a9c9-efa6f5bce37d","system_id":"levelo_inurba_marseille","lat":43.31074,"lon":5.38359,"is_reserved":false,"is_disabled":false,"rental_uris":{"android":"levelo://app?vid=cdcd14bd-4e57-45aa-a9c9-efa6f5bce37d","ios":"levelo://app?vid=cdcd14bd-4e57-45aa-a9c9-efa6f5bce37d"},"vehicle_type_id":"4","last_reported":1745924909,"current_range_meters":17200,"station_id":"ce4bgv92rcd13ifvqcr0","pricing_plan_id":"cebpf4jnsgd1na2vs0mg"},{"bike_id":"a3d053db-9d0b-4e97-817b-6015252bd932","system_id":"levelo_inurba_marseille","lat":43.30902,"lon":5.36878,"is_reserved":false,"is_disabled":false,"rental_uris":{"android":"levelo://app?vid=a3d053db-9d0b-4e97-817b-6015252bd932","ios":"levelo://app?vid=a3d053db-9d0b-4e97-817b-6015252bd932"},"vehicle_type_id":"4","last_reported":1745924909,"current_range_meters":17200,"station_id":"ce4bgn92rcd13ifvqbvg","pricing_plan_id":"cebpf4jnsgd1na2vs0mg"},{"bike_id":"17477d1f-844d-41e7-9bec-34bb76a140c2","system_id":"levelo_inurba_marseille","lat":43.28942,"lon":5.36639,"is_reserved":false,"is_disabled":false,"rental_uris":{"android":"levelo://app?vid=17477d1f-844d-41e7-9bec-34bb76a140c2","ios":"levelo://app?vid=17477d1f-844d-41e7-9bec-34bb76a140c2"},"vehicle_type_id":"4","last_reported":1745924909,"current_range_meters":17600,"station_id":"ce4bhap2rcd13ifvqek0","pricing_plan_id":"cebpf4jnsgd1na2vs0mg"},{"bike_id":"405f2d6f-f57f-47ec-b9e4-9a0a12ed6fba","system_id":"levelo_inurba_marseille","lat":43.29529,"lon":5.39403,"is_reserved":false,"is_disabled":false,"rental_uris":{"android":"levelo://app?vid=405f2d6f-f57f-47ec-b9e4-9a0a12ed6fba","ios":"levelo://app?vid=405f2d6f-f57f-47ec-b9e4-9a0a12ed6fba"},"vehicle_type_id":"4","last_reported":1745924909,"current_range_meters":16400,"station_id":"ce4bh292rcd13ifvqdf0","pricing_plan_id":"cebpf4jnsgd1na2vs0mg"},{"bike_id":"1ff7221b-8e1e-4dce-9e57-4aed861ca4b9","system_id":"levelo_inurba_marseille","lat":43.337319,"lon":5.391872,"is_reserved":false,"is_disabled":false,"rental_uris":{"android":"levelo://app?vid=1ff7221b-8e1e-4dce-9e57-4aed861ca4b9","ios":"levelo://app?vid=1ff7221b-8e1e-4dce-9e57-4aed861ca4b9"},"vehicle_type_id":"4","last_reported":1745924909,"current_range_meters":17200,"station_id":"ce4bhr92rcd13ifvqhsg","pricing_plan_id":"cebpf4jnsgd1na2vs0mg"},{"bike_id":"d2f13750-e22a-4165-8dd4-3429f9cedb09","system_id":"levelo_inurba_marseille","lat":43.29255,"lon":5.37608,"is_reserved":false,"is_disabled":false,"rental_uris":{"android":"levelo://app?vid=d2f13750-e22a-4165-8dd4-3429f9cedb09","ios":"levelo://app?vid=d2f13750-e22a-4165-8dd4-3429f9cedb09"},"vehicle_type_id":"4","last_reported":1745924909,"current_range_meters":17200,"station_id":"ce4bgi12rcd13ifvqb80","pricing_plan_id":"cebpf4jnsgd1na2vs0mg"},{"bike_id":"631cff3d-f9b6-46b7-af98-302648bd26fb","system_id":"levelo_inurba_marseille","lat":43.30213,"lon":5.39473,"is_reserved":false,"is_disabled":false,"rental_uris":{"android":"levelo://app?vid=631cff3d-f9b6-46b7-af98-302648bd26fb","ios":"levelo://app?vid=631cff3d-f9b6-46b7-af98-302648bd26fb"},"vehicle_type_id":"4","last_reported":1745924909,"current_range_meters":17600,"station_id":"ce4bh0p2rcd13ifvqd70","pricing_plan_id":"cebpf4jnsgd1na2vs0mg"},{"bike_id":"19bc52c3-74db-454f-9839-b056878a7608","system_id":"levelo_inurba_marseille","lat":43.26677,"lon":5.38264,"is_reserved":false,"is_disabled":true,"rental_uris":{"android":"levelo://app?vid=19bc52c3-74db-454f-9839-b056878a7608","ios":"levelo://app?vid=19bc52c3-74db-454f-9839-b056878a7608"},"vehicle_type_id":"4","last_reported":1745924909,"current_range_meters":17600,"station_id":"ce4bhg92rcd13ifvqf90","pricing_plan_id":"cebpf4jnsgd1na2vs0mg"},{"bike_id":"5ddb0708-b61e-48e9-ac26-7b4bda1b3ce8","system_id":"levelo_inurba_marseille","lat":43.31074,"lon":5.3836,"is_reserved":false,"is_disabled":false,"rental_uris":{"android":"levelo://app?vid=5ddb0708-b61e-48e9-ac26-7b4bda1b3ce8","ios":"levelo://app?vid=5ddb0708-b61e-48e9-ac26-7b4bda1b3ce8"},"vehicle_type_id":"4","last_reported":1745924909,"current_range_meters":17600,"station_id":"ce4bgv92rcd13ifvqcr0","pricing_plan_id":"cebpf4jnsgd1na2vs0mg"},{"bike_id":"7e63ffb4-3f0e-43a2-88dd-a09311a38faf","system_id":"levelo_inurba_marseille","lat":43.24077,"lon":5.37757,"is_reserved":false,"is_disabled":false,"rental_uris":{"android":"levelo://app?vid=7e63ffb4-3f0e-43a2-88dd-a09311a38faf","ios":"levelo://app?vid=7e63ffb4-3f0e-43a2-88dd-a09311a38faf"},"vehicle_type_id":"4","last_reported":1745924909,"current_range_meters":17600,"station_id":"ce4bhnp2rcd13ifvqgvg","pricing_plan_id":"cebpf4jnsgd1na2vs0mg"},{"bike_id":"d99bbe3b-2af1-4b73-8e26-c06f6faeba9b","system_id":"levelo_inurba_marseille","lat":43.32084,"lon":5.36781,"is_reserved":false,"is_disabled":false,"rental_uris":{"android":"levelo://app?vid=d99bbe3b-2af1-4b73-8e26-c06f6faeba9b","ios":"levelo://app?vid=d99bbe3b-2af1-4b73-8e26-c06f6faeba9b"},"vehicle_type_id":"4","last_reported":1745924909,"current_range_meters":17600,"station_id":"ce4bhrh2rcd13ifvqhug","pricing_plan_id":"cebpf4jnsgd1na2vs0mg"},{"bike_id":"6c161536-4692-4f2c-8796-b1fd89d1b505","system_id":"levelo_inurba_marseille","lat":43.23157,"lon":5.43706,"is_reserved":false,"is_disabled":false,"rental_uris":{"android":"levelo://app?vid=6c161536-4692-4f2c-8796-b1fd89d1b505","ios":"levelo://app?vid=6c161536-4692-4f2c-8796-b1fd89d1b505"},"vehicle_type_id":"4","last_reported":1745924909,"current_range_meters":17600,"station_id":"ce4bhmp2rcd13ifvqgog","pricing_plan_id":"cebpf4jnsgd1na2vs0mg"},{"bike_id":"340527a2-0f35-4a44-8a0b-05d17dfe443d","system_id":"levelo_inurba_marseille","lat":43.30684,"lon":5.36863,"is_reserved":false,"is_disabled":false,"rental_uris":{"android":"levelo://app?vid=340527a2-0f35-4a44-8a0b-05d17dfe443d","ios":"levelo://app?vid=340527a2-0f35-4a44-8a0b-05d17dfe443d"},"vehicle_type_id":"4","last_reported":1745924909,"current_range_meters":18000,"station_id":"","pricing_plan_id":"cebpf4jnsgd1na2vs0mg"},{"bike_id":"022ea3e5-d324-4435-85be-f515a744bb02","system_id":"levelo_inurba_marseille","lat":43.33582,"lon":5.40987,"is_reserved":false,"is_disabled":false,"rental_uris":{"android":"levelo://app?vid=022ea3e5-d324-4435-85be-f515a744bb02","ios":"levelo://app?vid=022ea3e5-d324-4435-85be-f515a744bb02"},"vehicle_type_id":"4","last_reported":1745924909,"current_range_meters":17600,"station_id":"","pricing_plan_id":"cebpf4jnsgd1na2vs0mg"},{"bike_id":"091d946f-ca6b-4f0f-a9ff-f43a325ce06d","system_id":"levelo_inurba_marseille","lat":43.2857,"lon":5.39497,"is_reserved":false,"is_disabled":false,"rental_uris":{"android":"levelo://app?vid=091d946f-ca6b-4f0f-a9ff-f43a325ce06d","ios":"levelo://app?vid=091d946f-ca6b-4f0f-a9ff-f43a325ce06d"},"vehicle_type_id":"4","last_reported":1745924909,"current_range_meters":17600,"station_id":"ce4bh292rcd13ifvqdg0","pricing_plan_id":"cebpf4jnsgd1na2vs0mg"},{"bike_id":"9fc0c5b1-421a-4fda-aae2-59aae8b2d5a7","system_id":"levelo_inurba_marseille","lat":43.25499,"lon":5.3765,"is_reserved":false,"is_disabled":false,"rental_uris":{"android":"levelo://app?vid=9fc0c5b1-421a-4fda-aae2-59aae8b2d5a7","ios":"levelo://app?vid=9fc0c5b1-421a-4fda-aae2-59aae8b2d5a7"},"vehicle_type_id":"4","last_reported":1745924909,"current_range_meters":17600,"station_id":"ce4bhh12rcd13ifvqff0","pricing_plan_id":"cebpf4jnsgd1na2vs0mg"},{"bike_id":"9e4616d2-badf-4502-9b1f-d8da5354661a","system_id":"levelo_inurba_marseille","lat":43.33606,"lon":5.41032,"is_reserved":false,"is_disabled":false,"rental_uris":{"android":"levelo://app?vid=9e4616d2-badf-4502-9b1f-d8da5354661a","ios":"levelo://app?vid=9e4616d2-badf-4502-9b1f-d8da5354661a"},"vehicle_type_id":"4","last_reported":1745924909,"current_range_meters":19200,"station_id":"ce4bhqh2rcd13ifvqhmg","pricing_plan_id":"cebpf4jnsgd1na2vs0mg"},{"bike_id":"216ab7a4-16be-4673-8874-de83fe9c21f1","system_id":"levelo_inurba_marseille","lat":43.31067,"lon":5.40093,"is_reserved":false,"is_disabled":false,"rental_uris":{"android":"levelo://app?vid=216ab7a4-16be-4673-8874-de83fe9c21f1","ios":"levelo://app?vid=216ab7a4-16be-4673-8874-de83fe9c21f1"},"vehicle_type_id":"4","last_reported":1745924909,"current_range_meters":18000,"station_id":"","pricing_plan_id":"cebpf4jnsgd1na2vs0mg"},{"bike_id":"62dc73d9-71b5-4fdb-b18f-7ca185730617","system_id":"levelo_inurba_marseille","lat":43.28984,"lon":5.37851,"is_reserved":false,"is_disabled":false,"rental_uris":{"android":"levelo://app?vid=62dc73d9-71b5-4fdb-b18f-7ca185730617","ios":"levelo://app?vid=62dc73d9-71b5-4fdb-b18f-7ca185730617"},"vehicle_type_id":"4","last_reported":1745924909,"current_range_meters":18000,"station_id":"ce4bh9p2rcd13ifvqed0","pricing_plan_id":"cebpf4jnsgd1na2vs0mg"},{"bike_id":"b379228a-bf35-49a2-a24d-5b93af737350","system_id":"levelo_inurba_marseille","lat":43.262429,"lon":5.378739,"is_reserved":false,"is_disabled":false,"rental_uris":{"android":"levelo://app?vid=b379228a-bf35-49a2-a24d-5b93af737350","ios":"levelo://app?vid=b379228a-bf35-49a2-a24d-5b93af737350"},"vehicle_type_id":"4","last_reported":1745924909,"current_range_meters":17600,"station_id":"ce4bhjp2rcd13ifvqg90","pricing_plan_id":"cebpf4jnsgd1na2vs0mg"},{"bike_id":"ce2710b2-8aee-43d8-8ef3-2843f2527c66","system_id":"levelo_inurba_marseille","lat":43.24172,"lon":5.36409,"is_reserved":false,"is_disabled":false,"rental_uris":{"android":"levelo://app?vid=ce2710b2-8aee-43d8-8ef3-2843f2527c66","ios":"levelo://app?vid=ce2710b2-8aee-43d8-8ef3-2843f2527c66"},"vehicle_type_id":"4","last_reported":1745924909,"current_range_meters":18000,"station_id":"cpo36qri1sfpv3e86is0","pricing_plan_id":"cebpf4jnsgd1na2vs0mg"},{"bike_id":"b26a0b33-650f-4f7b-8536-58a942167ba4","system_id":"levelo_inurba_marseille","lat":43.23197,"lon":5.35535,"is_reserved":false,"is_disabled":false,"rental_uris":{"android":"levelo://app?vid=b26a0b33-650f-4f7b-8536-58a942167ba4","ios":"levelo://app?vid=b26a0b33-650f-4f7b-8536-58a942167ba4"},"vehicle_type_id":"4","last_reported":1745924909,"current_range_meters":18800,"station_id":"ce4bhu92rcd13ifvqi70","pricing_plan_id":"cebpf4jnsgd1na2vs0mg"},{"bike_id":"03935c52-0c0b-4e2f-89ec-2bd5f8595df7","system_id":"levelo_inurba_marseille","lat":43.28418,"lon":5.3498,"is_reserved":false,"is_disabled":false,"rental_uris":{"android":"levelo://app?vid=03935c52-0c0b-4e2f-89ec-2bd5f8595df7","ios":"levelo://app?vid=03935c52-0c0b-4e2f-89ec-2bd5f8595df7"},"vehicle_type_id":"4","last_reported":1745924909,"current_range_meters":18800,"station_id":"ce4bhbh2rcd13ifvqepg","pricing_plan_id":"cebpf4jnsgd1na2vs0mg"},{"bike_id":"1d1477e5-b95c-42bc-ae42-36bf28a3fb23","system_id":"levelo_inurba_marseille","lat":43.28624,"lon":5.35109,"is_reserved":false,"is_disabled":false,"rental_uris":{"android":"levelo://app?vid=1d1477e5-b95c-42bc-ae42-36bf28a3fb23","ios":"levelo://app?vid=1d1477e5-b95c-42bc-ae42-36bf28a3fb23"},"vehicle_type_id":"4","last_reported":1745924909,"current_range_meters":18800,"station_id":"ce4bhch2rcd13ifvqeug","pricing_plan_id":"cebpf4jnsgd1na2vs0mg"},{"bike_id":"2767110b-46f6-461f-9053-309ad1bd2e5a","system_id":"levelo_inurba_marseille","lat":43.229252,"lon":5.353804,"is_reserved":false,"is_disabled":false,"rental_uris":{"android":"levelo://app?vid=2767110b-46f6-461f-9053-309ad1bd2e5a","ios":"levelo://app?vid=2767110b-46f6-461f-9053-309ad1bd2e5a"},"vehicle_type_id":"4","last_reported":1745924909,"current_range_meters":18800,"station_id":"cpo3532slgdg3j2ikp40","pricing_plan_id":"cebpf4jnsgd1na2vs0mg"},{"bike_id":"942e1be8-0b4c-4b58-97b4-0482c4bdb7e4","system_id":"levelo_inurba_marseille","lat":43.308994,"lon":5.368488,"is_reserved":false,"is_disabled":false,"rental_uris":{"android":"levelo://app?vid=942e1be8-0b4c-4b58-97b4-0482c4bdb7e4","ios":"levelo://app?vid=942e1be8-0b4c-4b58-97b4-0482c4bdb7e4"},"vehicle_type_id":"4","last_reported":1745924909,"current_range_meters":18800,"station_id":"ce4bgn92rcd13ifvqbvg","pricing_plan_id":"cebpf4jnsgd1na2vs0mg"},{"bike_id":"4300ed41-2a8c-4a34-8937-84e3a9118596","system_id":"levelo_inurba_marseille","lat":43.31385,"lon":5.38507,"is_reserved":false,"is_disabled":false,"rental_uris":{"android":"levelo://app?vid=4300ed41-2a8c-4a34-8937-84e3a9118596","ios":"levelo://app?vid=4300ed41-2a8c-4a34-8937-84e3a9118596"},"vehicle_type_id":"4","last_reported":1745924909,"current_range_meters":18800,"station_id":"ce4bgt92rcd13ifvqcf0","pricing_plan_id":"cebpf4jnsgd1na2vs0mg"},{"bike_id":"613dd303-9b9b-490c-8b90-12fd790120cd","system_id":"levelo_inurba_marseille","lat":43.23154,"lon":5.43708,"is_reserved":false,"is_disabled":false,"rental_uris":{"android":"levelo://app?vid=613dd303-9b9b-490c-8b90-12fd790120cd","ios":"levelo://app?vid=613dd303-9b9b-490c-8b90-12fd790120cd"},"vehicle_type_id":"4","last_reported":1745924909,"current_range_meters":19200,"station_id":"ce4bhmp2rcd13ifvqgog","pricing_plan_id":"cebpf4jnsgd1na2vs0mg"},{"bike_id":"c2c2df9a-1f5f-49a8-a3ca-b37ef81f0a19","system_id":"levelo_inurba_marseille","lat":43.28616,"lon":5.35107,"is_reserved":false,"is_disabled":false,"rental_uris":{"android":"levelo://app?vid=c2c2df9a-1f5f-49a8-a3ca-b37ef81f0a19","ios":"levelo://app?vid=c2c2df9a-1f5f-49a8-a3ca-b37ef81f0a19"},"vehicle_type_id":"4","last_reported":1745924909,"current_range_meters":19200,"station_id":"ce4bhch2rcd13ifvqeug","pricing_plan_id":"cebpf4jnsgd1na2vs0mg"},{"bike_id":"fce2c520-92d3-4d18-810b-8d643fc15a1a","system_id":"levelo_inurba_marseille","lat":43.230611,"lon":5.354899,"is_reserved":false,"is_disabled":false,"rental_uris":{"android":"levelo://app?vid=fce2c520-92d3-4d18-810b-8d643fc15a1a","ios":"levelo://app?vid=fce2c520-92d3-4d18-810b-8d643fc15a1a"},"vehicle_type_id":"4","last_reported":1745924909,"current_range_meters":19200,"station_id":"cpo3342slgdg3j2ifvpg","pricing_plan_id":"cebpf4jnsgd1na2vs0mg"},{"bike_id":"c62b2b46-b682-47aa-bbe9-8e2746e94a5a","system_id":"levelo_inurba_marseille","lat":43.28926,"lon":5.38396,"is_reserved":false,"is_disabled":false,"rental_uris":{"android":"levelo://app?vid=c62b2b46-b682-47aa-bbe9-8e2746e94a5a","ios":"levelo://app?vid=c62b2b46-b682-47aa-bbe9-8e2746e94a5a"},"vehicle_type_id":"4","last_reported":1745924909,"current_range_meters":19200,"station_id":"ce4bh612rcd13ifvqe6g","pricing_plan_id":"cebpf4jnsgd1na2vs0mg"},{"bike_id":"4678f98c-9605-485e-9f52-d38650b7e3f9","system_id":"levelo_inurba_marseille","lat":43.3248,"lon":5.36563,"is_reserved":false,"is_disabled":false,"rental_uris":{"android":"levelo://app?vid=4678f98c-9605-485e-9f52-d38650b7e3f9","ios":"levelo://app?vid=4678f98c-9605-485e-9f52-d38650b7e3f9"},"vehicle_type_id":"4","last_reported":1745924909,"current_range_meters":19200,"station_id":"ce4bhs12rcd13ifvqhvg","pricing_plan_id":"cebpf4jnsgd1na2vs0mg"},{"bike_id":"ffc0ae0c-e92e-419f-a902-e6f12b9d2818","system_id":"levelo_inurba_marseille","lat":43.28978,"lon":5.37842,"is_reserved":false,"is_disabled":false,"rental_uris":{"android":"levelo://app?vid=ffc0ae0c-e92e-419f-a902-e6f12b9d2818","ios":"levelo://app?vid=ffc0ae0c-e92e-419f-a902-e6f12b9d2818"},"vehicle_type_id":"4","last_reported":1745924909,"current_range_meters":19200,"station_id":"ce4bh9p2rcd13ifvqed0","pricing_plan_id":"cebpf4jnsgd1na2vs0mg"},{"bike_id":"8179376d-d4e0-4616-b23d-8a06eae09f1a","system_id":"levelo_inurba_marseille","lat":43.34158,"lon":5.40904,"is_reserved":false,"is_disabled":false,"rental_uris":{"android":"levelo://app?vid=8179376d-d4e0-4616-b23d-8a06eae09f1a","ios":"levelo://app?vid=8179376d-d4e0-4616-b23d-8a06eae09f1a"},"vehicle_type_id":"4","last_reported":1745924909,"current_range_meters":19200,"station_id":"ce4bhqh2rcd13ifvqhlg","pricing_plan_id":"cebpf4jnsgd1na2vs0mg"},{"bike_id":"c1fc9fa1-4fc5-4404-a817-9fbf4362e7f5","system_id":"levelo_inurba_marseille","lat":43.2857,"lon":5.384256,"is_reserved":false,"is_disabled":false,"rental_uris":{"android":"levelo://app?vid=c1fc9fa1-4fc5-4404-a817-9fbf4362e7f5","ios":"levelo://app?vid=c1fc9fa1-4fc5-4404-a817-9fbf4362e7f5"},"vehicle_type_id":"4","last_reported":1745924909,"current_range_meters":19600,"station_id":"ce4bho92rcd13ifvqh3g","pricing_plan_id":"cebpf4jnsgd1na2vs0mg"},{"bike_id":"c1995f3f-0495-4507-8d09-527e63d69b75","system_id":"levelo_inurba_marseille","lat":43.306545,"lon":5.400901,"is_reserved":false,"is_disabled":true,"rental_uris":{"android":"levelo://app?vid=c1995f3f-0495-4507-8d09-527e63d69b75","ios":"levelo://app?vid=c1995f3f-0495-4507-8d09-527e63d69b75"},"vehicle_type_id":"4","last_reported":1745924909,"current_range_meters":19600,"station_id":"ce4bh112rcd13ifvqda0","pricing_plan_id":"cebpf4jnsgd1na2vs0mg"},{"bike_id":"e2164ade-c5e1-45ee-975b-71a173f3cc12","system_id":"levelo_inurba_marseille","lat":43.306793,"lon":5.43699,"is_reserved":false,"is_disabled":false,"rental_uris":{"android":"levelo://app?vid=e2164ade-c5e1-45ee-975b-71a173f3cc12","ios":"levelo://app?vid=e2164ade-c5e1-45ee-975b-71a173f3cc12"},"vehicle_type_id":"4","last_reported":1745924909,"current_range_meters":19600,"station_id":"ce4bhph2rcd13ifvqheg","pricing_plan_id":"cebpf4jnsgd1na2vs0mg"},{"bike_id":"3f2c8720-4262-4c4b-b203-35899e59c127","system_id":"levelo_inurba_marseille","lat":43.34144,"lon":5.40912,"is_reserved":false,"is_disabled":false,"rental_uris":{"android":"levelo://app?vid=3f2c8720-4262-4c4b-b203-35899e59c127","ios":"levelo://app?vid=3f2c8720-4262-4c4b-b203-35899e59c127"},"vehicle_type_id":"4","last_reported":1745924909,"current_range_meters":19600,"station_id":"ce4bhqh2rcd13ifvqhlg","pricing_plan_id":"cebpf4jnsgd1na2vs0mg"},{"bike_id":"9af1171d-377d-4512-9219-f035a1eba435","system_id":"levelo_inurba_marseille","lat":43.26011,"lon":5.410809,"is_reserved":false,"is_disabled":false,"rental_uris":{"android":"levelo://app?vid=9af1171d-377d-4512-9219-f035a1eba435","ios":"levelo://app?vid=9af1171d-377d-4512-9219-f035a1eba435"},"vehicle_type_id":"4","last_reported":1745924909,"current_range_meters":19600,"station_id":"ce4bhm92rcd13ifvqglg","pricing_plan_id":"cebpf4jnsgd1na2vs0mg"},{"bike_id":"3fd0ef00-618e-4001-a774-5ba471e6404d","system_id":"levelo_inurba_marseille","lat":43.23153,"lon":5.43705,"is_reserved":false,"is_disabled":false,"rental_uris":{"android":"levelo://app?vid=3fd0ef00-618e-4001-a774-5ba471e6404d","ios":"levelo://app?vid=3fd0ef00-618e-4001-a774-5ba471e6404d"},"vehicle_type_id":"4","last_reported":1745924909,"current_range_meters":19600,"station_id":"ce4bhmp2rcd13ifvqgog","pricing_plan_id":"cebpf4jnsgd1na2vs0mg"},{"bike_id":"f60f422c-8408-4c5d-86fa-e131d3a9494a","system_id":"levelo_inurba_marseille","lat":43.28719,"lon":5.36087,"is_reserved":false,"is_disabled":false,"rental_uris":{"android":"levelo://app?vid=f60f422c-8408-4c5d-86fa-e131d3a9494a","ios":"levelo://app?vid=f60f422c-8408-4c5d-86fa-e131d3a9494a"},"vehicle_type_id":"4","last_reported":1745924909,"current_range_meters":19200,"station_id":"cki0cbj6b192h4jlfktg","pricing_plan_id":"cebpf4jnsgd1na2vs0mg"},{"bike_id":"86c2979e-8cf6-48ed-bdb1-835ff11e3adc","system_id":"levelo_inurba_marseille","lat":43.25396,"lon":5.41847,"is_reserved":false,"is_disabled":false,"rental_uris":{"android":"levelo://app?vid=86c2979e-8cf6-48ed-bdb1-835ff11e3adc","ios":"levelo://app?vid=86c2979e-8cf6-48ed-bdb1-835ff11e3adc"},"vehicle_type_id":"4","last_reported":1745924909,"current_range_meters":19600,"station_id":"","pricing_plan_id":"cebpf4jnsgd1na2vs0mg"},{"bike_id":"404f8bb0-e61e-473d-84e3-ad9a44a44b05","system_id":"levelo_inurba_marseille","lat":43.28431,"lon":5.34978,"is_reserved":false,"is_disabled":false,"rental_uris":{"android":"levelo://app?vid=404f8bb0-e61e-473d-84e3-ad9a44a44b05","ios":"levelo://app?vid=404f8bb0-e61e-473d-84e3-ad9a44a44b05"},"vehicle_type_id":"4","last_reported":1745924909,"current_range_meters":19600,"station_id":"ce4bhbh2rcd13ifvqepg","pricing_plan_id":"cebpf4jnsgd1na2vs0mg"},{"bike_id":"d07e9f08-8951-47bf-8386-db12b1e31127","system_id":"levelo_inurba_marseille","lat":43.28668,"lon":5.38677,"is_reserved":false,"is_disabled":false,"rental_uris":{"android":"levelo://app?vid=d07e9f08-8951-47bf-8386-db12b1e31127","ios":"levelo://app?vid=d07e9f08-8951-47bf-8386-db12b1e31127"},"vehicle_type_id":"4","last_reported":1745924909,"current_range_meters":19600,"station_id":"ce4bh492rcd13ifvqdug","pricing_plan_id":"cebpf4jnsgd1na2vs0mg"},{"bike_id":"e58c7dc6-d0ce-4eae-9c15-f4babd928b6e","system_id":"levelo_inurba_marseille","lat":43.29415,"lon":5.3863,"is_reserved":false,"is_disabled":false,"rental_uris":{"android":"levelo://app?vid=e58c7dc6-d0ce-4eae-9c15-f4babd928b6e","ios":"levelo://app?vid=e58c7dc6-d0ce-4eae-9c15-f4babd928b6e"},"vehicle_type_id":"4","last_reported":1745924909,"current_range_meters":20000,"station_id":"ce4bh2h2rcd13ifvqdh0","pricing_plan_id":"cebpf4jnsgd1na2vs0mg"},{"bike_id":"1ffef3b5-6fa0-49fa-b9a3-92e8ab97aa66","system_id":"levelo_inurba_marseille","lat":43.316902,"lon":5.404774,"is_reserved":false,"is_disabled":false,"rental_uris":{"android":"levelo://app?vid=1ffef3b5-6fa0-49fa-b9a3-92e8ab97aa66","ios":"levelo://app?vid=1ffef3b5-6fa0-49fa-b9a3-92e8ab97aa66"},"vehicle_type_id":"4","last_reported":1745924909,"current_range_meters":20000,"station_id":"ce4bh012rcd13ifvqd00","pricing_plan_id":"cebpf4jnsgd1na2vs0mg"},{"bike_id":"a6d0ce6a-843f-4729-9a07-a84d24e9d12a","system_id":"levelo_inurba_marseille","lat":43.24165,"lon":5.36386,"is_reserved":false,"is_disabled":false,"rental_uris":{"android":"levelo://app?vid=a6d0ce6a-843f-4729-9a07-a84d24e9d12a","ios":"levelo://app?vid=a6d0ce6a-843f-4729-9a07-a84d24e9d12a"},"vehicle_type_id":"4","last_reported":1745924909,"current_range_meters":20000,"station_id":"cpo36qri1sfpv3e86is0","pricing_plan_id":"cebpf4jnsgd1na2vs0mg"},{"bike_id":"637f17b1-a980-4bc5-993d-9a9de04fb5bf","system_id":"levelo_inurba_marseille","lat":43.30807,"lon":5.36905,"is_reserved":false,"is_disabled":false,"rental_uris":{"android":"levelo://app?vid=637f17b1-a980-4bc5-993d-9a9de04fb5bf","ios":"levelo://app?vid=637f17b1-a980-4bc5-993d-9a9de04fb5bf"},"vehicle_type_id":"4","last_reported":1745924909,"current_range_meters":20400,"station_id":"","pricing_plan_id":"cebpf4jnsgd1na2vs0mg"},{"bike_id":"6990f506-1b6e-4d19-81ab-004a133948bc","system_id":"levelo_inurba_marseille","lat":43.2978,"lon":5.39335,"is_reserved":false,"is_disabled":false,"rental_uris":{"android":"levelo://app?vid=6990f506-1b6e-4d19-81ab-004a133948bc","ios":"levelo://app?vid=6990f506-1b6e-4d19-81ab-004a133948bc"},"vehicle_type_id":"4","last_reported":1745924909,"current_range_meters":20400,"station_id":"chh1huq6cuj3fo74tm60","pricing_plan_id":"cebpf4jnsgd1na2vs0mg"},{"bike_id":"d98239b0-9d9e-4fab-99df-2f0a4724577a","system_id":"levelo_inurba_marseille","lat":43.27208,"lon":5.39175,"is_reserved":false,"is_disabled":false,"rental_uris":{"android":"levelo://app?vid=d98239b0-9d9e-4fab-99df-2f0a4724577a","ios":"levelo://app?vid=d98239b0-9d9e-4fab-99df-2f0a4724577a"},"vehicle_type_id":"4","last_reported":1745924909,"current_range_meters":20400,"station_id":"ce4bhhp2rcd13ifvqfm0","pricing_plan_id":"cebpf4jnsgd1na2vs0mg"},{"bike_id":"da238281-dc76-4013-9cbc-c9dbb2795121","system_id":"levelo_inurba_marseille","lat":43.28269,"lon":5.35084,"is_reserved":false,"is_disabled":false,"rental_uris":{"android":"levelo://app?vid=da238281-dc76-4013-9cbc-c9dbb2795121","ios":"levelo://app?vid=da238281-dc76-4013-9cbc-c9dbb2795121"},"vehicle_type_id":"4","last_reported":1745924909,"current_range_meters":20400,"station_id":"ce4bhbp2rcd13ifvqerg","pricing_plan_id":"cebpf4jnsgd1na2vs0mg"},{"bike_id":"456540d1-7e4b-4c94-81f7-c6140e987cde","system_id":"levelo_inurba_marseille","lat":43.33033,"lon":5.39065,"is_reserved":false,"is_disabled":false,"rental_uris":{"android":"levelo://app?vid=456540d1-7e4b-4c94-81f7-c6140e987cde","ios":"levelo://app?vid=456540d1-7e4b-4c94-81f7-c6140e987cde"},"vehicle_type_id":"4","last_reported":1745924909,"current_range_meters":20400,"station_id":"ce4bhr92rcd13ifvqhrg","pricing_plan_id":"cebpf4jnsgd1na2vs0mg"},{"bike_id":"908613eb-9a6e-4bfa-99ec-23a7f1195b61","system_id":"levelo_inurba_marseille","lat":43.28455,"lon":5.35881,"is_reserved":false,"is_disabled":false,"rental_uris":{"android":"levelo://app?vid=908613eb-9a6e-4bfa-99ec-23a7f1195b61","ios":"levelo://app?vid=908613eb-9a6e-4bfa-99ec-23a7f1195b61"},"vehicle_type_id":"4","last_reported":1745924909,"current_range_meters":20400,"station_id":"ce4bhah2rcd13ifvqei0","pricing_plan_id":"cebpf4jnsgd1na2vs0mg"},{"bike_id":"3f524380-8d4f-4a66-b8ac-b99ae8612063","system_id":"levelo_inurba_marseille","lat":43.24173,"lon":5.39721,"is_reserved":false,"is_disabled":false,"rental_uris":{"android":"levelo://app?vid=3f524380-8d4f-4a66-b8ac-b99ae8612063","ios":"levelo://app?vid=3f524380-8d4f-4a66-b8ac-b99ae8612063"},"vehicle_type_id":"4","last_reported":1745924909,"current_range_meters":20400,"station_id":"ce4bhn12rcd13ifvqgpg","pricing_plan_id":"cebpf4jnsgd1na2vs0mg"},{"bike_id":"e255d8fc-d23b-4e37-9be3-4934f988bc2a","system_id":"levelo_inurba_marseille","lat":43.2904,"lon":5.37562,"is_reserved":false,"is_disabled":false,"rental_uris":{"android":"levelo://app?vid=e255d8fc-d23b-4e37-9be3-4934f988bc2a","ios":"levelo://app?vid=e255d8fc-d23b-4e37-9be3-4934f988bc2a"},"vehicle_type_id":"4","last_reported":1745924909,"current_range_meters":20000,"station_id":"ce4bh692rcd13ifvqe90","pricing_plan_id":"cebpf4jnsgd1na2vs0mg"},{"bike_id":"4974ee8a-8937-46e6-aada-e77179cb74ac","system_id":"levelo_inurba_marseille","lat":43.21202,"lon":5.35057,"is_reserved":false,"is_disabled":false,"rental_uris":{"android":"levelo://app?vid=4974ee8a-8937-46e6-aada-e77179cb74ac","ios":"levelo://app?vid=4974ee8a-8937-46e6-aada-e77179cb74ac"},"vehicle_type_id":"4","last_reported":1745924909,"current_range_meters":20400,"station_id":"st_cvj6sg6p6f1abm77japg","pricing_plan_id":"cebpf4jnsgd1na2vs0mg"},{"bike_id":"d17dbf82-7bda-4b93-a937-4aebb3880bd7","system_id":"levelo_inurba_marseille","lat":43.3305,"lon":5.39074,"is_reserved":false,"is_disabled":false,"rental_uris":{"android":"levelo://app?vid=d17dbf82-7bda-4b93-a937-4aebb3880bd7","ios":"levelo://app?vid=d17dbf82-7bda-4b93-a937-4aebb3880bd7"},"vehicle_type_id":"4","last_reported":1745924909,"current_range_meters":20400,"station_id":"ce4bhr92rcd13ifvqhrg","pricing_plan_id":"cebpf4jnsgd1na2vs0mg"},{"bike_id":"cefe2dbb-4b08-4be7-82c2-f6e3e819e683","system_id":"levelo_inurba_marseille","lat":43.28472,"lon":5.38426,"is_reserved":false,"is_disabled":false,"rental_uris":{"android":"levelo://app?vid=cefe2dbb-4b08-4be7-82c2-f6e3e819e683","ios":"levelo://app?vid=cefe2dbb-4b08-4be7-82c2-f6e3e819e683"},"vehicle_type_id":"4","last_reported":1745924909,"current_range_meters":20800,"station_id":"ce4bh512rcd13ifvqe3g","pricing_plan_id":"cebpf4jnsgd1na2vs0mg"},{"bike_id":"754aaf30-d130-45cd-8668-ae35915e3408","system_id":"levelo_inurba_marseille","lat":43.305415,"lon":5.366888,"is_reserved":false,"is_disabled":false,"rental_uris":{"android":"levelo://app?vid=754aaf30-d130-45cd-8668-ae35915e3408","ios":"levelo://app?vid=754aaf30-d130-45cd-8668-ae35915e3408"},"vehicle_type_id":"4","last_reported":1745924909,"current_range_meters":20800,"station_id":"ce4bgrp2rcd13ifvqc9g","pricing_plan_id":"cebpf4jnsgd1na2vs0mg"},{"bike_id":"11117230-fa97-4b3a-941f-864565df38e2","system_id":"levelo_inurba_marseille","lat":43.25585,"lon":5.38231,"is_reserved":false,"is_disabled":false,"rental_uris":{"android":"levelo://app?vid=11117230-fa97-4b3a-941f-864565df38e2","ios":"levelo://app?vid=11117230-fa97-4b3a-941f-864565df38e2"},"vehicle_type_id":"4","last_reported":1745924909,"current_range_meters":20800,"station_id":"ce4bhih2rcd13ifvqfs0","pricing_plan_id":"cebpf4jnsgd1na2vs0mg"},{"bike_id":"2372f7c6-1089-4c13-bafe-c3d7862aadcc","system_id":"levelo_inurba_marseille","lat":43.3171,"lon":5.43709,"is_reserved":false,"is_disabled":false,"rental_uris":{"android":"levelo://app?vid=2372f7c6-1089-4c13-bafe-c3d7862aadcc","ios":"levelo://app?vid=2372f7c6-1089-4c13-bafe-c3d7862aadcc"},"vehicle_type_id":"4","last_reported":1745924909,"current_range_meters":21600,"station_id":"ce4bhp92rcd13ifvqhcg","pricing_plan_id":"cebpf4jnsgd1na2vs0mg"},{"bike_id":"2a4f5dfa-513d-46a0-923b-e5be40c3c2bc","system_id":"levelo_inurba_marseille","lat":43.28458,"lon":5.39195,"is_reserved":false,"is_disabled":true,"rental_uris":{"android":"levelo://app?vid=2a4f5dfa-513d-46a0-923b-e5be40c3c2bc","ios":"levelo://app?vid=2a4f5dfa-513d-46a0-923b-e5be40c3c2bc"},"vehicle_type_id":"4","last_reported":1745924909,"current_range_meters":21600,"station_id":"ce4bhoh2rcd13ifvqh5g","pricing_plan_id":"cebpf4jnsgd1na2vs0mg"},{"bike_id":"ba00c71d-c34b-4936-8681-b1a24af9530b","system_id":"levelo_inurba_marseille","lat":43.287019,"lon":5.399905,"is_reserved":false,"is_disabled":false,"rental_uris":{"android":"levelo://app?vid=ba00c71d-c34b-4936-8681-b1a24af9530b","ios":"levelo://app?vid=ba00c71d-c34b-4936-8681-b1a24af9530b"},"vehicle_type_id":"4","last_reported":1745924909,"current_range_meters":21600,"station_id":"ce4bho92rcd13ifvqh3g","pricing_plan_id":"cebpf4jnsgd1na2vs0mg"},{"bike_id":"957a3d0d-ba17-460f-b4ec-4c0136a5ba25","system_id":"levelo_inurba_marseille","lat":43.298756,"lon":5.397409,"is_reserved":false,"is_disabled":true,"rental_uris":{"android":"levelo://app?vid=957a3d0d-ba17-460f-b4ec-4c0136a5ba25","ios":"levelo://app?vid=957a3d0d-ba17-460f-b4ec-4c0136a5ba25"},"vehicle_type_id":"4","last_reported":1745924909,"current_range_meters":21600,"station_id":"ce4bh0h2rcd13ifvqd50","pricing_plan_id":"cebpf4jnsgd1na2vs0mg"},{"bike_id":"777f3c15-7c93-4f3f-ad42-6cdda36b8775","system_id":"levelo_inurba_marseille","lat":43.24806,"lon":5.37454,"is_reserved":false,"is_disabled":false,"rental_uris":{"android":"levelo://app?vid=777f3c15-7c93-4f3f-ad42-6cdda36b8775","ios":"levelo://app?vid=777f3c15-7c93-4f3f-ad42-6cdda36b8775"},"vehicle_type_id":"4","last_reported":1745924909,"current_range_meters":16000,"station_id":"ce4bhgh2rcd13ifvqfb0","pricing_plan_id":"cebpf4jnsgd1na2vs0mg"},{"bike_id":"21e8fb0f-7ca9-47b6-b2bd-a7d413707eae","system_id":"levelo_inurba_marseille","lat":43.28445,"lon":5.39208,"is_reserved":false,"is_disabled":false,"rental_uris":{"android":"levelo://app?vid=21e8fb0f-7ca9-47b6-b2bd-a7d413707eae","ios":"levelo://app?vid=21e8fb0f-7ca9-47b6-b2bd-a7d413707eae"},"vehicle_type_id":"4","last_reported":1745924909,"current_range_meters":21600,"station_id":"ce4bhoh2rcd13ifvqh5g","pricing_plan_id":"cebpf4jnsgd1na2vs0mg"},{"bike_id":"4986bb52-c3b3-44cb-89c8-2d725b88ffc8","system_id":"levelo_inurba_marseille","lat":43.28463,"lon":5.35885,"is_reserved":false,"is_disabled":false,"rental_uris":{"android":"levelo://app?vid=4986bb52-c3b3-44cb-89c8-2d725b88ffc8","ios":"levelo://app?vid=4986bb52-c3b3-44cb-89c8-2d725b88ffc8"},"vehicle_type_id":"4","last_reported":1745924909,"current_range_meters":21600,"station_id":"ce4bhah2rcd13ifvqei0","pricing_plan_id":"cebpf4jnsgd1na2vs0mg"},{"bike_id":"516bcf45-fb34-498c-8400-bae34598544a","system_id":"levelo_inurba_marseille","lat":43.31096,"lon":5.42427,"is_reserved":false,"is_disabled":false,"rental_uris":{"android":"levelo://app?vid=516bcf45-fb34-498c-8400-bae34598544a","ios":"levelo://app?vid=516bcf45-fb34-498c-8400-bae34598544a"},"vehicle_type_id":"4","last_reported":1745924909,"current_range_meters":21600,"station_id":"ce4bhp92rcd13ifvqhag","pricing_plan_id":"cebpf4jnsgd1na2vs0mg"},{"bike_id":"77b6d542-adcd-47dc-8e89-46232fdb69bd","system_id":"levelo_inurba_marseille","lat":43.30596,"lon":5.39364,"is_reserved":false,"is_disabled":false,"rental_uris":{"android":"levelo://app?vid=77b6d542-adcd-47dc-8e89-46232fdb69bd","ios":"levelo://app?vid=77b6d542-adcd-47dc-8e89-46232fdb69bd"},"vehicle_type_id":"4","last_reported":1745924909,"current_range_meters":21600,"station_id":"ce4bh0p2rcd13ifvqd80","pricing_plan_id":"cebpf4jnsgd1na2vs0mg"},{"bike_id":"39089e5b-adfa-4663-816f-59cf0daa187e","system_id":"levelo_inurba_marseille","lat":43.28276,"lon":5.35078,"is_reserved":false,"is_disabled":false,"rental_uris":{"android":"levelo://app?vid=39089e5b-adfa-4663-816f-59cf0daa187e","ios":"levelo://app?vid=39089e5b-adfa-4663-816f-59cf0daa187e"},"vehicle_type_id":"4","last_reported":1745924909,"current_range_meters":21600,"station_id":"ce4bhbp2rcd13ifvqerg","pricing_plan_id":"cebpf4jnsgd1na2vs0mg"},{"bike_id":"7005a0b7-7aa9-4f34-97b0-afebb65812fe","system_id":"levelo_inurba_marseille","lat":43.283502,"lon":5.38103,"is_reserved":false,"is_disabled":false,"rental_uris":{"android":"levelo://app?vid=7005a0b7-7aa9-4f34-97b0-afebb65812fe","ios":"levelo://app?vid=7005a0b7-7aa9-4f34-97b0-afebb65812fe"},"vehicle_type_id":"4","last_reported":1745924909,"current_range_meters":21600,"station_id":"ce4bh412rcd13ifvqdr0","pricing_plan_id":"cebpf4jnsgd1na2vs0mg"},{"bike_id":"9bfe6821-b569-461d-b21b-20646d93475e","system_id":"levelo_inurba_marseille","lat":43.324809,"lon":5.365725,"is_reserved":false,"is_disabled":false,"rental_uris":{"android":"levelo://app?vid=9bfe6821-b569-461d-b21b-20646d93475e","ios":"levelo://app?vid=9bfe6821-b569-461d-b21b-20646d93475e"},"vehicle_type_id":"4","last_reported":1745924909,"current_range_meters":22000,"station_id":"ce4bhs12rcd13ifvqhvg","pricing_plan_id":"cebpf4jnsgd1na2vs0mg"},{"bike_id":"7940bc1b-eaa7-4f49-a435-46dc9391f6a1","system_id":"levelo_inurba_marseille","lat":43.21201,"lon":5.35062,"is_reserved":false,"is_disabled":false,"rental_uris":{"android":"levelo://app?vid=7940bc1b-eaa7-4f49-a435-46dc9391f6a1","ios":"levelo://app?vid=7940bc1b-eaa7-4f49-a435-46dc9391f6a1"},"vehicle_type_id":"4","last_reported":1745924909,"current_range_meters":22000,"station_id":"","pricing_plan_id":"cebpf4jnsgd1na2vs0mg"},{"bike_id":"cb6e88c7-a3be-426d-8180-758d9be0b9cb","system_id":"levelo_inurba_marseille","lat":43.31166,"lon":5.38717,"is_reserved":false,"is_disabled":false,"rental_uris":{"android":"levelo://app?vid=cb6e88c7-a3be-426d-8180-758d9be0b9cb","ios":"levelo://app?vid=cb6e88c7-a3be-426d-8180-758d9be0b9cb"},"vehicle_type_id":"4","last_reported":1745924909,"current_range_meters":22000,"station_id":"ce4bgv12rcd13ifvqcp0","pricing_plan_id":"cebpf4jnsgd1na2vs0mg"},{"bike_id":"3a56c7d5-b183-44c4-8816-c3712c864d5f","system_id":"levelo_inurba_marseille","lat":43.24396,"lon":5.37065,"is_reserved":false,"is_disabled":false,"rental_uris":{"android":"levelo://app?vid=3a56c7d5-b183-44c4-8816-c3712c864d5f","ios":"levelo://app?vid=3a56c7d5-b183-44c4-8816-c3712c864d5f"},"vehicle_type_id":"4","last_reported":1745924909,"current_range_meters":22000,"station_id":"ce4bhhh2rcd13ifvqfk0","pricing_plan_id":"cebpf4jnsgd1na2vs0mg"},{"bike_id":"9a6d1a0d-0520-4c44-b0a9-74ddbe754418","system_id":"levelo_inurba_marseille","lat":43.25712,"lon":5.41113,"is_reserved":false,"is_disabled":false,"rental_uris":{"android":"levelo://app?vid=9a6d1a0d-0520-4c44-b0a9-74ddbe754418","ios":"levelo://app?vid=9a6d1a0d-0520-4c44-b0a9-74ddbe754418"},"vehicle_type_id":"4","last_reported":1745924909,"current_range_meters":22400,"station_id":"ce4bhkp2rcd13ifvqgd0","pricing_plan_id":"cebpf4jnsgd1na2vs0mg"},{"bike_id":"c7ac3f4d-99da-4672-86a5-a20a296c8918","system_id":"levelo_inurba_marseille","lat":43.24175,"lon":5.39725,"is_reserved":false,"is_disabled":false,"rental_uris":{"android":"levelo://app?vid=c7ac3f4d-99da-4672-86a5-a20a296c8918","ios":"levelo://app?vid=c7ac3f4d-99da-4672-86a5-a20a296c8918"},"vehicle_type_id":"4","last_reported":1745924909,"current_range_meters":22800,"station_id":"ce4bhn12rcd13ifvqgpg","pricing_plan_id":"cebpf4jnsgd1na2vs0mg"},{"bike_id":"e88a35a0-074d-46ff-aa49-eefebc4ee102","system_id":"levelo_inurba_marseille","lat":43.28486,"lon":5.38424,"is_reserved":false,"is_disabled":true,"rental_uris":{"android":"levelo://app?vid=e88a35a0-074d-46ff-aa49-eefebc4ee102","ios":"levelo://app?vid=e88a35a0-074d-46ff-aa49-eefebc4ee102"},"vehicle_type_id":"4","last_reported":1745924909,"current_range_meters":22800,"station_id":"ce4bh512rcd13ifvqe3g","pricing_plan_id":"cebpf4jnsgd1na2vs0mg"},{"bike_id":"a2027eae-f30e-4c20-afb8-4e1573f07774","system_id":"levelo_inurba_marseille","lat":43.2827,"lon":5.35062,"is_reserved":false,"is_disabled":false,"rental_uris":{"android":"levelo://app?vid=a2027eae-f30e-4c20-afb8-4e1573f07774","ios":"levelo://app?vid=a2027eae-f30e-4c20-afb8-4e1573f07774"},"vehicle_type_id":"4","last_reported":1745924909,"current_range_meters":22800,"station_id":"ce4bhbp2rcd13ifvqerg","pricing_plan_id":"cebpf4jnsgd1na2vs0mg"},{"bike_id":"b7a62404-f454-409a-b5fd-e365e7173c8b","system_id":"levelo_inurba_marseille","lat":43.287275,"lon":5.360834,"is_reserved":false,"is_disabled":false,"rental_uris":{"android":"levelo://app?vid=b7a62404-f454-409a-b5fd-e365e7173c8b","ios":"levelo://app?vid=b7a62404-f454-409a-b5fd-e365e7173c8b"},"vehicle_type_id":"4","last_reported":1745924909,"current_range_meters":22400,"station_id":"cki0cbj6b192h4jlfktg","pricing_plan_id":"cebpf4jnsgd1na2vs0mg"},{"bike_id":"51a9d426-cd84-4f8c-8ca7-fce72ec8597d","system_id":"levelo_inurba_marseille","lat":43.3063,"lon":5.37316,"is_reserved":false,"is_disabled":false,"rental_uris":{"android":"levelo://app?vid=51a9d426-cd84-4f8c-8ca7-fce72ec8597d","ios":"levelo://app?vid=51a9d426-cd84-4f8c-8ca7-fce72ec8597d"},"vehicle_type_id":"4","last_reported":1745924909,"current_range_meters":22800,"station_id":"ce4bgqh2rcd13ifvqc4g","pricing_plan_id":"cebpf4jnsgd1na2vs0mg"},{"bike_id":"4bf6b69b-e08a-490c-9b07-d13072b37d89","system_id":"levelo_inurba_marseille","lat":43.24154,"lon":5.36411,"is_reserved":false,"is_disabled":false,"rental_uris":{"android":"levelo://app?vid=4bf6b69b-e08a-490c-9b07-d13072b37d89","ios":"levelo://app?vid=4bf6b69b-e08a-490c-9b07-d13072b37d89"},"vehicle_type_id":"4","last_reported":1745924909,"current_range_meters":23200,"station_id":"cpo36qri1sfpv3e86is0","pricing_plan_id":"cebpf4jnsgd1na2vs0mg"},{"bike_id":"6a7e4adb-0ab5-4ac5-8096-dfd43705db28","system_id":"levelo_inurba_marseille","lat":43.3093,"lon":5.36826,"is_reserved":false,"is_disabled":false,"rental_uris":{"android":"levelo://app?vid=6a7e4adb-0ab5-4ac5-8096-dfd43705db28","ios":"levelo://app?vid=6a7e4adb-0ab5-4ac5-8096-dfd43705db28"},"vehicle_type_id":"4","last_reported":1745924909,"current_range_meters":23200,"station_id":"ce4bgn92rcd13ifvqbvg","pricing_plan_id":"cebpf4jnsgd1na2vs0mg"},{"bike_id":"611a0457-c030-414d-ab6c-00bac288ee1d","system_id":"levelo_inurba_marseille","lat":43.282677,"lon":5.350551,"is_reserved":false,"is_disabled":false,"rental_uris":{"android":"levelo://app?vid=611a0457-c030-414d-ab6c-00bac288ee1d","ios":"levelo://app?vid=611a0457-c030-414d-ab6c-00bac288ee1d"},"vehicle_type_id":"4","last_reported":1745924909,"current_range_meters":23200,"station_id":"ce4bhbp2rcd13ifvqerg","pricing_plan_id":"cebpf4jnsgd1na2vs0mg"},{"bike_id":"d387ec8c-8447-4b0e-9ebc-d107f265972e","system_id":"levelo_inurba_marseille","lat":43.24666,"lon":5.38149,"is_reserved":false,"is_disabled":false,"rental_uris":{"android":"levelo://app?vid=d387ec8c-8447-4b0e-9ebc-d107f265972e","ios":"levelo://app?vid=d387ec8c-8447-4b0e-9ebc-d107f265972e"},"vehicle_type_id":"4","last_reported":1745924909,"current_range_meters":23200,"station_id":"ce4bhih2rcd13ifvqfr0","pricing_plan_id":"cebpf4jnsgd1na2vs0mg"},{"bike_id":"068daa68-ee42-4c4a-9634-dfcc75c55146","system_id":"levelo_inurba_marseille","lat":43.29273,"lon":5.37637,"is_reserved":false,"is_disabled":false,"rental_uris":{"android":"levelo://app?vid=068daa68-ee42-4c4a-9634-dfcc75c55146","ios":"levelo://app?vid=068daa68-ee42-4c4a-9634-dfcc75c55146"},"vehicle_type_id":"4","last_reported":1745924909,"current_range_meters":23200,"station_id":"ce4bgi12rcd13ifvqb80","pricing_plan_id":"cebpf4jnsgd1na2vs0mg"},{"bike_id":"01bbe0b0-0f60-4e3f-92d5-8f4ec380fa57","system_id":"levelo_inurba_marseille","lat":43.30905,"lon":5.36848,"is_reserved":false,"is_disabled":false,"rental_uris":{"android":"levelo://app?vid=01bbe0b0-0f60-4e3f-92d5-8f4ec380fa57","ios":"levelo://app?vid=01bbe0b0-0f60-4e3f-92d5-8f4ec380fa57"},"vehicle_type_id":"4","last_reported":1745924909,"current_range_meters":23200,"station_id":"ce4bgn92rcd13ifvqbvg","pricing_plan_id":"cebpf4jnsgd1na2vs0mg"},{"bike_id":"2a602694-8fba-468f-bd3f-6615edcda97c","system_id":"levelo_inurba_marseille","lat":43.2919,"lon":5.35803,"is_reserved":false,"is_disabled":false,"rental_uris":{"android":"levelo://app?vid=2a602694-8fba-468f-bd3f-6615edcda97c","ios":"levelo://app?vid=2a602694-8fba-468f-bd3f-6615edcda97c"},"vehicle_type_id":"4","last_reported":1745924909,"current_range_meters":23200,"station_id":"ce4bhb12rcd13ifvqel0","pricing_plan_id":"cebpf4jnsgd1na2vs0mg"},{"bike_id":"e018ea7e-0a82-4ad1-a22d-eaa58a6fc828","system_id":"levelo_inurba_marseille","lat":43.27054,"lon":5.4027,"is_reserved":false,"is_disabled":false,"rental_uris":{"android":"levelo://app?vid=e018ea7e-0a82-4ad1-a22d-eaa58a6fc828","ios":"levelo://app?vid=e018ea7e-0a82-4ad1-a22d-eaa58a6fc828"},"vehicle_type_id":"4","last_reported":1745924909,"current_range_meters":23200,"station_id":"ce4bhk92rcd13ifvqgc0","pricing_plan_id":"cebpf4jnsgd1na2vs0mg"},{"bike_id":"b2d217dd-c132-446a-ad3c-9c9bfd0a4a78","system_id":"levelo_inurba_marseille","lat":43.32289,"lon":5.38272,"is_reserved":false,"is_disabled":false,"rental_uris":{"android":"levelo://app?vid=b2d217dd-c132-446a-ad3c-9c9bfd0a4a78","ios":"levelo://app?vid=b2d217dd-c132-446a-ad3c-9c9bfd0a4a78"},"vehicle_type_id":"4","last_reported":1745924909,"current_range_meters":23200,"station_id":"ce4bhr12rcd13ifvqhqg","pricing_plan_id":"cebpf4jnsgd1na2vs0mg"},{"bike_id":"6b68380b-538d-4e82-a837-46085847b0db","system_id":"levelo_inurba_marseille","lat":43.28463,"lon":5.35891,"is_reserved":false,"is_disabled":true,"rental_uris":{"android":"levelo://app?vid=6b68380b-538d-4e82-a837-46085847b0db","ios":"levelo://app?vid=6b68380b-538d-4e82-a837-46085847b0db"},"vehicle_type_id":"4","last_reported":1745924909,"current_range_meters":23200,"station_id":"ce4bhah2rcd13ifvqei0","pricing_plan_id":"cebpf4jnsgd1na2vs0mg"},{"bike_id":"e1040080-c422-4ecf-9285-1bc1acbd34e4","system_id":"levelo_inurba_marseille","lat":43.29555,"lon":5.42289,"is_reserved":false,"is_disabled":false,"rental_uris":{"android":"levelo://app?vid=e1040080-c422-4ecf-9285-1bc1acbd34e4","ios":"levelo://app?vid=e1040080-c422-4ecf-9285-1bc1acbd34e4"},"vehicle_type_id":"4","last_reported":1745924909,"current_range_meters":23200,"station_id":"ce4bhph2rcd13ifvqhdg","pricing_plan_id":"cebpf4jnsgd1na2vs0mg"},{"bike_id":"96baf9a6-841e-4690-9df0-a162de25ce22","system_id":"levelo_inurba_marseille","lat":43.24388,"lon":5.37059,"is_reserved":false,"is_disabled":false,"rental_uris":{"android":"levelo://app?vid=96baf9a6-841e-4690-9df0-a162de25ce22","ios":"levelo://app?vid=96baf9a6-841e-4690-9df0-a162de25ce22"},"vehicle_type_id":"4","last_reported":1745924909,"current_range_meters":24000,"station_id":"ce4bhhh2rcd13ifvqfk0","pricing_plan_id":"cebpf4jnsgd1na2vs0mg"},{"bike_id":"a8eeeb4b-b61c-4382-a13e-f1306a612500","system_id":"levelo_inurba_marseille","lat":43.261751,"lon":5.39342,"is_reserved":false,"is_disabled":false,"rental_uris":{"android":"levelo://app?vid=a8eeeb4b-b61c-4382-a13e-f1306a612500","ios":"levelo://app?vid=a8eeeb4b-b61c-4382-a13e-f1306a612500"},"vehicle_type_id":"4","last_reported":1745924909,"current_range_meters":24000,"station_id":"","pricing_plan_id":"cebpf4jnsgd1na2vs0mg"},{"bike_id":"f70df9fb-fd26-4c89-b7f9-eca205c4a8ec","system_id":"levelo_inurba_marseille","lat":43.24175,"lon":5.39719,"is_reserved":false,"is_disabled":false,"rental_uris":{"android":"levelo://app?vid=f70df9fb-fd26-4c89-b7f9-eca205c4a8ec","ios":"levelo://app?vid=f70df9fb-fd26-4c89-b7f9-eca205c4a8ec"},"vehicle_type_id":"4","last_reported":1745924909,"current_range_meters":24000,"station_id":"ce4bhn12rcd13ifvqgpg","pricing_plan_id":"cebpf4jnsgd1na2vs0mg"},{"bike_id":"a7547c2a-7213-4c83-a268-77f294863b38","system_id":"levelo_inurba_marseille","lat":43.3079,"lon":5.37645,"is_reserved":false,"is_disabled":false,"rental_uris":{"android":"levelo://app?vid=a7547c2a-7213-4c83-a268-77f294863b38","ios":"levelo://app?vid=a7547c2a-7213-4c83-a268-77f294863b38"},"vehicle_type_id":"4","last_reported":1745924909,"current_range_meters":24000,"station_id":"ce4bgv92rcd13ifvqcq0","pricing_plan_id":"cebpf4jnsgd1na2vs0mg"},{"bike_id":"0d0660c2-7dff-4618-9edd-a09c6cef06cd","system_id":"levelo_inurba_marseille","lat":43.23153,"lon":5.43697,"is_reserved":false,"is_disabled":false,"rental_uris":{"android":"levelo://app?vid=0d0660c2-7dff-4618-9edd-a09c6cef06cd","ios":"levelo://app?vid=0d0660c2-7dff-4618-9edd-a09c6cef06cd"},"vehicle_type_id":"4","last_reported":1745924909,"current_range_meters":24000,"station_id":"ce4bhmp2rcd13ifvqgog","pricing_plan_id":"cebpf4jnsgd1na2vs0mg"},{"bike_id":"335f3505-1332-4f50-bb80-6ab65c9837ef","system_id":"levelo_inurba_marseille","lat":43.29632,"lon":5.40601,"is_reserved":false,"is_disabled":false,"rental_uris":{"android":"levelo://app?vid=335f3505-1332-4f50-bb80-6ab65c9837ef","ios":"levelo://app?vid=335f3505-1332-4f50-bb80-6ab65c9837ef"},"vehicle_type_id":"4","last_reported":1745924909,"current_range_meters":24000,"station_id":"ce4bh0h2rcd13ifvqd60","pricing_plan_id":"cebpf4jnsgd1na2vs0mg"},{"bike_id":"4ff51e02-365c-42fc-8e8d-0ecbb6fdd1e0","system_id":"levelo_inurba_marseille","lat":43.28616,"lon":5.35108,"is_reserved":false,"is_disabled":false,"rental_uris":{"android":"levelo://app?vid=4ff51e02-365c-42fc-8e8d-0ecbb6fdd1e0","ios":"levelo://app?vid=4ff51e02-365c-42fc-8e8d-0ecbb6fdd1e0"},"vehicle_type_id":"4","last_reported":1745924909,"current_range_meters":24000,"station_id":"ce4bhch2rcd13ifvqeug","pricing_plan_id":"cebpf4jnsgd1na2vs0mg"},{"bike_id":"102eb313-241b-4023-8b31-4edd44c48ed1","system_id":"levelo_inurba_marseille","lat":43.28706,"lon":5.39984,"is_reserved":false,"is_disabled":false,"rental_uris":{"android":"levelo://app?vid=102eb313-241b-4023-8b31-4edd44c48ed1","ios":"levelo://app?vid=102eb313-241b-4023-8b31-4edd44c48ed1"},"vehicle_type_id":"4","last_reported":1745924909,"current_range_meters":24000,"station_id":"ce4bho92rcd13ifvqh3g","pricing_plan_id":"cebpf4jnsgd1na2vs0mg"},{"bike_id":"3335369b-45d4-4d27-b3e2-f089e20d6e32","system_id":"levelo_inurba_marseille","lat":43.282702,"lon":5.350619,"is_reserved":false,"is_disabled":false,"rental_uris":{"android":"levelo://app?vid=3335369b-45d4-4d27-b3e2-f089e20d6e32","ios":"levelo://app?vid=3335369b-45d4-4d27-b3e2-f089e20d6e32"},"vehicle_type_id":"4","last_reported":1745924909,"current_range_meters":24000,"station_id":"ce4bhbp2rcd13ifvqerg","pricing_plan_id":"cebpf4jnsgd1na2vs0mg"},