{"last_updated":1731485547,"ttl":60,"version":"2.2","data":{"bikes":[{"bike_id":"b1e6edba-5efe-429c-b5ea-dce0aeff73b2","system_id":"levelo_inurba_marseille","lat":43.24081,"lon":5.3775,"is_reserved":false,"is_disabled":false,"rental_uris":{"android":"levelo://app?vid=b1e6edba-5efe-429c-b5ea-dce0aeff73b2","ios":"levelo://app?vid=b1e6edba-5efe-429c-b5ea-dce0aeff73b2"},"vehicle_type_id":"4","last_reported":1731485547,"current_range_meters":40000,"station_id":"ce4bhnp2rcd13ifvqgvg","pricing_plan_id":"cebpf4jnsgd1na2vs0mg"},{"bike_id":"49b11540-bb5e-4dfe-9b04-c17cffae324c","system_id":"levelo_inurba_marseille","lat":43.27506,"lon":5.42456,"is_reserved":false,"is_disabled":false,"rental_uris":{"android":"levelo://app?vid=49b11540-bb5e-4dfe-9b04-c17cffae324c","ios":"levelo://app?vid=49b11540-bb5e-4dfe-9b04-c17cffae324c"},"vehicle_type_id":"4","last_reported":1731485547,"current_range_meters":38800,"station_id":"ce4bhn92rcd13ifvqgrg","pricing_plan_id":"cebpf4jnsgd1na2vs0mg"},{"bike_id":"52c3b47c-4ac8-4b12-96e0-93b36678801c","system_id":"levelo_inurba_marseille","lat":43.30555,"lon":5.36534,"is_reserved":false,"is_disabled":false,"rental_uris":{"android":"levelo://app?vid=52c3b47c-4ac8-4b12-96e0-93b36678801c","ios":"levelo://app?vid=52c3b47c-4ac8-4b12-96e0-93b36678801c"},"vehicle_type_id":"4","last_reported":1731485547,"current_range_meters":17600,"station_id":"ce4bgs12rcd13ifvqcag","pricing_plan_id":"cebpf4jnsgd1na2vs0mg"},{"bike_id":"df77158a-51e5-4606-b27a-e316be825915","system_id":"levelo_inurba_marseille","lat":43.28153,"lon":5.42642,"is_reserved":false,"is_disabled":false,"rental_uris":{"android":"levelo://app?vid=df77158a-51e5-4606-b27a-e316be825915","ios":"levelo://app?vid=df77158a-51e5-4606-b27a-e316be825915"},"vehicle_type_id":"4","last_reported":1731485547,"current_range_meters":32800,"station_id":"ce4bhnh2rcd13ifvqgug","pricing_plan_id":"cebpf4jnsgd1na2vs0mg"},{"bike_id":"27bf17d8-3b6d-4c3f-a5d5-473cf571cca0","system_id":"levelo_inurba_marseille","lat":43.2991,"lon":5.381378,"is_reserved":false,"is_disabled":false,"rental_uris":{"android":"levelo://app?vid=27bf17d8-3b6d-4c3f-a5d5-473cf571cca0","ios":"levelo://app?vid=27bf17d8-3b6d-4c3f-a5d5-473cf571cca0"},"vehicle_type_id":"4","last_reported":1731485547,"current_range_meters":23200,"station_id":"ce4bgj12rcd13ifvqbc0","pricing_plan_id":"cebpf4jnsgd1na2vs0mg"},{"bike_id":"093b143a-ecec-424e-b05a-301513aef236","system_id":"levelo_inurba_marseille","lat":43.25933,"lon":5.40912,"is_reserved":false,"is_disabled":false,"rental_uris":{"android":"levelo://app?vid=093b143a-ecec-424e-b05a-301513aef236","ios":"levelo://app?vid=093b143a-ecec-424e-b05a-301513aef236"},"vehicle_type_id":"4","last_reported":1731485547,"current_range_meters":33200,"station_id":"ce4bhm92rcd13ifvqglg","pricing_plan_id":"cebpf4jnsgd1na2vs0mg"},{"bike_id":"4626e9cc-5d09-4e6b-bb5c-0fe5bf1a9564","system_id":"levelo_inurba_marseille","lat":43.30142,"lon":5.37426,"is_reserved":false,"is_disabled":false,"rental_uris":{"android":"levelo://app?vid=4626e9cc-5d09-4e6b-bb5c-0fe5bf1a9564","ios":"levelo://app?vid=4626e9cc-5d09-4e6b-bb5c-0fe5bf1a9564"},"vehicle_type_id":"4","last_reported":1731485547,"current_range_meters":19600,"station_id":"ce4bgs92rcd13ifvqcc0","pricing_plan_id":"cebpf4jnsgd1na2vs0mg"},{"bike_id":"afe44c09-4a07-416e-be95-3d235cec367e","system_id":"levelo_inurba_marseille","lat":43.28155,"lon":5.42644,"is_reserved":false,"is_disabled":false,"rental_uris":{"android":"levelo://app?vid=afe44c09-4a07-416e-be95-3d235cec367e","ios":"levelo://app?vid=afe44c09-4a07-416e-be95-3d235cec367e"},"vehicle_type_id":"4","last_reported":1731485547,"current_range_meters":38800,"station_id":"ce4bhnh2rcd13ifvqgug","pricing_plan_id":"cebpf4jnsgd1na2vs0mg"},{"bike_id":"4503f323-bc99-4c86-b6ef-a18862c504c6","system_id":"levelo_inurba_marseille","lat":43.27946,"lon":5.41061,"is_reserved":false,"is_disabled":false,"rental_uris":{"android":"levelo://app?vid=4503f323-bc99-4c86-b6ef-a18862c504c6","ios":"levelo://app?vid=4503f323-bc99-4c86-b6ef-a18862c504c6"},"vehicle_type_id":"4","last_reported":1731485547,"current_range_meters":3200,"station_id":"ce4bhnp2rcd13ifvqh0g","pricing_plan_id":"cebpf4jnsgd1na2vs0mg"},{"bike_id":"76ed9af1-ca3a-4f28-ae0a-904b7ae282c8","system_id":"levelo_inurba_marseille","lat":43.28154,"lon":5.42648,"is_reserved":false,"is_disabled":false,"rental_uris":{"android":"levelo://app?vid=76ed9af1-ca3a-4f28-ae0a-904b7ae282c8","ios":"levelo://app?vid=76ed9af1-ca3a-4f28-ae0a-904b7ae282c8"},"vehicle_type_id":"4","last_reported":1731485547,"current_range_meters":38800,"station_id":"ce4bhnh2rcd13ifvqgug","pricing_plan_id":"cebpf4jnsgd1na2vs0mg"},{"bike_id":"85458871-ebbe-48ac-adb8-f78b4d1f4aa8","system_id":"levelo_inurba_marseille","lat":43.28149,"lon":5.42643,"is_reserved":false,"is_disabled":false,"rental_uris":{"android":"levelo://app?vid=85458871-ebbe-48ac-adb8-f78b4d1f4aa8","ios":"levelo://app?vid=85458871-ebbe-48ac-adb8-f78b4d1f4aa8"},"vehicle_type_id":"4","last_reported":1731485547,"current_range_meters":38800,"station_id":"ce4bhnh2rcd13ifvqgug","pricing_plan_id":"cebpf4jnsgd1na2vs0mg"},{"bike_id":"ffdc187d-5434-4823-82a8-c1d3e1a84148","system_id":"levelo_inurba_marseille","lat":43.29797,"lon":5.38096,"is_reserved":false,"is_disabled":false,"rental_uris":{"android":"levelo://app?vid=ffdc187d-5434-4823-82a8-c1d3e1a84148","ios":"levelo://app?vid=ffdc187d-5434-4823-82a8-c1d3e1a84148"},"vehicle_type_id":"4","last_reported":1731485547,"current_range_meters":38800,"station_id":"ce4bgip2rcd13ifvqbb0","pricing_plan_id":"cebpf4jnsgd1na2vs0mg"},{"bike_id":"b739e764-f9b2-416b-ac90-b10eed820048","system_id":"levelo_inurba_marseille","lat":43.27494,"lon":5.42448,"is_reserved":false,"is_disabled":false,"rental_uris":{"android":"levelo://app?vid=b739e764-f9b2-416b-ac90-b10eed820048","ios":"levelo://app?vid=b739e764-f9b2-416b-ac90-b10eed820048"},"vehicle_type_id":"4","last_reported":1731485547,"current_range_meters":39200,"station_id":"ce4bhn92rcd13ifvqgrg","pricing_plan_id":"cebpf4jnsgd1na2vs0mg"},{"bike_id":"2b019341-49d6-4ff3-a3ef-0b3cc00e02fd","system_id":"levelo_inurba_marseille","lat":43.26568,"lon":5.39009,"is_reserved":false,"is_disabled":false,"rental_uris":{"android":"levelo://app?vid=2b019341-49d6-4ff3-a3ef-0b3cc00e02fd","ios":"levelo://app?vid=2b019341-49d6-4ff3-a3ef-0b3cc00e02fd"},"vehicle_type_id":"4","last_reported":1731485547,"current_range_meters":12800,"station_id":"ce4bhe12rcd13ifvqf30","pricing_plan_id":"cebpf4jnsgd1na2vs0mg"},{"bike_id":"bf84b230-e22e-4490-9999-1c1f6972af9a","system_id":"levelo_inurba_marseille","lat":43.31333,"lon":5.36725,"is_reserved":false,"is_disabled":false,"rental_uris":{"android":"levelo://app?vid=bf84b230-e22e-4490-9999-1c1f6972af9a","ios":"levelo://app?vid=bf84b230-e22e-4490-9999-1c1f6972af9a"},"vehicle_type_id":"4","last_reported":1731485547,"current_range_meters":21600,"station_id":"ce4bgr92rcd13ifvqc6g","pricing_plan_id":"cebpf4jnsgd1na2vs0mg"},{"bike_id":"f7beaa25-df17-4699-92aa-b8361c7679fa","system_id":"levelo_inurba_marseille","lat":43.27944,"lon":5.41053,"is_reserved":false,"is_disabled":false,"rental_uris":{"android":"levelo://app?vid=f7beaa25-df17-4699-92aa-b8361c7679fa","ios":"levelo://app?vid=f7beaa25-df17-4699-92aa-b8361c7679fa"},"vehicle_type_id":"4","last_reported":1731485547,"current_range_meters":30000,"station_id":"ce4bhnp2rcd13ifvqh0g","pricing_plan_id":"cebpf4jnsgd1na2vs0mg"},{"bike_id":"f1fef96a-ca51-4d1c-9a03-0dcf1ccd90b1","system_id":"levelo_inurba_marseille","lat":43.2408,"lon":5.37752,"is_reserved":false,"is_disabled":false,"rental_uris":{"android":"levelo://app?vid=f1fef96a-ca51-4d1c-9a03-0dcf1ccd90b1","ios":"levelo://app?vid=f1fef96a-ca51-4d1c-9a03-0dcf1ccd90b1"},"vehicle_type_id":"4","last_reported":1731485547,"current_range_meters":9200,"station_id":"ce4bhnp2rcd13ifvqgvg","pricing_plan_id":"cebpf4jnsgd1na2vs0mg"},{"bike_id":"a0519f75-9e8d-41a7-bee6-ecbb87a3c32a","system_id":"levelo_inurba_marseille","lat":43.24081,"lon":5.37749,"is_reserved":false,"is_disabled":false,"rental_uris":{"android":"levelo://app?vid=a0519f75-9e8d-41a7-bee6-ecbb87a3c32a","ios":"levelo://app?vid=a0519f75-9e8d-41a7-bee6-ecbb87a3c32a"},"vehicle_type_id":"4","last_reported":1731485547,"current_range_meters":11200,"station_id":"ce4bhnp2rcd13ifvqgvg","pricing_plan_id":"cebpf4jnsgd1na2vs0mg"},{"bike_id":"7feadc2c-8e73-4931-934f-fbac622b389d","system_id":"levelo_inurba_marseille","lat":43.31229,"lon":5.36863,"is_reserved":false,"is_disabled":false,"rental_uris":{"android":"levelo://app?vid=7feadc2c-8e73-4931-934f-fbac622b389d","ios":"levelo://app?vid=7feadc2c-8e73-4931-934f-fbac622b389d"},"vehicle_type_id":"4","last_reported":1731485547,"current_range_meters":29600,"station_id":"ce4bgl92rcd13ifvqbq0","pricing_plan_id":"cebpf4jnsgd1na2vs0mg"},{"bike_id":"55d2d8b2-0246-4eea-b604-9e80591018f2","system_id":"levelo_inurba_marseille","lat":43.23179,"lon":5.39986,"is_reserved":false,"is_disabled":false,"rental_uris":{"android":"levelo://app?vid=55d2d8b2-0246-4eea-b604-9e80591018f2","ios":"levelo://app?vid=55d2d8b2-0246-4eea-b604-9e80591018f2"},"vehicle_type_id":"4","last_reported":1731485547,"current_range_meters":22400,"station_id":"ce4bhn12rcd13ifvqgqg","pricing_plan_id":"cebpf4jnsgd1na2vs0mg"},{"bike_id":"4b9b7e92-9d38-417b-9fa6-a54e6072699d","system_id":"levelo_inurba_marseille","lat":43.29713,"lon":5.36612,"is_reserved":false,"is_disabled":false,"rental_uris":{"android":"levelo://app?vid=4b9b7e92-9d38-417b-9fa6-a54e6072699d","ios":"levelo://app?vid=4b9b7e92-9d38-417b-9fa6-a54e6072699d"},"vehicle_type_id":"4","last_reported":1731485547,"current_range_meters":18800,"station_id":"ce4bgn12rcd13ifvqbt0","pricing_plan_id":"cebpf4jnsgd1na2vs0mg"},{"bike_id":"29d06e99-c6c5-4b6d-bd15-01565320095d","system_id":"levelo_inurba_marseille","lat":43.286604,"lon":5.386657,"is_reserved":false,"is_disabled":false,"rental_uris":{"android":"levelo://app?vid=29d06e99-c6c5-4b6d-bd15-01565320095d","ios":"levelo://app?vid=29d06e99-c6c5-4b6d-bd15-01565320095d"},"vehicle_type_id":"4","last_reported":1731485547,"current_range_meters":22000,"station_id":"","pricing_plan_id":"cebpf4jnsgd1na2vs0mg"},{"bike_id":"a07d358b-c2a0-45c3-ab8f-468a4fd0eed3","system_id":"levelo_inurba_marseille","lat":43.30538,"lon":5.38422,"is_reserved":false,"is_disabled":false,"rental_uris":{"android":"levelo://app?vid=a07d358b-c2a0-45c3-ab8f-468a4fd0eed3","ios":"levelo://app?vid=a07d358b-c2a0-45c3-ab8f-468a4fd0eed3"},"vehicle_type_id":"4","last_reported":1731485547,"current_range_meters":38800,"station_id":"ce4bgg92rcd13ifvqb30","pricing_plan_id":"cebpf4jnsgd1na2vs0mg"},{"bike_id":"9bc99d0e-0260-45c9-806c-b66f2a47487f","system_id":"levelo_inurba_marseille","lat":43.26786,"lon":5.39411,"is_reserved":false,"is_disabled":false,"rental_uris":{"android":"levelo://app?vid=9bc99d0e-0260-45c9-806c-b66f2a47487f","ios":"levelo://app?vid=9bc99d0e-0260-45c9-806c-b66f2a47487f"},"vehicle_type_id":"4","last_reported":1731485547,"current_range_meters":34800,"station_id":"ce4bhh12rcd13ifvqfg0","pricing_plan_id":"cebpf4jnsgd1na2vs0mg"},{"bike_id":"adcc79fe-f4ff-43ea-baab-74afa3384a77","system_id":"levelo_inurba_marseille","lat":43.30187,"lon":5.36632,"is_reserved":false,"is_disabled":false,"rental_uris":{"android":"levelo://app?vid=adcc79fe-f4ff-43ea-baab-74afa3384a77","ios":"levelo://app?vid=adcc79fe-f4ff-43ea-baab-74afa3384a77"},"vehicle_type_id":"4","last_reported":1731485547,"current_range_meters":32400,"station_id":"ce4bgrh2rcd13ifvqc8g","pricing_plan_id":"cebpf4jnsgd1na2vs0mg"},{"bike_id":"9bf0cb73-9c0c-4bd2-88d6-efcbc916ecc3","system_id":"levelo_inurba_marseille","lat":43.27278,"lon":5.39995,"is_reserved":false,"is_disabled":false,"rental_uris":{"android":"levelo://app?vid=9bf0cb73-9c0c-4bd2-88d6-efcbc916ecc3","ios":"levelo://app?vid=9bf0cb73-9c0c-4bd2-88d6-efcbc916ecc3"},"vehicle_type_id":"4","last_reported":1731485547,"current_range_meters":37600,"station_id":"","pricing_plan_id":"cebpf4jnsgd1na2vs0mg"},{"bike_id":"be02b7a9-5fc1-4245-9ccb-3a5aad8539dd","system_id":"levelo_inurba_marseille","lat":43.24079,"lon":5.37757,"is_reserved":false,"is_disabled":false,"rental_uris":{"android":"levelo://app?vid=be02b7a9-5fc1-4245-9ccb-3a5aad8539dd","ios":"levelo://app?vid=be02b7a9-5fc1-4245-9ccb-3a5aad8539dd"},"vehicle_type_id":"4","last_reported":1731485547,"current_range_meters":28400,"station_id":"ce4bhnp2rcd13ifvqgvg","pricing_plan_id":"cebpf4jnsgd1na2vs0mg"},{"bike_id":"c40070b7-bb99-494d-be4f-0b86775f9124","system_id":"levelo_inurba_marseille","lat":43.29624,"lon":5.37158,"is_reserved":false,"is_disabled":false,"rental_uris":{"android":"levelo://app?vid=c40070b7-bb99-494d-be4f-0b86775f9124","ios":"levelo://app?vid=c40070b7-bb99-494d-be4f-0b86775f9124"},"vehicle_type_id":"4","last_reported":1731485547,"current_range_meters":8400,"station_id":"ce4bgnh2rcd13ifvqc0g","pricing_plan_id":"cebpf4jnsgd1na2vs0mg"},{"bike_id":"b59a3fca-f496-4ca4-9d76-d0f4b2c8fc3f","system_id":"levelo_inurba_marseille","lat":43.30143,"lon":5.37415,"is_reserved":false,"is_disabled":false,"rental_uris":{"android":"levelo://app?vid=b59a3fca-f496-4ca4-9d76-d0f4b2c8fc3f","ios":"levelo://app?vid=b59a3fca-f496-4ca4-9d76-d0f4b2c8fc3f"},"vehicle_type_id":"4","last_reported":1731485547,"current_range_meters":38800,"station_id":"ce4bgs92rcd13ifvqcc0","pricing_plan_id":"cebpf4jnsgd1na2vs0mg"},{"bike_id":"84b8d1c8-a971-478e-a611-06f69db9d1cc","system_id":"levelo_inurba_marseille","lat":43.337444,"lon":5.374475,"is_reserved":false,"is_disabled":false,"rental_uris":{"android":"levelo://app?vid=84b8d1c8-a971-478e-a611-06f69db9d1cc","ios":"levelo://app?vid=84b8d1c8-a971-478e-a611-06f69db9d1cc"},"vehicle_type_id":"4","last_reported":1731485547,"current_range_meters":38400,"station_id":"","pricing_plan_id":"cebpf4jnsgd1na2vs0mg"},{"bike_id":"886b9c8a-216d-4b9a-8f37-982faedb272f","system_id":"levelo_inurba_marseille","lat":43.24076,"lon":5.37761,"is_reserved":false,"is_disabled":false,"rental_uris":{"android":"levelo://app?vid=886b9c8a-216d-4b9a-8f37-982faedb272f","ios":"levelo://app?vid=886b9c8a-216d-4b9a-8f37-982faedb272f"},"vehicle_type_id":"4","last_reported":1731485547,"current_range_meters":17600,"station_id":"ce4bhnp2rcd13ifvqgvg","pricing_plan_id":"cebpf4jnsgd1na2vs0mg"},{"bike_id":"df4618ff-5fbb-41bb-a259-0d080b0b7b04","system_id":"levelo_inurba_marseille","lat":43.24072,"lon":5.3776,"is_reserved":false,"is_disabled":false,"rental_uris":{"android":"levelo://app?vid=df4618ff-5fbb-41bb-a259-0d080b0b7b04","ios":"levelo://app?vid=df4618ff-5fbb-41bb-a259-0d080b0b7b04"},"vehicle_type_id":"4","last_reported":1731485547,"current_range_meters":12000,"station_id":"ce4bhnp2rcd13ifvqgvg","pricing_plan_id":"cebpf4jnsgd1na2vs0mg"},{"bike_id":"ac3529de-35ab-444f-b4bb-8ce52caf8990","system_id":"levelo_inurba_marseille","lat":43.29618,"lon":5.37725,"is_reserved":false,"is_disabled":false,"rental_uris":{"android":"levelo://app?vid=ac3529de-35ab-444f-b4bb-8ce52caf8990","ios":"levelo://app?vid=ac3529de-35ab-444f-b4bb-8ce52caf8990"},"vehicle_type_id":"4","last_reported":1731485547,"current_range_meters":21600,"station_id":"ce4bgi92rcd13ifvqb90","pricing_plan_id":"cebpf4jnsgd1na2vs0mg"},{"bike_id":"a05252be-63a4-41f8-b5a4-1a81d89d0c3c","system_id":"levelo_inurba_marseille","lat":43.23202,"lon":5.39983,"is_reserved":false,"is_disabled":false,"rental_uris":{"android":"levelo://app?vid=a05252be-63a4-41f8-b5a4-1a81d89d0c3c","ios":"levelo://app?vid=a05252be-63a4-41f8-b5a4-1a81d89d0c3c"},"vehicle_type_id":"4","last_reported":1731485547,"current_range_meters":8800,"station_id":"ce4bhn12rcd13ifvqgqg","pricing_plan_id":"cebpf4jnsgd1na2vs0mg"},{"bike_id":"a1083a16-c8ce-4cd3-8629-3c14e837ced7","system_id":"levelo_inurba_marseille","lat":43.30886,"lon":5.37199,"is_reserved":false,"is_disabled":false,"rental_uris":{"android":"levelo://app?vid=a1083a16-c8ce-4cd3-8629-3c14e837ced7","ios":"levelo://app?vid=a1083a16-c8ce-4cd3-8629-3c14e837ced7"},"vehicle_type_id":"4","last_reported":1731485547,"current_range_meters":33600,"station_id":"ce4bguh2rcd13ifvqckg","pricing_plan_id":"cebpf4jnsgd1na2vs0mg"},{"bike_id":"baed5d6a-8bb4-4d67-90a7-5b20bec68b1f","system_id":"levelo_inurba_marseille","lat":43.27494,"lon":5.4245,"is_reserved":false,"is_disabled":false,"rental_uris":{"android":"levelo://app?vid=baed5d6a-8bb4-4d67-90a7-5b20bec68b1f","ios":"levelo://app?vid=baed5d6a-8bb4-4d67-90a7-5b20bec68b1f"},"vehicle_type_id":"4","last_reported":1731485547,"current_range_meters":38800,"station_id":"ce4bhn92rcd13ifvqgrg","pricing_plan_id":"cebpf4jnsgd1na2vs0mg"},{"bike_id":"b162670b-6507-4e27-baea-eca60a7bd0f9","system_id":"levelo_inurba_marseille","lat":43.30466,"lon":5.37912,"is_reserved":false,"is_disabled":false,"rental_uris":{"android":"levelo://app?vid=b162670b-6507-4e27-baea-eca60a7bd0f9","ios":"levelo://app?vid=b162670b-6507-4e27-baea-eca60a7bd0f9"},"vehicle_type_id":"4","last_reported":1731485547,"current_range_meters":38800,"station_id":"ce4bgup2rcd13ifvqcn0","pricing_plan_id":"cebpf4jnsgd1na2vs0mg"},{"bike_id":"41ff89e3-1e18-495b-b5e1-08b420470989","system_id":"levelo_inurba_marseille","lat":43.22928,"lon":5.35377,"is_reserved":false,"is_disabled":false,"rental_uris":{"android":"levelo://app?vid=41ff89e3-1e18-495b-b5e1-08b420470989","ios":"levelo://app?vid=41ff89e3-1e18-495b-b5e1-08b420470989"},"vehicle_type_id":"4","last_reported":1731485547,"current_range_meters":19200,"station_id":"cpo3532slgdg3j2ikp40","pricing_plan_id":"cebpf4jnsgd1na2vs0mg"},{"bike_id":"8f7aa1c6-0759-4214-863f-4219c9a060e4","system_id":"levelo_inurba_marseille","lat":43.27924,"lon":5.39572,"is_reserved":false,"is_disabled":false,"rental_uris":{"android":"levelo://app?vid=8f7aa1c6-0759-4214-863f-4219c9a060e4","ios":"levelo://app?vid=8f7aa1c6-0759-4214-863f-4219c9a060e4"},"vehicle_type_id":"4","last_reported":1731485547,"current_range_meters":24000,"station_id":"ce4bgi92rcd13ifvqb90","pricing_plan_id":"cebpf4jnsgd1na2vs0mg"},{"bike_id":"5432ccc7-f274-441c-93ad-eab3ad48f3af","system_id":"levelo_inurba_marseille","lat":43.31253,"lon":5.36875,"is_reserved":false,"is_disabled":false,"rental_uris":{"android":"levelo://app?vid=5432ccc7-f274-441c-93ad-eab3ad48f3af","ios":"levelo://app?vid=5432ccc7-f274-441c-93ad-eab3ad48f3af"},"vehicle_type_id":"4","last_reported":1731485547,"current_range_meters":26800,"station_id":"ce4bgl92rcd13ifvqbq0","pricing_plan_id":"cebpf4jnsgd1na2vs0mg"},{"bike_id":"195e6598-1223-4d2a-b1c0-fb88713fc3a1","system_id":"levelo_inurba_marseille","lat":43.29622,"lon":5.3717,"is_reserved":false,"is_disabled":false,"rental_uris":{"android":"levelo://app?vid=195e6598-1223-4d2a-b1c0-fb88713fc3a1","ios":"levelo://app?vid=195e6598-1223-4d2a-b1c0-fb88713fc3a1"},"vehicle_type_id":"4","last_reported":1731485547,"current_range_meters":4000,"station_id":"ce4bgnh2rcd13ifvqc0g","pricing_plan_id":"cebpf4jnsgd1na2vs0mg"},{"bike_id":"e1aa310a-8632-4474-bc41-f4f361321968","system_id":"levelo_inurba_marseille","lat":43.30289,"lon":5.37688,"is_reserved":false,"is_disabled":false,"rental_uris":{"android":"levelo://app?vid=e1aa310a-8632-4474-bc41-f4f361321968","ios":"levelo://app?vid=e1aa310a-8632-4474-bc41-f4f361321968"},"vehicle_type_id":"4","last_reported":1731485547,"current_range_meters":26800,"station_id":"ce4bguh2rcd13ifvqcj0","pricing_plan_id":"cebpf4jnsgd1na2vs0mg"},{"bike_id":"a757128a-bdc6-49ce-9bf1-9cc66e38a016","system_id":"levelo_inurba_marseille","lat":43.24804,"lon":5.37456,"is_reserved":false,"is_disabled":false,"rental_uris":{"android":"levelo://app?vid=a757128a-bdc6-49ce-9bf1-9cc66e38a016","ios":"levelo://app?vid=a757128a-bdc6-49ce-9bf1-9cc66e38a016"},"vehicle_type_id":"4","last_reported":1731485547,"current_range_meters":24000,"station_id":"ce4bhgh2rcd13ifvqfb0","pricing_plan_id":"cebpf4jnsgd1na2vs0mg"},{"bike_id":"07593388-1396-48b8-b53d-f99ad9d41363","system_id":"levelo_inurba_marseille","lat":43.30154,"lon":5.38084,"is_reserved":false,"is_disabled":false,"rental_uris":{"android":"levelo://app?vid=07593388-1396-48b8-b53d-f99ad9d41363","ios":"levelo://app?vid=07593388-1396-48b8-b53d-f99ad9d41363"},"vehicle_type_id":"4","last_reported":1731485547,"current_range_meters":36400,"station_id":"ce4bgjp2rcd13ifvqbh0","pricing_plan_id":"cebpf4jnsgd1na2vs0mg"},{"bike_id":"958d3a81-9638-44af-b044-1449b8d7509a","system_id":"levelo_inurba_marseille","lat":43.30957,"lon":5.39033,"is_reserved":false,"is_disabled":false,"rental_uris":{"android":"levelo://app?vid=958d3a81-9638-44af-b044-1449b8d7509a","ios":"levelo://app?vid=958d3a81-9638-44af-b044-1449b8d7509a"},"vehicle_type_id":"4","last_reported":1731485547,"current_range_meters":35600,"station_id":"ce4bgup2rcd13ifvqco0","pricing_plan_id":"cebpf4jnsgd1na2vs0mg"},{"bike_id":"19da92a2-24c5-4e0e-b389-c235e641b76f","system_id":"levelo_inurba_marseille","lat":43.2968,"lon":5.3729,"is_reserved":false,"is_disabled":false,"rental_uris":{"android":"levelo://app?vid=19da92a2-24c5-4e0e-b389-c235e641b76f","ios":"levelo://app?vid=19da92a2-24c5-4e0e-b389-c235e641b76f"},"vehicle_type_id":"4","last_reported":1731485547,"current_range_meters":19600,"station_id":"ce4bgk12rcd13ifvqbj0","pricing_plan_id":"cebpf4jnsgd1na2vs0mg"},{"bike_id":"07bd529e-4ac5-4f1a-b627-a87fc263b82f","system_id":"levelo_inurba_marseille","lat":43.32293,"lon":5.38263,"is_reserved":false,"is_disabled":false,"rental_uris":{"android":"levelo://app?vid=07bd529e-4ac5-4f1a-b627-a87fc263b82f","ios":"levelo://app?vid=07bd529e-4ac5-4f1a-b627-a87fc263b82f"},"vehicle_type_id":"4","last_reported":1731485547,"current_range_meters":37600,"station_id":"ce4bhr12rcd13ifvqhqg","pricing_plan_id":"cebpf4jnsgd1na2vs0mg"},{"bike_id":"3b528ae2-0c2d-432e-ba2c-3ca1610da963","system_id":"levelo_inurba_marseille","lat":43.30148,"lon":5.3807,"is_reserved":false,"is_disabled":false,"rental_uris":{"android":"levelo://app?vid=3b528ae2-0c2d-432e-ba2c-3ca1610da963","ios":"levelo://app?vid=3b528ae2-0c2d-432e-ba2c-3ca1610da963"},"vehicle_type_id":"4","last_reported":1731485547,"current_range_meters":12800,"station_id":"ce4bgjp2rcd13ifvqbh0","pricing_plan_id":"cebpf4jnsgd1na2vs0mg"},{"bike_id":"6fe05206-fb07-4154-a289-8b7473b9715b","system_id":"levelo_inurba_marseille","lat":43.24076,"lon":5.37755,"is_reserved":false,"is_disabled":false,"rental_uris":{"android":"levelo://app?vid=6fe05206-fb07-4154-a289-8b7473b9715b","ios":"levelo://app?vid=6fe05206-fb07-4154-a289-8b7473b9715b"},"vehicle_type_id":"4","last_reported":1731485547,"current_range_meters":20000,"station_id":"ce4bhnp2rcd13ifvqgvg","pricing_plan_id":"cebpf4jnsgd1na2vs0mg"},{"bike_id":"306047db-7a93-4af8-bc49-483c6235a920","system_id":"levelo_inurba_marseille","lat":43.30908,"lon":5.36841,"is_reserved":false,"is_disabled":false,"rental_uris":{"android":"levelo://app?vid=306047db-7a93-4af8-bc49-483c6235a920","ios":"levelo://app?vid=306047db-7a93-4af8-bc49-483c6235a920"},"vehicle_type_id":"4","last_reported":1731485547,"current_range_meters":32800,"station_id":"ce4bgn92rcd13ifvqbvg","pricing_plan_id":"cebpf4jnsgd1na2vs0mg"},{"bike_id":"051599f2-1553-4a38-9eeb-36a034cef22c","system_id":"levelo_inurba_marseille","lat":43.29678,"lon":5.37303,"is_reserved":false,"is_disabled":false,"rental_uris":{"android":"levelo://app?vid=051599f2-1553-4a38-9eeb-36a034cef22c","ios":"levelo://app?vid=051599f2-1553-4a38-9eeb-36a034cef22c"},"vehicle_type_id":"4","last_reported":1731485547,"current_range_meters":8000,"station_id":"ce4bgk12rcd13ifvqbj0","pricing_plan_id":"cebpf4jnsgd1na2vs0mg"},{"bike_id":"310ab87c-edaa-4ba9-ba1b-d5ec15f3a192","system_id":"levelo_inurba_marseille","lat":43.30598,"lon":5.39353,"is_reserved":false,"is_disabled":false,"rental_uris":{"android":"levelo://app?vid=310ab87c-edaa-4ba9-ba1b-d5ec15f3a192","ios":"levelo://app?vid=310ab87c-edaa-4ba9-ba1b-d5ec15f3a192"},"vehicle_type_id":"4","last_reported":1731485547,"current_range_meters":27600,"station_id":"ce4bgop2rcd13ifvqc1g","pricing_plan_id":"cebpf4jnsgd1na2vs0mg"},{"bike_id":"ad8ac9aa-aaf2-42d8-816e-14739a51908e","system_id":"levelo_inurba_marseille","lat":43.30539,"lon":5.36722,"is_reserved":false,"is_disabled":false,"rental_uris":{"android":"levelo://app?vid=ad8ac9aa-aaf2-42d8-816e-14739a51908e","ios":"levelo://app?vid=ad8ac9aa-aaf2-42d8-816e-14739a51908e"},"vehicle_type_id":"4","last_reported":1731485547,"current_range_meters":19600,"station_id":"ce4bgrp2rcd13ifvqc9g","pricing_plan_id":"cebpf4jnsgd1na2vs0mg"},{"bike_id":"5d9b33e6-b592-4aa6-b162-2eee46963a3a","system_id":"levelo_inurba_marseille","lat":43.32663,"lon":5.40989,"is_reserved":false,"is_disabled":false,"rental_uris":{"android":"levelo://app?vid=5d9b33e6-b592-4aa6-b162-2eee46963a3a","ios":"levelo://app?vid=5d9b33e6-b592-4aa6-b162-2eee46963a3a"},"vehicle_type_id":"4","last_reported":1731485547,"current_range_meters":28400,"station_id":"ce4bhpp2rcd13ifvqhgg","pricing_plan_id":"cebpf4jnsgd1na2vs0mg"},{"bike_id":"2eedc177-66d3-43ad-8e2d-78e60ce845e8","system_id":"levelo_inurba_marseille","lat":43.22929,"lon":5.35383,"is_reserved":false,"is_disabled":false,"rental_uris":{"android":"levelo://app?vid=2eedc177-66d3-43ad-8e2d-78e60ce845e8","ios":"levelo://app?vid=2eedc177-66d3-43ad-8e2d-78e60ce845e8"},"vehicle_type_id":"4","last_reported":1731485547,"current_range_meters":6800,"station_id":"cpo3532slgdg3j2ikp40","pricing_plan_id":"cebpf4jnsgd1na2vs0mg"},{"bike_id":"3169bc3e-ab2a-458d-8c2c-e9caca47c15d","system_id":"levelo_inurba_marseille","lat":43.28613,"lon":5.37063,"is_reserved":false,"is_disabled":false,"rental_uris":{"android":"levelo://app?vid=3169bc3e-ab2a-458d-8c2c-e9caca47c15d","ios":"levelo://app?vid=3169bc3e-ab2a-458d-8c2c-e9caca47c15d"},"vehicle_type_id":"4","last_reported":1731485547,"current_range_meters":25200,"station_id":"ce4bht12rcd13ifvqi60","pricing_plan_id":"cebpf4jnsgd1na2vs0mg"},{"bike_id":"cdbb696b-ea8f-41fc-ae4b-22b9f059b700","system_id":"levelo_inurba_marseille","lat":43.27999,"lon":5.41667,"is_reserved":false,"is_disabled":false,"rental_uris":{"android":"levelo://app?vid=cdbb696b-ea8f-41fc-ae4b-22b9f059b700","ios":"levelo://app?vid=cdbb696b-ea8f-41fc-ae4b-22b9f059b700"},"vehicle_type_id":"4","last_reported":1731485547,"current_range_meters":32000,"station_id":"ce4bho12rcd13ifvqh1g","pricing_plan_id":"cebpf4jnsgd1na2vs0mg"},{"bike_id":"b07b2b17-fbc4-4be0-9832-e1a26e536499","system_id":"levelo_inurba_marseille","lat":43.29935,"lon":5.36556,"is_reserved":false,"is_disabled":false,"rental_uris":{"android":"levelo://app?vid=b07b2b17-fbc4-4be0-9832-e1a26e536499","ios":"levelo://app?vid=b07b2b17-fbc4-4be0-9832-e1a26e536499"},"vehicle_type_id":"4","last_reported":1731485547,"current_range_meters":38000,"station_id":"ce4bgm92rcd13ifvqbr0","pricing_plan_id":"cebpf4jnsgd1na2vs0mg"},{"bike_id":"76759dac-69b6-4cf7-92a9-6eb2b8660389","system_id":"levelo_inurba_marseille","lat":43.24079,"lon":5.37757,"is_reserved":false,"is_disabled":false,"rental_uris":{"android":"levelo://app?vid=76759dac-69b6-4cf7-92a9-6eb2b8660389","ios":"levelo://app?vid=76759dac-69b6-4cf7-92a9-6eb2b8660389"},"vehicle_type_id":"4","last_reported":1731485547,"current_range_meters":22800,"station_id":"ce4bhnp2rcd13ifvqgvg","pricing_plan_id":"cebpf4jnsgd1na2vs0mg"},{"bike_id":"f3d531b0-fa40-4090-8486-a7d148b67087","system_id":"levelo_inurba_marseille","lat":43.27494,"lon":5.42456,"is_reserved":false,"is_disabled":false,"rental_uris":{"android":"levelo://app?vid=f3d531b0-fa40-4090-8486-a7d148b67087","ios":"levelo://app?vid=f3d531b0-fa40-4090-8486-a7d148b67087"},"vehicle_type_id":"4","last_reported":1731485547,"current_range_meters":38800,"station_id":"ce4bhn92rcd13ifvqgrg","pricing_plan_id":"cebpf4jnsgd1na2vs0mg"},{"bike_id":"85b728ef-7c62-4a7f-a060-7f65da2ca2d6","system_id":"levelo_inurba_marseille","lat":43.33611,"lon":5.41033,"is_reserved":false,"is_disabled":false,"rental_uris":{"android":"levelo://app?vid=85b728ef-7c62-4a7f-a060-7f65da2ca2d6","ios":"levelo://app?vid=85b728ef-7c62-4a7f-a060-7f65da2ca2d6"},"vehicle_type_id":"4","last_reported":1731485547,"current_range_meters":24000,"station_id":"ce4bhqh2rcd13ifvqhmg","pricing_plan_id":"cebpf4jnsgd1na2vs0mg"},{"bike_id":"fd9af9c5-f9c8-4d97-a2c2-3b6f98c6f36d","system_id":"levelo_inurba_marseille","lat":43.31338,"lon":5.36738,"is_reserved":false,"is_disabled":false,"rental_uris":{"android":"levelo://app?vid=fd9af9c5-f9c8-4d97-a2c2-3b6f98c6f36d","ios":"levelo://app?vid=fd9af9c5-f9c8-4d97-a2c2-3b6f98c6f36d"},"vehicle_type_id":"4","last_reported":1731485547,"current_range_meters":38400,"station_id":"ce4bgr92rcd13ifvqc6g","pricing_plan_id":"cebpf4jnsgd1na2vs0mg"},{"bike_id":"70a34784-fa9b-4168-b28b-b4d69e3d02af","system_id":"levelo_inurba_marseille","lat":43.25944,"lon":5.40903,"is_reserved":false,"is_disabled":false,"rental_uris":{"android":"levelo://app?vid=70a34784-fa9b-4168-b28b-b4d69e3d02af","ios":"levelo://app?vid=70a34784-fa9b-4168-b28b-b4d69e3d02af"},"vehicle_type_id":"4","last_reported":1731485547,"current_range_meters":16400,"station_id":"ce4bhm92rcd13ifvqglg","pricing_plan_id":"cebpf4jnsgd1na2vs0mg"},{"bike_id":"cc55c9b3-6e2d-4568-ae2f-d5a9d53f31ff","system_id":"levelo_inurba_marseille","lat":43.30904,"lon":5.36841,"is_reserved":false,"is_disabled":false,"rental_uris":{"android":"levelo://app?vid=cc55c9b3-6e2d-4568-ae2f-d5a9d53f31ff","ios":"levelo://app?vid=cc55c9b3-6e2d-4568-ae2f-d5a9d53f31ff"},"vehicle_type_id":"4","last_reported":1731485547,"current_range_meters":29600,"station_id":"ce4bgn92rcd13ifvqbvg","pricing_plan_id":"cebpf4jnsgd1na2vs0mg"},{"bike_id":"f2c5e768-35b6-4ee9-9828-181183c1aad4","system_id":"levelo_inurba_marseille","lat":43.31063,"lon":5.40092,"is_reserved":false,"is_disabled":false,"rental_uris":{"android":"levelo://app?vid=f2c5e768-35b6-4ee9-9828-181183c1aad4","ios":"levelo://app?vid=f2c5e768-35b6-4ee9-9828-181183c1aad4"},"vehicle_type_id":"4","last_reported":1731485547,"current_range_meters":14000,"station_id":"","pricing_plan_id":"cebpf4jnsgd1na2vs0mg"},{"bike_id":"28d743c2-f3bd-40aa-a90b-7fe16266e0ae","system_id":"levelo_inurba_marseille","lat":43.2407,"lon":5.37761,"is_reserved":false,"is_disabled":false,"rental_uris":{"android":"levelo://app?vid=28d743c2-f3bd-40aa-a90b-7fe16266e0ae","ios":"levelo://app?vid=28d743c2-f3bd-40aa-a90b-7fe16266e0ae"},"vehicle_type_id":"4","last_reported":1731485547,"current_range_meters":2000,"station_id":"ce4bhnp2rcd13ifvqgvg","pricing_plan_id":"cebpf4jnsgd1na2vs0mg"},{"bike_id":"1c53b899-7ad3-4d52-8636-ea4a31313297","system_id":"levelo_inurba_marseille","lat":43.30535,"lon":5.36557,"is_reserved":false,"is_disabled":false,"rental_uris":{"android":"levelo://app?vid=1c53b899-7ad3-4d52-8636-ea4a31313297","ios":"levelo://app?vid=1c53b899-7ad3-4d52-8636-ea4a31313297"},"vehicle_type_id":"4","last_reported":1731485547,"current_range_meters":34000,"station_id":"ce4bgs12rcd13ifvqcag","pricing_plan_id":"cebpf4jnsgd1na2vs0mg"},{"bike_id":"b48c56af-d70a-436e-80eb-0739013c1854","system_id":"levelo_inurba_marseille","lat":43.33767,"lon":5.37437,"is_reserved":false,"is_disabled":false,"rental_uris":{"android":"levelo://app?vid=b48c56af-d70a-436e-80eb-0739013c1854","ios":"levelo://app?vid=b48c56af-d70a-436e-80eb-0739013c1854"},"vehicle_type_id":"4","last_reported":1731485547,"current_range_meters":37600,"station_id":"","pricing_plan_id":"cebpf4jnsgd1na2vs0mg"},{"bike_id":"5097e7d7-796a-47c8-965f-1fec7ec3b1f3","system_id":"levelo_inurba_marseille","lat":43.24076,"lon":5.37755,"is_reserved":false,"is_disabled":false,"rental_uris":{"android":"levelo://app?vid=5097e7d7-796a-47c8-965f-1fec7ec3b1f3","ios":"levelo://app?vid=5097e7d7-796a-47c8-965f-1fec7ec3b1f3"},"vehicle_type_id":"4","last_reported":1731485547,"current_range_meters":28400,"station_id":"ce4bhnp2rcd13ifvqgvg","pricing_plan_id":"cebpf4jnsgd1na2vs0mg"},{"bike_id":"d80bea5f-f169-4dd9-9743-5bbdd1b07c90","system_id":"levelo_inurba_marseille","lat":43.24067,"lon":5.37764,"is_reserved":false,"is_disabled":false,"rental_uris":{"android":"levelo://app?vid=d80bea5f-f169-4dd9-9743-5bbdd1b07c90","ios":"levelo://app?vid=d80bea5f-f169-4dd9-9743-5bbdd1b07c90"},"vehicle_type_id":"4","last_reported":1731485547,"current_range_meters":32000,"station_id":"ce4bhnp2rcd13ifvqgvg","pricing_plan_id":"cebpf4jnsgd1na2vs0mg"},{"bike_id":"0c7a56fe-db6e-4a41-973c-ec53f85b2a81","system_id":"levelo_inurba_marseille","lat":43.29031,"lon":5.38137,"is_reserved":false,"is_disabled":false,"rental_uris":{"android":"levelo://app?vid=0c7a56fe-db6e-4a41-973c-ec53f85b2a81","ios":"levelo://app?vid=0c7a56fe-db6e-4a41-973c-ec53f85b2a81"},"vehicle_type_id":"4","last_reported":1731485547,"current_range_meters":33600,"station_id":"ce4bh4p2rcd13ifvqe1g","pricing_plan_id":"cebpf4jnsgd1na2vs0mg"},{"bike_id":"b5233aaa-a4b7-4110-b7f7-ff5211fe8092","system_id":"levelo_inurba_marseille","lat":43.30425,"lon":5.38892,"is_reserved":false,"is_disabled":false,"rental_uris":{"android":"levelo://app?vid=b5233aaa-a4b7-4110-b7f7-ff5211fe8092","ios":"levelo://app?vid=b5233aaa-a4b7-4110-b7f7-ff5211fe8092"},"vehicle_type_id":"4","last_reported":1731485547,"current_range_meters":35600,"station_id":"ce4bgk12rcd13ifvqbi0","pricing_plan_id":"cebpf4jnsgd1na2vs0mg"},{"bike_id":"d0601617-8b9d-4a3e-9c3c-3e0ab19755f9","system_id":"levelo_inurba_marseille","lat":43.298015,"lon":5.381064,"is_reserved":false,"is_disabled":false,"rental_uris":{"android":"levelo://app?vid=d0601617-8b9d-4a3e-9c3c-3e0ab19755f9","ios":"levelo://app?vid=d0601617-8b9d-4a3e-9c3c-3e0ab19755f9"},"vehicle_type_id":"4","last_reported":1731485547,"current_range_meters":28400,"station_id":"ce4bgip2rcd13ifvqbb0","pricing_plan_id":"cebpf4jnsgd1na2vs0mg"},{"bike_id":"ebad064d-0a60-4459-9190-ebb8979320f4","system_id":"levelo_inurba_marseille","lat":43.27681,"lon":5.3887,"is_reserved":false,"is_disabled":false,"rental_uris":{"android":"levelo://app?vid=ebad064d-0a60-4459-9190-ebb8979320f4","ios":"levelo://app?vid=ebad064d-0a60-4459-9190-ebb8979320f4"},"vehicle_type_id":"4","last_reported":1731485547,"current_range_meters":20000,"station_id":"ce4bhi12rcd13ifvqfo0","pricing_plan_id":"cebpf4jnsgd1na2vs0mg"},{"bike_id":"72cea627-14d8-4687-8995-c51e8f7fab80","system_id":"levelo_inurba_marseille","lat":43.231506,"lon":5.437168,"is_reserved":false,"is_disabled":false,"rental_uris":{"android":"levelo://app?vid=72cea627-14d8-4687-8995-c51e8f7fab80","ios":"levelo://app?vid=72cea627-14d8-4687-8995-c51e8f7fab80"},"vehicle_type_id":"4","last_reported":1731485547,"current_range_meters":8800,"station_id":"ce4bhmp2rcd13ifvqgog","pricing_plan_id":"cebpf4jnsgd1na2vs0mg"},{"bike_id":"4d2a726b-a12e-417f-92a8-465bb4e4adb5","system_id":"levelo_inurba_marseille","lat":43.27607,"lon":5.36106,"is_reserved":false,"is_disabled":false,"rental_uris":{"android":"levelo://app?vid=4d2a726b-a12e-417f-92a8-465bb4e4adb5","ios":"levelo://app?vid=4d2a726b-a12e-417f-92a8-465bb4e4adb5"},"vehicle_type_id":"4","last_reported":1731485547,"current_range_meters":19600,"station_id":"ce4bgj92rcd13ifvqbe0","pricing_plan_id":"cebpf4jnsgd1na2vs0mg"},{"bike_id":"b01f14ad-1c18-4774-a114-f5ad20e62224","system_id":"levelo_inurba_marseille","lat":43.32359,"lon":5.38876,"is_reserved":false,"is_disabled":false,"rental_uris":{"android":"levelo://app?vid=b01f14ad-1c18-4774-a114-f5ad20e62224","ios":"levelo://app?vid=b01f14ad-1c18-4774-a114-f5ad20e62224"},"vehicle_type_id":"4","last_reported":1731485547,"current_range_meters":32800,"station_id":"ce4bhqp2rcd13ifvqhog","pricing_plan_id":"cebpf4jnsgd1na2vs0mg"},{"bike_id":"7b3c27eb-f609-4995-afd3-a1ce7a9845fc","system_id":"levelo_inurba_marseille","lat":43.28146,"lon":5.42641,"is_reserved":false,"is_disabled":false,"rental_uris":{"android":"levelo://app?vid=7b3c27eb-f609-4995-afd3-a1ce7a9845fc","ios":"levelo://app?vid=7b3c27eb-f609-4995-afd3-a1ce7a9845fc"},"vehicle_type_id":"4","last_reported":1731485547,"current_range_meters":35200,"station_id":"ce4bhnh2rcd13ifvqgug","pricing_plan_id":"cebpf4jnsgd1na2vs0mg"},{"bike_id":"47fa2115-a012-42de-8bc1-d009b04a84f8","system_id":"levelo_inurba_marseille","lat":43.32554,"lon":5.4145,"is_reserved":false,"is_disabled":false,"rental_uris":{"android":"levelo://app?vid=47fa2115-a012-42de-8bc1-d009b04a84f8","ios":"levelo://app?vid=47fa2115-a012-42de-8bc1-d009b04a84f8"},"vehicle_type_id":"4","last_reported":1731485547,"current_range_meters":39200,"station_id":"ce4bhq12rcd13ifvqhhg","pricing_plan_id":"cebpf4jnsgd1na2vs0mg"},{"bike_id":"1b32835d-d790-4d05-9266-c8f334c89fb5","system_id":"levelo_inurba_marseille","lat":43.30164,"lon":5.38085,"is_reserved":false,"is_disabled":false,"rental_uris":{"android":"levelo://app?vid=1b32835d-d790-4d05-9266-c8f334c89fb5","ios":"levelo://app?vid=1b32835d-d790-4d05-9266-c8f334c89fb5"},"vehicle_type_id":"4","last_reported":1731485547,"current_range_meters":33600,"station_id":"ce4bgjp2rcd13ifvqbh0","pricing_plan_id":"cebpf4jnsgd1na2vs0mg"},{"bike_id":"66c47600-9b2f-4c92-8c2d-dfcc3e947360","system_id":"levelo_inurba_marseille","lat":43.280395,"lon":5.369399,"is_reserved":false,"is_disabled":false,"rental_uris":{"android":"levelo://app?vid=66c47600-9b2f-4c92-8c2d-dfcc3e947360","ios":"levelo://app?vid=66c47600-9b2f-4c92-8c2d-dfcc3e947360"},"vehicle_type_id":"4","last_reported":1731485547,"current_range_meters":28800,"station_id":"ce4bha12rcd13ifvqef0","pricing_plan_id":"cebpf4jnsgd1na2vs0mg"},{"bike_id":"32896d7f-68a8-4fca-bc22-6f7c962389f1","system_id":"levelo_inurba_marseille","lat":43.31346,"lon":5.36716,"is_reserved":false,"is_disabled":false,"rental_uris":{"android":"levelo://app?vid=32896d7f-68a8-4fca-bc22-6f7c962389f1","ios":"levelo://app?vid=32896d7f-68a8-4fca-bc22-6f7c962389f1"},"vehicle_type_id":"4","last_reported":1731485547,"current_range_meters":38000,"station_id":"ce4bgr92rcd13ifvqc6g","pricing_plan_id":"cebpf4jnsgd1na2vs0mg"},{"bike_id":"5a72a360-fb16-471f-8487-fbe39856e127","system_id":"levelo_inurba_marseille","lat":43.32545,"lon":5.41448,"is_reserved":false,"is_disabled":false,"rental_uris":{"android":"levelo://app?vid=5a72a360-fb16-471f-8487-fbe39856e127","ios":"levelo://app?vid=5a72a360-fb16-471f-8487-fbe39856e127"},"vehicle_type_id":"4","last_reported":1731485547,"current_range_meters":11200,"station_id":"ce4bhq12rcd13ifvqhhg","pricing_plan_id":"cebpf4jnsgd1na2vs0mg"},{"bike_id":"599a8662-e603-4988-81e8-a30c0fe1b8c5","system_id":"levelo_inurba_marseille","lat":43.305908,"lon":5.393563,"is_reserved":false,"is_disabled":false,"rental_uris":{"android":"levelo://app?vid=599a8662-e603-4988-81e8-a30c0fe1b8c5","ios":"levelo://app?vid=599a8662-e603-4988-81e8-a30c0fe1b8c5"},"vehicle_type_id":"4","last_reported":1731485547,"current_range_meters":24400,"station_id":"ce4bh0p2rcd13ifvqd80","pricing_plan_id":"cebpf4jnsgd1na2vs0mg"},{"bike_id":"aa3736b8-5c66-49de-afff-442a6c190407","system_id":"levelo_inurba_marseille","lat":43.2408,"lon":5.37756,"is_reserved":false,"is_disabled":false,"rental_uris":{"android":"levelo://app?vid=aa3736b8-5c66-49de-afff-442a6c190407","ios":"levelo://app?vid=aa3736b8-5c66-49de-afff-442a6c190407"},"vehicle_type_id":"4","last_reported":1731485547,"current_range_meters":38400,"station_id":"ce4bhnp2rcd13ifvqgvg","pricing_plan_id":"cebpf4jnsgd1na2vs0mg"},{"bike_id":"8963f262-bdcb-43f5-9e37-237198779ba8","system_id":"levelo_inurba_marseille","lat":43.33773,"lon":5.37442,"is_reserved":false,"is_disabled":false,"rental_uris":{"android":"levelo://app?vid=8963f262-bdcb-43f5-9e37-237198779ba8","ios":"levelo://app?vid=8963f262-bdcb-43f5-9e37-237198779ba8"},"vehicle_type_id":"4","last_reported":1731485547,"current_range_meters":38800,"station_id":"","pricing_plan_id":"cebpf4jnsgd1na2vs0mg"},{"bike_id":"9e206ec4-3bc2-4292-bb12-90ccf987d885","system_id":"levelo_inurba_marseille","lat":43.337444,"lon":5.374475,"is_reserved":false,"is_disabled":false,"rental_uris":{"android":"levelo://app?vid=9e206ec4-3bc2-4292-bb12-90ccf987d885","ios":"levelo://app?vid=9e206ec4-3bc2-4292-bb12-90ccf987d885"},"vehicle_type_id":"4","last_reported":1731485547,"current_range_meters":35600,"station_id":"","pricing_plan_id":"cebpf4jnsgd1na2vs0mg"},{"bike_id":"398b47b3-a042-4cec-b1dd-254773a78263","system_id":"levelo_inurba_marseille","lat":43.27413,"lon":5.38938,"is_reserved":false,"is_disabled":false,"rental_uris":{"android":"levelo://app?vid=398b47b3-a042-4cec-b1dd-254773a78263","ios":"levelo://app?vid=398b47b3-a042-4cec-b1dd-254773a78263"},"vehicle_type_id":"4","last_reported":1731485547,"current_range_meters":9600,"station_id":"","pricing_plan_id":"cebpf4jnsgd1na2vs0mg"},{"bike_id":"5ca61076-f921-4437-9fd6-dbfd99568fe1","system_id":"levelo_inurba_marseille","lat":43.31351,"lon":5.36734,"is_reserved":false,"is_disabled":false,"rental_uris":{"android":"levelo://app?vid=5ca61076-f921-4437-9fd6-dbfd99568fe1","ios":"levelo://app?vid=5ca61076-f921-4437-9fd6-dbfd99568fe1"},"vehicle_type_id":"4","last_reported":1731485547,"current_range_meters":28800,"station_id":"ce4bgr92rcd13ifvqc6g","pricing_plan_id":"cebpf4jnsgd1na2vs0mg"},{"bike_id":"6c2d9071-90e6-462c-96e6-e271c8cefeb7","system_id":"levelo_inurba_marseille","lat":43.318,"lon":5.40641,"is_reserved":false,"is_disabled":false,"rental_uris":{"android":"levelo://app?vid=6c2d9071-90e6-462c-96e6-e271c8cefeb7","ios":"levelo://app?vid=6c2d9071-90e6-462c-96e6-e271c8cefeb7"},"vehicle_type_id":"4","last_reported":1731485547,"current_range_meters":28400,"station_id":"","pricing_plan_id":"cebpf4jnsgd1na2vs0mg"},{"bike_id":"a356e06f-7579-40a0-8367-1e61b7961e07","system_id":"levelo_inurba_marseille","lat":43.23958,"lon":5.36637,"is_reserved":false,"is_disabled":false,"rental_uris":{"android":"levelo://app?vid=a356e06f-7579-40a0-8367-1e61b7961e07","ios":"levelo://app?vid=a356e06f-7579-40a0-8367-1e61b7961e07"},"vehicle_type_id":"4","last_reported":1731485547,"current_range_meters":40000,"station_id":"ce4bhi12rcd13ifvqfp0","pricing_plan_id":"cebpf4jnsgd1na2vs0mg"},{"bike_id":"9abbbcdd-6b6c-4d87-a185-f6fcaafd61b6","system_id":"levelo_inurba_marseille","lat":43.31342,"lon":5.36734,"is_reserved":false,"is_disabled":false,"rental_uris":{"android":"levelo://app?vid=9abbbcdd-6b6c-4d87-a185-f6fcaafd61b6","ios":"levelo://app?vid=9abbbcdd-6b6c-4d87-a185-f6fcaafd61b6"},"vehicle_type_id":"4","last_reported":1731485547,"current_range_meters":16800,"station_id":"ce4bgr92rcd13ifvqc6g","pricing_plan_id":"cebpf4jnsgd1na2vs0mg"},{"bike_id":"92e3ad17-17c9-4714-a148-ef9436ad6113","system_id":"levelo_inurba_marseille","lat":43.2294,"lon":5.35379,"is_reserved":false,"is_disabled":false,"rental_uris":{"android":"levelo://app?vid=92e3ad17-17c9-4714-a148-ef9436ad6113","ios":"levelo://app?vid=92e3ad17-17c9-4714-a148-ef9436ad6113"},"vehicle_type_id":"4","last_reported":1731485547,"current_range_meters":38000,"station_id":"cpo3532slgdg3j2ikp40","pricing_plan_id":"cebpf4jnsgd1na2vs0mg"},{"bike_id":"b82d4b5d-3873-4b38-a9da-7bcda2794ed1","system_id":"levelo_inurba_marseille","lat":43.30533,"lon":5.36557,"is_reserved":false,"is_disabled":false,"rental_uris":{"android":"levelo://app?vid=b82d4b5d-3873-4b38-a9da-7bcda2794ed1","ios":"levelo://app?vid=b82d4b5d-3873-4b38-a9da-7bcda2794ed1"},"vehicle_type_id":"4","last_reported":1731485547,"current_range_meters":17200,"station_id":"ce4bgs12rcd13ifvqcag","pricing_plan_id":"cebpf4jnsgd1na2vs0mg"},{"bike_id":"a0bffd38-f529-4b37-9227-fb3819a7a32a","system_id":"levelo_inurba_marseille","lat":43.29552,"lon":5.42281,"is_reserved":false,"is_disabled":false,"rental_uris":{"android":"levelo://app?vid=a0bffd38-f529-4b37-9227-fb3819a7a32a","ios":"levelo://app?vid=a0bffd38-f529-4b37-9227-fb3819a7a32a"},"vehicle_type_id":"4","last_reported":1731485547,"current_range_meters":35600,"station_id":"ce4bhph2rcd13ifvqhdg","pricing_plan_id":"cebpf4jnsgd1na2vs0mg"},{"bike_id":"beb7b9bd-a544-4d0c-b0ee-a6204f3f5108","system_id":"levelo_inurba_marseille","lat":43.291962,"lon":5.385193,"is_reserved":false,"is_disabled":false,"rental_uris":{"android":"levelo://app?vid=beb7b9bd-a544-4d0c-b0ee-a6204f3f5108","ios":"levelo://app?vid=beb7b9bd-a544-4d0c-b0ee-a6204f3f5108"},"vehicle_type_id":"4","last_reported":1731485547,"current_range_meters":30000,"station_id":"","pricing_plan_id":"cebpf4jnsgd1na2vs0mg"},{"bike_id":"e8cc31e8-880f-4b8d-8ec4-492eb181f840","system_id":"levelo_inurba_marseille","lat":43.23153,"lon":5.43711,"is_reserved":false,"is_disabled":false,"rental_uris":{"android":"levelo://app?vid=e8cc31e8-880f-4b8d-8ec4-492eb181f840","ios":"levelo://app?vid=e8cc31e8-880f-4b8d-8ec4-492eb181f840"},"vehicle_type_id":"4","last_reported":1731485547,"current_range_meters":12800,"station_id":"ce4bhmp2rcd13ifvqgog","pricing_plan_id":"cebpf4jnsgd1na2vs0mg"},{"bike_id":"7a54fe51-f813-4fe7-8dbe-9d245ae6bc94","system_id":"levelo_inurba_marseille","lat":43.29106,"lon":5.38145,"is_reserved":false,"is_disabled":false,"rental_uris":{"android":"levelo://app?vid=7a54fe51-f813-4fe7-8dbe-9d245ae6bc94","ios":"levelo://app?vid=7a54fe51-f813-4fe7-8dbe-9d245ae6bc94"},"vehicle_type_id":"4","last_reported":1731485547,"current_range_meters":28400,"station_id":"ce4bh512rcd13ifvqe2g","pricing_plan_id":"cebpf4jnsgd1na2vs0mg"},{"bike_id":"d8be8c43-4032-4850-a41f-1fe76ea6be1a","system_id":"levelo_inurba_marseille","lat":43.31081,"lon":5.42435,"is_reserved":false,"is_disabled":false,"rental_uris":{"android":"levelo://app?vid=d8be8c43-4032-4850-a41f-1fe76ea6be1a","ios":"levelo://app?vid=d8be8c43-4032-4850-a41f-1fe76ea6be1a"},"vehicle_type_id":"4","last_reported":1731485547,"current_range_meters":22400,"station_id":"ce4bhp92rcd13ifvqhag","pricing_plan_id":"cebpf4jnsgd1na2vs0mg"},{"bike_id":"29bced14-888e-4562-8607-efe682bc7002","system_id":"levelo_inurba_marseille","lat":43.31485,"lon":5.37312,"is_reserved":false,"is_disabled":false,"rental_uris":{"android":"levelo://app?vid=29bced14-888e-4562-8607-efe682bc7002","ios":"levelo://app?vid=29bced14-888e-4562-8607-efe682bc7002"},"vehicle_type_id":"4","last_reported":1731485547,"current_range_meters":10800,"station_id":"ce4bgt12rcd13ifvqcd0","pricing_plan_id":"cebpf4jnsgd1na2vs0mg"},{"bike_id":"9f3e3a73-fa00-4a8e-b283-359f0b590237","system_id":"levelo_inurba_marseille","lat":43.32566,"lon":5.4145,"is_reserved":false,"is_disabled":false,"rental_uris":{"android":"levelo://app?vid=9f3e3a73-fa00-4a8e-b283-359f0b590237","ios":"levelo://app?vid=9f3e3a73-fa00-4a8e-b283-359f0b590237"},"vehicle_type_id":"4","last_reported":1731485547,"current_range_meters":16800,"station_id":"ce4bhq12rcd13ifvqhhg","pricing_plan_id":"cebpf4jnsgd1na2vs0mg"},{"bike_id":"96136f58-f5d0-438f-ba55-17c131c9008a","system_id":"levelo_inurba_marseille","lat":43.25936,"lon":5.40905,"is_reserved":false,"is_disabled":false,"rental_uris":{"android":"levelo://app?vid=96136f58-f5d0-438f-ba55-17c131c9008a","ios":"levelo://app?vid=96136f58-f5d0-438f-ba55-17c131c9008a"},"vehicle_type_id":"4","last_reported":1731485547,"current_range_meters":4400,"station_id":"ce4bhm92rcd13ifvqglg","pricing_plan_id":"cebpf4jnsgd1na2vs0mg"},{"bike_id":"bd3a2ce1-48ec-4e74-a1a7-9bd3007cb483","system_id":"levelo_inurba_marseille","lat":43.2594,"lon":5.40903,"is_reserved":false,"is_disabled":false,"rental_uris":{"android":"levelo://app?vid=bd3a2ce1-48ec-4e74-a1a7-9bd3007cb483","ios":"levelo://app?vid=bd3a2ce1-48ec-4e74-a1a7-9bd3007cb483"},"vehicle_type_id":"4","last_reported":1731485547,"current_range_meters":32800,"station_id":"ce4bhm92rcd13ifvqglg","pricing_plan_id":"cebpf4jnsgd1na2vs0mg"},{"bike_id":"167eec15-1c5c-40c1-b0e3-4a048075bcb7","system_id":"levelo_inurba_marseille","lat":43.275964,"lon":5.41731,"is_reserved":false,"is_disabled":false,"rental_uris":{"android":"levelo://app?vid=167eec15-1c5c-40c1-b0e3-4a048075bcb7","ios":"levelo://app?vid=167eec15-1c5c-40c1-b0e3-4a048075bcb7"},"vehicle_type_id":"4","last_reported":1731485547,"current_range_meters":28400,"station_id":"ce4bguh2rcd13ifvqcj0","pricing_plan_id":"cebpf4jnsgd1na2vs0mg"},{"bike_id":"2e14d829-ac3b-4251-a31c-7ae0a059c1fb","system_id":"levelo_inurba_marseille","lat":43.30536,"lon":5.36708,"is_reserved":false,"is_disabled":false,"rental_uris":{"android":"levelo://app?vid=2e14d829-ac3b-4251-a31c-7ae0a059c1fb","ios":"levelo://app?vid=2e14d829-ac3b-4251-a31c-7ae0a059c1fb"},"vehicle_type_id":"4","last_reported":1731485547,"current_range_meters":27600,"station_id":"ce4bgrp2rcd13ifvqc9g","pricing_plan_id":"cebpf4jnsgd1na2vs0mg"},{"bike_id":"ad55e206-73bd-4a6a-a5ea-24a79e71b211","system_id":"levelo_inurba_marseille","lat":43.30333,"lon":5.40427,"is_reserved":false,"is_disabled":false,"rental_uris":{"android":"levelo://app?vid=ad55e206-73bd-4a6a-a5ea-24a79e71b211","ios":"levelo://app?vid=ad55e206-73bd-4a6a-a5ea-24a79e71b211"},"vehicle_type_id":"4","last_reported":1731485547,"current_range_meters":24000,"station_id":"ce4bh012rcd13ifvqd10","pricing_plan_id":"cebpf4jnsgd1na2vs0mg"},{"bike_id":"c16aad60-bed9-4b48-81c0-51e917c7cb08","system_id":"levelo_inurba_marseille","lat":43.3019,"lon":5.36621,"is_reserved":false,"is_disabled":false,"rental_uris":{"android":"levelo://app?vid=c16aad60-bed9-4b48-81c0-51e917c7cb08","ios":"levelo://app?vid=c16aad60-bed9-4b48-81c0-51e917c7cb08"},"vehicle_type_id":"4","last_reported":1731485547,"current_range_meters":30800,"station_id":"ce4bgrh2rcd13ifvqc8g","pricing_plan_id":"cebpf4jnsgd1na2vs0mg"},{"bike_id":"158757d0-f89c-452d-9746-6ab2aad19887","system_id":"levelo_inurba_marseille","lat":43.31237,"lon":5.36867,"is_reserved":false,"is_disabled":false,"rental_uris":{"android":"levelo://app?vid=158757d0-f89c-452d-9746-6ab2aad19887","ios":"levelo://app?vid=158757d0-f89c-452d-9746-6ab2aad19887"},"vehicle_type_id":"4","last_reported":1731485547,"current_range_meters":36400,"station_id":"ce4bgl92rcd13ifvqbq0","pricing_plan_id":"cebpf4jnsgd1na2vs0mg"},{"bike_id":"2fa61a3f-d1ba-4f15-8f7d-c65c0bb6da56","system_id":"levelo_inurba_marseille","lat":43.30877,"lon":5.39645,"is_reserved":false,"is_disabled":false,"rental_uris":{"android":"levelo://app?vid=2fa61a3f-d1ba-4f15-8f7d-c65c0bb6da56","ios":"levelo://app?vid=2fa61a3f-d1ba-4f15-8f7d-c65c0bb6da56"},"vehicle_type_id":"4","last_reported":1731485547,"current_range_meters":10800,"station_id":"ce4bgi92rcd13ifvqb90","pricing_plan_id":"cebpf4jnsgd1na2vs0mg"},{"bike_id":"51240ea1-df78-4ed6-ac84-adedea96dd0d","system_id":"levelo_inurba_marseille","lat":43.29275,"lon":5.36846,"is_reserved":false,"is_disabled":false,"rental_uris":{"android":"levelo://app?vid=51240ea1-df78-4ed6-ac84-adedea96dd0d","ios":"levelo://app?vid=51240ea1-df78-4ed6-ac84-adedea96dd0d"},"vehicle_type_id":"4","last_reported":1731485547,"current_range_meters":22800,"station_id":"ce4bhbp2rcd13ifvqesg","pricing_plan_id":"cebpf4jnsgd1na2vs0mg"},{"bike_id":"55396535-a3fb-4748-b397-1c6a3ca76155","system_id":"levelo_inurba_marseille","lat":43.33027,"lon":5.39041,"is_reserved":false,"is_disabled":false,"rental_uris":{"android":"levelo://app?vid=55396535-a3fb-4748-b397-1c6a3ca76155","ios":"levelo://app?vid=55396535-a3fb-4748-b397-1c6a3ca76155"},"vehicle_type_id":"4","last_reported":1731485547,"current_range_meters":24800,"station_id":"ce4bhr92rcd13ifvqhrg","pricing_plan_id":"cebpf4jnsgd1na2vs0mg"},{"bike_id":"ebad3fe3-45c6-49ab-a9a7-bd5380241ddd","system_id":"levelo_inurba_marseille","lat":43.2707,"lon":5.42278,"is_reserved":false,"is_disabled":false,"rental_uris":{"android":"levelo://app?vid=ebad3fe3-45c6-49ab-a9a7-bd5380241ddd","ios":"levelo://app?vid=ebad3fe3-45c6-49ab-a9a7-bd5380241ddd"},"vehicle_type_id":"4","last_reported":1731485547,"current_range_meters":27600,"station_id":"ce4bhk92rcd13ifvqgb0","pricing_plan_id":"cebpf4jnsgd1na2vs0mg"},{"bike_id":"437a1b74-da51-4fbb-9aa2-12371fc1eab2","system_id":"levelo_inurba_marseille","lat":43.2681,"lon":5.40266,"is_reserved":false,"is_disabled":false,"rental_uris":{"android":"levelo://app?vid=437a1b74-da51-4fbb-9aa2-12371fc1eab2","ios":"levelo://app?vid=437a1b74-da51-4fbb-9aa2-12371fc1eab2"},"vehicle_type_id":"4","last_reported":1731485547,"current_range_meters":36000,"station_id":"ce501612rcd8frsf0b60","pricing_plan_id":"cebpf4jnsgd1na2vs0mg"},{"bike_id":"a7ae197b-10d3-4ba6-b2fa-ccbf57d403bc","system_id":"levelo_inurba_marseille","lat":43.34146,"lon":5.40905,"is_reserved":false,"is_disabled":false,"rental_uris":{"android":"levelo://app?vid=a7ae197b-10d3-4ba6-b2fa-ccbf57d403bc","ios":"levelo://app?vid=a7ae197b-10d3-4ba6-b2fa-ccbf57d403bc"},"vehicle_type_id":"4","last_reported":1731485547,"current_range_meters":25200,"station_id":"ce4bhqh2rcd13ifvqhlg","pricing_plan_id":"cebpf4jnsgd1na2vs0mg"},{"bike_id":"3d8cceee-e8ae-48df-9d20-ed8626b0c570","system_id":"levelo_inurba_marseille","lat":43.33016,"lon":5.39029,"is_reserved":false,"is_disabled":false,"rental_uris":{"android":"levelo://app?vid=3d8cceee-e8ae-48df-9d20-ed8626b0c570","ios":"levelo://app?vid=3d8cceee-e8ae-48df-9d20-ed8626b0c570"},"vehicle_type_id":"4","last_reported":1731485547,"current_range_meters":35200,"station_id":"ce4bhr92rcd13ifvqhrg","pricing_plan_id":"cebpf4jnsgd1na2vs0mg"},{"bike_id":"92a7a4b8-71a2-4d89-a912-8ce23346a0d1","system_id":"levelo_inurba_marseille","lat":43.28258,"lon":5.44406,"is_reserved":false,"is_disabled":false,"rental_uris":{"android":"levelo://app?vid=92a7a4b8-71a2-4d89-a912-8ce23346a0d1","ios":"levelo://app?vid=92a7a4b8-71a2-4d89-a912-8ce23346a0d1"},"vehicle_type_id":"4","last_reported":1731485547,"current_range_meters":17200,"station_id":"","pricing_plan_id":"cebpf4jnsgd1na2vs0mg"},{"bike_id":"cb7e40d7-04c5-4851-a39c-accdd3f2389c","system_id":"levelo_inurba_marseille","lat":43.24551,"lon":5.39523,"is_reserved":false,"is_disabled":false,"rental_uris":{"android":"levelo://app?vid=cb7e40d7-04c5-4851-a39c-accdd3f2389c","ios":"levelo://app?vid=cb7e40d7-04c5-4851-a39c-accdd3f2389c"},"vehicle_type_id":"4","last_reported":1731485547,"current_range_meters":26000,"station_id":"ce4bhlp2rcd13ifvqgjg","pricing_plan_id":"cebpf4jnsgd1na2vs0mg"},{"bike_id":"32805eea-8126-4d65-a5ca-136350f63fef","system_id":"levelo_inurba_marseille","lat":43.29071,"lon":5.371547,"is_reserved":false,"is_disabled":false,"rental_uris":{"android":"levelo://app?vid=32805eea-8126-4d65-a5ca-136350f63fef","ios":"levelo://app?vid=32805eea-8126-4d65-a5ca-136350f63fef"},"vehicle_type_id":"4","last_reported":1731485547,"current_range_meters":32800,"station_id":"ce4bh5p2rcd13ifvqe4g","pricing_plan_id":"cebpf4jnsgd1na2vs0mg"},{"bike_id":"6ed300db-28f5-4f04-92ef-7f98544bb6e6","system_id":"levelo_inurba_marseille","lat":43.23967,"lon":5.36635,"is_reserved":false,"is_disabled":false,"rental_uris":{"android":"levelo://app?vid=6ed300db-28f5-4f04-92ef-7f98544bb6e6","ios":"levelo://app?vid=6ed300db-28f5-4f04-92ef-7f98544bb6e6"},"vehicle_type_id":"4","last_reported":1731485547,"current_range_meters":16400,"station_id":"ce4bhi12rcd13ifvqfp0","pricing_plan_id":"cebpf4jnsgd1na2vs0mg"},{"bike_id":"cae97af9-19fa-49d3-b33e-9e40f8802609","system_id":"levelo_inurba_marseille","lat":43.23147,"lon":5.43719,"is_reserved":false,"is_disabled":false,"rental_uris":{"android":"levelo://app?vid=cae97af9-19fa-49d3-b33e-9e40f8802609","ios":"levelo://app?vid=cae97af9-19fa-49d3-b33e-9e40f8802609"},"vehicle_type_id":"4","last_reported":1731485547,"current_range_meters":3200,"station_id":"ce4bhmp2rcd13ifvqgog","pricing_plan_id":"cebpf4jnsgd1na2vs0mg"},{"bike_id":"698f9470-ad94-493b-8dbd-d4831d7a0078","system_id":"levelo_inurba_marseille","lat":43.30532,"lon":5.36723,"is_reserved":false,"is_disabled":false,"rental_uris":{"android":"levelo://app?vid=698f9470-ad94-493b-8dbd-d4831d7a0078","ios":"levelo://app?vid=698f9470-ad94-493b-8dbd-d4831d7a0078"},"vehicle_type_id":"4","last_reported":1731485547,"current_range_meters":28000,"station_id":"ce4bgrp2rcd13ifvqc9g","pricing_plan_id":"cebpf4jnsgd1na2vs0mg"},{"bike_id":"bbea784e-1c9f-406b-bd3e-4c384a0798ac","system_id":"levelo_inurba_marseille","lat":43.30969,"lon":5.39038,"is_reserved":false,"is_disabled":false,"rental_uris":{"android":"levelo://app?vid=bbea784e-1c9f-406b-bd3e-4c384a0798ac","ios":"levelo://app?vid=bbea784e-1c9f-406b-bd3e-4c384a0798ac"},"vehicle_type_id":"4","last_reported":1731485547,"current_range_meters":36000,"station_id":"ce4bgup2rcd13ifvqco0","pricing_plan_id":"cebpf4jnsgd1na2vs0mg"},{"bike_id":"77ab44b7-4460-4a96-b6d3-a90ea09f2ced","system_id":"levelo_inurba_marseille","lat":43.23955,"lon":5.36626,"is_reserved":false,"is_disabled":false,"rental_uris":{"android":"levelo://app?vid=77ab44b7-4460-4a96-b6d3-a90ea09f2ced","ios":"levelo://app?vid=77ab44b7-4460-4a96-b6d3-a90ea09f2ced"},"vehicle_type_id":"4","last_reported":1731485547,"current_range_meters":33600,"station_id":"ce4bhi12rcd13ifvqfp0","pricing_plan_id":"cebpf4jnsgd1na2vs0mg"},{"bike_id":"63382ef8-4e31-413f-bc25-b3e6c2e20dc0","system_id":"levelo_inurba_marseille","lat":43.29776,"lon":5.37105,"is_reserved":false,"is_disabled":false,"rental_uris":{"android":"levelo://app?vid=63382ef8-4e31-413f-bc25-b3e6c2e20dc0","ios":"levelo://app?vid=63382ef8-4e31-413f-bc25-b3e6c2e20dc0"},"vehicle_type_id":"4","last_reported":1731485547,"current_range_meters":31200,"station_id":"ce4bgop2rcd13ifvqc1g","pricing_plan_id":"cebpf4jnsgd1na2vs0mg"},{"bike_id":"ca1e3b6f-11ab-456d-87a8-b553ec51dafc","system_id":"levelo_inurba_marseille","lat":43.29368,"lon":5.37837,"is_reserved":false,"is_disabled":false,"rental_uris":{"android":"levelo://app?vid=ca1e3b6f-11ab-456d-87a8-b553ec51dafc","ios":"levelo://app?vid=ca1e3b6f-11ab-456d-87a8-b553ec51dafc"},"vehicle_type_id":"4","last_reported":1731485547,"current_range_meters":31200,"station_id":"ce4bh4p2rcd13ifvqe1g","pricing_plan_id":"cebpf4jnsgd1na2vs0mg"},{"bike_id":"bf2b33f9-2d4f-44b1-b8c3-aa3a48c59551","system_id":"levelo_inurba_marseille","lat":43.33017,"lon":5.39037,"is_reserved":false,"is_disabled":false,"rental_uris":{"android":"levelo://app?vid=bf2b33f9-2d4f-44b1-b8c3-aa3a48c59551","ios":"levelo://app?vid=bf2b33f9-2d4f-44b1-b8c3-aa3a48c59551"},"vehicle_type_id":"4","last_reported":1731485547,"current_range_meters":14400,"station_id":"ce4bhr92rcd13ifvqhrg","pricing_plan_id":"cebpf4jnsgd1na2vs0mg"},{"bike_id":"264aabb7-f57f-4f15-9cf2-84673cb2e2f3","system_id":"levelo_inurba_marseille","lat":43.24085,"lon":5.37753,"is_reserved":false,"is_disabled":false,"rental_uris":{"android":"levelo://app?vid=264aabb7-f57f-4f15-9cf2-84673cb2e2f3","ios":"levelo://app?vid=264aabb7-f57f-4f15-9cf2-84673cb2e2f3"},"vehicle_type_id":"4","last_reported":1731485547,"current_range_meters":16800,"station_id":"ce4bhnp2rcd13ifvqgvg","pricing_plan_id":"cebpf4jnsgd1na2vs0mg"},{"bike_id":"1da1cff5-d270-47d8-b0b6-6ce4391d0749","system_id":"levelo_inurba_marseille","lat":43.293671,"lon":5.378414,"is_reserved":false,"is_disabled":false,"rental_uris":{"android":"levelo://app?vid=1da1cff5-d270-47d8-b0b6-6ce4391d0749","ios":"levelo://app?vid=1da1cff5-d270-47d8-b0b6-6ce4391d0749"},"vehicle_type_id":"4","last_reported":1731485547,"current_range_meters":35600,"station_id":"ce4bgjh2rcd13ifvqbf0","pricing_plan_id":"cebpf4jnsgd1na2vs0mg"},{"bike_id":"5e96f609-2d16-41e9-86d3-411db3ae9987","system_id":"levelo_inurba_marseille","lat":43.3361,"lon":5.41046,"is_reserved":false,"is_disabled":false,"rental_uris":{"android":"levelo://app?vid=5e96f609-2d16-41e9-86d3-411db3ae9987","ios":"levelo://app?vid=5e96f609-2d16-41e9-86d3-411db3ae9987"},"vehicle_type_id":"4","last_reported":1731485547,"current_range_meters":8400,"station_id":"ce4bhqh2rcd13ifvqhmg","pricing_plan_id":"cebpf4jnsgd1na2vs0mg"},{"bike_id":"cb462ba3-4208-4e36-a4a7-8137883f0571","system_id":"levelo_inurba_marseille","lat":43.27997,"lon":5.41663,"is_reserved":false,"is_disabled":false,"rental_uris":{"android":"levelo://app?vid=cb462ba3-4208-4e36-a4a7-8137883f0571","ios":"levelo://app?vid=cb462ba3-4208-4e36-a4a7-8137883f0571"},"vehicle_type_id":"4","last_reported":1731485547,"current_range_meters":36800,"station_id":"ce4bho12rcd13ifvqh1g","pricing_plan_id":"cebpf4jnsgd1na2vs0mg"},{"bike_id":"1db710b5-a1f7-4498-b1d5-a9a354df934e","system_id":"levelo_inurba_marseille","lat":43.24077,"lon":5.37751,"is_reserved":false,"is_disabled":false,"rental_uris":{"android":"levelo://app?vid=1db710b5-a1f7-4498-b1d5-a9a354df934e","ios":"levelo://app?vid=1db710b5-a1f7-4498-b1d5-a9a354df934e"},"vehicle_type_id":"4","last_reported":1731485547,"current_range_meters":33200,"station_id":"ce4bhnp2rcd13ifvqgvg","pricing_plan_id":"cebpf4jnsgd1na2vs0mg"},{"bike_id":"9cd4ab93-2f70-4411-91b2-66122de72ac9","system_id":"levelo_inurba_marseille","lat":43.30144,"lon":5.37422,"is_reserved":false,"is_disabled":false,"rental_uris":{"android":"levelo://app?vid=9cd4ab93-2f70-4411-91b2-66122de72ac9","ios":"levelo://app?vid=9cd4ab93-2f70-4411-91b2-66122de72ac9"},"vehicle_type_id":"4","last_reported":1731485547,"current_range_meters":32000,"station_id":"ce4bgs92rcd13ifvqcc0","pricing_plan_id":"cebpf4jnsgd1na2vs0mg"},{"bike_id":"2f865556-6761-4cbb-9bcc-dbf18d673391","system_id":"levelo_inurba_marseille","lat":43.24069,"lon":5.37765,"is_reserved":false,"is_disabled":false,"rental_uris":{"android":"levelo://app?vid=2f865556-6761-4cbb-9bcc-dbf18d673391","ios":"levelo://app?vid=2f865556-6761-4cbb-9bcc-dbf18d673391"},"vehicle_type_id":"4","last_reported":1731485547,"current_range_meters":18800,"station_id":"ce4bhnp2rcd13ifvqgvg","pricing_plan_id":"cebpf4jnsgd1na2vs0mg"},{"bike_id":"21ee09b4-64f3-489d-a4d9-291f1e014eda","system_id":"levelo_inurba_marseille","lat":43.24071,"lon":5.37764,"is_reserved":false,"is_disabled":false,"rental_uris":{"android":"levelo://app?vid=21ee09b4-64f3-489d-a4d9-291f1e014eda","ios":"levelo://app?vid=21ee09b4-64f3-489d-a4d9-291f1e014eda"},"vehicle_type_id":"4","last_reported":1731485547,"current_range_meters":28800,"station_id":"ce4bhnp2rcd13ifvqgvg","pricing_plan_id":"cebpf4jnsgd1na2vs0mg"},{"bike_id":"3f3620d5-c54b-4980-a821-3a86f6a62c11","system_id":"levelo_inurba_marseille","lat":43.31343,"lon":5.36728,"is_reserved":false,"is_disabled":false,"rental_uris":{"android":"levelo://app?vid=3f3620d5-c54b-4980-a821-3a86f6a62c11","ios":"levelo://app?vid=3f3620d5-c54b-4980-a821-3a86f6a62c11"},"vehicle_type_id":"4","last_reported":1731485547,"current_range_meters":33600,"station_id":"ce4bgr92rcd13ifvqc6g","pricing_plan_id":"cebpf4jnsgd1na2vs0mg"},{"bike_id":"61e08f5d-03e3-49a3-8cc1-22b61066cd06","system_id":"levelo_inurba_marseille","lat":43.29914,"lon":5.37476,"is_reserved":false,"is_disabled":false,"rental_uris":{"android":"levelo://app?vid=61e08f5d-03e3-49a3-8cc1-22b61066cd06","ios":"levelo://app?vid=61e08f5d-03e3-49a3-8cc1-22b61066cd06"},"vehicle_type_id":"4","last_reported":1731485547,"current_range_meters":38800,"station_id":"ce4bgjh2rcd13ifvqbg0","pricing_plan_id":"cebpf4jnsgd1na2vs0mg"},{"bike_id":"487c0df1-fdf2-47c5-a2da-0ca4c3ce462b","system_id":"levelo_inurba_marseille","lat":43.26803,"lon":5.40268,"is_reserved":false,"is_disabled":false,"rental_uris":{"android":"levelo://app?vid=487c0df1-fdf2-47c5-a2da-0ca4c3ce462b","ios":"levelo://app?vid=487c0df1-fdf2-47c5-a2da-0ca4c3ce462b"},"vehicle_type_id":"4","last_reported":1731485547,"current_range_meters":10000,"station_id":"ce501612rcd8frsf0b60","pricing_plan_id":"cebpf4jnsgd1na2vs0mg"},{"bike_id":"58e12413-d879-4dff-a084-333be006c499","system_id":"levelo_inurba_marseille","lat":43.29561,"lon":5.4229,"is_reserved":false,"is_disabled":false,"rental_uris":{"android":"levelo://app?vid=58e12413-d879-4dff-a084-333be006c499","ios":"levelo://app?vid=58e12413-d879-4dff-a084-333be006c499"},"vehicle_type_id":"4","last_reported":1731485547,"current_range_meters":31200,"station_id":"ce4bhph2rcd13ifvqhdg","pricing_plan_id":"cebpf4jnsgd1na2vs0mg"},{"bike_id":"8d0dac95-8843-4ab8-b7e6-29983a9bbffe","system_id":"levelo_inurba_marseille","lat":43.27945,"lon":5.41045,"is_reserved":false,"is_disabled":false,"rental_uris":{"android":"levelo://app?vid=8d0dac95-8843-4ab8-b7e6-29983a9bbffe","ios":"levelo://app?vid=8d0dac95-8843-4ab8-b7e6-29983a9bbffe"},"vehicle_type_id":"4","last_reported":1731485547,"current_range_meters":22800,"station_id":"ce4bhnp2rcd13ifvqh0g","pricing_plan_id":"cebpf4jnsgd1na2vs0mg"},{"bike_id":"3b686e15-48ea-494a-8ff9-d95dc99ce440","system_id":"levelo_inurba_marseille","lat":43.3032,"lon":5.36898,"is_reserved":false,"is_disabled":false,"rental_uris":{"android":"levelo://app?vid=3b686e15-48ea-494a-8ff9-d95dc99ce440","ios":"levelo://app?vid=3b686e15-48ea-494a-8ff9-d95dc99ce440"},"vehicle_type_id":"4","last_reported":1731485547,"current_range_meters":39200,"station_id":"ce4bgqh2rcd13ifvqc5g","pricing_plan_id":"cebpf4jnsgd1na2vs0mg"},{"bike_id":"1d53b08f-03fc-4409-905c-9b32b02dae5b","system_id":"levelo_inurba_marseille","lat":43.24072,"lon":5.3776,"is_reserved":false,"is_disabled":false,"rental_uris":{"android":"levelo://app?vid=1d53b08f-03fc-4409-905c-9b32b02dae5b","ios":"levelo://app?vid=1d53b08f-03fc-4409-905c-9b32b02dae5b"},"vehicle_type_id":"4","last_reported":1731485547,"current_range_meters":26800,"station_id":"ce4bhnp2rcd13ifvqgvg","pricing_plan_id":"cebpf4jnsgd1na2vs0mg"},{"bike_id":"be2f3a50-6a5c-4786-b0da-85b9471246b3","system_id":"levelo_inurba_marseille","lat":43.32099,"lon":5.36769,"is_reserved":false,"is_disabled":false,"rental_uris":{"android":"levelo://app?vid=be2f3a50-6a5c-4786-b0da-85b9471246b3","ios":"levelo://app?vid=be2f3a50-6a5c-4786-b0da-85b9471246b3"},"vehicle_type_id":"4","last_reported":1731485547,"current_range_meters":30400,"station_id":"ce4bhrh2rcd13ifvqhug","pricing_plan_id":"cebpf4jnsgd1na2vs0mg"},{"bike_id":"c120a9e1-6d96-407c-89bc-f4966c277b45","system_id":"levelo_inurba_marseille","lat":43.303345,"lon":5.394199,"is_reserved":false,"is_disabled":false,"rental_uris":{"android":"levelo://app?vid=c120a9e1-6d96-407c-89bc-f4966c277b45","ios":"levelo://app?vid=c120a9e1-6d96-407c-89bc-f4966c277b45"},"vehicle_type_id":"4","last_reported":1731485547,"current_range_meters":23200,"station_id":"ce4bhnh2rcd13ifvqgtg","pricing_plan_id":"cebpf4jnsgd1na2vs0mg"},{"bike_id":"be70f28d-93f0-416d-82e0-c2cd2f1ffa5c","system_id":"levelo_inurba_marseille","lat":43.30914,"lon":5.36849,"is_reserved":false,"is_disabled":false,"rental_uris":{"android":"levelo://app?vid=be70f28d-93f0-416d-82e0-c2cd2f1ffa5c","ios":"levelo://app?vid=be70f28d-93f0-416d-82e0-c2cd2f1ffa5c"},"vehicle_type_id":"4","last_reported":1731485547,"current_range_meters":30000,"station_id":"ce4bgn92rcd13ifvqbvg","pricing_plan_id":"cebpf4jnsgd1na2vs0mg"},{"bike_id":"6a74bd13-2f0d-4293-a500-24db67983d5b","system_id":"levelo_inurba_marseille","lat":43.23067,"lon":5.35493,"is_reserved":false,"is_disabled":false,"rental_uris":{"android":"levelo://app?vid=6a74bd13-2f0d-4293-a500-24db67983d5b","ios":"levelo://app?vid=6a74bd13-2f0d-4293-a500-24db67983d5b"},"vehicle_type_id":"4","last_reported":1731485547,"current_range_meters":36800,"station_id":"cpo3342slgdg3j2ifvpg","pricing_plan_id":"cebpf4jnsgd1na2vs0mg"},{"bike_id":"5ba07c0a-5b27-4d7f-8c7b-166cedec5647","system_id":"levelo_inurba_marseille","lat":43.26194,"lon":5.37444,"is_reserved":false,"is_disabled":false,"rental_uris":{"android":"levelo://app?vid=5ba07c0a-5b27-4d7f-8c7b-166cedec5647","ios":"levelo://app?vid=5ba07c0a-5b27-4d7f-8c7b-166cedec5647"},"vehicle_type_id":"4","last_reported":1731485547,"current_range_meters":38800,"station_id":"ce4bhgp2rcd13ifvqfc0","pricing_plan_id":"cebpf4jnsgd1na2vs0mg"},{"bike_id":"e49818fa-1c6d-4393-bb84-a9d38f5e67ae","system_id":"levelo_inurba_marseille","lat":43.28672,"lon":5.38663,"is_reserved":false,"is_disabled":false,"rental_uris":{"android":"levelo://app?vid=e49818fa-1c6d-4393-bb84-a9d38f5e67ae","ios":"levelo://app?vid=e49818fa-1c6d-4393-bb84-a9d38f5e67ae"},"vehicle_type_id":"4","last_reported":1731485547,"current_range_meters":6400,"station_id":"ce4bh492rcd13ifvqdug","pricing_plan_id":"cebpf4jnsgd1na2vs0mg"},{"bike_id":"79cc0ee5-3b1f-4d64-b1df-1f1f4e6729e2","system_id":"levelo_inurba_marseille","lat":43.29786,"lon":5.38116,"is_reserved":false,"is_disabled":false,"rental_uris":{"android":"levelo://app?vid=79cc0ee5-3b1f-4d64-b1df-1f1f4e6729e2","ios":"levelo://app?vid=79cc0ee5-3b1f-4d64-b1df-1f1f4e6729e2"},"vehicle_type_id":"4","last_reported":1731485547,"current_range_meters":19200,"station_id":"ce4bgip2rcd13ifvqbb0","pricing_plan_id":"cebpf4jnsgd1na2vs0mg"},{"bike_id":"36d53520-c7e3-464c-b836-eecedd4879f9","system_id":"levelo_inurba_marseille","lat":43.29552,"lon":5.42286,"is_reserved":false,"is_disabled":false,"rental_uris":{"android":"levelo://app?vid=36d53520-c7e3-464c-b836-eecedd4879f9","ios":"levelo://app?vid=36d53520-c7e3-464c-b836-eecedd4879f9"},"vehicle_type_id":"4","last_reported":1731485547,"current_range_meters":24800,"station_id":"ce4bhph2rcd13ifvqhdg","pricing_plan_id":"cebpf4jnsgd1na2vs0mg"},{"bike_id":"591523be-2f12-4a7f-b680-93790f1e72f3","system_id":"levelo_inurba_marseille","lat":43.24998,"lon":5.38932,"is_reserved":false,"is_disabled":false,"rental_uris":{"android":"levelo://app?vid=591523be-2f12-4a7f-b680-93790f1e72f3","ios":"levelo://app?vid=591523be-2f12-4a7f-b680-93790f1e72f3"},"vehicle_type_id":"4","last_reported":1731485547,"current_range_meters":17600,"station_id":"ce4bhgp2rcd13ifvqfd0","pricing_plan_id":"cebpf4jnsgd1na2vs0mg"},{"bike_id":"a2a546f0-e8f6-4604-a35c-bdf7b4d3ebe5","system_id":"levelo_inurba_marseille","lat":43.32369,"lon":5.38887,"is_reserved":false,"is_disabled":false,"rental_uris":{"android":"levelo://app?vid=a2a546f0-e8f6-4604-a35c-bdf7b4d3ebe5","ios":"levelo://app?vid=a2a546f0-e8f6-4604-a35c-bdf7b4d3ebe5"},"vehicle_type_id":"4","last_reported":1731485547,"current_range_meters":6400,"station_id":"ce4bhqp2rcd13ifvqhog","pricing_plan_id":"cebpf4jnsgd1na2vs0mg"},{"bike_id":"f02d1394-a66f-4ada-8ad0-0aff37d8317b","system_id":"levelo_inurba_marseille","lat":43.30951,"lon":5.39036,"is_reserved":false,"is_disabled":false,"rental_uris":{"android":"levelo://app?vid=f02d1394-a66f-4ada-8ad0-0aff37d8317b","ios":"levelo://app?vid=f02d1394-a66f-4ada-8ad0-0aff37d8317b"},"vehicle_type_id":"4","last_reported":1731485547,"current_range_meters":10800,"station_id":"ce4bgup2rcd13ifvqco0","pricing_plan_id":"cebpf4jnsgd1na2vs0mg"},{"bike_id":"701780a6-2d90-4d85-8c49-efec1f0c994b","system_id":"levelo_inurba_marseille","lat":43.30945,"lon":5.39042,"is_reserved":false,"is_disabled":false,"rental_uris":{"android":"levelo://app?vid=701780a6-2d90-4d85-8c49-efec1f0c994b","ios":"levelo://app?vid=701780a6-2d90-4d85-8c49-efec1f0c994b"},"vehicle_type_id":"4","last_reported":1731485547,"current_range_meters":22000,"station_id":"ce4bgup2rcd13ifvqco0","pricing_plan_id":"cebpf4jnsgd1na2vs0mg"},{"bike_id":"9d21ff4a-d516-4d71-a226-ead22ace12fd","system_id":"levelo_inurba_marseille","lat":43.25934,"lon":5.4091,"is_reserved":false,"is_disabled":false,"rental_uris":{"android":"levelo://app?vid=9d21ff4a-d516-4d71-a226-ead22ace12fd","ios":"levelo://app?vid=9d21ff4a-d516-4d71-a226-ead22ace12fd"},"vehicle_type_id":"4","last_reported":1731485547,"current_range_meters":19200,"station_id":"ce4bhm92rcd13ifvqglg","pricing_plan_id":"cebpf4jnsgd1na2vs0mg"},{"bike_id":"c616ab5c-1a4a-4305-969d-018947353a15","system_id":"levelo_inurba_marseille","lat":43.29686,"lon":5.37304,"is_reserved":false,"is_disabled":false,"rental_uris":{"android":"levelo://app?vid=c616ab5c-1a4a-4305-969d-018947353a15","ios":"levelo://app?vid=c616ab5c-1a4a-4305-969d-018947353a15"},"vehicle_type_id":"4","last_reported":1731485547,"current_range_meters":28400,"station_id":"ce4bgk12rcd13ifvqbj0","pricing_plan_id":"cebpf4jnsgd1na2vs0mg"},{"bike_id":"5a8db13b-8780-420e-9213-be4f1e0ce476","system_id":"levelo_inurba_marseille","lat":43.30209,"lon":5.39461,"is_reserved":false,"is_disabled":false,"rental_uris":{"android":"levelo://app?vid=5a8db13b-8780-420e-9213-be4f1e0ce476","ios":"levelo://app?vid=5a8db13b-8780-420e-9213-be4f1e0ce476"},"vehicle_type_id":"4","last_reported":1731485547,"current_range_meters":22000,"station_id":"ce4bh0p2rcd13ifvqd70","pricing_plan_id":"cebpf4jnsgd1na2vs0mg"},{"bike_id":"40d44f47-ff52-4158-85fa-8395c547c224","system_id":"levelo_inurba_marseille","lat":43.31344,"lon":5.36737,"is_reserved":false,"is_disabled":false,"rental_uris":{"android":"levelo://app?vid=40d44f47-ff52-4158-85fa-8395c547c224","ios":"levelo://app?vid=40d44f47-ff52-4158-85fa-8395c547c224"},"vehicle_type_id":"4","last_reported":1731485547,"current_range_meters":19200,"station_id":"ce4bgr92rcd13ifvqc6g","pricing_plan_id":"cebpf4jnsgd1na2vs0mg"},{"bike_id":"ecb7c274-90d0-4e95-92a1-62c481d46dcf","system_id":"levelo_inurba_marseille","lat":43.30532,"lon":5.36552,"is_reserved":false,"is_disabled":false,"rental_uris":{"android":"levelo://app?vid=ecb7c274-90d0-4e95-92a1-62c481d46dcf","ios":"levelo://app?vid=ecb7c274-90d0-4e95-92a1-62c481d46dcf"},"vehicle_type_id":"4","last_reported":1731485547,"current_range_meters":22800,"station_id":"ce4bgs12rcd13ifvqcag","pricing_plan_id":"cebpf4jnsgd1na2vs0mg"},{"bike_id":"640ae65e-92b4-44d5-b4f2-7e200c24aeaa","system_id":"levelo_inurba_marseille","lat":43.34148,"lon":5.40904,"is_reserved":false,"is_disabled":false,"rental_uris":{"android":"levelo://app?vid=640ae65e-92b4-44d5-b4f2-7e200c24aeaa","ios":"levelo://app?vid=640ae65e-92b4-44d5-b4f2-7e200c24aeaa"},"vehicle_type_id":"4","last_reported":1731485547,"current_range_meters":19600,"station_id":"ce4bhqh2rcd13ifvqhlg","pricing_plan_id":"cebpf4jnsgd1na2vs0mg"},{"bike_id":"b11d2bf2-d6f6-4253-8661-299dccf28d40","system_id":"levelo_inurba_marseille","lat":43.3361,"lon":5.41026,"is_reserved":false,"is_disabled":false,"rental_uris":{"android":"levelo://app?vid=b11d2bf2-d6f6-4253-8661-299dccf28d40","ios":"levelo://app?vid=b11d2bf2-d6f6-4253-8661-299dccf28d40"},"vehicle_type_id":"4","last_reported":1731485547,"current_range_meters":9200,"station_id":"ce4bhqh2rcd13ifvqhmg","pricing_plan_id":"cebpf4jnsgd1na2vs0mg"},{"bike_id":"1c76e35a-5f50-4014-b83e-d81b37391e2e","system_id":"levelo_inurba_marseille","lat":43.32283,"lon":5.38264,"is_reserved":false,"is_disabled":false,"rental_uris":{"android":"levelo://app?vid=1c76e35a-5f50-4014-b83e-d81b37391e2e","ios":"levelo://app?vid=1c76e35a-5f50-4014-b83e-d81b37391e2e"},"vehicle_type_id":"4","last_reported":1731485547,"current_range_meters":37600,"station_id":"ce4bhr12rcd13ifvqhqg","pricing_plan_id":"cebpf4jnsgd1na2vs0mg"},{"bike_id":"151f9e6e-f9d5-40f4-8bbf-706fc2119638","system_id":"levelo_inurba_marseille","lat":43.30559,"lon":5.36553,"is_reserved":false,"is_disabled":false,"rental_uris":{"android":"levelo://app?vid=151f9e6e-f9d5-40f4-8bbf-706fc2119638","ios":"levelo://app?vid=151f9e6e-f9d5-40f4-8bbf-706fc2119638"},"vehicle_type_id":"4","last_reported":1731485547,"current_range_meters":28400,"station_id":"ce4bgs12rcd13ifvqcag","pricing_plan_id":"cebpf4jnsgd1na2vs0mg"},{"bike_id":"ae7cb96a-e6a7-4698-9712-577508d8a7b9","system_id":"levelo_inurba_marseille","lat":43.30156,"lon":5.38079,"is_reserved":false,"is_disabled":false,"rental_uris":{"android":"levelo://app?vid=ae7cb96a-e6a7-4698-9712-577508d8a7b9","ios":"levelo://app?vid=ae7cb96a-e6a7-4698-9712-577508d8a7b9"},"vehicle_type_id":"4","last_reported":1731485547,"current_range_meters":34800,"station_id":"ce4bgjp2rcd13ifvqbh0","pricing_plan_id":"cebpf4jnsgd1na2vs0mg"},{"bike_id":"1211d863-899e-4be8-a753-4a64718985d1","system_id":"levelo_inurba_marseille","lat":43.26961,"lon":5.3863,"is_reserved":false,"is_disabled":false,"rental_uris":{"android":"levelo://app?vid=1211d863-899e-4be8-a753-4a64718985d1","ios":"levelo://app?vid=1211d863-899e-4be8-a753-4a64718985d1"},"vehicle_type_id":"4","last_reported":1731485547,"current_range_meters":38800,"station_id":"ce4bhh92rcd13ifvqfh0","pricing_plan_id":"cebpf4jnsgd1na2vs0mg"},{"bike_id":"9bfab6bc-6728-4e5f-a47d-a909e2cdf156","system_id":"levelo_inurba_marseille","lat":43.3093,"lon":5.40147,"is_reserved":false,"is_disabled":false,"rental_uris":{"android":"levelo://app?vid=9bfab6bc-6728-4e5f-a47d-a909e2cdf156","ios":"levelo://app?vid=9bfab6bc-6728-4e5f-a47d-a909e2cdf156"},"vehicle_type_id":"4","last_reported":1731485547,"current_range_meters":32800,"station_id":"ce4bgvp2rcd13ifvqct0","pricing_plan_id":"cebpf4jnsgd1na2vs0mg"},{"bike_id":"3fb53652-254e-4039-8287-be2731a5d624","system_id":"levelo_inurba_marseille","lat":43.25086,"lon":5.39514,"is_reserved":false,"is_disabled":false,"rental_uris":{"android":"levelo://app?vid=3fb53652-254e-4039-8287-be2731a5d624","ios":"levelo://app?vid=3fb53652-254e-4039-8287-be2731a5d624"},"vehicle_type_id":"4","last_reported":1731485547,"current_range_meters":36400,"station_id":"ce4bhm12rcd13ifvqgkg","pricing_plan_id":"cebpf4jnsgd1na2vs0mg"},{"bike_id":"42ca7792-2925-42d4-a779-724a29fe96b8","system_id":"levelo_inurba_marseille","lat":43.24085,"lon":5.3775,"is_reserved":false,"is_disabled":false,"rental_uris":{"android":"levelo://app?vid=42ca7792-2925-42d4-a779-724a29fe96b8","ios":"levelo://app?vid=42ca7792-2925-42d4-a779-724a29fe96b8"},"vehicle_type_id":"4","last_reported":1731485547,"current_range_meters":6000,"station_id":"ce4bhnp2rcd13ifvqgvg","pricing_plan_id":"cebpf4jnsgd1na2vs0mg"},{"bike_id":"7668f886-0fd0-47cd-951e-1b1f646fc483","system_id":"levelo_inurba_marseille","lat":43.28002,"lon":5.40016,"is_reserved":false,"is_disabled":false,"rental_uris":{"android":"levelo://app?vid=7668f886-0fd0-47cd-951e-1b1f646fc483","ios":"levelo://app?vid=7668f886-0fd0-47cd-951e-1b1f646fc483"},"vehicle_type_id":"4","last_reported":1731485547,"current_range_meters":30800,"station_id":"ce4bho92rcd13ifvqh4g","pricing_plan_id":"cebpf4jnsgd1na2vs0mg"},{"bike_id":"cd69c111-34f7-4561-b1a6-83a7494a6444","system_id":"levelo_inurba_marseille","lat":43.30545,"lon":5.38411,"is_reserved":false,"is_disabled":false,"rental_uris":{"android":"levelo://app?vid=cd69c111-34f7-4561-b1a6-83a7494a6444","ios":"levelo://app?vid=cd69c111-34f7-4561-b1a6-83a7494a6444"},"vehicle_type_id":"4","last_reported":1731485547,"current_range_meters":28800,"station_id":"ce4bgg92rcd13ifvqb30","pricing_plan_id":"cebpf4jnsgd1na2vs0mg"},{"bike_id":"9408db83-4b31-423c-957c-85b94f412efa","system_id":"levelo_inurba_marseille","lat":43.27501,"lon":5.42448,"is_reserved":false,"is_disabled":false,"rental_uris":{"android":"levelo://app?vid=9408db83-4b31-423c-957c-85b94f412efa","ios":"levelo://app?vid=9408db83-4b31-423c-957c-85b94f412efa"},"vehicle_type_id":"4","last_reported":1731485547,"current_range_meters":40000,"station_id":"ce4bhn92rcd13ifvqgrg","pricing_plan_id":"cebpf4jnsgd1na2vs0mg"},{"bike_id":"a6bbcb03-4306-47b1-a034-6214825afd1f","system_id":"levelo_inurba_marseille","lat":43.30554,"lon":5.36698,"is_reserved":false,"is_disabled":false,"rental_uris":{"android":"levelo://app?vid=a6bbcb03-4306-47b1-a034-6214825afd1f","ios":"levelo://app?vid=a6bbcb03-4306-47b1-a034-6214825afd1f"},"vehicle_type_id":"4","last_reported":1731485547,"current_range_meters":36400,"station_id":"ce4bgrp2rcd13ifvqc9g","pricing_plan_id":"cebpf4jnsgd1na2vs0mg"},{"bike_id":"a6bb2629-c348-45d7-877f-aa2178354de2","system_id":"levelo_inurba_marseille","lat":43.31343,"lon":5.36727,"is_reserved":false,"is_disabled":false,"rental_uris":{"android":"levelo://app?vid=a6bb2629-c348-45d7-877f-aa2178354de2","ios":"levelo://app?vid=a6bb2629-c348-45d7-877f-aa2178354de2"},"vehicle_type_id":"4","last_reported":1731485547,"current_range_meters":28400,"station_id":"ce4bgr92rcd13ifvqc6g","pricing_plan_id":"cebpf4jnsgd1na2vs0mg"},{"bike_id":"7e67afd6-6a4f-4229-a8f4-a382b0b7cdb1","system_id":"levelo_inurba_marseille","lat":43.30164,"lon":5.37417,"is_reserved":false,"is_disabled":false,"rental_uris":{"android":"levelo://app?vid=7e67afd6-6a4f-4229-a8f4-a382b0b7cdb1","ios":"levelo://app?vid=7e67afd6-6a4f-4229-a8f4-a382b0b7cdb1"},"vehicle_type_id":"4","last_reported":1731485547,"current_range_meters":9600,"station_id":"ce4bgup2rcd13ifvqco0","pricing_plan_id":"cebpf4jnsgd1na2vs0mg"},{"bike_id":"ef64163f-5bc1-4988-9c95-855e4b6b89df","system_id":"levelo_inurba_marseille","lat":43.29583,"lon":5.37492,"is_reserved":false,"is_disabled":false,"rental_uris":{"android":"levelo://app?vid=ef64163f-5bc1-4988-9c95-855e4b6b89df","ios":"levelo://app?vid=ef64163f-5bc1-4988-9c95-855e4b6b89df"},"vehicle_type_id":"4","last_reported":1731485547,"current_range_meters":29600,"station_id":"ce4bgh92rcd13ifvqb50","pricing_plan_id":"cebpf4jnsgd1na2vs0mg"},{"bike_id":"d944b9cc-f4b7-43b0-90b9-d6547e39c362","system_id":"levelo_inurba_marseille","lat":43.23149,"lon":5.43721,"is_reserved":false,"is_disabled":false,"rental_uris":{"android":"levelo://app?vid=d944b9cc-f4b7-43b0-90b9-d6547e39c362","ios":"levelo://app?vid=d944b9cc-f4b7-43b0-90b9-d6547e39c362"},"vehicle_type_id":"4","last_reported":1731485547,"current_range_meters":32400,"station_id":"ce4bhmp2rcd13ifvqgog","pricing_plan_id":"cebpf4jnsgd1na2vs0mg"},{"bike_id":"2c3259f6-ceef-45be-96b5-228e6aa038d6","system_id":"levelo_inurba_marseille","lat":43.27814,"lon":5.40712,"is_reserved":false,"is_disabled":false,"rental_uris":{"android":"levelo://app?vid=2c3259f6-ceef-45be-96b5-228e6aa038d6","ios":"levelo://app?vid=2c3259f6-ceef-45be-96b5-228e6aa038d6"},"vehicle_type_id":"4","last_reported":1731485547,"current_range_meters":35600,"station_id":"ce4bhnh2rcd13ifvqgtg","pricing_plan_id":"cebpf4jnsgd1na2vs0mg"},{"bike_id":"90596ebf-f9e5-459a-aa98-fdc4772b94c6","system_id":"levelo_inurba_marseille","lat":43.31349,"lon":5.36734,"is_reserved":false,"is_disabled":false,"rental_uris":{"android":"levelo://app?vid=90596ebf-f9e5-459a-aa98-fdc4772b94c6","ios":"levelo://app?vid=90596ebf-f9e5-459a-aa98-fdc4772b94c6"},"vehicle_type_id":"4","last_reported":1731485547,"current_range_meters":38000,"station_id":"ce4bgr92rcd13ifvqc6g","pricing_plan_id":"cebpf4jnsgd1na2vs0mg"},{"bike_id":"5427ec44-65b5-4156-9be1-ec87130aec0f","system_id":"levelo_inurba_marseille","lat":43.33763,"lon":5.37474,"is_reserved":false,"is_disabled":false,"rental_uris":{"android":"levelo://app?vid=5427ec44-65b5-4156-9be1-ec87130aec0f","ios":"levelo://app?vid=5427ec44-65b5-4156-9be1-ec87130aec0f"},"vehicle_type_id":"4","last_reported":1731485547,"current_range_meters":25200,"station_id":"","pricing_plan_id":"cebpf4jnsgd1na2vs0mg"},{"bike_id":"c0334e7b-18df-4c0c-b5a9-c85ddfd78152","system_id":"levelo_inurba_marseille","lat":43.295731,"lon":5.37525,"is_reserved":false,"is_disabled":false,"rental_uris":{"android":"levelo://app?vid=c0334e7b-18df-4c0c-b5a9-c85ddfd78152","ios":"levelo://app?vid=c0334e7b-18df-4c0c-b5a9-c85ddfd78152"},"vehicle_type_id":"4","last_reported":1731485547,"current_range_meters":38800,"station_id":"ce4bgn92rcd13ifvqbvg","pricing_plan_id":"cebpf4jnsgd1na2vs0mg"},{"bike_id":"082e9e38-ed1e-4cc1-a3df-a88469374fe0","system_id":"levelo_inurba_marseille","lat":43.31225,"lon":5.36871,"is_reserved":false,"is_disabled":false,"rental_uris":{"android":"levelo://app?vid=082e9e38-ed1e-4cc1-a3df-a88469374fe0","ios":"levelo://app?vid=082e9e38-ed1e-4cc1-a3df-a88469374fe0"},"vehicle_type_id":"4","last_reported":1731485547,"current_range_meters":24400,"station_id":"ce4bgl92rcd13ifvqbq0","pricing_plan_id":"cebpf4jnsgd1na2vs0mg"},{"bike_id":"7b04a47a-5a48-4e81-b1bd-4e8dba8cc27d","system_id":"levelo_inurba_marseille","lat":43.31338,"lon":5.36742,"is_reserved":false,"is_disabled":false,"rental_uris":{"android":"levelo://app?vid=7b04a47a-5a48-4e81-b1bd-4e8dba8cc27d","ios":"levelo://app?vid=7b04a47a-5a48-4e81-b1bd-4e8dba8cc27d"},"vehicle_type_id":"4","last_reported":1731485547,"current_range_meters":27200,"station_id":"ce4bgr92rcd13ifvqc6g","pricing_plan_id":"cebpf4jnsgd1na2vs0mg"},{"bike_id":"e98a7b81-3aa9-49b3-90b3-8ebff733422a","system_id":"levelo_inurba_marseille","lat":43.23967,"lon":5.36631,"is_reserved":false,"is_disabled":false,"rental_uris":{"android":"levelo://app?vid=e98a7b81-3aa9-49b3-90b3-8ebff733422a","ios":"levelo://app?vid=e98a7b81-3aa9-49b3-90b3-8ebff733422a"},"vehicle_type_id":"4","last_reported":1731485547,"current_range_meters":24000,"station_id":"ce4bhi12rcd13ifvqfp0","pricing_plan_id":"cebpf4jnsgd1na2vs0mg"},{"bike_id":"12b3eb50-1594-4055-b996-915903b516ec","system_id":"levelo_inurba_marseille","lat":43.29806,"lon":5.3809,"is_reserved":false,"is_disabled":false,"rental_uris":{"android":"levelo://app?vid=12b3eb50-1594-4055-b996-915903b516ec","ios":"levelo://app?vid=12b3eb50-1594-4055-b996-915903b516ec"},"vehicle_type_id":"4","last_reported":1731485547,"current_range_meters":38800,"station_id":"ce4bgip2rcd13ifvqbb0","pricing_plan_id":"cebpf4jnsgd1na2vs0mg"},{"bike_id":"f21f2ec8-1191-425e-bd45-2a5bc0dad75e","system_id":"levelo_inurba_marseille","lat":43.3016,"lon":5.38083,"is_reserved":false,"is_disabled":false,"rental_uris":{"android":"levelo://app?vid=f21f2ec8-1191-425e-bd45-2a5bc0dad75e","ios":"levelo://app?vid=f21f2ec8-1191-425e-bd45-2a5bc0dad75e"},"vehicle_type_id":"4","last_reported":1731485547,"current_range_meters":34800,"station_id":"ce4bgj12rcd13ifvqbc0","pricing_plan_id":"cebpf4jnsgd1na2vs0mg"},{"bike_id":"3468d502-f180-4006-925a-8b9216f02db8","system_id":"levelo_inurba_marseille","lat":43.25941,"lon":5.40905,"is_reserved":false,"is_disabled":false,"rental_uris":{"android":"levelo://app?vid=3468d502-f180-4006-925a-8b9216f02db8","ios":"levelo://app?vid=3468d502-f180-4006-925a-8b9216f02db8"},"vehicle_type_id":"4","last_reported":1731485547,"current_range_meters":30000,"station_id":"ce4bhm92rcd13ifvqglg","pricing_plan_id":"cebpf4jnsgd1na2vs0mg"},{"bike_id":"d177b05d-4d98-41d9-afc1-f7474fca66ea","system_id":"levelo_inurba_marseille","lat":43.32104,"lon":5.36773,"is_reserved":false,"is_disabled":false,"rental_uris":{"android":"levelo://app?vid=d177b05d-4d98-41d9-afc1-f7474fca66ea","ios":"levelo://app?vid=d177b05d-4d98-41d9-afc1-f7474fca66ea"},"vehicle_type_id":"4","last_reported":1731485547,"current_range_meters":18000,"station_id":"ce4bhrh2rcd13ifvqhug","pricing_plan_id":"cebpf4jnsgd1na2vs0mg"},{"bike_id":"b6575f9e-0cc7-4174-9aea-316710c69ea7","system_id":"levelo_inurba_marseille","lat":43.23879,"lon":5.37103,"is_reserved":false,"is_disabled":false,"rental_uris":{"android":"levelo://app?vid=b6575f9e-0cc7-4174-9aea-316710c69ea7","ios":"levelo://app?vid=b6575f9e-0cc7-4174-9aea-316710c69ea7"},"vehicle_type_id":"4","last_reported":1731485547,"current_range_meters":26800,"station_id":"","pricing_plan_id":"cebpf4jnsgd1na2vs0mg"},{"bike_id":"f56ff641-dcdc-4be0-8bb0-c2e77410c782","system_id":"levelo_inurba_marseille","lat":43.33609,"lon":5.41034,"is_reserved":false,"is_disabled":false,"rental_uris":{"android":"levelo://app?vid=f56ff641-dcdc-4be0-8bb0-c2e77410c782","ios":"levelo://app?vid=f56ff641-dcdc-4be0-8bb0-c2e77410c782"},"vehicle_type_id":"4","last_reported":1731485547,"current_range_meters":39200,"station_id":"ce4bhqh2rcd13ifvqhmg","pricing_plan_id":"cebpf4jnsgd1na2vs0mg"},{"bike_id":"c3c14c12-7734-406b-803f-dbe7a7fb811d","system_id":"levelo_inurba_marseille","lat":43.33602,"lon":5.41036,"is_reserved":false,"is_disabled":false,"rental_uris":{"android":"levelo://app?vid=c3c14c12-7734-406b-803f-dbe7a7fb811d","ios":"levelo://app?vid=c3c14c12-7734-406b-803f-dbe7a7fb811d"},"vehicle_type_id":"4","last_reported":1731485547,"current_range_meters":38400,"station_id":"ce4bhqh2rcd13ifvqhmg","pricing_plan_id":"cebpf4jnsgd1na2vs0mg"},{"bike_id":"9b452118-9baf-4509-918d-f235cbada501","system_id":"levelo_inurba_marseille","lat":43.30161,"lon":5.37565,"is_reserved":false,"is_disabled":false,"rental_uris":{"android":"levelo://app?vid=9b452118-9baf-4509-918d-f235cbada501","ios":"levelo://app?vid=9b452118-9baf-4509-918d-f235cbada501"},"vehicle_type_id":"4","last_reported":1731485547,"current_range_meters":20400,"station_id":"ce4bguh2rcd13ifvqcj0","pricing_plan_id":"cebpf4jnsgd1na2vs0mg"},{"bike_id":"6f0f76bf-b167-420f-9a5f-87a8ebfe8fde","system_id":"levelo_inurba_marseille","lat":43.30426,"lon":5.38885,"is_reserved":false,"is_disabled":false,"rental_uris":{"android":"levelo://app?vid=6f0f76bf-b167-420f-9a5f-87a8ebfe8fde","ios":"levelo://app?vid=6f0f76bf-b167-420f-9a5f-87a8ebfe8fde"},"vehicle_type_id":"4","last_reported":1731485547,"current_range_meters":17200,"station_id":"ce4bgk12rcd13ifvqbi0","pricing_plan_id":"cebpf4jnsgd1na2vs0mg"},{"bike_id":"c041a2d9-6de7-4f01-a9ca-65bf10f90146","system_id":"levelo_inurba_marseille","lat":43.27944,"lon":5.41049,"is_reserved":false,"is_disabled":false,"rental_uris":{"android":"levelo://app?vid=c041a2d9-6de7-4f01-a9ca-65bf10f90146","ios":"levelo://app?vid=c041a2d9-6de7-4f01-a9ca-65bf10f90146"},"vehicle_type_id":"4","last_reported":1731485547,"current_range_meters":30800,"station_id":"ce4bhnp2rcd13ifvqh0g","pricing_plan_id":"cebpf4jnsgd1na2vs0mg"},{"bike_id":"32bff4c9-9e24-4055-bdf4-09829843cde3","system_id":"levelo_inurba_marseille","lat":43.2842,"lon":5.3499,"is_reserved":false,"is_disabled":false,"rental_uris":{"android":"levelo://app?vid=32bff4c9-9e24-4055-bdf4-09829843cde3","ios":"levelo://app?vid=32bff4c9-9e24-4055-bdf4-09829843cde3"},"vehicle_type_id":"4","last_reported":1731485547,"current_range_meters":38000,"station_id":"ce4bhbh2rcd13ifvqepg","pricing_plan_id":"cebpf4jnsgd1na2vs0mg"},{"bike_id":"b9b9ca99-abc1-4d74-b34d-2422c7c3d10f","system_id":"levelo_inurba_marseille","lat":43.32363,"lon":5.36762,"is_reserved":false,"is_disabled":false,"rental_uris":{"android":"levelo://app?vid=b9b9ca99-abc1-4d74-b34d-2422c7c3d10f","ios":"levelo://app?vid=b9b9ca99-abc1-4d74-b34d-2422c7c3d10f"},"vehicle_type_id":"4","last_reported":1731485547,"current_range_meters":32800,"station_id":"ce4bhsh2rcd13ifvqi2g","pricing_plan_id":"cebpf4jnsgd1na2vs0mg"},{"bike_id":"17f71d8c-8c07-499e-92b8-e7249f77026e","system_id":"levelo_inurba_marseille","lat":43.29275,"lon":5.3684,"is_reserved":false,"is_disabled":false,"rental_uris":{"android":"levelo://app?vid=17f71d8c-8c07-499e-92b8-e7249f77026e","ios":"levelo://app?vid=17f71d8c-8c07-499e-92b8-e7249f77026e"},"vehicle_type_id":"4","last_reported":1731485547,"current_range_meters":37600,"station_id":"ce4bhbp2rcd13ifvqesg","pricing_plan_id":"cebpf4jnsgd1na2vs0mg"},{"bike_id":"1b6aedf9-aa79-4e62-b4b6-0d4304a12219","system_id":"levelo_inurba_marseille","lat":43.31238,"lon":5.36862,"is_reserved":false,"is_disabled":false,"rental_uris":{"android":"levelo://app?vid=1b6aedf9-aa79-4e62-b4b6-0d4304a12219","ios":"levelo://app?vid=1b6aedf9-aa79-4e62-b4b6-0d4304a12219"},"vehicle_type_id":"4","last_reported":1731485547,"current_range_meters":17600,"station_id":"ce4bgl92rcd13ifvqbq0","pricing_plan_id":"cebpf4jnsgd1na2vs0mg"},{"bike_id":"3a607f35-6d4a-48da-89e5-3cc33ca013bb","system_id":"levelo_inurba_marseille","lat":43.2408,"lon":5.37752,"is_reserved":false,"is_disabled":false,"rental_uris":{"android":"levelo://app?vid=3a607f35-6d4a-48da-89e5-3cc33ca013bb","ios":"levelo://app?vid=3a607f35-6d4a-48da-89e5-3cc33ca013bb"},"vehicle_type_id":"4","last_reported":1731485547,"current_range_meters":38000,"station_id":"ce4bhnp2rcd13ifvqgvg","pricing_plan_id":"cebpf4jnsgd1na2vs0mg"},{"bike_id":"ed45035b-d463-40e7-bd2f-cc34e7ee88b0","system_id":"levelo_inurba_marseille","lat":43.27942,"lon":5.41051,"is_reserved":false,"is_disabled":false,"rental_uris":{"android":"levelo://app?vid=ed45035b-d463-40e7-bd2f-cc34e7ee88b0","ios":"levelo://app?vid=ed45035b-d463-40e7-bd2f-cc34e7ee88b0"},"vehicle_type_id":"4","last_reported":1731485547,"current_range_meters":9200,"station_id":"ce4bhnp2rcd13ifvqh0g","pricing_plan_id":"cebpf4jnsgd1na2vs0mg"},{"bike_id":"f831b306-17b6-4b94-9078-203b7a3d86b4","system_id":"levelo_inurba_marseille","lat":43.290359,"lon":5.375631,"is_reserved":false,"is_disabled":false,"rental_uris":{"android":"levelo://app?vid=f831b306-17b6-4b94-9078-203b7a3d86b4","ios":"levelo://app?vid=f831b306-17b6-4b94-9078-203b7a3d86b4"},"vehicle_type_id":"4","last_reported":1731485547,"current_range_meters":38000,"station_id":"ce4bh692rcd13ifvqe90","pricing_plan_id":"cebpf4jnsgd1na2vs0mg"},{"bike_id":"857cf3b8-a499-4f71-a4af-951511031286","system_id":"levelo_inurba_marseille","lat":43.32476,"lon":5.36578,"is_reserved":false,"is_disabled":false,"rental_uris":{"android":"levelo://app?vid=857cf3b8-a499-4f71-a4af-951511031286","ios":"levelo://app?vid=857cf3b8-a499-4f71-a4af-951511031286"},"vehicle_type_id":"4","last_reported":1731485547,"current_range_meters":38400,"station_id":"ce4bhs12rcd13ifvqhvg","pricing_plan_id":"cebpf4jnsgd1na2vs0mg"},{"bike_id":"3b151908-58ba-46d9-9c24-370dd2e93246","system_id":"levelo_inurba_marseille","lat":43.33781,"lon":5.37439,"is_reserved":false,"is_disabled":false,"rental_uris":{"android":"levelo://app?vid=3b151908-58ba-46d9-9c24-370dd2e93246","ios":"levelo://app?vid=3b151908-58ba-46d9-9c24-370dd2e93246"},"vehicle_type_id":"4","last_reported":1731485547,"current_range_meters":38000,"station_id":"","pricing_plan_id":"cebpf4jnsgd1na2vs0mg"},{"bike_id":"f51553a9-eb5c-45f0-95c0-80bcde5bce7f","system_id":"levelo_inurba_marseille","lat":43.24549,"lon":5.39522,"is_reserved":false,"is_disabled":false,"rental_uris":{"android":"levelo://app?vid=f51553a9-eb5c-45f0-95c0-80bcde5bce7f","ios":"levelo://app?vid=f51553a9-eb5c-45f0-95c0-80bcde5bce7f"},"vehicle_type_id":"4","last_reported":1731485547,"current_range_meters":24400,"station_id":"ce4bhlp2rcd13ifvqgjg","pricing_plan_id":"cebpf4jnsgd1na2vs0mg"},{"bike_id":"11feb703-9613-47eb-b172-fb14c307e5d6","system_id":"levelo_inurba_marseille","lat":43.31342,"lon":5.36728,"is_reserved":false,"is_disabled":false,"rental_uris":{"android":"levelo://app?vid=11feb703-9613-47eb-b172-fb14c307e5d6","ios":"levelo://app?vid=11feb703-9613-47eb-b172-fb14c307e5d6"},"vehicle_type_id":"4","last_reported":1731485547,"current_range_meters":22000,"station_id":"ce4bgr92rcd13ifvqc6g","pricing_plan_id":"cebpf4jnsgd1na2vs0mg"},{"bike_id":"75e7d758-1860-44a0-9332-5075b91df779","system_id":"levelo_inurba_marseille","lat":43.25006,"lon":5.38918,"is_reserved":false,"is_disabled":false,"rental_uris":{"android":"levelo://app?vid=75e7d758-1860-44a0-9332-5075b91df779","ios":"levelo://app?vid=75e7d758-1860-44a0-9332-5075b91df779"},"vehicle_type_id":"4","last_reported":1731485547,"current_range_meters":18000,"station_id":"ce4bhgp2rcd13ifvqfd0","pricing_plan_id":"cebpf4jnsgd1na2vs0mg"},{"bike_id":"ed4ac5cd-f9d6-484c-af18-dd25f2f0cdc5","system_id":"levelo_inurba_marseille","lat":43.287262,"lon":5.360859,"is_reserved":false,"is_disabled":false,"rental_uris":{"android":"levelo://app?vid=ed4ac5cd-f9d6-484c-af18-dd25f2f0cdc5","ios":"levelo://app?vid=ed4ac5cd-f9d6-484c-af18-dd25f2f0cdc5"},"vehicle_type_id":"4","last_reported":1731485547,"current_range_meters":38800,"station_id":"cki0cbj6b192h4jlfktg","pricing_plan_id":"cebpf4jnsgd1na2vs0mg"},{"bike_id":"2baa5d60-52b4-47b5-9521-77790ea643fc","system_id":"levelo_inurba_marseille","lat":43.28607,"lon":5.37068,"is_reserved":false,"is_disabled":false,"rental_uris":{"android":"levelo://app?vid=2baa5d60-52b4-47b5-9521-77790ea643fc","ios":"levelo://app?vid=2baa5d60-52b4-47b5-9521-77790ea643fc"},"vehicle_type_id":"4","last_reported":1731485547,"current_range_meters":38400,"station_id":"ce4bht12rcd13ifvqi60","pricing_plan_id":"cebpf4jnsgd1na2vs0mg"},{"bike_id":"579f52d6-88ae-4660-bdf8-2b0675e247cf","system_id":"levelo_inurba_marseille","lat":43.28483,"lon":5.38419,"is_reserved":false,"is_disabled":false,"rental_uris":{"android":"levelo://app?vid=579f52d6-88ae-4660-bdf8-2b0675e247cf","ios":"levelo://app?vid=579f52d6-88ae-4660-bdf8-2b0675e247cf"},"vehicle_type_id":"4","last_reported":1731485547,"current_range_meters":20000,"station_id":"ce4bh512rcd13ifvqe3g","pricing_plan_id":"cebpf4jnsgd1na2vs0mg"},{"bike_id":"d7796417-a864-41b8-a5d6-3cd8d3869a9c","system_id":"levelo_inurba_marseille","lat":43.26198,"lon":5.37444,"is_reserved":false,"is_disabled":false,"rental_uris":{"android":"levelo://app?vid=d7796417-a864-41b8-a5d6-3cd8d3869a9c","ios":"levelo://app?vid=d7796417-a864-41b8-a5d6-3cd8d3869a9c"},"vehicle_type_id":"4","last_reported":1731485547,"current_range_meters":39200,"station_id":"ce4bhgp2rcd13ifvqfc0","pricing_plan_id":"cebpf4jnsgd1na2vs0mg"},{"bike_id":"899d03ea-53ea-4f88-b80d-280daec6431e","system_id":"levelo_inurba_marseille","lat":43.25006,"lon":5.38935,"is_reserved":false,"is_disabled":false,"rental_uris":{"android":"levelo://app?vid=899d03ea-53ea-4f88-b80d-280daec6431e","ios":"levelo://app?vid=899d03ea-53ea-4f88-b80d-280daec6431e"},"vehicle_type_id":"4","last_reported":1731485547,"current_range_meters":12400,"station_id":"ce4bhgp2rcd13ifvqfd0","pricing_plan_id":"cebpf4jnsgd1na2vs0mg"},{"bike_id":"ac6cf911-e0a0-4e3e-9f38-c5126ef93711","system_id":"levelo_inurba_marseille","lat":43.25828,"lon":5.39435,"is_reserved":false,"is_disabled":false,"rental_uris":{"android":"levelo://app?vid=ac6cf911-e0a0-4e3e-9f38-c5126ef93711","ios":"levelo://app?vid=ac6cf911-e0a0-4e3e-9f38-c5126ef93711"},"vehicle_type_id":"4","last_reported":1731485547,"current_range_meters":25200,"station_id":"ce4bhip2rcd13ifvqft0","pricing_plan_id":"cebpf4jnsgd1na2vs0mg"},{"bike_id":"c8f2f082-1114-4e20-9a09-fb4105dcf7d6","system_id":"levelo_inurba_marseille","lat":43.25583,"lon":5.38229,"is_reserved":false,"is_disabled":false,"rental_uris":{"android":"levelo://app?vid=c8f2f082-1114-4e20-9a09-fb4105dcf7d6","ios":"levelo://app?vid=c8f2f082-1114-4e20-9a09-fb4105dcf7d6"},"vehicle_type_id":"4","last_reported":1731485547,"current_range_meters":33600,"station_id":"ce4bhih2rcd13ifvqfs0","pricing_plan_id":"cebpf4jnsgd1na2vs0mg"},{"bike_id":"0e313544-e805-48d9-bdbf-3a91a91ababc","system_id":"levelo_inurba_marseille","lat":43.337444,"lon":5.374475,"is_reserved":false,"is_disabled":false,"rental_uris":{"android":"levelo://app?vid=0e313544-e805-48d9-bdbf-3a91a91ababc","ios":"levelo://app?vid=0e313544-e805-48d9-bdbf-3a91a91ababc"},"vehicle_type_id":"4","last_reported":1731485547,"current_range_meters":3600,"station_id":"","pricing_plan_id":"cebpf4jnsgd1na2vs0mg"},{"bike_id":"9613dd1a-bd7a-4888-bb49-4b8b286b96bb","system_id":"levelo_inurba_marseille","lat":43.2861,"lon":5.37062,"is_reserved":false,"is_disabled":false,"rental_uris":{"android":"levelo://app?vid=9613dd1a-bd7a-4888-bb49-4b8b286b96bb","ios":"levelo://app?vid=9613dd1a-bd7a-4888-bb49-4b8b286b96bb"},"vehicle_type_id":"4","last_reported":1731485547,"current_range_meters":29600,"station_id":"","pricing_plan_id":"cebpf4jnsgd1na2vs0mg"},{"bike_id":"f6edf606-16d2-423e-bed1-ba33d150bbe6","system_id":"levelo_inurba_marseille","lat":43.32284,"lon":5.38257,"is_reserved":false,"is_disabled":false,"rental_uris":{"android":"levelo://app?vid=f6edf606-16d2-423e-bed1-ba33d150bbe6","ios":"levelo://app?vid=f6edf606-16d2-423e-bed1-ba33d150bbe6"},"vehicle_type_id":"4","last_reported":1731485547,"current_range_meters":24800,"station_id":"ce4bhr12rcd13ifvqhqg","pricing_plan_id":"cebpf4jnsgd1na2vs0mg"},{"bike_id":"64c24dce-9880-4080-9ced-fb18081d5156","system_id":"levelo_inurba_marseille","lat":43.296265,"lon":5.405918,"is_reserved":false,"is_disabled":false,"rental_uris":{"android":"levelo://app?vid=64c24dce-9880-4080-9ced-fb18081d5156","ios":"levelo://app?vid=64c24dce-9880-4080-9ced-fb18081d5156"},"vehicle_type_id":"4","last_reported":1731485547,"current_range_meters":3200,"station_id":"ce4bhph2rcd13ifvqheg","pricing_plan_id":"cebpf4jnsgd1na2vs0mg"},{"bike_id":"d4591398-aeb9-474c-8e80-9ef080397b92","system_id":"levelo_inurba_marseille","lat":43.31691,"lon":5.40481,"is_reserved":false,"is_disabled":false,"rental_uris":{"android":"levelo://app?vid=d4591398-aeb9-474c-8e80-9ef080397b92","ios":"levelo://app?vid=d4591398-aeb9-474c-8e80-9ef080397b92"},"vehicle_type_id":"4","last_reported":1731485547,"current_range_meters":22000,"station_id":"ce4bh012rcd13ifvqd00","pricing_plan_id":"cebpf4jnsgd1na2vs0mg"},{"bike_id":"4eda264a-c30d-4a08-980f-e8e91ab8af96","system_id":"levelo_inurba_marseille","lat":43.265411,"lon":5.390142,"is_reserved":false,"is_disabled":false,"rental_uris":{"android":"levelo://app?vid=4eda264a-c30d-4a08-980f-e8e91ab8af96","ios":"levelo://app?vid=4eda264a-c30d-4a08-980f-e8e91ab8af96"},"vehicle_type_id":"4","last_reported":1731485547,"current_range_meters":7200,"station_id":"ce4bhjp2rcd13ifvqg90","pricing_plan_id":"cebpf4jnsgd1na2vs0mg"},{"bike_id":"311f6e33-4563-4653-a2c2-83cd371818e3","system_id":"levelo_inurba_marseille","lat":43.33719,"lon":5.39197,"is_reserved":false,"is_disabled":false,"rental_uris":{"android":"levelo://app?vid=311f6e33-4563-4653-a2c2-83cd371818e3","ios":"levelo://app?vid=311f6e33-4563-4653-a2c2-83cd371818e3"},"vehicle_type_id":"4","last_reported":1731485547,"current_range_meters":24800,"station_id":"ce4bhr92rcd13ifvqhsg","pricing_plan_id":"cebpf4jnsgd1na2vs0mg"},{"bike_id":"31b94b93-dd2c-4506-8440-82d10d6bb2ed","system_id":"levelo_inurba_marseille","lat":43.33026,"lon":5.3905,"is_reserved":false,"is_disabled":false,"rental_uris":{"android":"levelo://app?vid=31b94b93-dd2c-4506-8440-82d10d6bb2ed","ios":"levelo://app?vid=31b94b93-dd2c-4506-8440-82d10d6bb2ed"},"vehicle_type_id":"4","last_reported":1731485547,"current_range_meters":38400,"station_id":"ce4bhr92rcd13ifvqhrg","pricing_plan_id":"cebpf4jnsgd1na2vs0mg"},