{"last_updated":1762938748,"ttl":60,"version":"2.2","data":{"bikes":[{"bike_id":"d7db12ce-11cc-4c98-8751-ac59baa5d7aa","system_id":"levelo_inurba_marseille","lat":43.337444,"lon":5.374475,"is_reserved":false,"is_disabled":false,"rental_uris":{"android":"levelo://app?vid=d7db12ce-11cc-4c98-8751-ac59baa5d7aa","ios":"levelo://app?vid=d7db12ce-11cc-4c98-8751-ac59baa5d7aa"},"vehicle_type_id":"4","last_reported":1762938749,"current_range_meters":0,"station_id":"","pricing_plan_id":"cebpf4jnsgd1na2vs0mg"},{"bike_id":"bca1298a-59e3-4c97-b06f-f34244d4880e","system_id":"levelo_inurba_marseille","lat":43.28273,"lon":5.35066,"is_reserved":false,"is_disabled":false,"rental_uris":{"android":"levelo://app?vid=bca1298a-59e3-4c97-b06f-f34244d4880e","ios":"levelo://app?vid=bca1298a-59e3-4c97-b06f-f34244d4880e"},"vehicle_type_id":"4","last_reported":1762938749,"current_range_meters":2800,"station_id":"ce4bhbp2rcd13ifvqerg","pricing_plan_id":"cebpf4jnsgd1na2vs0mg"},{"bike_id":"1939dd5d-27fc-4526-8ada-4533e02c0628","system_id":"levelo_inurba_marseille","lat":43.31387,"lon":5.36651,"is_reserved":false,"is_disabled":false,"rental_uris":{"android":"levelo://app?vid=1939dd5d-27fc-4526-8ada-4533e02c0628","ios":"levelo://app?vid=1939dd5d-27fc-4526-8ada-4533e02c0628"},"vehicle_type_id":"4","last_reported":1762938749,"current_range_meters":3200,"station_id":"","pricing_plan_id":"cebpf4jnsgd1na2vs0mg"},{"bike_id":"9f91d355-c667-40be-a162-70475e1526df","system_id":"levelo_inurba_marseille","lat":43.29706,"lon":5.37685,"is_reserved":false,"is_disabled":false,"rental_uris":{"android":"levelo://app?vid=9f91d355-c667-40be-a162-70475e1526df","ios":"levelo://app?vid=9f91d355-c667-40be-a162-70475e1526df"},"vehicle_type_id":"4","last_reported":1762938749,"current_range_meters":3200,"station_id":"ce4bgkh2rcd13ifvqbl0","pricing_plan_id":"cebpf4jnsgd1na2vs0mg"},{"bike_id":"f1926cea-4a8d-44ac-86de-262b50ba522b","system_id":"levelo_inurba_marseille","lat":43.298668,"lon":5.385285,"is_reserved":false,"is_disabled":false,"rental_uris":{"android":"levelo://app?vid=f1926cea-4a8d-44ac-86de-262b50ba522b","ios":"levelo://app?vid=f1926cea-4a8d-44ac-86de-262b50ba522b"},"vehicle_type_id":"4","last_reported":1762938749,"current_range_meters":3600,"station_id":"ce4bgj92rcd13ifvqbd0","pricing_plan_id":"cebpf4jnsgd1na2vs0mg"},{"bike_id":"73177cfa-5136-451e-b441-b50ac15f6f39","system_id":"levelo_inurba_marseille","lat":43.28376,"lon":5.3878,"is_reserved":false,"is_disabled":false,"rental_uris":{"android":"levelo://app?vid=73177cfa-5136-451e-b441-b50ac15f6f39","ios":"levelo://app?vid=73177cfa-5136-451e-b441-b50ac15f6f39"},"vehicle_type_id":"4","last_reported":1762938749,"current_range_meters":3600,"station_id":"","pricing_plan_id":"cebpf4jnsgd1na2vs0mg"},{"bike_id":"9fd2211d-8f49-4f5f-a159-b2099f053717","system_id":"levelo_inurba_marseille","lat":43.29937,"lon":5.36543,"is_reserved":false,"is_disabled":false,"rental_uris":{"android":"levelo://app?vid=9fd2211d-8f49-4f5f-a159-b2099f053717","ios":"levelo://app?vid=9fd2211d-8f49-4f5f-a159-b2099f053717"},"vehicle_type_id":"4","last_reported":1762938749,"current_range_meters":3600,"station_id":"ce4bgm92rcd13ifvqbr0","pricing_plan_id":"cebpf4jnsgd1na2vs0mg"},{"bike_id":"9ade1fe7-d83f-4045-9bd3-74892e77626e","system_id":"levelo_inurba_marseille","lat":43.24085,"lon":5.3773,"is_reserved":false,"is_disabled":false,"rental_uris":{"android":"levelo://app?vid=9ade1fe7-d83f-4045-9bd3-74892e77626e","ios":"levelo://app?vid=9ade1fe7-d83f-4045-9bd3-74892e77626e"},"vehicle_type_id":"4","last_reported":1762938749,"current_range_meters":3600,"station_id":"ce4bhnp2rcd13ifvqgvg","pricing_plan_id":"cebpf4jnsgd1na2vs0mg"},{"bike_id":"9092fc00-eef7-423d-a59c-74cb83e8fcb4","system_id":"levelo_inurba_marseille","lat":43.30148,"lon":5.39876,"is_reserved":false,"is_disabled":true,"rental_uris":{"android":"levelo://app?vid=9092fc00-eef7-423d-a59c-74cb83e8fcb4","ios":"levelo://app?vid=9092fc00-eef7-423d-a59c-74cb83e8fcb4"},"vehicle_type_id":"4","last_reported":1762938749,"current_range_meters":3600,"station_id":"ce4bh0h2rcd13ifvqd40","pricing_plan_id":"cebpf4jnsgd1na2vs0mg"},{"bike_id":"736d603b-bba3-4fa4-9fd5-d323e0267d0d","system_id":"levelo_inurba_marseille","lat":43.29609,"lon":5.37728,"is_reserved":false,"is_disabled":false,"rental_uris":{"android":"levelo://app?vid=736d603b-bba3-4fa4-9fd5-d323e0267d0d","ios":"levelo://app?vid=736d603b-bba3-4fa4-9fd5-d323e0267d0d"},"vehicle_type_id":"4","last_reported":1762938749,"current_range_meters":3600,"station_id":"ce4bgi92rcd13ifvqb90","pricing_plan_id":"cebpf4jnsgd1na2vs0mg"},{"bike_id":"105f1410-986a-430a-b90b-73bf743ce4e0","system_id":"levelo_inurba_marseille","lat":43.32542,"lon":5.41408,"is_reserved":false,"is_disabled":false,"rental_uris":{"android":"levelo://app?vid=105f1410-986a-430a-b90b-73bf743ce4e0","ios":"levelo://app?vid=105f1410-986a-430a-b90b-73bf743ce4e0"},"vehicle_type_id":"4","last_reported":1762938749,"current_range_meters":4000,"station_id":"ce4bhq12rcd13ifvqhhg","pricing_plan_id":"cebpf4jnsgd1na2vs0mg"},{"bike_id":"04a9d0be-4650-4c6d-b75f-b1ca8aa0383c","system_id":"levelo_inurba_marseille","lat":43.24814,"lon":5.37446,"is_reserved":false,"is_disabled":false,"rental_uris":{"android":"levelo://app?vid=04a9d0be-4650-4c6d-b75f-b1ca8aa0383c","ios":"levelo://app?vid=04a9d0be-4650-4c6d-b75f-b1ca8aa0383c"},"vehicle_type_id":"4","last_reported":1762938749,"current_range_meters":4400,"station_id":"ce4bhgh2rcd13ifvqfb0","pricing_plan_id":"cebpf4jnsgd1na2vs0mg"},{"bike_id":"66817509-8914-4196-8e8a-62c81de5bc32","system_id":"levelo_inurba_marseille","lat":43.24174,"lon":5.36387,"is_reserved":false,"is_disabled":false,"rental_uris":{"android":"levelo://app?vid=66817509-8914-4196-8e8a-62c81de5bc32","ios":"levelo://app?vid=66817509-8914-4196-8e8a-62c81de5bc32"},"vehicle_type_id":"4","last_reported":1762938749,"current_range_meters":4400,"station_id":"cpo36qri1sfpv3e86is0","pricing_plan_id":"cebpf4jnsgd1na2vs0mg"},{"bike_id":"ef3787f7-4815-49ad-b8f4-4132eb78b8f9","system_id":"levelo_inurba_marseille","lat":43.30528,"lon":5.36511,"is_reserved":false,"is_disabled":false,"rental_uris":{"android":"levelo://app?vid=ef3787f7-4815-49ad-b8f4-4132eb78b8f9","ios":"levelo://app?vid=ef3787f7-4815-49ad-b8f4-4132eb78b8f9"},"vehicle_type_id":"4","last_reported":1762938749,"current_range_meters":4400,"station_id":"ce4bgs12rcd13ifvqcag","pricing_plan_id":"cebpf4jnsgd1na2vs0mg"},{"bike_id":"643ccdee-22e9-4b29-a1e4-67c2f9747a8e","system_id":"levelo_inurba_marseille","lat":43.30916,"lon":5.36841,"is_reserved":false,"is_disabled":false,"rental_uris":{"android":"levelo://app?vid=643ccdee-22e9-4b29-a1e4-67c2f9747a8e","ios":"levelo://app?vid=643ccdee-22e9-4b29-a1e4-67c2f9747a8e"},"vehicle_type_id":"4","last_reported":1762938749,"current_range_meters":4400,"station_id":"ce4bgn92rcd13ifvqbvg","pricing_plan_id":"cebpf4jnsgd1na2vs0mg"},{"bike_id":"b2be4fa2-44ee-40dc-acc7-1755c74f1c5d","system_id":"levelo_inurba_marseille","lat":43.2974,"lon":5.411069,"is_reserved":false,"is_disabled":false,"rental_uris":{"android":"levelo://app?vid=b2be4fa2-44ee-40dc-acc7-1755c74f1c5d","ios":"levelo://app?vid=b2be4fa2-44ee-40dc-acc7-1755c74f1c5d"},"vehicle_type_id":"4","last_reported":1762938749,"current_range_meters":4400,"station_id":"","pricing_plan_id":"cebpf4jnsgd1na2vs0mg"},{"bike_id":"349b2ad9-adea-4dd9-9ac9-fffb121b5424","system_id":"levelo_inurba_marseille","lat":43.29892,"lon":5.37537,"is_reserved":false,"is_disabled":false,"rental_uris":{"android":"levelo://app?vid=349b2ad9-adea-4dd9-9ac9-fffb121b5424","ios":"levelo://app?vid=349b2ad9-adea-4dd9-9ac9-fffb121b5424"},"vehicle_type_id":"4","last_reported":1762938749,"current_range_meters":4800,"station_id":"","pricing_plan_id":"cebpf4jnsgd1na2vs0mg"},{"bike_id":"9eae96a6-8d11-466f-98e6-0a7d53225c2c","system_id":"levelo_inurba_marseille","lat":43.28707,"lon":5.39961,"is_reserved":false,"is_disabled":false,"rental_uris":{"android":"levelo://app?vid=9eae96a6-8d11-466f-98e6-0a7d53225c2c","ios":"levelo://app?vid=9eae96a6-8d11-466f-98e6-0a7d53225c2c"},"vehicle_type_id":"4","last_reported":1762938749,"current_range_meters":4800,"station_id":"ce4bho92rcd13ifvqh3g","pricing_plan_id":"cebpf4jnsgd1na2vs0mg"},{"bike_id":"aaa1007c-ad44-4045-8ccb-15e85513fcbc","system_id":"levelo_inurba_marseille","lat":43.31238,"lon":5.36863,"is_reserved":false,"is_disabled":false,"rental_uris":{"android":"levelo://app?vid=aaa1007c-ad44-4045-8ccb-15e85513fcbc","ios":"levelo://app?vid=aaa1007c-ad44-4045-8ccb-15e85513fcbc"},"vehicle_type_id":"4","last_reported":1762938749,"current_range_meters":4800,"station_id":"ce4bgl92rcd13ifvqbq0","pricing_plan_id":"cebpf4jnsgd1na2vs0mg"},{"bike_id":"732c07ff-518b-45bc-8bdd-6de8f8ade45f","system_id":"levelo_inurba_marseille","lat":43.29244,"lon":5.38184,"is_reserved":false,"is_disabled":true,"rental_uris":{"android":"levelo://app?vid=732c07ff-518b-45bc-8bdd-6de8f8ade45f","ios":"levelo://app?vid=732c07ff-518b-45bc-8bdd-6de8f8ade45f"},"vehicle_type_id":"4","last_reported":1762938749,"current_range_meters":5600,"station_id":"","pricing_plan_id":"cebpf4jnsgd1na2vs0mg"},{"bike_id":"dba6df3e-6957-4720-854e-c775cde134dc","system_id":"levelo_inurba_marseille","lat":43.29966,"lon":5.37164,"is_reserved":false,"is_disabled":false,"rental_uris":{"android":"levelo://app?vid=dba6df3e-6957-4720-854e-c775cde134dc","ios":"levelo://app?vid=dba6df3e-6957-4720-854e-c775cde134dc"},"vehicle_type_id":"4","last_reported":1762938749,"current_range_meters":5600,"station_id":"ce4bgr92rcd13ifvqc7g","pricing_plan_id":"cebpf4jnsgd1na2vs0mg"},{"bike_id":"806316a2-00fc-415c-8cd2-23aac3eff816","system_id":"levelo_inurba_marseille","lat":43.28268,"lon":5.35062,"is_reserved":false,"is_disabled":false,"rental_uris":{"android":"levelo://app?vid=806316a2-00fc-415c-8cd2-23aac3eff816","ios":"levelo://app?vid=806316a2-00fc-415c-8cd2-23aac3eff816"},"vehicle_type_id":"4","last_reported":1762938749,"current_range_meters":5600,"station_id":"ce4bhbp2rcd13ifvqerg","pricing_plan_id":"cebpf4jnsgd1na2vs0mg"},{"bike_id":"a714915f-aff3-456a-ac83-82a945eab060","system_id":"levelo_inurba_marseille","lat":43.29771,"lon":5.42762,"is_reserved":false,"is_disabled":false,"rental_uris":{"android":"levelo://app?vid=a714915f-aff3-456a-ac83-82a945eab060","ios":"levelo://app?vid=a714915f-aff3-456a-ac83-82a945eab060"},"vehicle_type_id":"4","last_reported":1762938749,"current_range_meters":5600,"station_id":"st_d3md5207bmas73dh9klg","pricing_plan_id":"cebpf4jnsgd1na2vs0mg"},{"bike_id":"9ce09fe1-716a-41ec-a3eb-12cfd2db03b3","system_id":"levelo_inurba_marseille","lat":43.2935,"lon":5.37831,"is_reserved":false,"is_disabled":false,"rental_uris":{"android":"levelo://app?vid=9ce09fe1-716a-41ec-a3eb-12cfd2db03b3","ios":"levelo://app?vid=9ce09fe1-716a-41ec-a3eb-12cfd2db03b3"},"vehicle_type_id":"4","last_reported":1762938749,"current_range_meters":6000,"station_id":"ce4bgjh2rcd13ifvqbf0","pricing_plan_id":"cebpf4jnsgd1na2vs0mg"},{"bike_id":"c620c9fc-398f-4dca-8fdd-2b652311235d","system_id":"levelo_inurba_marseille","lat":43.211908,"lon":5.350761,"is_reserved":false,"is_disabled":true,"rental_uris":{"android":"levelo://app?vid=c620c9fc-398f-4dca-8fdd-2b652311235d","ios":"levelo://app?vid=c620c9fc-398f-4dca-8fdd-2b652311235d"},"vehicle_type_id":"4","last_reported":1762938749,"current_range_meters":6000,"station_id":"st_cvj6sg6p6f1abm77japg","pricing_plan_id":"cebpf4jnsgd1na2vs0mg"},{"bike_id":"3ad3048f-e88f-4435-b4dc-f5b787b0d020","system_id":"levelo_inurba_marseille","lat":43.31364,"lon":5.38491,"is_reserved":false,"is_disabled":false,"rental_uris":{"android":"levelo://app?vid=3ad3048f-e88f-4435-b4dc-f5b787b0d020","ios":"levelo://app?vid=3ad3048f-e88f-4435-b4dc-f5b787b0d020"},"vehicle_type_id":"4","last_reported":1762938749,"current_range_meters":6000,"station_id":"ce4bgt92rcd13ifvqcf0","pricing_plan_id":"cebpf4jnsgd1na2vs0mg"},{"bike_id":"16352e7f-c034-4ef1-8a6e-b54abc767aa3","system_id":"levelo_inurba_marseille","lat":43.30896,"lon":5.37455,"is_reserved":false,"is_disabled":false,"rental_uris":{"android":"levelo://app?vid=16352e7f-c034-4ef1-8a6e-b54abc767aa3","ios":"levelo://app?vid=16352e7f-c034-4ef1-8a6e-b54abc767aa3"},"vehicle_type_id":"4","last_reported":1762938749,"current_range_meters":6400,"station_id":"","pricing_plan_id":"cebpf4jnsgd1na2vs0mg"},{"bike_id":"b1aac026-9d31-437c-8a3e-4bc75b432aa5","system_id":"levelo_inurba_marseille","lat":43.26964,"lon":5.38625,"is_reserved":false,"is_disabled":true,"rental_uris":{"android":"levelo://app?vid=b1aac026-9d31-437c-8a3e-4bc75b432aa5","ios":"levelo://app?vid=b1aac026-9d31-437c-8a3e-4bc75b432aa5"},"vehicle_type_id":"4","last_reported":1762938749,"current_range_meters":6400,"station_id":"ce4bhh92rcd13ifvqfh0","pricing_plan_id":"cebpf4jnsgd1na2vs0mg"},{"bike_id":"209380f5-6418-4b94-8cdc-b0db8ae1e299","system_id":"levelo_inurba_marseille","lat":43.28858,"lon":5.35866,"is_reserved":false,"is_disabled":false,"rental_uris":{"android":"levelo://app?vid=209380f5-6418-4b94-8cdc-b0db8ae1e299","ios":"levelo://app?vid=209380f5-6418-4b94-8cdc-b0db8ae1e299"},"vehicle_type_id":"4","last_reported":1762938749,"current_range_meters":6400,"station_id":"ce4bhb12rcd13ifvqem0","pricing_plan_id":"cebpf4jnsgd1na2vs0mg"},{"bike_id":"d14a3070-960e-421d-b5dc-419b8cc88005","system_id":"levelo_inurba_marseille","lat":43.31611,"lon":5.37612,"is_reserved":false,"is_disabled":false,"rental_uris":{"android":"levelo://app?vid=d14a3070-960e-421d-b5dc-419b8cc88005","ios":"levelo://app?vid=d14a3070-960e-421d-b5dc-419b8cc88005"},"vehicle_type_id":"4","last_reported":1762938749,"current_range_meters":6400,"station_id":"","pricing_plan_id":"cebpf4jnsgd1na2vs0mg"},{"bike_id":"6637ae59-1ca1-4722-b549-1dfc1dc1e04b","system_id":"levelo_inurba_marseille","lat":43.31358,"lon":5.38491,"is_reserved":false,"is_disabled":false,"rental_uris":{"android":"levelo://app?vid=6637ae59-1ca1-4722-b549-1dfc1dc1e04b","ios":"levelo://app?vid=6637ae59-1ca1-4722-b549-1dfc1dc1e04b"},"vehicle_type_id":"4","last_reported":1762938749,"current_range_meters":6800,"station_id":"ce4bgt92rcd13ifvqcf0","pricing_plan_id":"cebpf4jnsgd1na2vs0mg"},{"bike_id":"381d4b1f-0a2d-4bcd-b40a-3a6ab243735c","system_id":"levelo_inurba_marseille","lat":43.2797,"lon":5.38749,"is_reserved":false,"is_disabled":false,"rental_uris":{"android":"levelo://app?vid=381d4b1f-0a2d-4bcd-b40a-3a6ab243735c","ios":"levelo://app?vid=381d4b1f-0a2d-4bcd-b40a-3a6ab243735c"},"vehicle_type_id":"4","last_reported":1762938749,"current_range_meters":6800,"station_id":"ce4bhg12rcd13ifvqf80","pricing_plan_id":"cebpf4jnsgd1na2vs0mg"},{"bike_id":"1bef32cb-7d1e-4303-a020-1532c28fd3d9","system_id":"levelo_inurba_marseille","lat":43.29564,"lon":5.42278,"is_reserved":false,"is_disabled":false,"rental_uris":{"android":"levelo://app?vid=1bef32cb-7d1e-4303-a020-1532c28fd3d9","ios":"levelo://app?vid=1bef32cb-7d1e-4303-a020-1532c28fd3d9"},"vehicle_type_id":"4","last_reported":1762938749,"current_range_meters":6800,"station_id":"ce4bhph2rcd13ifvqhdg","pricing_plan_id":"cebpf4jnsgd1na2vs0mg"},{"bike_id":"e0467342-2ee8-4c36-aeb9-27d25d94ead5","system_id":"levelo_inurba_marseille","lat":43.28152,"lon":5.42643,"is_reserved":false,"is_disabled":true,"rental_uris":{"android":"levelo://app?vid=e0467342-2ee8-4c36-aeb9-27d25d94ead5","ios":"levelo://app?vid=e0467342-2ee8-4c36-aeb9-27d25d94ead5"},"vehicle_type_id":"4","last_reported":1762938749,"current_range_meters":6800,"station_id":"ce4bhnh2rcd13ifvqgug","pricing_plan_id":"cebpf4jnsgd1na2vs0mg"},{"bike_id":"bab0ad78-81f5-48e9-8e4e-dac534c67c44","system_id":"levelo_inurba_marseille","lat":43.29799,"lon":5.38097,"is_reserved":false,"is_disabled":false,"rental_uris":{"android":"levelo://app?vid=bab0ad78-81f5-48e9-8e4e-dac534c67c44","ios":"levelo://app?vid=bab0ad78-81f5-48e9-8e4e-dac534c67c44"},"vehicle_type_id":"4","last_reported":1762938749,"current_range_meters":7200,"station_id":"ce4bgip2rcd13ifvqbb0","pricing_plan_id":"cebpf4jnsgd1na2vs0mg"},{"bike_id":"5f8f7002-e4a8-4e33-b226-0120fcaf2609","system_id":"levelo_inurba_marseille","lat":43.24185,"lon":5.39724,"is_reserved":false,"is_disabled":false,"rental_uris":{"android":"levelo://app?vid=5f8f7002-e4a8-4e33-b226-0120fcaf2609","ios":"levelo://app?vid=5f8f7002-e4a8-4e33-b226-0120fcaf2609"},"vehicle_type_id":"4","last_reported":1762938749,"current_range_meters":7200,"station_id":"ce4bhn12rcd13ifvqgpg","pricing_plan_id":"cebpf4jnsgd1na2vs0mg"},{"bike_id":"81d3a2a9-6a01-4e94-8c6c-2cfb8e049cd4","system_id":"levelo_inurba_marseille","lat":43.30545,"lon":5.36525,"is_reserved":false,"is_disabled":false,"rental_uris":{"android":"levelo://app?vid=81d3a2a9-6a01-4e94-8c6c-2cfb8e049cd4","ios":"levelo://app?vid=81d3a2a9-6a01-4e94-8c6c-2cfb8e049cd4"},"vehicle_type_id":"4","last_reported":1762938749,"current_range_meters":7200,"station_id":"ce4bgs12rcd13ifvqcag","pricing_plan_id":"cebpf4jnsgd1na2vs0mg"},{"bike_id":"ff363bed-e7f0-4b22-87fd-f91d5966bd55","system_id":"levelo_inurba_marseille","lat":43.24079,"lon":5.37759,"is_reserved":false,"is_disabled":false,"rental_uris":{"android":"levelo://app?vid=ff363bed-e7f0-4b22-87fd-f91d5966bd55","ios":"levelo://app?vid=ff363bed-e7f0-4b22-87fd-f91d5966bd55"},"vehicle_type_id":"4","last_reported":1762938749,"current_range_meters":7200,"station_id":"ce4bhnp2rcd13ifvqgvg","pricing_plan_id":"cebpf4jnsgd1na2vs0mg"},{"bike_id":"a9744931-ca33-4d2d-8acd-e99f82142678","system_id":"levelo_inurba_marseille","lat":43.2993,"lon":5.37443,"is_reserved":false,"is_disabled":false,"rental_uris":{"android":"levelo://app?vid=a9744931-ca33-4d2d-8acd-e99f82142678","ios":"levelo://app?vid=a9744931-ca33-4d2d-8acd-e99f82142678"},"vehicle_type_id":"4","last_reported":1762938749,"current_range_meters":7200,"station_id":"ce4bgjh2rcd13ifvqbg0","pricing_plan_id":"cebpf4jnsgd1na2vs0mg"},{"bike_id":"f8946012-59bc-4e35-9a72-01b7907d574a","system_id":"levelo_inurba_marseille","lat":43.26785,"lon":5.39411,"is_reserved":false,"is_disabled":false,"rental_uris":{"android":"levelo://app?vid=f8946012-59bc-4e35-9a72-01b7907d574a","ios":"levelo://app?vid=f8946012-59bc-4e35-9a72-01b7907d574a"},"vehicle_type_id":"4","last_reported":1762938749,"current_range_meters":7200,"station_id":"ce4bhh12rcd13ifvqfg0","pricing_plan_id":"cebpf4jnsgd1na2vs0mg"},{"bike_id":"8673fcf8-df1e-43f0-b24f-4785c3fa24ee","system_id":"levelo_inurba_marseille","lat":43.321113,"lon":5.36766,"is_reserved":false,"is_disabled":false,"rental_uris":{"android":"levelo://app?vid=8673fcf8-df1e-43f0-b24f-4785c3fa24ee","ios":"levelo://app?vid=8673fcf8-df1e-43f0-b24f-4785c3fa24ee"},"vehicle_type_id":"4","last_reported":1762938749,"current_range_meters":7200,"station_id":"ce4bhrh2rcd13ifvqhug","pricing_plan_id":"cebpf4jnsgd1na2vs0mg"},{"bike_id":"1c61a989-2bfe-4fcf-acde-8763c6bd2cc9","system_id":"levelo_inurba_marseille","lat":43.31077,"lon":5.38353,"is_reserved":false,"is_disabled":false,"rental_uris":{"android":"levelo://app?vid=1c61a989-2bfe-4fcf-acde-8763c6bd2cc9","ios":"levelo://app?vid=1c61a989-2bfe-4fcf-acde-8763c6bd2cc9"},"vehicle_type_id":"4","last_reported":1762938749,"current_range_meters":8000,"station_id":"ce4bgv92rcd13ifvqcr0","pricing_plan_id":"cebpf4jnsgd1na2vs0mg"},{"bike_id":"f210c5d9-e6c9-4a47-a92c-7d32d99c058f","system_id":"levelo_inurba_marseille","lat":43.303512,"lon":5.39697,"is_reserved":false,"is_disabled":false,"rental_uris":{"android":"levelo://app?vid=f210c5d9-e6c9-4a47-a92c-7d32d99c058f","ios":"levelo://app?vid=f210c5d9-e6c9-4a47-a92c-7d32d99c058f"},"vehicle_type_id":"4","last_reported":1762938749,"current_range_meters":8000,"station_id":"","pricing_plan_id":"cebpf4jnsgd1na2vs0mg"},{"bike_id":"878d4557-6825-42b2-8f10-af45e92f875b","system_id":"levelo_inurba_marseille","lat":43.2903,"lon":5.38642,"is_reserved":false,"is_disabled":false,"rental_uris":{"android":"levelo://app?vid=878d4557-6825-42b2-8f10-af45e92f875b","ios":"levelo://app?vid=878d4557-6825-42b2-8f10-af45e92f875b"},"vehicle_type_id":"4","last_reported":1762938749,"current_range_meters":8000,"station_id":"ce4bh4p2rcd13ifvqe0g","pricing_plan_id":"cebpf4jnsgd1na2vs0mg"},{"bike_id":"593da21b-a930-4477-a25e-2affb74fe869","system_id":"levelo_inurba_marseille","lat":43.31258,"lon":5.36831,"is_reserved":false,"is_disabled":false,"rental_uris":{"android":"levelo://app?vid=593da21b-a930-4477-a25e-2affb74fe869","ios":"levelo://app?vid=593da21b-a930-4477-a25e-2affb74fe869"},"vehicle_type_id":"4","last_reported":1762938749,"current_range_meters":8000,"station_id":"ce4bgl92rcd13ifvqbq0","pricing_plan_id":"cebpf4jnsgd1na2vs0mg"},{"bike_id":"15906347-522c-4d5e-95dd-06634e39d40b","system_id":"levelo_inurba_marseille","lat":43.30313,"lon":5.36902,"is_reserved":false,"is_disabled":false,"rental_uris":{"android":"levelo://app?vid=15906347-522c-4d5e-95dd-06634e39d40b","ios":"levelo://app?vid=15906347-522c-4d5e-95dd-06634e39d40b"},"vehicle_type_id":"4","last_reported":1762938749,"current_range_meters":8000,"station_id":"ce4bgqh2rcd13ifvqc5g","pricing_plan_id":"cebpf4jnsgd1na2vs0mg"},{"bike_id":"0451807c-b586-4db4-8811-65cb8691ee90","system_id":"levelo_inurba_marseille","lat":43.29636,"lon":5.40598,"is_reserved":false,"is_disabled":false,"rental_uris":{"android":"levelo://app?vid=0451807c-b586-4db4-8811-65cb8691ee90","ios":"levelo://app?vid=0451807c-b586-4db4-8811-65cb8691ee90"},"vehicle_type_id":"4","last_reported":1762938749,"current_range_meters":8000,"station_id":"ce4bh0h2rcd13ifvqd60","pricing_plan_id":"cebpf4jnsgd1na2vs0mg"},{"bike_id":"57eef148-7943-42c7-84dd-e0cc28e04eb9","system_id":"levelo_inurba_marseille","lat":43.29263,"lon":5.376386,"is_reserved":false,"is_disabled":false,"rental_uris":{"android":"levelo://app?vid=57eef148-7943-42c7-84dd-e0cc28e04eb9","ios":"levelo://app?vid=57eef148-7943-42c7-84dd-e0cc28e04eb9"},"vehicle_type_id":"4","last_reported":1762938749,"current_range_meters":8000,"station_id":"ce4bh9p2rcd13ifvqec0","pricing_plan_id":"cebpf4jnsgd1na2vs0mg"},{"bike_id":"62a14efb-5f7a-4e0d-bbfa-d4a60d07f475","system_id":"levelo_inurba_marseille","lat":43.29758,"lon":5.37336,"is_reserved":false,"is_disabled":false,"rental_uris":{"android":"levelo://app?vid=62a14efb-5f7a-4e0d-bbfa-d4a60d07f475","ios":"levelo://app?vid=62a14efb-5f7a-4e0d-bbfa-d4a60d07f475"},"vehicle_type_id":"4","last_reported":1762938749,"current_range_meters":8400,"station_id":"","pricing_plan_id":"cebpf4jnsgd1na2vs0mg"},{"bike_id":"148423d6-fa90-46f3-97a8-42e0b90cf074","system_id":"levelo_inurba_marseille","lat":43.29374,"lon":5.37841,"is_reserved":false,"is_disabled":false,"rental_uris":{"android":"levelo://app?vid=148423d6-fa90-46f3-97a8-42e0b90cf074","ios":"levelo://app?vid=148423d6-fa90-46f3-97a8-42e0b90cf074"},"vehicle_type_id":"4","last_reported":1762938749,"current_range_meters":8400,"station_id":"ce4bgjh2rcd13ifvqbf0","pricing_plan_id":"cebpf4jnsgd1na2vs0mg"},{"bike_id":"c84fa101-2642-47fd-87ec-aecc028da145","system_id":"levelo_inurba_marseille","lat":43.31379,"lon":5.36631,"is_reserved":false,"is_disabled":false,"rental_uris":{"android":"levelo://app?vid=c84fa101-2642-47fd-87ec-aecc028da145","ios":"levelo://app?vid=c84fa101-2642-47fd-87ec-aecc028da145"},"vehicle_type_id":"4","last_reported":1762938749,"current_range_meters":8800,"station_id":"","pricing_plan_id":"cebpf4jnsgd1na2vs0mg"},{"bike_id":"38c922e6-37cd-47dc-af88-f07475112c2a","system_id":"levelo_inurba_marseille","lat":43.321224,"lon":5.388489,"is_reserved":false,"is_disabled":false,"rental_uris":{"android":"levelo://app?vid=38c922e6-37cd-47dc-af88-f07475112c2a","ios":"levelo://app?vid=38c922e6-37cd-47dc-af88-f07475112c2a"},"vehicle_type_id":"4","last_reported":1762938749,"current_range_meters":8800,"station_id":"","pricing_plan_id":"cebpf4jnsgd1na2vs0mg"},{"bike_id":"c3c6247d-36ce-4e28-8ebf-88d42a50df0e","system_id":"levelo_inurba_marseille","lat":43.27176,"lon":5.39209,"is_reserved":false,"is_disabled":false,"rental_uris":{"android":"levelo://app?vid=c3c6247d-36ce-4e28-8ebf-88d42a50df0e","ios":"levelo://app?vid=c3c6247d-36ce-4e28-8ebf-88d42a50df0e"},"vehicle_type_id":"4","last_reported":1762938749,"current_range_meters":8800,"station_id":"ce4bhhp2rcd13ifvqfm0","pricing_plan_id":"cebpf4jnsgd1na2vs0mg"},{"bike_id":"1b10e6d3-c551-4538-9b90-b20a7a1a191c","system_id":"levelo_inurba_marseille","lat":43.25589,"lon":5.38231,"is_reserved":false,"is_disabled":false,"rental_uris":{"android":"levelo://app?vid=1b10e6d3-c551-4538-9b90-b20a7a1a191c","ios":"levelo://app?vid=1b10e6d3-c551-4538-9b90-b20a7a1a191c"},"vehicle_type_id":"4","last_reported":1762938749,"current_range_meters":8800,"station_id":"ce4bhih2rcd13ifvqfs0","pricing_plan_id":"cebpf4jnsgd1na2vs0mg"},{"bike_id":"d82b2e39-0f53-4f65-b3ea-6a8615230a6f","system_id":"levelo_inurba_marseille","lat":43.27914,"lon":5.41211,"is_reserved":false,"is_disabled":false,"rental_uris":{"android":"levelo://app?vid=d82b2e39-0f53-4f65-b3ea-6a8615230a6f","ios":"levelo://app?vid=d82b2e39-0f53-4f65-b3ea-6a8615230a6f"},"vehicle_type_id":"4","last_reported":1762938749,"current_range_meters":8800,"station_id":"","pricing_plan_id":"cebpf4jnsgd1na2vs0mg"},{"bike_id":"981f004a-e45e-4d55-9386-4d40a7c6ace1","system_id":"levelo_inurba_marseille","lat":43.23782,"lon":5.36614,"is_reserved":false,"is_disabled":false,"rental_uris":{"android":"levelo://app?vid=981f004a-e45e-4d55-9386-4d40a7c6ace1","ios":"levelo://app?vid=981f004a-e45e-4d55-9386-4d40a7c6ace1"},"vehicle_type_id":"4","last_reported":1762938749,"current_range_meters":9200,"station_id":"st_d3nk18o9ro0c73en2l3g","pricing_plan_id":"cebpf4jnsgd1na2vs0mg"},{"bike_id":"69bcc9c9-16ef-4b05-a281-a3669c844e4b","system_id":"levelo_inurba_marseille","lat":43.22531,"lon":5.34843,"is_reserved":false,"is_disabled":false,"rental_uris":{"android":"levelo://app?vid=69bcc9c9-16ef-4b05-a281-a3669c844e4b","ios":"levelo://app?vid=69bcc9c9-16ef-4b05-a281-a3669c844e4b"},"vehicle_type_id":"4","last_reported":1762938749,"current_range_meters":9200,"station_id":"","pricing_plan_id":"cebpf4jnsgd1na2vs0mg"},{"bike_id":"722f7e0f-46d9-4be9-997c-6a53c83a7527","system_id":"levelo_inurba_marseille","lat":43.28038,"lon":5.36953,"is_reserved":false,"is_disabled":false,"rental_uris":{"android":"levelo://app?vid=722f7e0f-46d9-4be9-997c-6a53c83a7527","ios":"levelo://app?vid=722f7e0f-46d9-4be9-997c-6a53c83a7527"},"vehicle_type_id":"4","last_reported":1762938749,"current_range_meters":9200,"station_id":"ce4bha12rcd13ifvqef0","pricing_plan_id":"cebpf4jnsgd1na2vs0mg"},{"bike_id":"b41e24d8-65c5-426b-bb45-4cabc1a8ec44","system_id":"levelo_inurba_marseille","lat":43.29604,"lon":5.37715,"is_reserved":false,"is_disabled":true,"rental_uris":{"android":"levelo://app?vid=b41e24d8-65c5-426b-bb45-4cabc1a8ec44","ios":"levelo://app?vid=b41e24d8-65c5-426b-bb45-4cabc1a8ec44"},"vehicle_type_id":"4","last_reported":1762938749,"current_range_meters":9200,"station_id":"ce4bgi92rcd13ifvqb90","pricing_plan_id":"cebpf4jnsgd1na2vs0mg"},{"bike_id":"fdc885d9-f6ff-4da0-a9ae-9f3169243dce","system_id":"levelo_inurba_marseille","lat":43.27375,"lon":5.36258,"is_reserved":false,"is_disabled":false,"rental_uris":{"android":"levelo://app?vid=fdc885d9-f6ff-4da0-a9ae-9f3169243dce","ios":"levelo://app?vid=fdc885d9-f6ff-4da0-a9ae-9f3169243dce"},"vehicle_type_id":"4","last_reported":1762938749,"current_range_meters":9200,"station_id":"ce4bhbh2rcd13ifvqeo0","pricing_plan_id":"cebpf4jnsgd1na2vs0mg"},{"bike_id":"2b58b40d-208b-4dd4-847f-7b14a4769660","system_id":"levelo_inurba_marseille","lat":43.27681,"lon":5.38868,"is_reserved":false,"is_disabled":false,"rental_uris":{"android":"levelo://app?vid=2b58b40d-208b-4dd4-847f-7b14a4769660","ios":"levelo://app?vid=2b58b40d-208b-4dd4-847f-7b14a4769660"},"vehicle_type_id":"4","last_reported":1762938749,"current_range_meters":9200,"station_id":"ce4bhi12rcd13ifvqfo0","pricing_plan_id":"cebpf4jnsgd1na2vs0mg"},{"bike_id":"70bffdbe-3b81-49b7-8846-df5bf256346b","system_id":"levelo_inurba_marseille","lat":43.262105,"lon":5.379328,"is_reserved":false,"is_disabled":false,"rental_uris":{"android":"levelo://app?vid=70bffdbe-3b81-49b7-8846-df5bf256346b","ios":"levelo://app?vid=70bffdbe-3b81-49b7-8846-df5bf256346b"},"vehicle_type_id":"4","last_reported":1762938749,"current_range_meters":9200,"station_id":"","pricing_plan_id":"cebpf4jnsgd1na2vs0mg"},{"bike_id":"76c28760-3469-4eea-ab44-2feae53849b5","system_id":"levelo_inurba_marseille","lat":43.30957,"lon":5.39042,"is_reserved":false,"is_disabled":false,"rental_uris":{"android":"levelo://app?vid=76c28760-3469-4eea-ab44-2feae53849b5","ios":"levelo://app?vid=76c28760-3469-4eea-ab44-2feae53849b5"},"vehicle_type_id":"4","last_reported":1762938749,"current_range_meters":9200,"station_id":"ce4bgup2rcd13ifvqco0","pricing_plan_id":"cebpf4jnsgd1na2vs0mg"},{"bike_id":"4b9884aa-3554-41d4-b897-270f6adb6bf3","system_id":"levelo_inurba_marseille","lat":43.274986,"lon":5.424492,"is_reserved":false,"is_disabled":false,"rental_uris":{"android":"levelo://app?vid=4b9884aa-3554-41d4-b897-270f6adb6bf3","ios":"levelo://app?vid=4b9884aa-3554-41d4-b897-270f6adb6bf3"},"vehicle_type_id":"4","last_reported":1762938749,"current_range_meters":9600,"station_id":"","pricing_plan_id":"cebpf4jnsgd1na2vs0mg"},{"bike_id":"a1fde1f4-1860-4e49-88db-aacdf02b72c8","system_id":"levelo_inurba_marseille","lat":43.25118,"lon":5.40327,"is_reserved":false,"is_disabled":true,"rental_uris":{"android":"levelo://app?vid=a1fde1f4-1860-4e49-88db-aacdf02b72c8","ios":"levelo://app?vid=a1fde1f4-1860-4e49-88db-aacdf02b72c8"},"vehicle_type_id":"4","last_reported":1762938749,"current_range_meters":9600,"station_id":"ce4bhlh2rcd13ifvqgig","pricing_plan_id":"cebpf4jnsgd1na2vs0mg"},{"bike_id":"28e36cd3-4665-4002-a55e-04a45eaa3992","system_id":"levelo_inurba_marseille","lat":43.33141,"lon":5.37715,"is_reserved":false,"is_disabled":false,"rental_uris":{"android":"levelo://app?vid=28e36cd3-4665-4002-a55e-04a45eaa3992","ios":"levelo://app?vid=28e36cd3-4665-4002-a55e-04a45eaa3992"},"vehicle_type_id":"4","last_reported":1762938749,"current_range_meters":9600,"station_id":"st_d46cu089ee8s73dldbu0","pricing_plan_id":"cebpf4jnsgd1na2vs0mg"},{"bike_id":"dc9399a6-68ac-4bce-a28c-89dbbb7d0681","system_id":"levelo_inurba_marseille","lat":43.28781,"lon":5.40813,"is_reserved":false,"is_disabled":true,"rental_uris":{"android":"levelo://app?vid=dc9399a6-68ac-4bce-a28c-89dbbb7d0681","ios":"levelo://app?vid=dc9399a6-68ac-4bce-a28c-89dbbb7d0681"},"vehicle_type_id":"4","last_reported":1762938749,"current_range_meters":9600,"station_id":"","pricing_plan_id":"cebpf4jnsgd1na2vs0mg"},{"bike_id":"b232b871-8e20-4a9f-9256-a957362266c9","system_id":"levelo_inurba_marseille","lat":43.24199,"lon":5.39711,"is_reserved":false,"is_disabled":false,"rental_uris":{"android":"levelo://app?vid=b232b871-8e20-4a9f-9256-a957362266c9","ios":"levelo://app?vid=b232b871-8e20-4a9f-9256-a957362266c9"},"vehicle_type_id":"4","last_reported":1762938749,"current_range_meters":9600,"station_id":"ce4bhn12rcd13ifvqgpg","pricing_plan_id":"cebpf4jnsgd1na2vs0mg"},{"bike_id":"f9a69944-0042-461e-b07d-6f5ef1ded91d","system_id":"levelo_inurba_marseille","lat":43.307619,"lon":5.400469,"is_reserved":false,"is_disabled":false,"rental_uris":{"android":"levelo://app?vid=f9a69944-0042-461e-b07d-6f5ef1ded91d","ios":"levelo://app?vid=f9a69944-0042-461e-b07d-6f5ef1ded91d"},"vehicle_type_id":"4","last_reported":1762938749,"current_range_meters":9600,"station_id":"ce4bh692rcd13ifvqea0","pricing_plan_id":"cebpf4jnsgd1na2vs0mg"},{"bike_id":"84aade2c-4b39-4bce-814f-cfa3d6ed46f7","system_id":"levelo_inurba_marseille","lat":43.28484,"lon":5.48384,"is_reserved":false,"is_disabled":false,"rental_uris":{"android":"levelo://app?vid=84aade2c-4b39-4bce-814f-cfa3d6ed46f7","ios":"levelo://app?vid=84aade2c-4b39-4bce-814f-cfa3d6ed46f7"},"vehicle_type_id":"4","last_reported":1762938749,"current_range_meters":10000,"station_id":"st_d3svhcjqgbts73a3dn0g","pricing_plan_id":"cebpf4jnsgd1na2vs0mg"},{"bike_id":"7878b95b-c102-4f6a-9cab-c7f640d7376b","system_id":"levelo_inurba_marseille","lat":43.26067,"lon":5.39394,"is_reserved":false,"is_disabled":false,"rental_uris":{"android":"levelo://app?vid=7878b95b-c102-4f6a-9cab-c7f640d7376b","ios":"levelo://app?vid=7878b95b-c102-4f6a-9cab-c7f640d7376b"},"vehicle_type_id":"4","last_reported":1762938749,"current_range_meters":10000,"station_id":"ce4bhh92rcd13ifvqfj0","pricing_plan_id":"cebpf4jnsgd1na2vs0mg"},{"bike_id":"12562643-0db3-4efc-8403-2f0ce7bc39bc","system_id":"levelo_inurba_marseille","lat":43.31359,"lon":5.36717,"is_reserved":false,"is_disabled":false,"rental_uris":{"android":"levelo://app?vid=12562643-0db3-4efc-8403-2f0ce7bc39bc","ios":"levelo://app?vid=12562643-0db3-4efc-8403-2f0ce7bc39bc"},"vehicle_type_id":"4","last_reported":1762938749,"current_range_meters":10000,"station_id":"ce4bgr92rcd13ifvqc6g","pricing_plan_id":"cebpf4jnsgd1na2vs0mg"},{"bike_id":"c47023ab-2905-4a00-af93-ffd0b768cdc9","system_id":"levelo_inurba_marseille","lat":43.288679,"lon":5.425198,"is_reserved":false,"is_disabled":false,"rental_uris":{"android":"levelo://app?vid=c47023ab-2905-4a00-af93-ffd0b768cdc9","ios":"levelo://app?vid=c47023ab-2905-4a00-af93-ffd0b768cdc9"},"vehicle_type_id":"4","last_reported":1762938749,"current_range_meters":10800,"station_id":"st_d3b462108ojc7389ooeg","pricing_plan_id":"cebpf4jnsgd1na2vs0mg"},{"bike_id":"f6134463-5782-4e59-875e-fa5ebcfbb229","system_id":"levelo_inurba_marseille","lat":43.28474,"lon":5.3842,"is_reserved":false,"is_disabled":true,"rental_uris":{"android":"levelo://app?vid=f6134463-5782-4e59-875e-fa5ebcfbb229","ios":"levelo://app?vid=f6134463-5782-4e59-875e-fa5ebcfbb229"},"vehicle_type_id":"4","last_reported":1762938749,"current_range_meters":10800,"station_id":"ce4bh512rcd13ifvqe3g","pricing_plan_id":"cebpf4jnsgd1na2vs0mg"},{"bike_id":"393ebba5-f26f-4f5b-ba37-0d7b5bd9041d","system_id":"levelo_inurba_marseille","lat":43.21784,"lon":5.34608,"is_reserved":false,"is_disabled":false,"rental_uris":{"android":"levelo://app?vid=393ebba5-f26f-4f5b-ba37-0d7b5bd9041d","ios":"levelo://app?vid=393ebba5-f26f-4f5b-ba37-0d7b5bd9041d"},"vehicle_type_id":"4","last_reported":1762938749,"current_range_meters":10800,"station_id":"","pricing_plan_id":"cebpf4jnsgd1na2vs0mg"},{"bike_id":"c32c7f6d-7d91-4bb8-9db1-d6821fadf56b","system_id":"levelo_inurba_marseille","lat":43.29033,"lon":5.38645,"is_reserved":false,"is_disabled":false,"rental_uris":{"android":"levelo://app?vid=c32c7f6d-7d91-4bb8-9db1-d6821fadf56b","ios":"levelo://app?vid=c32c7f6d-7d91-4bb8-9db1-d6821fadf56b"},"vehicle_type_id":"4","last_reported":1762938749,"current_range_meters":10800,"station_id":"ce4bh4p2rcd13ifvqe0g","pricing_plan_id":"cebpf4jnsgd1na2vs0mg"},{"bike_id":"ebca150e-e90c-4c0a-88c0-c966355bf9e0","system_id":"levelo_inurba_marseille","lat":43.27335,"lon":5.39101,"is_reserved":false,"is_disabled":false,"rental_uris":{"android":"levelo://app?vid=ebca150e-e90c-4c0a-88c0-c966355bf9e0","ios":"levelo://app?vid=ebca150e-e90c-4c0a-88c0-c966355bf9e0"},"vehicle_type_id":"4","last_reported":1762938749,"current_range_meters":11200,"station_id":"ce4bhgp2rcd13ifvqfe0","pricing_plan_id":"cebpf4jnsgd1na2vs0mg"},{"bike_id":"962e1d81-f9fa-4e0d-a5c3-f8b2cd85fc04","system_id":"levelo_inurba_marseille","lat":43.2895,"lon":5.3641,"is_reserved":false,"is_disabled":false,"rental_uris":{"android":"levelo://app?vid=962e1d81-f9fa-4e0d-a5c3-f8b2cd85fc04","ios":"levelo://app?vid=962e1d81-f9fa-4e0d-a5c3-f8b2cd85fc04"},"vehicle_type_id":"4","last_reported":1762938749,"current_range_meters":11200,"station_id":"ce4bhc92rcd13ifvqetg","pricing_plan_id":"cebpf4jnsgd1na2vs0mg"},{"bike_id":"50b661f0-112f-4780-95bd-167a8c61a238","system_id":"levelo_inurba_marseille","lat":43.211852,"lon":5.3508,"is_reserved":false,"is_disabled":true,"rental_uris":{"android":"levelo://app?vid=50b661f0-112f-4780-95bd-167a8c61a238","ios":"levelo://app?vid=50b661f0-112f-4780-95bd-167a8c61a238"},"vehicle_type_id":"4","last_reported":1762938749,"current_range_meters":11200,"station_id":"st_cvj6sg6p6f1abm77japg","pricing_plan_id":"cebpf4jnsgd1na2vs0mg"},{"bike_id":"72ef7a94-13b1-4fc0-a70a-b1e641114501","system_id":"levelo_inurba_marseille","lat":43.30476,"lon":5.3789,"is_reserved":false,"is_disabled":false,"rental_uris":{"android":"levelo://app?vid=72ef7a94-13b1-4fc0-a70a-b1e641114501","ios":"levelo://app?vid=72ef7a94-13b1-4fc0-a70a-b1e641114501"},"vehicle_type_id":"4","last_reported":1762938749,"current_range_meters":11200,"station_id":"ce4bgup2rcd13ifvqcn0","pricing_plan_id":"cebpf4jnsgd1na2vs0mg"},{"bike_id":"6494fb53-4b49-4fd6-a26d-ae632bd9104c","system_id":"levelo_inurba_marseille","lat":43.31338,"lon":5.37611,"is_reserved":false,"is_disabled":false,"rental_uris":{"android":"levelo://app?vid=6494fb53-4b49-4fd6-a26d-ae632bd9104c","ios":"levelo://app?vid=6494fb53-4b49-4fd6-a26d-ae632bd9104c"},"vehicle_type_id":"4","last_reported":1762938749,"current_range_meters":11600,"station_id":"","pricing_plan_id":"cebpf4jnsgd1na2vs0mg"},{"bike_id":"9aab732d-99d8-458a-aff5-1ef833353481","system_id":"levelo_inurba_marseille","lat":43.29848,"lon":5.37742,"is_reserved":false,"is_disabled":false,"rental_uris":{"android":"levelo://app?vid=9aab732d-99d8-458a-aff5-1ef833353481","ios":"levelo://app?vid=9aab732d-99d8-458a-aff5-1ef833353481"},"vehicle_type_id":"4","last_reported":1762938749,"current_range_meters":11600,"station_id":"","pricing_plan_id":"cebpf4jnsgd1na2vs0mg"},{"bike_id":"cb7a5799-c024-4519-bb5c-6f2896731a81","system_id":"levelo_inurba_marseille","lat":43.331624,"lon":5.376907,"is_reserved":false,"is_disabled":false,"rental_uris":{"android":"levelo://app?vid=cb7a5799-c024-4519-bb5c-6f2896731a81","ios":"levelo://app?vid=cb7a5799-c024-4519-bb5c-6f2896731a81"},"vehicle_type_id":"4","last_reported":1762938749,"current_range_meters":11600,"station_id":"st_d46cu089ee8s73dldbu0","pricing_plan_id":"cebpf4jnsgd1na2vs0mg"},{"bike_id":"eca36ba7-598c-450a-9e60-63bdec210981","system_id":"levelo_inurba_marseille","lat":43.28708,"lon":5.39963,"is_reserved":false,"is_disabled":false,"rental_uris":{"android":"levelo://app?vid=eca36ba7-598c-450a-9e60-63bdec210981","ios":"levelo://app?vid=eca36ba7-598c-450a-9e60-63bdec210981"},"vehicle_type_id":"4","last_reported":1762938749,"current_range_meters":11600,"station_id":"ce4bho92rcd13ifvqh3g","pricing_plan_id":"cebpf4jnsgd1na2vs0mg"},{"bike_id":"ad8615fe-05e6-4b29-9feb-fdb7095a1ffc","system_id":"levelo_inurba_marseille","lat":43.25923,"lon":5.40884,"is_reserved":false,"is_disabled":false,"rental_uris":{"android":"levelo://app?vid=ad8615fe-05e6-4b29-9feb-fdb7095a1ffc","ios":"levelo://app?vid=ad8615fe-05e6-4b29-9feb-fdb7095a1ffc"},"vehicle_type_id":"4","last_reported":1762938749,"current_range_meters":11600,"station_id":"ce4bhm92rcd13ifvqglg","pricing_plan_id":"cebpf4jnsgd1na2vs0mg"},{"bike_id":"9a5da291-2b69-4d78-af70-077c847d2395","system_id":"levelo_inurba_marseille","lat":43.26213,"lon":5.37441,"is_reserved":false,"is_disabled":false,"rental_uris":{"android":"levelo://app?vid=9a5da291-2b69-4d78-af70-077c847d2395","ios":"levelo://app?vid=9a5da291-2b69-4d78-af70-077c847d2395"},"vehicle_type_id":"4","last_reported":1762938749,"current_range_meters":11600,"station_id":"ce4bhgp2rcd13ifvqfc0","pricing_plan_id":"cebpf4jnsgd1na2vs0mg"},{"bike_id":"d999120d-836a-4364-bccd-5ad01710322a","system_id":"levelo_inurba_marseille","lat":43.3229,"lon":5.38274,"is_reserved":false,"is_disabled":false,"rental_uris":{"android":"levelo://app?vid=d999120d-836a-4364-bccd-5ad01710322a","ios":"levelo://app?vid=d999120d-836a-4364-bccd-5ad01710322a"},"vehicle_type_id":"4","last_reported":1762938749,"current_range_meters":11600,"station_id":"ce4bhr12rcd13ifvqhqg","pricing_plan_id":"cebpf4jnsgd1na2vs0mg"},{"bike_id":"22ee7c48-39be-4293-be1f-467c92882ac3","system_id":"levelo_inurba_marseille","lat":43.250007,"lon":5.389204,"is_reserved":false,"is_disabled":false,"rental_uris":{"android":"levelo://app?vid=22ee7c48-39be-4293-be1f-467c92882ac3","ios":"levelo://app?vid=22ee7c48-39be-4293-be1f-467c92882ac3"},"vehicle_type_id":"4","last_reported":1762938749,"current_range_meters":11600,"station_id":"ce4bhgp2rcd13ifvqfd0","pricing_plan_id":"cebpf4jnsgd1na2vs0mg"},{"bike_id":"6911db79-d566-428b-8cb1-1532d67c2ceb","system_id":"levelo_inurba_marseille","lat":43.25935,"lon":5.40902,"is_reserved":false,"is_disabled":false,"rental_uris":{"android":"levelo://app?vid=6911db79-d566-428b-8cb1-1532d67c2ceb","ios":"levelo://app?vid=6911db79-d566-428b-8cb1-1532d67c2ceb"},"vehicle_type_id":"4","last_reported":1762938749,"current_range_meters":12000,"station_id":"ce4bhm92rcd13ifvqglg","pricing_plan_id":"cebpf4jnsgd1na2vs0mg"},{"bike_id":"4d431bb1-df8d-4b71-9041-97f1f5595f3c","system_id":"levelo_inurba_marseille","lat":43.30126,"lon":5.38799,"is_reserved":false,"is_disabled":false,"rental_uris":{"android":"levelo://app?vid=4d431bb1-df8d-4b71-9041-97f1f5595f3c","ios":"levelo://app?vid=4d431bb1-df8d-4b71-9041-97f1f5595f3c"},"vehicle_type_id":"4","last_reported":1762938749,"current_range_meters":12000,"station_id":"ce4bghh2rcd13ifvqb60","pricing_plan_id":"cebpf4jnsgd1na2vs0mg"},{"bike_id":"def9730b-dc04-435b-8225-4a9556956dd9","system_id":"levelo_inurba_marseille","lat":43.321018,"lon":5.367882,"is_reserved":false,"is_disabled":false,"rental_uris":{"android":"levelo://app?vid=def9730b-dc04-435b-8225-4a9556956dd9","ios":"levelo://app?vid=def9730b-dc04-435b-8225-4a9556956dd9"},"vehicle_type_id":"4","last_reported":1762938749,"current_range_meters":12000,"station_id":"ce4bhrh2rcd13ifvqhug","pricing_plan_id":"cebpf4jnsgd1na2vs0mg"},{"bike_id":"7ed6866f-d3a5-47f7-a6d1-aa46e5a494ec","system_id":"levelo_inurba_marseille","lat":43.31722,"lon":5.40419,"is_reserved":false,"is_disabled":false,"rental_uris":{"android":"levelo://app?vid=7ed6866f-d3a5-47f7-a6d1-aa46e5a494ec","ios":"levelo://app?vid=7ed6866f-d3a5-47f7-a6d1-aa46e5a494ec"},"vehicle_type_id":"4","last_reported":1762938749,"current_range_meters":12000,"station_id":"ce4bh012rcd13ifvqd00","pricing_plan_id":"cebpf4jnsgd1na2vs0mg"},{"bike_id":"f09b69fd-4220-4b51-8365-9a85828617f1","system_id":"levelo_inurba_marseille","lat":43.330268,"lon":5.390397,"is_reserved":false,"is_disabled":false,"rental_uris":{"android":"levelo://app?vid=f09b69fd-4220-4b51-8365-9a85828617f1","ios":"levelo://app?vid=f09b69fd-4220-4b51-8365-9a85828617f1"},"vehicle_type_id":"4","last_reported":1762938749,"current_range_meters":12400,"station_id":"ce4bhr92rcd13ifvqhrg","pricing_plan_id":"cebpf4jnsgd1na2vs0mg"},{"bike_id":"b1460ca1-7289-4f1f-b10e-10e520aecc27","system_id":"levelo_inurba_marseille","lat":43.273578,"lon":5.423977,"is_reserved":false,"is_disabled":false,"rental_uris":{"android":"levelo://app?vid=b1460ca1-7289-4f1f-b10e-10e520aecc27","ios":"levelo://app?vid=b1460ca1-7289-4f1f-b10e-10e520aecc27"},"vehicle_type_id":"4","last_reported":1762938749,"current_range_meters":12400,"station_id":"","pricing_plan_id":"cebpf4jnsgd1na2vs0mg"},{"bike_id":"ab819d35-cafb-4d42-bc62-9c0aa89d16dc","system_id":"levelo_inurba_marseille","lat":43.29163,"lon":5.3716,"is_reserved":false,"is_disabled":false,"rental_uris":{"android":"levelo://app?vid=ab819d35-cafb-4d42-bc62-9c0aa89d16dc","ios":"levelo://app?vid=ab819d35-cafb-4d42-bc62-9c0aa89d16dc"},"vehicle_type_id":"4","last_reported":1762938749,"current_range_meters":12400,"station_id":"ce4bha92rcd13ifvqeh0","pricing_plan_id":"cebpf4jnsgd1na2vs0mg"},{"bike_id":"bd4505ca-3885-45e3-92a4-a5d486fcef0a","system_id":"levelo_inurba_marseille","lat":43.29027,"lon":5.39948,"is_reserved":false,"is_disabled":false,"rental_uris":{"android":"levelo://app?vid=bd4505ca-3885-45e3-92a4-a5d486fcef0a","ios":"levelo://app?vid=bd4505ca-3885-45e3-92a4-a5d486fcef0a"},"vehicle_type_id":"4","last_reported":1762938749,"current_range_meters":12400,"station_id":"ce4bh392rcd13ifvqdm0","pricing_plan_id":"cebpf4jnsgd1na2vs0mg"},{"bike_id":"d0769871-862e-4f0c-8c37-d30e45116cbd","system_id":"levelo_inurba_marseille","lat":43.291003,"lon":5.3814,"is_reserved":false,"is_disabled":false,"rental_uris":{"android":"levelo://app?vid=d0769871-862e-4f0c-8c37-d30e45116cbd","ios":"levelo://app?vid=d0769871-862e-4f0c-8c37-d30e45116cbd"},"vehicle_type_id":"4","last_reported":1762938749,"current_range_meters":12400,"station_id":"ce4bh512rcd13ifvqe2g","pricing_plan_id":"cebpf4jnsgd1na2vs0mg"},{"bike_id":"01e8cce2-ff84-43ff-914a-c0c695f60ca4","system_id":"levelo_inurba_marseille","lat":43.29427,"lon":5.38036,"is_reserved":false,"is_disabled":false,"rental_uris":{"android":"levelo://app?vid=01e8cce2-ff84-43ff-914a-c0c695f60ca4","ios":"levelo://app?vid=01e8cce2-ff84-43ff-914a-c0c695f60ca4"},"vehicle_type_id":"4","last_reported":1762938749,"current_range_meters":12800,"station_id":"","pricing_plan_id":"cebpf4jnsgd1na2vs0mg"},{"bike_id":"890486bd-e38f-4f6c-93e8-7f41c8d1911f","system_id":"levelo_inurba_marseille","lat":43.30948,"lon":5.36905,"is_reserved":false,"is_disabled":false,"rental_uris":{"android":"levelo://app?vid=890486bd-e38f-4f6c-93e8-7f41c8d1911f","ios":"levelo://app?vid=890486bd-e38f-4f6c-93e8-7f41c8d1911f"},"vehicle_type_id":"4","last_reported":1762938749,"current_range_meters":12800,"station_id":"","pricing_plan_id":"cebpf4jnsgd1na2vs0mg"},{"bike_id":"0f758f97-8287-4a6a-a5cb-8120a089feb9","system_id":"levelo_inurba_marseille","lat":43.31261,"lon":5.36831,"is_reserved":false,"is_disabled":false,"rental_uris":{"android":"levelo://app?vid=0f758f97-8287-4a6a-a5cb-8120a089feb9","ios":"levelo://app?vid=0f758f97-8287-4a6a-a5cb-8120a089feb9"},"vehicle_type_id":"4","last_reported":1762938749,"current_range_meters":12800,"station_id":"ce4bgl92rcd13ifvqbq0","pricing_plan_id":"cebpf4jnsgd1na2vs0mg"},{"bike_id":"acbbb325-e4fa-4876-8f71-3cd51e1e1fb9","system_id":"levelo_inurba_marseille","lat":43.298182,"lon":5.380836,"is_reserved":false,"is_disabled":false,"rental_uris":{"android":"levelo://app?vid=acbbb325-e4fa-4876-8f71-3cd51e1e1fb9","ios":"levelo://app?vid=acbbb325-e4fa-4876-8f71-3cd51e1e1fb9"},"vehicle_type_id":"4","last_reported":1762938749,"current_range_meters":12800,"station_id":"ce4bgip2rcd13ifvqbb0","pricing_plan_id":"cebpf4jnsgd1na2vs0mg"},{"bike_id":"053b6e51-551a-4b74-9144-79d4c372cdbb","system_id":"levelo_inurba_marseille","lat":43.25582,"lon":5.38232,"is_reserved":false,"is_disabled":false,"rental_uris":{"android":"levelo://app?vid=053b6e51-551a-4b74-9144-79d4c372cdbb","ios":"levelo://app?vid=053b6e51-551a-4b74-9144-79d4c372cdbb"},"vehicle_type_id":"4","last_reported":1762938749,"current_range_meters":12800,"station_id":"ce4bhih2rcd13ifvqfs0","pricing_plan_id":"cebpf4jnsgd1na2vs0mg"},{"bike_id":"138acbc8-a44a-45ec-9d4e-f41258a8778e","system_id":"levelo_inurba_marseille","lat":43.29821,"lon":5.44058,"is_reserved":false,"is_disabled":false,"rental_uris":{"android":"levelo://app?vid=138acbc8-a44a-45ec-9d4e-f41258a8778e","ios":"levelo://app?vid=138acbc8-a44a-45ec-9d4e-f41258a8778e"},"vehicle_type_id":"4","last_reported":1762938749,"current_range_meters":12800,"station_id":"st_d3jp68qikq2c7381ktn0","pricing_plan_id":"cebpf4jnsgd1na2vs0mg"},{"bike_id":"20957d00-7f7e-4bb2-93bc-049897b56775","system_id":"levelo_inurba_marseille","lat":43.267,"lon":5.38263,"is_reserved":false,"is_disabled":false,"rental_uris":{"android":"levelo://app?vid=20957d00-7f7e-4bb2-93bc-049897b56775","ios":"levelo://app?vid=20957d00-7f7e-4bb2-93bc-049897b56775"},"vehicle_type_id":"4","last_reported":1762938749,"current_range_meters":12800,"station_id":"ce4bhg92rcd13ifvqf90","pricing_plan_id":"cebpf4jnsgd1na2vs0mg"},{"bike_id":"e95c7a5e-2ca6-4704-beef-c914118730ac","system_id":"levelo_inurba_marseille","lat":43.233809,"lon":5.412358,"is_reserved":false,"is_disabled":false,"rental_uris":{"android":"levelo://app?vid=e95c7a5e-2ca6-4704-beef-c914118730ac","ios":"levelo://app?vid=e95c7a5e-2ca6-4704-beef-c914118730ac"},"vehicle_type_id":"4","last_reported":1762938749,"current_range_meters":12800,"station_id":"","pricing_plan_id":"cebpf4jnsgd1na2vs0mg"},{"bike_id":"e94d6363-f9b6-433d-9be1-bdfbcd26cea1","system_id":"levelo_inurba_marseille","lat":43.30965,"lon":5.39044,"is_reserved":false,"is_disabled":false,"rental_uris":{"android":"levelo://app?vid=e94d6363-f9b6-433d-9be1-bdfbcd26cea1","ios":"levelo://app?vid=e94d6363-f9b6-433d-9be1-bdfbcd26cea1"},"vehicle_type_id":"4","last_reported":1762938749,"current_range_meters":13600,"station_id":"ce4bgup2rcd13ifvqco0","pricing_plan_id":"cebpf4jnsgd1na2vs0mg"},{"bike_id":"299e5b0b-0cff-4d06-a51e-8476866a1a04","system_id":"levelo_inurba_marseille","lat":43.32547,"lon":5.41437,"is_reserved":false,"is_disabled":false,"rental_uris":{"android":"levelo://app?vid=299e5b0b-0cff-4d06-a51e-8476866a1a04","ios":"levelo://app?vid=299e5b0b-0cff-4d06-a51e-8476866a1a04"},"vehicle_type_id":"4","last_reported":1762938749,"current_range_meters":13600,"station_id":"ce4bhq12rcd13ifvqhhg","pricing_plan_id":"cebpf4jnsgd1na2vs0mg"},{"bike_id":"e5e5f72a-d826-479b-88c3-f2e250b164fb","system_id":"levelo_inurba_marseille","lat":43.31725,"lon":5.40462,"is_reserved":false,"is_disabled":false,"rental_uris":{"android":"levelo://app?vid=e5e5f72a-d826-479b-88c3-f2e250b164fb","ios":"levelo://app?vid=e5e5f72a-d826-479b-88c3-f2e250b164fb"},"vehicle_type_id":"4","last_reported":1762938749,"current_range_meters":13600,"station_id":"ce4bh012rcd13ifvqd00","pricing_plan_id":"cebpf4jnsgd1na2vs0mg"},{"bike_id":"fecf35e9-a520-4d25-ba33-b45a6b4b5810","system_id":"levelo_inurba_marseille","lat":43.29682,"lon":5.3729,"is_reserved":false,"is_disabled":false,"rental_uris":{"android":"levelo://app?vid=fecf35e9-a520-4d25-ba33-b45a6b4b5810","ios":"levelo://app?vid=fecf35e9-a520-4d25-ba33-b45a6b4b5810"},"vehicle_type_id":"4","last_reported":1762938749,"current_range_meters":13600,"station_id":"ce4bgk12rcd13ifvqbj0","pricing_plan_id":"cebpf4jnsgd1na2vs0mg"},{"bike_id":"96c6bb2e-0aec-4549-a1df-d94ffc1581e7","system_id":"levelo_inurba_marseille","lat":43.31226,"lon":5.36853,"is_reserved":false,"is_disabled":false,"rental_uris":{"android":"levelo://app?vid=96c6bb2e-0aec-4549-a1df-d94ffc1581e7","ios":"levelo://app?vid=96c6bb2e-0aec-4549-a1df-d94ffc1581e7"},"vehicle_type_id":"4","last_reported":1762938749,"current_range_meters":13600,"station_id":"ce4bgl92rcd13ifvqbq0","pricing_plan_id":"cebpf4jnsgd1na2vs0mg"},{"bike_id":"30699736-7bc7-4a30-8630-9adae5418eee","system_id":"levelo_inurba_marseille","lat":43.27215,"lon":5.39177,"is_reserved":false,"is_disabled":false,"rental_uris":{"android":"levelo://app?vid=30699736-7bc7-4a30-8630-9adae5418eee","ios":"levelo://app?vid=30699736-7bc7-4a30-8630-9adae5418eee"},"vehicle_type_id":"4","last_reported":1762938749,"current_range_meters":13600,"station_id":"ce4bhhp2rcd13ifvqfm0","pricing_plan_id":"cebpf4jnsgd1na2vs0mg"},{"bike_id":"5804ac99-3bd4-4091-bff1-7487e9285e0c","system_id":"levelo_inurba_marseille","lat":43.29175,"lon":5.37577,"is_reserved":false,"is_disabled":false,"rental_uris":{"android":"levelo://app?vid=5804ac99-3bd4-4091-bff1-7487e9285e0c","ios":"levelo://app?vid=5804ac99-3bd4-4091-bff1-7487e9285e0c"},"vehicle_type_id":"4","last_reported":1762938749,"current_range_meters":13600,"station_id":"","pricing_plan_id":"cebpf4jnsgd1na2vs0mg"},{"bike_id":"8b027115-1a9e-4312-923f-dbf5aec10ee4","system_id":"levelo_inurba_marseille","lat":43.30222,"lon":5.36507,"is_reserved":false,"is_disabled":false,"rental_uris":{"android":"levelo://app?vid=8b027115-1a9e-4312-923f-dbf5aec10ee4","ios":"levelo://app?vid=8b027115-1a9e-4312-923f-dbf5aec10ee4"},"vehicle_type_id":"4","last_reported":1762938749,"current_range_meters":13600,"station_id":"","pricing_plan_id":"cebpf4jnsgd1na2vs0mg"},{"bike_id":"97150dc4-71e5-4187-8a3a-2188c13f6fe1","system_id":"levelo_inurba_marseille","lat":43.23785,"lon":5.36629,"is_reserved":false,"is_disabled":false,"rental_uris":{"android":"levelo://app?vid=97150dc4-71e5-4187-8a3a-2188c13f6fe1","ios":"levelo://app?vid=97150dc4-71e5-4187-8a3a-2188c13f6fe1"},"vehicle_type_id":"4","last_reported":1762938749,"current_range_meters":13600,"station_id":"st_d3nk18o9ro0c73en2l3g","pricing_plan_id":"cebpf4jnsgd1na2vs0mg"},{"bike_id":"d55bfc1f-b61a-4fb3-88a7-5e61ce98e0d4","system_id":"levelo_inurba_marseille","lat":43.3095,"lon":5.39038,"is_reserved":false,"is_disabled":false,"rental_uris":{"android":"levelo://app?vid=d55bfc1f-b61a-4fb3-88a7-5e61ce98e0d4","ios":"levelo://app?vid=d55bfc1f-b61a-4fb3-88a7-5e61ce98e0d4"},"vehicle_type_id":"4","last_reported":1762938749,"current_range_meters":13600,"station_id":"ce4bgup2rcd13ifvqco0","pricing_plan_id":"cebpf4jnsgd1na2vs0mg"},{"bike_id":"db4e074f-c193-40cb-b732-39f60d60d56d","system_id":"levelo_inurba_marseille","lat":43.28266,"lon":5.35064,"is_reserved":false,"is_disabled":false,"rental_uris":{"android":"levelo://app?vid=db4e074f-c193-40cb-b732-39f60d60d56d","ios":"levelo://app?vid=db4e074f-c193-40cb-b732-39f60d60d56d"},"vehicle_type_id":"4","last_reported":1762938749,"current_range_meters":14000,"station_id":"ce4bhbp2rcd13ifvqerg","pricing_plan_id":"cebpf4jnsgd1na2vs0mg"},{"bike_id":"0ad2cfba-f5bd-421b-8f78-57b370b88c29","system_id":"levelo_inurba_marseille","lat":43.231586,"lon":5.437019,"is_reserved":false,"is_disabled":false,"rental_uris":{"android":"levelo://app?vid=0ad2cfba-f5bd-421b-8f78-57b370b88c29","ios":"levelo://app?vid=0ad2cfba-f5bd-421b-8f78-57b370b88c29"},"vehicle_type_id":"4","last_reported":1762938749,"current_range_meters":14400,"station_id":"ce4bhmp2rcd13ifvqgog","pricing_plan_id":"cebpf4jnsgd1na2vs0mg"},{"bike_id":"f0413c71-e0c3-427b-98cb-cdf950c219e3","system_id":"levelo_inurba_marseille","lat":43.310181,"lon":5.400664,"is_reserved":false,"is_disabled":false,"rental_uris":{"android":"levelo://app?vid=f0413c71-e0c3-427b-98cb-cdf950c219e3","ios":"levelo://app?vid=f0413c71-e0c3-427b-98cb-cdf950c219e3"},"vehicle_type_id":"4","last_reported":1762938749,"current_range_meters":14400,"station_id":"","pricing_plan_id":"cebpf4jnsgd1na2vs0mg"},{"bike_id":"7e798260-e862-43ca-a153-ef26f9953226","system_id":"levelo_inurba_marseille","lat":43.24091,"lon":5.37748,"is_reserved":false,"is_disabled":false,"rental_uris":{"android":"levelo://app?vid=7e798260-e862-43ca-a153-ef26f9953226","ios":"levelo://app?vid=7e798260-e862-43ca-a153-ef26f9953226"},"vehicle_type_id":"4","last_reported":1762938749,"current_range_meters":14400,"station_id":"ce4bhnp2rcd13ifvqgvg","pricing_plan_id":"cebpf4jnsgd1na2vs0mg"},{"bike_id":"299872d7-6929-4fec-b283-028955831ed1","system_id":"levelo_inurba_marseille","lat":43.29558,"lon":5.42292,"is_reserved":false,"is_disabled":false,"rental_uris":{"android":"levelo://app?vid=299872d7-6929-4fec-b283-028955831ed1","ios":"levelo://app?vid=299872d7-6929-4fec-b283-028955831ed1"},"vehicle_type_id":"4","last_reported":1762938749,"current_range_meters":14400,"station_id":"ce4bhph2rcd13ifvqhdg","pricing_plan_id":"cebpf4jnsgd1na2vs0mg"},{"bike_id":"7debdec4-db33-4dad-83bf-2f83639d0f53","system_id":"levelo_inurba_marseille","lat":43.24994,"lon":5.38935,"is_reserved":false,"is_disabled":false,"rental_uris":{"android":"levelo://app?vid=7debdec4-db33-4dad-83bf-2f83639d0f53","ios":"levelo://app?vid=7debdec4-db33-4dad-83bf-2f83639d0f53"},"vehicle_type_id":"4","last_reported":1762938749,"current_range_meters":14400,"station_id":"ce4bhgp2rcd13ifvqfd0","pricing_plan_id":"cebpf4jnsgd1na2vs0mg"},{"bike_id":"23cf5617-2a8e-4b86-b9b4-9b049dde7593","system_id":"levelo_inurba_marseille","lat":43.323585,"lon":5.367585,"is_reserved":false,"is_disabled":false,"rental_uris":{"android":"levelo://app?vid=23cf5617-2a8e-4b86-b9b4-9b049dde7593","ios":"levelo://app?vid=23cf5617-2a8e-4b86-b9b4-9b049dde7593"},"vehicle_type_id":"4","last_reported":1762938749,"current_range_meters":14800,"station_id":"ce4bhsh2rcd13ifvqi2g","pricing_plan_id":"cebpf4jnsgd1na2vs0mg"},{"bike_id":"033d9bd2-df51-4761-a5ec-5930be27fbfe","system_id":"levelo_inurba_marseille","lat":43.24079,"lon":5.37753,"is_reserved":false,"is_disabled":false,"rental_uris":{"android":"levelo://app?vid=033d9bd2-df51-4761-a5ec-5930be27fbfe","ios":"levelo://app?vid=033d9bd2-df51-4761-a5ec-5930be27fbfe"},"vehicle_type_id":"4","last_reported":1762938749,"current_range_meters":14800,"station_id":"ce4bhnp2rcd13ifvqgvg","pricing_plan_id":"cebpf4jnsgd1na2vs0mg"},{"bike_id":"d6d9a3e0-e0aa-4aa2-bf84-1c4e64c5c8a2","system_id":"levelo_inurba_marseille","lat":43.2553,"lon":5.39074,"is_reserved":false,"is_disabled":false,"rental_uris":{"android":"levelo://app?vid=d6d9a3e0-e0aa-4aa2-bf84-1c4e64c5c8a2","ios":"levelo://app?vid=d6d9a3e0-e0aa-4aa2-bf84-1c4e64c5c8a2"},"vehicle_type_id":"4","last_reported":1762938749,"current_range_meters":14800,"station_id":"","pricing_plan_id":"cebpf4jnsgd1na2vs0mg"},{"bike_id":"5e6e0c2c-5aff-425c-b9f5-69ee0b364303","system_id":"levelo_inurba_marseille","lat":43.231985,"lon":5.355475,"is_reserved":false,"is_disabled":false,"rental_uris":{"android":"levelo://app?vid=5e6e0c2c-5aff-425c-b9f5-69ee0b364303","ios":"levelo://app?vid=5e6e0c2c-5aff-425c-b9f5-69ee0b364303"},"vehicle_type_id":"4","last_reported":1762938749,"current_range_meters":14800,"station_id":"ce4bhu92rcd13ifvqi70","pricing_plan_id":"cebpf4jnsgd1na2vs0mg"},{"bike_id":"e13b78db-2231-48a0-b9e0-a153f32a43f4","system_id":"levelo_inurba_marseille","lat":43.2305,"lon":5.35493,"is_reserved":false,"is_disabled":false,"rental_uris":{"android":"levelo://app?vid=e13b78db-2231-48a0-b9e0-a153f32a43f4","ios":"levelo://app?vid=e13b78db-2231-48a0-b9e0-a153f32a43f4"},"vehicle_type_id":"4","last_reported":1762938749,"current_range_meters":14800,"station_id":"cpo3342slgdg3j2ifvpg","pricing_plan_id":"cebpf4jnsgd1na2vs0mg"},{"bike_id":"1b0b7981-696f-4ec5-932c-764cd2899c70","system_id":"levelo_inurba_marseille","lat":43.284744,"lon":5.484017,"is_reserved":false,"is_disabled":false,"rental_uris":{"android":"levelo://app?vid=1b0b7981-696f-4ec5-932c-764cd2899c70","ios":"levelo://app?vid=1b0b7981-696f-4ec5-932c-764cd2899c70"},"vehicle_type_id":"4","last_reported":1762938749,"current_range_meters":14800,"station_id":"","pricing_plan_id":"cebpf4jnsgd1na2vs0mg"},{"bike_id":"56e4cb65-5560-44f9-94d2-d2fbcdb7dd4e","system_id":"levelo_inurba_marseille","lat":43.290376,"lon":5.39959,"is_reserved":false,"is_disabled":false,"rental_uris":{"android":"levelo://app?vid=56e4cb65-5560-44f9-94d2-d2fbcdb7dd4e","ios":"levelo://app?vid=56e4cb65-5560-44f9-94d2-d2fbcdb7dd4e"},"vehicle_type_id":"4","last_reported":1762938749,"current_range_meters":14800,"station_id":"","pricing_plan_id":"cebpf4jnsgd1na2vs0mg"},{"bike_id":"d7cd7e03-00ed-4a41-a6cd-df8a59689589","system_id":"levelo_inurba_marseille","lat":43.274961,"lon":5.424517,"is_reserved":false,"is_disabled":false,"rental_uris":{"android":"levelo://app?vid=d7cd7e03-00ed-4a41-a6cd-df8a59689589","ios":"levelo://app?vid=d7cd7e03-00ed-4a41-a6cd-df8a59689589"},"vehicle_type_id":"4","last_reported":1762938749,"current_range_meters":15200,"station_id":"","pricing_plan_id":"cebpf4jnsgd1na2vs0mg"},{"bike_id":"e3df63a1-f3d2-4d82-8bf6-df212c4e8b69","system_id":"levelo_inurba_marseille","lat":43.284757,"lon":5.483976,"is_reserved":false,"is_disabled":false,"rental_uris":{"android":"levelo://app?vid=e3df63a1-f3d2-4d82-8bf6-df212c4e8b69","ios":"levelo://app?vid=e3df63a1-f3d2-4d82-8bf6-df212c4e8b69"},"vehicle_type_id":"4","last_reported":1762938749,"current_range_meters":15200,"station_id":"st_d3svhcjqgbts73a3dn0g","pricing_plan_id":"cebpf4jnsgd1na2vs0mg"},{"bike_id":"6eefa229-6053-490f-b4d2-4833cf952925","system_id":"levelo_inurba_marseille","lat":43.25935,"lon":5.40907,"is_reserved":false,"is_disabled":false,"rental_uris":{"android":"levelo://app?vid=6eefa229-6053-490f-b4d2-4833cf952925","ios":"levelo://app?vid=6eefa229-6053-490f-b4d2-4833cf952925"},"vehicle_type_id":"4","last_reported":1762938749,"current_range_meters":15200,"station_id":"ce4bhm92rcd13ifvqglg","pricing_plan_id":"cebpf4jnsgd1na2vs0mg"},{"bike_id":"7405fff1-54cb-4441-8d3b-98a0b2f0eb43","system_id":"levelo_inurba_marseille","lat":43.273281,"lon":5.390523,"is_reserved":false,"is_disabled":false,"rental_uris":{"android":"levelo://app?vid=7405fff1-54cb-4441-8d3b-98a0b2f0eb43","ios":"levelo://app?vid=7405fff1-54cb-4441-8d3b-98a0b2f0eb43"},"vehicle_type_id":"4","last_reported":1762938749,"current_range_meters":15200,"station_id":"","pricing_plan_id":"cebpf4jnsgd1na2vs0mg"},{"bike_id":"0528378f-1b50-41df-b328-6686306ee922","system_id":"levelo_inurba_marseille","lat":43.216291,"lon":5.344422,"is_reserved":false,"is_disabled":false,"rental_uris":{"android":"levelo://app?vid=0528378f-1b50-41df-b328-6686306ee922","ios":"levelo://app?vid=0528378f-1b50-41df-b328-6686306ee922"},"vehicle_type_id":"4","last_reported":1762938749,"current_range_meters":15200,"station_id":"","pricing_plan_id":"cebpf4jnsgd1na2vs0mg"},{"bike_id":"03fd38f7-c82d-434f-8e88-373232cae053","system_id":"levelo_inurba_marseille","lat":43.30554,"lon":5.36525,"is_reserved":false,"is_disabled":false,"rental_uris":{"android":"levelo://app?vid=03fd38f7-c82d-434f-8e88-373232cae053","ios":"levelo://app?vid=03fd38f7-c82d-434f-8e88-373232cae053"},"vehicle_type_id":"4","last_reported":1762938749,"current_range_meters":15200,"station_id":"ce4bgs12rcd13ifvqcag","pricing_plan_id":"cebpf4jnsgd1na2vs0mg"},{"bike_id":"923b9b51-7668-49ee-9380-3193a6308631","system_id":"levelo_inurba_marseille","lat":43.29544,"lon":5.37495,"is_reserved":false,"is_disabled":false,"rental_uris":{"android":"levelo://app?vid=923b9b51-7668-49ee-9380-3193a6308631","ios":"levelo://app?vid=923b9b51-7668-49ee-9380-3193a6308631"},"vehicle_type_id":"4","last_reported":1762938749,"current_range_meters":15200,"station_id":"ce4bgkp2rcd13ifvqbmg","pricing_plan_id":"cebpf4jnsgd1na2vs0mg"},{"bike_id":"e486463d-7f5b-4579-9234-e08cf0e6d7c1","system_id":"levelo_inurba_marseille","lat":43.287026,"lon":5.373784,"is_reserved":false,"is_disabled":false,"rental_uris":{"android":"levelo://app?vid=e486463d-7f5b-4579-9234-e08cf0e6d7c1","ios":"levelo://app?vid=e486463d-7f5b-4579-9234-e08cf0e6d7c1"},"vehicle_type_id":"4","last_reported":1762938749,"current_range_meters":15200,"station_id":"ce4bh3p2rcd13ifvqdq0","pricing_plan_id":"cebpf4jnsgd1na2vs0mg"},{"bike_id":"665d53b2-fadf-4bb4-af06-57a3cdb40b04","system_id":"levelo_inurba_marseille","lat":43.30537,"lon":5.36714,"is_reserved":false,"is_disabled":false,"rental_uris":{"android":"levelo://app?vid=665d53b2-fadf-4bb4-af06-57a3cdb40b04","ios":"levelo://app?vid=665d53b2-fadf-4bb4-af06-57a3cdb40b04"},"vehicle_type_id":"4","last_reported":1762938749,"current_range_meters":15200,"station_id":"ce4bgrp2rcd13ifvqc9g","pricing_plan_id":"cebpf4jnsgd1na2vs0mg"},{"bike_id":"7cd3fc91-8b4e-4cc9-a97a-8aec9cd4160c","system_id":"levelo_inurba_marseille","lat":43.29888,"lon":5.37217,"is_reserved":false,"is_disabled":true,"rental_uris":{"android":"levelo://app?vid=7cd3fc91-8b4e-4cc9-a97a-8aec9cd4160c","ios":"levelo://app?vid=7cd3fc91-8b4e-4cc9-a97a-8aec9cd4160c"},"vehicle_type_id":"4","last_reported":1762938749,"current_range_meters":16000,"station_id":"","pricing_plan_id":"cebpf4jnsgd1na2vs0mg"},{"bike_id":"f19a854d-96e9-4cf0-92aa-d357813dc143","system_id":"levelo_inurba_marseille","lat":43.2848,"lon":5.38432,"is_reserved":false,"is_disabled":true,"rental_uris":{"android":"levelo://app?vid=f19a854d-96e9-4cf0-92aa-d357813dc143","ios":"levelo://app?vid=f19a854d-96e9-4cf0-92aa-d357813dc143"},"vehicle_type_id":"4","last_reported":1762938749,"current_range_meters":16000,"station_id":"ce4bh512rcd13ifvqe3g","pricing_plan_id":"cebpf4jnsgd1na2vs0mg"},{"bike_id":"030c922d-3979-4eb8-a570-e65d79c6672d","system_id":"levelo_inurba_marseille","lat":43.26688,"lon":5.38268,"is_reserved":false,"is_disabled":false,"rental_uris":{"android":"levelo://app?vid=030c922d-3979-4eb8-a570-e65d79c6672d","ios":"levelo://app?vid=030c922d-3979-4eb8-a570-e65d79c6672d"},"vehicle_type_id":"4","last_reported":1762938749,"current_range_meters":16000,"station_id":"ce4bhg92rcd13ifvqf90","pricing_plan_id":"cebpf4jnsgd1na2vs0mg"},{"bike_id":"2a3b9dbf-ea9c-4b07-a967-9d634fe521af","system_id":"levelo_inurba_marseille","lat":43.30553,"lon":5.36692,"is_reserved":false,"is_disabled":false,"rental_uris":{"android":"levelo://app?vid=2a3b9dbf-ea9c-4b07-a967-9d634fe521af","ios":"levelo://app?vid=2a3b9dbf-ea9c-4b07-a967-9d634fe521af"},"vehicle_type_id":"4","last_reported":1762938749,"current_range_meters":16000,"station_id":"ce4bgrp2rcd13ifvqc9g","pricing_plan_id":"cebpf4jnsgd1na2vs0mg"},{"bike_id":"343b265d-91de-47c8-bdcd-f66499bd1a80","system_id":"levelo_inurba_marseille","lat":43.2931,"lon":5.37174,"is_reserved":false,"is_disabled":false,"rental_uris":{"android":"levelo://app?vid=343b265d-91de-47c8-bdcd-f66499bd1a80","ios":"levelo://app?vid=343b265d-91de-47c8-bdcd-f66499bd1a80"},"vehicle_type_id":"4","last_reported":1762938749,"current_range_meters":16000,"station_id":"ce4bgh92rcd13ifvqb40","pricing_plan_id":"cebpf4jnsgd1na2vs0mg"},{"bike_id":"f8ccf3ad-8230-4ed6-9a04-c363cd1200f7","system_id":"levelo_inurba_marseille","lat":43.34141,"lon":5.40884,"is_reserved":false,"is_disabled":false,"rental_uris":{"android":"levelo://app?vid=f8ccf3ad-8230-4ed6-9a04-c363cd1200f7","ios":"levelo://app?vid=f8ccf3ad-8230-4ed6-9a04-c363cd1200f7"},"vehicle_type_id":"4","last_reported":1762938749,"current_range_meters":16000,"station_id":"ce4bhqh2rcd13ifvqhlg","pricing_plan_id":"cebpf4jnsgd1na2vs0mg"},{"bike_id":"fc9aa456-98ed-4481-8b14-f868cb6cd406","system_id":"levelo_inurba_marseille","lat":43.28415,"lon":5.37505,"is_reserved":false,"is_disabled":false,"rental_uris":{"android":"levelo://app?vid=fc9aa456-98ed-4481-8b14-f868cb6cd406","ios":"levelo://app?vid=fc9aa456-98ed-4481-8b14-f868cb6cd406"},"vehicle_type_id":"4","last_reported":1762938749,"current_range_meters":16000,"station_id":"ce4bh412rcd13ifvqds0","pricing_plan_id":"cebpf4jnsgd1na2vs0mg"},{"bike_id":"01571923-980e-446a-ba2d-4d18a11dfcdd","system_id":"levelo_inurba_marseille","lat":43.247893,"lon":5.374739,"is_reserved":false,"is_disabled":false,"rental_uris":{"android":"levelo://app?vid=01571923-980e-446a-ba2d-4d18a11dfcdd","ios":"levelo://app?vid=01571923-980e-446a-ba2d-4d18a11dfcdd"},"vehicle_type_id":"4","last_reported":1762938749,"current_range_meters":16400,"station_id":"","pricing_plan_id":"cebpf4jnsgd1na2vs0mg"},{"bike_id":"9f77fce6-b576-455d-a43d-b1e175676c28","system_id":"levelo_inurba_marseille","lat":43.33773,"lon":5.37473,"is_reserved":false,"is_disabled":false,"rental_uris":{"android":"levelo://app?vid=9f77fce6-b576-455d-a43d-b1e175676c28","ios":"levelo://app?vid=9f77fce6-b576-455d-a43d-b1e175676c28"},"vehicle_type_id":"4","last_reported":1762938749,"current_range_meters":16400,"station_id":"","pricing_plan_id":"cebpf4jnsgd1na2vs0mg"},{"bike_id":"c01ee74c-0907-4ca7-82d0-a92efd488ad9","system_id":"levelo_inurba_marseille","lat":43.22573,"lon":5.4163,"is_reserved":false,"is_disabled":false,"rental_uris":{"android":"levelo://app?vid=c01ee74c-0907-4ca7-82d0-a92efd488ad9","ios":"levelo://app?vid=c01ee74c-0907-4ca7-82d0-a92efd488ad9"},"vehicle_type_id":"4","last_reported":1762938749,"current_range_meters":16400,"station_id":"st_d2o4gvlbi1j2169b742g","pricing_plan_id":"cebpf4jnsgd1na2vs0mg"},{"bike_id":"fa0c61d9-95e9-40df-ae07-499e94d967c6","system_id":"levelo_inurba_marseille","lat":43.28847,"lon":5.39326,"is_reserved":false,"is_disabled":false,"rental_uris":{"android":"levelo://app?vid=fa0c61d9-95e9-40df-ae07-499e94d967c6","ios":"levelo://app?vid=fa0c61d9-95e9-40df-ae07-499e94d967c6"},"vehicle_type_id":"4","last_reported":1762938749,"current_range_meters":16400,"station_id":"ce4bh2p2rcd13ifvqdi0","pricing_plan_id":"cebpf4jnsgd1na2vs0mg"},{"bike_id":"76c9f976-f4ed-4a4d-8695-b254fdfed1b2","system_id":"levelo_inurba_marseille","lat":43.30464,"lon":5.37903,"is_reserved":false,"is_disabled":false,"rental_uris":{"android":"levelo://app?vid=76c9f976-f4ed-4a4d-8695-b254fdfed1b2","ios":"levelo://app?vid=76c9f976-f4ed-4a4d-8695-b254fdfed1b2"},"vehicle_type_id":"4","last_reported":1762938749,"current_range_meters":16400,"station_id":"ce4bgup2rcd13ifvqcn0","pricing_plan_id":"cebpf4jnsgd1na2vs0mg"},{"bike_id":"3210e757-4d1e-4efd-83c1-043a34b9a756","system_id":"levelo_inurba_marseille","lat":43.24184,"lon":5.39725,"is_reserved":false,"is_disabled":false,"rental_uris":{"android":"levelo://app?vid=3210e757-4d1e-4efd-83c1-043a34b9a756","ios":"levelo://app?vid=3210e757-4d1e-4efd-83c1-043a34b9a756"},"vehicle_type_id":"4","last_reported":1762938749,"current_range_meters":16400,"station_id":"ce4bhn12rcd13ifvqgpg","pricing_plan_id":"cebpf4jnsgd1na2vs0mg"},{"bike_id":"8eef622d-44c1-4eab-88ec-13075a2b39ca","system_id":"levelo_inurba_marseille","lat":43.292241,"lon":5.360731,"is_reserved":false,"is_disabled":false,"rental_uris":{"android":"levelo://app?vid=8eef622d-44c1-4eab-88ec-13075a2b39ca","ios":"levelo://app?vid=8eef622d-44c1-4eab-88ec-13075a2b39ca"},"vehicle_type_id":"4","last_reported":1762938749,"current_range_meters":16400,"station_id":"ce4bhbh2rcd13ifvqeqg","pricing_plan_id":"cebpf4jnsgd1na2vs0mg"},{"bike_id":"6dc8b84f-81c9-44ce-ba2d-d57b9ad31bcd","system_id":"levelo_inurba_marseille","lat":43.29934,"lon":5.36535,"is_reserved":false,"is_disabled":false,"rental_uris":{"android":"levelo://app?vid=6dc8b84f-81c9-44ce-ba2d-d57b9ad31bcd","ios":"levelo://app?vid=6dc8b84f-81c9-44ce-ba2d-d57b9ad31bcd"},"vehicle_type_id":"4","last_reported":1762938749,"current_range_meters":16800,"station_id":"ce4bgm92rcd13ifvqbr0","pricing_plan_id":"cebpf4jnsgd1na2vs0mg"},{"bike_id":"c83b5c1b-edab-4bfb-a2f2-d3468c55c2ba","system_id":"levelo_inurba_marseille","lat":43.294826,"lon":5.444489,"is_reserved":false,"is_disabled":true,"rental_uris":{"android":"levelo://app?vid=c83b5c1b-edab-4bfb-a2f2-d3468c55c2ba","ios":"levelo://app?vid=c83b5c1b-edab-4bfb-a2f2-d3468c55c2ba"},"vehicle_type_id":"4","last_reported":1762938749,"current_range_meters":16800,"station_id":"","pricing_plan_id":"cebpf4jnsgd1na2vs0mg"},{"bike_id":"a26712ac-c4dc-4d7c-9767-877ec57b4780","system_id":"levelo_inurba_marseille","lat":43.28487,"lon":5.48389,"is_reserved":false,"is_disabled":false,"rental_uris":{"android":"levelo://app?vid=a26712ac-c4dc-4d7c-9767-877ec57b4780","ios":"levelo://app?vid=a26712ac-c4dc-4d7c-9767-877ec57b4780"},"vehicle_type_id":"4","last_reported":1762938749,"current_range_meters":16800,"station_id":"st_d3svhcjqgbts73a3dn0g","pricing_plan_id":"cebpf4jnsgd1na2vs0mg"},{"bike_id":"65062346-4963-425f-99a4-b5bf35095455","system_id":"levelo_inurba_marseille","lat":43.30818,"lon":5.38156,"is_reserved":false,"is_disabled":false,"rental_uris":{"android":"levelo://app?vid=65062346-4963-425f-99a4-b5bf35095455","ios":"levelo://app?vid=65062346-4963-425f-99a4-b5bf35095455"},"vehicle_type_id":"4","last_reported":1762938749,"current_range_meters":16800,"station_id":"ce4bgt12rcd13ifvqce0","pricing_plan_id":"cebpf4jnsgd1na2vs0mg"},{"bike_id":"b61617af-5e6e-4eae-bb4b-c657289cb01b","system_id":"levelo_inurba_marseille","lat":43.33165,"lon":5.37687,"is_reserved":false,"is_disabled":false,"rental_uris":{"android":"levelo://app?vid=b61617af-5e6e-4eae-bb4b-c657289cb01b","ios":"levelo://app?vid=b61617af-5e6e-4eae-bb4b-c657289cb01b"},"vehicle_type_id":"4","last_reported":1762938749,"current_range_meters":16800,"station_id":"st_d46cu089ee8s73dldbu0","pricing_plan_id":"cebpf4jnsgd1na2vs0mg"},{"bike_id":"c4d99a60-56bc-4f6e-96c8-b59c44660d79","system_id":"levelo_inurba_marseille","lat":43.246491,"lon":5.388943,"is_reserved":false,"is_disabled":false,"rental_uris":{"android":"levelo://app?vid=c4d99a60-56bc-4f6e-96c8-b59c44660d79","ios":"levelo://app?vid=c4d99a60-56bc-4f6e-96c8-b59c44660d79"},"vehicle_type_id":"4","last_reported":1762938749,"current_range_meters":16800,"station_id":"ce4bhg12rcd13ifvqf60","pricing_plan_id":"cebpf4jnsgd1na2vs0mg"},{"bike_id":"52d4b8ef-bd3b-4594-9933-6de587b7e338","system_id":"levelo_inurba_marseille","lat":43.22949,"lon":5.3533,"is_reserved":false,"is_disabled":false,"rental_uris":{"android":"levelo://app?vid=52d4b8ef-bd3b-4594-9933-6de587b7e338","ios":"levelo://app?vid=52d4b8ef-bd3b-4594-9933-6de587b7e338"},"vehicle_type_id":"4","last_reported":1762938749,"current_range_meters":16800,"station_id":"cpo3532slgdg3j2ikp40","pricing_plan_id":"cebpf4jnsgd1na2vs0mg"},{"bike_id":"a1db40e4-205b-460c-8b43-54f8174fca72","system_id":"levelo_inurba_marseille","lat":43.27504,"lon":5.42445,"is_reserved":false,"is_disabled":false,"rental_uris":{"android":"levelo://app?vid=a1db40e4-205b-460c-8b43-54f8174fca72","ios":"levelo://app?vid=a1db40e4-205b-460c-8b43-54f8174fca72"},"vehicle_type_id":"4","last_reported":1762938749,"current_range_meters":16800,"station_id":"ce4bhn92rcd13ifvqgrg","pricing_plan_id":"cebpf4jnsgd1na2vs0mg"},{"bike_id":"c0cfc4ab-b5d5-45ea-af34-9f878cdbb6b2","system_id":"levelo_inurba_marseille","lat":43.31372,"lon":5.36715,"is_reserved":false,"is_disabled":false,"rental_uris":{"android":"levelo://app?vid=c0cfc4ab-b5d5-45ea-af34-9f878cdbb6b2","ios":"levelo://app?vid=c0cfc4ab-b5d5-45ea-af34-9f878cdbb6b2"},"vehicle_type_id":"4","last_reported":1762938749,"current_range_meters":16800,"station_id":"ce4bgr92rcd13ifvqc6g","pricing_plan_id":"cebpf4jnsgd1na2vs0mg"},{"bike_id":"148f6e9f-6211-428f-8ddc-f0b34bf3979d","system_id":"levelo_inurba_marseille","lat":43.27503,"lon":5.42453,"is_reserved":false,"is_disabled":false,"rental_uris":{"android":"levelo://app?vid=148f6e9f-6211-428f-8ddc-f0b34bf3979d","ios":"levelo://app?vid=148f6e9f-6211-428f-8ddc-f0b34bf3979d"},"vehicle_type_id":"4","last_reported":1762938749,"current_range_meters":16800,"station_id":"ce4bhn92rcd13ifvqgrg","pricing_plan_id":"cebpf4jnsgd1na2vs0mg"},{"bike_id":"da621a43-1a1d-49f0-9b44-0e03a3a224b4","system_id":"levelo_inurba_marseille","lat":43.33605,"lon":5.41028,"is_reserved":false,"is_disabled":false,"rental_uris":{"android":"levelo://app?vid=da621a43-1a1d-49f0-9b44-0e03a3a224b4","ios":"levelo://app?vid=da621a43-1a1d-49f0-9b44-0e03a3a224b4"},"vehicle_type_id":"4","last_reported":1762938749,"current_range_meters":16800,"station_id":"ce4bhqh2rcd13ifvqhmg","pricing_plan_id":"cebpf4jnsgd1na2vs0mg"},{"bike_id":"4e4f5e93-c99a-48ba-bbe4-6b8275271c78","system_id":"levelo_inurba_marseille","lat":43.26686,"lon":5.3827,"is_reserved":false,"is_disabled":false,"rental_uris":{"android":"levelo://app?vid=4e4f5e93-c99a-48ba-bbe4-6b8275271c78","ios":"levelo://app?vid=4e4f5e93-c99a-48ba-bbe4-6b8275271c78"},"vehicle_type_id":"4","last_reported":1762938749,"current_range_meters":16800,"station_id":"ce4bhg92rcd13ifvqf90","pricing_plan_id":"cebpf4jnsgd1na2vs0mg"},{"bike_id":"0d80f816-4f1f-49ba-8abe-aaf1d351a31e","system_id":"levelo_inurba_marseille","lat":43.34159,"lon":5.409,"is_reserved":false,"is_disabled":false,"rental_uris":{"android":"levelo://app?vid=0d80f816-4f1f-49ba-8abe-aaf1d351a31e","ios":"levelo://app?vid=0d80f816-4f1f-49ba-8abe-aaf1d351a31e"},"vehicle_type_id":"4","last_reported":1762938749,"current_range_meters":16800,"station_id":"ce4bhqh2rcd13ifvqhlg","pricing_plan_id":"cebpf4jnsgd1na2vs0mg"},{"bike_id":"bf4243bc-6c3c-4718-83fd-92f0672c67c7","system_id":"levelo_inurba_marseille","lat":43.32543,"lon":5.41445,"is_reserved":false,"is_disabled":false,"rental_uris":{"android":"levelo://app?vid=bf4243bc-6c3c-4718-83fd-92f0672c67c7","ios":"levelo://app?vid=bf4243bc-6c3c-4718-83fd-92f0672c67c7"},"vehicle_type_id":"4","last_reported":1762938749,"current_range_meters":16800,"station_id":"ce4bhq12rcd13ifvqhhg","pricing_plan_id":"cebpf4jnsgd1na2vs0mg"},{"bike_id":"2a2ec83a-2b84-4bf4-b19a-cd864bece9fd","system_id":"levelo_inurba_marseille","lat":43.24633,"lon":5.43144,"is_reserved":false,"is_disabled":false,"rental_uris":{"android":"levelo://app?vid=2a2ec83a-2b84-4bf4-b19a-cd864bece9fd","ios":"levelo://app?vid=2a2ec83a-2b84-4bf4-b19a-cd864bece9fd"},"vehicle_type_id":"4","last_reported":1762938749,"current_range_meters":16800,"station_id":"st_d2m6c4gdas8pm72e190g","pricing_plan_id":"cebpf4jnsgd1na2vs0mg"},{"bike_id":"e0e3b408-9264-4516-985b-11cad62724c0","system_id":"levelo_inurba_marseille","lat":43.23155,"lon":5.43722,"is_reserved":false,"is_disabled":false,"rental_uris":{"android":"levelo://app?vid=e0e3b408-9264-4516-985b-11cad62724c0","ios":"levelo://app?vid=e0e3b408-9264-4516-985b-11cad62724c0"},"vehicle_type_id":"4","last_reported":1762938749,"current_range_meters":17200,"station_id":"ce4bhmp2rcd13ifvqgog","pricing_plan_id":"cebpf4jnsgd1na2vs0mg"},{"bike_id":"23689ba5-fecc-4c4f-9039-404cf03eb8c5","system_id":"levelo_inurba_marseille","lat":43.28491,"lon":5.38409,"is_reserved":false,"is_disabled":false,"rental_uris":{"android":"levelo://app?vid=23689ba5-fecc-4c4f-9039-404cf03eb8c5","ios":"levelo://app?vid=23689ba5-fecc-4c4f-9039-404cf03eb8c5"},"vehicle_type_id":"4","last_reported":1762938749,"current_range_meters":17200,"station_id":"ce4bh512rcd13ifvqe3g","pricing_plan_id":"cebpf4jnsgd1na2vs0mg"},{"bike_id":"2606a4d9-1405-406b-994c-fb88093893a9","system_id":"levelo_inurba_marseille","lat":43.23156,"lon":5.43713,"is_reserved":false,"is_disabled":false,"rental_uris":{"android":"levelo://app?vid=2606a4d9-1405-406b-994c-fb88093893a9","ios":"levelo://app?vid=2606a4d9-1405-406b-994c-fb88093893a9"},"vehicle_type_id":"4","last_reported":1762938749,"current_range_meters":17200,"station_id":"ce4bhmp2rcd13ifvqgog","pricing_plan_id":"cebpf4jnsgd1na2vs0mg"},{"bike_id":"288fbbb5-7a5f-4575-b4d6-40bfda0b6d52","system_id":"levelo_inurba_marseille","lat":43.24076,"lon":5.37757,"is_reserved":false,"is_disabled":false,"rental_uris":{"android":"levelo://app?vid=288fbbb5-7a5f-4575-b4d6-40bfda0b6d52","ios":"levelo://app?vid=288fbbb5-7a5f-4575-b4d6-40bfda0b6d52"},"vehicle_type_id":"4","last_reported":1762938749,"current_range_meters":17200,"station_id":"ce4bhnp2rcd13ifvqgvg","pricing_plan_id":"cebpf4jnsgd1na2vs0mg"},{"bike_id":"44188e20-2914-44ac-b9fc-305a520904e1","system_id":"levelo_inurba_marseille","lat":43.29583,"lon":5.3751,"is_reserved":false,"is_disabled":false,"rental_uris":{"android":"levelo://app?vid=44188e20-2914-44ac-b9fc-305a520904e1","ios":"levelo://app?vid=44188e20-2914-44ac-b9fc-305a520904e1"},"vehicle_type_id":"4","last_reported":1762938749,"current_range_meters":17200,"station_id":"ce4bgh92rcd13ifvqb50","pricing_plan_id":"cebpf4jnsgd1na2vs0mg"},{"bike_id":"65a4abe7-288e-4d53-9a3a-9c7ef2e7d4a6","system_id":"levelo_inurba_marseille","lat":43.2817,"lon":5.42652,"is_reserved":false,"is_disabled":false,"rental_uris":{"android":"levelo://app?vid=65a4abe7-288e-4d53-9a3a-9c7ef2e7d4a6","ios":"levelo://app?vid=65a4abe7-288e-4d53-9a3a-9c7ef2e7d4a6"},"vehicle_type_id":"4","last_reported":1762938749,"current_range_meters":17200,"station_id":"ce4bhnh2rcd13ifvqgug","pricing_plan_id":"cebpf4jnsgd1na2vs0mg"},{"bike_id":"45568963-a66c-4850-b485-de77f6ce5c0a","system_id":"levelo_inurba_marseille","lat":43.29979,"lon":5.37156,"is_reserved":false,"is_disabled":false,"rental_uris":{"android":"levelo://app?vid=45568963-a66c-4850-b485-de77f6ce5c0a","ios":"levelo://app?vid=45568963-a66c-4850-b485-de77f6ce5c0a"},"vehicle_type_id":"4","last_reported":1762938749,"current_range_meters":17200,"station_id":"ce4bgr92rcd13ifvqc7g","pricing_plan_id":"cebpf4jnsgd1na2vs0mg"},{"bike_id":"a76ed384-8adb-4855-8ea9-608b64e9d92b","system_id":"levelo_inurba_marseille","lat":43.32293,"lon":5.3696,"is_reserved":false,"is_disabled":false,"rental_uris":{"android":"levelo://app?vid=a76ed384-8adb-4855-8ea9-608b64e9d92b","ios":"levelo://app?vid=a76ed384-8adb-4855-8ea9-608b64e9d92b"},"vehicle_type_id":"4","last_reported":1762938749,"current_range_meters":17200,"station_id":"","pricing_plan_id":"cebpf4jnsgd1na2vs0mg"},{"bike_id":"2a0f534b-4882-49bc-820c-311a804fef5e","system_id":"levelo_inurba_marseille","lat":43.24184,"lon":5.39727,"is_reserved":false,"is_disabled":false,"rental_uris":{"android":"levelo://app?vid=2a0f534b-4882-49bc-820c-311a804fef5e","ios":"levelo://app?vid=2a0f534b-4882-49bc-820c-311a804fef5e"},"vehicle_type_id":"4","last_reported":1762938749,"current_range_meters":17200,"station_id":"ce4bhn12rcd13ifvqgpg","pricing_plan_id":"cebpf4jnsgd1na2vs0mg"},{"bike_id":"b904a932-408f-40fe-9201-b4b37da5bb51","system_id":"levelo_inurba_marseille","lat":43.26561,"lon":5.40322,"is_reserved":false,"is_disabled":false,"rental_uris":{"android":"levelo://app?vid=b904a932-408f-40fe-9201-b4b37da5bb51","ios":"levelo://app?vid=b904a932-408f-40fe-9201-b4b37da5bb51"},"vehicle_type_id":"4","last_reported":1762938749,"current_range_meters":17600,"station_id":"ce4bhmp2rcd13ifvqgng","pricing_plan_id":"cebpf4jnsgd1na2vs0mg"},{"bike_id":"187fdf55-20b9-480a-b5bf-f2266c4c2ede","system_id":"levelo_inurba_marseille","lat":43.295788,"lon":5.375288,"is_reserved":false,"is_disabled":false,"rental_uris":{"android":"levelo://app?vid=187fdf55-20b9-480a-b5bf-f2266c4c2ede","ios":"levelo://app?vid=187fdf55-20b9-480a-b5bf-f2266c4c2ede"},"vehicle_type_id":"4","last_reported":1762938749,"current_range_meters":17600,"station_id":"","pricing_plan_id":"cebpf4jnsgd1na2vs0mg"},{"bike_id":"d9fd84e3-4d8f-4649-a076-925e2d6e53fe","system_id":"levelo_inurba_marseille","lat":43.30554,"lon":5.36525,"is_reserved":false,"is_disabled":false,"rental_uris":{"android":"levelo://app?vid=d9fd84e3-4d8f-4649-a076-925e2d6e53fe","ios":"levelo://app?vid=d9fd84e3-4d8f-4649-a076-925e2d6e53fe"},"vehicle_type_id":"4","last_reported":1762938749,"current_range_meters":17600,"station_id":"ce4bgs12rcd13ifvqcag","pricing_plan_id":"cebpf4jnsgd1na2vs0mg"},{"bike_id":"98d9ed27-1c51-4232-bb05-142a9e7f98db","system_id":"levelo_inurba_marseille","lat":43.31077,"lon":5.38355,"is_reserved":false,"is_disabled":true,"rental_uris":{"android":"levelo://app?vid=98d9ed27-1c51-4232-bb05-142a9e7f98db","ios":"levelo://app?vid=98d9ed27-1c51-4232-bb05-142a9e7f98db"},"vehicle_type_id":"4","last_reported":1762938749,"current_range_meters":17600,"station_id":"ce4bgv92rcd13ifvqcr0","pricing_plan_id":"cebpf4jnsgd1na2vs0mg"},{"bike_id":"6faca5e0-f5f3-4419-a7e2-34fda1621326","system_id":"levelo_inurba_marseille","lat":43.211906,"lon":5.350792,"is_reserved":false,"is_disabled":false,"rental_uris":{"android":"levelo://app?vid=6faca5e0-f5f3-4419-a7e2-34fda1621326","ios":"levelo://app?vid=6faca5e0-f5f3-4419-a7e2-34fda1621326"},"vehicle_type_id":"4","last_reported":1762938749,"current_range_meters":17600,"station_id":"st_cvj6sg6p6f1abm77japg","pricing_plan_id":"cebpf4jnsgd1na2vs0mg"},{"bike_id":"2f1f724f-7019-409c-b19d-54464935d9d7","system_id":"levelo_inurba_marseille","lat":43.29862,"lon":5.36268,"is_reserved":false,"is_disabled":false,"rental_uris":{"android":"levelo://app?vid=2f1f724f-7019-409c-b19d-54464935d9d7","ios":"levelo://app?vid=2f1f724f-7019-409c-b19d-54464935d9d7"},"vehicle_type_id":"4","last_reported":1762938749,"current_range_meters":17600,"station_id":"ce4bgpp2rcd13ifvqc3g","pricing_plan_id":"cebpf4jnsgd1na2vs0mg"},{"bike_id":"779181f0-44b9-4775-8c90-bf36326eb10c","system_id":"levelo_inurba_marseille","lat":43.29173,"lon":5.37149,"is_reserved":false,"is_disabled":false,"rental_uris":{"android":"levelo://app?vid=779181f0-44b9-4775-8c90-bf36326eb10c","ios":"levelo://app?vid=779181f0-44b9-4775-8c90-bf36326eb10c"},"vehicle_type_id":"4","last_reported":1762938749,"current_range_meters":18000,"station_id":"ce4bha92rcd13ifvqeh0","pricing_plan_id":"cebpf4jnsgd1na2vs0mg"},{"bike_id":"1f10aa07-17b5-420e-b6f2-b695d3cbb769","system_id":"levelo_inurba_marseille","lat":43.30607,"lon":5.39353,"is_reserved":false,"is_disabled":true,"rental_uris":{"android":"levelo://app?vid=1f10aa07-17b5-420e-b6f2-b695d3cbb769","ios":"levelo://app?vid=1f10aa07-17b5-420e-b6f2-b695d3cbb769"},"vehicle_type_id":"4","last_reported":1762938749,"current_range_meters":18000,"station_id":"ce4bh0p2rcd13ifvqd80","pricing_plan_id":"cebpf4jnsgd1na2vs0mg"},{"bike_id":"feba1818-bd8b-4490-b819-a63599738f3b","system_id":"levelo_inurba_marseille","lat":43.303182,"lon":5.36912,"is_reserved":false,"is_disabled":true,"rental_uris":{"android":"levelo://app?vid=feba1818-bd8b-4490-b819-a63599738f3b","ios":"levelo://app?vid=feba1818-bd8b-4490-b819-a63599738f3b"},"vehicle_type_id":"4","last_reported":1762938749,"current_range_meters":18000,"station_id":"ce4bgqh2rcd13ifvqc5g","pricing_plan_id":"cebpf4jnsgd1na2vs0mg"},{"bike_id":"a5f92871-e901-40e2-af90-705a6de748e5","system_id":"levelo_inurba_marseille","lat":43.24087,"lon":5.37747,"is_reserved":false,"is_disabled":false,"rental_uris":{"android":"levelo://app?vid=a5f92871-e901-40e2-af90-705a6de748e5","ios":"levelo://app?vid=a5f92871-e901-40e2-af90-705a6de748e5"},"vehicle_type_id":"4","last_reported":1762938749,"current_range_meters":18000,"station_id":"ce4bhnp2rcd13ifvqgvg","pricing_plan_id":"cebpf4jnsgd1na2vs0mg"},{"bike_id":"6e2caa74-d1f5-4152-855d-e673413d500d","system_id":"levelo_inurba_marseille","lat":43.24402,"lon":5.37046,"is_reserved":false,"is_disabled":false,"rental_uris":{"android":"levelo://app?vid=6e2caa74-d1f5-4152-855d-e673413d500d","ios":"levelo://app?vid=6e2caa74-d1f5-4152-855d-e673413d500d"},"vehicle_type_id":"4","last_reported":1762938749,"current_range_meters":18000,"station_id":"ce4bhhh2rcd13ifvqfk0","pricing_plan_id":"cebpf4jnsgd1na2vs0mg"},{"bike_id":"23f9c78c-ca0a-48be-8a9d-156c748920c2","system_id":"levelo_inurba_marseille","lat":43.27899,"lon":5.40995,"is_reserved":false,"is_disabled":false,"rental_uris":{"android":"levelo://app?vid=23f9c78c-ca0a-48be-8a9d-156c748920c2","ios":"levelo://app?vid=23f9c78c-ca0a-48be-8a9d-156c748920c2"},"vehicle_type_id":"4","last_reported":1762938749,"current_range_meters":18000,"station_id":"","pricing_plan_id":"cebpf4jnsgd1na2vs0mg"},{"bike_id":"3d9ecbd2-3a7b-49f6-9333-c9b065aa9e25","system_id":"levelo_inurba_marseille","lat":43.25716,"lon":5.41108,"is_reserved":false,"is_disabled":false,"rental_uris":{"android":"levelo://app?vid=3d9ecbd2-3a7b-49f6-9333-c9b065aa9e25","ios":"levelo://app?vid=3d9ecbd2-3a7b-49f6-9333-c9b065aa9e25"},"vehicle_type_id":"4","last_reported":1762938749,"current_range_meters":18000,"station_id":"ce4bhkp2rcd13ifvqgd0","pricing_plan_id":"cebpf4jnsgd1na2vs0mg"},{"bike_id":"c8a8e067-11b4-4fe8-8354-2d7e3239e0e8","system_id":"levelo_inurba_marseille","lat":43.30893,"lon":5.39645,"is_reserved":false,"is_disabled":false,"rental_uris":{"android":"levelo://app?vid=c8a8e067-11b4-4fe8-8354-2d7e3239e0e8","ios":"levelo://app?vid=c8a8e067-11b4-4fe8-8354-2d7e3239e0e8"},"vehicle_type_id":"4","last_reported":1762938749,"current_range_meters":18000,"station_id":"ce4bh012rcd13ifvqcv0","pricing_plan_id":"cebpf4jnsgd1na2vs0mg"},{"bike_id":"50c85d99-5cf4-421a-b36b-6a51050c8a15","system_id":"levelo_inurba_marseille","lat":43.25944,"lon":5.40897,"is_reserved":false,"is_disabled":false,"rental_uris":{"android":"levelo://app?vid=50c85d99-5cf4-421a-b36b-6a51050c8a15","ios":"levelo://app?vid=50c85d99-5cf4-421a-b36b-6a51050c8a15"},"vehicle_type_id":"4","last_reported":1762938749,"current_range_meters":18000,"station_id":"ce4bhm92rcd13ifvqglg","pricing_plan_id":"cebpf4jnsgd1na2vs0mg"},{"bike_id":"b372c843-f06b-4e0b-bf4c-eff5aaf92040","system_id":"levelo_inurba_marseille","lat":43.30282,"lon":5.37678,"is_reserved":false,"is_disabled":false,"rental_uris":{"android":"levelo://app?vid=b372c843-f06b-4e0b-bf4c-eff5aaf92040","ios":"levelo://app?vid=b372c843-f06b-4e0b-bf4c-eff5aaf92040"},"vehicle_type_id":"4","last_reported":1762938749,"current_range_meters":18000,"station_id":"ce4bguh2rcd13ifvqcj0","pricing_plan_id":"cebpf4jnsgd1na2vs0mg"},{"bike_id":"7b7c2cf5-4a39-4aa3-b187-7dd8a84f6392","system_id":"levelo_inurba_marseille","lat":43.29106,"lon":5.38121,"is_reserved":false,"is_disabled":false,"rental_uris":{"android":"levelo://app?vid=7b7c2cf5-4a39-4aa3-b187-7dd8a84f6392","ios":"levelo://app?vid=7b7c2cf5-4a39-4aa3-b187-7dd8a84f6392"},"vehicle_type_id":"4","last_reported":1762938749,"current_range_meters":18000,"station_id":"ce4bh512rcd13ifvqe2g","pricing_plan_id":"cebpf4jnsgd1na2vs0mg"},{"bike_id":"bde68cd8-1b25-4aa4-afd9-6cc910e106d2","system_id":"levelo_inurba_marseille","lat":43.337914,"lon":5.374545,"is_reserved":false,"is_disabled":false,"rental_uris":{"android":"levelo://app?vid=bde68cd8-1b25-4aa4-afd9-6cc910e106d2","ios":"levelo://app?vid=bde68cd8-1b25-4aa4-afd9-6cc910e106d2"},"vehicle_type_id":"4","last_reported":1762938749,"current_range_meters":18800,"station_id":"","pricing_plan_id":"cebpf4jnsgd1na2vs0mg"},{"bike_id":"65b1edbb-69d9-4a3f-98b4-42adca6515c2","system_id":"levelo_inurba_marseille","lat":43.30282,"lon":5.37694,"is_reserved":false,"is_disabled":false,"rental_uris":{"android":"levelo://app?vid=65b1edbb-69d9-4a3f-98b4-42adca6515c2","ios":"levelo://app?vid=65b1edbb-69d9-4a3f-98b4-42adca6515c2"},"vehicle_type_id":"4","last_reported":1762938749,"current_range_meters":18800,"station_id":"ce4bguh2rcd13ifvqcj0","pricing_plan_id":"cebpf4jnsgd1na2vs0mg"},{"bike_id":"ecd5fdff-c61d-4471-91f2-75ee78172966","system_id":"levelo_inurba_marseille","lat":43.28536,"lon":5.44095,"is_reserved":false,"is_disabled":false,"rental_uris":{"android":"levelo://app?vid=ecd5fdff-c61d-4471-91f2-75ee78172966","ios":"levelo://app?vid=ecd5fdff-c61d-4471-91f2-75ee78172966"},"vehicle_type_id":"4","last_reported":1762938749,"current_range_meters":18800,"station_id":"st_d3j3df2ikq2c7380ej80","pricing_plan_id":"cebpf4jnsgd1na2vs0mg"},{"bike_id":"ac7f558e-4423-4d13-ae02-00afc55d464e","system_id":"levelo_inurba_marseille","lat":43.30467,"lon":5.37916,"is_reserved":false,"is_disabled":false,"rental_uris":{"android":"levelo://app?vid=ac7f558e-4423-4d13-ae02-00afc55d464e","ios":"levelo://app?vid=ac7f558e-4423-4d13-ae02-00afc55d464e"},"vehicle_type_id":"4","last_reported":1762938749,"current_range_meters":18800,"station_id":"ce4bgup2rcd13ifvqcn0","pricing_plan_id":"cebpf4jnsgd1na2vs0mg"},{"bike_id":"9f257429-210e-4187-b310-fa3b4c5c3978","system_id":"levelo_inurba_marseille","lat":43.27345,"lon":5.40143,"is_reserved":false,"is_disabled":false,"rental_uris":{"android":"levelo://app?vid=9f257429-210e-4187-b310-fa3b4c5c3978","ios":"levelo://app?vid=9f257429-210e-4187-b310-fa3b4c5c3978"},"vehicle_type_id":"4","last_reported":1762938749,"current_range_meters":18800,"station_id":"","pricing_plan_id":"cebpf4jnsgd1na2vs0mg"},{"bike_id":"1271c064-2a84-41e1-89fc-16b37b786535","system_id":"levelo_inurba_marseille","lat":43.26793,"lon":5.39414,"is_reserved":false,"is_disabled":false,"rental_uris":{"android":"levelo://app?vid=1271c064-2a84-41e1-89fc-16b37b786535","ios":"levelo://app?vid=1271c064-2a84-41e1-89fc-16b37b786535"},"vehicle_type_id":"4","last_reported":1762938749,"current_range_meters":18800,"station_id":"ce4bhh12rcd13ifvqfg0","pricing_plan_id":"cebpf4jnsgd1na2vs0mg"},{"bike_id":"df6d2f12-cb34-4998-8556-4a4312194177","system_id":"levelo_inurba_marseille","lat":43.295703,"lon":5.375216,"is_reserved":false,"is_disabled":false,"rental_uris":{"android":"levelo://app?vid=df6d2f12-cb34-4998-8556-4a4312194177","ios":"levelo://app?vid=df6d2f12-cb34-4998-8556-4a4312194177"},"vehicle_type_id":"4","last_reported":1762938749,"current_range_meters":18800,"station_id":"ce4bgh92rcd13ifvqb50","pricing_plan_id":"cebpf4jnsgd1na2vs0mg"},{"bike_id":"8f607d28-3f59-4580-a8fc-3577177396e3","system_id":"levelo_inurba_marseille","lat":43.30463,"lon":5.37898,"is_reserved":false,"is_disabled":false,"rental_uris":{"android":"levelo://app?vid=8f607d28-3f59-4580-a8fc-3577177396e3","ios":"levelo://app?vid=8f607d28-3f59-4580-a8fc-3577177396e3"},"vehicle_type_id":"4","last_reported":1762938749,"current_range_meters":18800,"station_id":"ce4bgup2rcd13ifvqcn0","pricing_plan_id":"cebpf4jnsgd1na2vs0mg"},{"bike_id":"4f27c235-11df-4df2-bfdf-8938c3d9c6ba","system_id":"levelo_inurba_marseille","lat":43.33779,"lon":5.37411,"is_reserved":false,"is_disabled":false,"rental_uris":{"android":"levelo://app?vid=4f27c235-11df-4df2-bfdf-8938c3d9c6ba","ios":"levelo://app?vid=4f27c235-11df-4df2-bfdf-8938c3d9c6ba"},"vehicle_type_id":"4","last_reported":1762938749,"current_range_meters":18800,"station_id":"","pricing_plan_id":"cebpf4jnsgd1na2vs0mg"},{"bike_id":"b568d2c3-d20b-47ec-9444-65b9d0adcc4c","system_id":"levelo_inurba_marseille","lat":43.312583,"lon":5.368508,"is_reserved":false,"is_disabled":false,"rental_uris":{"android":"levelo://app?vid=b568d2c3-d20b-47ec-9444-65b9d0adcc4c","ios":"levelo://app?vid=b568d2c3-d20b-47ec-9444-65b9d0adcc4c"},"vehicle_type_id":"4","last_reported":1762938749,"current_range_meters":19200,"station_id":"ce4bgl92rcd13ifvqbq0","pricing_plan_id":"cebpf4jnsgd1na2vs0mg"},{"bike_id":"e2a7d982-d002-4482-859a-1dcfe7b5c54a","system_id":"levelo_inurba_marseille","lat":43.27933,"lon":5.41022,"is_reserved":false,"is_disabled":false,"rental_uris":{"android":"levelo://app?vid=e2a7d982-d002-4482-859a-1dcfe7b5c54a","ios":"levelo://app?vid=e2a7d982-d002-4482-859a-1dcfe7b5c54a"},"vehicle_type_id":"4","last_reported":1762938749,"current_range_meters":19200,"station_id":"ce4bhnp2rcd13ifvqh0g","pricing_plan_id":"cebpf4jnsgd1na2vs0mg"},{"bike_id":"827197a3-b6ba-4b39-bae6-85b31f58a7b7","system_id":"levelo_inurba_marseille","lat":43.278752,"lon":5.380802,"is_reserved":false,"is_disabled":false,"rental_uris":{"android":"levelo://app?vid=827197a3-b6ba-4b39-bae6-85b31f58a7b7","ios":"levelo://app?vid=827197a3-b6ba-4b39-bae6-85b31f58a7b7"},"vehicle_type_id":"4","last_reported":1762938749,"current_range_meters":19200,"station_id":"ce4bhf92rcd13ifvqf50","pricing_plan_id":"cebpf4jnsgd1na2vs0mg"},{"bike_id":"54e79b48-7523-415b-9bd7-293c690c29f1","system_id":"levelo_inurba_marseille","lat":43.29782,"lon":5.391607,"is_reserved":false,"is_disabled":false,"rental_uris":{"android":"levelo://app?vid=54e79b48-7523-415b-9bd7-293c690c29f1","ios":"levelo://app?vid=54e79b48-7523-415b-9bd7-293c690c29f1"},"vehicle_type_id":"4","last_reported":1762938749,"current_range_meters":19200,"station_id":"","pricing_plan_id":"cebpf4jnsgd1na2vs0mg"},{"bike_id":"5e31c7d8-3f5b-43e0-9a64-04fd6cacf51c","system_id":"levelo_inurba_marseille","lat":43.30929,"lon":5.36847,"is_reserved":false,"is_disabled":false,"rental_uris":{"android":"levelo://app?vid=5e31c7d8-3f5b-43e0-9a64-04fd6cacf51c","ios":"levelo://app?vid=5e31c7d8-3f5b-43e0-9a64-04fd6cacf51c"},"vehicle_type_id":"4","last_reported":1762938749,"current_range_meters":19200,"station_id":"ce4bgn92rcd13ifvqbvg","pricing_plan_id":"cebpf4jnsgd1na2vs0mg"},{"bike_id":"6f6f6233-42d9-426e-b3a9-45154942dc5d","system_id":"levelo_inurba_marseille","lat":43.27954,"lon":5.41056,"is_reserved":false,"is_disabled":false,"rental_uris":{"android":"levelo://app?vid=6f6f6233-42d9-426e-b3a9-45154942dc5d","ios":"levelo://app?vid=6f6f6233-42d9-426e-b3a9-45154942dc5d"},"vehicle_type_id":"4","last_reported":1762938749,"current_range_meters":19200,"station_id":"ce4bhnp2rcd13ifvqh0g","pricing_plan_id":"cebpf4jnsgd1na2vs0mg"},{"bike_id":"48812cf1-d406-4ddc-ac37-09889e751308","system_id":"levelo_inurba_marseille","lat":43.32118,"lon":5.36768,"is_reserved":false,"is_disabled":true,"rental_uris":{"android":"levelo://app?vid=48812cf1-d406-4ddc-ac37-09889e751308","ios":"levelo://app?vid=48812cf1-d406-4ddc-ac37-09889e751308"},"vehicle_type_id":"4","last_reported":1762938749,"current_range_meters":19200,"station_id":"ce4bhrh2rcd13ifvqhug","pricing_plan_id":"cebpf4jnsgd1na2vs0mg"},{"bike_id":"0f99abd3-ec1b-4bcf-b0f7-a308683f76ef","system_id":"levelo_inurba_marseille","lat":43.31339,"lon":5.36719,"is_reserved":false,"is_disabled":false,"rental_uris":{"android":"levelo://app?vid=0f99abd3-ec1b-4bcf-b0f7-a308683f76ef","ios":"levelo://app?vid=0f99abd3-ec1b-4bcf-b0f7-a308683f76ef"},"vehicle_type_id":"4","last_reported":1762938749,"current_range_meters":19200,"station_id":"ce4bgr92rcd13ifvqc6g","pricing_plan_id":"cebpf4jnsgd1na2vs0mg"},{"bike_id":"21305870-e2f8-4c1e-9524-0c8018904895","system_id":"levelo_inurba_marseille","lat":43.29923,"lon":5.37476,"is_reserved":false,"is_disabled":false,"rental_uris":{"android":"levelo://app?vid=21305870-e2f8-4c1e-9524-0c8018904895","ios":"levelo://app?vid=21305870-e2f8-4c1e-9524-0c8018904895"},"vehicle_type_id":"4","last_reported":1762938749,"current_range_meters":19600,"station_id":"ce4bgjh2rcd13ifvqbg0","pricing_plan_id":"cebpf4jnsgd1na2vs0mg"},{"bike_id":"f1063020-513c-4527-b31f-d84736922945","system_id":"levelo_inurba_marseille","lat":43.26942,"lon":5.38915,"is_reserved":false,"is_disabled":false,"rental_uris":{"android":"levelo://app?vid=f1063020-513c-4527-b31f-d84736922945","ios":"levelo://app?vid=f1063020-513c-4527-b31f-d84736922945"},"vehicle_type_id":"4","last_reported":1762938749,"current_range_meters":19600,"station_id":"ce4bhhh2rcd13ifvqfl0","pricing_plan_id":"cebpf4jnsgd1na2vs0mg"},{"bike_id":"ad99e234-4924-41cc-90e4-a01ab4f7df62","system_id":"levelo_inurba_marseille","lat":43.26682,"lon":5.38258,"is_reserved":false,"is_disabled":false,"rental_uris":{"android":"levelo://app?vid=ad99e234-4924-41cc-90e4-a01ab4f7df62","ios":"levelo://app?vid=ad99e234-4924-41cc-90e4-a01ab4f7df62"},"vehicle_type_id":"4","last_reported":1762938749,"current_range_meters":19600,"station_id":"ce4bhg92rcd13ifvqf90","pricing_plan_id":"cebpf4jnsgd1na2vs0mg"},{"bike_id":"96d9d085-8726-4f81-a602-a6cb493e0e2d","system_id":"levelo_inurba_marseille","lat":43.31496,"lon":5.37308,"is_reserved":false,"is_disabled":false,"rental_uris":{"android":"levelo://app?vid=96d9d085-8726-4f81-a602-a6cb493e0e2d","ios":"levelo://app?vid=96d9d085-8726-4f81-a602-a6cb493e0e2d"},"vehicle_type_id":"4","last_reported":1762938749,"current_range_meters":19600,"station_id":"ce4bgt12rcd13ifvqcd0","pricing_plan_id":"cebpf4jnsgd1na2vs0mg"},{"bike_id":"f1e4b45f-85ad-4341-a9a5-be7394547269","system_id":"levelo_inurba_marseille","lat":43.29583,"lon":5.37518,"is_reserved":false,"is_disabled":false,"rental_uris":{"android":"levelo://app?vid=f1e4b45f-85ad-4341-a9a5-be7394547269","ios":"levelo://app?vid=f1e4b45f-85ad-4341-a9a5-be7394547269"},"vehicle_type_id":"4","last_reported":1762938749,"current_range_meters":19600,"station_id":"ce4bgh92rcd13ifvqb50","pricing_plan_id":"cebpf4jnsgd1na2vs0mg"},{"bike_id":"d9b929a8-bb96-4b6b-994c-4d498c386e23","system_id":"levelo_inurba_marseille","lat":43.25945,"lon":5.40898,"is_reserved":false,"is_disabled":false,"rental_uris":{"android":"levelo://app?vid=d9b929a8-bb96-4b6b-994c-4d498c386e23","ios":"levelo://app?vid=d9b929a8-bb96-4b6b-994c-4d498c386e23"},"vehicle_type_id":"4","last_reported":1762938749,"current_range_meters":19600,"station_id":"ce4bhm92rcd13ifvqglg","pricing_plan_id":"cebpf4jnsgd1na2vs0mg"},{"bike_id":"3f3db3e0-8786-462c-9790-1156703a5fd2","system_id":"levelo_inurba_marseille","lat":43.22928,"lon":5.35377,"is_reserved":false,"is_disabled":false,"rental_uris":{"android":"levelo://app?vid=3f3db3e0-8786-462c-9790-1156703a5fd2","ios":"levelo://app?vid=3f3db3e0-8786-462c-9790-1156703a5fd2"},"vehicle_type_id":"4","last_reported":1762938749,"current_range_meters":19600,"station_id":"cpo3532slgdg3j2ikp40","pricing_plan_id":"cebpf4jnsgd1na2vs0mg"},{"bike_id":"17b45ae9-b21d-4123-b2bb-a8045e355843","system_id":"levelo_inurba_marseille","lat":43.24072,"lon":5.37757,"is_reserved":false,"is_disabled":false,"rental_uris":{"android":"levelo://app?vid=17b45ae9-b21d-4123-b2bb-a8045e355843","ios":"levelo://app?vid=17b45ae9-b21d-4123-b2bb-a8045e355843"},"vehicle_type_id":"4","last_reported":1762938749,"current_range_meters":19600,"station_id":"ce4bhnp2rcd13ifvqgvg","pricing_plan_id":"cebpf4jnsgd1na2vs0mg"},{"bike_id":"69ec7ace-1e29-4a66-a75f-1aac65485193","system_id":"levelo_inurba_marseille","lat":43.27822,"lon":5.40711,"is_reserved":false,"is_disabled":false,"rental_uris":{"android":"levelo://app?vid=69ec7ace-1e29-4a66-a75f-1aac65485193","ios":"levelo://app?vid=69ec7ace-1e29-4a66-a75f-1aac65485193"},"vehicle_type_id":"4","last_reported":1762938749,"current_range_meters":19600,"station_id":"ce4bhnh2rcd13ifvqgtg","pricing_plan_id":"cebpf4jnsgd1na2vs0mg"},{"bike_id":"c0b28a6a-82ba-4d7d-ba38-7dc318893d5d","system_id":"levelo_inurba_marseille","lat":43.289385,"lon":5.39627,"is_reserved":false,"is_disabled":false,"rental_uris":{"android":"levelo://app?vid=c0b28a6a-82ba-4d7d-ba38-7dc318893d5d","ios":"levelo://app?vid=c0b28a6a-82ba-4d7d-ba38-7dc318893d5d"},"vehicle_type_id":"4","last_reported":1762938749,"current_range_meters":20000,"station_id":"ce4bh3h2rcd13ifvqdn0","pricing_plan_id":"cebpf4jnsgd1na2vs0mg"},{"bike_id":"25b0df15-e144-4237-b21e-374adb00983f","system_id":"levelo_inurba_marseille","lat":43.29172,"lon":5.37177,"is_reserved":false,"is_disabled":false,"rental_uris":{"android":"levelo://app?vid=25b0df15-e144-4237-b21e-374adb00983f","ios":"levelo://app?vid=25b0df15-e144-4237-b21e-374adb00983f"},"vehicle_type_id":"4","last_reported":1762938749,"current_range_meters":20000,"station_id":"ce4bha92rcd13ifvqeh0","pricing_plan_id":"cebpf4jnsgd1na2vs0mg"},