{"last_updated":1734685755,"ttl":60,"version":"2.2","data":{"bikes":[{"bike_id":"4466a8e4-fad0-463d-a315-26b3a58bf51a","system_id":"levelo_inurba_marseille","lat":43.28006,"lon":5.38712,"is_reserved":false,"is_disabled":false,"rental_uris":{"android":"levelo://app?vid=4466a8e4-fad0-463d-a315-26b3a58bf51a","ios":"levelo://app?vid=4466a8e4-fad0-463d-a315-26b3a58bf51a"},"vehicle_type_id":"4","last_reported":1734685755,"current_range_meters":33200,"station_id":"ce4bgi92rcd13ifvqb90","pricing_plan_id":"cebpf4jnsgd1na2vs0mg"},{"bike_id":"cc6db7e5-d594-4a81-a95e-afbab3f0dce6","system_id":"levelo_inurba_marseille","lat":43.30951,"lon":5.39045,"is_reserved":false,"is_disabled":false,"rental_uris":{"android":"levelo://app?vid=cc6db7e5-d594-4a81-a95e-afbab3f0dce6","ios":"levelo://app?vid=cc6db7e5-d594-4a81-a95e-afbab3f0dce6"},"vehicle_type_id":"4","last_reported":1734685755,"current_range_meters":33200,"station_id":"ce4bgup2rcd13ifvqco0","pricing_plan_id":"cebpf4jnsgd1na2vs0mg"},{"bike_id":"eb156c91-5c91-4664-a66b-8fb17c1b7811","system_id":"levelo_inurba_marseille","lat":43.28446,"lon":5.39176,"is_reserved":false,"is_disabled":false,"rental_uris":{"android":"levelo://app?vid=eb156c91-5c91-4664-a66b-8fb17c1b7811","ios":"levelo://app?vid=eb156c91-5c91-4664-a66b-8fb17c1b7811"},"vehicle_type_id":"4","last_reported":1734685755,"current_range_meters":38000,"station_id":"ce4bhoh2rcd13ifvqh5g","pricing_plan_id":"cebpf4jnsgd1na2vs0mg"},{"bike_id":"99f016e9-a5ce-4c2a-be1e-06ef53769879","system_id":"levelo_inurba_marseille","lat":43.31073,"lon":5.38357,"is_reserved":false,"is_disabled":false,"rental_uris":{"android":"levelo://app?vid=99f016e9-a5ce-4c2a-be1e-06ef53769879","ios":"levelo://app?vid=99f016e9-a5ce-4c2a-be1e-06ef53769879"},"vehicle_type_id":"4","last_reported":1734685755,"current_range_meters":32800,"station_id":"ce4bgv92rcd13ifvqcr0","pricing_plan_id":"cebpf4jnsgd1na2vs0mg"},{"bike_id":"f41ab9ad-3783-4b31-b71a-bfbe1764cea9","system_id":"levelo_inurba_marseille","lat":43.26192,"lon":5.37449,"is_reserved":false,"is_disabled":false,"rental_uris":{"android":"levelo://app?vid=f41ab9ad-3783-4b31-b71a-bfbe1764cea9","ios":"levelo://app?vid=f41ab9ad-3783-4b31-b71a-bfbe1764cea9"},"vehicle_type_id":"4","last_reported":1734685755,"current_range_meters":32800,"station_id":"ce4bhgp2rcd13ifvqfc0","pricing_plan_id":"cebpf4jnsgd1na2vs0mg"},{"bike_id":"0b3c962c-40d1-4375-b60d-644d72aaacf1","system_id":"levelo_inurba_marseille","lat":43.28012,"lon":5.40401,"is_reserved":false,"is_disabled":true,"rental_uris":{"android":"levelo://app?vid=0b3c962c-40d1-4375-b60d-644d72aaacf1","ios":"levelo://app?vid=0b3c962c-40d1-4375-b60d-644d72aaacf1"},"vehicle_type_id":"4","last_reported":1734685755,"current_range_meters":0,"station_id":"","pricing_plan_id":"cebpf4jnsgd1na2vs0mg"},{"bike_id":"7bc197f0-476d-4088-9f53-24c84a862041","system_id":"levelo_inurba_marseille","lat":43.28473,"lon":5.38414,"is_reserved":false,"is_disabled":false,"rental_uris":{"android":"levelo://app?vid=7bc197f0-476d-4088-9f53-24c84a862041","ios":"levelo://app?vid=7bc197f0-476d-4088-9f53-24c84a862041"},"vehicle_type_id":"4","last_reported":1734685755,"current_range_meters":31200,"station_id":"ce4bh512rcd13ifvqe3g","pricing_plan_id":"cebpf4jnsgd1na2vs0mg"},{"bike_id":"c5b80322-ab04-49bd-a2c6-ab8bceab3a4c","system_id":"levelo_inurba_marseille","lat":43.27071,"lon":5.40242,"is_reserved":false,"is_disabled":true,"rental_uris":{"android":"levelo://app?vid=c5b80322-ab04-49bd-a2c6-ab8bceab3a4c","ios":"levelo://app?vid=c5b80322-ab04-49bd-a2c6-ab8bceab3a4c"},"vehicle_type_id":"4","last_reported":1734685755,"current_range_meters":800,"station_id":"ce4bhk92rcd13ifvqgc0","pricing_plan_id":"cebpf4jnsgd1na2vs0mg"},{"bike_id":"6dbd45f5-882d-4325-9c7e-f0f72386c6da","system_id":"levelo_inurba_marseille","lat":43.23866,"lon":5.37399,"is_reserved":false,"is_disabled":true,"rental_uris":{"android":"levelo://app?vid=6dbd45f5-882d-4325-9c7e-f0f72386c6da","ios":"levelo://app?vid=6dbd45f5-882d-4325-9c7e-f0f72386c6da"},"vehicle_type_id":"4","last_reported":1734685755,"current_range_meters":6000,"station_id":"","pricing_plan_id":"cebpf4jnsgd1na2vs0mg"},{"bike_id":"4e47f4b2-5b15-4b8d-b9da-b74e9f638307","system_id":"levelo_inurba_marseille","lat":43.29618,"lon":5.37197,"is_reserved":false,"is_disabled":false,"rental_uris":{"android":"levelo://app?vid=4e47f4b2-5b15-4b8d-b9da-b74e9f638307","ios":"levelo://app?vid=4e47f4b2-5b15-4b8d-b9da-b74e9f638307"},"vehicle_type_id":"4","last_reported":1734685755,"current_range_meters":39200,"station_id":"ce4bgnh2rcd13ifvqc0g","pricing_plan_id":"cebpf4jnsgd1na2vs0mg"},{"bike_id":"18351140-c976-4180-900b-91efb9e29d8f","system_id":"levelo_inurba_marseille","lat":43.29801,"lon":5.38081,"is_reserved":false,"is_disabled":false,"rental_uris":{"android":"levelo://app?vid=18351140-c976-4180-900b-91efb9e29d8f","ios":"levelo://app?vid=18351140-c976-4180-900b-91efb9e29d8f"},"vehicle_type_id":"4","last_reported":1734685755,"current_range_meters":7200,"station_id":"ce4bgip2rcd13ifvqbb0","pricing_plan_id":"cebpf4jnsgd1na2vs0mg"},{"bike_id":"036a2f47-113e-4d0a-a617-f070b0f6ab60","system_id":"levelo_inurba_marseille","lat":43.29038,"lon":5.39953,"is_reserved":false,"is_disabled":false,"rental_uris":{"android":"levelo://app?vid=036a2f47-113e-4d0a-a617-f070b0f6ab60","ios":"levelo://app?vid=036a2f47-113e-4d0a-a617-f070b0f6ab60"},"vehicle_type_id":"4","last_reported":1734685755,"current_range_meters":37600,"station_id":"ce4bh392rcd13ifvqdm0","pricing_plan_id":"cebpf4jnsgd1na2vs0mg"},{"bike_id":"50e116f6-e879-4650-b92c-b4252d76d219","system_id":"levelo_inurba_marseille","lat":43.29039,"lon":5.39958,"is_reserved":false,"is_disabled":false,"rental_uris":{"android":"levelo://app?vid=50e116f6-e879-4650-b92c-b4252d76d219","ios":"levelo://app?vid=50e116f6-e879-4650-b92c-b4252d76d219"},"vehicle_type_id":"4","last_reported":1734685755,"current_range_meters":31200,"station_id":"ce4bh392rcd13ifvqdm0","pricing_plan_id":"cebpf4jnsgd1na2vs0mg"},{"bike_id":"93cd12d2-ee52-454b-a1c6-a2a94b1185da","system_id":"levelo_inurba_marseille","lat":43.24775,"lon":5.3745,"is_reserved":false,"is_disabled":false,"rental_uris":{"android":"levelo://app?vid=93cd12d2-ee52-454b-a1c6-a2a94b1185da","ios":"levelo://app?vid=93cd12d2-ee52-454b-a1c6-a2a94b1185da"},"vehicle_type_id":"4","last_reported":1734685755,"current_range_meters":38800,"station_id":"ce4bhgh2rcd13ifvqfb0","pricing_plan_id":"cebpf4jnsgd1na2vs0mg"},{"bike_id":"02bf8158-426b-4335-9b97-c473816a1fd2","system_id":"levelo_inurba_marseille","lat":43.25825,"lon":5.3943,"is_reserved":false,"is_disabled":false,"rental_uris":{"android":"levelo://app?vid=02bf8158-426b-4335-9b97-c473816a1fd2","ios":"levelo://app?vid=02bf8158-426b-4335-9b97-c473816a1fd2"},"vehicle_type_id":"4","last_reported":1734685755,"current_range_meters":39200,"station_id":"ce4bhip2rcd13ifvqft0","pricing_plan_id":"cebpf4jnsgd1na2vs0mg"},{"bike_id":"ab65f1c0-7193-4184-8942-84c7e834db80","system_id":"levelo_inurba_marseille","lat":43.30904,"lon":5.3684,"is_reserved":false,"is_disabled":false,"rental_uris":{"android":"levelo://app?vid=ab65f1c0-7193-4184-8942-84c7e834db80","ios":"levelo://app?vid=ab65f1c0-7193-4184-8942-84c7e834db80"},"vehicle_type_id":"4","last_reported":1734685755,"current_range_meters":38000,"station_id":"ce4bgn92rcd13ifvqbvg","pricing_plan_id":"cebpf4jnsgd1na2vs0mg"},{"bike_id":"c7f24469-1136-4e21-b84a-0a12ce3b4eea","system_id":"levelo_inurba_marseille","lat":43.31698,"lon":5.40465,"is_reserved":false,"is_disabled":false,"rental_uris":{"android":"levelo://app?vid=c7f24469-1136-4e21-b84a-0a12ce3b4eea","ios":"levelo://app?vid=c7f24469-1136-4e21-b84a-0a12ce3b4eea"},"vehicle_type_id":"4","last_reported":1734685755,"current_range_meters":4000,"station_id":"ce4bh012rcd13ifvqd00","pricing_plan_id":"cebpf4jnsgd1na2vs0mg"},{"bike_id":"7d4a739f-19ea-469b-9f77-3c08c4c38ac4","system_id":"levelo_inurba_marseille","lat":43.30471,"lon":5.379,"is_reserved":false,"is_disabled":false,"rental_uris":{"android":"levelo://app?vid=7d4a739f-19ea-469b-9f77-3c08c4c38ac4","ios":"levelo://app?vid=7d4a739f-19ea-469b-9f77-3c08c4c38ac4"},"vehicle_type_id":"4","last_reported":1734685755,"current_range_meters":37600,"station_id":"ce4bgup2rcd13ifvqcn0","pricing_plan_id":"cebpf4jnsgd1na2vs0mg"},{"bike_id":"3091d709-3c11-43a1-a95d-31c0908ceed1","system_id":"levelo_inurba_marseille","lat":43.29272,"lon":5.36839,"is_reserved":false,"is_disabled":false,"rental_uris":{"android":"levelo://app?vid=3091d709-3c11-43a1-a95d-31c0908ceed1","ios":"levelo://app?vid=3091d709-3c11-43a1-a95d-31c0908ceed1"},"vehicle_type_id":"4","last_reported":1734685755,"current_range_meters":27600,"station_id":"ce4bhbp2rcd13ifvqesg","pricing_plan_id":"cebpf4jnsgd1na2vs0mg"},{"bike_id":"f2fca4b0-6d09-4b8b-ac93-ff1931bdad1c","system_id":"levelo_inurba_marseille","lat":43.27943,"lon":5.41032,"is_reserved":false,"is_disabled":false,"rental_uris":{"android":"levelo://app?vid=f2fca4b0-6d09-4b8b-ac93-ff1931bdad1c","ios":"levelo://app?vid=f2fca4b0-6d09-4b8b-ac93-ff1931bdad1c"},"vehicle_type_id":"4","last_reported":1734685755,"current_range_meters":27600,"station_id":"ce4bhnp2rcd13ifvqh0g","pricing_plan_id":"cebpf4jnsgd1na2vs0mg"},{"bike_id":"682a56ef-1890-4a90-b88f-1bca39eaeacf","system_id":"levelo_inurba_marseille","lat":43.29042,"lon":5.39947,"is_reserved":false,"is_disabled":false,"rental_uris":{"android":"levelo://app?vid=682a56ef-1890-4a90-b88f-1bca39eaeacf","ios":"levelo://app?vid=682a56ef-1890-4a90-b88f-1bca39eaeacf"},"vehicle_type_id":"4","last_reported":1734685755,"current_range_meters":36000,"station_id":"ce4bh392rcd13ifvqdm0","pricing_plan_id":"cebpf4jnsgd1na2vs0mg"},{"bike_id":"e54c3fa3-f9e8-43fa-97ab-12f5b2a3bfae","system_id":"levelo_inurba_marseille","lat":43.278384,"lon":5.392034,"is_reserved":false,"is_disabled":true,"rental_uris":{"android":"levelo://app?vid=e54c3fa3-f9e8-43fa-97ab-12f5b2a3bfae","ios":"levelo://app?vid=e54c3fa3-f9e8-43fa-97ab-12f5b2a3bfae"},"vehicle_type_id":"4","last_reported":1734685755,"current_range_meters":27200,"station_id":"ce4bhjp2rcd13ifvqga0","pricing_plan_id":"cebpf4jnsgd1na2vs0mg"},{"bike_id":"85f27a5d-9af7-4b09-a20c-f802a8f11d6d","system_id":"levelo_inurba_marseille","lat":43.3266,"lon":5.40987,"is_reserved":false,"is_disabled":false,"rental_uris":{"android":"levelo://app?vid=85f27a5d-9af7-4b09-a20c-f802a8f11d6d","ios":"levelo://app?vid=85f27a5d-9af7-4b09-a20c-f802a8f11d6d"},"vehicle_type_id":"4","last_reported":1734685755,"current_range_meters":11200,"station_id":"ce4bhpp2rcd13ifvqhgg","pricing_plan_id":"cebpf4jnsgd1na2vs0mg"},{"bike_id":"d34bdf4f-71bc-4ae4-b273-f3852ddc692a","system_id":"levelo_inurba_marseille","lat":43.33756,"lon":5.37472,"is_reserved":false,"is_disabled":false,"rental_uris":{"android":"levelo://app?vid=d34bdf4f-71bc-4ae4-b273-f3852ddc692a","ios":"levelo://app?vid=d34bdf4f-71bc-4ae4-b273-f3852ddc692a"},"vehicle_type_id":"4","last_reported":1734685755,"current_range_meters":33600,"station_id":"","pricing_plan_id":"cebpf4jnsgd1na2vs0mg"},{"bike_id":"7a83134b-bcb4-4757-b7d5-fd4dbc03250e","system_id":"levelo_inurba_marseille","lat":43.28718,"lon":5.37936,"is_reserved":false,"is_disabled":false,"rental_uris":{"android":"levelo://app?vid=7a83134b-bcb4-4757-b7d5-fd4dbc03250e","ios":"levelo://app?vid=7a83134b-bcb4-4757-b7d5-fd4dbc03250e"},"vehicle_type_id":"4","last_reported":1734685755,"current_range_meters":27200,"station_id":"ce4bh9p2rcd13ifvqec0","pricing_plan_id":"cebpf4jnsgd1na2vs0mg"},{"bike_id":"f2fc6ae9-04e4-49f4-aaff-ea1873a715aa","system_id":"levelo_inurba_marseille","lat":43.28936,"lon":5.39618,"is_reserved":false,"is_disabled":false,"rental_uris":{"android":"levelo://app?vid=f2fc6ae9-04e4-49f4-aaff-ea1873a715aa","ios":"levelo://app?vid=f2fc6ae9-04e4-49f4-aaff-ea1873a715aa"},"vehicle_type_id":"4","last_reported":1734685755,"current_range_meters":36800,"station_id":"ce4bh3h2rcd13ifvqdn0","pricing_plan_id":"cebpf4jnsgd1na2vs0mg"},{"bike_id":"c7a472ed-6dc3-4cde-83b8-4deb8af0b49b","system_id":"levelo_inurba_marseille","lat":43.24382,"lon":5.37066,"is_reserved":false,"is_disabled":false,"rental_uris":{"android":"levelo://app?vid=c7a472ed-6dc3-4cde-83b8-4deb8af0b49b","ios":"levelo://app?vid=c7a472ed-6dc3-4cde-83b8-4deb8af0b49b"},"vehicle_type_id":"4","last_reported":1734685755,"current_range_meters":22800,"station_id":"ce4bhhh2rcd13ifvqfk0","pricing_plan_id":"cebpf4jnsgd1na2vs0mg"},{"bike_id":"7d865d14-375d-4fed-a137-c22ff266a03a","system_id":"levelo_inurba_marseille","lat":43.29249,"lon":5.40906,"is_reserved":false,"is_disabled":false,"rental_uris":{"android":"levelo://app?vid=7d865d14-375d-4fed-a137-c22ff266a03a","ios":"levelo://app?vid=7d865d14-375d-4fed-a137-c22ff266a03a"},"vehicle_type_id":"4","last_reported":1734685755,"current_range_meters":38800,"station_id":"ce4bh192rcd13ifvqdc0","pricing_plan_id":"cebpf4jnsgd1na2vs0mg"},{"bike_id":"af375b95-98ed-4d0c-a1db-a5220a0cbfa9","system_id":"levelo_inurba_marseille","lat":43.31737,"lon":5.40444,"is_reserved":false,"is_disabled":false,"rental_uris":{"android":"levelo://app?vid=af375b95-98ed-4d0c-a1db-a5220a0cbfa9","ios":"levelo://app?vid=af375b95-98ed-4d0c-a1db-a5220a0cbfa9"},"vehicle_type_id":"4","last_reported":1734685755,"current_range_meters":38000,"station_id":"ce4bh012rcd13ifvqd00","pricing_plan_id":"cebpf4jnsgd1na2vs0mg"},{"bike_id":"92713ba2-3c9f-4226-b967-354ffeb7bd50","system_id":"levelo_inurba_marseille","lat":43.30424,"lon":5.39744,"is_reserved":false,"is_disabled":false,"rental_uris":{"android":"levelo://app?vid=92713ba2-3c9f-4226-b967-354ffeb7bd50","ios":"levelo://app?vid=92713ba2-3c9f-4226-b967-354ffeb7bd50"},"vehicle_type_id":"4","last_reported":1734685755,"current_range_meters":38800,"station_id":"ce4bh092rcd13ifvqd20","pricing_plan_id":"cebpf4jnsgd1na2vs0mg"},{"bike_id":"634925c6-e747-41aa-a60b-fef68a98e603","system_id":"levelo_inurba_marseille","lat":43.24071,"lon":5.37753,"is_reserved":false,"is_disabled":false,"rental_uris":{"android":"levelo://app?vid=634925c6-e747-41aa-a60b-fef68a98e603","ios":"levelo://app?vid=634925c6-e747-41aa-a60b-fef68a98e603"},"vehicle_type_id":"4","last_reported":1734685755,"current_range_meters":22800,"station_id":"ce4bhnp2rcd13ifvqgvg","pricing_plan_id":"cebpf4jnsgd1na2vs0mg"},{"bike_id":"dd52cea9-6fe3-460c-a4fc-255f18d6f38c","system_id":"levelo_inurba_marseille","lat":43.25009,"lon":5.38922,"is_reserved":false,"is_disabled":false,"rental_uris":{"android":"levelo://app?vid=dd52cea9-6fe3-460c-a4fc-255f18d6f38c","ios":"levelo://app?vid=dd52cea9-6fe3-460c-a4fc-255f18d6f38c"},"vehicle_type_id":"4","last_reported":1734685755,"current_range_meters":30000,"station_id":"ce4bhgp2rcd13ifvqfd0","pricing_plan_id":"cebpf4jnsgd1na2vs0mg"},{"bike_id":"eb5a3569-ac7b-4413-8888-52853ada2010","system_id":"levelo_inurba_marseille","lat":43.28353,"lon":5.38104,"is_reserved":false,"is_disabled":false,"rental_uris":{"android":"levelo://app?vid=eb5a3569-ac7b-4413-8888-52853ada2010","ios":"levelo://app?vid=eb5a3569-ac7b-4413-8888-52853ada2010"},"vehicle_type_id":"4","last_reported":1734685755,"current_range_meters":39200,"station_id":"ce4bh412rcd13ifvqdr0","pricing_plan_id":"cebpf4jnsgd1na2vs0mg"},{"bike_id":"a3490aca-cd3e-423c-b291-413d54e7a9b6","system_id":"levelo_inurba_marseille","lat":43.29752,"lon":5.37675,"is_reserved":false,"is_disabled":false,"rental_uris":{"android":"levelo://app?vid=a3490aca-cd3e-423c-b291-413d54e7a9b6","ios":"levelo://app?vid=a3490aca-cd3e-423c-b291-413d54e7a9b6"},"vehicle_type_id":"4","last_reported":1734685755,"current_range_meters":37600,"station_id":"","pricing_plan_id":"cebpf4jnsgd1na2vs0mg"},{"bike_id":"48402390-8bf8-4527-8226-790169c2cea8","system_id":"levelo_inurba_marseille","lat":43.24073,"lon":5.37767,"is_reserved":false,"is_disabled":false,"rental_uris":{"android":"levelo://app?vid=48402390-8bf8-4527-8226-790169c2cea8","ios":"levelo://app?vid=48402390-8bf8-4527-8226-790169c2cea8"},"vehicle_type_id":"4","last_reported":1734685755,"current_range_meters":39200,"station_id":"ce4bhnp2rcd13ifvqgvg","pricing_plan_id":"cebpf4jnsgd1na2vs0mg"},{"bike_id":"202732ae-b078-47a3-8d06-070b89946afe","system_id":"levelo_inurba_marseille","lat":43.29028,"lon":5.37559,"is_reserved":false,"is_disabled":false,"rental_uris":{"android":"levelo://app?vid=202732ae-b078-47a3-8d06-070b89946afe","ios":"levelo://app?vid=202732ae-b078-47a3-8d06-070b89946afe"},"vehicle_type_id":"4","last_reported":1734685755,"current_range_meters":38800,"station_id":"ce4bh692rcd13ifvqe90","pricing_plan_id":"cebpf4jnsgd1na2vs0mg"},{"bike_id":"3f35c514-84c7-403c-be41-f914dbb94369","system_id":"levelo_inurba_marseille","lat":43.24641,"lon":5.38896,"is_reserved":false,"is_disabled":false,"rental_uris":{"android":"levelo://app?vid=3f35c514-84c7-403c-be41-f914dbb94369","ios":"levelo://app?vid=3f35c514-84c7-403c-be41-f914dbb94369"},"vehicle_type_id":"4","last_reported":1734685755,"current_range_meters":38800,"station_id":"ce4bhg12rcd13ifvqf60","pricing_plan_id":"cebpf4jnsgd1na2vs0mg"},{"bike_id":"6728802e-c3c6-4f8f-ade5-af96b0024ae1","system_id":"levelo_inurba_marseille","lat":43.257123,"lon":5.410849,"is_reserved":false,"is_disabled":false,"rental_uris":{"android":"levelo://app?vid=6728802e-c3c6-4f8f-ade5-af96b0024ae1","ios":"levelo://app?vid=6728802e-c3c6-4f8f-ade5-af96b0024ae1"},"vehicle_type_id":"4","last_reported":1734685755,"current_range_meters":28800,"station_id":"ce4bhkp2rcd13ifvqgd0","pricing_plan_id":"cebpf4jnsgd1na2vs0mg"},{"bike_id":"f20cd36c-a895-444d-b8aa-a67ddb893a61","system_id":"levelo_inurba_marseille","lat":43.30659,"lon":5.40103,"is_reserved":false,"is_disabled":true,"rental_uris":{"android":"levelo://app?vid=f20cd36c-a895-444d-b8aa-a67ddb893a61","ios":"levelo://app?vid=f20cd36c-a895-444d-b8aa-a67ddb893a61"},"vehicle_type_id":"4","last_reported":1734685755,"current_range_meters":6000,"station_id":"ce4bh112rcd13ifvqda0","pricing_plan_id":"cebpf4jnsgd1na2vs0mg"},{"bike_id":"6d32b82e-979e-4c43-81da-d68e20cc1423","system_id":"levelo_inurba_marseille","lat":43.31721,"lon":5.42395,"is_reserved":false,"is_disabled":false,"rental_uris":{"android":"levelo://app?vid=6d32b82e-979e-4c43-81da-d68e20cc1423","ios":"levelo://app?vid=6d32b82e-979e-4c43-81da-d68e20cc1423"},"vehicle_type_id":"4","last_reported":1734685755,"current_range_meters":28000,"station_id":"ce4bhp92rcd13ifvqhbg","pricing_plan_id":"cebpf4jnsgd1na2vs0mg"},{"bike_id":"45eef7a2-7813-485d-b132-f34196de9793","system_id":"levelo_inurba_marseille","lat":43.28729,"lon":5.3611,"is_reserved":false,"is_disabled":true,"rental_uris":{"android":"levelo://app?vid=45eef7a2-7813-485d-b132-f34196de9793","ios":"levelo://app?vid=45eef7a2-7813-485d-b132-f34196de9793"},"vehicle_type_id":"4","last_reported":1734685755,"current_range_meters":22000,"station_id":"cki0cbj6b192h4jlfktg","pricing_plan_id":"cebpf4jnsgd1na2vs0mg"},{"bike_id":"7d8b4789-db38-4881-a12e-8303c1c118b0","system_id":"levelo_inurba_marseille","lat":43.30533,"lon":5.36676,"is_reserved":false,"is_disabled":false,"rental_uris":{"android":"levelo://app?vid=7d8b4789-db38-4881-a12e-8303c1c118b0","ios":"levelo://app?vid=7d8b4789-db38-4881-a12e-8303c1c118b0"},"vehicle_type_id":"4","last_reported":1734685755,"current_range_meters":38800,"station_id":"ce4bgrp2rcd13ifvqc9g","pricing_plan_id":"cebpf4jnsgd1na2vs0mg"},{"bike_id":"9c2301c0-fdbf-4f5a-81c4-7cc5314cea59","system_id":"levelo_inurba_marseille","lat":43.3414,"lon":5.40905,"is_reserved":false,"is_disabled":false,"rental_uris":{"android":"levelo://app?vid=9c2301c0-fdbf-4f5a-81c4-7cc5314cea59","ios":"levelo://app?vid=9c2301c0-fdbf-4f5a-81c4-7cc5314cea59"},"vehicle_type_id":"4","last_reported":1734685755,"current_range_meters":20000,"station_id":"ce4bhqh2rcd13ifvqhlg","pricing_plan_id":"cebpf4jnsgd1na2vs0mg"},{"bike_id":"c2f562b7-e571-418d-8c7d-e6c36c6f1b41","system_id":"levelo_inurba_marseille","lat":43.28669,"lon":5.36341,"is_reserved":false,"is_disabled":true,"rental_uris":{"android":"levelo://app?vid=c2f562b7-e571-418d-8c7d-e6c36c6f1b41","ios":"levelo://app?vid=c2f562b7-e571-418d-8c7d-e6c36c6f1b41"},"vehicle_type_id":"4","last_reported":1734685755,"current_range_meters":38800,"station_id":"ce4bhah2rcd13ifvqej0","pricing_plan_id":"cebpf4jnsgd1na2vs0mg"},{"bike_id":"fd516522-efeb-4c3a-b168-4e7991d4eb25","system_id":"levelo_inurba_marseille","lat":43.24077,"lon":5.37743,"is_reserved":false,"is_disabled":false,"rental_uris":{"android":"levelo://app?vid=fd516522-efeb-4c3a-b168-4e7991d4eb25","ios":"levelo://app?vid=fd516522-efeb-4c3a-b168-4e7991d4eb25"},"vehicle_type_id":"4","last_reported":1734685755,"current_range_meters":22400,"station_id":"ce4bhnp2rcd13ifvqgvg","pricing_plan_id":"cebpf4jnsgd1na2vs0mg"},{"bike_id":"8535c9fb-8c99-4405-b33c-0d44804b4583","system_id":"levelo_inurba_marseille","lat":43.29899,"lon":5.38164,"is_reserved":false,"is_disabled":false,"rental_uris":{"android":"levelo://app?vid=8535c9fb-8c99-4405-b33c-0d44804b4583","ios":"levelo://app?vid=8535c9fb-8c99-4405-b33c-0d44804b4583"},"vehicle_type_id":"4","last_reported":1734685755,"current_range_meters":39200,"station_id":"ce4bgj12rcd13ifvqbc0","pricing_plan_id":"cebpf4jnsgd1na2vs0mg"},{"bike_id":"33ab6395-1ea8-4014-8aec-23b0d3576df2","system_id":"levelo_inurba_marseille","lat":43.2959,"lon":5.38095,"is_reserved":false,"is_disabled":true,"rental_uris":{"android":"levelo://app?vid=33ab6395-1ea8-4014-8aec-23b0d3576df2","ios":"levelo://app?vid=33ab6395-1ea8-4014-8aec-23b0d3576df2"},"vehicle_type_id":"4","last_reported":1734685755,"current_range_meters":24000,"station_id":"ce4bgl12rcd13ifvqbo0","pricing_plan_id":"cebpf4jnsgd1na2vs0mg"},{"bike_id":"6be06396-7842-46ec-a270-3e8d410abdb0","system_id":"levelo_inurba_marseille","lat":43.3014,"lon":5.37417,"is_reserved":false,"is_disabled":false,"rental_uris":{"android":"levelo://app?vid=6be06396-7842-46ec-a270-3e8d410abdb0","ios":"levelo://app?vid=6be06396-7842-46ec-a270-3e8d410abdb0"},"vehicle_type_id":"4","last_reported":1734685755,"current_range_meters":16400,"station_id":"ce4bgs92rcd13ifvqcc0","pricing_plan_id":"cebpf4jnsgd1na2vs0mg"},{"bike_id":"ccda2df0-8d61-4b85-9971-eb94a209c8aa","system_id":"levelo_inurba_marseille","lat":43.29266,"lon":5.38441,"is_reserved":false,"is_disabled":false,"rental_uris":{"android":"levelo://app?vid=ccda2df0-8d61-4b85-9971-eb94a209c8aa","ios":"levelo://app?vid=ccda2df0-8d61-4b85-9971-eb94a209c8aa"},"vehicle_type_id":"4","last_reported":1734685755,"current_range_meters":33600,"station_id":"ce4bh692rcd13ifvqea0","pricing_plan_id":"cebpf4jnsgd1na2vs0mg"},{"bike_id":"c71bc124-d47a-478e-9081-e5bc77c42648","system_id":"levelo_inurba_marseille","lat":43.30432,"lon":5.39746,"is_reserved":false,"is_disabled":false,"rental_uris":{"android":"levelo://app?vid=c71bc124-d47a-478e-9081-e5bc77c42648","ios":"levelo://app?vid=c71bc124-d47a-478e-9081-e5bc77c42648"},"vehicle_type_id":"4","last_reported":1734685755,"current_range_meters":38000,"station_id":"ce4bh092rcd13ifvqd20","pricing_plan_id":"cebpf4jnsgd1na2vs0mg"},{"bike_id":"fcf45398-bcf0-4769-a6a2-b199034b50fb","system_id":"levelo_inurba_marseille","lat":43.28136,"lon":5.42665,"is_reserved":false,"is_disabled":false,"rental_uris":{"android":"levelo://app?vid=fcf45398-bcf0-4769-a6a2-b199034b50fb","ios":"levelo://app?vid=fcf45398-bcf0-4769-a6a2-b199034b50fb"},"vehicle_type_id":"4","last_reported":1734685755,"current_range_meters":28000,"station_id":"ce4bhnh2rcd13ifvqgug","pricing_plan_id":"cebpf4jnsgd1na2vs0mg"},{"bike_id":"5a13edbc-5401-4b4b-8c54-0c1b8d4458d7","system_id":"levelo_inurba_marseille","lat":43.32539,"lon":5.41415,"is_reserved":false,"is_disabled":false,"rental_uris":{"android":"levelo://app?vid=5a13edbc-5401-4b4b-8c54-0c1b8d4458d7","ios":"levelo://app?vid=5a13edbc-5401-4b4b-8c54-0c1b8d4458d7"},"vehicle_type_id":"4","last_reported":1734685755,"current_range_meters":39200,"station_id":"ce4bhq12rcd13ifvqhhg","pricing_plan_id":"cebpf4jnsgd1na2vs0mg"},{"bike_id":"ec8b85ba-80e7-49fc-944d-ae51fa9164e8","system_id":"levelo_inurba_marseille","lat":43.27058,"lon":5.40258,"is_reserved":false,"is_disabled":false,"rental_uris":{"android":"levelo://app?vid=ec8b85ba-80e7-49fc-944d-ae51fa9164e8","ios":"levelo://app?vid=ec8b85ba-80e7-49fc-944d-ae51fa9164e8"},"vehicle_type_id":"4","last_reported":1734685755,"current_range_meters":38000,"station_id":"ce4bhk92rcd13ifvqgc0","pricing_plan_id":"cebpf4jnsgd1na2vs0mg"},{"bike_id":"c5d3dda4-9397-4823-9c8b-ea8eda2ab949","system_id":"levelo_inurba_marseille","lat":43.23961,"lon":5.36636,"is_reserved":false,"is_disabled":false,"rental_uris":{"android":"levelo://app?vid=c5d3dda4-9397-4823-9c8b-ea8eda2ab949","ios":"levelo://app?vid=c5d3dda4-9397-4823-9c8b-ea8eda2ab949"},"vehicle_type_id":"4","last_reported":1734685755,"current_range_meters":35600,"station_id":"ce4bhi12rcd13ifvqfp0","pricing_plan_id":"cebpf4jnsgd1na2vs0mg"},{"bike_id":"bf06a9eb-8c15-4b16-83ce-1a9bc0374842","system_id":"levelo_inurba_marseille","lat":43.28726,"lon":5.39989,"is_reserved":false,"is_disabled":false,"rental_uris":{"android":"levelo://app?vid=bf06a9eb-8c15-4b16-83ce-1a9bc0374842","ios":"levelo://app?vid=bf06a9eb-8c15-4b16-83ce-1a9bc0374842"},"vehicle_type_id":"4","last_reported":1734685755,"current_range_meters":30400,"station_id":"ce4bho92rcd13ifvqh3g","pricing_plan_id":"cebpf4jnsgd1na2vs0mg"},{"bike_id":"873fe369-0c50-48a9-b4aa-a5854dc957cf","system_id":"levelo_inurba_marseille","lat":43.31497,"lon":5.37294,"is_reserved":false,"is_disabled":false,"rental_uris":{"android":"levelo://app?vid=873fe369-0c50-48a9-b4aa-a5854dc957cf","ios":"levelo://app?vid=873fe369-0c50-48a9-b4aa-a5854dc957cf"},"vehicle_type_id":"4","last_reported":1734685755,"current_range_meters":10000,"station_id":"ce4bgt12rcd13ifvqcd0","pricing_plan_id":"cebpf4jnsgd1na2vs0mg"},{"bike_id":"b11dec3c-37ae-4e5f-a182-7db8571c22d2","system_id":"levelo_inurba_marseille","lat":43.29885,"lon":5.43645,"is_reserved":false,"is_disabled":false,"rental_uris":{"android":"levelo://app?vid=b11dec3c-37ae-4e5f-a182-7db8571c22d2","ios":"levelo://app?vid=b11dec3c-37ae-4e5f-a182-7db8571c22d2"},"vehicle_type_id":"4","last_reported":1734685755,"current_range_meters":33600,"station_id":"ce4bhpp2rcd13ifvqhfg","pricing_plan_id":"cebpf4jnsgd1na2vs0mg"},{"bike_id":"72492ff3-d3e5-4b81-822b-1d3357339451","system_id":"levelo_inurba_marseille","lat":43.29057,"lon":5.39933,"is_reserved":false,"is_disabled":true,"rental_uris":{"android":"levelo://app?vid=72492ff3-d3e5-4b81-822b-1d3357339451","ios":"levelo://app?vid=72492ff3-d3e5-4b81-822b-1d3357339451"},"vehicle_type_id":"4","last_reported":1734685755,"current_range_meters":32400,"station_id":"ce4bh392rcd13ifvqdm0","pricing_plan_id":"cebpf4jnsgd1na2vs0mg"},{"bike_id":"ac35e660-89e6-4739-9d9a-129983f77756","system_id":"levelo_inurba_marseille","lat":43.30741,"lon":5.3681,"is_reserved":false,"is_disabled":false,"rental_uris":{"android":"levelo://app?vid=ac35e660-89e6-4739-9d9a-129983f77756","ios":"levelo://app?vid=ac35e660-89e6-4739-9d9a-129983f77756"},"vehicle_type_id":"4","last_reported":1734685755,"current_range_meters":16000,"station_id":"","pricing_plan_id":"cebpf4jnsgd1na2vs0mg"},{"bike_id":"68cc3280-8c90-422e-b1e6-051d15979724","system_id":"levelo_inurba_marseille","lat":43.23191,"lon":5.39984,"is_reserved":false,"is_disabled":false,"rental_uris":{"android":"levelo://app?vid=68cc3280-8c90-422e-b1e6-051d15979724","ios":"levelo://app?vid=68cc3280-8c90-422e-b1e6-051d15979724"},"vehicle_type_id":"4","last_reported":1734685755,"current_range_meters":18000,"station_id":"ce4bhn12rcd13ifvqgqg","pricing_plan_id":"cebpf4jnsgd1na2vs0mg"},{"bike_id":"2f3ffe14-db03-4fbe-b9e8-6285c689975c","system_id":"levelo_inurba_marseille","lat":43.31313,"lon":5.39696,"is_reserved":false,"is_disabled":true,"rental_uris":{"android":"levelo://app?vid=2f3ffe14-db03-4fbe-b9e8-6285c689975c","ios":"levelo://app?vid=2f3ffe14-db03-4fbe-b9e8-6285c689975c"},"vehicle_type_id":"4","last_reported":1734685755,"current_range_meters":15200,"station_id":"ce4bgvp2rcd13ifvqcu0","pricing_plan_id":"cebpf4jnsgd1na2vs0mg"},{"bike_id":"15764109-8605-4b33-853f-a3ee4feb13d9","system_id":"levelo_inurba_marseille","lat":43.27509,"lon":5.42444,"is_reserved":false,"is_disabled":false,"rental_uris":{"android":"levelo://app?vid=15764109-8605-4b33-853f-a3ee4feb13d9","ios":"levelo://app?vid=15764109-8605-4b33-853f-a3ee4feb13d9"},"vehicle_type_id":"4","last_reported":1734685755,"current_range_meters":35600,"station_id":"ce4bhn92rcd13ifvqgrg","pricing_plan_id":"cebpf4jnsgd1na2vs0mg"},{"bike_id":"829137e0-4e72-4164-b199-ceb19f2bf2f1","system_id":"levelo_inurba_marseille","lat":43.30778,"lon":5.37654,"is_reserved":false,"is_disabled":false,"rental_uris":{"android":"levelo://app?vid=829137e0-4e72-4164-b199-ceb19f2bf2f1","ios":"levelo://app?vid=829137e0-4e72-4164-b199-ceb19f2bf2f1"},"vehicle_type_id":"4","last_reported":1734685755,"current_range_meters":38800,"station_id":"ce4bgv92rcd13ifvqcq0","pricing_plan_id":"cebpf4jnsgd1na2vs0mg"},{"bike_id":"5ceec70c-2f52-4dde-85a6-c924e820245f","system_id":"levelo_inurba_marseille","lat":43.3047,"lon":5.37903,"is_reserved":false,"is_disabled":false,"rental_uris":{"android":"levelo://app?vid=5ceec70c-2f52-4dde-85a6-c924e820245f","ios":"levelo://app?vid=5ceec70c-2f52-4dde-85a6-c924e820245f"},"vehicle_type_id":"4","last_reported":1734685755,"current_range_meters":38800,"station_id":"ce4bgup2rcd13ifvqcn0","pricing_plan_id":"cebpf4jnsgd1na2vs0mg"},{"bike_id":"b3c94148-282c-49ef-bed3-a778d2e917e9","system_id":"levelo_inurba_marseille","lat":43.30156,"lon":5.38081,"is_reserved":false,"is_disabled":false,"rental_uris":{"android":"levelo://app?vid=b3c94148-282c-49ef-bed3-a778d2e917e9","ios":"levelo://app?vid=b3c94148-282c-49ef-bed3-a778d2e917e9"},"vehicle_type_id":"4","last_reported":1734685755,"current_range_meters":36400,"station_id":"ce4bgjp2rcd13ifvqbh0","pricing_plan_id":"cebpf4jnsgd1na2vs0mg"},{"bike_id":"71a6ac81-a659-4730-beb1-c94b0003e7ce","system_id":"levelo_inurba_marseille","lat":43.26206,"lon":5.3744,"is_reserved":false,"is_disabled":false,"rental_uris":{"android":"levelo://app?vid=71a6ac81-a659-4730-beb1-c94b0003e7ce","ios":"levelo://app?vid=71a6ac81-a659-4730-beb1-c94b0003e7ce"},"vehicle_type_id":"4","last_reported":1734685755,"current_range_meters":34000,"station_id":"ce4bhgp2rcd13ifvqfc0","pricing_plan_id":"cebpf4jnsgd1na2vs0mg"},{"bike_id":"a0b13504-4db3-4c1c-85c9-95caada3e30d","system_id":"levelo_inurba_marseille","lat":43.25939,"lon":5.40899,"is_reserved":false,"is_disabled":true,"rental_uris":{"android":"levelo://app?vid=a0b13504-4db3-4c1c-85c9-95caada3e30d","ios":"levelo://app?vid=a0b13504-4db3-4c1c-85c9-95caada3e30d"},"vehicle_type_id":"4","last_reported":1734685755,"current_range_meters":31200,"station_id":"ce4bhm92rcd13ifvqglg","pricing_plan_id":"cebpf4jnsgd1na2vs0mg"},{"bike_id":"7f253010-e4c1-4581-a3ac-071064bce5b6","system_id":"levelo_inurba_marseille","lat":43.30472,"lon":5.37898,"is_reserved":false,"is_disabled":false,"rental_uris":{"android":"levelo://app?vid=7f253010-e4c1-4581-a3ac-071064bce5b6","ios":"levelo://app?vid=7f253010-e4c1-4581-a3ac-071064bce5b6"},"vehicle_type_id":"4","last_reported":1734685755,"current_range_meters":38800,"station_id":"ce4bgup2rcd13ifvqcn0","pricing_plan_id":"cebpf4jnsgd1na2vs0mg"},{"bike_id":"23982114-fce8-4053-9d5c-871356e38cb0","system_id":"levelo_inurba_marseille","lat":43.24079,"lon":5.37748,"is_reserved":false,"is_disabled":false,"rental_uris":{"android":"levelo://app?vid=23982114-fce8-4053-9d5c-871356e38cb0","ios":"levelo://app?vid=23982114-fce8-4053-9d5c-871356e38cb0"},"vehicle_type_id":"4","last_reported":1734685755,"current_range_meters":21600,"station_id":"ce4bhnp2rcd13ifvqgvg","pricing_plan_id":"cebpf4jnsgd1na2vs0mg"},{"bike_id":"817bb774-19e9-4671-a1ad-0f1f89092a18","system_id":"levelo_inurba_marseille","lat":43.28454,"lon":5.384243,"is_reserved":false,"is_disabled":false,"rental_uris":{"android":"levelo://app?vid=817bb774-19e9-4671-a1ad-0f1f89092a18","ios":"levelo://app?vid=817bb774-19e9-4671-a1ad-0f1f89092a18"},"vehicle_type_id":"4","last_reported":1734685755,"current_range_meters":33600,"station_id":"ce4bh512rcd13ifvqe3g","pricing_plan_id":"cebpf4jnsgd1na2vs0mg"},{"bike_id":"782bcbf2-b7de-4b04-bebc-aaa0329dd90c","system_id":"levelo_inurba_marseille","lat":43.23195,"lon":5.35556,"is_reserved":false,"is_disabled":false,"rental_uris":{"android":"levelo://app?vid=782bcbf2-b7de-4b04-bebc-aaa0329dd90c","ios":"levelo://app?vid=782bcbf2-b7de-4b04-bebc-aaa0329dd90c"},"vehicle_type_id":"4","last_reported":1734685755,"current_range_meters":36800,"station_id":"ce4bhu92rcd13ifvqi70","pricing_plan_id":"cebpf4jnsgd1na2vs0mg"},{"bike_id":"37a27d0f-052c-4fc2-bbb9-7ae126b9828e","system_id":"levelo_inurba_marseille","lat":43.30889,"lon":5.39633,"is_reserved":false,"is_disabled":false,"rental_uris":{"android":"levelo://app?vid=37a27d0f-052c-4fc2-bbb9-7ae126b9828e","ios":"levelo://app?vid=37a27d0f-052c-4fc2-bbb9-7ae126b9828e"},"vehicle_type_id":"4","last_reported":1734685755,"current_range_meters":8400,"station_id":"ce4bh012rcd13ifvqcv0","pricing_plan_id":"cebpf4jnsgd1na2vs0mg"},{"bike_id":"67e590f7-0feb-4571-9ae2-729bb19e5be9","system_id":"levelo_inurba_marseille","lat":43.28453,"lon":5.35885,"is_reserved":false,"is_disabled":false,"rental_uris":{"android":"levelo://app?vid=67e590f7-0feb-4571-9ae2-729bb19e5be9","ios":"levelo://app?vid=67e590f7-0feb-4571-9ae2-729bb19e5be9"},"vehicle_type_id":"4","last_reported":1734685755,"current_range_meters":16000,"station_id":"ce4bhah2rcd13ifvqei0","pricing_plan_id":"cebpf4jnsgd1na2vs0mg"},{"bike_id":"7d872448-c3b4-40a4-984e-792a758c118e","system_id":"levelo_inurba_marseille","lat":43.27809,"lon":5.40704,"is_reserved":false,"is_disabled":false,"rental_uris":{"android":"levelo://app?vid=7d872448-c3b4-40a4-984e-792a758c118e","ios":"levelo://app?vid=7d872448-c3b4-40a4-984e-792a758c118e"},"vehicle_type_id":"4","last_reported":1734685755,"current_range_meters":8000,"station_id":"ce4bhnh2rcd13ifvqgtg","pricing_plan_id":"cebpf4jnsgd1na2vs0mg"},{"bike_id":"1897ad2d-5c02-4d9f-ba4c-937899dfbdc3","system_id":"levelo_inurba_marseille","lat":43.24403,"lon":5.37052,"is_reserved":false,"is_disabled":false,"rental_uris":{"android":"levelo://app?vid=1897ad2d-5c02-4d9f-ba4c-937899dfbdc3","ios":"levelo://app?vid=1897ad2d-5c02-4d9f-ba4c-937899dfbdc3"},"vehicle_type_id":"4","last_reported":1734685755,"current_range_meters":38800,"station_id":"ce4bhhh2rcd13ifvqfk0","pricing_plan_id":"cebpf4jnsgd1na2vs0mg"},{"bike_id":"e9e5d726-62e1-4b6b-a23c-0a4951c24076","system_id":"levelo_inurba_marseille","lat":43.24088,"lon":5.39701,"is_reserved":false,"is_disabled":true,"rental_uris":{"android":"levelo://app?vid=e9e5d726-62e1-4b6b-a23c-0a4951c24076","ios":"levelo://app?vid=e9e5d726-62e1-4b6b-a23c-0a4951c24076"},"vehicle_type_id":"4","last_reported":1734685755,"current_range_meters":0,"station_id":"","pricing_plan_id":"cebpf4jnsgd1na2vs0mg"},{"bike_id":"d9a22046-cbe9-4de7-ada7-e4f01d7177aa","system_id":"levelo_inurba_marseille","lat":43.290344,"lon":5.375626,"is_reserved":false,"is_disabled":false,"rental_uris":{"android":"levelo://app?vid=d9a22046-cbe9-4de7-ada7-e4f01d7177aa","ios":"levelo://app?vid=d9a22046-cbe9-4de7-ada7-e4f01d7177aa"},"vehicle_type_id":"4","last_reported":1734685755,"current_range_meters":38800,"station_id":"ce4bh692rcd13ifvqe90","pricing_plan_id":"cebpf4jnsgd1na2vs0mg"},{"bike_id":"ea300bb5-9ab8-4102-825a-14e36fff0270","system_id":"levelo_inurba_marseille","lat":43.30915,"lon":5.36854,"is_reserved":false,"is_disabled":false,"rental_uris":{"android":"levelo://app?vid=ea300bb5-9ab8-4102-825a-14e36fff0270","ios":"levelo://app?vid=ea300bb5-9ab8-4102-825a-14e36fff0270"},"vehicle_type_id":"4","last_reported":1734685755,"current_range_meters":38000,"station_id":"ce4bgn92rcd13ifvqbvg","pricing_plan_id":"cebpf4jnsgd1na2vs0mg"},{"bike_id":"3e77ad45-0add-4d79-af92-5e7e323ecb9b","system_id":"levelo_inurba_marseille","lat":43.29784,"lon":5.37097,"is_reserved":false,"is_disabled":false,"rental_uris":{"android":"levelo://app?vid=3e77ad45-0add-4d79-af92-5e7e323ecb9b","ios":"levelo://app?vid=3e77ad45-0add-4d79-af92-5e7e323ecb9b"},"vehicle_type_id":"4","last_reported":1734685755,"current_range_meters":36000,"station_id":"ce4bgop2rcd13ifvqc1g","pricing_plan_id":"cebpf4jnsgd1na2vs0mg"},{"bike_id":"30cec467-33cd-4cdb-957e-7d21124d2d68","system_id":"levelo_inurba_marseille","lat":43.305295,"lon":5.367055,"is_reserved":false,"is_disabled":false,"rental_uris":{"android":"levelo://app?vid=30cec467-33cd-4cdb-957e-7d21124d2d68","ios":"levelo://app?vid=30cec467-33cd-4cdb-957e-7d21124d2d68"},"vehicle_type_id":"4","last_reported":1734685755,"current_range_meters":35600,"station_id":"ce4bgrp2rcd13ifvqc9g","pricing_plan_id":"cebpf4jnsgd1na2vs0mg"},{"bike_id":"76149aba-788f-404a-9c6c-040f61c91c7a","system_id":"levelo_inurba_marseille","lat":43.23189,"lon":5.39978,"is_reserved":false,"is_disabled":false,"rental_uris":{"android":"levelo://app?vid=76149aba-788f-404a-9c6c-040f61c91c7a","ios":"levelo://app?vid=76149aba-788f-404a-9c6c-040f61c91c7a"},"vehicle_type_id":"4","last_reported":1734685755,"current_range_meters":30400,"station_id":"ce4bhn12rcd13ifvqgqg","pricing_plan_id":"cebpf4jnsgd1na2vs0mg"},{"bike_id":"290bb62e-1ac8-4f49-8850-7312456812da","system_id":"levelo_inurba_marseille","lat":43.30545,"lon":5.3669,"is_reserved":false,"is_disabled":false,"rental_uris":{"android":"levelo://app?vid=290bb62e-1ac8-4f49-8850-7312456812da","ios":"levelo://app?vid=290bb62e-1ac8-4f49-8850-7312456812da"},"vehicle_type_id":"4","last_reported":1734685755,"current_range_meters":29600,"station_id":"ce4bgrp2rcd13ifvqc9g","pricing_plan_id":"cebpf4jnsgd1na2vs0mg"},{"bike_id":"8121ea70-bcea-4330-bf34-8839e068416d","system_id":"levelo_inurba_marseille","lat":43.30543,"lon":5.36685,"is_reserved":false,"is_disabled":false,"rental_uris":{"android":"levelo://app?vid=8121ea70-bcea-4330-bf34-8839e068416d","ios":"levelo://app?vid=8121ea70-bcea-4330-bf34-8839e068416d"},"vehicle_type_id":"4","last_reported":1734685755,"current_range_meters":38800,"station_id":"ce4bgrp2rcd13ifvqc9g","pricing_plan_id":"cebpf4jnsgd1na2vs0mg"},{"bike_id":"98fd7295-0b1c-4cae-a78c-1db2d10c9880","system_id":"levelo_inurba_marseille","lat":43.317,"lon":5.40465,"is_reserved":false,"is_disabled":false,"rental_uris":{"android":"levelo://app?vid=98fd7295-0b1c-4cae-a78c-1db2d10c9880","ios":"levelo://app?vid=98fd7295-0b1c-4cae-a78c-1db2d10c9880"},"vehicle_type_id":"4","last_reported":1734685755,"current_range_meters":30800,"station_id":"ce4bh012rcd13ifvqd00","pricing_plan_id":"cebpf4jnsgd1na2vs0mg"},{"bike_id":"330bf880-e1f5-4f4a-b329-f0f879268631","system_id":"levelo_inurba_marseille","lat":43.28854,"lon":5.39316,"is_reserved":false,"is_disabled":true,"rental_uris":{"android":"levelo://app?vid=330bf880-e1f5-4f4a-b329-f0f879268631","ios":"levelo://app?vid=330bf880-e1f5-4f4a-b329-f0f879268631"},"vehicle_type_id":"4","last_reported":1734685755,"current_range_meters":16000,"station_id":"ce4bh2p2rcd13ifvqdi0","pricing_plan_id":"cebpf4jnsgd1na2vs0mg"},{"bike_id":"44127e4e-8e84-4a38-89f7-8f4efb63f7a5","system_id":"levelo_inurba_marseille","lat":43.31194,"lon":5.36755,"is_reserved":false,"is_disabled":true,"rental_uris":{"android":"levelo://app?vid=44127e4e-8e84-4a38-89f7-8f4efb63f7a5","ios":"levelo://app?vid=44127e4e-8e84-4a38-89f7-8f4efb63f7a5"},"vehicle_type_id":"4","last_reported":1734685755,"current_range_meters":0,"station_id":"","pricing_plan_id":"cebpf4jnsgd1na2vs0mg"},{"bike_id":"8d69bf60-ed84-449d-ab4f-bf29da4c8418","system_id":"levelo_inurba_marseille","lat":43.29256,"lon":5.40895,"is_reserved":false,"is_disabled":false,"rental_uris":{"android":"levelo://app?vid=8d69bf60-ed84-449d-ab4f-bf29da4c8418","ios":"levelo://app?vid=8d69bf60-ed84-449d-ab4f-bf29da4c8418"},"vehicle_type_id":"4","last_reported":1734685755,"current_range_meters":34000,"station_id":"ce4bh192rcd13ifvqdc0","pricing_plan_id":"cebpf4jnsgd1na2vs0mg"},{"bike_id":"7342d331-edf5-4d0e-8d54-50aa1fd0b045","system_id":"levelo_inurba_marseille","lat":43.29032,"lon":5.37566,"is_reserved":false,"is_disabled":false,"rental_uris":{"android":"levelo://app?vid=7342d331-edf5-4d0e-8d54-50aa1fd0b045","ios":"levelo://app?vid=7342d331-edf5-4d0e-8d54-50aa1fd0b045"},"vehicle_type_id":"4","last_reported":1734685755,"current_range_meters":28400,"station_id":"ce4bh692rcd13ifvqe90","pricing_plan_id":"cebpf4jnsgd1na2vs0mg"},{"bike_id":"60c24abf-7634-4c1d-be8e-3905917c0f35","system_id":"levelo_inurba_marseille","lat":43.26061,"lon":5.39392,"is_reserved":false,"is_disabled":false,"rental_uris":{"android":"levelo://app?vid=60c24abf-7634-4c1d-be8e-3905917c0f35","ios":"levelo://app?vid=60c24abf-7634-4c1d-be8e-3905917c0f35"},"vehicle_type_id":"4","last_reported":1734685755,"current_range_meters":26000,"station_id":"ce4bhh92rcd13ifvqfj0","pricing_plan_id":"cebpf4jnsgd1na2vs0mg"},{"bike_id":"ff1810ea-7920-431d-a554-3cf458736fb3","system_id":"levelo_inurba_marseille","lat":43.27565,"lon":5.38403,"is_reserved":false,"is_disabled":false,"rental_uris":{"android":"levelo://app?vid=ff1810ea-7920-431d-a554-3cf458736fb3","ios":"levelo://app?vid=ff1810ea-7920-431d-a554-3cf458736fb3"},"vehicle_type_id":"4","last_reported":1734685755,"current_range_meters":8400,"station_id":"ce4bhh92rcd13ifvqfi0","pricing_plan_id":"cebpf4jnsgd1na2vs0mg"},{"bike_id":"fa450f79-0071-470a-a8a0-47379ffcc822","system_id":"levelo_inurba_marseille","lat":43.25059,"lon":5.39518,"is_reserved":false,"is_disabled":false,"rental_uris":{"android":"levelo://app?vid=fa450f79-0071-470a-a8a0-47379ffcc822","ios":"levelo://app?vid=fa450f79-0071-470a-a8a0-47379ffcc822"},"vehicle_type_id":"4","last_reported":1734685755,"current_range_meters":11600,"station_id":"ce4bhm12rcd13ifvqgkg","pricing_plan_id":"cebpf4jnsgd1na2vs0mg"},{"bike_id":"53225117-64cd-44e0-b31e-41b53bb91e3d","system_id":"levelo_inurba_marseille","lat":43.292666,"lon":5.401213,"is_reserved":false,"is_disabled":false,"rental_uris":{"android":"levelo://app?vid=53225117-64cd-44e0-b31e-41b53bb91e3d","ios":"levelo://app?vid=53225117-64cd-44e0-b31e-41b53bb91e3d"},"vehicle_type_id":"4","last_reported":1734685755,"current_range_meters":34000,"station_id":"ce4bh312rcd13ifvqdk0","pricing_plan_id":"cebpf4jnsgd1na2vs0mg"},{"bike_id":"b6a1ed6a-f264-46cb-8257-806bff1bca15","system_id":"levelo_inurba_marseille","lat":43.30956,"lon":5.39042,"is_reserved":false,"is_disabled":false,"rental_uris":{"android":"levelo://app?vid=b6a1ed6a-f264-46cb-8257-806bff1bca15","ios":"levelo://app?vid=b6a1ed6a-f264-46cb-8257-806bff1bca15"},"vehicle_type_id":"4","last_reported":1734685755,"current_range_meters":36400,"station_id":"ce4bgup2rcd13ifvqco0","pricing_plan_id":"cebpf4jnsgd1na2vs0mg"},{"bike_id":"82d04b50-e48e-48de-9086-622bd99590fe","system_id":"levelo_inurba_marseille","lat":43.3172,"lon":5.40381,"is_reserved":false,"is_disabled":false,"rental_uris":{"android":"levelo://app?vid=82d04b50-e48e-48de-9086-622bd99590fe","ios":"levelo://app?vid=82d04b50-e48e-48de-9086-622bd99590fe"},"vehicle_type_id":"4","last_reported":1734685755,"current_range_meters":38800,"station_id":"","pricing_plan_id":"cebpf4jnsgd1na2vs0mg"},{"bike_id":"88d0fca1-50cd-440e-a583-785fe0c07914","system_id":"levelo_inurba_marseille","lat":43.28792,"lon":5.37765,"is_reserved":false,"is_disabled":false,"rental_uris":{"android":"levelo://app?vid=88d0fca1-50cd-440e-a583-785fe0c07914","ios":"levelo://app?vid=88d0fca1-50cd-440e-a583-785fe0c07914"},"vehicle_type_id":"4","last_reported":1734685755,"current_range_meters":5600,"station_id":"","pricing_plan_id":"cebpf4jnsgd1na2vs0mg"},{"bike_id":"62159b96-70de-4225-a341-fe8203f1c374","system_id":"levelo_inurba_marseille","lat":43.28936,"lon":5.39633,"is_reserved":false,"is_disabled":true,"rental_uris":{"android":"levelo://app?vid=62159b96-70de-4225-a341-fe8203f1c374","ios":"levelo://app?vid=62159b96-70de-4225-a341-fe8203f1c374"},"vehicle_type_id":"4","last_reported":1734685755,"current_range_meters":31200,"station_id":"ce4bh3h2rcd13ifvqdn0","pricing_plan_id":"cebpf4jnsgd1na2vs0mg"},{"bike_id":"aaba7d90-52a4-424e-b960-0b38b20e8c9d","system_id":"levelo_inurba_marseille","lat":43.2732,"lon":5.39078,"is_reserved":false,"is_disabled":false,"rental_uris":{"android":"levelo://app?vid=aaba7d90-52a4-424e-b960-0b38b20e8c9d","ios":"levelo://app?vid=aaba7d90-52a4-424e-b960-0b38b20e8c9d"},"vehicle_type_id":"4","last_reported":1734685755,"current_range_meters":24000,"station_id":"ce4bhgp2rcd13ifvqfe0","pricing_plan_id":"cebpf4jnsgd1na2vs0mg"},{"bike_id":"487dbe1f-087d-4317-b8c9-a64693cd7c5e","system_id":"levelo_inurba_marseille","lat":43.26958,"lon":5.38632,"is_reserved":false,"is_disabled":false,"rental_uris":{"android":"levelo://app?vid=487dbe1f-087d-4317-b8c9-a64693cd7c5e","ios":"levelo://app?vid=487dbe1f-087d-4317-b8c9-a64693cd7c5e"},"vehicle_type_id":"4","last_reported":1734685755,"current_range_meters":18000,"station_id":"ce4bhh92rcd13ifvqfh0","pricing_plan_id":"cebpf4jnsgd1na2vs0mg"},{"bike_id":"828f29bb-8a05-4746-9fe7-aa1022149514","system_id":"levelo_inurba_marseille","lat":43.33608,"lon":5.41029,"is_reserved":false,"is_disabled":false,"rental_uris":{"android":"levelo://app?vid=828f29bb-8a05-4746-9fe7-aa1022149514","ios":"levelo://app?vid=828f29bb-8a05-4746-9fe7-aa1022149514"},"vehicle_type_id":"4","last_reported":1734685755,"current_range_meters":3600,"station_id":"ce4bhqh2rcd13ifvqhmg","pricing_plan_id":"cebpf4jnsgd1na2vs0mg"},{"bike_id":"0c9a1202-8e72-4c9a-bd45-c006f8854121","system_id":"levelo_inurba_marseille","lat":43.30156,"lon":5.38073,"is_reserved":false,"is_disabled":false,"rental_uris":{"android":"levelo://app?vid=0c9a1202-8e72-4c9a-bd45-c006f8854121","ios":"levelo://app?vid=0c9a1202-8e72-4c9a-bd45-c006f8854121"},"vehicle_type_id":"4","last_reported":1734685755,"current_range_meters":20800,"station_id":"ce4bgjp2rcd13ifvqbh0","pricing_plan_id":"cebpf4jnsgd1na2vs0mg"},{"bike_id":"fd16f752-2c7d-4328-bf95-7bfb93ba0b13","system_id":"levelo_inurba_marseille","lat":43.25886,"lon":5.39427,"is_reserved":false,"is_disabled":true,"rental_uris":{"android":"levelo://app?vid=fd16f752-2c7d-4328-bf95-7bfb93ba0b13","ios":"levelo://app?vid=fd16f752-2c7d-4328-bf95-7bfb93ba0b13"},"vehicle_type_id":"4","last_reported":1734685755,"current_range_meters":0,"station_id":"","pricing_plan_id":"cebpf4jnsgd1na2vs0mg"},{"bike_id":"c8a9df44-c9a1-43c7-addd-475d94f4c5ab","system_id":"levelo_inurba_marseille","lat":43.27325,"lon":5.39088,"is_reserved":false,"is_disabled":true,"rental_uris":{"android":"levelo://app?vid=c8a9df44-c9a1-43c7-addd-475d94f4c5ab","ios":"levelo://app?vid=c8a9df44-c9a1-43c7-addd-475d94f4c5ab"},"vehicle_type_id":"4","last_reported":1734685755,"current_range_meters":36800,"station_id":"ce4bhgp2rcd13ifvqfe0","pricing_plan_id":"cebpf4jnsgd1na2vs0mg"},{"bike_id":"eeb165cd-0850-4135-b307-a7a2de607d7b","system_id":"levelo_inurba_marseille","lat":43.28607,"lon":5.37055,"is_reserved":false,"is_disabled":false,"rental_uris":{"android":"levelo://app?vid=eeb165cd-0850-4135-b307-a7a2de607d7b","ios":"levelo://app?vid=eeb165cd-0850-4135-b307-a7a2de607d7b"},"vehicle_type_id":"4","last_reported":1734685755,"current_range_meters":38800,"station_id":"ce4bht12rcd13ifvqi60","pricing_plan_id":"cebpf4jnsgd1na2vs0mg"},{"bike_id":"fb35cf8d-b386-4618-a728-a76f484e9f38","system_id":"levelo_inurba_marseille","lat":43.30352,"lon":5.41874,"is_reserved":false,"is_disabled":false,"rental_uris":{"android":"levelo://app?vid=fb35cf8d-b386-4618-a728-a76f484e9f38","ios":"levelo://app?vid=fb35cf8d-b386-4618-a728-a76f484e9f38"},"vehicle_type_id":"4","last_reported":1734685755,"current_range_meters":36800,"station_id":"ce4bhop2rcd13ifvqh7g","pricing_plan_id":"cebpf4jnsgd1na2vs0mg"},{"bike_id":"b74087ed-685b-4c39-a774-19f2011f0414","system_id":"levelo_inurba_marseille","lat":43.26955,"lon":5.38637,"is_reserved":false,"is_disabled":false,"rental_uris":{"android":"levelo://app?vid=b74087ed-685b-4c39-a774-19f2011f0414","ios":"levelo://app?vid=b74087ed-685b-4c39-a774-19f2011f0414"},"vehicle_type_id":"4","last_reported":1734685755,"current_range_meters":27200,"station_id":"ce4bhh92rcd13ifvqfh0","pricing_plan_id":"cebpf4jnsgd1na2vs0mg"},{"bike_id":"bde16004-2a0c-4fc8-acdd-f812d033bf70","system_id":"levelo_inurba_marseille","lat":43.26065,"lon":5.39388,"is_reserved":false,"is_disabled":false,"rental_uris":{"android":"levelo://app?vid=bde16004-2a0c-4fc8-acdd-f812d033bf70","ios":"levelo://app?vid=bde16004-2a0c-4fc8-acdd-f812d033bf70"},"vehicle_type_id":"4","last_reported":1734685755,"current_range_meters":8800,"station_id":"ce4bhh92rcd13ifvqfj0","pricing_plan_id":"cebpf4jnsgd1na2vs0mg"},{"bike_id":"df227d23-afec-4906-8b5a-7364725bbe5b","system_id":"levelo_inurba_marseille","lat":43.26504,"lon":5.39548,"is_reserved":false,"is_disabled":true,"rental_uris":{"android":"levelo://app?vid=df227d23-afec-4906-8b5a-7364725bbe5b","ios":"levelo://app?vid=df227d23-afec-4906-8b5a-7364725bbe5b"},"vehicle_type_id":"4","last_reported":1734685755,"current_range_meters":26000,"station_id":"ce4bhi12rcd13ifvqfq0","pricing_plan_id":"cebpf4jnsgd1na2vs0mg"},{"bike_id":"8f4264b7-e591-4639-b93d-9d277d055e89","system_id":"levelo_inurba_marseille","lat":43.28703,"lon":5.37923,"is_reserved":false,"is_disabled":false,"rental_uris":{"android":"levelo://app?vid=8f4264b7-e591-4639-b93d-9d277d055e89","ios":"levelo://app?vid=8f4264b7-e591-4639-b93d-9d277d055e89"},"vehicle_type_id":"4","last_reported":1734685755,"current_range_meters":11200,"station_id":"ce4bh9p2rcd13ifvqec0","pricing_plan_id":"cebpf4jnsgd1na2vs0mg"},{"bike_id":"df609213-4f03-423d-a027-9336b146a373","system_id":"levelo_inurba_marseille","lat":43.27589,"lon":5.38398,"is_reserved":false,"is_disabled":false,"rental_uris":{"android":"levelo://app?vid=df609213-4f03-423d-a027-9336b146a373","ios":"levelo://app?vid=df609213-4f03-423d-a027-9336b146a373"},"vehicle_type_id":"4","last_reported":1734685755,"current_range_meters":38800,"station_id":"ce4bhh92rcd13ifvqfi0","pricing_plan_id":"cebpf4jnsgd1na2vs0mg"},{"bike_id":"97091314-35b3-4fee-9cc8-d42ebff4224e","system_id":"levelo_inurba_marseille","lat":43.34152,"lon":5.40906,"is_reserved":false,"is_disabled":false,"rental_uris":{"android":"levelo://app?vid=97091314-35b3-4fee-9cc8-d42ebff4224e","ios":"levelo://app?vid=97091314-35b3-4fee-9cc8-d42ebff4224e"},"vehicle_type_id":"4","last_reported":1734685755,"current_range_meters":20000,"station_id":"ce4bhqh2rcd13ifvqhlg","pricing_plan_id":"cebpf4jnsgd1na2vs0mg"},{"bike_id":"a2556b02-a46f-40fc-83fb-d4423cb32ea6","system_id":"levelo_inurba_marseille","lat":43.28096,"lon":5.37835,"is_reserved":false,"is_disabled":false,"rental_uris":{"android":"levelo://app?vid=a2556b02-a46f-40fc-83fb-d4423cb32ea6","ios":"levelo://app?vid=a2556b02-a46f-40fc-83fb-d4423cb32ea6"},"vehicle_type_id":"4","last_reported":1734685755,"current_range_meters":27600,"station_id":"ce4bha12rcd13ifvqee0","pricing_plan_id":"cebpf4jnsgd1na2vs0mg"},{"bike_id":"ea9ec9a3-6bee-4eb9-8853-bafe8264202c","system_id":"levelo_inurba_marseille","lat":43.24182,"lon":5.39728,"is_reserved":false,"is_disabled":false,"rental_uris":{"android":"levelo://app?vid=ea9ec9a3-6bee-4eb9-8853-bafe8264202c","ios":"levelo://app?vid=ea9ec9a3-6bee-4eb9-8853-bafe8264202c"},"vehicle_type_id":"4","last_reported":1734685755,"current_range_meters":21600,"station_id":"ce4bhn12rcd13ifvqgpg","pricing_plan_id":"cebpf4jnsgd1na2vs0mg"},{"bike_id":"12fd5580-9714-43e3-a3e1-e44ed57fd46e","system_id":"levelo_inurba_marseille","lat":43.29525,"lon":5.3903,"is_reserved":false,"is_disabled":false,"rental_uris":{"android":"levelo://app?vid=12fd5580-9714-43e3-a3e1-e44ed57fd46e","ios":"levelo://app?vid=12fd5580-9714-43e3-a3e1-e44ed57fd46e"},"vehicle_type_id":"4","last_reported":1734685755,"current_range_meters":36400,"station_id":"ce4bh3p2rcd13ifvqdp0","pricing_plan_id":"cebpf4jnsgd1na2vs0mg"},{"bike_id":"bd095ac7-9f51-40e6-b9c2-7b4cf46ef2a7","system_id":"levelo_inurba_marseille","lat":43.28349,"lon":5.38103,"is_reserved":false,"is_disabled":false,"rental_uris":{"android":"levelo://app?vid=bd095ac7-9f51-40e6-b9c2-7b4cf46ef2a7","ios":"levelo://app?vid=bd095ac7-9f51-40e6-b9c2-7b4cf46ef2a7"},"vehicle_type_id":"4","last_reported":1734685755,"current_range_meters":35600,"station_id":"ce4bh412rcd13ifvqdr0","pricing_plan_id":"cebpf4jnsgd1na2vs0mg"},{"bike_id":"ba1c4fa5-e368-428b-92c0-2cf51bca5093","system_id":"levelo_inurba_marseille","lat":43.29068,"lon":5.37167,"is_reserved":false,"is_disabled":false,"rental_uris":{"android":"levelo://app?vid=ba1c4fa5-e368-428b-92c0-2cf51bca5093","ios":"levelo://app?vid=ba1c4fa5-e368-428b-92c0-2cf51bca5093"},"vehicle_type_id":"4","last_reported":1734685755,"current_range_meters":38400,"station_id":"ce4bh5p2rcd13ifvqe4g","pricing_plan_id":"cebpf4jnsgd1na2vs0mg"},{"bike_id":"c8b30424-050c-4dd3-9931-fa2ff9468c28","system_id":"levelo_inurba_marseille","lat":43.30283,"lon":5.37706,"is_reserved":false,"is_disabled":false,"rental_uris":{"android":"levelo://app?vid=c8b30424-050c-4dd3-9931-fa2ff9468c28","ios":"levelo://app?vid=c8b30424-050c-4dd3-9931-fa2ff9468c28"},"vehicle_type_id":"4","last_reported":1734685755,"current_range_meters":32800,"station_id":"ce4bguh2rcd13ifvqcj0","pricing_plan_id":"cebpf4jnsgd1na2vs0mg"},{"bike_id":"aee0c001-d83d-47e6-86b4-3c2a0bbc1bf7","system_id":"levelo_inurba_marseille","lat":43.25827,"lon":5.39423,"is_reserved":false,"is_disabled":false,"rental_uris":{"android":"levelo://app?vid=aee0c001-d83d-47e6-86b4-3c2a0bbc1bf7","ios":"levelo://app?vid=aee0c001-d83d-47e6-86b4-3c2a0bbc1bf7"},"vehicle_type_id":"4","last_reported":1734685755,"current_range_meters":38800,"station_id":"ce4bhip2rcd13ifvqft0","pricing_plan_id":"cebpf4jnsgd1na2vs0mg"},{"bike_id":"a7053f8c-b657-4929-95e3-080c0ef9f617","system_id":"levelo_inurba_marseille","lat":43.27941,"lon":5.41036,"is_reserved":false,"is_disabled":false,"rental_uris":{"android":"levelo://app?vid=a7053f8c-b657-4929-95e3-080c0ef9f617","ios":"levelo://app?vid=a7053f8c-b657-4929-95e3-080c0ef9f617"},"vehicle_type_id":"4","last_reported":1734685755,"current_range_meters":24800,"station_id":"ce4bhnp2rcd13ifvqh0g","pricing_plan_id":"cebpf4jnsgd1na2vs0mg"},{"bike_id":"8417b700-ae98-45dd-8f9e-a85d1d752cc3","system_id":"levelo_inurba_marseille","lat":43.26056,"lon":5.39398,"is_reserved":false,"is_disabled":true,"rental_uris":{"android":"levelo://app?vid=8417b700-ae98-45dd-8f9e-a85d1d752cc3","ios":"levelo://app?vid=8417b700-ae98-45dd-8f9e-a85d1d752cc3"},"vehicle_type_id":"4","last_reported":1734685755,"current_range_meters":38800,"station_id":"ce4bhh92rcd13ifvqfj0","pricing_plan_id":"cebpf4jnsgd1na2vs0mg"},{"bike_id":"663a1e85-3ff8-413b-b7a2-2537d7226760","system_id":"levelo_inurba_marseille","lat":43.313543,"lon":5.384847,"is_reserved":false,"is_disabled":true,"rental_uris":{"android":"levelo://app?vid=663a1e85-3ff8-413b-b7a2-2537d7226760","ios":"levelo://app?vid=663a1e85-3ff8-413b-b7a2-2537d7226760"},"vehicle_type_id":"4","last_reported":1734685755,"current_range_meters":38400,"station_id":"ce4bgt92rcd13ifvqcf0","pricing_plan_id":"cebpf4jnsgd1na2vs0mg"},{"bike_id":"bfbfa309-e736-4a61-b3da-e584362122b2","system_id":"levelo_inurba_marseille","lat":43.24808,"lon":5.37452,"is_reserved":false,"is_disabled":false,"rental_uris":{"android":"levelo://app?vid=bfbfa309-e736-4a61-b3da-e584362122b2","ios":"levelo://app?vid=bfbfa309-e736-4a61-b3da-e584362122b2"},"vehicle_type_id":"4","last_reported":1734685755,"current_range_meters":20000,"station_id":"ce4bhgh2rcd13ifvqfb0","pricing_plan_id":"cebpf4jnsgd1na2vs0mg"},{"bike_id":"fd8e86e1-4647-4daa-b05e-38f6ef055de3","system_id":"levelo_inurba_marseille","lat":43.31364,"lon":5.36695,"is_reserved":false,"is_disabled":false,"rental_uris":{"android":"levelo://app?vid=fd8e86e1-4647-4daa-b05e-38f6ef055de3","ios":"levelo://app?vid=fd8e86e1-4647-4daa-b05e-38f6ef055de3"},"vehicle_type_id":"4","last_reported":1734685755,"current_range_meters":24800,"station_id":"ce4bgr92rcd13ifvqc6g","pricing_plan_id":"cebpf4jnsgd1na2vs0mg"},{"bike_id":"acc695a3-24ae-4b22-af28-5418123e9e4a","system_id":"levelo_inurba_marseille","lat":43.26934,"lon":5.40248,"is_reserved":false,"is_disabled":false,"rental_uris":{"android":"levelo://app?vid=acc695a3-24ae-4b22-af28-5418123e9e4a","ios":"levelo://app?vid=acc695a3-24ae-4b22-af28-5418123e9e4a"},"vehicle_type_id":"4","last_reported":1734685755,"current_range_meters":32800,"station_id":"cjm6bp8fraef2m0cb0m0","pricing_plan_id":"cebpf4jnsgd1na2vs0mg"},{"bike_id":"e35f93ba-cda7-4cd4-850b-9d649babd848","system_id":"levelo_inurba_marseille","lat":43.27053,"lon":5.40279,"is_reserved":false,"is_disabled":false,"rental_uris":{"android":"levelo://app?vid=e35f93ba-cda7-4cd4-850b-9d649babd848","ios":"levelo://app?vid=e35f93ba-cda7-4cd4-850b-9d649babd848"},"vehicle_type_id":"4","last_reported":1734685755,"current_range_meters":35200,"station_id":"ce4bhk92rcd13ifvqgc0","pricing_plan_id":"cebpf4jnsgd1na2vs0mg"},{"bike_id":"fc4ff347-ef4d-4a4d-ae09-babf618fedb6","system_id":"levelo_inurba_marseille","lat":43.24169,"lon":5.36391,"is_reserved":false,"is_disabled":true,"rental_uris":{"android":"levelo://app?vid=fc4ff347-ef4d-4a4d-ae09-babf618fedb6","ios":"levelo://app?vid=fc4ff347-ef4d-4a4d-ae09-babf618fedb6"},"vehicle_type_id":"4","last_reported":1734685755,"current_range_meters":0,"station_id":"cpo36qri1sfpv3e86is0","pricing_plan_id":"cebpf4jnsgd1na2vs0mg"},{"bike_id":"4e1c702f-4fec-4a09-a45d-af1848f5ba3b","system_id":"levelo_inurba_marseille","lat":43.25578,"lon":5.38234,"is_reserved":false,"is_disabled":false,"rental_uris":{"android":"levelo://app?vid=4e1c702f-4fec-4a09-a45d-af1848f5ba3b","ios":"levelo://app?vid=4e1c702f-4fec-4a09-a45d-af1848f5ba3b"},"vehicle_type_id":"4","last_reported":1734685755,"current_range_meters":38800,"station_id":"ce4bhih2rcd13ifvqfs0","pricing_plan_id":"cebpf4jnsgd1na2vs0mg"},{"bike_id":"47ef36cf-a9e9-4af3-aa08-fe48d348ea21","system_id":"levelo_inurba_marseille","lat":43.32541,"lon":5.4143,"is_reserved":false,"is_disabled":false,"rental_uris":{"android":"levelo://app?vid=47ef36cf-a9e9-4af3-aa08-fe48d348ea21","ios":"levelo://app?vid=47ef36cf-a9e9-4af3-aa08-fe48d348ea21"},"vehicle_type_id":"4","last_reported":1734685755,"current_range_meters":9600,"station_id":"ce4bhq12rcd13ifvqhhg","pricing_plan_id":"cebpf4jnsgd1na2vs0mg"},{"bike_id":"f0598eeb-6636-4202-bc3a-c35fdb37b2a3","system_id":"levelo_inurba_marseille","lat":43.30153,"lon":5.3809,"is_reserved":false,"is_disabled":false,"rental_uris":{"android":"levelo://app?vid=f0598eeb-6636-4202-bc3a-c35fdb37b2a3","ios":"levelo://app?vid=f0598eeb-6636-4202-bc3a-c35fdb37b2a3"},"vehicle_type_id":"4","last_reported":1734685755,"current_range_meters":23200,"station_id":"ce4bgjp2rcd13ifvqbh0","pricing_plan_id":"cebpf4jnsgd1na2vs0mg"},{"bike_id":"35861a55-57b4-4559-b653-1c0df57e52e5","system_id":"levelo_inurba_marseille","lat":43.286395,"lon":5.370905,"is_reserved":false,"is_disabled":true,"rental_uris":{"android":"levelo://app?vid=35861a55-57b4-4559-b653-1c0df57e52e5","ios":"levelo://app?vid=35861a55-57b4-4559-b653-1c0df57e52e5"},"vehicle_type_id":"4","last_reported":1734685755,"current_range_meters":24400,"station_id":"ce4bht12rcd13ifvqi60","pricing_plan_id":"cebpf4jnsgd1na2vs0mg"},{"bike_id":"cab86ff4-25c9-48f7-8191-c68aca23ca9e","system_id":"levelo_inurba_marseille","lat":43.31327,"lon":5.39684,"is_reserved":false,"is_disabled":false,"rental_uris":{"android":"levelo://app?vid=cab86ff4-25c9-48f7-8191-c68aca23ca9e","ios":"levelo://app?vid=cab86ff4-25c9-48f7-8191-c68aca23ca9e"},"vehicle_type_id":"4","last_reported":1734685755,"current_range_meters":26800,"station_id":"ce4bgvp2rcd13ifvqcu0","pricing_plan_id":"cebpf4jnsgd1na2vs0mg"},{"bike_id":"8c1a8ce8-2afe-4434-b8e6-9fcd179c0126","system_id":"levelo_inurba_marseille","lat":43.29359,"lon":5.37842,"is_reserved":false,"is_disabled":false,"rental_uris":{"android":"levelo://app?vid=8c1a8ce8-2afe-4434-b8e6-9fcd179c0126","ios":"levelo://app?vid=8c1a8ce8-2afe-4434-b8e6-9fcd179c0126"},"vehicle_type_id":"4","last_reported":1734685755,"current_range_meters":39200,"station_id":"ce4bgjh2rcd13ifvqbf0","pricing_plan_id":"cebpf4jnsgd1na2vs0mg"},{"bike_id":"6dd7ced6-a614-45f4-afdd-d21affa34a4d","system_id":"levelo_inurba_marseille","lat":43.28455,"lon":5.35882,"is_reserved":false,"is_disabled":false,"rental_uris":{"android":"levelo://app?vid=6dd7ced6-a614-45f4-afdd-d21affa34a4d","ios":"levelo://app?vid=6dd7ced6-a614-45f4-afdd-d21affa34a4d"},"vehicle_type_id":"4","last_reported":1734685755,"current_range_meters":33600,"station_id":"ce4bhah2rcd13ifvqei0","pricing_plan_id":"cebpf4jnsgd1na2vs0mg"},{"bike_id":"ee942428-bbeb-432f-877f-a68213d31d5c","system_id":"levelo_inurba_marseille","lat":43.27061,"lon":5.40255,"is_reserved":false,"is_disabled":false,"rental_uris":{"android":"levelo://app?vid=ee942428-bbeb-432f-877f-a68213d31d5c","ios":"levelo://app?vid=ee942428-bbeb-432f-877f-a68213d31d5c"},"vehicle_type_id":"4","last_reported":1734685755,"current_range_meters":6800,"station_id":"ce4bhk92rcd13ifvqgc0","pricing_plan_id":"cebpf4jnsgd1na2vs0mg"},{"bike_id":"26ca322d-e051-4d17-b84a-a7a8ab40d4b3","system_id":"levelo_inurba_marseille","lat":43.297743,"lon":5.380936,"is_reserved":false,"is_disabled":false,"rental_uris":{"android":"levelo://app?vid=26ca322d-e051-4d17-b84a-a7a8ab40d4b3","ios":"levelo://app?vid=26ca322d-e051-4d17-b84a-a7a8ab40d4b3"},"vehicle_type_id":"4","last_reported":1734685755,"current_range_meters":38800,"station_id":"ce4bgip2rcd13ifvqbb0","pricing_plan_id":"cebpf4jnsgd1na2vs0mg"},{"bike_id":"05929ef6-9ef2-4752-a127-101b7fed8eb1","system_id":"levelo_inurba_marseille","lat":43.29578,"lon":5.37509,"is_reserved":false,"is_disabled":false,"rental_uris":{"android":"levelo://app?vid=05929ef6-9ef2-4752-a127-101b7fed8eb1","ios":"levelo://app?vid=05929ef6-9ef2-4752-a127-101b7fed8eb1"},"vehicle_type_id":"4","last_reported":1734685755,"current_range_meters":36400,"station_id":"ce4bgh92rcd13ifvqb50","pricing_plan_id":"cebpf4jnsgd1na2vs0mg"},{"bike_id":"6b311879-2bde-4ef4-b466-fe69eb768b43","system_id":"levelo_inurba_marseille","lat":43.26679,"lon":5.38281,"is_reserved":false,"is_disabled":false,"rental_uris":{"android":"levelo://app?vid=6b311879-2bde-4ef4-b466-fe69eb768b43","ios":"levelo://app?vid=6b311879-2bde-4ef4-b466-fe69eb768b43"},"vehicle_type_id":"4","last_reported":1734685755,"current_range_meters":38800,"station_id":"ce4bhg92rcd13ifvqf90","pricing_plan_id":"cebpf4jnsgd1na2vs0mg"},{"bike_id":"b1aa97d8-3187-4b46-b5c1-a290dd5a1745","system_id":"levelo_inurba_marseille","lat":43.26192,"lon":5.37442,"is_reserved":false,"is_disabled":false,"rental_uris":{"android":"levelo://app?vid=b1aa97d8-3187-4b46-b5c1-a290dd5a1745","ios":"levelo://app?vid=b1aa97d8-3187-4b46-b5c1-a290dd5a1745"},"vehicle_type_id":"4","last_reported":1734685755,"current_range_meters":34000,"station_id":"ce4bhgp2rcd13ifvqfc0","pricing_plan_id":"cebpf4jnsgd1na2vs0mg"},{"bike_id":"2fa603a9-77c2-4e40-aeae-4f35faee187c","system_id":"levelo_inurba_marseille","lat":43.28491,"lon":5.38537,"is_reserved":false,"is_disabled":false,"rental_uris":{"android":"levelo://app?vid=2fa603a9-77c2-4e40-aeae-4f35faee187c","ios":"levelo://app?vid=2fa603a9-77c2-4e40-aeae-4f35faee187c"},"vehicle_type_id":"4","last_reported":1734685755,"current_range_meters":33200,"station_id":"ce4bh8p2rcd13ifvqeb0","pricing_plan_id":"cebpf4jnsgd1na2vs0mg"},{"bike_id":"211bac90-923f-4236-af86-54adec0ed380","system_id":"levelo_inurba_marseille","lat":43.28933,"lon":5.36388,"is_reserved":false,"is_disabled":false,"rental_uris":{"android":"levelo://app?vid=211bac90-923f-4236-af86-54adec0ed380","ios":"levelo://app?vid=211bac90-923f-4236-af86-54adec0ed380"},"vehicle_type_id":"4","last_reported":1734685755,"current_range_meters":13600,"station_id":"ce4bhc92rcd13ifvqetg","pricing_plan_id":"cebpf4jnsgd1na2vs0mg"},{"bike_id":"ccfddbb7-bdd2-4bed-9bd4-68a43061003a","system_id":"levelo_inurba_marseille","lat":43.25935,"lon":5.40898,"is_reserved":false,"is_disabled":false,"rental_uris":{"android":"levelo://app?vid=ccfddbb7-bdd2-4bed-9bd4-68a43061003a","ios":"levelo://app?vid=ccfddbb7-bdd2-4bed-9bd4-68a43061003a"},"vehicle_type_id":"4","last_reported":1734685755,"current_range_meters":6800,"station_id":"ce4bhm92rcd13ifvqglg","pricing_plan_id":"cebpf4jnsgd1na2vs0mg"},{"bike_id":"1e0316a7-c772-4e4f-ba09-e85d38a4f137","system_id":"levelo_inurba_marseille","lat":43.31709,"lon":5.37751,"is_reserved":false,"is_disabled":false,"rental_uris":{"android":"levelo://app?vid=1e0316a7-c772-4e4f-ba09-e85d38a4f137","ios":"levelo://app?vid=1e0316a7-c772-4e4f-ba09-e85d38a4f137"},"vehicle_type_id":"4","last_reported":1734685755,"current_range_meters":38800,"station_id":"ce4bgth2rcd13ifvqch0","pricing_plan_id":"cebpf4jnsgd1na2vs0mg"},{"bike_id":"9094da62-ff9f-4da1-9f23-6f83302bca03","system_id":"levelo_inurba_marseille","lat":43.29903,"lon":5.38155,"is_reserved":false,"is_disabled":false,"rental_uris":{"android":"levelo://app?vid=9094da62-ff9f-4da1-9f23-6f83302bca03","ios":"levelo://app?vid=9094da62-ff9f-4da1-9f23-6f83302bca03"},"vehicle_type_id":"4","last_reported":1734685755,"current_range_meters":9200,"station_id":"ce4bgj12rcd13ifvqbc0","pricing_plan_id":"cebpf4jnsgd1na2vs0mg"},{"bike_id":"d4a92d73-458f-4633-b078-8b09bedbb320","system_id":"levelo_inurba_marseille","lat":43.31327,"lon":5.39693,"is_reserved":false,"is_disabled":false,"rental_uris":{"android":"levelo://app?vid=d4a92d73-458f-4633-b078-8b09bedbb320","ios":"levelo://app?vid=d4a92d73-458f-4633-b078-8b09bedbb320"},"vehicle_type_id":"4","last_reported":1734685755,"current_range_meters":38800,"station_id":"ce4bgvp2rcd13ifvqcu0","pricing_plan_id":"cebpf4jnsgd1na2vs0mg"},{"bike_id":"e91219f7-cc33-492e-9b45-4476bf3bccec","system_id":"levelo_inurba_marseille","lat":43.28096,"lon":5.378522,"is_reserved":false,"is_disabled":false,"rental_uris":{"android":"levelo://app?vid=e91219f7-cc33-492e-9b45-4476bf3bccec","ios":"levelo://app?vid=e91219f7-cc33-492e-9b45-4476bf3bccec"},"vehicle_type_id":"4","last_reported":1734685755,"current_range_meters":29600,"station_id":"ce4bha12rcd13ifvqee0","pricing_plan_id":"cebpf4jnsgd1na2vs0mg"},{"bike_id":"2a12bde8-ca1e-4ca8-8cbb-8dbf9a638106","system_id":"levelo_inurba_marseille","lat":43.23182,"lon":5.35549,"is_reserved":false,"is_disabled":false,"rental_uris":{"android":"levelo://app?vid=2a12bde8-ca1e-4ca8-8cbb-8dbf9a638106","ios":"levelo://app?vid=2a12bde8-ca1e-4ca8-8cbb-8dbf9a638106"},"vehicle_type_id":"4","last_reported":1734685755,"current_range_meters":26000,"station_id":"ce4bhu92rcd13ifvqi70","pricing_plan_id":"cebpf4jnsgd1na2vs0mg"},{"bike_id":"82b98b08-cf84-40f3-a0a4-1136038c5b5f","system_id":"levelo_inurba_marseille","lat":43.28851,"lon":5.35853,"is_reserved":false,"is_disabled":false,"rental_uris":{"android":"levelo://app?vid=82b98b08-cf84-40f3-a0a4-1136038c5b5f","ios":"levelo://app?vid=82b98b08-cf84-40f3-a0a4-1136038c5b5f"},"vehicle_type_id":"4","last_reported":1734685755,"current_range_meters":35600,"station_id":"ce4bhb12rcd13ifvqem0","pricing_plan_id":"cebpf4jnsgd1na2vs0mg"},{"bike_id":"5cd0e186-dad6-403c-9513-a3f3abdcc32e","system_id":"levelo_inurba_marseille","lat":43.25088,"lon":5.39516,"is_reserved":false,"is_disabled":false,"rental_uris":{"android":"levelo://app?vid=5cd0e186-dad6-403c-9513-a3f3abdcc32e","ios":"levelo://app?vid=5cd0e186-dad6-403c-9513-a3f3abdcc32e"},"vehicle_type_id":"4","last_reported":1734685755,"current_range_meters":27600,"station_id":"ce4bhm12rcd13ifvqgkg","pricing_plan_id":"cebpf4jnsgd1na2vs0mg"},{"bike_id":"65525407-5d4d-4e80-adf5-c2abf1df541e","system_id":"levelo_inurba_marseille","lat":43.26208,"lon":5.37918,"is_reserved":false,"is_disabled":false,"rental_uris":{"android":"levelo://app?vid=65525407-5d4d-4e80-adf5-c2abf1df541e","ios":"levelo://app?vid=65525407-5d4d-4e80-adf5-c2abf1df541e"},"vehicle_type_id":"4","last_reported":1734685755,"current_range_meters":36000,"station_id":"ce4bhjp2rcd13ifvqg90","pricing_plan_id":"cebpf4jnsgd1na2vs0mg"},{"bike_id":"f0bcbb45-555d-4c5b-8534-084b0fafc4e9","system_id":"levelo_inurba_marseille","lat":43.29164,"lon":5.37138,"is_reserved":false,"is_disabled":true,"rental_uris":{"android":"levelo://app?vid=f0bcbb45-555d-4c5b-8534-084b0fafc4e9","ios":"levelo://app?vid=f0bcbb45-555d-4c5b-8534-084b0fafc4e9"},"vehicle_type_id":"4","last_reported":1734685755,"current_range_meters":12000,"station_id":"ce4bha92rcd13ifvqeh0","pricing_plan_id":"cebpf4jnsgd1na2vs0mg"},{"bike_id":"93248546-1886-4dc0-98b3-522c4d7dd935","system_id":"levelo_inurba_marseille","lat":43.30946,"lon":5.39036,"is_reserved":false,"is_disabled":false,"rental_uris":{"android":"levelo://app?vid=93248546-1886-4dc0-98b3-522c4d7dd935","ios":"levelo://app?vid=93248546-1886-4dc0-98b3-522c4d7dd935"},"vehicle_type_id":"4","last_reported":1734685755,"current_range_meters":20400,"station_id":"ce4bgup2rcd13ifvqco0","pricing_plan_id":"cebpf4jnsgd1na2vs0mg"},{"bike_id":"8e37a815-7336-4cd6-a177-d1cd4015a046","system_id":"levelo_inurba_marseille","lat":43.29278,"lon":5.3684,"is_reserved":false,"is_disabled":false,"rental_uris":{"android":"levelo://app?vid=8e37a815-7336-4cd6-a177-d1cd4015a046","ios":"levelo://app?vid=8e37a815-7336-4cd6-a177-d1cd4015a046"},"vehicle_type_id":"4","last_reported":1734685755,"current_range_meters":28000,"station_id":"ce4bhbp2rcd13ifvqesg","pricing_plan_id":"cebpf4jnsgd1na2vs0mg"},{"bike_id":"b002d028-e42c-46e2-93ce-a18a7a90546e","system_id":"levelo_inurba_marseille","lat":43.32278,"lon":5.38282,"is_reserved":false,"is_disabled":false,"rental_uris":{"android":"levelo://app?vid=b002d028-e42c-46e2-93ce-a18a7a90546e","ios":"levelo://app?vid=b002d028-e42c-46e2-93ce-a18a7a90546e"},"vehicle_type_id":"4","last_reported":1734685755,"current_range_meters":18000,"station_id":"ce4bhr12rcd13ifvqhqg","pricing_plan_id":"cebpf4jnsgd1na2vs0mg"},{"bike_id":"8d2d1fc5-8995-4400-8cfc-148fb6ed4a6d","system_id":"levelo_inurba_marseille","lat":43.27491,"lon":5.42453,"is_reserved":false,"is_disabled":false,"rental_uris":{"android":"levelo://app?vid=8d2d1fc5-8995-4400-8cfc-148fb6ed4a6d","ios":"levelo://app?vid=8d2d1fc5-8995-4400-8cfc-148fb6ed4a6d"},"vehicle_type_id":"4","last_reported":1734685755,"current_range_meters":35200,"station_id":"ce4bhn92rcd13ifvqgrg","pricing_plan_id":"cebpf4jnsgd1na2vs0mg"},{"bike_id":"39d6556a-c954-43ed-b77e-24523ab497d1","system_id":"levelo_inurba_marseille","lat":43.26789,"lon":5.39399,"is_reserved":false,"is_disabled":true,"rental_uris":{"android":"levelo://app?vid=39d6556a-c954-43ed-b77e-24523ab497d1","ios":"levelo://app?vid=39d6556a-c954-43ed-b77e-24523ab497d1"},"vehicle_type_id":"4","last_reported":1734685755,"current_range_meters":37600,"station_id":"ce4bhh12rcd13ifvqfg0","pricing_plan_id":"cebpf4jnsgd1na2vs0mg"},{"bike_id":"d452df7b-9cf3-4345-9661-a79d0f4f284d","system_id":"levelo_inurba_marseille","lat":43.3057,"lon":5.36726,"is_reserved":false,"is_disabled":false,"rental_uris":{"android":"levelo://app?vid=d452df7b-9cf3-4345-9661-a79d0f4f284d","ios":"levelo://app?vid=d452df7b-9cf3-4345-9661-a79d0f4f284d"},"vehicle_type_id":"4","last_reported":1734685755,"current_range_meters":38400,"station_id":"ce4bgrp2rcd13ifvqc9g","pricing_plan_id":"cebpf4jnsgd1na2vs0mg"},{"bike_id":"3ad78b44-547e-4d30-acf8-866a37f558e0","system_id":"levelo_inurba_marseille","lat":43.28943,"lon":5.3639,"is_reserved":false,"is_disabled":false,"rental_uris":{"android":"levelo://app?vid=3ad78b44-547e-4d30-acf8-866a37f558e0","ios":"levelo://app?vid=3ad78b44-547e-4d30-acf8-866a37f558e0"},"vehicle_type_id":"4","last_reported":1734685755,"current_range_meters":36000,"station_id":"ce4bhc92rcd13ifvqetg","pricing_plan_id":"cebpf4jnsgd1na2vs0mg"},{"bike_id":"f23efe61-0104-4164-a2df-9fbf471f6daa","system_id":"levelo_inurba_marseille","lat":43.2649,"lon":5.39546,"is_reserved":false,"is_disabled":true,"rental_uris":{"android":"levelo://app?vid=f23efe61-0104-4164-a2df-9fbf471f6daa","ios":"levelo://app?vid=f23efe61-0104-4164-a2df-9fbf471f6daa"},"vehicle_type_id":"4","last_reported":1734685755,"current_range_meters":800,"station_id":"ce4bhi12rcd13ifvqfq0","pricing_plan_id":"cebpf4jnsgd1na2vs0mg"},{"bike_id":"899b6fa9-ab48-4f45-8e49-f4c84cdd2e8f","system_id":"levelo_inurba_marseille","lat":43.28482,"lon":5.38538,"is_reserved":false,"is_disabled":false,"rental_uris":{"android":"levelo://app?vid=899b6fa9-ab48-4f45-8e49-f4c84cdd2e8f","ios":"levelo://app?vid=899b6fa9-ab48-4f45-8e49-f4c84cdd2e8f"},"vehicle_type_id":"4","last_reported":1734685755,"current_range_meters":34000,"station_id":"ce4bh8p2rcd13ifvqeb0","pricing_plan_id":"cebpf4jnsgd1na2vs0mg"},{"bike_id":"b44f9236-c33f-43b3-ab7e-0f32e9951c9e","system_id":"levelo_inurba_marseille","lat":43.231947,"lon":5.355522,"is_reserved":false,"is_disabled":false,"rental_uris":{"android":"levelo://app?vid=b44f9236-c33f-43b3-ab7e-0f32e9951c9e","ios":"levelo://app?vid=b44f9236-c33f-43b3-ab7e-0f32e9951c9e"},"vehicle_type_id":"4","last_reported":1734685755,"current_range_meters":8000,"station_id":"ce4bhu92rcd13ifvqi70","pricing_plan_id":"cebpf4jnsgd1na2vs0mg"},{"bike_id":"4620dcd9-c3a6-4871-8162-c4a28f6d33ca","system_id":"levelo_inurba_marseille","lat":43.31885,"lon":5.40725,"is_reserved":false,"is_disabled":true,"rental_uris":{"android":"levelo://app?vid=4620dcd9-c3a6-4871-8162-c4a28f6d33ca","ios":"levelo://app?vid=4620dcd9-c3a6-4871-8162-c4a28f6d33ca"},"vehicle_type_id":"4","last_reported":1734685755,"current_range_meters":38800,"station_id":"ce4bhq12rcd13ifvqhig","pricing_plan_id":"cebpf4jnsgd1na2vs0mg"},{"bike_id":"7cdaab41-d6a9-411c-91af-08e1cd111a45","system_id":"levelo_inurba_marseille","lat":43.30774,"lon":5.40258,"is_reserved":false,"is_disabled":false,"rental_uris":{"android":"levelo://app?vid=7cdaab41-d6a9-411c-91af-08e1cd111a45","ios":"levelo://app?vid=7cdaab41-d6a9-411c-91af-08e1cd111a45"},"vehicle_type_id":"4","last_reported":1734685755,"current_range_meters":12400,"station_id":"","pricing_plan_id":"cebpf4jnsgd1na2vs0mg"},{"bike_id":"cdaa194a-3a6b-43cd-a06f-27b67d2264fb","system_id":"levelo_inurba_marseille","lat":43.27569,"lon":5.3842,"is_reserved":false,"is_disabled":false,"rental_uris":{"android":"levelo://app?vid=cdaa194a-3a6b-43cd-a06f-27b67d2264fb","ios":"levelo://app?vid=cdaa194a-3a6b-43cd-a06f-27b67d2264fb"},"vehicle_type_id":"4","last_reported":1734685755,"current_range_meters":33200,"station_id":"ce4bhh92rcd13ifvqfi0","pricing_plan_id":"cebpf4jnsgd1na2vs0mg"},{"bike_id":"8e8173aa-a37c-450a-a8fd-4f4388586531","system_id":"levelo_inurba_marseille","lat":43.2695,"lon":5.38629,"is_reserved":false,"is_disabled":false,"rental_uris":{"android":"levelo://app?vid=8e8173aa-a37c-450a-a8fd-4f4388586531","ios":"levelo://app?vid=8e8173aa-a37c-450a-a8fd-4f4388586531"},"vehicle_type_id":"4","last_reported":1734685755,"current_range_meters":38800,"station_id":"ce4bhh92rcd13ifvqfh0","pricing_plan_id":"cebpf4jnsgd1na2vs0mg"},{"bike_id":"e547e21c-1484-4643-b569-ed0cf2a32d36","system_id":"levelo_inurba_marseille","lat":43.24662,"lon":5.38184,"is_reserved":false,"is_disabled":false,"rental_uris":{"android":"levelo://app?vid=e547e21c-1484-4643-b569-ed0cf2a32d36","ios":"levelo://app?vid=e547e21c-1484-4643-b569-ed0cf2a32d36"},"vehicle_type_id":"4","last_reported":1734685755,"current_range_meters":38800,"station_id":"ce4bhih2rcd13ifvqfr0","pricing_plan_id":"cebpf4jnsgd1na2vs0mg"},{"bike_id":"a75b08f1-37cc-41c5-95db-2b9ed81dc942","system_id":"levelo_inurba_marseille","lat":43.29726,"lon":5.37686,"is_reserved":false,"is_disabled":false,"rental_uris":{"android":"levelo://app?vid=a75b08f1-37cc-41c5-95db-2b9ed81dc942","ios":"levelo://app?vid=a75b08f1-37cc-41c5-95db-2b9ed81dc942"},"vehicle_type_id":"4","last_reported":1734685755,"current_range_meters":25200,"station_id":"ce4bgkh2rcd13ifvqbl0","pricing_plan_id":"cebpf4jnsgd1na2vs0mg"},{"bike_id":"7f26a9f5-a8ad-47b3-9fb1-698bff1dae74","system_id":"levelo_inurba_marseille","lat":43.30276,"lon":5.37691,"is_reserved":false,"is_disabled":false,"rental_uris":{"android":"levelo://app?vid=7f26a9f5-a8ad-47b3-9fb1-698bff1dae74","ios":"levelo://app?vid=7f26a9f5-a8ad-47b3-9fb1-698bff1dae74"},"vehicle_type_id":"4","last_reported":1734685755,"current_range_meters":28400,"station_id":"ce4bguh2rcd13ifvqcj0","pricing_plan_id":"cebpf4jnsgd1na2vs0mg"},{"bike_id":"aac82ba6-9c5e-4c0c-bcba-2f29bc9f30cd","system_id":"levelo_inurba_marseille","lat":43.29904,"lon":5.38144,"is_reserved":false,"is_disabled":false,"rental_uris":{"android":"levelo://app?vid=aac82ba6-9c5e-4c0c-bcba-2f29bc9f30cd","ios":"levelo://app?vid=aac82ba6-9c5e-4c0c-bcba-2f29bc9f30cd"},"vehicle_type_id":"4","last_reported":1734685755,"current_range_meters":38800,"station_id":"ce4bgj12rcd13ifvqbc0","pricing_plan_id":"cebpf4jnsgd1na2vs0mg"},{"bike_id":"9bb85159-9b97-48c7-8b70-a5ba1a6e19c5","system_id":"levelo_inurba_marseille","lat":43.32474,"lon":5.36546,"is_reserved":false,"is_disabled":false,"rental_uris":{"android":"levelo://app?vid=9bb85159-9b97-48c7-8b70-a5ba1a6e19c5","ios":"levelo://app?vid=9bb85159-9b97-48c7-8b70-a5ba1a6e19c5"},"vehicle_type_id":"4","last_reported":1734685755,"current_range_meters":24800,"station_id":"ce4bhs12rcd13ifvqhvg","pricing_plan_id":"cebpf4jnsgd1na2vs0mg"},{"bike_id":"48bd608f-85bc-4b07-9175-79b02463ae92","system_id":"levelo_inurba_marseille","lat":43.29558,"lon":5.42281,"is_reserved":false,"is_disabled":false,"rental_uris":{"android":"levelo://app?vid=48bd608f-85bc-4b07-9175-79b02463ae92","ios":"levelo://app?vid=48bd608f-85bc-4b07-9175-79b02463ae92"},"vehicle_type_id":"4","last_reported":1734685755,"current_range_meters":36800,"station_id":"ce4bhph2rcd13ifvqhdg","pricing_plan_id":"cebpf4jnsgd1na2vs0mg"},{"bike_id":"94caaf0e-9be5-40fc-9ff0-6cd854a5c343","system_id":"levelo_inurba_marseille","lat":43.30145,"lon":5.38069,"is_reserved":false,"is_disabled":false,"rental_uris":{"android":"levelo://app?vid=94caaf0e-9be5-40fc-9ff0-6cd854a5c343","ios":"levelo://app?vid=94caaf0e-9be5-40fc-9ff0-6cd854a5c343"},"vehicle_type_id":"4","last_reported":1734685755,"current_range_meters":33600,"station_id":"ce4bgjp2rcd13ifvqbh0","pricing_plan_id":"cebpf4jnsgd1na2vs0mg"},{"bike_id":"cf7ee5da-8f20-4e0c-9be2-887033ef8c21","system_id":"levelo_inurba_marseille","lat":43.2993,"lon":5.36542,"is_reserved":false,"is_disabled":false,"rental_uris":{"android":"levelo://app?vid=cf7ee5da-8f20-4e0c-9be2-887033ef8c21","ios":"levelo://app?vid=cf7ee5da-8f20-4e0c-9be2-887033ef8c21"},"vehicle_type_id":"4","last_reported":1734685755,"current_range_meters":28400,"station_id":"ce4bgm92rcd13ifvqbr0","pricing_plan_id":"cebpf4jnsgd1na2vs0mg"},{"bike_id":"b52c10f4-1f06-453c-bfdf-7d6729ecfe9c","system_id":"levelo_inurba_marseille","lat":43.23179,"lon":5.39981,"is_reserved":false,"is_disabled":false,"rental_uris":{"android":"levelo://app?vid=b52c10f4-1f06-453c-bfdf-7d6729ecfe9c","ios":"levelo://app?vid=b52c10f4-1f06-453c-bfdf-7d6729ecfe9c"},"vehicle_type_id":"4","last_reported":1734685755,"current_range_meters":36800,"station_id":"ce4bhn12rcd13ifvqgqg","pricing_plan_id":"cebpf4jnsgd1na2vs0mg"},{"bike_id":"845fdaad-d29e-4d47-92ae-651e3568e95b","system_id":"levelo_inurba_marseille","lat":43.27176,"lon":5.41,"is_reserved":false,"is_disabled":false,"rental_uris":{"android":"levelo://app?vid=845fdaad-d29e-4d47-92ae-651e3568e95b","ios":"levelo://app?vid=845fdaad-d29e-4d47-92ae-651e3568e95b"},"vehicle_type_id":"4","last_reported":1734685755,"current_range_meters":25600,"station_id":"ce4bhl12rcd13ifvqgf0","pricing_plan_id":"cebpf4jnsgd1na2vs0mg"},{"bike_id":"87ea2282-7236-454a-a021-e08bfe13ea3d","system_id":"levelo_inurba_marseille","lat":43.2803,"lon":5.36953,"is_reserved":false,"is_disabled":false,"rental_uris":{"android":"levelo://app?vid=87ea2282-7236-454a-a021-e08bfe13ea3d","ios":"levelo://app?vid=87ea2282-7236-454a-a021-e08bfe13ea3d"},"vehicle_type_id":"4","last_reported":1734685755,"current_range_meters":38800,"station_id":"ce4bha12rcd13ifvqef0","pricing_plan_id":"cebpf4jnsgd1na2vs0mg"},{"bike_id":"8a3dd9b4-294d-40d3-83e2-9a2c6a2086e7","system_id":"levelo_inurba_marseille","lat":43.31116,"lon":5.37769,"is_reserved":false,"is_disabled":false,"rental_uris":{"android":"levelo://app?vid=8a3dd9b4-294d-40d3-83e2-9a2c6a2086e7","ios":"levelo://app?vid=8a3dd9b4-294d-40d3-83e2-9a2c6a2086e7"},"vehicle_type_id":"4","last_reported":1734685755,"current_range_meters":19600,"station_id":"ce4bgt92rcd13ifvqcg0","pricing_plan_id":"cebpf4jnsgd1na2vs0mg"},{"bike_id":"83bd33f2-81c1-4999-b4dc-8d2cd91edab9","system_id":"levelo_inurba_marseille","lat":43.3032,"lon":5.36898,"is_reserved":false,"is_disabled":false,"rental_uris":{"android":"levelo://app?vid=83bd33f2-81c1-4999-b4dc-8d2cd91edab9","ios":"levelo://app?vid=83bd33f2-81c1-4999-b4dc-8d2cd91edab9"},"vehicle_type_id":"4","last_reported":1734685755,"current_range_meters":38800,"station_id":"ce4bgqh2rcd13ifvqc5g","pricing_plan_id":"cebpf4jnsgd1na2vs0mg"},{"bike_id":"3b95446e-20a9-4546-b9fb-c65f80c1f79c","system_id":"levelo_inurba_marseille","lat":43.26062,"lon":5.39396,"is_reserved":false,"is_disabled":false,"rental_uris":{"android":"levelo://app?vid=3b95446e-20a9-4546-b9fb-c65f80c1f79c","ios":"levelo://app?vid=3b95446e-20a9-4546-b9fb-c65f80c1f79c"},"vehicle_type_id":"4","last_reported":1734685755,"current_range_meters":31200,"station_id":"ce4bhh92rcd13ifvqfj0","pricing_plan_id":"cebpf4jnsgd1na2vs0mg"},{"bike_id":"af39883e-4def-404b-abb0-90d1daad048e","system_id":"levelo_inurba_marseille","lat":43.26679,"lon":5.38267,"is_reserved":false,"is_disabled":false,"rental_uris":{"android":"levelo://app?vid=af39883e-4def-404b-abb0-90d1daad048e","ios":"levelo://app?vid=af39883e-4def-404b-abb0-90d1daad048e"},"vehicle_type_id":"4","last_reported":1734685755,"current_range_meters":20000,"station_id":"ce4bhg92rcd13ifvqf90","pricing_plan_id":"cebpf4jnsgd1na2vs0mg"},{"bike_id":"2e0a4273-9b64-4eb1-8d1b-b8e55991eb0a","system_id":"levelo_inurba_marseille","lat":43.272662,"lon":5.400728,"is_reserved":false,"is_disabled":true,"rental_uris":{"android":"levelo://app?vid=2e0a4273-9b64-4eb1-8d1b-b8e55991eb0a","ios":"levelo://app?vid=2e0a4273-9b64-4eb1-8d1b-b8e55991eb0a"},"vehicle_type_id":"4","last_reported":1734685755,"current_range_meters":0,"station_id":"","pricing_plan_id":"cebpf4jnsgd1na2vs0mg"},{"bike_id":"d7dc678d-eb38-44c8-8258-0fa0627b8d3a","system_id":"levelo_inurba_marseille","lat":43.30541,"lon":5.36692,"is_reserved":false,"is_disabled":false,"rental_uris":{"android":"levelo://app?vid=d7dc678d-eb38-44c8-8258-0fa0627b8d3a","ios":"levelo://app?vid=d7dc678d-eb38-44c8-8258-0fa0627b8d3a"},"vehicle_type_id":"4","last_reported":1734685755,"current_range_meters":39200,"station_id":"ce4bgrp2rcd13ifvqc9g","pricing_plan_id":"cebpf4jnsgd1na2vs0mg"},{"bike_id":"bdb247f4-a2b1-4679-a052-64342adaacb2","system_id":"levelo_inurba_marseille","lat":43.30233,"lon":5.4006,"is_reserved":false,"is_disabled":true,"rental_uris":{"android":"levelo://app?vid=bdb247f4-a2b1-4679-a052-64342adaacb2","ios":"levelo://app?vid=bdb247f4-a2b1-4679-a052-64342adaacb2"},"vehicle_type_id":"4","last_reported":1734685755,"current_range_meters":38000,"station_id":"ce4bgvh2rcd13ifvqcs0","pricing_plan_id":"cebpf4jnsgd1na2vs0mg"},{"bike_id":"f957ffa3-7b76-4b18-bb62-81627d313cf8","system_id":"levelo_inurba_marseille","lat":43.231946,"lon":5.355564,"is_reserved":false,"is_disabled":false,"rental_uris":{"android":"levelo://app?vid=f957ffa3-7b76-4b18-bb62-81627d313cf8","ios":"levelo://app?vid=f957ffa3-7b76-4b18-bb62-81627d313cf8"},"vehicle_type_id":"4","last_reported":1734685755,"current_range_meters":30400,"station_id":"ce4bhu92rcd13ifvqi70","pricing_plan_id":"cebpf4jnsgd1na2vs0mg"},{"bike_id":"5dd95ec7-a282-40a6-a0fe-4e2e61de4064","system_id":"levelo_inurba_marseille","lat":43.26344,"lon":5.40143,"is_reserved":false,"is_disabled":true,"rental_uris":{"android":"levelo://app?vid=5dd95ec7-a282-40a6-a0fe-4e2e61de4064","ios":"levelo://app?vid=5dd95ec7-a282-40a6-a0fe-4e2e61de4064"},"vehicle_type_id":"4","last_reported":1734685755,"current_range_meters":8400,"station_id":"","pricing_plan_id":"cebpf4jnsgd1na2vs0mg"},{"bike_id":"7cccbffc-ae58-4362-9820-c8dfa15db301","system_id":"levelo_inurba_marseille","lat":43.29626,"lon":5.37137,"is_reserved":false,"is_disabled":false,"rental_uris":{"android":"levelo://app?vid=7cccbffc-ae58-4362-9820-c8dfa15db301","ios":"levelo://app?vid=7cccbffc-ae58-4362-9820-c8dfa15db301"},"vehicle_type_id":"4","last_reported":1734685755,"current_range_meters":37600,"station_id":"ce4bgnh2rcd13ifvqc0g","pricing_plan_id":"cebpf4jnsgd1na2vs0mg"},{"bike_id":"f81d22a0-033f-4012-a336-8c60d7a0adb3","system_id":"levelo_inurba_marseille","lat":43.289427,"lon":5.363972,"is_reserved":false,"is_disabled":false,"rental_uris":{"android":"levelo://app?vid=f81d22a0-033f-4012-a336-8c60d7a0adb3","ios":"levelo://app?vid=f81d22a0-033f-4012-a336-8c60d7a0adb3"},"vehicle_type_id":"4","last_reported":1734685755,"current_range_meters":28400,"station_id":"ce4bhc92rcd13ifvqetg","pricing_plan_id":"cebpf4jnsgd1na2vs0mg"},{"bike_id":"3c1b48d9-0ee0-4fb8-a73a-93122fd465f2","system_id":"levelo_inurba_marseille","lat":43.27953,"lon":5.4103,"is_reserved":false,"is_disabled":false,"rental_uris":{"android":"levelo://app?vid=3c1b48d9-0ee0-4fb8-a73a-93122fd465f2","ios":"levelo://app?vid=3c1b48d9-0ee0-4fb8-a73a-93122fd465f2"},"vehicle_type_id":"4","last_reported":1734685755,"current_range_meters":23200,"station_id":"ce4bhnp2rcd13ifvqh0g","pricing_plan_id":"cebpf4jnsgd1na2vs0mg"},{"bike_id":"6e703f86-544d-405a-a4b3-f5bb041ef417","system_id":"levelo_inurba_marseille","lat":43.27311,"lon":5.39075,"is_reserved":false,"is_disabled":false,"rental_uris":{"android":"levelo://app?vid=6e703f86-544d-405a-a4b3-f5bb041ef417","ios":"levelo://app?vid=6e703f86-544d-405a-a4b3-f5bb041ef417"},"vehicle_type_id":"4","last_reported":1734685755,"current_range_meters":26000,"station_id":"ce4bhgp2rcd13ifvqfe0","pricing_plan_id":"cebpf4jnsgd1na2vs0mg"},{"bike_id":"2256e953-e04c-4a1a-96b7-b03d74e4d2b6","system_id":"levelo_inurba_marseille","lat":43.24807,"lon":5.37456,"is_reserved":false,"is_disabled":false,"rental_uris":{"android":"levelo://app?vid=2256e953-e04c-4a1a-96b7-b03d74e4d2b6","ios":"levelo://app?vid=2256e953-e04c-4a1a-96b7-b03d74e4d2b6"},"vehicle_type_id":"4","last_reported":1734685755,"current_range_meters":38800,"station_id":"ce4bhgh2rcd13ifvqfb0","pricing_plan_id":"cebpf4jnsgd1na2vs0mg"},{"bike_id":"25ad2c7e-ce1c-455a-94d5-0469c75123e7","system_id":"levelo_inurba_marseille","lat":43.29101,"lon":5.38115,"is_reserved":false,"is_disabled":false,"rental_uris":{"android":"levelo://app?vid=25ad2c7e-ce1c-455a-94d5-0469c75123e7","ios":"levelo://app?vid=25ad2c7e-ce1c-455a-94d5-0469c75123e7"},"vehicle_type_id":"4","last_reported":1734685755,"current_range_meters":19200,"station_id":"ce4bh512rcd13ifvqe2g","pricing_plan_id":"cebpf4jnsgd1na2vs0mg"},{"bike_id":"27ebe5b5-2de9-4d3b-910b-2c04124dac96","system_id":"levelo_inurba_marseille","lat":43.28937,"lon":5.36388,"is_reserved":false,"is_disabled":false,"rental_uris":{"android":"levelo://app?vid=27ebe5b5-2de9-4d3b-910b-2c04124dac96","ios":"levelo://app?vid=27ebe5b5-2de9-4d3b-910b-2c04124dac96"},"vehicle_type_id":"4","last_reported":1734685755,"current_range_meters":8400,"station_id":"ce4bhc92rcd13ifvqetg","pricing_plan_id":"cebpf4jnsgd1na2vs0mg"},{"bike_id":"03ff6c42-b491-462a-abe7-7a27b8e2aec6","system_id":"levelo_inurba_marseille","lat":43.32291,"lon":5.38267,"is_reserved":false,"is_disabled":false,"rental_uris":{"android":"levelo://app?vid=03ff6c42-b491-462a-abe7-7a27b8e2aec6","ios":"levelo://app?vid=03ff6c42-b491-462a-abe7-7a27b8e2aec6"},"vehicle_type_id":"4","last_reported":1734685755,"current_range_meters":4000,"station_id":"ce4bhr12rcd13ifvqhqg","pricing_plan_id":"cebpf4jnsgd1na2vs0mg"},{"bike_id":"19f34006-1dba-4c03-b59a-0511830589aa","system_id":"levelo_inurba_marseille","lat":43.24808,"lon":5.37466,"is_reserved":false,"is_disabled":false,"rental_uris":{"android":"levelo://app?vid=19f34006-1dba-4c03-b59a-0511830589aa","ios":"levelo://app?vid=19f34006-1dba-4c03-b59a-0511830589aa"},"vehicle_type_id":"4","last_reported":1734685755,"current_range_meters":26800,"station_id":"ce4bhgh2rcd13ifvqfb0","pricing_plan_id":"cebpf4jnsgd1na2vs0mg"},{"bike_id":"9d6b51ab-fd14-4c6b-aa24-de45376f78a1","system_id":"levelo_inurba_marseille","lat":43.29913,"lon":5.38142,"is_reserved":false,"is_disabled":false,"rental_uris":{"android":"levelo://app?vid=9d6b51ab-fd14-4c6b-aa24-de45376f78a1","ios":"levelo://app?vid=9d6b51ab-fd14-4c6b-aa24-de45376f78a1"},"vehicle_type_id":"4","last_reported":1734685755,"current_range_meters":39200,"station_id":"ce4bgj12rcd13ifvqbc0","pricing_plan_id":"cebpf4jnsgd1na2vs0mg"},{"bike_id":"d9f737de-f30c-41e2-8fb7-920ef85dea5f","system_id":"levelo_inurba_marseille","lat":43.28351,"lon":5.38097,"is_reserved":false,"is_disabled":false,"rental_uris":{"android":"levelo://app?vid=d9f737de-f30c-41e2-8fb7-920ef85dea5f","ios":"levelo://app?vid=d9f737de-f30c-41e2-8fb7-920ef85dea5f"},"vehicle_type_id":"4","last_reported":1734685755,"current_range_meters":25600,"station_id":"ce4bh412rcd13ifvqdr0","pricing_plan_id":"cebpf4jnsgd1na2vs0mg"},{"bike_id":"e592292d-8432-4857-886c-3d06fc79ea90","system_id":"levelo_inurba_marseille","lat":43.26191,"lon":5.3745,"is_reserved":false,"is_disabled":false,"rental_uris":{"android":"levelo://app?vid=e592292d-8432-4857-886c-3d06fc79ea90","ios":"levelo://app?vid=e592292d-8432-4857-886c-3d06fc79ea90"},"vehicle_type_id":"4","last_reported":1734685755,"current_range_meters":35600,"station_id":"ce4bhgp2rcd13ifvqfc0","pricing_plan_id":"cebpf4jnsgd1na2vs0mg"},{"bike_id":"a0dfb0c2-f096-4e70-9205-40ea66da0aa2","system_id":"levelo_inurba_marseille","lat":43.29935,"lon":5.36552,"is_reserved":false,"is_disabled":false,"rental_uris":{"android":"levelo://app?vid=a0dfb0c2-f096-4e70-9205-40ea66da0aa2","ios":"levelo://app?vid=a0dfb0c2-f096-4e70-9205-40ea66da0aa2"},"vehicle_type_id":"4","last_reported":1734685755,"current_range_meters":31200,"station_id":"ce4bgm92rcd13ifvqbr0","pricing_plan_id":"cebpf4jnsgd1na2vs0mg"},{"bike_id":"71985ef6-0442-4b71-8ef8-5169909e2fcb","system_id":"levelo_inurba_marseille","lat":43.29561,"lon":5.4227,"is_reserved":false,"is_disabled":false,"rental_uris":{"android":"levelo://app?vid=71985ef6-0442-4b71-8ef8-5169909e2fcb","ios":"levelo://app?vid=71985ef6-0442-4b71-8ef8-5169909e2fcb"},"vehicle_type_id":"4","last_reported":1734685755,"current_range_meters":4800,"station_id":"ce4bhph2rcd13ifvqhdg","pricing_plan_id":"cebpf4jnsgd1na2vs0mg"},{"bike_id":"01135f23-8f24-40dc-bcec-b4a361df26eb","system_id":"levelo_inurba_marseille","lat":43.30127,"lon":5.38791,"is_reserved":false,"is_disabled":true,"rental_uris":{"android":"levelo://app?vid=01135f23-8f24-40dc-bcec-b4a361df26eb","ios":"levelo://app?vid=01135f23-8f24-40dc-bcec-b4a361df26eb"},"vehicle_type_id":"4","last_reported":1734685755,"current_range_meters":0,"station_id":"ce4bghh2rcd13ifvqb60","pricing_plan_id":"cebpf4jnsgd1na2vs0mg"},{"bike_id":"1102b4ee-38a4-40e5-b09a-92e42471c8b1","system_id":"levelo_inurba_marseille","lat":43.28716,"lon":5.3793,"is_reserved":false,"is_disabled":false,"rental_uris":{"android":"levelo://app?vid=1102b4ee-38a4-40e5-b09a-92e42471c8b1","ios":"levelo://app?vid=1102b4ee-38a4-40e5-b09a-92e42471c8b1"},"vehicle_type_id":"4","last_reported":1734685755,"current_range_meters":39200,"station_id":"ce4bh9p2rcd13ifvqec0","pricing_plan_id":"cebpf4jnsgd1na2vs0mg"},{"bike_id":"ec91a316-19c8-402f-87c1-4461569e3121","system_id":"levelo_inurba_marseille","lat":43.29622,"lon":5.37163,"is_reserved":false,"is_disabled":true,"rental_uris":{"android":"levelo://app?vid=ec91a316-19c8-402f-87c1-4461569e3121","ios":"levelo://app?vid=ec91a316-19c8-402f-87c1-4461569e3121"},"vehicle_type_id":"4","last_reported":1734685755,"current_range_meters":1200,"station_id":"ce4bgnh2rcd13ifvqc0g","pricing_plan_id":"cebpf4jnsgd1na2vs0mg"},{"bike_id":"27059578-53de-452d-8521-f93268e04e42","system_id":"levelo_inurba_marseille","lat":43.29036,"lon":5.37588,"is_reserved":false,"is_disabled":false,"rental_uris":{"android":"levelo://app?vid=27059578-53de-452d-8521-f93268e04e42","ios":"levelo://app?vid=27059578-53de-452d-8521-f93268e04e42"},"vehicle_type_id":"4","last_reported":1734685755,"current_range_meters":39200,"station_id":"ce4bh692rcd13ifvqe90","pricing_plan_id":"cebpf4jnsgd1na2vs0mg"},{"bike_id":"417a073b-cf91-4508-ab9f-8535be1b2e82","system_id":"levelo_inurba_marseille","lat":43.29175,"lon":5.40213,"is_reserved":false,"is_disabled":false,"rental_uris":{"android":"levelo://app?vid=417a073b-cf91-4508-ab9f-8535be1b2e82","ios":"levelo://app?vid=417a073b-cf91-4508-ab9f-8535be1b2e82"},"vehicle_type_id":"4","last_reported":1734685755,"current_range_meters":26000,"station_id":"ce4bh312rcd13ifvqdk0","pricing_plan_id":"cebpf4jnsgd1na2vs0mg"},{"bike_id":"cc91e18c-31a1-4d61-8bec-2d478014f9b7","system_id":"levelo_inurba_marseille","lat":43.27379,"lon":5.36258,"is_reserved":false,"is_disabled":false,"rental_uris":{"android":"levelo://app?vid=cc91e18c-31a1-4d61-8bec-2d478014f9b7","ios":"levelo://app?vid=cc91e18c-31a1-4d61-8bec-2d478014f9b7"},"vehicle_type_id":"4","last_reported":1734685755,"current_range_meters":29600,"station_id":"ce4bhbh2rcd13ifvqeo0","pricing_plan_id":"cebpf4jnsgd1na2vs0mg"},{"bike_id":"4d6f51cf-535f-46ab-9c23-30092490f727","system_id":"levelo_inurba_marseille","lat":43.29689,"lon":5.37434,"is_reserved":false,"is_disabled":false,"rental_uris":{"android":"levelo://app?vid=4d6f51cf-535f-46ab-9c23-30092490f727","ios":"levelo://app?vid=4d6f51cf-535f-46ab-9c23-30092490f727"},"vehicle_type_id":"4","last_reported":1734685755,"current_range_meters":37600,"station_id":"ce4bgh92rcd13ifvqb50","pricing_plan_id":"cebpf4jnsgd1na2vs0mg"},{"bike_id":"fdfb3580-1002-4881-8a39-36cd06d2a7b8","system_id":"levelo_inurba_marseille","lat":43.28276,"lon":5.350713,"is_reserved":false,"is_disabled":false,"rental_uris":{"android":"levelo://app?vid=fdfb3580-1002-4881-8a39-36cd06d2a7b8","ios":"levelo://app?vid=fdfb3580-1002-4881-8a39-36cd06d2a7b8"},"vehicle_type_id":"4","last_reported":1734685755,"current_range_meters":35200,"station_id":"ce4bhbp2rcd13ifvqerg","pricing_plan_id":"cebpf4jnsgd1na2vs0mg"},{"bike_id":"494c8398-822e-42ee-a7f1-dfd664d1fba7","system_id":"levelo_inurba_marseille","lat":43.23188,"lon":5.35542,"is_reserved":false,"is_disabled":false,"rental_uris":{"android":"levelo://app?vid=494c8398-822e-42ee-a7f1-dfd664d1fba7","ios":"levelo://app?vid=494c8398-822e-42ee-a7f1-dfd664d1fba7"},"vehicle_type_id":"4","last_reported":1734685755,"current_range_meters":36000,"station_id":"ce4bhu92rcd13ifvqi70","pricing_plan_id":"cebpf4jnsgd1na2vs0mg"},{"bike_id":"16c58b96-bed5-4beb-9756-42ede896921f","system_id":"levelo_inurba_marseille","lat":43.28278,"lon":5.35078,"is_reserved":false,"is_disabled":true,"rental_uris":{"android":"levelo://app?vid=16c58b96-bed5-4beb-9756-42ede896921f","ios":"levelo://app?vid=16c58b96-bed5-4beb-9756-42ede896921f"},"vehicle_type_id":"4","last_reported":1734685755,"current_range_meters":38800,"station_id":"ce4bhbp2rcd13ifvqerg","pricing_plan_id":"cebpf4jnsgd1na2vs0mg"},{"bike_id":"1a61938b-ddf4-463c-bccb-fc05dbb6e47f","system_id":"levelo_inurba_marseille","lat":43.26204,"lon":5.37451,"is_reserved":false,"is_disabled":false,"rental_uris":{"android":"levelo://app?vid=1a61938b-ddf4-463c-bccb-fc05dbb6e47f","ios":"levelo://app?vid=1a61938b-ddf4-463c-bccb-fc05dbb6e47f"},"vehicle_type_id":"4","last_reported":1734685755,"current_range_meters":33200,"station_id":"ce4bhgp2rcd13ifvqfc0","pricing_plan_id":"cebpf4jnsgd1na2vs0mg"},{"bike_id":"830e5984-1d52-4113-8f81-b54152428241","system_id":"levelo_inurba_marseille","lat":43.26208,"lon":5.37452,"is_reserved":false,"is_disabled":false,"rental_uris":{"android":"levelo://app?vid=830e5984-1d52-4113-8f81-b54152428241","ios":"levelo://app?vid=830e5984-1d52-4113-8f81-b54152428241"},"vehicle_type_id":"4","last_reported":1734685755,"current_range_meters":35200,"station_id":"ce4bhgp2rcd13ifvqfc0","pricing_plan_id":"cebpf4jnsgd1na2vs0mg"},{"bike_id":"55fa967f-e3e3-42c4-9dd1-2bcbb5fc2d4d","system_id":"levelo_inurba_marseille","lat":43.27227,"lon":5.39069,"is_reserved":false,"is_disabled":false,"rental_uris":{"android":"levelo://app?vid=55fa967f-e3e3-42c4-9dd1-2bcbb5fc2d4d","ios":"levelo://app?vid=55fa967f-e3e3-42c4-9dd1-2bcbb5fc2d4d"},"vehicle_type_id":"4","last_reported":1734685755,"current_range_meters":24800,"station_id":"","pricing_plan_id":"cebpf4jnsgd1na2vs0mg"},{"bike_id":"9e0a9920-d1ae-4ccd-a58f-c78416388400","system_id":"levelo_inurba_marseille","lat":43.27316,"lon":5.39088,"is_reserved":false,"is_disabled":false,"rental_uris":{"android":"levelo://app?vid=9e0a9920-d1ae-4ccd-a58f-c78416388400","ios":"levelo://app?vid=9e0a9920-d1ae-4ccd-a58f-c78416388400"},"vehicle_type_id":"4","last_reported":1734685755,"current_range_meters":39200,"station_id":"ce4bhgp2rcd13ifvqfe0","pricing_plan_id":"cebpf4jnsgd1na2vs0mg"},{"bike_id":"0f4ec653-01cb-4316-8074-2640fe6d260a","system_id":"levelo_inurba_marseille","lat":43.3014,"lon":5.37412,"is_reserved":false,"is_disabled":false,"rental_uris":{"android":"levelo://app?vid=0f4ec653-01cb-4316-8074-2640fe6d260a","ios":"levelo://app?vid=0f4ec653-01cb-4316-8074-2640fe6d260a"},"vehicle_type_id":"4","last_reported":1734685755,"current_range_meters":28800,"station_id":"ce4bgs92rcd13ifvqcc0","pricing_plan_id":"cebpf4jnsgd1na2vs0mg"},{"bike_id":"a2eba22b-b0ee-4005-9bf3-576bb458d391","system_id":"levelo_inurba_marseille","lat":43.279651,"lon":5.387544,"is_reserved":false,"is_disabled":true,"rental_uris":{"android":"levelo://app?vid=a2eba22b-b0ee-4005-9bf3-576bb458d391","ios":"levelo://app?vid=a2eba22b-b0ee-4005-9bf3-576bb458d391"},"vehicle_type_id":"4","last_reported":1734685755,"current_range_meters":0,"station_id":"","pricing_plan_id":"cebpf4jnsgd1na2vs0mg"},{"bike_id":"2661e271-17a3-4f66-b020-e21a855c415e","system_id":"levelo_inurba_marseille","lat":43.29169,"lon":5.37157,"is_reserved":false,"is_disabled":false,"rental_uris":{"android":"levelo://app?vid=2661e271-17a3-4f66-b020-e21a855c415e","ios":"levelo://app?vid=2661e271-17a3-4f66-b020-e21a855c415e"},"vehicle_type_id":"4","last_reported":1734685755,"current_range_meters":33600,"station_id":"ce4bha92rcd13ifvqeh0","pricing_plan_id":"cebpf4jnsgd1na2vs0mg"},{"bike_id":"fcf6f42c-9492-49dd-a9e6-322a50636e12","system_id":"levelo_inurba_marseille","lat":43.31704,"lon":5.37743,"is_reserved":false,"is_disabled":false,"rental_uris":{"android":"levelo://app?vid=fcf6f42c-9492-49dd-a9e6-322a50636e12","ios":"levelo://app?vid=fcf6f42c-9492-49dd-a9e6-322a50636e12"},"vehicle_type_id":"4","last_reported":1734685755,"current_range_meters":11600,"station_id":"ce4bgth2rcd13ifvqch0","pricing_plan_id":"cebpf4jnsgd1na2vs0mg"},{"bike_id":"135cbf9d-cf15-446e-96c6-ebfad115d98d","system_id":"levelo_inurba_marseille","lat":43.337633,"lon":5.37447,"is_reserved":false,"is_disabled":false,"rental_uris":{"android":"levelo://app?vid=135cbf9d-cf15-446e-96c6-ebfad115d98d","ios":"levelo://app?vid=135cbf9d-cf15-446e-96c6-ebfad115d98d"},"vehicle_type_id":"4","last_reported":1734685755,"current_range_meters":38800,"station_id":"","pricing_plan_id":"cebpf4jnsgd1na2vs0mg"},{"bike_id":"6e868a60-9f88-474e-adb5-72cc44996f9b","system_id":"levelo_inurba_marseille","lat":43.29526,"lon":5.375,"is_reserved":false,"is_disabled":false,"rental_uris":{"android":"levelo://app?vid=6e868a60-9f88-474e-adb5-72cc44996f9b","ios":"levelo://app?vid=6e868a60-9f88-474e-adb5-72cc44996f9b"},"vehicle_type_id":"4","last_reported":1734685755,"current_range_meters":36800,"station_id":"ce4bgkp2rcd13ifvqbmg","pricing_plan_id":"cebpf4jnsgd1na2vs0mg"},{"bike_id":"7defd0b3-fac9-4d6e-9dc8-be201cdc19ab","system_id":"levelo_inurba_marseille","lat":43.3018,"lon":5.36608,"is_reserved":false,"is_disabled":false,"rental_uris":{"android":"levelo://app?vid=7defd0b3-fac9-4d6e-9dc8-be201cdc19ab","ios":"levelo://app?vid=7defd0b3-fac9-4d6e-9dc8-be201cdc19ab"},"vehicle_type_id":"4","last_reported":1734685755,"current_range_meters":38800,"station_id":"ce4bgrh2rcd13ifvqc8g","pricing_plan_id":"cebpf4jnsgd1na2vs0mg"},{"bike_id":"33053ff6-38ab-43c8-9125-f013294c4031","system_id":"levelo_inurba_marseille","lat":43.31317,"lon":5.39689,"is_reserved":false,"is_disabled":false,"rental_uris":{"android":"levelo://app?vid=33053ff6-38ab-43c8-9125-f013294c4031","ios":"levelo://app?vid=33053ff6-38ab-43c8-9125-f013294c4031"},"vehicle_type_id":"4","last_reported":1734685755,"current_range_meters":26800,"station_id":"ce4bgvp2rcd13ifvqcu0","pricing_plan_id":"cebpf4jnsgd1na2vs0mg"},