{"last_updated":1702714119,"ttl":30,"version":"2.2","data":{"bikes":[{"bike_id":"1d93e301-3337-44fe-b9c0-7cef80eb0e8f","system_id":"levelo_inurba_marseille","lat":43.309076,"lon":5.368465,"is_reserved":false,"is_disabled":false,"rental_uris":{"android":"levelo://app?vid=1d93e301-3337-44fe-b9c0-7cef80eb0e8f","ios":"levelo://app?vid=1d93e301-3337-44fe-b9c0-7cef80eb0e8f"},"vehicle_type_id":"4","last_reported":1702714119,"current_range_meters":24800,"station_id":"ce4bgn92rcd13ifvqbvg","pricing_plan_id":"free"},{"bike_id":"d33f367f-c488-4341-a51b-59fdf8e6519e","system_id":"levelo_inurba_marseille","lat":43.314811,"lon":5.373103,"is_reserved":false,"is_disabled":false,"rental_uris":{"android":"levelo://app?vid=d33f367f-c488-4341-a51b-59fdf8e6519e","ios":"levelo://app?vid=d33f367f-c488-4341-a51b-59fdf8e6519e"},"vehicle_type_id":"4","last_reported":1702714119,"current_range_meters":26800,"station_id":"ce4bgt12rcd13ifvqcd0","pricing_plan_id":"free"},{"bike_id":"2628431f-da41-45b9-bb5b-b864794506d1","system_id":"levelo_inurba_marseille","lat":43.31442,"lon":5.37343,"is_reserved":false,"is_disabled":false,"rental_uris":{"android":"levelo://app?vid=2628431f-da41-45b9-bb5b-b864794506d1","ios":"levelo://app?vid=2628431f-da41-45b9-bb5b-b864794506d1"},"vehicle_type_id":"4","last_reported":1702714119,"current_range_meters":3200,"station_id":"","pricing_plan_id":"free"},{"bike_id":"115225e0-b2c3-48fd-9ecf-55f4100d1bfc","system_id":"levelo_inurba_marseille","lat":43.309039,"lon":5.371797,"is_reserved":false,"is_disabled":false,"rental_uris":{"android":"levelo://app?vid=115225e0-b2c3-48fd-9ecf-55f4100d1bfc","ios":"levelo://app?vid=115225e0-b2c3-48fd-9ecf-55f4100d1bfc"},"vehicle_type_id":"4","last_reported":1702714119,"current_range_meters":31200,"station_id":"ce4bguh2rcd13ifvqckg","pricing_plan_id":"free"},{"bike_id":"3f8b821f-e430-4a35-bf14-f8b6e777ea11","system_id":"levelo_inurba_marseille","lat":43.313939,"lon":5.375306,"is_reserved":false,"is_disabled":false,"rental_uris":{"android":"levelo://app?vid=3f8b821f-e430-4a35-bf14-f8b6e777ea11","ios":"levelo://app?vid=3f8b821f-e430-4a35-bf14-f8b6e777ea11"},"vehicle_type_id":"4","last_reported":1702714119,"current_range_meters":0,"station_id":"","pricing_plan_id":"free"},{"bike_id":"40909456-432d-45a0-91f6-1f42a4a44e44","system_id":"levelo_inurba_marseille","lat":43.30547,"lon":5.36699,"is_reserved":false,"is_disabled":false,"rental_uris":{"android":"levelo://app?vid=40909456-432d-45a0-91f6-1f42a4a44e44","ios":"levelo://app?vid=40909456-432d-45a0-91f6-1f42a4a44e44"},"vehicle_type_id":"4","last_reported":1702714119,"current_range_meters":26800,"station_id":"ce4bgrp2rcd13ifvqc9g","pricing_plan_id":"free"},{"bike_id":"e9586fdf-36a5-4c22-a890-e5889437c64b","system_id":"levelo_inurba_marseille","lat":43.30547,"lon":5.36703,"is_reserved":false,"is_disabled":false,"rental_uris":{"android":"levelo://app?vid=e9586fdf-36a5-4c22-a890-e5889437c64b","ios":"levelo://app?vid=e9586fdf-36a5-4c22-a890-e5889437c64b"},"vehicle_type_id":"4","last_reported":1702714119,"current_range_meters":26000,"station_id":"ce4bgrp2rcd13ifvqc9g","pricing_plan_id":"free"},{"bike_id":"48a8644b-4648-4c6b-a49b-1f4356fd700f","system_id":"levelo_inurba_marseille","lat":43.305712,"lon":5.365641,"is_reserved":false,"is_disabled":false,"rental_uris":{"android":"levelo://app?vid=48a8644b-4648-4c6b-a49b-1f4356fd700f","ios":"levelo://app?vid=48a8644b-4648-4c6b-a49b-1f4356fd700f"},"vehicle_type_id":"4","last_reported":1702714119,"current_range_meters":26800,"station_id":"ce4bgs12rcd13ifvqcag","pricing_plan_id":"free"},{"bike_id":"c19c84ef-a727-47b3-9338-937ed94b62c3","system_id":"levelo_inurba_marseille","lat":43.305385,"lon":5.367042,"is_reserved":false,"is_disabled":false,"rental_uris":{"android":"levelo://app?vid=c19c84ef-a727-47b3-9338-937ed94b62c3","ios":"levelo://app?vid=c19c84ef-a727-47b3-9338-937ed94b62c3"},"vehicle_type_id":"4","last_reported":1702714119,"current_range_meters":28400,"station_id":"","pricing_plan_id":"free"},{"bike_id":"e37e23b7-7834-4c2d-91eb-9a8e5af24a55","system_id":"levelo_inurba_marseille","lat":43.305712,"lon":5.365641,"is_reserved":false,"is_disabled":false,"rental_uris":{"android":"levelo://app?vid=e37e23b7-7834-4c2d-91eb-9a8e5af24a55","ios":"levelo://app?vid=e37e23b7-7834-4c2d-91eb-9a8e5af24a55"},"vehicle_type_id":"4","last_reported":1702714119,"current_range_meters":29600,"station_id":"ce4bgs12rcd13ifvqcag","pricing_plan_id":"free"},{"bike_id":"12c32355-7746-4f4c-b404-f7aa9cc47f6c","system_id":"levelo_inurba_marseille","lat":43.30537,"lon":5.367,"is_reserved":false,"is_disabled":false,"rental_uris":{"android":"levelo://app?vid=12c32355-7746-4f4c-b404-f7aa9cc47f6c","ios":"levelo://app?vid=12c32355-7746-4f4c-b404-f7aa9cc47f6c"},"vehicle_type_id":"4","last_reported":1702714119,"current_range_meters":28800,"station_id":"ce4bgrp2rcd13ifvqc9g","pricing_plan_id":"free"},{"bike_id":"2386b78f-fa6a-47c4-aafe-2f9c837df8bb","system_id":"levelo_inurba_marseille","lat":43.305706,"lon":5.365654,"is_reserved":false,"is_disabled":false,"rental_uris":{"android":"levelo://app?vid=2386b78f-fa6a-47c4-aafe-2f9c837df8bb","ios":"levelo://app?vid=2386b78f-fa6a-47c4-aafe-2f9c837df8bb"},"vehicle_type_id":"4","last_reported":1702714119,"current_range_meters":28800,"station_id":"ce4bgs12rcd13ifvqcag","pricing_plan_id":"free"},{"bike_id":"84a5f670-9700-41e6-a936-fef740287a5e","system_id":"levelo_inurba_marseille","lat":43.30534,"lon":5.36696,"is_reserved":false,"is_disabled":false,"rental_uris":{"android":"levelo://app?vid=84a5f670-9700-41e6-a936-fef740287a5e","ios":"levelo://app?vid=84a5f670-9700-41e6-a936-fef740287a5e"},"vehicle_type_id":"4","last_reported":1702714119,"current_range_meters":10400,"station_id":"ce4bgrp2rcd13ifvqc9g","pricing_plan_id":"free"},{"bike_id":"7cd97a8f-948a-43b9-8b30-8710a955902f","system_id":"levelo_inurba_marseille","lat":43.3054,"lon":5.36528,"is_reserved":false,"is_disabled":false,"rental_uris":{"android":"levelo://app?vid=7cd97a8f-948a-43b9-8b30-8710a955902f","ios":"levelo://app?vid=7cd97a8f-948a-43b9-8b30-8710a955902f"},"vehicle_type_id":"4","last_reported":1702714119,"current_range_meters":30400,"station_id":"ce4bgs12rcd13ifvqcag","pricing_plan_id":"free"},{"bike_id":"955e4ab2-16e5-44e8-a986-a2f50ff96c06","system_id":"levelo_inurba_marseille","lat":43.305382,"lon":5.365389,"is_reserved":false,"is_disabled":false,"rental_uris":{"android":"levelo://app?vid=955e4ab2-16e5-44e8-a986-a2f50ff96c06","ios":"levelo://app?vid=955e4ab2-16e5-44e8-a986-a2f50ff96c06"},"vehicle_type_id":"4","last_reported":1702714119,"current_range_meters":16400,"station_id":"","pricing_plan_id":"free"},{"bike_id":"2cf38736-5162-4ed8-8ba6-39709262172a","system_id":"levelo_inurba_marseille","lat":43.305706,"lon":5.365654,"is_reserved":false,"is_disabled":false,"rental_uris":{"android":"levelo://app?vid=2cf38736-5162-4ed8-8ba6-39709262172a","ios":"levelo://app?vid=2cf38736-5162-4ed8-8ba6-39709262172a"},"vehicle_type_id":"4","last_reported":1702714119,"current_range_meters":28800,"station_id":"ce4bgs12rcd13ifvqcag","pricing_plan_id":"free"},{"bike_id":"77bb4192-0079-476c-82f6-7c18e34e71e4","system_id":"levelo_inurba_marseille","lat":43.305706,"lon":5.365654,"is_reserved":false,"is_disabled":false,"rental_uris":{"android":"levelo://app?vid=77bb4192-0079-476c-82f6-7c18e34e71e4","ios":"levelo://app?vid=77bb4192-0079-476c-82f6-7c18e34e71e4"},"vehicle_type_id":"4","last_reported":1702714119,"current_range_meters":30400,"station_id":"ce4bgs12rcd13ifvqcag","pricing_plan_id":"free"},{"bike_id":"8ab71366-54ca-4726-9b32-f34a44413829","system_id":"levelo_inurba_marseille","lat":43.305989,"lon":5.37225,"is_reserved":false,"is_disabled":false,"rental_uris":{"android":"levelo://app?vid=8ab71366-54ca-4726-9b32-f34a44413829","ios":"levelo://app?vid=8ab71366-54ca-4726-9b32-f34a44413829"},"vehicle_type_id":"4","last_reported":1702714119,"current_range_meters":28000,"station_id":"ce4bgqh2rcd13ifvqc4g","pricing_plan_id":"free"},{"bike_id":"37480a4d-1ce9-421b-8587-12d2f7ed17e2","system_id":"levelo_inurba_marseille","lat":43.305989,"lon":5.37225,"is_reserved":false,"is_disabled":false,"rental_uris":{"android":"levelo://app?vid=37480a4d-1ce9-421b-8587-12d2f7ed17e2","ios":"levelo://app?vid=37480a4d-1ce9-421b-8587-12d2f7ed17e2"},"vehicle_type_id":"4","last_reported":1702714119,"current_range_meters":30000,"station_id":"ce4bgqh2rcd13ifvqc4g","pricing_plan_id":"free"},{"bike_id":"e172c963-750d-4c43-8d62-81cc7d1a450b","system_id":"levelo_inurba_marseille","lat":43.311205,"lon":5.377639,"is_reserved":false,"is_disabled":false,"rental_uris":{"android":"levelo://app?vid=e172c963-750d-4c43-8d62-81cc7d1a450b","ios":"levelo://app?vid=e172c963-750d-4c43-8d62-81cc7d1a450b"},"vehicle_type_id":"4","last_reported":1702714119,"current_range_meters":29600,"station_id":"ce4bgt92rcd13ifvqcg0","pricing_plan_id":"free"},{"bike_id":"e74aec2d-5977-4835-a0ef-ff9144d01f7e","system_id":"levelo_inurba_marseille","lat":43.311177,"lon":5.377637,"is_reserved":false,"is_disabled":false,"rental_uris":{"android":"levelo://app?vid=e74aec2d-5977-4835-a0ef-ff9144d01f7e","ios":"levelo://app?vid=e74aec2d-5977-4835-a0ef-ff9144d01f7e"},"vehicle_type_id":"4","last_reported":1702714119,"current_range_meters":30400,"station_id":"ce4bgt92rcd13ifvqcg0","pricing_plan_id":"free"},{"bike_id":"da1adf6b-e342-42cc-a38f-572258e7207f","system_id":"levelo_inurba_marseille","lat":43.311144,"lon":5.377693,"is_reserved":false,"is_disabled":false,"rental_uris":{"android":"levelo://app?vid=da1adf6b-e342-42cc-a38f-572258e7207f","ios":"levelo://app?vid=da1adf6b-e342-42cc-a38f-572258e7207f"},"vehicle_type_id":"4","last_reported":1702714119,"current_range_meters":20800,"station_id":"ce4bgt92rcd13ifvqcg0","pricing_plan_id":"free"},{"bike_id":"0f7506b8-446e-4484-9730-ec67e05e0215","system_id":"levelo_inurba_marseille","lat":43.3111,"lon":5.3777,"is_reserved":false,"is_disabled":false,"rental_uris":{"android":"levelo://app?vid=0f7506b8-446e-4484-9730-ec67e05e0215","ios":"levelo://app?vid=0f7506b8-446e-4484-9730-ec67e05e0215"},"vehicle_type_id":"4","last_reported":1702714119,"current_range_meters":26400,"station_id":"ce4bgt92rcd13ifvqcg0","pricing_plan_id":"free"},{"bike_id":"e30f309c-04d2-491d-b9e3-70ce3f330fc8","system_id":"levelo_inurba_marseille","lat":43.31118,"lon":5.37773,"is_reserved":false,"is_disabled":false,"rental_uris":{"android":"levelo://app?vid=e30f309c-04d2-491d-b9e3-70ce3f330fc8","ios":"levelo://app?vid=e30f309c-04d2-491d-b9e3-70ce3f330fc8"},"vehicle_type_id":"4","last_reported":1702714119,"current_range_meters":29600,"station_id":"ce4bgt92rcd13ifvqcg0","pricing_plan_id":"free"},{"bike_id":"64b875e9-8014-4720-8f36-19ba9cf363eb","system_id":"levelo_inurba_marseille","lat":43.30781,"lon":5.37644,"is_reserved":false,"is_disabled":false,"rental_uris":{"android":"levelo://app?vid=64b875e9-8014-4720-8f36-19ba9cf363eb","ios":"levelo://app?vid=64b875e9-8014-4720-8f36-19ba9cf363eb"},"vehicle_type_id":"4","last_reported":1702714119,"current_range_meters":25600,"station_id":"ce4bgv92rcd13ifvqcq0","pricing_plan_id":"free"},{"bike_id":"8f2f2472-686d-4d1b-bd99-8d9acdd0522f","system_id":"levelo_inurba_marseille","lat":43.30781,"lon":5.3765,"is_reserved":false,"is_disabled":false,"rental_uris":{"android":"levelo://app?vid=8f2f2472-686d-4d1b-bd99-8d9acdd0522f","ios":"levelo://app?vid=8f2f2472-686d-4d1b-bd99-8d9acdd0522f"},"vehicle_type_id":"4","last_reported":1702714119,"current_range_meters":23200,"station_id":"ce4bgv92rcd13ifvqcq0","pricing_plan_id":"free"},{"bike_id":"6ae9e17e-b14c-4a90-bd24-d90f689dba63","system_id":"levelo_inurba_marseille","lat":43.307945,"lon":5.376487,"is_reserved":false,"is_disabled":false,"rental_uris":{"android":"levelo://app?vid=6ae9e17e-b14c-4a90-bd24-d90f689dba63","ios":"levelo://app?vid=6ae9e17e-b14c-4a90-bd24-d90f689dba63"},"vehicle_type_id":"4","last_reported":1702714119,"current_range_meters":27600,"station_id":"ce4bgv92rcd13ifvqcq0","pricing_plan_id":"free"},{"bike_id":"9a557d8f-d5f1-4bc5-8063-680898b9e532","system_id":"levelo_inurba_marseille","lat":43.307945,"lon":5.376487,"is_reserved":false,"is_disabled":false,"rental_uris":{"android":"levelo://app?vid=9a557d8f-d5f1-4bc5-8063-680898b9e532","ios":"levelo://app?vid=9a557d8f-d5f1-4bc5-8063-680898b9e532"},"vehicle_type_id":"4","last_reported":1702714119,"current_range_meters":30400,"station_id":"ce4bgv92rcd13ifvqcq0","pricing_plan_id":"free"},{"bike_id":"1cac14e1-4099-455b-ab55-73d699c3e506","system_id":"levelo_inurba_marseille","lat":43.307945,"lon":5.376487,"is_reserved":false,"is_disabled":false,"rental_uris":{"android":"levelo://app?vid=1cac14e1-4099-455b-ab55-73d699c3e506","ios":"levelo://app?vid=1cac14e1-4099-455b-ab55-73d699c3e506"},"vehicle_type_id":"4","last_reported":1702714119,"current_range_meters":20800,"station_id":"ce4bgv92rcd13ifvqcq0","pricing_plan_id":"free"},{"bike_id":"e80b0dce-ff66-4d99-b5a3-df1e3fc4a4b1","system_id":"levelo_inurba_marseille","lat":43.303046,"lon":5.368981,"is_reserved":false,"is_disabled":false,"rental_uris":{"android":"levelo://app?vid=e80b0dce-ff66-4d99-b5a3-df1e3fc4a4b1","ios":"levelo://app?vid=e80b0dce-ff66-4d99-b5a3-df1e3fc4a4b1"},"vehicle_type_id":"4","last_reported":1702714119,"current_range_meters":30400,"station_id":"ce4bgqh2rcd13ifvqc5g","pricing_plan_id":"free"},{"bike_id":"112889bc-8d0f-431d-9767-314715ea602b","system_id":"levelo_inurba_marseille","lat":43.315558,"lon":5.380082,"is_reserved":false,"is_disabled":false,"rental_uris":{"android":"levelo://app?vid=112889bc-8d0f-431d-9767-314715ea602b","ios":"levelo://app?vid=112889bc-8d0f-431d-9767-314715ea602b"},"vehicle_type_id":"4","last_reported":1702714119,"current_range_meters":17200,"station_id":"ce4bhsp2rcd13ifvqi50","pricing_plan_id":"free"},{"bike_id":"fd3a7999-081d-41ef-8c59-6ea3058d0711","system_id":"levelo_inurba_marseille","lat":43.301939,"lon":5.366286,"is_reserved":false,"is_disabled":false,"rental_uris":{"android":"levelo://app?vid=fd3a7999-081d-41ef-8c59-6ea3058d0711","ios":"levelo://app?vid=fd3a7999-081d-41ef-8c59-6ea3058d0711"},"vehicle_type_id":"4","last_reported":1702714119,"current_range_meters":22000,"station_id":"ce4bgrh2rcd13ifvqc8g","pricing_plan_id":"free"},{"bike_id":"62a80a59-0d16-4b69-b1f6-92dd57e87a46","system_id":"levelo_inurba_marseille","lat":43.301939,"lon":5.366286,"is_reserved":false,"is_disabled":false,"rental_uris":{"android":"levelo://app?vid=62a80a59-0d16-4b69-b1f6-92dd57e87a46","ios":"levelo://app?vid=62a80a59-0d16-4b69-b1f6-92dd57e87a46"},"vehicle_type_id":"4","last_reported":1702714119,"current_range_meters":26400,"station_id":"ce4bgrh2rcd13ifvqc8g","pricing_plan_id":"free"},{"bike_id":"592b6fc6-be19-4042-a701-afe743c10025","system_id":"levelo_inurba_marseille","lat":43.30808,"lon":5.38154,"is_reserved":false,"is_disabled":false,"rental_uris":{"android":"levelo://app?vid=592b6fc6-be19-4042-a701-afe743c10025","ios":"levelo://app?vid=592b6fc6-be19-4042-a701-afe743c10025"},"vehicle_type_id":"4","last_reported":1702714119,"current_range_meters":28400,"station_id":"ce4bgt12rcd13ifvqce0","pricing_plan_id":"free"},{"bike_id":"30875250-a2a6-4d0e-85c2-0c9f8054357d","system_id":"levelo_inurba_marseille","lat":43.304606,"lon":5.379026,"is_reserved":false,"is_disabled":false,"rental_uris":{"android":"levelo://app?vid=30875250-a2a6-4d0e-85c2-0c9f8054357d","ios":"levelo://app?vid=30875250-a2a6-4d0e-85c2-0c9f8054357d"},"vehicle_type_id":"4","last_reported":1702714119,"current_range_meters":31200,"station_id":"ce4bgup2rcd13ifvqcn0","pricing_plan_id":"free"},{"bike_id":"476f9859-a189-453e-8792-5bf67b3102a7","system_id":"levelo_inurba_marseille","lat":43.304606,"lon":5.379026,"is_reserved":false,"is_disabled":false,"rental_uris":{"android":"levelo://app?vid=476f9859-a189-453e-8792-5bf67b3102a7","ios":"levelo://app?vid=476f9859-a189-453e-8792-5bf67b3102a7"},"vehicle_type_id":"4","last_reported":1702714119,"current_range_meters":20800,"station_id":"ce4bgup2rcd13ifvqcn0","pricing_plan_id":"free"},{"bike_id":"8d0764f7-c6ec-46ef-9112-b98e0cf7975f","system_id":"levelo_inurba_marseille","lat":43.304606,"lon":5.379026,"is_reserved":false,"is_disabled":false,"rental_uris":{"android":"levelo://app?vid=8d0764f7-c6ec-46ef-9112-b98e0cf7975f","ios":"levelo://app?vid=8d0764f7-c6ec-46ef-9112-b98e0cf7975f"},"vehicle_type_id":"4","last_reported":1702714119,"current_range_meters":13600,"station_id":"ce4bgup2rcd13ifvqcn0","pricing_plan_id":"free"},{"bike_id":"9c248663-03d1-415b-88d2-6bfbc9175a63","system_id":"levelo_inurba_marseille","lat":43.304606,"lon":5.379026,"is_reserved":false,"is_disabled":false,"rental_uris":{"android":"levelo://app?vid=9c248663-03d1-415b-88d2-6bfbc9175a63","ios":"levelo://app?vid=9c248663-03d1-415b-88d2-6bfbc9175a63"},"vehicle_type_id":"4","last_reported":1702714119,"current_range_meters":26400,"station_id":"ce4bgup2rcd13ifvqcn0","pricing_plan_id":"free"},{"bike_id":"a5b876e7-cddc-4a09-86af-507e6df4bb42","system_id":"levelo_inurba_marseille","lat":43.304606,"lon":5.379026,"is_reserved":false,"is_disabled":false,"rental_uris":{"android":"levelo://app?vid=a5b876e7-cddc-4a09-86af-507e6df4bb42","ios":"levelo://app?vid=a5b876e7-cddc-4a09-86af-507e6df4bb42"},"vehicle_type_id":"4","last_reported":1702714119,"current_range_meters":23600,"station_id":"ce4bgup2rcd13ifvqcn0","pricing_plan_id":"free"},{"bike_id":"7fcc8528-baa5-45bb-8c34-3502f29dfee7","system_id":"levelo_inurba_marseille","lat":43.304606,"lon":5.379026,"is_reserved":false,"is_disabled":false,"rental_uris":{"android":"levelo://app?vid=7fcc8528-baa5-45bb-8c34-3502f29dfee7","ios":"levelo://app?vid=7fcc8528-baa5-45bb-8c34-3502f29dfee7"},"vehicle_type_id":"4","last_reported":1702714119,"current_range_meters":31200,"station_id":"ce4bgup2rcd13ifvqcn0","pricing_plan_id":"free"},{"bike_id":"59c69b7b-d415-4ac3-b7a7-e7939df95624","system_id":"levelo_inurba_marseille","lat":43.304606,"lon":5.379026,"is_reserved":false,"is_disabled":false,"rental_uris":{"android":"levelo://app?vid=59c69b7b-d415-4ac3-b7a7-e7939df95624","ios":"levelo://app?vid=59c69b7b-d415-4ac3-b7a7-e7939df95624"},"vehicle_type_id":"4","last_reported":1702714119,"current_range_meters":24800,"station_id":"ce4bgup2rcd13ifvqcn0","pricing_plan_id":"free"},{"bike_id":"ff22a7f5-e6c2-45e5-b067-48d8fb909076","system_id":"levelo_inurba_marseille","lat":43.30461,"lon":5.37902,"is_reserved":false,"is_disabled":false,"rental_uris":{"android":"levelo://app?vid=ff22a7f5-e6c2-45e5-b067-48d8fb909076","ios":"levelo://app?vid=ff22a7f5-e6c2-45e5-b067-48d8fb909076"},"vehicle_type_id":"4","last_reported":1702714119,"current_range_meters":22000,"station_id":"ce4bgup2rcd13ifvqcn0","pricing_plan_id":"free"},{"bike_id":"13aa9d0e-58cc-4fec-a94a-ab3f7b882878","system_id":"levelo_inurba_marseille","lat":43.304606,"lon":5.379026,"is_reserved":false,"is_disabled":false,"rental_uris":{"android":"levelo://app?vid=13aa9d0e-58cc-4fec-a94a-ab3f7b882878","ios":"levelo://app?vid=13aa9d0e-58cc-4fec-a94a-ab3f7b882878"},"vehicle_type_id":"4","last_reported":1702714119,"current_range_meters":27600,"station_id":"ce4bgup2rcd13ifvqcn0","pricing_plan_id":"free"},{"bike_id":"3ec6da86-b6f8-43fb-a36f-5b0aa8c723a9","system_id":"levelo_inurba_marseille","lat":43.304606,"lon":5.379026,"is_reserved":false,"is_disabled":false,"rental_uris":{"android":"levelo://app?vid=3ec6da86-b6f8-43fb-a36f-5b0aa8c723a9","ios":"levelo://app?vid=3ec6da86-b6f8-43fb-a36f-5b0aa8c723a9"},"vehicle_type_id":"4","last_reported":1702714119,"current_range_meters":31200,"station_id":"ce4bgup2rcd13ifvqcn0","pricing_plan_id":"free"},{"bike_id":"3fc14349-ff7e-4c8c-8a67-43206deb9329","system_id":"levelo_inurba_marseille","lat":43.304606,"lon":5.379026,"is_reserved":false,"is_disabled":false,"rental_uris":{"android":"levelo://app?vid=3fc14349-ff7e-4c8c-8a67-43206deb9329","ios":"levelo://app?vid=3fc14349-ff7e-4c8c-8a67-43206deb9329"},"vehicle_type_id":"4","last_reported":1702714119,"current_range_meters":30000,"station_id":"ce4bgup2rcd13ifvqcn0","pricing_plan_id":"free"},{"bike_id":"e3c53d49-cf48-407c-b2a4-f4810ee52a2f","system_id":"levelo_inurba_marseille","lat":43.304606,"lon":5.379026,"is_reserved":false,"is_disabled":false,"rental_uris":{"android":"levelo://app?vid=e3c53d49-cf48-407c-b2a4-f4810ee52a2f","ios":"levelo://app?vid=e3c53d49-cf48-407c-b2a4-f4810ee52a2f"},"vehicle_type_id":"4","last_reported":1702714119,"current_range_meters":14800,"station_id":"ce4bgup2rcd13ifvqcn0","pricing_plan_id":"free"},{"bike_id":"dfe62985-6f65-471f-8bdb-4e96693a7937","system_id":"levelo_inurba_marseille","lat":43.32477,"lon":5.36568,"is_reserved":false,"is_disabled":false,"rental_uris":{"android":"levelo://app?vid=dfe62985-6f65-471f-8bdb-4e96693a7937","ios":"levelo://app?vid=dfe62985-6f65-471f-8bdb-4e96693a7937"},"vehicle_type_id":"4","last_reported":1702714119,"current_range_meters":18800,"station_id":"ce4bhs12rcd13ifvqhvg","pricing_plan_id":"free"},{"bike_id":"f1cde3ff-6cd4-4e86-99bc-06e7a73fc0a0","system_id":"levelo_inurba_marseille","lat":43.324771,"lon":5.36557,"is_reserved":false,"is_disabled":false,"rental_uris":{"android":"levelo://app?vid=f1cde3ff-6cd4-4e86-99bc-06e7a73fc0a0","ios":"levelo://app?vid=f1cde3ff-6cd4-4e86-99bc-06e7a73fc0a0"},"vehicle_type_id":"4","last_reported":1702714119,"current_range_meters":18000,"station_id":"ce4bhs12rcd13ifvqhvg","pricing_plan_id":"free"},{"bike_id":"88f7ea2a-62f7-4a88-9e9d-900940b4d7e5","system_id":"levelo_inurba_marseille","lat":43.324771,"lon":5.36557,"is_reserved":false,"is_disabled":false,"rental_uris":{"android":"levelo://app?vid=88f7ea2a-62f7-4a88-9e9d-900940b4d7e5","ios":"levelo://app?vid=88f7ea2a-62f7-4a88-9e9d-900940b4d7e5"},"vehicle_type_id":"4","last_reported":1702714119,"current_range_meters":17200,"station_id":"ce4bhs12rcd13ifvqhvg","pricing_plan_id":"free"},{"bike_id":"9c42c642-6faf-430f-9e6e-7cdf80f7ada0","system_id":"levelo_inurba_marseille","lat":43.30299,"lon":5.37701,"is_reserved":false,"is_disabled":false,"rental_uris":{"android":"levelo://app?vid=9c42c642-6faf-430f-9e6e-7cdf80f7ada0","ios":"levelo://app?vid=9c42c642-6faf-430f-9e6e-7cdf80f7ada0"},"vehicle_type_id":"4","last_reported":1702714119,"current_range_meters":28800,"station_id":"ce4bguh2rcd13ifvqcj0","pricing_plan_id":"free"},{"bike_id":"bae35c7a-4a97-4af1-8e9f-dcedf04f5262","system_id":"levelo_inurba_marseille","lat":43.302784,"lon":5.377158,"is_reserved":false,"is_disabled":false,"rental_uris":{"android":"levelo://app?vid=bae35c7a-4a97-4af1-8e9f-dcedf04f5262","ios":"levelo://app?vid=bae35c7a-4a97-4af1-8e9f-dcedf04f5262"},"vehicle_type_id":"4","last_reported":1702714119,"current_range_meters":27200,"station_id":"ce4bguh2rcd13ifvqcj0","pricing_plan_id":"free"},{"bike_id":"22dac74e-e661-444b-8f06-ce0dd3721dfc","system_id":"levelo_inurba_marseille","lat":43.305364,"lon":5.384119,"is_reserved":false,"is_disabled":false,"rental_uris":{"android":"levelo://app?vid=22dac74e-e661-444b-8f06-ce0dd3721dfc","ios":"levelo://app?vid=22dac74e-e661-444b-8f06-ce0dd3721dfc"},"vehicle_type_id":"4","last_reported":1702714119,"current_range_meters":23200,"station_id":"ce4bgg92rcd13ifvqb30","pricing_plan_id":"free"},{"bike_id":"0c208b11-c85e-4c6b-800a-944331396b21","system_id":"levelo_inurba_marseille","lat":43.305364,"lon":5.384119,"is_reserved":false,"is_disabled":false,"rental_uris":{"android":"levelo://app?vid=0c208b11-c85e-4c6b-800a-944331396b21","ios":"levelo://app?vid=0c208b11-c85e-4c6b-800a-944331396b21"},"vehicle_type_id":"4","last_reported":1702714119,"current_range_meters":17200,"station_id":"ce4bgg92rcd13ifvqb30","pricing_plan_id":"free"},{"bike_id":"420a4b1b-5d5c-46bb-ae69-5cf27bd32f1a","system_id":"levelo_inurba_marseille","lat":43.298433,"lon":5.362774,"is_reserved":false,"is_disabled":false,"rental_uris":{"android":"levelo://app?vid=420a4b1b-5d5c-46bb-ae69-5cf27bd32f1a","ios":"levelo://app?vid=420a4b1b-5d5c-46bb-ae69-5cf27bd32f1a"},"vehicle_type_id":"4","last_reported":1702714119,"current_range_meters":30800,"station_id":"ce4bgpp2rcd13ifvqc3g","pricing_plan_id":"free"},{"bike_id":"c4e77394-aef9-4077-b745-e99148625344","system_id":"levelo_inurba_marseille","lat":43.32733,"lon":5.36707,"is_reserved":false,"is_disabled":false,"rental_uris":{"android":"levelo://app?vid=c4e77394-aef9-4077-b745-e99148625344","ios":"levelo://app?vid=c4e77394-aef9-4077-b745-e99148625344"},"vehicle_type_id":"4","last_reported":1702714119,"current_range_meters":23600,"station_id":"","pricing_plan_id":"free"},{"bike_id":"819cb438-2e9c-4e0b-902b-5e19ef554d5c","system_id":"levelo_inurba_marseille","lat":43.30547,"lon":5.384379,"is_reserved":false,"is_disabled":false,"rental_uris":{"android":"levelo://app?vid=819cb438-2e9c-4e0b-902b-5e19ef554d5c","ios":"levelo://app?vid=819cb438-2e9c-4e0b-902b-5e19ef554d5c"},"vehicle_type_id":"4","last_reported":1702714119,"current_range_meters":18000,"station_id":"ce4bgg92rcd13ifvqb30","pricing_plan_id":"free"},{"bike_id":"7641fd56-c595-4a08-b22c-98431b79f274","system_id":"levelo_inurba_marseille","lat":43.29573,"lon":5.367355,"is_reserved":false,"is_disabled":false,"rental_uris":{"android":"levelo://app?vid=7641fd56-c595-4a08-b22c-98431b79f274","ios":"levelo://app?vid=7641fd56-c595-4a08-b22c-98431b79f274"},"vehicle_type_id":"4","last_reported":1702714119,"current_range_meters":27200,"station_id":"ce4bgph2rcd13ifvqc2g","pricing_plan_id":"free"},{"bike_id":"268f0176-7f5b-4aaa-8768-ae1cc0456545","system_id":"levelo_inurba_marseille","lat":43.299028,"lon":5.381509,"is_reserved":false,"is_disabled":false,"rental_uris":{"android":"levelo://app?vid=268f0176-7f5b-4aaa-8768-ae1cc0456545","ios":"levelo://app?vid=268f0176-7f5b-4aaa-8768-ae1cc0456545"},"vehicle_type_id":"4","last_reported":1702714119,"current_range_meters":18000,"station_id":"ce4bgj12rcd13ifvqbc0","pricing_plan_id":"free"},{"bike_id":"858e7ea5-0497-4af5-9631-90251214dba0","system_id":"levelo_inurba_marseille","lat":43.299028,"lon":5.381509,"is_reserved":false,"is_disabled":false,"rental_uris":{"android":"levelo://app?vid=858e7ea5-0497-4af5-9631-90251214dba0","ios":"levelo://app?vid=858e7ea5-0497-4af5-9631-90251214dba0"},"vehicle_type_id":"4","last_reported":1702714119,"current_range_meters":29200,"station_id":"ce4bgj12rcd13ifvqbc0","pricing_plan_id":"free"},{"bike_id":"663d0f88-bc7b-439f-9d6a-2be0aba05dd6","system_id":"levelo_inurba_marseille","lat":43.299028,"lon":5.381509,"is_reserved":false,"is_disabled":false,"rental_uris":{"android":"levelo://app?vid=663d0f88-bc7b-439f-9d6a-2be0aba05dd6","ios":"levelo://app?vid=663d0f88-bc7b-439f-9d6a-2be0aba05dd6"},"vehicle_type_id":"4","last_reported":1702714119,"current_range_meters":29600,"station_id":"ce4bgj12rcd13ifvqbc0","pricing_plan_id":"free"},{"bike_id":"6a92d143-df05-4222-a6ab-e8ea4b2194a2","system_id":"levelo_inurba_marseille","lat":43.296935,"lon":5.376544,"is_reserved":false,"is_disabled":false,"rental_uris":{"android":"levelo://app?vid=6a92d143-df05-4222-a6ab-e8ea4b2194a2","ios":"levelo://app?vid=6a92d143-df05-4222-a6ab-e8ea4b2194a2"},"vehicle_type_id":"4","last_reported":1702714119,"current_range_meters":31200,"station_id":"ce4bgkh2rcd13ifvqbl0","pricing_plan_id":"free"},{"bike_id":"96972bbd-e564-46fe-9240-e40a81dbdb31","system_id":"levelo_inurba_marseille","lat":43.29807,"lon":5.38102,"is_reserved":false,"is_disabled":false,"rental_uris":{"android":"levelo://app?vid=96972bbd-e564-46fe-9240-e40a81dbdb31","ios":"levelo://app?vid=96972bbd-e564-46fe-9240-e40a81dbdb31"},"vehicle_type_id":"4","last_reported":1702714119,"current_range_meters":27600,"station_id":"ce4bgip2rcd13ifvqbb0","pricing_plan_id":"free"},{"bike_id":"5a660306-705c-4267-88e8-5798b208671c","system_id":"levelo_inurba_marseille","lat":43.295748,"lon":5.37522,"is_reserved":false,"is_disabled":false,"rental_uris":{"android":"levelo://app?vid=5a660306-705c-4267-88e8-5798b208671c","ios":"levelo://app?vid=5a660306-705c-4267-88e8-5798b208671c"},"vehicle_type_id":"4","last_reported":1702714119,"current_range_meters":27200,"station_id":"ce4bgh92rcd13ifvqb50","pricing_plan_id":"free"},{"bike_id":"177a9aa2-5abe-4be9-be84-49eaac04ba51","system_id":"levelo_inurba_marseille","lat":43.29798,"lon":5.38108,"is_reserved":false,"is_disabled":false,"rental_uris":{"android":"levelo://app?vid=177a9aa2-5abe-4be9-be84-49eaac04ba51","ios":"levelo://app?vid=177a9aa2-5abe-4be9-be84-49eaac04ba51"},"vehicle_type_id":"4","last_reported":1702714119,"current_range_meters":30400,"station_id":"ce4bgip2rcd13ifvqbb0","pricing_plan_id":"free"},{"bike_id":"2c048e88-0c2a-4989-b647-64b42c16da45","system_id":"levelo_inurba_marseille","lat":43.297898,"lon":5.38109,"is_reserved":false,"is_disabled":false,"rental_uris":{"android":"levelo://app?vid=2c048e88-0c2a-4989-b647-64b42c16da45","ios":"levelo://app?vid=2c048e88-0c2a-4989-b647-64b42c16da45"},"vehicle_type_id":"4","last_reported":1702714119,"current_range_meters":29600,"station_id":"","pricing_plan_id":"free"},{"bike_id":"b58bbb5a-1d33-489e-8554-a1ef5fa625f8","system_id":"levelo_inurba_marseille","lat":43.295748,"lon":5.37522,"is_reserved":false,"is_disabled":false,"rental_uris":{"android":"levelo://app?vid=b58bbb5a-1d33-489e-8554-a1ef5fa625f8","ios":"levelo://app?vid=b58bbb5a-1d33-489e-8554-a1ef5fa625f8"},"vehicle_type_id":"4","last_reported":1702714119,"current_range_meters":29200,"station_id":"ce4bgh92rcd13ifvqb50","pricing_plan_id":"free"},{"bike_id":"dc4ac81a-8211-472c-8f2e-db9a96f655bf","system_id":"levelo_inurba_marseille","lat":43.297897,"lon":5.38113,"is_reserved":false,"is_disabled":false,"rental_uris":{"android":"levelo://app?vid=dc4ac81a-8211-472c-8f2e-db9a96f655bf","ios":"levelo://app?vid=dc4ac81a-8211-472c-8f2e-db9a96f655bf"},"vehicle_type_id":"4","last_reported":1702714119,"current_range_meters":29600,"station_id":"","pricing_plan_id":"free"},{"bike_id":"6ced0f9b-cc25-4c88-b6b9-16ef10a0eebf","system_id":"levelo_inurba_marseille","lat":43.296263,"lon":5.377094,"is_reserved":false,"is_disabled":false,"rental_uris":{"android":"levelo://app?vid=6ced0f9b-cc25-4c88-b6b9-16ef10a0eebf","ios":"levelo://app?vid=6ced0f9b-cc25-4c88-b6b9-16ef10a0eebf"},"vehicle_type_id":"4","last_reported":1702714119,"current_range_meters":30400,"station_id":"ce4bgi92rcd13ifvqb90","pricing_plan_id":"free"},{"bike_id":"8e5cd4a4-0ce4-44b6-9360-536e819b3c12","system_id":"levelo_inurba_marseille","lat":43.304278,"lon":5.388868,"is_reserved":false,"is_disabled":false,"rental_uris":{"android":"levelo://app?vid=8e5cd4a4-0ce4-44b6-9360-536e819b3c12","ios":"levelo://app?vid=8e5cd4a4-0ce4-44b6-9360-536e819b3c12"},"vehicle_type_id":"4","last_reported":1702714119,"current_range_meters":20000,"station_id":"ce4bgk12rcd13ifvqbi0","pricing_plan_id":"free"},{"bike_id":"027cc755-6ec0-45b6-885a-716e0500b32c","system_id":"levelo_inurba_marseille","lat":43.296263,"lon":5.377094,"is_reserved":false,"is_disabled":false,"rental_uris":{"android":"levelo://app?vid=027cc755-6ec0-45b6-885a-716e0500b32c","ios":"levelo://app?vid=027cc755-6ec0-45b6-885a-716e0500b32c"},"vehicle_type_id":"4","last_reported":1702714119,"current_range_meters":26000,"station_id":"ce4bgi92rcd13ifvqb90","pricing_plan_id":"free"},{"bike_id":"d7463468-9119-41f1-8cdb-24ddd6a0f3ab","system_id":"levelo_inurba_marseille","lat":43.295279,"lon":5.375048,"is_reserved":false,"is_disabled":false,"rental_uris":{"android":"levelo://app?vid=d7463468-9119-41f1-8cdb-24ddd6a0f3ab","ios":"levelo://app?vid=d7463468-9119-41f1-8cdb-24ddd6a0f3ab"},"vehicle_type_id":"4","last_reported":1702714119,"current_range_meters":17200,"station_id":"ce4bgkp2rcd13ifvqbmg","pricing_plan_id":"free"},{"bike_id":"84263ff1-8ea2-4f05-85b6-dc50edc11385","system_id":"levelo_inurba_marseille","lat":43.32365,"lon":5.38881,"is_reserved":false,"is_disabled":false,"rental_uris":{"android":"levelo://app?vid=84263ff1-8ea2-4f05-85b6-dc50edc11385","ios":"levelo://app?vid=84263ff1-8ea2-4f05-85b6-dc50edc11385"},"vehicle_type_id":"4","last_reported":1702714119,"current_range_meters":24000,"station_id":"ce4bhqp2rcd13ifvqhog","pricing_plan_id":"free"},{"bike_id":"24c19684-28c7-4ae4-b6ac-1840f97117bb","system_id":"levelo_inurba_marseille","lat":43.32366,"lon":5.38883,"is_reserved":false,"is_disabled":false,"rental_uris":{"android":"levelo://app?vid=24c19684-28c7-4ae4-b6ac-1840f97117bb","ios":"levelo://app?vid=24c19684-28c7-4ae4-b6ac-1840f97117bb"},"vehicle_type_id":"4","last_reported":1702714119,"current_range_meters":800,"station_id":"ce4bhqp2rcd13ifvqhog","pricing_plan_id":"free"},{"bike_id":"70e523c7-bc51-445d-b60f-03e8cfde9a3d","system_id":"levelo_inurba_marseille","lat":43.32366,"lon":5.38885,"is_reserved":false,"is_disabled":false,"rental_uris":{"android":"levelo://app?vid=70e523c7-bc51-445d-b60f-03e8cfde9a3d","ios":"levelo://app?vid=70e523c7-bc51-445d-b60f-03e8cfde9a3d"},"vehicle_type_id":"4","last_reported":1702714119,"current_range_meters":18800,"station_id":"ce4bhqp2rcd13ifvqhog","pricing_plan_id":"free"},{"bike_id":"23483833-7647-4091-91ac-ede8de7eab3c","system_id":"levelo_inurba_marseille","lat":43.32367,"lon":5.388836,"is_reserved":false,"is_disabled":false,"rental_uris":{"android":"levelo://app?vid=23483833-7647-4091-91ac-ede8de7eab3c","ios":"levelo://app?vid=23483833-7647-4091-91ac-ede8de7eab3c"},"vehicle_type_id":"4","last_reported":1702714119,"current_range_meters":12800,"station_id":"ce4bhqp2rcd13ifvqhog","pricing_plan_id":"free"},{"bike_id":"88a7213d-7724-4aee-8473-1eba8927eaf7","system_id":"levelo_inurba_marseille","lat":43.29838,"lon":5.38527,"is_reserved":false,"is_disabled":false,"rental_uris":{"android":"levelo://app?vid=88a7213d-7724-4aee-8473-1eba8927eaf7","ios":"levelo://app?vid=88a7213d-7724-4aee-8473-1eba8927eaf7"},"vehicle_type_id":"4","last_reported":1702714119,"current_range_meters":29600,"station_id":"","pricing_plan_id":"free"},{"bike_id":"8f15676f-5c0e-41f5-9b6f-c54e1c9b3266","system_id":"levelo_inurba_marseille","lat":43.29601,"lon":5.381084,"is_reserved":false,"is_disabled":false,"rental_uris":{"android":"levelo://app?vid=8f15676f-5c0e-41f5-9b6f-c54e1c9b3266","ios":"levelo://app?vid=8f15676f-5c0e-41f5-9b6f-c54e1c9b3266"},"vehicle_type_id":"4","last_reported":1702714119,"current_range_meters":26000,"station_id":"ce4bgl12rcd13ifvqbo0","pricing_plan_id":"free"},{"bike_id":"f8f463b7-d3f4-4efc-bb44-4a0a84e58881","system_id":"levelo_inurba_marseille","lat":43.29308,"lon":5.37186,"is_reserved":false,"is_disabled":false,"rental_uris":{"android":"levelo://app?vid=f8f463b7-d3f4-4efc-bb44-4a0a84e58881","ios":"levelo://app?vid=f8f463b7-d3f4-4efc-bb44-4a0a84e58881"},"vehicle_type_id":"4","last_reported":1702714119,"current_range_meters":22400,"station_id":"ce4bgh92rcd13ifvqb40","pricing_plan_id":"free"},{"bike_id":"ef0f418f-0527-4c36-8845-ae8c66019604","system_id":"levelo_inurba_marseille","lat":43.293009,"lon":5.374584,"is_reserved":false,"is_disabled":false,"rental_uris":{"android":"levelo://app?vid=ef0f418f-0527-4c36-8845-ae8c66019604","ios":"levelo://app?vid=ef0f418f-0527-4c36-8845-ae8c66019604"},"vehicle_type_id":"4","last_reported":1702714119,"current_range_meters":30400,"station_id":"ce4bgi12rcd13ifvqb70","pricing_plan_id":"free"},{"bike_id":"582a8226-9d34-4ae4-b18c-57f7fbf463cc","system_id":"levelo_inurba_marseille","lat":43.2936,"lon":5.37835,"is_reserved":false,"is_disabled":false,"rental_uris":{"android":"levelo://app?vid=582a8226-9d34-4ae4-b18c-57f7fbf463cc","ios":"levelo://app?vid=582a8226-9d34-4ae4-b18c-57f7fbf463cc"},"vehicle_type_id":"4","last_reported":1702714119,"current_range_meters":28000,"station_id":"ce4bgjh2rcd13ifvqbf0","pricing_plan_id":"free"},{"bike_id":"72c935b5-7ee2-498a-919d-2041a7d6ae54","system_id":"levelo_inurba_marseille","lat":43.2936,"lon":5.37835,"is_reserved":false,"is_disabled":false,"rental_uris":{"android":"levelo://app?vid=72c935b5-7ee2-498a-919d-2041a7d6ae54","ios":"levelo://app?vid=72c935b5-7ee2-498a-919d-2041a7d6ae54"},"vehicle_type_id":"4","last_reported":1702714119,"current_range_meters":30400,"station_id":"ce4bgjh2rcd13ifvqbf0","pricing_plan_id":"free"},{"bike_id":"bfa3e981-7f69-47bd-816b-807d8f8a0dfa","system_id":"levelo_inurba_marseille","lat":43.2936,"lon":5.37835,"is_reserved":false,"is_disabled":false,"rental_uris":{"android":"levelo://app?vid=bfa3e981-7f69-47bd-816b-807d8f8a0dfa","ios":"levelo://app?vid=bfa3e981-7f69-47bd-816b-807d8f8a0dfa"},"vehicle_type_id":"4","last_reported":1702714119,"current_range_meters":30000,"station_id":"ce4bgjh2rcd13ifvqbf0","pricing_plan_id":"free"},{"bike_id":"9107ffac-ad3f-407e-85f6-c991ef56b96a","system_id":"levelo_inurba_marseille","lat":43.300852,"lon":5.390859,"is_reserved":false,"is_disabled":false,"rental_uris":{"android":"levelo://app?vid=9107ffac-ad3f-407e-85f6-c991ef56b96a","ios":"levelo://app?vid=9107ffac-ad3f-407e-85f6-c991ef56b96a"},"vehicle_type_id":"4","last_reported":1702714119,"current_range_meters":31200,"station_id":"ce4bh192rcd13ifvqdb0","pricing_plan_id":"free"},{"bike_id":"fdec5a4c-49a3-4317-9409-4f87bd2cac2a","system_id":"levelo_inurba_marseille","lat":43.292311,"lon":5.360731,"is_reserved":false,"is_disabled":false,"rental_uris":{"android":"levelo://app?vid=fdec5a4c-49a3-4317-9409-4f87bd2cac2a","ios":"levelo://app?vid=fdec5a4c-49a3-4317-9409-4f87bd2cac2a"},"vehicle_type_id":"4","last_reported":1702714119,"current_range_meters":21200,"station_id":"ce4bhbh2rcd13ifvqeqg","pricing_plan_id":"free"},{"bike_id":"111119ae-6688-4a0e-946e-810929bd81de","system_id":"levelo_inurba_marseille","lat":43.298766,"lon":5.389062,"is_reserved":false,"is_disabled":false,"rental_uris":{"android":"levelo://app?vid=111119ae-6688-4a0e-946e-810929bd81de","ios":"levelo://app?vid=111119ae-6688-4a0e-946e-810929bd81de"},"vehicle_type_id":"4","last_reported":1702714119,"current_range_meters":5200,"station_id":"","pricing_plan_id":"free"},{"bike_id":"ba3b2162-295b-4d31-8032-6f86cb21df99","system_id":"levelo_inurba_marseille","lat":43.291647,"lon":5.37144,"is_reserved":false,"is_disabled":false,"rental_uris":{"android":"levelo://app?vid=ba3b2162-295b-4d31-8032-6f86cb21df99","ios":"levelo://app?vid=ba3b2162-295b-4d31-8032-6f86cb21df99"},"vehicle_type_id":"4","last_reported":1702714119,"current_range_meters":14400,"station_id":"ce4bha92rcd13ifvqeh0","pricing_plan_id":"free"},{"bike_id":"487691ae-5cc2-42cf-bc80-2404297a81a8","system_id":"levelo_inurba_marseille","lat":43.309047,"lon":5.396551,"is_reserved":false,"is_disabled":false,"rental_uris":{"android":"levelo://app?vid=487691ae-5cc2-42cf-bc80-2404297a81a8","ios":"levelo://app?vid=487691ae-5cc2-42cf-bc80-2404297a81a8"},"vehicle_type_id":"4","last_reported":1702714119,"current_range_meters":30400,"station_id":"ce4bh012rcd13ifvqcv0","pricing_plan_id":"free"},{"bike_id":"d195ec21-de91-44fd-a501-11abffbab2cc","system_id":"levelo_inurba_marseille","lat":43.309038,"lon":5.396546,"is_reserved":false,"is_disabled":false,"rental_uris":{"android":"levelo://app?vid=d195ec21-de91-44fd-a501-11abffbab2cc","ios":"levelo://app?vid=d195ec21-de91-44fd-a501-11abffbab2cc"},"vehicle_type_id":"4","last_reported":1702714119,"current_range_meters":31600,"station_id":"ce4bh012rcd13ifvqcv0","pricing_plan_id":"free"},{"bike_id":"13fbc514-e701-4d27-9689-deadb82d14f9","system_id":"levelo_inurba_marseille","lat":43.313291,"lon":5.396838,"is_reserved":false,"is_disabled":false,"rental_uris":{"android":"levelo://app?vid=13fbc514-e701-4d27-9689-deadb82d14f9","ios":"levelo://app?vid=13fbc514-e701-4d27-9689-deadb82d14f9"},"vehicle_type_id":"4","last_reported":1702714119,"current_range_meters":31600,"station_id":"ce4bgvp2rcd13ifvqcu0","pricing_plan_id":"free"},{"bike_id":"5d8f4c0a-1894-4784-9947-4c7cec0be9bc","system_id":"levelo_inurba_marseille","lat":43.313291,"lon":5.396838,"is_reserved":false,"is_disabled":false,"rental_uris":{"android":"levelo://app?vid=5d8f4c0a-1894-4784-9947-4c7cec0be9bc","ios":"levelo://app?vid=5d8f4c0a-1894-4784-9947-4c7cec0be9bc"},"vehicle_type_id":"4","last_reported":1702714119,"current_range_meters":31600,"station_id":"ce4bgvp2rcd13ifvqcu0","pricing_plan_id":"free"},{"bike_id":"54edd6c6-18d6-4ab4-a90d-63fa7d286eb8","system_id":"levelo_inurba_marseille","lat":43.313291,"lon":5.396838,"is_reserved":false,"is_disabled":false,"rental_uris":{"android":"levelo://app?vid=54edd6c6-18d6-4ab4-a90d-63fa7d286eb8","ios":"levelo://app?vid=54edd6c6-18d6-4ab4-a90d-63fa7d286eb8"},"vehicle_type_id":"4","last_reported":1702714119,"current_range_meters":18400,"station_id":"ce4bgvp2rcd13ifvqcu0","pricing_plan_id":"free"},{"bike_id":"d6589bf1-53ac-4632-9df9-93fa3c4e523a","system_id":"levelo_inurba_marseille","lat":43.313291,"lon":5.396838,"is_reserved":false,"is_disabled":false,"rental_uris":{"android":"levelo://app?vid=d6589bf1-53ac-4632-9df9-93fa3c4e523a","ios":"levelo://app?vid=d6589bf1-53ac-4632-9df9-93fa3c4e523a"},"vehicle_type_id":"4","last_reported":1702714119,"current_range_meters":30800,"station_id":"ce4bgvp2rcd13ifvqcu0","pricing_plan_id":"free"},{"bike_id":"fc6b5c49-6f81-4e94-92ee-ba1060d82113","system_id":"levelo_inurba_marseille","lat":43.309038,"lon":5.396546,"is_reserved":false,"is_disabled":false,"rental_uris":{"android":"levelo://app?vid=fc6b5c49-6f81-4e94-92ee-ba1060d82113","ios":"levelo://app?vid=fc6b5c49-6f81-4e94-92ee-ba1060d82113"},"vehicle_type_id":"4","last_reported":1702714119,"current_range_meters":22800,"station_id":"ce4bh012rcd13ifvqcv0","pricing_plan_id":"free"},{"bike_id":"0f173461-f086-40b4-a02e-3add65999a2a","system_id":"levelo_inurba_marseille","lat":43.29529,"lon":5.385581,"is_reserved":false,"is_disabled":false,"rental_uris":{"android":"levelo://app?vid=0f173461-f086-40b4-a02e-3add65999a2a","ios":"levelo://app?vid=0f173461-f086-40b4-a02e-3add65999a2a"},"vehicle_type_id":"4","last_reported":1702714119,"current_range_meters":30800,"station_id":"ce4bgih2rcd13ifvqba0","pricing_plan_id":"free"},{"bike_id":"e0ec0ac9-c546-4d7a-8436-003af95c0821","system_id":"levelo_inurba_marseille","lat":43.290779,"lon":5.371482,"is_reserved":false,"is_disabled":false,"rental_uris":{"android":"levelo://app?vid=e0ec0ac9-c546-4d7a-8436-003af95c0821","ios":"levelo://app?vid=e0ec0ac9-c546-4d7a-8436-003af95c0821"},"vehicle_type_id":"4","last_reported":1702714119,"current_range_meters":27200,"station_id":"ce4bh5p2rcd13ifvqe4g","pricing_plan_id":"free"},{"bike_id":"8b869b6f-1657-4913-893c-bc0846db2722","system_id":"levelo_inurba_marseille","lat":43.290624,"lon":5.359245,"is_reserved":false,"is_disabled":false,"rental_uris":{"android":"levelo://app?vid=8b869b6f-1657-4913-893c-bc0846db2722","ios":"levelo://app?vid=8b869b6f-1657-4913-893c-bc0846db2722"},"vehicle_type_id":"4","last_reported":1702714119,"current_range_meters":30400,"station_id":"ce4bha92rcd13ifvqeg0","pricing_plan_id":"free"},{"bike_id":"b853abee-dd3b-436d-897e-45b88d47810e","system_id":"levelo_inurba_marseille","lat":43.294153,"lon":5.386305,"is_reserved":false,"is_disabled":false,"rental_uris":{"android":"levelo://app?vid=b853abee-dd3b-436d-897e-45b88d47810e","ios":"levelo://app?vid=b853abee-dd3b-436d-897e-45b88d47810e"},"vehicle_type_id":"4","last_reported":1702714119,"current_range_meters":26800,"station_id":"ce4bh2h2rcd13ifvqdh0","pricing_plan_id":"free"},{"bike_id":"cbebfa2f-5e0b-467b-b456-71a109067310","system_id":"levelo_inurba_marseille","lat":43.304274,"lon":5.397513,"is_reserved":false,"is_disabled":false,"rental_uris":{"android":"levelo://app?vid=cbebfa2f-5e0b-467b-b456-71a109067310","ios":"levelo://app?vid=cbebfa2f-5e0b-467b-b456-71a109067310"},"vehicle_type_id":"4","last_reported":1702714119,"current_range_meters":26000,"station_id":"ce4bh092rcd13ifvqd20","pricing_plan_id":"free"},{"bike_id":"c5a463f7-1648-45c7-a160-e680f9dd236f","system_id":"levelo_inurba_marseille","lat":43.304353,"lon":5.397484,"is_reserved":false,"is_disabled":false,"rental_uris":{"android":"levelo://app?vid=c5a463f7-1648-45c7-a160-e680f9dd236f","ios":"levelo://app?vid=c5a463f7-1648-45c7-a160-e680f9dd236f"},"vehicle_type_id":"4","last_reported":1702714119,"current_range_meters":29200,"station_id":"","pricing_plan_id":"free"},{"bike_id":"76714cfa-f043-40dd-9ea0-ec81f710bb97","system_id":"levelo_inurba_marseille","lat":43.30422,"lon":5.39745,"is_reserved":false,"is_disabled":false,"rental_uris":{"android":"levelo://app?vid=76714cfa-f043-40dd-9ea0-ec81f710bb97","ios":"levelo://app?vid=76714cfa-f043-40dd-9ea0-ec81f710bb97"},"vehicle_type_id":"4","last_reported":1702714119,"current_range_meters":28000,"station_id":"ce4bh092rcd13ifvqd20","pricing_plan_id":"free"},{"bike_id":"69988235-cffb-4d87-9bcd-c9a3795662f1","system_id":"levelo_inurba_marseille","lat":43.304274,"lon":5.397513,"is_reserved":false,"is_disabled":false,"rental_uris":{"android":"levelo://app?vid=69988235-cffb-4d87-9bcd-c9a3795662f1","ios":"levelo://app?vid=69988235-cffb-4d87-9bcd-c9a3795662f1"},"vehicle_type_id":"4","last_reported":1702714119,"current_range_meters":31200,"station_id":"ce4bh092rcd13ifvqd20","pricing_plan_id":"free"},{"bike_id":"26cd9751-2124-49d4-a8cd-d9c1a2c06da0","system_id":"levelo_inurba_marseille","lat":43.29259,"lon":5.38443,"is_reserved":false,"is_disabled":false,"rental_uris":{"android":"levelo://app?vid=26cd9751-2124-49d4-a8cd-d9c1a2c06da0","ios":"levelo://app?vid=26cd9751-2124-49d4-a8cd-d9c1a2c06da0"},"vehicle_type_id":"4","last_reported":1702714119,"current_range_meters":6800,"station_id":"ce4bh692rcd13ifvqea0","pricing_plan_id":"free"},{"bike_id":"c7437b3c-a38e-4b8d-bc32-83c4390baec6","system_id":"levelo_inurba_marseille","lat":43.304274,"lon":5.397513,"is_reserved":false,"is_disabled":false,"rental_uris":{"android":"levelo://app?vid=c7437b3c-a38e-4b8d-bc32-83c4390baec6","ios":"levelo://app?vid=c7437b3c-a38e-4b8d-bc32-83c4390baec6"},"vehicle_type_id":"4","last_reported":1702714119,"current_range_meters":28000,"station_id":"ce4bh092rcd13ifvqd20","pricing_plan_id":"free"},{"bike_id":"a812cc1f-d1d4-4cff-ae4c-3618afe6b015","system_id":"levelo_inurba_marseille","lat":43.33041,"lon":5.3892,"is_reserved":false,"is_disabled":false,"rental_uris":{"android":"levelo://app?vid=a812cc1f-d1d4-4cff-ae4c-3618afe6b015","ios":"levelo://app?vid=a812cc1f-d1d4-4cff-ae4c-3618afe6b015"},"vehicle_type_id":"4","last_reported":1702714119,"current_range_meters":27200,"station_id":"ce4bhr92rcd13ifvqhrg","pricing_plan_id":"free"},{"bike_id":"2af1ec1d-db50-4675-b168-902ca134119a","system_id":"levelo_inurba_marseille","lat":43.33044,"lon":5.38918,"is_reserved":false,"is_disabled":false,"rental_uris":{"android":"levelo://app?vid=2af1ec1d-db50-4675-b168-902ca134119a","ios":"levelo://app?vid=2af1ec1d-db50-4675-b168-902ca134119a"},"vehicle_type_id":"4","last_reported":1702714119,"current_range_meters":0,"station_id":"ce4bhr92rcd13ifvqhrg","pricing_plan_id":"free"},{"bike_id":"1e6d6cf7-3a72-4aad-9e64-ca58c9067bc4","system_id":"levelo_inurba_marseille","lat":43.290104,"lon":5.356111,"is_reserved":false,"is_disabled":false,"rental_uris":{"android":"levelo://app?vid=1e6d6cf7-3a72-4aad-9e64-ca58c9067bc4","ios":"levelo://app?vid=1e6d6cf7-3a72-4aad-9e64-ca58c9067bc4"},"vehicle_type_id":"4","last_reported":1702714119,"current_range_meters":27600,"station_id":"ce4bhb92rcd13ifvqen0","pricing_plan_id":"free"},{"bike_id":"cb10159f-40a9-49eb-9bfc-e1723a0b6a2f","system_id":"levelo_inurba_marseille","lat":43.289741,"lon":5.378306,"is_reserved":false,"is_disabled":false,"rental_uris":{"android":"levelo://app?vid=cb10159f-40a9-49eb-9bfc-e1723a0b6a2f","ios":"levelo://app?vid=cb10159f-40a9-49eb-9bfc-e1723a0b6a2f"},"vehicle_type_id":"4","last_reported":1702714119,"current_range_meters":28800,"station_id":"ce4bh9p2rcd13ifvqed0","pricing_plan_id":"free"},{"bike_id":"45b376b0-3111-480d-8ad9-508f824279c5","system_id":"levelo_inurba_marseille","lat":43.2901,"lon":5.381269,"is_reserved":false,"is_disabled":false,"rental_uris":{"android":"levelo://app?vid=45b376b0-3111-480d-8ad9-508f824279c5","ios":"levelo://app?vid=45b376b0-3111-480d-8ad9-508f824279c5"},"vehicle_type_id":"4","last_reported":1702714119,"current_range_meters":30000,"station_id":"ce4bh4p2rcd13ifvqe1g","pricing_plan_id":"free"},{"bike_id":"2da95cf0-a7df-4717-8d56-bc178e75fb7b","system_id":"levelo_inurba_marseille","lat":43.28846,"lon":5.35846,"is_reserved":false,"is_disabled":false,"rental_uris":{"android":"levelo://app?vid=2da95cf0-a7df-4717-8d56-bc178e75fb7b","ios":"levelo://app?vid=2da95cf0-a7df-4717-8d56-bc178e75fb7b"},"vehicle_type_id":"4","last_reported":1702714119,"current_range_meters":24000,"station_id":"ce4bhb12rcd13ifvqem0","pricing_plan_id":"free"},{"bike_id":"00e23489-fc45-4f8a-86c0-c57b25f07af9","system_id":"levelo_inurba_marseille","lat":43.31279,"lon":5.40163,"is_reserved":false,"is_disabled":false,"rental_uris":{"android":"levelo://app?vid=00e23489-fc45-4f8a-86c0-c57b25f07af9","ios":"levelo://app?vid=00e23489-fc45-4f8a-86c0-c57b25f07af9"},"vehicle_type_id":"4","last_reported":1702714119,"current_range_meters":22000,"station_id":"ce4bh092rcd13ifvqd30","pricing_plan_id":"free"},{"bike_id":"f0cd831c-cfb9-44c7-9487-103b6df223ca","system_id":"levelo_inurba_marseille","lat":43.337445,"lon":5.374592,"is_reserved":false,"is_disabled":false,"rental_uris":{"android":"levelo://app?vid=f0cd831c-cfb9-44c7-9487-103b6df223ca","ios":"levelo://app?vid=f0cd831c-cfb9-44c7-9487-103b6df223ca"},"vehicle_type_id":"4","last_reported":1702714119,"current_range_meters":29200,"station_id":"","pricing_plan_id":"free"},{"bike_id":"763d58d6-fa5b-4e2f-9e51-5f56b510625c","system_id":"levelo_inurba_marseille","lat":43.30939,"lon":5.40143,"is_reserved":false,"is_disabled":false,"rental_uris":{"android":"levelo://app?vid=763d58d6-fa5b-4e2f-9e51-5f56b510625c","ios":"levelo://app?vid=763d58d6-fa5b-4e2f-9e51-5f56b510625c"},"vehicle_type_id":"4","last_reported":1702714119,"current_range_meters":29600,"station_id":"ce4bgvp2rcd13ifvqct0","pricing_plan_id":"free"},{"bike_id":"0e7884e8-2b98-49d9-ae36-33515b930953","system_id":"levelo_inurba_marseille","lat":43.33746,"lon":5.37456,"is_reserved":false,"is_disabled":false,"rental_uris":{"android":"levelo://app?vid=0e7884e8-2b98-49d9-ae36-33515b930953","ios":"levelo://app?vid=0e7884e8-2b98-49d9-ae36-33515b930953"},"vehicle_type_id":"4","last_reported":1702714119,"current_range_meters":28800,"station_id":"","pricing_plan_id":"free"},{"bike_id":"9e4741cf-970a-4d37-b042-b933ca1e72cd","system_id":"levelo_inurba_marseille","lat":43.3094,"lon":5.40145,"is_reserved":false,"is_disabled":false,"rental_uris":{"android":"levelo://app?vid=9e4741cf-970a-4d37-b042-b933ca1e72cd","ios":"levelo://app?vid=9e4741cf-970a-4d37-b042-b933ca1e72cd"},"vehicle_type_id":"4","last_reported":1702714119,"current_range_meters":13600,"station_id":"ce4bgvp2rcd13ifvqct0","pricing_plan_id":"free"},{"bike_id":"189250a1-5934-47cd-aa3d-01791d59bc97","system_id":"levelo_inurba_marseille","lat":43.306412,"lon":5.401035,"is_reserved":false,"is_disabled":false,"rental_uris":{"android":"levelo://app?vid=189250a1-5934-47cd-aa3d-01791d59bc97","ios":"levelo://app?vid=189250a1-5934-47cd-aa3d-01791d59bc97"},"vehicle_type_id":"4","last_reported":1702714119,"current_range_meters":28800,"station_id":"ce4bh112rcd13ifvqda0","pricing_plan_id":"free"},{"bike_id":"04e08174-077d-406e-9800-126d71351cb7","system_id":"levelo_inurba_marseille","lat":43.309258,"lon":5.401438,"is_reserved":false,"is_disabled":false,"rental_uris":{"android":"levelo://app?vid=04e08174-077d-406e-9800-126d71351cb7","ios":"levelo://app?vid=04e08174-077d-406e-9800-126d71351cb7"},"vehicle_type_id":"4","last_reported":1702714119,"current_range_meters":7200,"station_id":"ce4bgvp2rcd13ifvqct0","pricing_plan_id":"free"},{"bike_id":"c2896d5f-fb99-49ba-ad74-87bbd813e6d8","system_id":"levelo_inurba_marseille","lat":43.306412,"lon":5.401035,"is_reserved":false,"is_disabled":false,"rental_uris":{"android":"levelo://app?vid=c2896d5f-fb99-49ba-ad74-87bbd813e6d8","ios":"levelo://app?vid=c2896d5f-fb99-49ba-ad74-87bbd813e6d8"},"vehicle_type_id":"4","last_reported":1702714119,"current_range_meters":28400,"station_id":"ce4bh112rcd13ifvqda0","pricing_plan_id":"free"},{"bike_id":"930bba3a-4350-44cf-bb9b-310a6cbdb5ef","system_id":"levelo_inurba_marseille","lat":43.33749,"lon":5.37461,"is_reserved":false,"is_disabled":false,"rental_uris":{"android":"levelo://app?vid=930bba3a-4350-44cf-bb9b-310a6cbdb5ef","ios":"levelo://app?vid=930bba3a-4350-44cf-bb9b-310a6cbdb5ef"},"vehicle_type_id":"4","last_reported":1702714119,"current_range_meters":24400,"station_id":"","pricing_plan_id":"free"},{"bike_id":"db13f1bd-c719-4bbf-b194-26d268cc755a","system_id":"levelo_inurba_marseille","lat":43.33751,"lon":5.37449,"is_reserved":false,"is_disabled":false,"rental_uris":{"android":"levelo://app?vid=db13f1bd-c719-4bbf-b194-26d268cc755a","ios":"levelo://app?vid=db13f1bd-c719-4bbf-b194-26d268cc755a"},"vehicle_type_id":"4","last_reported":1702714119,"current_range_meters":27200,"station_id":"","pricing_plan_id":"free"},{"bike_id":"2e4c9a65-b80d-445d-a336-1912afda714a","system_id":"levelo_inurba_marseille","lat":43.306412,"lon":5.401035,"is_reserved":false,"is_disabled":false,"rental_uris":{"android":"levelo://app?vid=2e4c9a65-b80d-445d-a336-1912afda714a","ios":"levelo://app?vid=2e4c9a65-b80d-445d-a336-1912afda714a"},"vehicle_type_id":"4","last_reported":1702714119,"current_range_meters":31200,"station_id":"ce4bh112rcd13ifvqda0","pricing_plan_id":"free"},{"bike_id":"f393cc08-b52f-4486-8abc-d4e8aa707b34","system_id":"levelo_inurba_marseille","lat":43.306445,"lon":5.400723,"is_reserved":false,"is_disabled":false,"rental_uris":{"android":"levelo://app?vid=f393cc08-b52f-4486-8abc-d4e8aa707b34","ios":"levelo://app?vid=f393cc08-b52f-4486-8abc-d4e8aa707b34"},"vehicle_type_id":"4","last_reported":1702714119,"current_range_meters":20400,"station_id":"ce4bh112rcd13ifvqda0","pricing_plan_id":"free"},{"bike_id":"a15a6f31-d26a-498f-aab0-fad2629bd007","system_id":"levelo_inurba_marseille","lat":43.337535,"lon":5.37446,"is_reserved":false,"is_disabled":false,"rental_uris":{"android":"levelo://app?vid=a15a6f31-d26a-498f-aab0-fad2629bd007","ios":"levelo://app?vid=a15a6f31-d26a-498f-aab0-fad2629bd007"},"vehicle_type_id":"4","last_reported":1702714119,"current_range_meters":0,"station_id":"","pricing_plan_id":"free"},{"bike_id":"ef80ceab-dc9f-4b6c-8f52-707d5177f481","system_id":"levelo_inurba_marseille","lat":43.33752,"lon":5.37466,"is_reserved":false,"is_disabled":false,"rental_uris":{"android":"levelo://app?vid=ef80ceab-dc9f-4b6c-8f52-707d5177f481","ios":"levelo://app?vid=ef80ceab-dc9f-4b6c-8f52-707d5177f481"},"vehicle_type_id":"4","last_reported":1702714119,"current_range_meters":29600,"station_id":"","pricing_plan_id":"free"},{"bike_id":"1b1bd80c-92ec-4f8e-8e80-a125315f4b22","system_id":"levelo_inurba_marseille","lat":43.337586,"lon":5.374303,"is_reserved":false,"is_disabled":false,"rental_uris":{"android":"levelo://app?vid=1b1bd80c-92ec-4f8e-8e80-a125315f4b22","ios":"levelo://app?vid=1b1bd80c-92ec-4f8e-8e80-a125315f4b22"},"vehicle_type_id":"4","last_reported":1702714119,"current_range_meters":4800,"station_id":"","pricing_plan_id":"free"},{"bike_id":"597b3b0d-46be-434c-a32a-d7e9f399292d","system_id":"levelo_inurba_marseille","lat":43.306361,"lon":5.400748,"is_reserved":false,"is_disabled":false,"rental_uris":{"android":"levelo://app?vid=597b3b0d-46be-434c-a32a-d7e9f399292d","ios":"levelo://app?vid=597b3b0d-46be-434c-a32a-d7e9f399292d"},"vehicle_type_id":"4","last_reported":1702714119,"current_range_meters":11600,"station_id":"ce4bh112rcd13ifvqda0","pricing_plan_id":"free"},{"bike_id":"811eac48-7c36-4ce9-9a27-879aa1e1514e","system_id":"levelo_inurba_marseille","lat":43.337612,"lon":5.374423,"is_reserved":false,"is_disabled":false,"rental_uris":{"android":"levelo://app?vid=811eac48-7c36-4ce9-9a27-879aa1e1514e","ios":"levelo://app?vid=811eac48-7c36-4ce9-9a27-879aa1e1514e"},"vehicle_type_id":"4","last_reported":1702714119,"current_range_meters":24400,"station_id":"","pricing_plan_id":"free"},{"bike_id":"8f32641c-fd17-4d38-919e-3e5b62dff885","system_id":"levelo_inurba_marseille","lat":43.301117,"lon":5.398795,"is_reserved":false,"is_disabled":false,"rental_uris":{"android":"levelo://app?vid=8f32641c-fd17-4d38-919e-3e5b62dff885","ios":"levelo://app?vid=8f32641c-fd17-4d38-919e-3e5b62dff885"},"vehicle_type_id":"4","last_reported":1702714119,"current_range_meters":0,"station_id":"ce4bh0h2rcd13ifvqd40","pricing_plan_id":"free"},{"bike_id":"b9017615-d4ec-4cea-9969-ab56fede6521","system_id":"levelo_inurba_marseille","lat":43.304606,"lon":5.379026,"is_reserved":false,"is_disabled":false,"rental_uris":{"android":"levelo://app?vid=b9017615-d4ec-4cea-9969-ab56fede6521","ios":"levelo://app?vid=b9017615-d4ec-4cea-9969-ab56fede6521"},"vehicle_type_id":"4","last_reported":1702714119,"current_range_meters":21200,"station_id":"ce4bgup2rcd13ifvqcn0","pricing_plan_id":"free"},{"bike_id":"b9f26f65-de14-4a08-a738-6125ff3711a9","system_id":"levelo_inurba_marseille","lat":43.301269,"lon":5.398757,"is_reserved":false,"is_disabled":false,"rental_uris":{"android":"levelo://app?vid=b9f26f65-de14-4a08-a738-6125ff3711a9","ios":"levelo://app?vid=b9f26f65-de14-4a08-a738-6125ff3711a9"},"vehicle_type_id":"4","last_reported":1702714119,"current_range_meters":29200,"station_id":"ce4bh0h2rcd13ifvqd40","pricing_plan_id":"free"},{"bike_id":"abf7f088-accb-43b8-b51b-483832749ae7","system_id":"levelo_inurba_marseille","lat":43.295196,"lon":5.39397,"is_reserved":false,"is_disabled":false,"rental_uris":{"android":"levelo://app?vid=abf7f088-accb-43b8-b51b-483832749ae7","ios":"levelo://app?vid=abf7f088-accb-43b8-b51b-483832749ae7"},"vehicle_type_id":"4","last_reported":1702714119,"current_range_meters":22800,"station_id":"ce4bh292rcd13ifvqdf0","pricing_plan_id":"free"},{"bike_id":"46937d05-36c2-495a-9b30-7603f646a5e5","system_id":"levelo_inurba_marseille","lat":43.307509,"lon":5.402724,"is_reserved":false,"is_disabled":false,"rental_uris":{"android":"levelo://app?vid=46937d05-36c2-495a-9b30-7603f646a5e5","ios":"levelo://app?vid=46937d05-36c2-495a-9b30-7603f646a5e5"},"vehicle_type_id":"4","last_reported":1702714119,"current_range_meters":14800,"station_id":"","pricing_plan_id":"free"},{"bike_id":"246d5fa5-c550-48ea-a6ec-41b624ab5d9f","system_id":"levelo_inurba_marseille","lat":43.286039,"lon":5.370679,"is_reserved":false,"is_disabled":false,"rental_uris":{"android":"levelo://app?vid=246d5fa5-c550-48ea-a6ec-41b624ab5d9f","ios":"levelo://app?vid=246d5fa5-c550-48ea-a6ec-41b624ab5d9f"},"vehicle_type_id":"4","last_reported":1702714119,"current_range_meters":29600,"station_id":"ce4bht12rcd13ifvqi60","pricing_plan_id":"free"},{"bike_id":"8fe2ce97-fea6-4d3a-bbd1-6da7a56bb1d4","system_id":"levelo_inurba_marseille","lat":43.316828,"lon":5.404723,"is_reserved":false,"is_disabled":false,"rental_uris":{"android":"levelo://app?vid=8fe2ce97-fea6-4d3a-bbd1-6da7a56bb1d4","ios":"levelo://app?vid=8fe2ce97-fea6-4d3a-bbd1-6da7a56bb1d4"},"vehicle_type_id":"4","last_reported":1702714119,"current_range_meters":30000,"station_id":"ce4bh012rcd13ifvqd00","pricing_plan_id":"free"},{"bike_id":"15e43c5c-45e9-4cf0-8cb1-213ee8167c83","system_id":"levelo_inurba_marseille","lat":43.316828,"lon":5.404723,"is_reserved":false,"is_disabled":false,"rental_uris":{"android":"levelo://app?vid=15e43c5c-45e9-4cf0-8cb1-213ee8167c83","ios":"levelo://app?vid=15e43c5c-45e9-4cf0-8cb1-213ee8167c83"},"vehicle_type_id":"4","last_reported":1702714119,"current_range_meters":31200,"station_id":"ce4bh012rcd13ifvqd00","pricing_plan_id":"free"},{"bike_id":"6fe0db6b-cb73-4a1a-81c5-de7421a7cc3f","system_id":"levelo_inurba_marseille","lat":43.316828,"lon":5.404723,"is_reserved":false,"is_disabled":false,"rental_uris":{"android":"levelo://app?vid=6fe0db6b-cb73-4a1a-81c5-de7421a7cc3f","ios":"levelo://app?vid=6fe0db6b-cb73-4a1a-81c5-de7421a7cc3f"},"vehicle_type_id":"4","last_reported":1702714119,"current_range_meters":19600,"station_id":"ce4bh012rcd13ifvqd00","pricing_plan_id":"free"},{"bike_id":"5e51ae91-c72f-4edd-86e1-6c212451560b","system_id":"levelo_inurba_marseille","lat":43.316828,"lon":5.404723,"is_reserved":false,"is_disabled":false,"rental_uris":{"android":"levelo://app?vid=5e51ae91-c72f-4edd-86e1-6c212451560b","ios":"levelo://app?vid=5e51ae91-c72f-4edd-86e1-6c212451560b"},"vehicle_type_id":"4","last_reported":1702714119,"current_range_meters":18000,"station_id":"ce4bh012rcd13ifvqd00","pricing_plan_id":"free"},{"bike_id":"81840d09-973c-442b-94b6-30872550d88e","system_id":"levelo_inurba_marseille","lat":43.284538,"lon":5.358657,"is_reserved":false,"is_disabled":false,"rental_uris":{"android":"levelo://app?vid=81840d09-973c-442b-94b6-30872550d88e","ios":"levelo://app?vid=81840d09-973c-442b-94b6-30872550d88e"},"vehicle_type_id":"4","last_reported":1702714119,"current_range_meters":22400,"station_id":"ce4bhah2rcd13ifvqei0","pricing_plan_id":"free"},{"bike_id":"87e6b154-056e-4ecc-bfe8-29383000fcbe","system_id":"levelo_inurba_marseille","lat":43.284538,"lon":5.358657,"is_reserved":false,"is_disabled":false,"rental_uris":{"android":"levelo://app?vid=87e6b154-056e-4ecc-bfe8-29383000fcbe","ios":"levelo://app?vid=87e6b154-056e-4ecc-bfe8-29383000fcbe"},"vehicle_type_id":"4","last_reported":1702714119,"current_range_meters":31600,"station_id":"ce4bhah2rcd13ifvqei0","pricing_plan_id":"free"},{"bike_id":"70846cb5-3948-4958-a7db-55150a19c35a","system_id":"levelo_inurba_marseille","lat":43.284534,"lon":5.358662,"is_reserved":false,"is_disabled":false,"rental_uris":{"android":"levelo://app?vid=70846cb5-3948-4958-a7db-55150a19c35a","ios":"levelo://app?vid=70846cb5-3948-4958-a7db-55150a19c35a"},"vehicle_type_id":"4","last_reported":1702714119,"current_range_meters":27600,"station_id":"ce4bhah2rcd13ifvqei0","pricing_plan_id":"free"},{"bike_id":"5220c138-d038-470d-8d02-b86dcb2c38d7","system_id":"levelo_inurba_marseille","lat":43.284538,"lon":5.358657,"is_reserved":false,"is_disabled":false,"rental_uris":{"android":"levelo://app?vid=5220c138-d038-470d-8d02-b86dcb2c38d7","ios":"levelo://app?vid=5220c138-d038-470d-8d02-b86dcb2c38d7"},"vehicle_type_id":"4","last_reported":1702714119,"current_range_meters":26400,"station_id":"ce4bhah2rcd13ifvqei0","pricing_plan_id":"free"},{"bike_id":"158ebdba-5c18-4ba8-89f2-3c50d6f0e2e6","system_id":"levelo_inurba_marseille","lat":43.284538,"lon":5.358657,"is_reserved":false,"is_disabled":false,"rental_uris":{"android":"levelo://app?vid=158ebdba-5c18-4ba8-89f2-3c50d6f0e2e6","ios":"levelo://app?vid=158ebdba-5c18-4ba8-89f2-3c50d6f0e2e6"},"vehicle_type_id":"4","last_reported":1702714119,"current_range_meters":18000,"station_id":"ce4bhah2rcd13ifvqei0","pricing_plan_id":"free"},{"bike_id":"e975d844-bdb6-4a4d-a916-7bc121752c81","system_id":"levelo_inurba_marseille","lat":43.284538,"lon":5.358657,"is_reserved":false,"is_disabled":false,"rental_uris":{"android":"levelo://app?vid=e975d844-bdb6-4a4d-a916-7bc121752c81","ios":"levelo://app?vid=e975d844-bdb6-4a4d-a916-7bc121752c81"},"vehicle_type_id":"4","last_reported":1702714119,"current_range_meters":31600,"station_id":"ce4bhah2rcd13ifvqei0","pricing_plan_id":"free"},{"bike_id":"999c1c73-14ce-4803-8e6e-121f5dbc97ab","system_id":"levelo_inurba_marseille","lat":43.284534,"lon":5.358662,"is_reserved":false,"is_disabled":false,"rental_uris":{"android":"levelo://app?vid=999c1c73-14ce-4803-8e6e-121f5dbc97ab","ios":"levelo://app?vid=999c1c73-14ce-4803-8e6e-121f5dbc97ab"},"vehicle_type_id":"4","last_reported":1702714119,"current_range_meters":29200,"station_id":"ce4bhah2rcd13ifvqei0","pricing_plan_id":"free"},{"bike_id":"1dc688ff-b84f-4e04-9b9d-e6d9a6525d77","system_id":"levelo_inurba_marseille","lat":43.284534,"lon":5.358662,"is_reserved":false,"is_disabled":false,"rental_uris":{"android":"levelo://app?vid=1dc688ff-b84f-4e04-9b9d-e6d9a6525d77","ios":"levelo://app?vid=1dc688ff-b84f-4e04-9b9d-e6d9a6525d77"},"vehicle_type_id":"4","last_reported":1702714119,"current_range_meters":30800,"station_id":"ce4bhah2rcd13ifvqei0","pricing_plan_id":"free"},{"bike_id":"af03bd75-5a55-42d6-9448-76988b0cd0f5","system_id":"levelo_inurba_marseille","lat":43.284538,"lon":5.358657,"is_reserved":false,"is_disabled":false,"rental_uris":{"android":"levelo://app?vid=af03bd75-5a55-42d6-9448-76988b0cd0f5","ios":"levelo://app?vid=af03bd75-5a55-42d6-9448-76988b0cd0f5"},"vehicle_type_id":"4","last_reported":1702714119,"current_range_meters":23200,"station_id":"ce4bhah2rcd13ifvqei0","pricing_plan_id":"free"},{"bike_id":"e8a3e117-03a8-4be4-94c0-e3dce05c5c03","system_id":"levelo_inurba_marseille","lat":43.284538,"lon":5.358657,"is_reserved":false,"is_disabled":false,"rental_uris":{"android":"levelo://app?vid=e8a3e117-03a8-4be4-94c0-e3dce05c5c03","ios":"levelo://app?vid=e8a3e117-03a8-4be4-94c0-e3dce05c5c03"},"vehicle_type_id":"4","last_reported":1702714119,"current_range_meters":26400,"station_id":"ce4bhah2rcd13ifvqei0","pricing_plan_id":"free"},{"bike_id":"772b75cd-a35c-467d-96c8-5a83277865b3","system_id":"levelo_inurba_marseille","lat":43.28453,"lon":5.35888,"is_reserved":false,"is_disabled":false,"rental_uris":{"android":"levelo://app?vid=772b75cd-a35c-467d-96c8-5a83277865b3","ios":"levelo://app?vid=772b75cd-a35c-467d-96c8-5a83277865b3"},"vehicle_type_id":"4","last_reported":1702714119,"current_range_meters":27600,"station_id":"ce4bhah2rcd13ifvqei0","pricing_plan_id":"free"},{"bike_id":"6e43a5b3-6a28-4cef-9f94-058bebc3864b","system_id":"levelo_inurba_marseille","lat":43.28452,"lon":5.35886,"is_reserved":false,"is_disabled":false,"rental_uris":{"android":"levelo://app?vid=6e43a5b3-6a28-4cef-9f94-058bebc3864b","ios":"levelo://app?vid=6e43a5b3-6a28-4cef-9f94-058bebc3864b"},"vehicle_type_id":"4","last_reported":1702714119,"current_range_meters":22800,"station_id":"ce4bhah2rcd13ifvqei0","pricing_plan_id":"free"},{"bike_id":"5ce61ab0-1a95-42ac-836a-54a34637049c","system_id":"levelo_inurba_marseille","lat":43.286595,"lon":5.386795,"is_reserved":false,"is_disabled":false,"rental_uris":{"android":"levelo://app?vid=5ce61ab0-1a95-42ac-836a-54a34637049c","ios":"levelo://app?vid=5ce61ab0-1a95-42ac-836a-54a34637049c"},"vehicle_type_id":"4","last_reported":1702714119,"current_range_meters":20000,"station_id":"ce4bh492rcd13ifvqdug","pricing_plan_id":"free"},{"bike_id":"a33770df-30d1-4fee-acda-de2b47f9acec","system_id":"levelo_inurba_marseille","lat":43.32339,"lon":5.40613,"is_reserved":false,"is_disabled":false,"rental_uris":{"android":"levelo://app?vid=a33770df-30d1-4fee-acda-de2b47f9acec","ios":"levelo://app?vid=a33770df-30d1-4fee-acda-de2b47f9acec"},"vehicle_type_id":"4","last_reported":1702714119,"current_range_meters":21200,"station_id":"ce4bhq92rcd13ifvqhjg","pricing_plan_id":"free"},{"bike_id":"4e7f35df-b5be-41f8-a088-b359fd0719b0","system_id":"levelo_inurba_marseille","lat":43.323464,"lon":5.406297,"is_reserved":false,"is_disabled":false,"rental_uris":{"android":"levelo://app?vid=4e7f35df-b5be-41f8-a088-b359fd0719b0","ios":"levelo://app?vid=4e7f35df-b5be-41f8-a088-b359fd0719b0"},"vehicle_type_id":"4","last_reported":1702714119,"current_range_meters":27200,"station_id":"ce4bhq92rcd13ifvqhjg","pricing_plan_id":"free"},{"bike_id":"16373837-b161-407f-b0fa-3d0f27559010","system_id":"levelo_inurba_marseille","lat":43.323464,"lon":5.406297,"is_reserved":false,"is_disabled":false,"rental_uris":{"android":"levelo://app?vid=16373837-b161-407f-b0fa-3d0f27559010","ios":"levelo://app?vid=16373837-b161-407f-b0fa-3d0f27559010"},"vehicle_type_id":"4","last_reported":1702714119,"current_range_meters":31200,"station_id":"ce4bhq92rcd13ifvqhjg","pricing_plan_id":"free"},{"bike_id":"7c46ae07-3db5-4d2b-bbe6-31818555f2d8","system_id":"levelo_inurba_marseille","lat":43.284787,"lon":5.384116,"is_reserved":false,"is_disabled":false,"rental_uris":{"android":"levelo://app?vid=7c46ae07-3db5-4d2b-bbe6-31818555f2d8","ios":"levelo://app?vid=7c46ae07-3db5-4d2b-bbe6-31818555f2d8"},"vehicle_type_id":"4","last_reported":1702714119,"current_range_meters":30000,"station_id":"ce4bh512rcd13ifvqe3g","pricing_plan_id":"free"},{"bike_id":"07a27b17-3e39-4fed-90a2-f6b84abe0322","system_id":"levelo_inurba_marseille","lat":43.288459,"lon":5.393277,"is_reserved":false,"is_disabled":false,"rental_uris":{"android":"levelo://app?vid=07a27b17-3e39-4fed-90a2-f6b84abe0322","ios":"levelo://app?vid=07a27b17-3e39-4fed-90a2-f6b84abe0322"},"vehicle_type_id":"4","last_reported":1702714119,"current_range_meters":0,"station_id":"ce4bh2p2rcd13ifvqdi0","pricing_plan_id":"free"},{"bike_id":"2fe30cb8-eda3-4ead-bf01-31e90807706d","system_id":"levelo_inurba_marseille","lat":43.289363,"lon":5.396322,"is_reserved":false,"is_disabled":false,"rental_uris":{"android":"levelo://app?vid=2fe30cb8-eda3-4ead-bf01-31e90807706d","ios":"levelo://app?vid=2fe30cb8-eda3-4ead-bf01-31e90807706d"},"vehicle_type_id":"4","last_reported":1702714119,"current_range_meters":13200,"station_id":"ce4bh3h2rcd13ifvqdn0","pricing_plan_id":"free"},{"bike_id":"2bacdef7-c77f-4916-97d7-3d2d83de6693","system_id":"levelo_inurba_marseille","lat":43.29266,"lon":5.40118,"is_reserved":false,"is_disabled":false,"rental_uris":{"android":"levelo://app?vid=2bacdef7-c77f-4916-97d7-3d2d83de6693","ios":"levelo://app?vid=2bacdef7-c77f-4916-97d7-3d2d83de6693"},"vehicle_type_id":"4","last_reported":1702714119,"current_range_meters":30000,"station_id":"ce4bh312rcd13ifvqdk0","pricing_plan_id":"free"},{"bike_id":"cb7c1465-15f9-45f3-9e6b-4f626c741c83","system_id":"levelo_inurba_marseille","lat":43.282744,"lon":5.350533,"is_reserved":false,"is_disabled":false,"rental_uris":{"android":"levelo://app?vid=cb7c1465-15f9-45f3-9e6b-4f626c741c83","ios":"levelo://app?vid=cb7c1465-15f9-45f3-9e6b-4f626c741c83"},"vehicle_type_id":"4","last_reported":1702714119,"current_range_meters":27200,"station_id":"ce4bhbp2rcd13ifvqerg","pricing_plan_id":"free"},{"bike_id":"ecb0aebc-f285-446f-9a63-74c5c9ef762b","system_id":"levelo_inurba_marseille","lat":43.280382,"lon":5.369291,"is_reserved":false,"is_disabled":false,"rental_uris":{"android":"levelo://app?vid=ecb0aebc-f285-446f-9a63-74c5c9ef762b","ios":"levelo://app?vid=ecb0aebc-f285-446f-9a63-74c5c9ef762b"},"vehicle_type_id":"4","last_reported":1702714119,"current_range_meters":15200,"station_id":"ce4bha12rcd13ifvqef0","pricing_plan_id":"free"},{"bike_id":"866b9d67-381b-4562-a7ca-4f4f676ccc7e","system_id":"levelo_inurba_marseille","lat":43.280382,"lon":5.369291,"is_reserved":false,"is_disabled":false,"rental_uris":{"android":"levelo://app?vid=866b9d67-381b-4562-a7ca-4f4f676ccc7e","ios":"levelo://app?vid=866b9d67-381b-4562-a7ca-4f4f676ccc7e"},"vehicle_type_id":"4","last_reported":1702714119,"current_range_meters":30000,"station_id":"ce4bha12rcd13ifvqef0","pricing_plan_id":"free"},{"bike_id":"62c32a41-5c85-445e-a62d-27f8a6e615c9","system_id":"levelo_inurba_marseille","lat":43.280382,"lon":5.369291,"is_reserved":false,"is_disabled":false,"rental_uris":{"android":"levelo://app?vid=62c32a41-5c85-445e-a62d-27f8a6e615c9","ios":"levelo://app?vid=62c32a41-5c85-445e-a62d-27f8a6e615c9"},"vehicle_type_id":"4","last_reported":1702714119,"current_range_meters":28800,"station_id":"ce4bha12rcd13ifvqef0","pricing_plan_id":"free"},{"bike_id":"491d167f-3979-4af1-9be9-7840e703d79f","system_id":"levelo_inurba_marseille","lat":43.28034,"lon":5.369381,"is_reserved":false,"is_disabled":false,"rental_uris":{"android":"levelo://app?vid=491d167f-3979-4af1-9be9-7840e703d79f","ios":"levelo://app?vid=491d167f-3979-4af1-9be9-7840e703d79f"},"vehicle_type_id":"4","last_reported":1702714119,"current_range_meters":17600,"station_id":"ce4bha12rcd13ifvqef0","pricing_plan_id":"free"},{"bike_id":"e04d024f-d664-423c-b963-3e21ecbf2e8d","system_id":"levelo_inurba_marseille","lat":43.280382,"lon":5.369291,"is_reserved":false,"is_disabled":false,"rental_uris":{"android":"levelo://app?vid=e04d024f-d664-423c-b963-3e21ecbf2e8d","ios":"levelo://app?vid=e04d024f-d664-423c-b963-3e21ecbf2e8d"},"vehicle_type_id":"4","last_reported":1702714119,"current_range_meters":23600,"station_id":"ce4bha12rcd13ifvqef0","pricing_plan_id":"free"},{"bike_id":"9bca6cec-9622-45cb-a8d3-5586517dcf7d","system_id":"levelo_inurba_marseille","lat":43.280305,"lon":5.369409,"is_reserved":false,"is_disabled":false,"rental_uris":{"android":"levelo://app?vid=9bca6cec-9622-45cb-a8d3-5586517dcf7d","ios":"levelo://app?vid=9bca6cec-9622-45cb-a8d3-5586517dcf7d"},"vehicle_type_id":"4","last_reported":1702714119,"current_range_meters":29200,"station_id":"ce4bha12rcd13ifvqef0","pricing_plan_id":"free"},{"bike_id":"51c67930-0f81-4e81-8ba2-97e5f5bf98b2","system_id":"levelo_inurba_marseille","lat":43.280382,"lon":5.369291,"is_reserved":false,"is_disabled":false,"rental_uris":{"android":"levelo://app?vid=51c67930-0f81-4e81-8ba2-97e5f5bf98b2","ios":"levelo://app?vid=51c67930-0f81-4e81-8ba2-97e5f5bf98b2"},"vehicle_type_id":"4","last_reported":1702714119,"current_range_meters":31200,"station_id":"ce4bha12rcd13ifvqef0","pricing_plan_id":"free"},{"bike_id":"2e2d572a-5479-470b-b105-b92bb73f0bac","system_id":"levelo_inurba_marseille","lat":43.29041,"lon":5.399634,"is_reserved":false,"is_disabled":false,"rental_uris":{"android":"levelo://app?vid=2e2d572a-5479-470b-b105-b92bb73f0bac","ios":"levelo://app?vid=2e2d572a-5479-470b-b105-b92bb73f0bac"},"vehicle_type_id":"4","last_reported":1702714119,"current_range_meters":26800,"station_id":"ce4bh392rcd13ifvqdm0","pricing_plan_id":"free"},{"bike_id":"0cb8221b-830e-46cb-aded-694d13994917","system_id":"levelo_inurba_marseille","lat":43.29041,"lon":5.399634,"is_reserved":false,"is_disabled":false,"rental_uris":{"android":"levelo://app?vid=0cb8221b-830e-46cb-aded-694d13994917","ios":"levelo://app?vid=0cb8221b-830e-46cb-aded-694d13994917"},"vehicle_type_id":"4","last_reported":1702714119,"current_range_meters":30000,"station_id":"ce4bh392rcd13ifvqdm0","pricing_plan_id":"free"},{"bike_id":"c388c6e6-3fc9-4686-8d35-352a7d21fc2e","system_id":"levelo_inurba_marseille","lat":43.296263,"lon":5.40601,"is_reserved":false,"is_disabled":false,"rental_uris":{"android":"levelo://app?vid=c388c6e6-3fc9-4686-8d35-352a7d21fc2e","ios":"levelo://app?vid=c388c6e6-3fc9-4686-8d35-352a7d21fc2e"},"vehicle_type_id":"4","last_reported":1702714119,"current_range_meters":22800,"station_id":"ce4bh0h2rcd13ifvqd60","pricing_plan_id":"free"},{"bike_id":"957909a1-8942-42df-be69-e5124932ce4a","system_id":"levelo_inurba_marseille","lat":43.304188,"lon":5.412904,"is_reserved":false,"is_disabled":false,"rental_uris":{"android":"levelo://app?vid=957909a1-8942-42df-be69-e5124932ce4a","ios":"levelo://app?vid=957909a1-8942-42df-be69-e5124932ce4a"},"vehicle_type_id":"4","last_reported":1702714119,"current_range_meters":30000,"station_id":"ce4bhop2rcd13ifvqh8g","pricing_plan_id":"free"},{"bike_id":"e0cf4589-cf18-4a4b-aad9-e4409d47e905","system_id":"levelo_inurba_marseille","lat":43.304188,"lon":5.412904,"is_reserved":false,"is_disabled":false,"rental_uris":{"android":"levelo://app?vid=e0cf4589-cf18-4a4b-aad9-e4409d47e905","ios":"levelo://app?vid=e0cf4589-cf18-4a4b-aad9-e4409d47e905"},"vehicle_type_id":"4","last_reported":1702714119,"current_range_meters":11200,"station_id":"ce4bhop2rcd13ifvqh8g","pricing_plan_id":"free"},{"bike_id":"4c0789c2-2720-468c-bd93-73e470e08992","system_id":"levelo_inurba_marseille","lat":43.304188,"lon":5.412904,"is_reserved":false,"is_disabled":false,"rental_uris":{"android":"levelo://app?vid=4c0789c2-2720-468c-bd93-73e470e08992","ios":"levelo://app?vid=4c0789c2-2720-468c-bd93-73e470e08992"},"vehicle_type_id":"4","last_reported":1702714119,"current_range_meters":27600,"station_id":"ce4bhop2rcd13ifvqh8g","pricing_plan_id":"free"},{"bike_id":"39e1f3b9-6491-4f6d-b448-50f375a06476","system_id":"levelo_inurba_marseille","lat":43.320045,"lon":5.415046,"is_reserved":false,"is_disabled":false,"rental_uris":{"android":"levelo://app?vid=39e1f3b9-6491-4f6d-b448-50f375a06476","ios":"levelo://app?vid=39e1f3b9-6491-4f6d-b448-50f375a06476"},"vehicle_type_id":"4","last_reported":1702714119,"current_range_meters":26800,"station_id":"ce4bhq92rcd13ifvqhkg","pricing_plan_id":"free"},{"bike_id":"1651cfc2-bb0f-4738-aed0-b2466eada4c7","system_id":"levelo_inurba_marseille","lat":43.320045,"lon":5.415046,"is_reserved":false,"is_disabled":false,"rental_uris":{"android":"levelo://app?vid=1651cfc2-bb0f-4738-aed0-b2466eada4c7","ios":"levelo://app?vid=1651cfc2-bb0f-4738-aed0-b2466eada4c7"},"vehicle_type_id":"4","last_reported":1702714119,"current_range_meters":23600,"station_id":"ce4bhq92rcd13ifvqhkg","pricing_plan_id":"free"},{"bike_id":"4c007817-2544-4793-8d53-d6f7096c27d5","system_id":"levelo_inurba_marseille","lat":43.27617,"lon":5.36105,"is_reserved":false,"is_disabled":false,"rental_uris":{"android":"levelo://app?vid=4c007817-2544-4793-8d53-d6f7096c27d5","ios":"levelo://app?vid=4c007817-2544-4793-8d53-d6f7096c27d5"},"vehicle_type_id":"4","last_reported":1702714119,"current_range_meters":19600,"station_id":"ce4bgj92rcd13ifvqbe0","pricing_plan_id":"free"},{"bike_id":"e893d083-1305-4087-b1e2-85456bd1e812","system_id":"levelo_inurba_marseille","lat":43.276157,"lon":5.361113,"is_reserved":false,"is_disabled":false,"rental_uris":{"android":"levelo://app?vid=e893d083-1305-4087-b1e2-85456bd1e812","ios":"levelo://app?vid=e893d083-1305-4087-b1e2-85456bd1e812"},"vehicle_type_id":"4","last_reported":1702714119,"current_range_meters":16800,"station_id":"ce4bgj92rcd13ifvqbe0","pricing_plan_id":"free"},{"bike_id":"c4501f43-dd49-4980-8097-14646dbf78c0","system_id":"levelo_inurba_marseille","lat":43.303837,"lon":5.418724,"is_reserved":false,"is_disabled":false,"rental_uris":{"android":"levelo://app?vid=c4501f43-dd49-4980-8097-14646dbf78c0","ios":"levelo://app?vid=c4501f43-dd49-4980-8097-14646dbf78c0"},"vehicle_type_id":"4","last_reported":1702714119,"current_range_meters":19200,"station_id":"ce4bhop2rcd13ifvqh7g","pricing_plan_id":"free"},{"bike_id":"83badb27-cbbe-4778-a803-709a57d63666","system_id":"levelo_inurba_marseille","lat":43.278399,"lon":5.392139,"is_reserved":false,"is_disabled":false,"rental_uris":{"android":"levelo://app?vid=83badb27-cbbe-4778-a803-709a57d63666","ios":"levelo://app?vid=83badb27-cbbe-4778-a803-709a57d63666"},"vehicle_type_id":"4","last_reported":1702714119,"current_range_meters":23200,"station_id":"ce4bhjp2rcd13ifvqga0","pricing_plan_id":"free"},{"bike_id":"6e5354e9-808a-46aa-a367-f7473c5da546","system_id":"levelo_inurba_marseille","lat":43.278399,"lon":5.392139,"is_reserved":false,"is_disabled":false,"rental_uris":{"android":"levelo://app?vid=6e5354e9-808a-46aa-a367-f7473c5da546","ios":"levelo://app?vid=6e5354e9-808a-46aa-a367-f7473c5da546"},"vehicle_type_id":"4","last_reported":1702714119,"current_range_meters":4400,"station_id":"ce4bhjp2rcd13ifvqga0","pricing_plan_id":"free"},{"bike_id":"ef98bf92-9e1c-46c5-a5b5-2cda60e67176","system_id":"levelo_inurba_marseille","lat":43.278399,"lon":5.392139,"is_reserved":false,"is_disabled":false,"rental_uris":{"android":"levelo://app?vid=ef98bf92-9e1c-46c5-a5b5-2cda60e67176","ios":"levelo://app?vid=ef98bf92-9e1c-46c5-a5b5-2cda60e67176"},"vehicle_type_id":"4","last_reported":1702714119,"current_range_meters":10000,"station_id":"ce4bhjp2rcd13ifvqga0","pricing_plan_id":"free"},{"bike_id":"10eadedf-b2e9-4bb9-a1f0-77df69175439","system_id":"levelo_inurba_marseille","lat":43.284263,"lon":5.408565,"is_reserved":false,"is_disabled":false,"rental_uris":{"android":"levelo://app?vid=10eadedf-b2e9-4bb9-a1f0-77df69175439","ios":"levelo://app?vid=10eadedf-b2e9-4bb9-a1f0-77df69175439"},"vehicle_type_id":"4","last_reported":1702714119,"current_range_meters":13200,"station_id":"","pricing_plan_id":"free"},{"bike_id":"7b7bfaee-0e53-4459-bbde-886e6805f2a5","system_id":"levelo_inurba_marseille","lat":43.317121,"lon":5.423936,"is_reserved":false,"is_disabled":false,"rental_uris":{"android":"levelo://app?vid=7b7bfaee-0e53-4459-bbde-886e6805f2a5","ios":"levelo://app?vid=7b7bfaee-0e53-4459-bbde-886e6805f2a5"},"vehicle_type_id":"4","last_reported":1702714119,"current_range_meters":28400,"station_id":"ce4bhp92rcd13ifvqhbg","pricing_plan_id":"free"},{"bike_id":"e7f3199b-16c7-4ec8-844a-fb3b2f233e43","system_id":"levelo_inurba_marseille","lat":43.317121,"lon":5.423936,"is_reserved":false,"is_disabled":false,"rental_uris":{"android":"levelo://app?vid=e7f3199b-16c7-4ec8-844a-fb3b2f233e43","ios":"levelo://app?vid=e7f3199b-16c7-4ec8-844a-fb3b2f233e43"},"vehicle_type_id":"4","last_reported":1702714119,"current_range_meters":31600,"station_id":"ce4bhp92rcd13ifvqhbg","pricing_plan_id":"free"},{"bike_id":"13b63d08-aaa3-4985-bf57-1f32727c58d1","system_id":"levelo_inurba_marseille","lat":43.310785,"lon":5.424305,"is_reserved":false,"is_disabled":false,"rental_uris":{"android":"levelo://app?vid=13b63d08-aaa3-4985-bf57-1f32727c58d1","ios":"levelo://app?vid=13b63d08-aaa3-4985-bf57-1f32727c58d1"},"vehicle_type_id":"4","last_reported":1702714119,"current_range_meters":30000,"station_id":"ce4bhp92rcd13ifvqhag","pricing_plan_id":"free"},{"bike_id":"93a9a0b0-f09a-4679-973e-f3ebca0caf36","system_id":"levelo_inurba_marseille","lat":43.310785,"lon":5.424305,"is_reserved":false,"is_disabled":false,"rental_uris":{"android":"levelo://app?vid=93a9a0b0-f09a-4679-973e-f3ebca0caf36","ios":"levelo://app?vid=93a9a0b0-f09a-4679-973e-f3ebca0caf36"},"vehicle_type_id":"4","last_reported":1702714119,"current_range_meters":31200,"station_id":"ce4bhp92rcd13ifvqhag","pricing_plan_id":"free"},{"bike_id":"88d21734-a1ec-434c-836c-b0fde0b8c8e9","system_id":"levelo_inurba_marseille","lat":43.310785,"lon":5.424305,"is_reserved":false,"is_disabled":false,"rental_uris":{"android":"levelo://app?vid=88d21734-a1ec-434c-836c-b0fde0b8c8e9","ios":"levelo://app?vid=88d21734-a1ec-434c-836c-b0fde0b8c8e9"},"vehicle_type_id":"4","last_reported":1702714119,"current_range_meters":28800,"station_id":"ce4bhp92rcd13ifvqhag","pricing_plan_id":"free"},{"bike_id":"cdc69067-dad5-415d-b4f3-0a438e350196","system_id":"levelo_inurba_marseille","lat":43.317121,"lon":5.423936,"is_reserved":false,"is_disabled":false,"rental_uris":{"android":"levelo://app?vid=cdc69067-dad5-415d-b4f3-0a438e350196","ios":"levelo://app?vid=cdc69067-dad5-415d-b4f3-0a438e350196"},"vehicle_type_id":"4","last_reported":1702714119,"current_range_meters":27200,"station_id":"ce4bhp92rcd13ifvqhbg","pricing_plan_id":"free"},{"bike_id":"9fd98958-12f3-4062-a784-cd245cbf37c6","system_id":"levelo_inurba_marseille","lat":43.340804,"lon":5.410219,"is_reserved":false,"is_disabled":false,"rental_uris":{"android":"levelo://app?vid=9fd98958-12f3-4062-a784-cd245cbf37c6","ios":"levelo://app?vid=9fd98958-12f3-4062-a784-cd245cbf37c6"},"vehicle_type_id":"4","last_reported":1702714119,"current_range_meters":31200,"station_id":"ce4bhqh2rcd13ifvqhlg","pricing_plan_id":"free"},{"bike_id":"5bfd1a40-b0e4-41f3-a861-bd72abc8764c","system_id":"levelo_inurba_marseille","lat":43.340804,"lon":5.410219,"is_reserved":false,"is_disabled":false,"rental_uris":{"android":"levelo://app?vid=5bfd1a40-b0e4-41f3-a861-bd72abc8764c","ios":"levelo://app?vid=5bfd1a40-b0e4-41f3-a861-bd72abc8764c"},"vehicle_type_id":"4","last_reported":1702714119,"current_range_meters":12000,"station_id":"ce4bhqh2rcd13ifvqhlg","pricing_plan_id":"free"},{"bike_id":"fca8008a-37f2-44f6-8524-0b617ad370e9","system_id":"levelo_inurba_marseille","lat":43.341391,"lon":5.409049,"is_reserved":false,"is_disabled":false,"rental_uris":{"android":"levelo://app?vid=fca8008a-37f2-44f6-8524-0b617ad370e9","ios":"levelo://app?vid=fca8008a-37f2-44f6-8524-0b617ad370e9"},"vehicle_type_id":"4","last_reported":1702714119,"current_range_meters":30400,"station_id":"ce4bhqh2rcd13ifvqhlg","pricing_plan_id":"free"},{"bike_id":"3ca2c2d2-99b0-4aa6-a05d-e30f02e6a7fb","system_id":"levelo_inurba_marseille","lat":43.276092,"lon":5.395289,"is_reserved":false,"is_disabled":false,"rental_uris":{"android":"levelo://app?vid=3ca2c2d2-99b0-4aa6-a05d-e30f02e6a7fb","ios":"levelo://app?vid=3ca2c2d2-99b0-4aa6-a05d-e30f02e6a7fb"},"vehicle_type_id":"4","last_reported":1702714119,"current_range_meters":23200,"station_id":"","pricing_plan_id":"free"},{"bike_id":"97d5c326-63bb-45ff-a744-1660aa45df95","system_id":"levelo_inurba_marseille","lat":43.273125,"lon":5.390731,"is_reserved":false,"is_disabled":false,"rental_uris":{"android":"levelo://app?vid=97d5c326-63bb-45ff-a744-1660aa45df95","ios":"levelo://app?vid=97d5c326-63bb-45ff-a744-1660aa45df95"},"vehicle_type_id":"4","last_reported":1702714119,"current_range_meters":28400,"station_id":"ce4bhgp2rcd13ifvqfe0","pricing_plan_id":"free"},{"bike_id":"99bcb4da-9698-4512-a158-470244d69d6c","system_id":"levelo_inurba_marseille","lat":43.30414,"lon":5.42536,"is_reserved":false,"is_disabled":false,"rental_uris":{"android":"levelo://app?vid=99bcb4da-9698-4512-a158-470244d69d6c","ios":"levelo://app?vid=99bcb4da-9698-4512-a158-470244d69d6c"},"vehicle_type_id":"4","last_reported":1702714119,"current_range_meters":30000,"station_id":"ce4bhoh2rcd13ifvqh6g","pricing_plan_id":"free"},{"bike_id":"549600fb-47b9-4312-8242-de53dbdf980c","system_id":"levelo_inurba_marseille","lat":43.30417,"lon":5.42539,"is_reserved":false,"is_disabled":false,"rental_uris":{"android":"levelo://app?vid=549600fb-47b9-4312-8242-de53dbdf980c","ios":"levelo://app?vid=549600fb-47b9-4312-8242-de53dbdf980c"},"vehicle_type_id":"4","last_reported":1702714119,"current_range_meters":7200,"station_id":"ce4bhoh2rcd13ifvqh6g","pricing_plan_id":"free"},{"bike_id":"127120c9-2a95-4892-91e0-d0f0a2b77fe5","system_id":"levelo_inurba_marseille","lat":43.304096,"lon":5.425385,"is_reserved":false,"is_disabled":false,"rental_uris":{"android":"levelo://app?vid=127120c9-2a95-4892-91e0-d0f0a2b77fe5","ios":"levelo://app?vid=127120c9-2a95-4892-91e0-d0f0a2b77fe5"},"vehicle_type_id":"4","last_reported":1702714119,"current_range_meters":27600,"station_id":"ce4bhoh2rcd13ifvqh6g","pricing_plan_id":"free"},{"bike_id":"9fa6895d-0e68-493e-b1fb-bfed75b1d89e","system_id":"levelo_inurba_marseille","lat":43.304088,"lon":5.425388,"is_reserved":false,"is_disabled":false,"rental_uris":{"android":"levelo://app?vid=9fa6895d-0e68-493e-b1fb-bfed75b1d89e","ios":"levelo://app?vid=9fa6895d-0e68-493e-b1fb-bfed75b1d89e"},"vehicle_type_id":"4","last_reported":1702714119,"current_range_meters":14000,"station_id":"ce4bhoh2rcd13ifvqh6g","pricing_plan_id":"free"},{"bike_id":"a89d95c9-89b9-4ca6-bcd1-bb8857de2bcc","system_id":"levelo_inurba_marseille","lat":43.295523,"lon":5.422926,"is_reserved":false,"is_disabled":false,"rental_uris":{"android":"levelo://app?vid=a89d95c9-89b9-4ca6-bcd1-bb8857de2bcc","ios":"levelo://app?vid=a89d95c9-89b9-4ca6-bcd1-bb8857de2bcc"},"vehicle_type_id":"4","last_reported":1702714119,"current_range_meters":31200,"station_id":"ce4bhph2rcd13ifvqhdg","pricing_plan_id":"free"},{"bike_id":"087230b3-ae12-46fc-8650-d840a066a359","system_id":"levelo_inurba_marseille","lat":43.272124,"lon":5.391768,"is_reserved":false,"is_disabled":false,"rental_uris":{"android":"levelo://app?vid=087230b3-ae12-46fc-8650-d840a066a359","ios":"levelo://app?vid=087230b3-ae12-46fc-8650-d840a066a359"},"vehicle_type_id":"4","last_reported":1702714119,"current_range_meters":31200,"station_id":"ce4bhhp2rcd13ifvqfm0","pricing_plan_id":"free"},{"bike_id":"f1893e08-ab0a-46d8-a16f-65b7dbffc6d9","system_id":"levelo_inurba_marseille","lat":43.272116,"lon":5.391747,"is_reserved":false,"is_disabled":false,"rental_uris":{"android":"levelo://app?vid=f1893e08-ab0a-46d8-a16f-65b7dbffc6d9","ios":"levelo://app?vid=f1893e08-ab0a-46d8-a16f-65b7dbffc6d9"},"vehicle_type_id":"4","last_reported":1702714119,"current_range_meters":29200,"station_id":"ce4bhhp2rcd13ifvqfm0","pricing_plan_id":"free"},{"bike_id":"c0b24288-057e-4daa-878a-7bf5f51fdc58","system_id":"levelo_inurba_marseille","lat":43.272118,"lon":5.391758,"is_reserved":false,"is_disabled":false,"rental_uris":{"android":"levelo://app?vid=c0b24288-057e-4daa-878a-7bf5f51fdc58","ios":"levelo://app?vid=c0b24288-057e-4daa-878a-7bf5f51fdc58"},"vehicle_type_id":"4","last_reported":1702714119,"current_range_meters":30000,"station_id":"ce4bhhp2rcd13ifvqfm0","pricing_plan_id":"free"},{"bike_id":"673e4143-2791-4d60-af90-41dd459eca86","system_id":"levelo_inurba_marseille","lat":43.272116,"lon":5.391763,"is_reserved":false,"is_disabled":false,"rental_uris":{"android":"levelo://app?vid=673e4143-2791-4d60-af90-41dd459eca86","ios":"levelo://app?vid=673e4143-2791-4d60-af90-41dd459eca86"},"vehicle_type_id":"4","last_reported":1702714119,"current_range_meters":27600,"station_id":"ce4bhhp2rcd13ifvqfm0","pricing_plan_id":"free"},{"bike_id":"ada57737-7a79-44c0-8f3e-ecbad75f6298","system_id":"levelo_inurba_marseille","lat":43.272124,"lon":5.391768,"is_reserved":false,"is_disabled":false,"rental_uris":{"android":"levelo://app?vid=ada57737-7a79-44c0-8f3e-ecbad75f6298","ios":"levelo://app?vid=ada57737-7a79-44c0-8f3e-ecbad75f6298"},"vehicle_type_id":"4","last_reported":1702714119,"current_range_meters":31200,"station_id":"ce4bhhp2rcd13ifvqfm0","pricing_plan_id":"free"},{"bike_id":"7c5e5a9a-9f39-4a14-9573-d5b8ab599dd5","system_id":"levelo_inurba_marseille","lat":43.27191,"lon":5.39229,"is_reserved":false,"is_disabled":false,"rental_uris":{"android":"levelo://app?vid=7c5e5a9a-9f39-4a14-9573-d5b8ab599dd5","ios":"levelo://app?vid=7c5e5a9a-9f39-4a14-9573-d5b8ab599dd5"},"vehicle_type_id":"4","last_reported":1702714119,"current_range_meters":19600,"station_id":"ce4bhhp2rcd13ifvqfm0","pricing_plan_id":"free"},{"bike_id":"583b9fa0-eefb-4b4b-b852-da797872f65e","system_id":"levelo_inurba_marseille","lat":43.269467,"lon":5.386439,"is_reserved":false,"is_disabled":false,"rental_uris":{"android":"levelo://app?vid=583b9fa0-eefb-4b4b-b852-da797872f65e","ios":"levelo://app?vid=583b9fa0-eefb-4b4b-b852-da797872f65e"},"vehicle_type_id":"4","last_reported":1702714119,"current_range_meters":26400,"station_id":"ce4bhh92rcd13ifvqfh0","pricing_plan_id":"free"},{"bike_id":"db774753-4382-453e-a138-c32d538f9839","system_id":"levelo_inurba_marseille","lat":43.35866,"lon":5.356728,"is_reserved":false,"is_disabled":false,"rental_uris":{"android":"levelo://app?vid=db774753-4382-453e-a138-c32d538f9839","ios":"levelo://app?vid=db774753-4382-453e-a138-c32d538f9839"},"vehicle_type_id":"4","last_reported":1702714119,"current_range_meters":10800,"station_id":"","pricing_plan_id":"free"},{"bike_id":"692a4d00-3ed9-4cf9-ad2d-8ad5e5cbcf1b","system_id":"levelo_inurba_marseille","lat":43.26681,"lon":5.382694,"is_reserved":false,"is_disabled":false,"rental_uris":{"android":"levelo://app?vid=692a4d00-3ed9-4cf9-ad2d-8ad5e5cbcf1b","ios":"levelo://app?vid=692a4d00-3ed9-4cf9-ad2d-8ad5e5cbcf1b"},"vehicle_type_id":"4","last_reported":1702714119,"current_range_meters":30000,"station_id":"ce4bhg92rcd13ifvqf90","pricing_plan_id":"free"},{"bike_id":"9eeb4bd8-9399-4615-8241-69fb745cad0f","system_id":"levelo_inurba_marseille","lat":43.26681,"lon":5.382694,"is_reserved":false,"is_disabled":false,"rental_uris":{"android":"levelo://app?vid=9eeb4bd8-9399-4615-8241-69fb745cad0f","ios":"levelo://app?vid=9eeb4bd8-9399-4615-8241-69fb745cad0f"},"vehicle_type_id":"4","last_reported":1702714119,"current_range_meters":27600,"station_id":"ce4bhg92rcd13ifvqf90","pricing_plan_id":"free"},{"bike_id":"584daf60-db60-4cbd-849a-0678bafa0905","system_id":"levelo_inurba_marseille","lat":43.2656,"lon":5.37285,"is_reserved":false,"is_disabled":false,"rental_uris":{"android":"levelo://app?vid=584daf60-db60-4cbd-849a-0678bafa0905","ios":"levelo://app?vid=584daf60-db60-4cbd-849a-0678bafa0905"},"vehicle_type_id":"4","last_reported":1702714119,"current_range_meters":18000,"station_id":"ce4bhg12rcd13ifvqf70","pricing_plan_id":"free"},{"bike_id":"588873ed-cd79-485f-ab27-8418e2897013","system_id":"levelo_inurba_marseille","lat":43.267966,"lon":5.393976,"is_reserved":false,"is_disabled":false,"rental_uris":{"android":"levelo://app?vid=588873ed-cd79-485f-ab27-8418e2897013","ios":"levelo://app?vid=588873ed-cd79-485f-ab27-8418e2897013"},"vehicle_type_id":"4","last_reported":1702714119,"current_range_meters":26400,"station_id":"ce4bhh12rcd13ifvqfg0","pricing_plan_id":"free"},{"bike_id":"95e9dd1f-f2f5-405d-b720-08fe860b3dcc","system_id":"levelo_inurba_marseille","lat":43.307974,"lon":5.435231,"is_reserved":false,"is_disabled":false,"rental_uris":{"android":"levelo://app?vid=95e9dd1f-f2f5-405d-b720-08fe860b3dcc","ios":"levelo://app?vid=95e9dd1f-f2f5-405d-b720-08fe860b3dcc"},"vehicle_type_id":"4","last_reported":1702714119,"current_range_meters":28800,"station_id":"ce4bhph2rcd13ifvqheg","pricing_plan_id":"free"},{"bike_id":"72ece656-516f-4b93-9570-7b21129789f8","system_id":"levelo_inurba_marseille","lat":43.26943,"lon":5.40248,"is_reserved":false,"is_disabled":false,"rental_uris":{"android":"levelo://app?vid=72ece656-516f-4b93-9570-7b21129789f8","ios":"levelo://app?vid=72ece656-516f-4b93-9570-7b21129789f8"},"vehicle_type_id":"4","last_reported":1702714119,"current_range_meters":18000,"station_id":"cjm6bp8fraef2m0cb0m0","pricing_plan_id":"free"},{"bike_id":"bb286dab-a9f9-4b55-bbff-da1ba8206b47","system_id":"levelo_inurba_marseille","lat":43.261782,"lon":5.374515,"is_reserved":false,"is_disabled":false,"rental_uris":{"android":"levelo://app?vid=bb286dab-a9f9-4b55-bbff-da1ba8206b47","ios":"levelo://app?vid=bb286dab-a9f9-4b55-bbff-da1ba8206b47"},"vehicle_type_id":"4","last_reported":1702714119,"current_range_meters":26000,"station_id":"ce4bhgp2rcd13ifvqfc0","pricing_plan_id":"free"},{"bike_id":"2e54b5eb-86d4-42b0-b58c-6213048bdfc5","system_id":"levelo_inurba_marseille","lat":43.261782,"lon":5.374515,"is_reserved":false,"is_disabled":false,"rental_uris":{"android":"levelo://app?vid=2e54b5eb-86d4-42b0-b58c-6213048bdfc5","ios":"levelo://app?vid=2e54b5eb-86d4-42b0-b58c-6213048bdfc5"},"vehicle_type_id":"4","last_reported":1702714119,"current_range_meters":27200,"station_id":"ce4bhgp2rcd13ifvqfc0","pricing_plan_id":"free"},{"bike_id":"6672fbaa-2b31-42be-aa3f-35ae0e92538a","system_id":"levelo_inurba_marseille","lat":43.261782,"lon":5.374515,"is_reserved":false,"is_disabled":false,"rental_uris":{"android":"levelo://app?vid=6672fbaa-2b31-42be-aa3f-35ae0e92538a","ios":"levelo://app?vid=6672fbaa-2b31-42be-aa3f-35ae0e92538a"},"vehicle_type_id":"4","last_reported":1702714119,"current_range_meters":31200,"station_id":"ce4bhgp2rcd13ifvqfc0","pricing_plan_id":"free"},{"bike_id":"924dd0b6-11bb-4688-9962-d909c563de41","system_id":"levelo_inurba_marseille","lat":43.26184,"lon":5.37442,"is_reserved":false,"is_disabled":false,"rental_uris":{"android":"levelo://app?vid=924dd0b6-11bb-4688-9962-d909c563de41","ios":"levelo://app?vid=924dd0b6-11bb-4688-9962-d909c563de41"},"vehicle_type_id":"4","last_reported":1702714119,"current_range_meters":19200,"station_id":"ce4bhgp2rcd13ifvqfc0","pricing_plan_id":"free"},{"bike_id":"4dc0e6e3-8a35-452d-90f5-2c022ecd845c","system_id":"levelo_inurba_marseille","lat":43.261782,"lon":5.374515,"is_reserved":false,"is_disabled":false,"rental_uris":{"android":"levelo://app?vid=4dc0e6e3-8a35-452d-90f5-2c022ecd845c","ios":"levelo://app?vid=4dc0e6e3-8a35-452d-90f5-2c022ecd845c"},"vehicle_type_id":"4","last_reported":1702714119,"current_range_meters":29600,"station_id":"ce4bhgp2rcd13ifvqfc0","pricing_plan_id":"free"},{"bike_id":"30223ffb-949e-4b1b-9e9c-ed7fa5e91e6b","system_id":"levelo_inurba_marseille","lat":43.26182,"lon":5.37443,"is_reserved":false,"is_disabled":false,"rental_uris":{"android":"levelo://app?vid=30223ffb-949e-4b1b-9e9c-ed7fa5e91e6b","ios":"levelo://app?vid=30223ffb-949e-4b1b-9e9c-ed7fa5e91e6b"},"vehicle_type_id":"4","last_reported":1702714119,"current_range_meters":22000,"station_id":"ce4bhgp2rcd13ifvqfc0","pricing_plan_id":"free"},{"bike_id":"5c656223-948f-494d-afab-6544f9fd8225","system_id":"levelo_inurba_marseille","lat":43.26202,"lon":5.379299,"is_reserved":false,"is_disabled":false,"rental_uris":{"android":"levelo://app?vid=5c656223-948f-494d-afab-6544f9fd8225","ios":"levelo://app?vid=5c656223-948f-494d-afab-6544f9fd8225"},"vehicle_type_id":"4","last_reported":1702714119,"current_range_meters":28800,"station_id":"ce4bhjp2rcd13ifvqg90","pricing_plan_id":"free"},{"bike_id":"fafcb3c1-52e3-401d-b07d-765f8555be8b","system_id":"levelo_inurba_marseille","lat":43.271368,"lon":5.40928,"is_reserved":false,"is_disabled":false,"rental_uris":{"android":"levelo://app?vid=fafcb3c1-52e3-401d-b07d-765f8555be8b","ios":"levelo://app?vid=fafcb3c1-52e3-401d-b07d-765f8555be8b"},"vehicle_type_id":"4","last_reported":1702714119,"current_range_meters":23600,"station_id":"ce4bhl12rcd13ifvqgf0","pricing_plan_id":"free"},{"bike_id":"dd56b8c8-65e0-491e-8f20-9ee5b66ffaa9","system_id":"levelo_inurba_marseille","lat":43.298768,"lon":5.43643,"is_reserved":false,"is_disabled":false,"rental_uris":{"android":"levelo://app?vid=dd56b8c8-65e0-491e-8f20-9ee5b66ffaa9","ios":"levelo://app?vid=dd56b8c8-65e0-491e-8f20-9ee5b66ffaa9"},"vehicle_type_id":"4","last_reported":1702714119,"current_range_meters":30000,"station_id":"ce4bhpp2rcd13ifvqhfg","pricing_plan_id":"free"},{"bike_id":"0d0846a5-da9c-4e14-a6a7-2d974fd25282","system_id":"levelo_inurba_marseille","lat":43.260219,"lon":5.37546,"is_reserved":false,"is_disabled":false,"rental_uris":{"android":"levelo://app?vid=0d0846a5-da9c-4e14-a6a7-2d974fd25282","ios":"levelo://app?vid=0d0846a5-da9c-4e14-a6a7-2d974fd25282"},"vehicle_type_id":"4","last_reported":1702714119,"current_range_meters":26400,"station_id":"ce4bhgh2rcd13ifvqfa0","pricing_plan_id":"free"},{"bike_id":"c631178c-cd78-45a3-b946-94536a797b09","system_id":"levelo_inurba_marseille","lat":43.281548,"lon":5.42643,"is_reserved":false,"is_disabled":false,"rental_uris":{"android":"levelo://app?vid=c631178c-cd78-45a3-b946-94536a797b09","ios":"levelo://app?vid=c631178c-cd78-45a3-b946-94536a797b09"},"vehicle_type_id":"4","last_reported":1702714119,"current_range_meters":28800,"station_id":"ce4bhnh2rcd13ifvqgug","pricing_plan_id":"free"},{"bike_id":"31998b13-745f-4f17-b3ac-6cc5ccee1f4f","system_id":"levelo_inurba_marseille","lat":43.281548,"lon":5.42643,"is_reserved":false,"is_disabled":false,"rental_uris":{"android":"levelo://app?vid=31998b13-745f-4f17-b3ac-6cc5ccee1f4f","ios":"levelo://app?vid=31998b13-745f-4f17-b3ac-6cc5ccee1f4f"},"vehicle_type_id":"4","last_reported":1702714119,"current_range_meters":26800,"station_id":"ce4bhnh2rcd13ifvqgug","pricing_plan_id":"free"},{"bike_id":"b5b95e05-4fc7-41d3-89b2-cd5619b26808","system_id":"levelo_inurba_marseille","lat":43.2607,"lon":5.393983,"is_reserved":false,"is_disabled":false,"rental_uris":{"android":"levelo://app?vid=b5b95e05-4fc7-41d3-89b2-cd5619b26808","ios":"levelo://app?vid=b5b95e05-4fc7-41d3-89b2-cd5619b26808"},"vehicle_type_id":"4","last_reported":1702714119,"current_range_meters":22400,"station_id":"ce4bhh92rcd13ifvqfj0","pricing_plan_id":"free"},{"bike_id":"5d60bc90-8f99-4e98-b2f6-5bf596f34f7c","system_id":"levelo_inurba_marseille","lat":43.2607,"lon":5.393983,"is_reserved":false,"is_disabled":false,"rental_uris":{"android":"levelo://app?vid=5d60bc90-8f99-4e98-b2f6-5bf596f34f7c","ios":"levelo://app?vid=5d60bc90-8f99-4e98-b2f6-5bf596f34f7c"},"vehicle_type_id":"4","last_reported":1702714119,"current_range_meters":30000,"station_id":"ce4bhh92rcd13ifvqfj0","pricing_plan_id":"free"},{"bike_id":"407de52b-e231-47b1-8325-f6fab784ea23","system_id":"levelo_inurba_marseille","lat":43.2607,"lon":5.393983,"is_reserved":false,"is_disabled":false,"rental_uris":{"android":"levelo://app?vid=407de52b-e231-47b1-8325-f6fab784ea23","ios":"levelo://app?vid=407de52b-e231-47b1-8325-f6fab784ea23"},"vehicle_type_id":"4","last_reported":1702714119,"current_range_meters":30400,"station_id":"ce4bhh92rcd13ifvqfj0","pricing_plan_id":"free"},{"bike_id":"1168f14e-c3fd-4078-a726-414d5cb0e76a","system_id":"levelo_inurba_marseille","lat":43.275028,"lon":5.424534,"is_reserved":false,"is_disabled":false,"rental_uris":{"android":"levelo://app?vid=1168f14e-c3fd-4078-a726-414d5cb0e76a","ios":"levelo://app?vid=1168f14e-c3fd-4078-a726-414d5cb0e76a"},"vehicle_type_id":"4","last_reported":1702714119,"current_range_meters":7600,"station_id":"ce4bhn92rcd13ifvqgrg","pricing_plan_id":"free"},{"bike_id":"ddc28e08-8609-4703-8424-f34c6594d4a9","system_id":"levelo_inurba_marseille","lat":43.275028,"lon":5.424534,"is_reserved":false,"is_disabled":false,"rental_uris":{"android":"levelo://app?vid=ddc28e08-8609-4703-8424-f34c6594d4a9","ios":"levelo://app?vid=ddc28e08-8609-4703-8424-f34c6594d4a9"},"vehicle_type_id":"4","last_reported":1702714119,"current_range_meters":7200,"station_id":"ce4bhn92rcd13ifvqgrg","pricing_plan_id":"free"},{"bike_id":"12454bed-0e67-4352-b29e-c06618713b6a","system_id":"levelo_inurba_marseille","lat":43.275028,"lon":5.424534,"is_reserved":false,"is_disabled":false,"rental_uris":{"android":"levelo://app?vid=12454bed-0e67-4352-b29e-c06618713b6a","ios":"levelo://app?vid=12454bed-0e67-4352-b29e-c06618713b6a"},