{"last_updated":1773766492,"ttl":60,"version":"2.2","data":{"bikes":[{"bike_id":"b48ede15-3889-425b-ad47-84406e23eeb7","system_id":"levelo_inurba_marseille","lat":43.26566,"lon":5.39353,"is_reserved":false,"is_disabled":false,"rental_uris":{"android":"levelo://app?vid=b48ede15-3889-425b-ad47-84406e23eeb7","ios":"levelo://app?vid=b48ede15-3889-425b-ad47-84406e23eeb7"},"vehicle_type_id":"4","last_reported":1773766493,"current_range_meters":1200,"station_id":"ce4bhh12rcd13ifvqfg0","pricing_plan_id":"cebpf4jnsgd1na2vs0mg"},{"bike_id":"2161af18-f424-4192-a312-949fa9d1bb4e","system_id":"levelo_inurba_marseille","lat":43.29581,"lon":5.37495,"is_reserved":false,"is_disabled":false,"rental_uris":{"android":"levelo://app?vid=2161af18-f424-4192-a312-949fa9d1bb4e","ios":"levelo://app?vid=2161af18-f424-4192-a312-949fa9d1bb4e"},"vehicle_type_id":"4","last_reported":1773766493,"current_range_meters":1200,"station_id":"ce4bgh92rcd13ifvqb50","pricing_plan_id":"cebpf4jnsgd1na2vs0mg"},{"bike_id":"953d2939-b85f-45e0-9f48-4b5ed7c58aff","system_id":"levelo_inurba_marseille","lat":43.28037,"lon":5.36956,"is_reserved":false,"is_disabled":false,"rental_uris":{"android":"levelo://app?vid=953d2939-b85f-45e0-9f48-4b5ed7c58aff","ios":"levelo://app?vid=953d2939-b85f-45e0-9f48-4b5ed7c58aff"},"vehicle_type_id":"4","last_reported":1773766493,"current_range_meters":2800,"station_id":"ce4bha12rcd13ifvqef0","pricing_plan_id":"cebpf4jnsgd1na2vs0mg"},{"bike_id":"88c1781e-c4f9-4244-82db-0f5c6fec8b2a","system_id":"levelo_inurba_marseille","lat":43.22929,"lon":5.35374,"is_reserved":false,"is_disabled":false,"rental_uris":{"android":"levelo://app?vid=88c1781e-c4f9-4244-82db-0f5c6fec8b2a","ios":"levelo://app?vid=88c1781e-c4f9-4244-82db-0f5c6fec8b2a"},"vehicle_type_id":"4","last_reported":1773766493,"current_range_meters":2800,"station_id":"cpo3532slgdg3j2ikp40","pricing_plan_id":"cebpf4jnsgd1na2vs0mg"},{"bike_id":"c6d69b4d-4c87-44fe-a02d-92b1370b69aa","system_id":"levelo_inurba_marseille","lat":43.22554,"lon":5.41633,"is_reserved":false,"is_disabled":false,"rental_uris":{"android":"levelo://app?vid=c6d69b4d-4c87-44fe-a02d-92b1370b69aa","ios":"levelo://app?vid=c6d69b4d-4c87-44fe-a02d-92b1370b69aa"},"vehicle_type_id":"4","last_reported":1773766493,"current_range_meters":2800,"station_id":"st_d2o4gvlbi1j2169b742g","pricing_plan_id":"cebpf4jnsgd1na2vs0mg"},{"bike_id":"62d7888f-1c72-4b12-ae9b-10994b363957","system_id":"levelo_inurba_marseille","lat":43.23967,"lon":5.36619,"is_reserved":false,"is_disabled":false,"rental_uris":{"android":"levelo://app?vid=62d7888f-1c72-4b12-ae9b-10994b363957","ios":"levelo://app?vid=62d7888f-1c72-4b12-ae9b-10994b363957"},"vehicle_type_id":"4","last_reported":1773766493,"current_range_meters":2800,"station_id":"ce4bhi12rcd13ifvqfp0","pricing_plan_id":"cebpf4jnsgd1na2vs0mg"},{"bike_id":"543383df-6d89-453d-9d6a-5ac42e99442c","system_id":"levelo_inurba_marseille","lat":43.2871,"lon":5.40025,"is_reserved":false,"is_disabled":false,"rental_uris":{"android":"levelo://app?vid=543383df-6d89-453d-9d6a-5ac42e99442c","ios":"levelo://app?vid=543383df-6d89-453d-9d6a-5ac42e99442c"},"vehicle_type_id":"4","last_reported":1773766493,"current_range_meters":2800,"station_id":"ce4bho92rcd13ifvqh3g","pricing_plan_id":"cebpf4jnsgd1na2vs0mg"},{"bike_id":"1ee4bcbf-de65-4d09-b384-3581a17f4652","system_id":"levelo_inurba_marseille","lat":43.30902,"lon":5.3683,"is_reserved":false,"is_disabled":false,"rental_uris":{"android":"levelo://app?vid=1ee4bcbf-de65-4d09-b384-3581a17f4652","ios":"levelo://app?vid=1ee4bcbf-de65-4d09-b384-3581a17f4652"},"vehicle_type_id":"4","last_reported":1773766493,"current_range_meters":2800,"station_id":"ce4bgn92rcd13ifvqbvg","pricing_plan_id":"cebpf4jnsgd1na2vs0mg"},{"bike_id":"a8261f75-c49a-4d8a-8d78-59cefb23f437","system_id":"levelo_inurba_marseille","lat":43.29847,"lon":5.36287,"is_reserved":false,"is_disabled":false,"rental_uris":{"android":"levelo://app?vid=a8261f75-c49a-4d8a-8d78-59cefb23f437","ios":"levelo://app?vid=a8261f75-c49a-4d8a-8d78-59cefb23f437"},"vehicle_type_id":"4","last_reported":1773766493,"current_range_meters":2800,"station_id":"ce4bgpp2rcd13ifvqc3g","pricing_plan_id":"cebpf4jnsgd1na2vs0mg"},{"bike_id":"84265a19-11cd-43ca-a8af-aa6e2ebff45b","system_id":"levelo_inurba_marseille","lat":43.30926,"lon":5.40154,"is_reserved":false,"is_disabled":true,"rental_uris":{"android":"levelo://app?vid=84265a19-11cd-43ca-a8af-aa6e2ebff45b","ios":"levelo://app?vid=84265a19-11cd-43ca-a8af-aa6e2ebff45b"},"vehicle_type_id":"4","last_reported":1773766493,"current_range_meters":2800,"station_id":"ce4bgvp2rcd13ifvqct0","pricing_plan_id":"cebpf4jnsgd1na2vs0mg"},{"bike_id":"42f51845-7ae7-445c-9726-b751b91144c6","system_id":"levelo_inurba_marseille","lat":43.29714,"lon":5.36611,"is_reserved":false,"is_disabled":false,"rental_uris":{"android":"levelo://app?vid=42f51845-7ae7-445c-9726-b751b91144c6","ios":"levelo://app?vid=42f51845-7ae7-445c-9726-b751b91144c6"},"vehicle_type_id":"4","last_reported":1773766493,"current_range_meters":2800,"station_id":"ce4bgn12rcd13ifvqbt0","pricing_plan_id":"cebpf4jnsgd1na2vs0mg"},{"bike_id":"bd70e51b-35c9-49cd-923a-dfd3192257d3","system_id":"levelo_inurba_marseille","lat":43.29261,"lon":5.38447,"is_reserved":false,"is_disabled":false,"rental_uris":{"android":"levelo://app?vid=bd70e51b-35c9-49cd-923a-dfd3192257d3","ios":"levelo://app?vid=bd70e51b-35c9-49cd-923a-dfd3192257d3"},"vehicle_type_id":"4","last_reported":1773766493,"current_range_meters":2800,"station_id":"ce4bh692rcd13ifvqea0","pricing_plan_id":"cebpf4jnsgd1na2vs0mg"},{"bike_id":"b3fb0cd9-0d50-4402-b1d7-e0ca7cbbf02f","system_id":"levelo_inurba_marseille","lat":43.22571,"lon":5.41642,"is_reserved":false,"is_disabled":false,"rental_uris":{"android":"levelo://app?vid=b3fb0cd9-0d50-4402-b1d7-e0ca7cbbf02f","ios":"levelo://app?vid=b3fb0cd9-0d50-4402-b1d7-e0ca7cbbf02f"},"vehicle_type_id":"4","last_reported":1773766493,"current_range_meters":2800,"station_id":"st_d2o4gvlbi1j2169b742g","pricing_plan_id":"cebpf4jnsgd1na2vs0mg"},{"bike_id":"e7d20ce8-61ee-4df3-9ba4-585a7648c721","system_id":"levelo_inurba_marseille","lat":43.24637,"lon":5.43153,"is_reserved":false,"is_disabled":false,"rental_uris":{"android":"levelo://app?vid=e7d20ce8-61ee-4df3-9ba4-585a7648c721","ios":"levelo://app?vid=e7d20ce8-61ee-4df3-9ba4-585a7648c721"},"vehicle_type_id":"4","last_reported":1773766493,"current_range_meters":2800,"station_id":"","pricing_plan_id":"cebpf4jnsgd1na2vs0mg"},{"bike_id":"ecc4e918-b585-4299-b623-a5e5d90da291","system_id":"levelo_inurba_marseille","lat":43.284893,"lon":5.483556,"is_reserved":false,"is_disabled":false,"rental_uris":{"android":"levelo://app?vid=ecc4e918-b585-4299-b623-a5e5d90da291","ios":"levelo://app?vid=ecc4e918-b585-4299-b623-a5e5d90da291"},"vehicle_type_id":"4","last_reported":1773766493,"current_range_meters":2800,"station_id":"","pricing_plan_id":"cebpf4jnsgd1na2vs0mg"},{"bike_id":"ca5af02f-49f7-48db-a0c5-85c6fd8e11c9","system_id":"levelo_inurba_marseille","lat":43.25007,"lon":5.38921,"is_reserved":false,"is_disabled":true,"rental_uris":{"android":"levelo://app?vid=ca5af02f-49f7-48db-a0c5-85c6fd8e11c9","ios":"levelo://app?vid=ca5af02f-49f7-48db-a0c5-85c6fd8e11c9"},"vehicle_type_id":"4","last_reported":1773766493,"current_range_meters":2800,"station_id":"ce4bhgp2rcd13ifvqfd0","pricing_plan_id":"cebpf4jnsgd1na2vs0mg"},{"bike_id":"7d5e5488-b062-4979-8056-f7926cc5db5b","system_id":"levelo_inurba_marseille","lat":43.28485,"lon":5.48417,"is_reserved":false,"is_disabled":false,"rental_uris":{"android":"levelo://app?vid=7d5e5488-b062-4979-8056-f7926cc5db5b","ios":"levelo://app?vid=7d5e5488-b062-4979-8056-f7926cc5db5b"},"vehicle_type_id":"4","last_reported":1773766493,"current_range_meters":2800,"station_id":"","pricing_plan_id":"cebpf4jnsgd1na2vs0mg"},{"bike_id":"ab8ed3cf-dd65-453b-87ca-077ce7ed25e8","system_id":"levelo_inurba_marseille","lat":43.31895,"lon":5.36786,"is_reserved":false,"is_disabled":false,"rental_uris":{"android":"levelo://app?vid=ab8ed3cf-dd65-453b-87ca-077ce7ed25e8","ios":"levelo://app?vid=ab8ed3cf-dd65-453b-87ca-077ce7ed25e8"},"vehicle_type_id":"4","last_reported":1773766493,"current_range_meters":3200,"station_id":"st_d6o2h0d0559c73evc1b0","pricing_plan_id":"cebpf4jnsgd1na2vs0mg"},{"bike_id":"20d965c2-9356-4a2d-b2d1-b586da5c97e8","system_id":"levelo_inurba_marseille","lat":43.28097,"lon":5.4062,"is_reserved":false,"is_disabled":true,"rental_uris":{"android":"levelo://app?vid=20d965c2-9356-4a2d-b2d1-b586da5c97e8","ios":"levelo://app?vid=20d965c2-9356-4a2d-b2d1-b586da5c97e8"},"vehicle_type_id":"4","last_reported":1773766493,"current_range_meters":3200,"station_id":"","pricing_plan_id":"cebpf4jnsgd1na2vs0mg"},{"bike_id":"113a9eef-3f10-4185-99a1-126a816576f6","system_id":"levelo_inurba_marseille","lat":43.30641,"lon":5.40092,"is_reserved":false,"is_disabled":false,"rental_uris":{"android":"levelo://app?vid=113a9eef-3f10-4185-99a1-126a816576f6","ios":"levelo://app?vid=113a9eef-3f10-4185-99a1-126a816576f6"},"vehicle_type_id":"4","last_reported":1773766493,"current_range_meters":3200,"station_id":"ce4bh112rcd13ifvqda0","pricing_plan_id":"cebpf4jnsgd1na2vs0mg"},{"bike_id":"e90841ab-78ce-4c21-af75-d9b66ba04b2b","system_id":"levelo_inurba_marseille","lat":43.28156,"lon":5.42636,"is_reserved":false,"is_disabled":false,"rental_uris":{"android":"levelo://app?vid=e90841ab-78ce-4c21-af75-d9b66ba04b2b","ios":"levelo://app?vid=e90841ab-78ce-4c21-af75-d9b66ba04b2b"},"vehicle_type_id":"4","last_reported":1773766493,"current_range_meters":3200,"station_id":"ce4bhnh2rcd13ifvqgug","pricing_plan_id":"cebpf4jnsgd1na2vs0mg"},{"bike_id":"62f84fc1-29af-4498-9cd9-a4e3a76781f6","system_id":"levelo_inurba_marseille","lat":43.28268,"lon":5.35055,"is_reserved":false,"is_disabled":false,"rental_uris":{"android":"levelo://app?vid=62f84fc1-29af-4498-9cd9-a4e3a76781f6","ios":"levelo://app?vid=62f84fc1-29af-4498-9cd9-a4e3a76781f6"},"vehicle_type_id":"4","last_reported":1773766493,"current_range_meters":3200,"station_id":"ce4bhbp2rcd13ifvqerg","pricing_plan_id":"cebpf4jnsgd1na2vs0mg"},{"bike_id":"c2643b77-6c43-49db-bf4f-19a49b118454","system_id":"levelo_inurba_marseille","lat":43.28662,"lon":5.36353,"is_reserved":false,"is_disabled":false,"rental_uris":{"android":"levelo://app?vid=c2643b77-6c43-49db-bf4f-19a49b118454","ios":"levelo://app?vid=c2643b77-6c43-49db-bf4f-19a49b118454"},"vehicle_type_id":"4","last_reported":1773766493,"current_range_meters":3200,"station_id":"ce4bhah2rcd13ifvqej0","pricing_plan_id":"cebpf4jnsgd1na2vs0mg"},{"bike_id":"170ae230-0e8d-4d00-9304-147f67e9c1b8","system_id":"levelo_inurba_marseille","lat":43.29537,"lon":5.38537,"is_reserved":false,"is_disabled":false,"rental_uris":{"android":"levelo://app?vid=170ae230-0e8d-4d00-9304-147f67e9c1b8","ios":"levelo://app?vid=170ae230-0e8d-4d00-9304-147f67e9c1b8"},"vehicle_type_id":"4","last_reported":1773766493,"current_range_meters":3200,"station_id":"ce4bgih2rcd13ifvqba0","pricing_plan_id":"cebpf4jnsgd1na2vs0mg"},{"bike_id":"0b4a3089-9d19-41c2-a4f2-e622ef8cc90b","system_id":"levelo_inurba_marseille","lat":43.30185,"lon":5.36625,"is_reserved":false,"is_disabled":false,"rental_uris":{"android":"levelo://app?vid=0b4a3089-9d19-41c2-a4f2-e622ef8cc90b","ios":"levelo://app?vid=0b4a3089-9d19-41c2-a4f2-e622ef8cc90b"},"vehicle_type_id":"4","last_reported":1773766493,"current_range_meters":3200,"station_id":"ce4bgrh2rcd13ifvqc8g","pricing_plan_id":"cebpf4jnsgd1na2vs0mg"},{"bike_id":"53b7993f-0144-42cb-b0fe-4d2d5000fd6e","system_id":"levelo_inurba_marseille","lat":43.30899,"lon":5.369,"is_reserved":false,"is_disabled":false,"rental_uris":{"android":"levelo://app?vid=53b7993f-0144-42cb-b0fe-4d2d5000fd6e","ios":"levelo://app?vid=53b7993f-0144-42cb-b0fe-4d2d5000fd6e"},"vehicle_type_id":"4","last_reported":1773766493,"current_range_meters":3200,"station_id":"ce4bgn92rcd13ifvqbvg","pricing_plan_id":"cebpf4jnsgd1na2vs0mg"},{"bike_id":"1971430e-a504-44c3-8eae-6732b449156f","system_id":"levelo_inurba_marseille","lat":43.29934,"lon":5.36581,"is_reserved":false,"is_disabled":false,"rental_uris":{"android":"levelo://app?vid=1971430e-a504-44c3-8eae-6732b449156f","ios":"levelo://app?vid=1971430e-a504-44c3-8eae-6732b449156f"},"vehicle_type_id":"4","last_reported":1773766493,"current_range_meters":3200,"station_id":"ce4bgm92rcd13ifvqbr0","pricing_plan_id":"cebpf4jnsgd1na2vs0mg"},{"bike_id":"d89134ff-a044-45c7-94db-9ed2eccb039f","system_id":"levelo_inurba_marseille","lat":43.3135,"lon":5.38497,"is_reserved":false,"is_disabled":true,"rental_uris":{"android":"levelo://app?vid=d89134ff-a044-45c7-94db-9ed2eccb039f","ios":"levelo://app?vid=d89134ff-a044-45c7-94db-9ed2eccb039f"},"vehicle_type_id":"4","last_reported":1773766493,"current_range_meters":3200,"station_id":"ce4bgt92rcd13ifvqcf0","pricing_plan_id":"cebpf4jnsgd1na2vs0mg"},{"bike_id":"550c6f48-64d4-43bc-a0e4-444a1f8184af","system_id":"levelo_inurba_marseille","lat":43.21751,"lon":5.34605,"is_reserved":false,"is_disabled":false,"rental_uris":{"android":"levelo://app?vid=550c6f48-64d4-43bc-a0e4-444a1f8184af","ios":"levelo://app?vid=550c6f48-64d4-43bc-a0e4-444a1f8184af"},"vehicle_type_id":"4","last_reported":1773766493,"current_range_meters":3200,"station_id":"st_cvj6r9ubvosntc0bgbag","pricing_plan_id":"cebpf4jnsgd1na2vs0mg"},{"bike_id":"e9082bd0-5da5-4914-8bec-d8029f215c2f","system_id":"levelo_inurba_marseille","lat":43.30095,"lon":5.39079,"is_reserved":false,"is_disabled":false,"rental_uris":{"android":"levelo://app?vid=e9082bd0-5da5-4914-8bec-d8029f215c2f","ios":"levelo://app?vid=e9082bd0-5da5-4914-8bec-d8029f215c2f"},"vehicle_type_id":"4","last_reported":1773766493,"current_range_meters":3200,"station_id":"ce4bh192rcd13ifvqdb0","pricing_plan_id":"cebpf4jnsgd1na2vs0mg"},{"bike_id":"b97d1ceb-637b-4283-8d48-f9de22b7bda2","system_id":"levelo_inurba_marseille","lat":43.2997,"lon":5.3849,"is_reserved":false,"is_disabled":false,"rental_uris":{"android":"levelo://app?vid=b97d1ceb-637b-4283-8d48-f9de22b7bda2","ios":"levelo://app?vid=b97d1ceb-637b-4283-8d48-f9de22b7bda2"},"vehicle_type_id":"4","last_reported":1773766493,"current_range_meters":3200,"station_id":"ce4bgj92rcd13ifvqbd0","pricing_plan_id":"cebpf4jnsgd1na2vs0mg"},{"bike_id":"998f1757-a38b-4fab-a2f4-096a176e9c82","system_id":"levelo_inurba_marseille","lat":43.29199,"lon":5.35796,"is_reserved":false,"is_disabled":false,"rental_uris":{"android":"levelo://app?vid=998f1757-a38b-4fab-a2f4-096a176e9c82","ios":"levelo://app?vid=998f1757-a38b-4fab-a2f4-096a176e9c82"},"vehicle_type_id":"4","last_reported":1773766493,"current_range_meters":3200,"station_id":"ce4bhb12rcd13ifvqel0","pricing_plan_id":"cebpf4jnsgd1na2vs0mg"},{"bike_id":"c13c78a2-75eb-4395-b779-19bb5adb6836","system_id":"levelo_inurba_marseille","lat":43.287224,"lon":5.360832,"is_reserved":false,"is_disabled":false,"rental_uris":{"android":"levelo://app?vid=c13c78a2-75eb-4395-b779-19bb5adb6836","ios":"levelo://app?vid=c13c78a2-75eb-4395-b779-19bb5adb6836"},"vehicle_type_id":"4","last_reported":1773766493,"current_range_meters":3200,"station_id":"cki0cbj6b192h4jlfktg","pricing_plan_id":"cebpf4jnsgd1na2vs0mg"},{"bike_id":"386c3e45-d99c-4c27-9a3e-6eb41f14f068","system_id":"levelo_inurba_marseille","lat":43.28472,"lon":5.35869,"is_reserved":false,"is_disabled":false,"rental_uris":{"android":"levelo://app?vid=386c3e45-d99c-4c27-9a3e-6eb41f14f068","ios":"levelo://app?vid=386c3e45-d99c-4c27-9a3e-6eb41f14f068"},"vehicle_type_id":"4","last_reported":1773766493,"current_range_meters":3600,"station_id":"ce4bhah2rcd13ifvqei0","pricing_plan_id":"cebpf4jnsgd1na2vs0mg"},{"bike_id":"87cf2c9e-dd79-479c-9e15-2f0aaae6b8ee","system_id":"levelo_inurba_marseille","lat":43.31444,"lon":5.37329,"is_reserved":false,"is_disabled":false,"rental_uris":{"android":"levelo://app?vid=87cf2c9e-dd79-479c-9e15-2f0aaae6b8ee","ios":"levelo://app?vid=87cf2c9e-dd79-479c-9e15-2f0aaae6b8ee"},"vehicle_type_id":"4","last_reported":1773766493,"current_range_meters":3600,"station_id":"ce4bgt12rcd13ifvqcd0","pricing_plan_id":"cebpf4jnsgd1na2vs0mg"},{"bike_id":"59bbde46-8f69-4315-8d45-acff8917848c","system_id":"levelo_inurba_marseille","lat":43.28734,"lon":5.35203,"is_reserved":false,"is_disabled":false,"rental_uris":{"android":"levelo://app?vid=59bbde46-8f69-4315-8d45-acff8917848c","ios":"levelo://app?vid=59bbde46-8f69-4315-8d45-acff8917848c"},"vehicle_type_id":"4","last_reported":1773766493,"current_range_meters":3600,"station_id":"","pricing_plan_id":"cebpf4jnsgd1na2vs0mg"},{"bike_id":"c5dec536-6162-4ffd-8811-0b85cea4868c","system_id":"levelo_inurba_marseille","lat":43.28253,"lon":5.35082,"is_reserved":false,"is_disabled":false,"rental_uris":{"android":"levelo://app?vid=c5dec536-6162-4ffd-8811-0b85cea4868c","ios":"levelo://app?vid=c5dec536-6162-4ffd-8811-0b85cea4868c"},"vehicle_type_id":"4","last_reported":1773766493,"current_range_meters":3600,"station_id":"ce4bhbp2rcd13ifvqerg","pricing_plan_id":"cebpf4jnsgd1na2vs0mg"},{"bike_id":"80e6734b-3764-4853-8c63-15cb07f7249f","system_id":"levelo_inurba_marseille","lat":43.29827,"lon":5.44081,"is_reserved":false,"is_disabled":false,"rental_uris":{"android":"levelo://app?vid=80e6734b-3764-4853-8c63-15cb07f7249f","ios":"levelo://app?vid=80e6734b-3764-4853-8c63-15cb07f7249f"},"vehicle_type_id":"4","last_reported":1773766493,"current_range_meters":3600,"station_id":"st_d3jp68qikq2c7381ktn0","pricing_plan_id":"cebpf4jnsgd1na2vs0mg"},{"bike_id":"849601a4-f153-4e69-8a81-266bd3c62be8","system_id":"levelo_inurba_marseille","lat":43.2843,"lon":5.34984,"is_reserved":false,"is_disabled":false,"rental_uris":{"android":"levelo://app?vid=849601a4-f153-4e69-8a81-266bd3c62be8","ios":"levelo://app?vid=849601a4-f153-4e69-8a81-266bd3c62be8"},"vehicle_type_id":"4","last_reported":1773766493,"current_range_meters":3600,"station_id":"ce4bhbh2rcd13ifvqepg","pricing_plan_id":"cebpf4jnsgd1na2vs0mg"},{"bike_id":"796ed888-5e80-4248-a7be-20570706635d","system_id":"levelo_inurba_marseille","lat":43.23787,"lon":5.36627,"is_reserved":false,"is_disabled":false,"rental_uris":{"android":"levelo://app?vid=796ed888-5e80-4248-a7be-20570706635d","ios":"levelo://app?vid=796ed888-5e80-4248-a7be-20570706635d"},"vehicle_type_id":"4","last_reported":1773766493,"current_range_meters":3600,"station_id":"st_d3nk18o9ro0c73en2l3g","pricing_plan_id":"cebpf4jnsgd1na2vs0mg"},{"bike_id":"ed79e6a7-32a6-43d7-9083-d06a1420329e","system_id":"levelo_inurba_marseille","lat":43.29572,"lon":5.37527,"is_reserved":false,"is_disabled":false,"rental_uris":{"android":"levelo://app?vid=ed79e6a7-32a6-43d7-9083-d06a1420329e","ios":"levelo://app?vid=ed79e6a7-32a6-43d7-9083-d06a1420329e"},"vehicle_type_id":"4","last_reported":1773766493,"current_range_meters":3600,"station_id":"ce4bgh92rcd13ifvqb50","pricing_plan_id":"cebpf4jnsgd1na2vs0mg"},{"bike_id":"05797fa1-accf-4d33-953a-71b7e9c0f32e","system_id":"levelo_inurba_marseille","lat":43.23955,"lon":5.36651,"is_reserved":false,"is_disabled":false,"rental_uris":{"android":"levelo://app?vid=05797fa1-accf-4d33-953a-71b7e9c0f32e","ios":"levelo://app?vid=05797fa1-accf-4d33-953a-71b7e9c0f32e"},"vehicle_type_id":"4","last_reported":1773766493,"current_range_meters":3600,"station_id":"ce4bhi12rcd13ifvqfp0","pricing_plan_id":"cebpf4jnsgd1na2vs0mg"},{"bike_id":"5ceea874-16bc-4dc6-9858-1b3ce34dfda6","system_id":"levelo_inurba_marseille","lat":43.28478,"lon":5.48391,"is_reserved":false,"is_disabled":false,"rental_uris":{"android":"levelo://app?vid=5ceea874-16bc-4dc6-9858-1b3ce34dfda6","ios":"levelo://app?vid=5ceea874-16bc-4dc6-9858-1b3ce34dfda6"},"vehicle_type_id":"4","last_reported":1773766493,"current_range_meters":3600,"station_id":"st_d3svhcjqgbts73a3dn0g","pricing_plan_id":"cebpf4jnsgd1na2vs0mg"},{"bike_id":"5c13d3bc-3946-4016-b223-a96c424763ee","system_id":"levelo_inurba_marseille","lat":43.2416,"lon":5.36417,"is_reserved":false,"is_disabled":false,"rental_uris":{"android":"levelo://app?vid=5c13d3bc-3946-4016-b223-a96c424763ee","ios":"levelo://app?vid=5c13d3bc-3946-4016-b223-a96c424763ee"},"vehicle_type_id":"4","last_reported":1773766493,"current_range_meters":3600,"station_id":"cpo36qri1sfpv3e86is0","pricing_plan_id":"cebpf4jnsgd1na2vs0mg"},{"bike_id":"2b215d44-6524-4945-8b5f-f0286a24059f","system_id":"levelo_inurba_marseille","lat":43.27372,"lon":5.36261,"is_reserved":false,"is_disabled":false,"rental_uris":{"android":"levelo://app?vid=2b215d44-6524-4945-8b5f-f0286a24059f","ios":"levelo://app?vid=2b215d44-6524-4945-8b5f-f0286a24059f"},"vehicle_type_id":"4","last_reported":1773766493,"current_range_meters":3600,"station_id":"ce4bhbh2rcd13ifvqeo0","pricing_plan_id":"cebpf4jnsgd1na2vs0mg"},{"bike_id":"1fb96194-0923-44a9-b805-b695b0c6f5eb","system_id":"levelo_inurba_marseille","lat":43.28266,"lon":5.3508,"is_reserved":false,"is_disabled":false,"rental_uris":{"android":"levelo://app?vid=1fb96194-0923-44a9-b805-b695b0c6f5eb","ios":"levelo://app?vid=1fb96194-0923-44a9-b805-b695b0c6f5eb"},"vehicle_type_id":"4","last_reported":1773766493,"current_range_meters":3600,"station_id":"ce4bhbp2rcd13ifvqerg","pricing_plan_id":"cebpf4jnsgd1na2vs0mg"},{"bike_id":"e9e842d6-4801-499c-9498-0572bd25c632","system_id":"levelo_inurba_marseille","lat":43.25585,"lon":5.38228,"is_reserved":false,"is_disabled":false,"rental_uris":{"android":"levelo://app?vid=e9e842d6-4801-499c-9498-0572bd25c632","ios":"levelo://app?vid=e9e842d6-4801-499c-9498-0572bd25c632"},"vehicle_type_id":"4","last_reported":1773766493,"current_range_meters":3600,"station_id":"ce4bhih2rcd13ifvqfs0","pricing_plan_id":"cebpf4jnsgd1na2vs0mg"},{"bike_id":"96c3e592-caf0-4266-a17d-83de489ffac5","system_id":"levelo_inurba_marseille","lat":43.29761,"lon":5.38119,"is_reserved":false,"is_disabled":false,"rental_uris":{"android":"levelo://app?vid=96c3e592-caf0-4266-a17d-83de489ffac5","ios":"levelo://app?vid=96c3e592-caf0-4266-a17d-83de489ffac5"},"vehicle_type_id":"4","last_reported":1773766493,"current_range_meters":3600,"station_id":"ce4bgip2rcd13ifvqbb0","pricing_plan_id":"cebpf4jnsgd1na2vs0mg"},{"bike_id":"d06b1804-70fd-40ad-8edd-a00949173812","system_id":"levelo_inurba_marseille","lat":43.23196,"lon":5.40002,"is_reserved":false,"is_disabled":false,"rental_uris":{"android":"levelo://app?vid=d06b1804-70fd-40ad-8edd-a00949173812","ios":"levelo://app?vid=d06b1804-70fd-40ad-8edd-a00949173812"},"vehicle_type_id":"4","last_reported":1773766493,"current_range_meters":3600,"station_id":"ce4bhn12rcd13ifvqgqg","pricing_plan_id":"cebpf4jnsgd1na2vs0mg"},{"bike_id":"6a627a2c-77ac-4bef-b791-bf00599c0c50","system_id":"levelo_inurba_marseille","lat":43.29274,"lon":5.38443,"is_reserved":false,"is_disabled":false,"rental_uris":{"android":"levelo://app?vid=6a627a2c-77ac-4bef-b791-bf00599c0c50","ios":"levelo://app?vid=6a627a2c-77ac-4bef-b791-bf00599c0c50"},"vehicle_type_id":"4","last_reported":1773766493,"current_range_meters":3600,"station_id":"ce4bh692rcd13ifvqea0","pricing_plan_id":"cebpf4jnsgd1na2vs0mg"},{"bike_id":"60c0c124-9a1e-440c-aa59-5f2c32e5a8e5","system_id":"levelo_inurba_marseille","lat":43.2848,"lon":5.3842,"is_reserved":false,"is_disabled":false,"rental_uris":{"android":"levelo://app?vid=60c0c124-9a1e-440c-aa59-5f2c32e5a8e5","ios":"levelo://app?vid=60c0c124-9a1e-440c-aa59-5f2c32e5a8e5"},"vehicle_type_id":"4","last_reported":1773766493,"current_range_meters":3600,"station_id":"ce4bh512rcd13ifvqe3g","pricing_plan_id":"cebpf4jnsgd1na2vs0mg"},{"bike_id":"5546bd0f-7ced-4964-ba48-a430fa2adf47","system_id":"levelo_inurba_marseille","lat":43.21729,"lon":5.34613,"is_reserved":false,"is_disabled":true,"rental_uris":{"android":"levelo://app?vid=5546bd0f-7ced-4964-ba48-a430fa2adf47","ios":"levelo://app?vid=5546bd0f-7ced-4964-ba48-a430fa2adf47"},"vehicle_type_id":"4","last_reported":1773766493,"current_range_meters":4000,"station_id":"st_cvj6r9ubvosntc0bgbag","pricing_plan_id":"cebpf4jnsgd1na2vs0mg"},{"bike_id":"e0b8baaa-d468-41e7-8833-15e97aac523f","system_id":"levelo_inurba_marseille","lat":43.29535,"lon":5.3854,"is_reserved":false,"is_disabled":false,"rental_uris":{"android":"levelo://app?vid=e0b8baaa-d468-41e7-8833-15e97aac523f","ios":"levelo://app?vid=e0b8baaa-d468-41e7-8833-15e97aac523f"},"vehicle_type_id":"4","last_reported":1773766493,"current_range_meters":4000,"station_id":"ce4bgih2rcd13ifvqba0","pricing_plan_id":"cebpf4jnsgd1na2vs0mg"},{"bike_id":"587362f3-0a6d-4058-9fb3-a978bf124b27","system_id":"levelo_inurba_marseille","lat":43.30135,"lon":5.39839,"is_reserved":false,"is_disabled":false,"rental_uris":{"android":"levelo://app?vid=587362f3-0a6d-4058-9fb3-a978bf124b27","ios":"levelo://app?vid=587362f3-0a6d-4058-9fb3-a978bf124b27"},"vehicle_type_id":"4","last_reported":1773766493,"current_range_meters":4000,"station_id":"ce4bh0h2rcd13ifvqd40","pricing_plan_id":"cebpf4jnsgd1na2vs0mg"},{"bike_id":"d0fe6d23-0520-4ae2-ba22-adc8cf05a374","system_id":"levelo_inurba_marseille","lat":43.24975,"lon":5.40498,"is_reserved":false,"is_disabled":false,"rental_uris":{"android":"levelo://app?vid=d0fe6d23-0520-4ae2-ba22-adc8cf05a374","ios":"levelo://app?vid=d0fe6d23-0520-4ae2-ba22-adc8cf05a374"},"vehicle_type_id":"4","last_reported":1773766493,"current_range_meters":4000,"station_id":"st_d2ngiaodas8pm72gd1h0","pricing_plan_id":"cebpf4jnsgd1na2vs0mg"},{"bike_id":"2f6af145-9965-4232-ba20-a2113c18cb78","system_id":"levelo_inurba_marseille","lat":43.29561,"lon":5.39953,"is_reserved":false,"is_disabled":true,"rental_uris":{"android":"levelo://app?vid=2f6af145-9965-4232-ba20-a2113c18cb78","ios":"levelo://app?vid=2f6af145-9965-4232-ba20-a2113c18cb78"},"vehicle_type_id":"4","last_reported":1773766493,"current_range_meters":4000,"station_id":"ce4bh312rcd13ifvqdj0","pricing_plan_id":"cebpf4jnsgd1na2vs0mg"},{"bike_id":"0f53d472-bee4-40de-8ab2-7656a789b4f7","system_id":"levelo_inurba_marseille","lat":43.22549,"lon":5.34935,"is_reserved":false,"is_disabled":false,"rental_uris":{"android":"levelo://app?vid=0f53d472-bee4-40de-8ab2-7656a789b4f7","ios":"levelo://app?vid=0f53d472-bee4-40de-8ab2-7656a789b4f7"},"vehicle_type_id":"4","last_reported":1773766493,"current_range_meters":4000,"station_id":"","pricing_plan_id":"cebpf4jnsgd1na2vs0mg"},{"bike_id":"89f6044f-7e57-49f5-8263-c2e55e117b58","system_id":"levelo_inurba_marseille","lat":43.27831,"lon":5.40754,"is_reserved":false,"is_disabled":false,"rental_uris":{"android":"levelo://app?vid=89f6044f-7e57-49f5-8263-c2e55e117b58","ios":"levelo://app?vid=89f6044f-7e57-49f5-8263-c2e55e117b58"},"vehicle_type_id":"4","last_reported":1773766493,"current_range_meters":4000,"station_id":"ce4bhnh2rcd13ifvqgtg","pricing_plan_id":"cebpf4jnsgd1na2vs0mg"},{"bike_id":"6e1a84df-caf9-4ee7-aed9-0f262a60cd9e","system_id":"levelo_inurba_marseille","lat":43.30424,"lon":5.41271,"is_reserved":false,"is_disabled":false,"rental_uris":{"android":"levelo://app?vid=6e1a84df-caf9-4ee7-aed9-0f262a60cd9e","ios":"levelo://app?vid=6e1a84df-caf9-4ee7-aed9-0f262a60cd9e"},"vehicle_type_id":"4","last_reported":1773766493,"current_range_meters":4000,"station_id":"ce4bhop2rcd13ifvqh8g","pricing_plan_id":"cebpf4jnsgd1na2vs0mg"},{"bike_id":"29a54209-1805-4985-95a0-2df2873998c5","system_id":"levelo_inurba_marseille","lat":43.28408,"lon":5.34969,"is_reserved":false,"is_disabled":false,"rental_uris":{"android":"levelo://app?vid=29a54209-1805-4985-95a0-2df2873998c5","ios":"levelo://app?vid=29a54209-1805-4985-95a0-2df2873998c5"},"vehicle_type_id":"4","last_reported":1773766493,"current_range_meters":4000,"station_id":"ce4bhbh2rcd13ifvqepg","pricing_plan_id":"cebpf4jnsgd1na2vs0mg"},{"bike_id":"61b46abe-1a6b-4bc8-ba2e-67c9dd839b3f","system_id":"levelo_inurba_marseille","lat":43.27374,"lon":5.36253,"is_reserved":false,"is_disabled":false,"rental_uris":{"android":"levelo://app?vid=61b46abe-1a6b-4bc8-ba2e-67c9dd839b3f","ios":"levelo://app?vid=61b46abe-1a6b-4bc8-ba2e-67c9dd839b3f"},"vehicle_type_id":"4","last_reported":1773766493,"current_range_meters":4000,"station_id":"ce4bhbh2rcd13ifvqeo0","pricing_plan_id":"cebpf4jnsgd1na2vs0mg"},{"bike_id":"6b6c8646-8072-421e-83b8-45ca77cbd9e0","system_id":"levelo_inurba_marseille","lat":43.26029,"lon":5.37548,"is_reserved":false,"is_disabled":false,"rental_uris":{"android":"levelo://app?vid=6b6c8646-8072-421e-83b8-45ca77cbd9e0","ios":"levelo://app?vid=6b6c8646-8072-421e-83b8-45ca77cbd9e0"},"vehicle_type_id":"4","last_reported":1773766493,"current_range_meters":4000,"station_id":"ce4bhgh2rcd13ifvqfa0","pricing_plan_id":"cebpf4jnsgd1na2vs0mg"},{"bike_id":"ae9e8757-9ae3-4ce6-9985-86fd8532a06b","system_id":"levelo_inurba_marseille","lat":43.26563,"lon":5.37289,"is_reserved":false,"is_disabled":false,"rental_uris":{"android":"levelo://app?vid=ae9e8757-9ae3-4ce6-9985-86fd8532a06b","ios":"levelo://app?vid=ae9e8757-9ae3-4ce6-9985-86fd8532a06b"},"vehicle_type_id":"4","last_reported":1773766493,"current_range_meters":4000,"station_id":"ce4bhg12rcd13ifvqf70","pricing_plan_id":"cebpf4jnsgd1na2vs0mg"},{"bike_id":"cace3d1d-1bca-4b13-a9d9-15d4fe451dee","system_id":"levelo_inurba_marseille","lat":43.2465,"lon":5.43149,"is_reserved":false,"is_disabled":false,"rental_uris":{"android":"levelo://app?vid=cace3d1d-1bca-4b13-a9d9-15d4fe451dee","ios":"levelo://app?vid=cace3d1d-1bca-4b13-a9d9-15d4fe451dee"},"vehicle_type_id":"4","last_reported":1773766493,"current_range_meters":4000,"station_id":"","pricing_plan_id":"cebpf4jnsgd1na2vs0mg"},{"bike_id":"79d7e2d8-96ed-465e-b31b-1696801515fd","system_id":"levelo_inurba_marseille","lat":43.24169,"lon":5.36382,"is_reserved":false,"is_disabled":false,"rental_uris":{"android":"levelo://app?vid=79d7e2d8-96ed-465e-b31b-1696801515fd","ios":"levelo://app?vid=79d7e2d8-96ed-465e-b31b-1696801515fd"},"vehicle_type_id":"4","last_reported":1773766493,"current_range_meters":4400,"station_id":"cpo36qri1sfpv3e86is0","pricing_plan_id":"cebpf4jnsgd1na2vs0mg"},{"bike_id":"9761ea07-5436-44a3-b47a-edd5aaaf46a7","system_id":"levelo_inurba_marseille","lat":43.2481,"lon":5.37457,"is_reserved":false,"is_disabled":false,"rental_uris":{"android":"levelo://app?vid=9761ea07-5436-44a3-b47a-edd5aaaf46a7","ios":"levelo://app?vid=9761ea07-5436-44a3-b47a-edd5aaaf46a7"},"vehicle_type_id":"4","last_reported":1773766493,"current_range_meters":4400,"station_id":"ce4bhgh2rcd13ifvqfb0","pricing_plan_id":"cebpf4jnsgd1na2vs0mg"},{"bike_id":"18529d03-598e-4ff3-9af9-51f254f849c9","system_id":"levelo_inurba_marseille","lat":43.23784,"lon":5.36631,"is_reserved":false,"is_disabled":false,"rental_uris":{"android":"levelo://app?vid=18529d03-598e-4ff3-9af9-51f254f849c9","ios":"levelo://app?vid=18529d03-598e-4ff3-9af9-51f254f849c9"},"vehicle_type_id":"4","last_reported":1773766493,"current_range_meters":4400,"station_id":"st_d3nk18o9ro0c73en2l3g","pricing_plan_id":"cebpf4jnsgd1na2vs0mg"},{"bike_id":"6d49c4e9-df19-4d87-93b1-ab8b066ec811","system_id":"levelo_inurba_marseille","lat":43.29196,"lon":5.35808,"is_reserved":false,"is_disabled":false,"rental_uris":{"android":"levelo://app?vid=6d49c4e9-df19-4d87-93b1-ab8b066ec811","ios":"levelo://app?vid=6d49c4e9-df19-4d87-93b1-ab8b066ec811"},"vehicle_type_id":"4","last_reported":1773766493,"current_range_meters":4400,"station_id":"ce4bhb12rcd13ifvqel0","pricing_plan_id":"cebpf4jnsgd1na2vs0mg"},{"bike_id":"7e407565-1e79-44f0-b6b0-c40b22cb843e","system_id":"levelo_inurba_marseille","lat":43.28266,"lon":5.3506,"is_reserved":false,"is_disabled":false,"rental_uris":{"android":"levelo://app?vid=7e407565-1e79-44f0-b6b0-c40b22cb843e","ios":"levelo://app?vid=7e407565-1e79-44f0-b6b0-c40b22cb843e"},"vehicle_type_id":"4","last_reported":1773766493,"current_range_meters":4400,"station_id":"ce4bhbp2rcd13ifvqerg","pricing_plan_id":"cebpf4jnsgd1na2vs0mg"},{"bike_id":"27f46d9a-9efb-466d-b269-579c19f3eb5d","system_id":"levelo_inurba_marseille","lat":43.29578,"lon":5.37524,"is_reserved":false,"is_disabled":false,"rental_uris":{"android":"levelo://app?vid=27f46d9a-9efb-466d-b269-579c19f3eb5d","ios":"levelo://app?vid=27f46d9a-9efb-466d-b269-579c19f3eb5d"},"vehicle_type_id":"4","last_reported":1773766493,"current_range_meters":4400,"station_id":"ce4bgh92rcd13ifvqb50","pricing_plan_id":"cebpf4jnsgd1na2vs0mg"},{"bike_id":"2b66539f-2e31-46f9-9170-31cbf1b90351","system_id":"levelo_inurba_marseille","lat":43.312753,"lon":5.368312,"is_reserved":false,"is_disabled":false,"rental_uris":{"android":"levelo://app?vid=2b66539f-2e31-46f9-9170-31cbf1b90351","ios":"levelo://app?vid=2b66539f-2e31-46f9-9170-31cbf1b90351"},"vehicle_type_id":"4","last_reported":1773766493,"current_range_meters":4400,"station_id":"","pricing_plan_id":"cebpf4jnsgd1na2vs0mg"},{"bike_id":"a0663bed-5223-4ba7-9666-a10b4d540499","system_id":"levelo_inurba_marseille","lat":43.3022,"lon":5.39505,"is_reserved":false,"is_disabled":false,"rental_uris":{"android":"levelo://app?vid=a0663bed-5223-4ba7-9666-a10b4d540499","ios":"levelo://app?vid=a0663bed-5223-4ba7-9666-a10b4d540499"},"vehicle_type_id":"4","last_reported":1773766493,"current_range_meters":4400,"station_id":"ce4bh0p2rcd13ifvqd70","pricing_plan_id":"cebpf4jnsgd1na2vs0mg"},{"bike_id":"2d475c7c-0764-4ac9-8950-41d5059b573b","system_id":"levelo_inurba_marseille","lat":43.28491,"lon":5.48391,"is_reserved":false,"is_disabled":false,"rental_uris":{"android":"levelo://app?vid=2d475c7c-0764-4ac9-8950-41d5059b573b","ios":"levelo://app?vid=2d475c7c-0764-4ac9-8950-41d5059b573b"},"vehicle_type_id":"4","last_reported":1773766493,"current_range_meters":4800,"station_id":"","pricing_plan_id":"cebpf4jnsgd1na2vs0mg"},{"bike_id":"fcc16676-bdcc-453d-943e-a6082336e83f","system_id":"levelo_inurba_marseille","lat":43.29807,"lon":5.44077,"is_reserved":false,"is_disabled":false,"rental_uris":{"android":"levelo://app?vid=fcc16676-bdcc-453d-943e-a6082336e83f","ios":"levelo://app?vid=fcc16676-bdcc-453d-943e-a6082336e83f"},"vehicle_type_id":"4","last_reported":1773766493,"current_range_meters":4800,"station_id":"st_d3jp68qikq2c7381ktn0","pricing_plan_id":"cebpf4jnsgd1na2vs0mg"},{"bike_id":"f7d8440a-63ed-449b-9c03-59f750327739","system_id":"levelo_inurba_marseille","lat":43.2512,"lon":5.40326,"is_reserved":false,"is_disabled":false,"rental_uris":{"android":"levelo://app?vid=f7d8440a-63ed-449b-9c03-59f750327739","ios":"levelo://app?vid=f7d8440a-63ed-449b-9c03-59f750327739"},"vehicle_type_id":"4","last_reported":1773766493,"current_range_meters":4800,"station_id":"ce4bhlh2rcd13ifvqgig","pricing_plan_id":"cebpf4jnsgd1na2vs0mg"},{"bike_id":"7db824d0-3857-4375-8bad-85ca23d833d8","system_id":"levelo_inurba_marseille","lat":43.29918,"lon":5.36531,"is_reserved":false,"is_disabled":false,"rental_uris":{"android":"levelo://app?vid=7db824d0-3857-4375-8bad-85ca23d833d8","ios":"levelo://app?vid=7db824d0-3857-4375-8bad-85ca23d833d8"},"vehicle_type_id":"4","last_reported":1773766493,"current_range_meters":4800,"station_id":"ce4bgm92rcd13ifvqbr0","pricing_plan_id":"cebpf4jnsgd1na2vs0mg"},{"bike_id":"69d2e5d2-aab9-4fc9-a42e-b520c7e8b4f1","system_id":"levelo_inurba_marseille","lat":43.23051,"lon":5.35493,"is_reserved":false,"is_disabled":false,"rental_uris":{"android":"levelo://app?vid=69d2e5d2-aab9-4fc9-a42e-b520c7e8b4f1","ios":"levelo://app?vid=69d2e5d2-aab9-4fc9-a42e-b520c7e8b4f1"},"vehicle_type_id":"4","last_reported":1773766493,"current_range_meters":4800,"station_id":"cpo3342slgdg3j2ifvpg","pricing_plan_id":"cebpf4jnsgd1na2vs0mg"},{"bike_id":"fc47abe7-cfea-4603-9b16-e89f62a15b75","system_id":"levelo_inurba_marseille","lat":43.29984,"lon":5.38502,"is_reserved":false,"is_disabled":true,"rental_uris":{"android":"levelo://app?vid=fc47abe7-cfea-4603-9b16-e89f62a15b75","ios":"levelo://app?vid=fc47abe7-cfea-4603-9b16-e89f62a15b75"},"vehicle_type_id":"4","last_reported":1773766493,"current_range_meters":4800,"station_id":"ce4bgj92rcd13ifvqbd0","pricing_plan_id":"cebpf4jnsgd1na2vs0mg"},{"bike_id":"8075583d-1614-45af-941c-ea9688ecd12b","system_id":"levelo_inurba_marseille","lat":43.27944,"lon":5.41052,"is_reserved":false,"is_disabled":false,"rental_uris":{"android":"levelo://app?vid=8075583d-1614-45af-941c-ea9688ecd12b","ios":"levelo://app?vid=8075583d-1614-45af-941c-ea9688ecd12b"},"vehicle_type_id":"4","last_reported":1773766493,"current_range_meters":4800,"station_id":"ce4bhnp2rcd13ifvqh0g","pricing_plan_id":"cebpf4jnsgd1na2vs0mg"},{"bike_id":"ce5fc3df-c4e7-41e2-99a8-e3d06f45b8a6","system_id":"levelo_inurba_marseille","lat":43.30296,"lon":5.36895,"is_reserved":false,"is_disabled":false,"rental_uris":{"android":"levelo://app?vid=ce5fc3df-c4e7-41e2-99a8-e3d06f45b8a6","ios":"levelo://app?vid=ce5fc3df-c4e7-41e2-99a8-e3d06f45b8a6"},"vehicle_type_id":"4","last_reported":1773766493,"current_range_meters":4800,"station_id":"ce4bgqh2rcd13ifvqc5g","pricing_plan_id":"cebpf4jnsgd1na2vs0mg"},{"bike_id":"88858f89-fe21-45f8-acbb-9ce67472ddb3","system_id":"levelo_inurba_marseille","lat":43.22927,"lon":5.3538,"is_reserved":false,"is_disabled":false,"rental_uris":{"android":"levelo://app?vid=88858f89-fe21-45f8-acbb-9ce67472ddb3","ios":"levelo://app?vid=88858f89-fe21-45f8-acbb-9ce67472ddb3"},"vehicle_type_id":"4","last_reported":1773766493,"current_range_meters":4800,"station_id":"cpo3532slgdg3j2ikp40","pricing_plan_id":"cebpf4jnsgd1na2vs0mg"},{"bike_id":"96dac97a-0c76-4079-a74f-d3b50e0ff04c","system_id":"levelo_inurba_marseille","lat":43.21196,"lon":5.3507,"is_reserved":false,"is_disabled":false,"rental_uris":{"android":"levelo://app?vid=96dac97a-0c76-4079-a74f-d3b50e0ff04c","ios":"levelo://app?vid=96dac97a-0c76-4079-a74f-d3b50e0ff04c"},"vehicle_type_id":"4","last_reported":1773766493,"current_range_meters":4800,"station_id":"st_cvj6sg6p6f1abm77japg","pricing_plan_id":"cebpf4jnsgd1na2vs0mg"},{"bike_id":"9988a9a1-801f-45bc-bf65-c420fc894b77","system_id":"levelo_inurba_marseille","lat":43.29259,"lon":5.38438,"is_reserved":false,"is_disabled":false,"rental_uris":{"android":"levelo://app?vid=9988a9a1-801f-45bc-bf65-c420fc894b77","ios":"levelo://app?vid=9988a9a1-801f-45bc-bf65-c420fc894b77"},"vehicle_type_id":"4","last_reported":1773766493,"current_range_meters":4800,"station_id":"ce4bh692rcd13ifvqea0","pricing_plan_id":"cebpf4jnsgd1na2vs0mg"},{"bike_id":"99b3399f-a7f1-46ba-9d8d-17a6644bc2b4","system_id":"levelo_inurba_marseille","lat":43.21743,"lon":5.3461,"is_reserved":false,"is_disabled":false,"rental_uris":{"android":"levelo://app?vid=99b3399f-a7f1-46ba-9d8d-17a6644bc2b4","ios":"levelo://app?vid=99b3399f-a7f1-46ba-9d8d-17a6644bc2b4"},"vehicle_type_id":"4","last_reported":1773766493,"current_range_meters":4800,"station_id":"st_cvj6r9ubvosntc0bgbag","pricing_plan_id":"cebpf4jnsgd1na2vs0mg"},{"bike_id":"2308325c-0d1f-40b6-8813-c48c20aa4af8","system_id":"levelo_inurba_marseille","lat":43.22936,"lon":5.35367,"is_reserved":false,"is_disabled":false,"rental_uris":{"android":"levelo://app?vid=2308325c-0d1f-40b6-8813-c48c20aa4af8","ios":"levelo://app?vid=2308325c-0d1f-40b6-8813-c48c20aa4af8"},"vehicle_type_id":"4","last_reported":1773766493,"current_range_meters":5600,"station_id":"cpo3532slgdg3j2ikp40","pricing_plan_id":"cebpf4jnsgd1na2vs0mg"},{"bike_id":"55ad6576-3c79-4a6b-881b-323a7e8b70a1","system_id":"levelo_inurba_marseille","lat":43.24973,"lon":5.38938,"is_reserved":false,"is_disabled":false,"rental_uris":{"android":"levelo://app?vid=55ad6576-3c79-4a6b-881b-323a7e8b70a1","ios":"levelo://app?vid=55ad6576-3c79-4a6b-881b-323a7e8b70a1"},"vehicle_type_id":"4","last_reported":1773766493,"current_range_meters":5600,"station_id":"ce4bhgp2rcd13ifvqfd0","pricing_plan_id":"cebpf4jnsgd1na2vs0mg"},{"bike_id":"0df53ef0-3011-4389-8603-1dd438fc9de0","system_id":"levelo_inurba_marseille","lat":43.28421,"lon":5.34995,"is_reserved":false,"is_disabled":false,"rental_uris":{"android":"levelo://app?vid=0df53ef0-3011-4389-8603-1dd438fc9de0","ios":"levelo://app?vid=0df53ef0-3011-4389-8603-1dd438fc9de0"},"vehicle_type_id":"4","last_reported":1773766493,"current_range_meters":5600,"station_id":"ce4bhbh2rcd13ifvqepg","pricing_plan_id":"cebpf4jnsgd1na2vs0mg"},{"bike_id":"dd23c57f-71b3-4784-90bf-0bbd4dd44717","system_id":"levelo_inurba_marseille","lat":43.29002,"lon":5.35609,"is_reserved":false,"is_disabled":false,"rental_uris":{"android":"levelo://app?vid=dd23c57f-71b3-4784-90bf-0bbd4dd44717","ios":"levelo://app?vid=dd23c57f-71b3-4784-90bf-0bbd4dd44717"},"vehicle_type_id":"4","last_reported":1773766493,"current_range_meters":5600,"station_id":"ce4bhb92rcd13ifvqen0","pricing_plan_id":"cebpf4jnsgd1na2vs0mg"},{"bike_id":"b3e3399c-3837-42b8-afac-39674642005e","system_id":"levelo_inurba_marseille","lat":43.29753,"lon":5.42763,"is_reserved":false,"is_disabled":false,"rental_uris":{"android":"levelo://app?vid=b3e3399c-3837-42b8-afac-39674642005e","ios":"levelo://app?vid=b3e3399c-3837-42b8-afac-39674642005e"},"vehicle_type_id":"4","last_reported":1773766493,"current_range_meters":5600,"station_id":"st_d3md5207bmas73dh9klg","pricing_plan_id":"cebpf4jnsgd1na2vs0mg"},{"bike_id":"feaf2e83-6bc7-46d3-b8dc-e52b9fc8cf3e","system_id":"levelo_inurba_marseille","lat":43.22562,"lon":5.41626,"is_reserved":false,"is_disabled":false,"rental_uris":{"android":"levelo://app?vid=feaf2e83-6bc7-46d3-b8dc-e52b9fc8cf3e","ios":"levelo://app?vid=feaf2e83-6bc7-46d3-b8dc-e52b9fc8cf3e"},"vehicle_type_id":"4","last_reported":1773766493,"current_range_meters":6000,"station_id":"st_d2o4gvlbi1j2169b742g","pricing_plan_id":"cebpf4jnsgd1na2vs0mg"},{"bike_id":"37c696a5-1ad1-45c7-99af-cda934b766c9","system_id":"levelo_inurba_marseille","lat":43.28162,"lon":5.42595,"is_reserved":false,"is_disabled":false,"rental_uris":{"android":"levelo://app?vid=37c696a5-1ad1-45c7-99af-cda934b766c9","ios":"levelo://app?vid=37c696a5-1ad1-45c7-99af-cda934b766c9"},"vehicle_type_id":"4","last_reported":1773766493,"current_range_meters":6000,"station_id":"ce4bhnh2rcd13ifvqgug","pricing_plan_id":"cebpf4jnsgd1na2vs0mg"},{"bike_id":"03812eec-b185-465c-8c48-7984e651c3d0","system_id":"levelo_inurba_marseille","lat":43.33047,"lon":5.3905,"is_reserved":false,"is_disabled":false,"rental_uris":{"android":"levelo://app?vid=03812eec-b185-465c-8c48-7984e651c3d0","ios":"levelo://app?vid=03812eec-b185-465c-8c48-7984e651c3d0"},"vehicle_type_id":"4","last_reported":1773766493,"current_range_meters":6000,"station_id":"ce4bhr92rcd13ifvqhrg","pricing_plan_id":"cebpf4jnsgd1na2vs0mg"},{"bike_id":"7e6e02a0-d392-46f7-8383-3ab2aaabc8d1","system_id":"levelo_inurba_marseille","lat":43.29929,"lon":5.37453,"is_reserved":false,"is_disabled":false,"rental_uris":{"android":"levelo://app?vid=7e6e02a0-d392-46f7-8383-3ab2aaabc8d1","ios":"levelo://app?vid=7e6e02a0-d392-46f7-8383-3ab2aaabc8d1"},"vehicle_type_id":"4","last_reported":1773766493,"current_range_meters":6000,"station_id":"ce4bgjh2rcd13ifvqbg0","pricing_plan_id":"cebpf4jnsgd1na2vs0mg"},{"bike_id":"ac50f67e-25ab-4a35-893e-44016c00e567","system_id":"levelo_inurba_marseille","lat":43.28611,"lon":5.39871,"is_reserved":false,"is_disabled":false,"rental_uris":{"android":"levelo://app?vid=ac50f67e-25ab-4a35-893e-44016c00e567","ios":"levelo://app?vid=ac50f67e-25ab-4a35-893e-44016c00e567"},"vehicle_type_id":"4","last_reported":1773766493,"current_range_meters":6000,"station_id":"st_d4a7ka997mjs738ck50g","pricing_plan_id":"cebpf4jnsgd1na2vs0mg"},{"bike_id":"9e388cf0-8e8f-46e6-84d8-d8a7185a3797","system_id":"levelo_inurba_marseille","lat":43.31239,"lon":5.36856,"is_reserved":false,"is_disabled":false,"rental_uris":{"android":"levelo://app?vid=9e388cf0-8e8f-46e6-84d8-d8a7185a3797","ios":"levelo://app?vid=9e388cf0-8e8f-46e6-84d8-d8a7185a3797"},"vehicle_type_id":"4","last_reported":1773766493,"current_range_meters":6000,"station_id":"ce4bgl92rcd13ifvqbq0","pricing_plan_id":"cebpf4jnsgd1na2vs0mg"},{"bike_id":"9b44eabc-9473-4aeb-8589-934e8f4a2c0e","system_id":"levelo_inurba_marseille","lat":43.22944,"lon":5.35368,"is_reserved":false,"is_disabled":false,"rental_uris":{"android":"levelo://app?vid=9b44eabc-9473-4aeb-8589-934e8f4a2c0e","ios":"levelo://app?vid=9b44eabc-9473-4aeb-8589-934e8f4a2c0e"},"vehicle_type_id":"4","last_reported":1773766493,"current_range_meters":6000,"station_id":"cpo3532slgdg3j2ikp40","pricing_plan_id":"cebpf4jnsgd1na2vs0mg"},{"bike_id":"d6f4fcc9-529e-44c9-8ab1-66a46ec0a2d7","system_id":"levelo_inurba_marseille","lat":43.29658,"lon":5.37461,"is_reserved":false,"is_disabled":false,"rental_uris":{"android":"levelo://app?vid=d6f4fcc9-529e-44c9-8ab1-66a46ec0a2d7","ios":"levelo://app?vid=d6f4fcc9-529e-44c9-8ab1-66a46ec0a2d7"},"vehicle_type_id":"4","last_reported":1773766493,"current_range_meters":6000,"station_id":"","pricing_plan_id":"cebpf4jnsgd1na2vs0mg"},{"bike_id":"47e85435-d9da-40a0-81aa-fe5fc83942e4","system_id":"levelo_inurba_marseille","lat":43.26689,"lon":5.38277,"is_reserved":false,"is_disabled":false,"rental_uris":{"android":"levelo://app?vid=47e85435-d9da-40a0-81aa-fe5fc83942e4","ios":"levelo://app?vid=47e85435-d9da-40a0-81aa-fe5fc83942e4"},"vehicle_type_id":"4","last_reported":1773766493,"current_range_meters":6000,"station_id":"ce4bhg92rcd13ifvqf90","pricing_plan_id":"cebpf4jnsgd1na2vs0mg"},{"bike_id":"4edc1e69-f919-4c2f-a6b8-66257e87a54f","system_id":"levelo_inurba_marseille","lat":43.28479,"lon":5.48398,"is_reserved":false,"is_disabled":false,"rental_uris":{"android":"levelo://app?vid=4edc1e69-f919-4c2f-a6b8-66257e87a54f","ios":"levelo://app?vid=4edc1e69-f919-4c2f-a6b8-66257e87a54f"},"vehicle_type_id":"4","last_reported":1773766493,"current_range_meters":6000,"station_id":"","pricing_plan_id":"cebpf4jnsgd1na2vs0mg"},{"bike_id":"e4b515b3-5a64-4f24-8a63-3407e3500a15","system_id":"levelo_inurba_marseille","lat":43.2432,"lon":5.40234,"is_reserved":false,"is_disabled":false,"rental_uris":{"android":"levelo://app?vid=e4b515b3-5a64-4f24-8a63-3407e3500a15","ios":"levelo://app?vid=e4b515b3-5a64-4f24-8a63-3407e3500a15"},"vehicle_type_id":"4","last_reported":1773766493,"current_range_meters":6000,"station_id":"","pricing_plan_id":"cebpf4jnsgd1na2vs0mg"},{"bike_id":"b91c1346-bd0f-4db4-a66e-854353bcdd51","system_id":"levelo_inurba_marseille","lat":43.29508,"lon":5.39041,"is_reserved":false,"is_disabled":false,"rental_uris":{"android":"levelo://app?vid=b91c1346-bd0f-4db4-a66e-854353bcdd51","ios":"levelo://app?vid=b91c1346-bd0f-4db4-a66e-854353bcdd51"},"vehicle_type_id":"4","last_reported":1773766493,"current_range_meters":6000,"station_id":"ce4bh3p2rcd13ifvqdp0","pricing_plan_id":"cebpf4jnsgd1na2vs0mg"},{"bike_id":"d1f5dd33-9b6a-476c-b78f-96b1a03e7cd7","system_id":"levelo_inurba_marseille","lat":43.28838,"lon":5.35875,"is_reserved":false,"is_disabled":false,"rental_uris":{"android":"levelo://app?vid=d1f5dd33-9b6a-476c-b78f-96b1a03e7cd7","ios":"levelo://app?vid=d1f5dd33-9b6a-476c-b78f-96b1a03e7cd7"},"vehicle_type_id":"4","last_reported":1773766493,"current_range_meters":6000,"station_id":"ce4bhb12rcd13ifvqem0","pricing_plan_id":"cebpf4jnsgd1na2vs0mg"},{"bike_id":"3df75077-2666-4436-8a3f-a69331f9ce94","system_id":"levelo_inurba_marseille","lat":43.24969,"lon":5.40495,"is_reserved":false,"is_disabled":false,"rental_uris":{"android":"levelo://app?vid=3df75077-2666-4436-8a3f-a69331f9ce94","ios":"levelo://app?vid=3df75077-2666-4436-8a3f-a69331f9ce94"},"vehicle_type_id":"4","last_reported":1773766493,"current_range_meters":6000,"station_id":"st_d2ngiaodas8pm72gd1h0","pricing_plan_id":"cebpf4jnsgd1na2vs0mg"},{"bike_id":"314a259d-61ad-43a6-b05c-088d93e858f7","system_id":"levelo_inurba_marseille","lat":43.25512,"lon":5.37652,"is_reserved":false,"is_disabled":false,"rental_uris":{"android":"levelo://app?vid=314a259d-61ad-43a6-b05c-088d93e858f7","ios":"levelo://app?vid=314a259d-61ad-43a6-b05c-088d93e858f7"},"vehicle_type_id":"4","last_reported":1773766493,"current_range_meters":6400,"station_id":"ce4bhh12rcd13ifvqff0","pricing_plan_id":"cebpf4jnsgd1na2vs0mg"},{"bike_id":"bd576ff0-48f5-43b9-817e-de394a709fde","system_id":"levelo_inurba_marseille","lat":43.26215,"lon":5.3743,"is_reserved":false,"is_disabled":false,"rental_uris":{"android":"levelo://app?vid=bd576ff0-48f5-43b9-817e-de394a709fde","ios":"levelo://app?vid=bd576ff0-48f5-43b9-817e-de394a709fde"},"vehicle_type_id":"4","last_reported":1773766493,"current_range_meters":6400,"station_id":"ce4bhgp2rcd13ifvqfc0","pricing_plan_id":"cebpf4jnsgd1na2vs0mg"},{"bike_id":"57f59ea7-9661-484b-ab62-8930e39b76a3","system_id":"levelo_inurba_marseille","lat":43.23791,"lon":5.36636,"is_reserved":false,"is_disabled":false,"rental_uris":{"android":"levelo://app?vid=57f59ea7-9661-484b-ab62-8930e39b76a3","ios":"levelo://app?vid=57f59ea7-9661-484b-ab62-8930e39b76a3"},"vehicle_type_id":"4","last_reported":1773766493,"current_range_meters":6400,"station_id":"st_d3nk18o9ro0c73en2l3g","pricing_plan_id":"cebpf4jnsgd1na2vs0mg"},{"bike_id":"8afa82e0-443b-485e-812c-b0c0213ccf6b","system_id":"levelo_inurba_marseille","lat":43.29732,"lon":5.37701,"is_reserved":false,"is_disabled":true,"rental_uris":{"android":"levelo://app?vid=8afa82e0-443b-485e-812c-b0c0213ccf6b","ios":"levelo://app?vid=8afa82e0-443b-485e-812c-b0c0213ccf6b"},"vehicle_type_id":"4","last_reported":1773766493,"current_range_meters":6400,"station_id":"ce4bgkh2rcd13ifvqbl0","pricing_plan_id":"cebpf4jnsgd1na2vs0mg"},{"bike_id":"32510a45-f234-47b0-90a7-a4e471815b5a","system_id":"levelo_inurba_marseille","lat":43.26798,"lon":5.39425,"is_reserved":false,"is_disabled":false,"rental_uris":{"android":"levelo://app?vid=32510a45-f234-47b0-90a7-a4e471815b5a","ios":"levelo://app?vid=32510a45-f234-47b0-90a7-a4e471815b5a"},"vehicle_type_id":"4","last_reported":1773766493,"current_range_meters":6400,"station_id":"ce4bhh12rcd13ifvqfg0","pricing_plan_id":"cebpf4jnsgd1na2vs0mg"},{"bike_id":"9616cd2e-013f-4260-88a8-63bac565c9fe","system_id":"levelo_inurba_marseille","lat":43.33544,"lon":5.37469,"is_reserved":false,"is_disabled":false,"rental_uris":{"android":"levelo://app?vid=9616cd2e-013f-4260-88a8-63bac565c9fe","ios":"levelo://app?vid=9616cd2e-013f-4260-88a8-63bac565c9fe"},"vehicle_type_id":"4","last_reported":1773766493,"current_range_meters":6400,"station_id":"st_d46tts09ee8s73dlu43g","pricing_plan_id":"cebpf4jnsgd1na2vs0mg"},{"bike_id":"ff280f4f-dc74-4b71-810c-352f7d333252","system_id":"levelo_inurba_marseille","lat":43.28281,"lon":5.35079,"is_reserved":false,"is_disabled":false,"rental_uris":{"android":"levelo://app?vid=ff280f4f-dc74-4b71-810c-352f7d333252","ios":"levelo://app?vid=ff280f4f-dc74-4b71-810c-352f7d333252"},"vehicle_type_id":"4","last_reported":1773766493,"current_range_meters":6400,"station_id":"ce4bhbp2rcd13ifvqerg","pricing_plan_id":"cebpf4jnsgd1na2vs0mg"},{"bike_id":"c84865df-58a0-485a-b466-02fb26eb4ff0","system_id":"levelo_inurba_marseille","lat":43.23206,"lon":5.35537,"is_reserved":false,"is_disabled":false,"rental_uris":{"android":"levelo://app?vid=c84865df-58a0-485a-b466-02fb26eb4ff0","ios":"levelo://app?vid=c84865df-58a0-485a-b466-02fb26eb4ff0"},"vehicle_type_id":"4","last_reported":1773766493,"current_range_meters":6400,"station_id":"ce4bhu92rcd13ifvqi70","pricing_plan_id":"cebpf4jnsgd1na2vs0mg"},{"bike_id":"0c92cf57-4c39-4ab2-8fb1-0681d8d4c0d7","system_id":"levelo_inurba_marseille","lat":43.2858,"lon":5.39481,"is_reserved":false,"is_disabled":false,"rental_uris":{"android":"levelo://app?vid=0c92cf57-4c39-4ab2-8fb1-0681d8d4c0d7","ios":"levelo://app?vid=0c92cf57-4c39-4ab2-8fb1-0681d8d4c0d7"},"vehicle_type_id":"4","last_reported":1773766493,"current_range_meters":6400,"station_id":"ce4bh292rcd13ifvqdg0","pricing_plan_id":"cebpf4jnsgd1na2vs0mg"},{"bike_id":"3dad20a7-e396-4101-adc6-30f4c7f64d56","system_id":"levelo_inurba_marseille","lat":43.25017,"lon":5.38914,"is_reserved":false,"is_disabled":false,"rental_uris":{"android":"levelo://app?vid=3dad20a7-e396-4101-adc6-30f4c7f64d56","ios":"levelo://app?vid=3dad20a7-e396-4101-adc6-30f4c7f64d56"},"vehicle_type_id":"4","last_reported":1773766493,"current_range_meters":6400,"station_id":"ce4bhgp2rcd13ifvqfd0","pricing_plan_id":"cebpf4jnsgd1na2vs0mg"},{"bike_id":"41a644e1-505e-43de-88aa-81091c7b8008","system_id":"levelo_inurba_marseille","lat":43.28936,"lon":5.36638,"is_reserved":false,"is_disabled":false,"rental_uris":{"android":"levelo://app?vid=41a644e1-505e-43de-88aa-81091c7b8008","ios":"levelo://app?vid=41a644e1-505e-43de-88aa-81091c7b8008"},"vehicle_type_id":"4","last_reported":1773766493,"current_range_meters":6400,"station_id":"ce4bhap2rcd13ifvqek0","pricing_plan_id":"cebpf4jnsgd1na2vs0mg"},{"bike_id":"7c245f6b-63fb-4c36-8493-afb8fd5288f8","system_id":"levelo_inurba_marseille","lat":43.31195,"lon":5.3903,"is_reserved":false,"is_disabled":false,"rental_uris":{"android":"levelo://app?vid=7c245f6b-63fb-4c36-8493-afb8fd5288f8","ios":"levelo://app?vid=7c245f6b-63fb-4c36-8493-afb8fd5288f8"},"vehicle_type_id":"4","last_reported":1773766493,"current_range_meters":6400,"station_id":"","pricing_plan_id":"cebpf4jnsgd1na2vs0mg"},{"bike_id":"5be24bc2-3457-489f-9581-ae8543c3cecd","system_id":"levelo_inurba_marseille","lat":43.2318,"lon":5.39988,"is_reserved":false,"is_disabled":false,"rental_uris":{"android":"levelo://app?vid=5be24bc2-3457-489f-9581-ae8543c3cecd","ios":"levelo://app?vid=5be24bc2-3457-489f-9581-ae8543c3cecd"},"vehicle_type_id":"4","last_reported":1773766493,"current_range_meters":6400,"station_id":"ce4bhn12rcd13ifvqgqg","pricing_plan_id":"cebpf4jnsgd1na2vs0mg"},{"bike_id":"36bcefea-1744-478b-a4f4-a282d99e8251","system_id":"levelo_inurba_marseille","lat":43.24564,"lon":5.39516,"is_reserved":false,"is_disabled":true,"rental_uris":{"android":"levelo://app?vid=36bcefea-1744-478b-a4f4-a282d99e8251","ios":"levelo://app?vid=36bcefea-1744-478b-a4f4-a282d99e8251"},"vehicle_type_id":"4","last_reported":1773766493,"current_range_meters":6400,"station_id":"ce4bhlp2rcd13ifvqgjg","pricing_plan_id":"cebpf4jnsgd1na2vs0mg"},{"bike_id":"913eeaf6-b6f7-447f-93e5-832b6655360f","system_id":"levelo_inurba_marseille","lat":43.32125,"lon":5.3681,"is_reserved":false,"is_disabled":false,"rental_uris":{"android":"levelo://app?vid=913eeaf6-b6f7-447f-93e5-832b6655360f","ios":"levelo://app?vid=913eeaf6-b6f7-447f-93e5-832b6655360f"},"vehicle_type_id":"4","last_reported":1773766493,"current_range_meters":6400,"station_id":"ce4bhrh2rcd13ifvqhug","pricing_plan_id":"cebpf4jnsgd1na2vs0mg"},{"bike_id":"f6c860f4-9c2e-4a13-b509-50fb1709859b","system_id":"levelo_inurba_marseille","lat":43.21195,"lon":5.35073,"is_reserved":false,"is_disabled":false,"rental_uris":{"android":"levelo://app?vid=f6c860f4-9c2e-4a13-b509-50fb1709859b","ios":"levelo://app?vid=f6c860f4-9c2e-4a13-b509-50fb1709859b"},"vehicle_type_id":"4","last_reported":1773766493,"current_range_meters":6800,"station_id":"st_cvj6sg6p6f1abm77japg","pricing_plan_id":"cebpf4jnsgd1na2vs0mg"},{"bike_id":"4eeecf6d-6108-42a0-b77f-fc0c0b55b73c","system_id":"levelo_inurba_marseille","lat":43.2993,"lon":5.37447,"is_reserved":false,"is_disabled":true,"rental_uris":{"android":"levelo://app?vid=4eeecf6d-6108-42a0-b77f-fc0c0b55b73c","ios":"levelo://app?vid=4eeecf6d-6108-42a0-b77f-fc0c0b55b73c"},"vehicle_type_id":"4","last_reported":1773766493,"current_range_meters":6800,"station_id":"ce4bgjh2rcd13ifvqbg0","pricing_plan_id":"cebpf4jnsgd1na2vs0mg"},{"bike_id":"73cde40a-b964-4076-9c61-b30ee0ead144","system_id":"levelo_inurba_marseille","lat":43.27046,"lon":5.40274,"is_reserved":false,"is_disabled":false,"rental_uris":{"android":"levelo://app?vid=73cde40a-b964-4076-9c61-b30ee0ead144","ios":"levelo://app?vid=73cde40a-b964-4076-9c61-b30ee0ead144"},"vehicle_type_id":"4","last_reported":1773766493,"current_range_meters":6800,"station_id":"ce4bhk92rcd13ifvqgc0","pricing_plan_id":"cebpf4jnsgd1na2vs0mg"},{"bike_id":"1d851264-6ba3-48c2-86f6-b84e8d5a0c62","system_id":"levelo_inurba_marseille","lat":43.29194,"lon":5.35805,"is_reserved":false,"is_disabled":true,"rental_uris":{"android":"levelo://app?vid=1d851264-6ba3-48c2-86f6-b84e8d5a0c62","ios":"levelo://app?vid=1d851264-6ba3-48c2-86f6-b84e8d5a0c62"},"vehicle_type_id":"4","last_reported":1773766493,"current_range_meters":6800,"station_id":"ce4bhb12rcd13ifvqel0","pricing_plan_id":"cebpf4jnsgd1na2vs0mg"},{"bike_id":"636bd2fe-b1d0-4947-a49b-be93611aab94","system_id":"levelo_inurba_marseille","lat":43.23955,"lon":5.36642,"is_reserved":false,"is_disabled":false,"rental_uris":{"android":"levelo://app?vid=636bd2fe-b1d0-4947-a49b-be93611aab94","ios":"levelo://app?vid=636bd2fe-b1d0-4947-a49b-be93611aab94"},"vehicle_type_id":"4","last_reported":1773766493,"current_range_meters":6800,"station_id":"ce4bhi12rcd13ifvqfp0","pricing_plan_id":"cebpf4jnsgd1na2vs0mg"},{"bike_id":"26d54746-6d07-4417-915d-d1fc8f3c0e9e","system_id":"levelo_inurba_marseille","lat":43.24392,"lon":5.37066,"is_reserved":false,"is_disabled":false,"rental_uris":{"android":"levelo://app?vid=26d54746-6d07-4417-915d-d1fc8f3c0e9e","ios":"levelo://app?vid=26d54746-6d07-4417-915d-d1fc8f3c0e9e"},"vehicle_type_id":"4","last_reported":1773766493,"current_range_meters":6800,"station_id":"ce4bhhh2rcd13ifvqfk0","pricing_plan_id":"cebpf4jnsgd1na2vs0mg"},{"bike_id":"58df6535-2746-4ca5-8ec4-a2736cc7519f","system_id":"levelo_inurba_marseille","lat":43.21189,"lon":5.35079,"is_reserved":false,"is_disabled":false,"rental_uris":{"android":"levelo://app?vid=58df6535-2746-4ca5-8ec4-a2736cc7519f","ios":"levelo://app?vid=58df6535-2746-4ca5-8ec4-a2736cc7519f"},"vehicle_type_id":"4","last_reported":1773766493,"current_range_meters":6800,"station_id":"st_cvj6sg6p6f1abm77japg","pricing_plan_id":"cebpf4jnsgd1na2vs0mg"},{"bike_id":"a650f10d-9ab2-42e1-a1ec-b23d66310508","system_id":"levelo_inurba_marseille","lat":43.27381,"lon":5.42391,"is_reserved":false,"is_disabled":true,"rental_uris":{"android":"levelo://app?vid=a650f10d-9ab2-42e1-a1ec-b23d66310508","ios":"levelo://app?vid=a650f10d-9ab2-42e1-a1ec-b23d66310508"},"vehicle_type_id":"4","last_reported":1773766493,"current_range_meters":6800,"station_id":"","pricing_plan_id":"cebpf4jnsgd1na2vs0mg"},{"bike_id":"30dfd78f-1c21-4c09-9136-351bdc1b1046","system_id":"levelo_inurba_marseille","lat":43.29258,"lon":5.38454,"is_reserved":false,"is_disabled":false,"rental_uris":{"android":"levelo://app?vid=30dfd78f-1c21-4c09-9136-351bdc1b1046","ios":"levelo://app?vid=30dfd78f-1c21-4c09-9136-351bdc1b1046"},"vehicle_type_id":"4","last_reported":1773766493,"current_range_meters":6800,"station_id":"ce4bh692rcd13ifvqea0","pricing_plan_id":"cebpf4jnsgd1na2vs0mg"},{"bike_id":"29516e8c-7530-4ed9-b303-05094e07afe5","system_id":"levelo_inurba_marseille","lat":43.30262,"lon":5.40075,"is_reserved":false,"is_disabled":false,"rental_uris":{"android":"levelo://app?vid=29516e8c-7530-4ed9-b303-05094e07afe5","ios":"levelo://app?vid=29516e8c-7530-4ed9-b303-05094e07afe5"},"vehicle_type_id":"4","last_reported":1773766493,"current_range_meters":6800,"station_id":"ce4bgvh2rcd13ifvqcs0","pricing_plan_id":"cebpf4jnsgd1na2vs0mg"},{"bike_id":"4422e6f6-4a49-4122-9da8-9cfe732e3858","system_id":"levelo_inurba_marseille","lat":43.28861,"lon":5.35847,"is_reserved":false,"is_disabled":false,"rental_uris":{"android":"levelo://app?vid=4422e6f6-4a49-4122-9da8-9cfe732e3858","ios":"levelo://app?vid=4422e6f6-4a49-4122-9da8-9cfe732e3858"},"vehicle_type_id":"4","last_reported":1773766493,"current_range_meters":6800,"station_id":"ce4bhb12rcd13ifvqem0","pricing_plan_id":"cebpf4jnsgd1na2vs0mg"},{"bike_id":"aa0ecd1b-8a8f-406f-94fc-b7d404cc8c05","system_id":"levelo_inurba_marseille","lat":43.28466,"lon":5.35898,"is_reserved":false,"is_disabled":false,"rental_uris":{"android":"levelo://app?vid=aa0ecd1b-8a8f-406f-94fc-b7d404cc8c05","ios":"levelo://app?vid=aa0ecd1b-8a8f-406f-94fc-b7d404cc8c05"},"vehicle_type_id":"4","last_reported":1773766493,"current_range_meters":6800,"station_id":"ce4bhah2rcd13ifvqei0","pricing_plan_id":"cebpf4jnsgd1na2vs0mg"},{"bike_id":"1377dd7d-d4b0-49e2-a449-817a4208e248","system_id":"levelo_inurba_marseille","lat":43.2654,"lon":5.37292,"is_reserved":false,"is_disabled":false,"rental_uris":{"android":"levelo://app?vid=1377dd7d-d4b0-49e2-a449-817a4208e248","ios":"levelo://app?vid=1377dd7d-d4b0-49e2-a449-817a4208e248"},"vehicle_type_id":"4","last_reported":1773766493,"current_range_meters":7200,"station_id":"ce4bhg12rcd13ifvqf70","pricing_plan_id":"cebpf4jnsgd1na2vs0mg"},{"bike_id":"7777369a-f380-429e-978d-f2a4ea9080d9","system_id":"levelo_inurba_marseille","lat":43.2707,"lon":5.42278,"is_reserved":false,"is_disabled":false,"rental_uris":{"android":"levelo://app?vid=7777369a-f380-429e-978d-f2a4ea9080d9","ios":"levelo://app?vid=7777369a-f380-429e-978d-f2a4ea9080d9"},"vehicle_type_id":"4","last_reported":1773766493,"current_range_meters":7200,"station_id":"ce4bhk92rcd13ifvqgb0","pricing_plan_id":"cebpf4jnsgd1na2vs0mg"},{"bike_id":"7a73b128-6eb2-47bb-8ea6-432d8e929d53","system_id":"levelo_inurba_marseille","lat":43.29971,"lon":5.41333,"is_reserved":false,"is_disabled":false,"rental_uris":{"android":"levelo://app?vid=7a73b128-6eb2-47bb-8ea6-432d8e929d53","ios":"levelo://app?vid=7a73b128-6eb2-47bb-8ea6-432d8e929d53"},"vehicle_type_id":"4","last_reported":1773766493,"current_range_meters":7200,"station_id":"ce4bhp12rcd13ifvqh9g","pricing_plan_id":"cebpf4jnsgd1na2vs0mg"},{"bike_id":"69d64625-5aeb-4c26-8777-1a456a82e662","system_id":"levelo_inurba_marseille","lat":43.30318,"lon":5.36883,"is_reserved":false,"is_disabled":false,"rental_uris":{"android":"levelo://app?vid=69d64625-5aeb-4c26-8777-1a456a82e662","ios":"levelo://app?vid=69d64625-5aeb-4c26-8777-1a456a82e662"},"vehicle_type_id":"4","last_reported":1773766493,"current_range_meters":7200,"station_id":"ce4bgqh2rcd13ifvqc5g","pricing_plan_id":"cebpf4jnsgd1na2vs0mg"},{"bike_id":"b5b8b144-cfaf-4287-9933-5469d18ff1ca","system_id":"levelo_inurba_marseille","lat":43.2871,"lon":5.37931,"is_reserved":false,"is_disabled":true,"rental_uris":{"android":"levelo://app?vid=b5b8b144-cfaf-4287-9933-5469d18ff1ca","ios":"levelo://app?vid=b5b8b144-cfaf-4287-9933-5469d18ff1ca"},"vehicle_type_id":"4","last_reported":1773766493,"current_range_meters":7200,"station_id":"ce4bh9p2rcd13ifvqec0","pricing_plan_id":"cebpf4jnsgd1na2vs0mg"},{"bike_id":"53336338-5141-44ec-bb59-6df2460b79a8","system_id":"levelo_inurba_marseille","lat":43.30215,"lon":5.39462,"is_reserved":false,"is_disabled":true,"rental_uris":{"android":"levelo://app?vid=53336338-5141-44ec-bb59-6df2460b79a8","ios":"levelo://app?vid=53336338-5141-44ec-bb59-6df2460b79a8"},"vehicle_type_id":"4","last_reported":1773766493,"current_range_meters":7200,"station_id":"ce4bh0p2rcd13ifvqd70","pricing_plan_id":"cebpf4jnsgd1na2vs0mg"},{"bike_id":"5c905397-02bb-4489-bc2a-606670e3b8c3","system_id":"levelo_inurba_marseille","lat":43.27174,"lon":5.40999,"is_reserved":false,"is_disabled":false,"rental_uris":{"android":"levelo://app?vid=5c905397-02bb-4489-bc2a-606670e3b8c3","ios":"levelo://app?vid=5c905397-02bb-4489-bc2a-606670e3b8c3"},"vehicle_type_id":"4","last_reported":1773766493,"current_range_meters":7200,"station_id":"ce4bhl12rcd13ifvqgf0","pricing_plan_id":"cebpf4jnsgd1na2vs0mg"},{"bike_id":"b0bfdb70-81af-4bb3-a43e-f2bdf6f766ed","system_id":"levelo_inurba_marseille","lat":43.28703,"lon":5.37374,"is_reserved":false,"is_disabled":false,"rental_uris":{"android":"levelo://app?vid=b0bfdb70-81af-4bb3-a43e-f2bdf6f766ed","ios":"levelo://app?vid=b0bfdb70-81af-4bb3-a43e-f2bdf6f766ed"},"vehicle_type_id":"4","last_reported":1773766493,"current_range_meters":7200,"station_id":"ce4bh3p2rcd13ifvqdq0","pricing_plan_id":"cebpf4jnsgd1na2vs0mg"},{"bike_id":"ab2125f0-f477-425b-9c9a-e4231f7f002b","system_id":"levelo_inurba_marseille","lat":43.21746,"lon":5.34595,"is_reserved":false,"is_disabled":true,"rental_uris":{"android":"levelo://app?vid=ab2125f0-f477-425b-9c9a-e4231f7f002b","ios":"levelo://app?vid=ab2125f0-f477-425b-9c9a-e4231f7f002b"},"vehicle_type_id":"4","last_reported":1773766493,"current_range_meters":7200,"station_id":"st_cvj6r9ubvosntc0bgbag","pricing_plan_id":"cebpf4jnsgd1na2vs0mg"},{"bike_id":"8a4a129c-900f-4987-8e43-faa3977d59f0","system_id":"levelo_inurba_marseille","lat":43.26559,"lon":5.37313,"is_reserved":false,"is_disabled":false,"rental_uris":{"android":"levelo://app?vid=8a4a129c-900f-4987-8e43-faa3977d59f0","ios":"levelo://app?vid=8a4a129c-900f-4987-8e43-faa3977d59f0"},"vehicle_type_id":"4","last_reported":1773766493,"current_range_meters":7200,"station_id":"ce4bhg12rcd13ifvqf70","pricing_plan_id":"cebpf4jnsgd1na2vs0mg"},{"bike_id":"6c7da26a-6e3c-4915-81a4-435886bc144f","system_id":"levelo_inurba_marseille","lat":43.23192,"lon":5.35537,"is_reserved":false,"is_disabled":false,"rental_uris":{"android":"levelo://app?vid=6c7da26a-6e3c-4915-81a4-435886bc144f","ios":"levelo://app?vid=6c7da26a-6e3c-4915-81a4-435886bc144f"},"vehicle_type_id":"4","last_reported":1773766493,"current_range_meters":7200,"station_id":"ce4bhu92rcd13ifvqi70","pricing_plan_id":"cebpf4jnsgd1na2vs0mg"},{"bike_id":"98f1e067-45c9-4000-b81d-f3aec2edd898","system_id":"levelo_inurba_marseille","lat":43.29533,"lon":5.38539,"is_reserved":false,"is_disabled":false,"rental_uris":{"android":"levelo://app?vid=98f1e067-45c9-4000-b81d-f3aec2edd898","ios":"levelo://app?vid=98f1e067-45c9-4000-b81d-f3aec2edd898"},"vehicle_type_id":"4","last_reported":1773766493,"current_range_meters":7200,"station_id":"ce4bgih2rcd13ifvqba0","pricing_plan_id":"cebpf4jnsgd1na2vs0mg"},{"bike_id":"1625a43e-c179-4904-b480-9eedaad5a192","system_id":"levelo_inurba_marseille","lat":43.25337,"lon":5.42171,"is_reserved":false,"is_disabled":false,"rental_uris":{"android":"levelo://app?vid=1625a43e-c179-4904-b480-9eedaad5a192","ios":"levelo://app?vid=1625a43e-c179-4904-b480-9eedaad5a192"},"vehicle_type_id":"4","last_reported":1773766493,"current_range_meters":7200,"station_id":"st_d2m65c5bi1j21697t3ng","pricing_plan_id":"cebpf4jnsgd1na2vs0mg"},{"bike_id":"ea7bbec8-baa2-484b-93dc-42af89c3db99","system_id":"levelo_inurba_marseille","lat":43.29722,"lon":5.36606,"is_reserved":false,"is_disabled":false,"rental_uris":{"android":"levelo://app?vid=ea7bbec8-baa2-484b-93dc-42af89c3db99","ios":"levelo://app?vid=ea7bbec8-baa2-484b-93dc-42af89c3db99"},"vehicle_type_id":"4","last_reported":1773766493,"current_range_meters":7200,"station_id":"ce4bgn12rcd13ifvqbt0","pricing_plan_id":"cebpf4jnsgd1na2vs0mg"},{"bike_id":"b63ce7f3-0403-447d-b5b6-c697e5df9ecb","system_id":"levelo_inurba_marseille","lat":43.29609,"lon":5.37742,"is_reserved":false,"is_disabled":false,"rental_uris":{"android":"levelo://app?vid=b63ce7f3-0403-447d-b5b6-c697e5df9ecb","ios":"levelo://app?vid=b63ce7f3-0403-447d-b5b6-c697e5df9ecb"},"vehicle_type_id":"4","last_reported":1773766493,"current_range_meters":8000,"station_id":"ce4bgi92rcd13ifvqb90","pricing_plan_id":"cebpf4jnsgd1na2vs0mg"},{"bike_id":"abeed13c-c51b-4739-8fd2-4f8ab70d4f2c","system_id":"levelo_inurba_marseille","lat":43.31726,"lon":5.42394,"is_reserved":false,"is_disabled":false,"rental_uris":{"android":"levelo://app?vid=abeed13c-c51b-4739-8fd2-4f8ab70d4f2c","ios":"levelo://app?vid=abeed13c-c51b-4739-8fd2-4f8ab70d4f2c"},"vehicle_type_id":"4","last_reported":1773766493,"current_range_meters":8000,"station_id":"ce4bhp92rcd13ifvqhbg","pricing_plan_id":"cebpf4jnsgd1na2vs0mg"},{"bike_id":"86f3c3e6-1877-45e4-95fe-47aa36990f39","system_id":"levelo_inurba_marseille","lat":43.31069,"lon":5.37132,"is_reserved":false,"is_disabled":false,"rental_uris":{"android":"levelo://app?vid=86f3c3e6-1877-45e4-95fe-47aa36990f39","ios":"levelo://app?vid=86f3c3e6-1877-45e4-95fe-47aa36990f39"},"vehicle_type_id":"4","last_reported":1773766493,"current_range_meters":8000,"station_id":"st_d4kl2rp97mjs73e7tdfg","pricing_plan_id":"cebpf4jnsgd1na2vs0mg"},{"bike_id":"458f604b-e062-47bf-ac14-a001a31d10d8","system_id":"levelo_inurba_marseille","lat":43.28477,"lon":5.48388,"is_reserved":false,"is_disabled":false,"rental_uris":{"android":"levelo://app?vid=458f604b-e062-47bf-ac14-a001a31d10d8","ios":"levelo://app?vid=458f604b-e062-47bf-ac14-a001a31d10d8"},"vehicle_type_id":"4","last_reported":1773766493,"current_range_meters":8000,"station_id":"","pricing_plan_id":"cebpf4jnsgd1na2vs0mg"},{"bike_id":"2134a193-4b3a-4038-a280-1a0ba6458570","system_id":"levelo_inurba_marseille","lat":43.29744,"lon":5.42108,"is_reserved":false,"is_disabled":false,"rental_uris":{"android":"levelo://app?vid=2134a193-4b3a-4038-a280-1a0ba6458570","ios":"levelo://app?vid=2134a193-4b3a-4038-a280-1a0ba6458570"},"vehicle_type_id":"4","last_reported":1773766493,"current_range_meters":8000,"station_id":"","pricing_plan_id":"cebpf4jnsgd1na2vs0mg"},{"bike_id":"a198b19a-147f-4fb3-822c-608a1d587cb8","system_id":"levelo_inurba_marseille","lat":43.21752,"lon":5.34634,"is_reserved":false,"is_disabled":false,"rental_uris":{"android":"levelo://app?vid=a198b19a-147f-4fb3-822c-608a1d587cb8","ios":"levelo://app?vid=a198b19a-147f-4fb3-822c-608a1d587cb8"},"vehicle_type_id":"4","last_reported":1773766493,"current_range_meters":8000,"station_id":"st_cvj6r9ubvosntc0bgbag","pricing_plan_id":"cebpf4jnsgd1na2vs0mg"},{"bike_id":"7e372e61-a4a4-4320-b78e-0115edf72ed5","system_id":"levelo_inurba_marseille","lat":43.24174,"lon":5.36389,"is_reserved":false,"is_disabled":true,"rental_uris":{"android":"levelo://app?vid=7e372e61-a4a4-4320-b78e-0115edf72ed5","ios":"levelo://app?vid=7e372e61-a4a4-4320-b78e-0115edf72ed5"},"vehicle_type_id":"4","last_reported":1773766493,"current_range_meters":8000,"station_id":"cpo36qri1sfpv3e86is0","pricing_plan_id":"cebpf4jnsgd1na2vs0mg"},{"bike_id":"9893e31e-9c0f-419e-b375-b0f86ddbdcfa","system_id":"levelo_inurba_marseille","lat":43.25816,"lon":5.39433,"is_reserved":false,"is_disabled":false,"rental_uris":{"android":"levelo://app?vid=9893e31e-9c0f-419e-b375-b0f86ddbdcfa","ios":"levelo://app?vid=9893e31e-9c0f-419e-b375-b0f86ddbdcfa"},"vehicle_type_id":"4","last_reported":1773766493,"current_range_meters":8000,"station_id":"ce4bhip2rcd13ifvqft0","pricing_plan_id":"cebpf4jnsgd1na2vs0mg"},{"bike_id":"ec71f3d8-ca9e-4762-b71a-d827e53109d8","system_id":"levelo_inurba_marseille","lat":43.32112,"lon":5.36805,"is_reserved":false,"is_disabled":false,"rental_uris":{"android":"levelo://app?vid=ec71f3d8-ca9e-4762-b71a-d827e53109d8","ios":"levelo://app?vid=ec71f3d8-ca9e-4762-b71a-d827e53109d8"},"vehicle_type_id":"4","last_reported":1773766493,"current_range_meters":8000,"station_id":"ce4bhrh2rcd13ifvqhug","pricing_plan_id":"cebpf4jnsgd1na2vs0mg"},{"bike_id":"6a4ae59b-ccd1-4356-ac6a-5badc22026c5","system_id":"levelo_inurba_marseille","lat":43.25499,"lon":5.37653,"is_reserved":false,"is_disabled":false,"rental_uris":{"android":"levelo://app?vid=6a4ae59b-ccd1-4356-ac6a-5badc22026c5","ios":"levelo://app?vid=6a4ae59b-ccd1-4356-ac6a-5badc22026c5"},"vehicle_type_id":"4","last_reported":1773766493,"current_range_meters":8000,"station_id":"ce4bhh12rcd13ifvqff0","pricing_plan_id":"cebpf4jnsgd1na2vs0mg"},{"bike_id":"4408c14e-4469-4497-bcd7-09502cc9d2f8","system_id":"levelo_inurba_marseille","lat":43.31323,"lon":5.39694,"is_reserved":false,"is_disabled":false,"rental_uris":{"android":"levelo://app?vid=4408c14e-4469-4497-bcd7-09502cc9d2f8","ios":"levelo://app?vid=4408c14e-4469-4497-bcd7-09502cc9d2f8"},"vehicle_type_id":"4","last_reported":1773766493,"current_range_meters":8000,"station_id":"ce4bgvp2rcd13ifvqcu0","pricing_plan_id":"cebpf4jnsgd1na2vs0mg"},{"bike_id":"d030e03f-081d-4bd2-8917-10cee58512e3","system_id":"levelo_inurba_marseille","lat":43.28628,"lon":5.35091,"is_reserved":false,"is_disabled":false,"rental_uris":{"android":"levelo://app?vid=d030e03f-081d-4bd2-8917-10cee58512e3","ios":"levelo://app?vid=d030e03f-081d-4bd2-8917-10cee58512e3"},"vehicle_type_id":"4","last_reported":1773766493,"current_range_meters":8000,"station_id":"ce4bhch2rcd13ifvqeug","pricing_plan_id":"cebpf4jnsgd1na2vs0mg"},{"bike_id":"811cb60e-c2e0-4eff-a720-ab1d90d9f80a","system_id":"levelo_inurba_marseille","lat":43.2338,"lon":5.41251,"is_reserved":false,"is_disabled":false,"rental_uris":{"android":"levelo://app?vid=811cb60e-c2e0-4eff-a720-ab1d90d9f80a","ios":"levelo://app?vid=811cb60e-c2e0-4eff-a720-ab1d90d9f80a"},"vehicle_type_id":"4","last_reported":1773766493,"current_range_meters":8000,"station_id":"","pricing_plan_id":"cebpf4jnsgd1na2vs0mg"},{"bike_id":"0922850f-97f4-4d5f-9c96-79b1b2616092","system_id":"levelo_inurba_marseille","lat":43.29584,"lon":5.37524,"is_reserved":false,"is_disabled":false,"rental_uris":{"android":"levelo://app?vid=0922850f-97f4-4d5f-9c96-79b1b2616092","ios":"levelo://app?vid=0922850f-97f4-4d5f-9c96-79b1b2616092"},"vehicle_type_id":"4","last_reported":1773766493,"current_range_meters":8000,"station_id":"ce4bgh92rcd13ifvqb50","pricing_plan_id":"cebpf4jnsgd1na2vs0mg"},{"bike_id":"c2c7c530-5d90-493e-bc68-4654d00e1dc7","system_id":"levelo_inurba_marseille","lat":43.252,"lon":5.40594,"is_reserved":false,"is_disabled":false,"rental_uris":{"android":"levelo://app?vid=c2c7c530-5d90-493e-bc68-4654d00e1dc7","ios":"levelo://app?vid=c2c7c530-5d90-493e-bc68-4654d00e1dc7"},"vehicle_type_id":"4","last_reported":1773766493,"current_range_meters":8000,"station_id":"","pricing_plan_id":"cebpf4jnsgd1na2vs0mg"},{"bike_id":"c6ac7a2a-86a2-46f8-9508-53916268d846","system_id":"levelo_inurba_marseille","lat":43.29027,"lon":5.38643,"is_reserved":false,"is_disabled":false,"rental_uris":{"android":"levelo://app?vid=c6ac7a2a-86a2-46f8-9508-53916268d846","ios":"levelo://app?vid=c6ac7a2a-86a2-46f8-9508-53916268d846"},"vehicle_type_id":"4","last_reported":1773766493,"current_range_meters":8400,"station_id":"ce4bh4p2rcd13ifvqe0g","pricing_plan_id":"cebpf4jnsgd1na2vs0mg"},{"bike_id":"7ada2641-316b-4e07-8cf0-f1c79c755356","system_id":"levelo_inurba_marseille","lat":43.24954,"lon":5.40492,"is_reserved":false,"is_disabled":false,"rental_uris":{"android":"levelo://app?vid=7ada2641-316b-4e07-8cf0-f1c79c755356","ios":"levelo://app?vid=7ada2641-316b-4e07-8cf0-f1c79c755356"},"vehicle_type_id":"4","last_reported":1773766493,"current_range_meters":8400,"station_id":"st_d2ngiaodas8pm72gd1h0","pricing_plan_id":"cebpf4jnsgd1na2vs0mg"},{"bike_id":"2e0e6117-7c01-4421-b292-69296258253b","system_id":"levelo_inurba_marseille","lat":43.26947,"lon":5.38647,"is_reserved":false,"is_disabled":false,"rental_uris":{"android":"levelo://app?vid=2e0e6117-7c01-4421-b292-69296258253b","ios":"levelo://app?vid=2e0e6117-7c01-4421-b292-69296258253b"},"vehicle_type_id":"4","last_reported":1773766493,"current_range_meters":8400,"station_id":"ce4bhh92rcd13ifvqfh0","pricing_plan_id":"cebpf4jnsgd1na2vs0mg"},{"bike_id":"7f24400f-028e-4f1e-a8d7-1316a14ecdf2","system_id":"levelo_inurba_marseille","lat":43.288181,"lon":5.380348,"is_reserved":false,"is_disabled":false,"rental_uris":{"android":"levelo://app?vid=7f24400f-028e-4f1e-a8d7-1316a14ecdf2","ios":"levelo://app?vid=7f24400f-028e-4f1e-a8d7-1316a14ecdf2"},"vehicle_type_id":"4","last_reported":1773766493,"current_range_meters":8400,"station_id":"ce4bhc92rcd13ifvqetg","pricing_plan_id":"cebpf4jnsgd1na2vs0mg"},{"bike_id":"cc74b26f-4bf5-429b-b0b4-949f70d5b85e","system_id":"levelo_inurba_marseille","lat":43.24801,"lon":5.37454,"is_reserved":false,"is_disabled":false,"rental_uris":{"android":"levelo://app?vid=cc74b26f-4bf5-429b-b0b4-949f70d5b85e","ios":"levelo://app?vid=cc74b26f-4bf5-429b-b0b4-949f70d5b85e"},"vehicle_type_id":"4","last_reported":1773766493,"current_range_meters":8400,"station_id":"ce4bhgh2rcd13ifvqfb0","pricing_plan_id":"cebpf4jnsgd1na2vs0mg"},{"bike_id":"7d9d7aa8-fbf6-4ec2-9dd9-58e4fbfbf40b","system_id":"levelo_inurba_marseille","lat":43.33728,"lon":5.3918,"is_reserved":false,"is_disabled":false,"rental_uris":{"android":"levelo://app?vid=7d9d7aa8-fbf6-4ec2-9dd9-58e4fbfbf40b","ios":"levelo://app?vid=7d9d7aa8-fbf6-4ec2-9dd9-58e4fbfbf40b"},"vehicle_type_id":"4","last_reported":1773766493,"current_range_meters":8400,"station_id":"ce4bhr92rcd13ifvqhsg","pricing_plan_id":"cebpf4jnsgd1na2vs0mg"},{"bike_id":"592a8e22-d9f2-4292-a39d-b730b80e9d86","system_id":"levelo_inurba_marseille","lat":43.27907,"lon":5.38017,"is_reserved":false,"is_disabled":false,"rental_uris":{"android":"levelo://app?vid=592a8e22-d9f2-4292-a39d-b730b80e9d86","ios":"levelo://app?vid=592a8e22-d9f2-4292-a39d-b730b80e9d86"},"vehicle_type_id":"4","last_reported":1773766493,"current_range_meters":8400,"station_id":"ce4bhf92rcd13ifvqf50","pricing_plan_id":"cebpf4jnsgd1na2vs0mg"},{"bike_id":"dc2e4fe9-9294-4e15-adee-bcaf1b72755c","system_id":"levelo_inurba_marseille","lat":43.28567,"lon":5.39502,"is_reserved":false,"is_disabled":false,"rental_uris":{"android":"levelo://app?vid=dc2e4fe9-9294-4e15-adee-bcaf1b72755c","ios":"levelo://app?vid=dc2e4fe9-9294-4e15-adee-bcaf1b72755c"},"vehicle_type_id":"4","last_reported":1773766493,"current_range_meters":8400,"station_id":"ce4bh292rcd13ifvqdg0","pricing_plan_id":"cebpf4jnsgd1na2vs0mg"},{"bike_id":"e19bbcec-af9d-483d-ac29-18df3b9c0ab9","system_id":"levelo_inurba_marseille","lat":43.28479,"lon":5.48386,"is_reserved":false,"is_disabled":false,"rental_uris":{"android":"levelo://app?vid=e19bbcec-af9d-483d-ac29-18df3b9c0ab9","ios":"levelo://app?vid=e19bbcec-af9d-483d-ac29-18df3b9c0ab9"},"vehicle_type_id":"4","last_reported":1773766493,"current_range_meters":8400,"station_id":"st_d3svhcjqgbts73a3dn0g","pricing_plan_id":"cebpf4jnsgd1na2vs0mg"},{"bike_id":"f7cad0dd-4929-454b-8848-7575c69435e1","system_id":"levelo_inurba_marseille","lat":43.2586,"lon":5.39897,"is_reserved":false,"is_disabled":true,"rental_uris":{"android":"levelo://app?vid=f7cad0dd-4929-454b-8848-7575c69435e1","ios":"levelo://app?vid=f7cad0dd-4929-454b-8848-7575c69435e1"},"vehicle_type_id":"4","last_reported":1773766493,"current_range_meters":8400,"station_id":"ce4bhl92rcd13ifvqghg","pricing_plan_id":"cebpf4jnsgd1na2vs0mg"},{"bike_id":"3209894b-7e00-4e53-a059-665dd3585fec","system_id":"levelo_inurba_marseille","lat":43.25878,"lon":5.39905,"is_reserved":false,"is_disabled":false,"rental_uris":{"android":"levelo://app?vid=3209894b-7e00-4e53-a059-665dd3585fec","ios":"levelo://app?vid=3209894b-7e00-4e53-a059-665dd3585fec"},"vehicle_type_id":"4","last_reported":1773766493,"current_range_meters":8400,"station_id":"ce4bhl92rcd13ifvqghg","pricing_plan_id":"cebpf4jnsgd1na2vs0mg"},{"bike_id":"c9eff917-d2ef-4918-8651-c7a7ee4270d3","system_id":"levelo_inurba_marseille","lat":43.24477,"lon":5.42547,"is_reserved":false,"is_disabled":false,"rental_uris":{"android":"levelo://app?vid=c9eff917-d2ef-4918-8651-c7a7ee4270d3","ios":"levelo://app?vid=c9eff917-d2ef-4918-8651-c7a7ee4270d3"},"vehicle_type_id":"4","last_reported":1773766493,"current_range_meters":8400,"station_id":"st_d4a3vfp97mjs738cd8kg","pricing_plan_id":"cebpf4jnsgd1na2vs0mg"},{"bike_id":"64e4942c-04ec-475a-8745-de522dcf5faa","system_id":"levelo_inurba_marseille","lat":43.22933,"lon":5.35376,"is_reserved":false,"is_disabled":false,"rental_uris":{"android":"levelo://app?vid=64e4942c-04ec-475a-8745-de522dcf5faa","ios":"levelo://app?vid=64e4942c-04ec-475a-8745-de522dcf5faa"},"vehicle_type_id":"4","last_reported":1773766493,"current_range_meters":8400,"station_id":"cpo3532slgdg3j2ikp40","pricing_plan_id":"cebpf4jnsgd1na2vs0mg"},{"bike_id":"69f9e7d0-9e6e-48d9-8402-311a294217e6","system_id":"levelo_inurba_marseille","lat":43.29385,"lon":5.3787,"is_reserved":false,"is_disabled":true,"rental_uris":{"android":"levelo://app?vid=69f9e7d0-9e6e-48d9-8402-311a294217e6","ios":"levelo://app?vid=69f9e7d0-9e6e-48d9-8402-311a294217e6"},"vehicle_type_id":"4","last_reported":1773766493,"current_range_meters":8400,"station_id":"ce4bgjh2rcd13ifvqbf0","pricing_plan_id":"cebpf4jnsgd1na2vs0mg"},{"bike_id":"0bacd49d-1e82-47d0-b9c4-534513f8cc81","system_id":"levelo_inurba_marseille","lat":43.30952,"lon":5.39047,"is_reserved":false,"is_disabled":true,"rental_uris":{"android":"levelo://app?vid=0bacd49d-1e82-47d0-b9c4-534513f8cc81","ios":"levelo://app?vid=0bacd49d-1e82-47d0-b9c4-534513f8cc81"},"vehicle_type_id":"4","last_reported":1773766493,"current_range_meters":8400,"station_id":"ce4bgup2rcd13ifvqco0","pricing_plan_id":"cebpf4jnsgd1na2vs0mg"},{"bike_id":"f8a00c49-c93d-41ce-9f11-d81257ca6394","system_id":"levelo_inurba_marseille","lat":43.22928,"lon":5.35368,"is_reserved":false,"is_disabled":false,"rental_uris":{"android":"levelo://app?vid=f8a00c49-c93d-41ce-9f11-d81257ca6394","ios":"levelo://app?vid=f8a00c49-c93d-41ce-9f11-d81257ca6394"},"vehicle_type_id":"4","last_reported":1773766493,"current_range_meters":8400,"station_id":"cpo3532slgdg3j2ikp40","pricing_plan_id":"cebpf4jnsgd1na2vs0mg"},{"bike_id":"a8adf348-a492-4e83-90aa-1efb55d37f22","system_id":"levelo_inurba_marseille","lat":43.28434,"lon":5.39185,"is_reserved":false,"is_disabled":false,"rental_uris":{"android":"levelo://app?vid=a8adf348-a492-4e83-90aa-1efb55d37f22","ios":"levelo://app?vid=a8adf348-a492-4e83-90aa-1efb55d37f22"},"vehicle_type_id":"4","last_reported":1773766493,"current_range_meters":8400,"station_id":"ce4bhoh2rcd13ifvqh5g","pricing_plan_id":"cebpf4jnsgd1na2vs0mg"},{"bike_id":"b9f2e5d5-d6ac-4c0d-86f2-4fe1a54ef3b3","system_id":"levelo_inurba_marseille","lat":43.32112,"lon":5.36796,"is_reserved":false,"is_disabled":false,"rental_uris":{"android":"levelo://app?vid=b9f2e5d5-d6ac-4c0d-86f2-4fe1a54ef3b3","ios":"levelo://app?vid=b9f2e5d5-d6ac-4c0d-86f2-4fe1a54ef3b3"},"vehicle_type_id":"4","last_reported":1773766493,"current_range_meters":8400,"station_id":"ce4bhrh2rcd13ifvqhug","pricing_plan_id":"cebpf4jnsgd1na2vs0mg"},{"bike_id":"f0553556-a906-4d2e-812e-ddbea49b1c75","system_id":"levelo_inurba_marseille","lat":43.28613,"lon":5.37062,"is_reserved":false,"is_disabled":false,"rental_uris":{"android":"levelo://app?vid=f0553556-a906-4d2e-812e-ddbea49b1c75","ios":"levelo://app?vid=f0553556-a906-4d2e-812e-ddbea49b1c75"},"vehicle_type_id":"4","last_reported":1773766493,"current_range_meters":8400,"station_id":"ce4bht12rcd13ifvqi60","pricing_plan_id":"cebpf4jnsgd1na2vs0mg"},{"bike_id":"87f91920-65e2-4b63-9a30-e955d3b05156","system_id":"levelo_inurba_marseille","lat":43.2842,"lon":5.34984,"is_reserved":false,"is_disabled":false,"rental_uris":{"android":"levelo://app?vid=87f91920-65e2-4b63-9a30-e955d3b05156","ios":"levelo://app?vid=87f91920-65e2-4b63-9a30-e955d3b05156"},"vehicle_type_id":"4","last_reported":1773766493,"current_range_meters":8400,"station_id":"ce4bhbh2rcd13ifvqepg","pricing_plan_id":"cebpf4jnsgd1na2vs0mg"},{"bike_id":"f77d8ba9-0aa6-4584-bbea-10af3fde7148","system_id":"levelo_inurba_marseille","lat":43.24953,"lon":5.40497,"is_reserved":false,"is_disabled":false,"rental_uris":{"android":"levelo://app?vid=f77d8ba9-0aa6-4584-bbea-10af3fde7148","ios":"levelo://app?vid=f77d8ba9-0aa6-4584-bbea-10af3fde7148"},"vehicle_type_id":"4","last_reported":1773766493,"current_range_meters":8800,"station_id":"st_d2ngiaodas8pm72gd1h0","pricing_plan_id":"cebpf4jnsgd1na2vs0mg"},{"bike_id":"aa55bf61-2ca7-41e3-8bb2-254e014eceaa","system_id":"levelo_inurba_marseille","lat":43.24389,"lon":5.37049,"is_reserved":false,"is_disabled":false,"rental_uris":{"android":"levelo://app?vid=aa55bf61-2ca7-41e3-8bb2-254e014eceaa","ios":"levelo://app?vid=aa55bf61-2ca7-41e3-8bb2-254e014eceaa"},"vehicle_type_id":"4","last_reported":1773766493,"current_range_meters":8800,"station_id":"ce4bhhh2rcd13ifvqfk0","pricing_plan_id":"cebpf4jnsgd1na2vs0mg"},{"bike_id":"e563383a-8a89-4304-b11f-18268886193e","system_id":"levelo_inurba_marseille","lat":43.2558,"lon":5.38225,"is_reserved":false,"is_disabled":false,"rental_uris":{"android":"levelo://app?vid=e563383a-8a89-4304-b11f-18268886193e","ios":"levelo://app?vid=e563383a-8a89-4304-b11f-18268886193e"},"vehicle_type_id":"4","last_reported":1773766493,"current_range_meters":8800,"station_id":"ce4bhih2rcd13ifvqfs0","pricing_plan_id":"cebpf4jnsgd1na2vs0mg"},{"bike_id":"5e217aee-e0fc-4d58-ba81-7319f04db9d2","system_id":"levelo_inurba_marseille","lat":43.28569,"lon":5.39511,"is_reserved":false,"is_disabled":false,"rental_uris":{"android":"levelo://app?vid=5e217aee-e0fc-4d58-ba81-7319f04db9d2","ios":"levelo://app?vid=5e217aee-e0fc-4d58-ba81-7319f04db9d2"},"vehicle_type_id":"4","last_reported":1773766493,"current_range_meters":8800,"station_id":"ce4bh292rcd13ifvqdg0","pricing_plan_id":"cebpf4jnsgd1na2vs0mg"},{"bike_id":"145cf909-0a6f-49d8-9ad7-e55b549465ae","system_id":"levelo_inurba_marseille","lat":43.25635,"lon":5.38581,"is_reserved":false,"is_disabled":false,"rental_uris":{"android":"levelo://app?vid=145cf909-0a6f-49d8-9ad7-e55b549465ae","ios":"levelo://app?vid=145cf909-0a6f-49d8-9ad7-e55b549465ae"},"vehicle_type_id":"4","last_reported":1773766493,"current_range_meters":8800,"station_id":"","pricing_plan_id":"cebpf4jnsgd1na2vs0mg"},{"bike_id":"901c28db-c015-4313-845b-db71a8b5949f","system_id":"levelo_inurba_marseille","lat":43.24191,"lon":5.39732,"is_reserved":false,"is_disabled":true,"rental_uris":{"android":"levelo://app?vid=901c28db-c015-4313-845b-db71a8b5949f","ios":"levelo://app?vid=901c28db-c015-4313-845b-db71a8b5949f"},"vehicle_type_id":"4","last_reported":1773766493,"current_range_meters":8800,"station_id":"ce4bhn12rcd13ifvqgpg","pricing_plan_id":"cebpf4jnsgd1na2vs0mg"},{"bike_id":"bf249f81-2ef0-45f9-a595-8436dd14fe0c","system_id":"levelo_inurba_marseille","lat":43.32109,"lon":5.36803,"is_reserved":false,"is_disabled":true,"rental_uris":{"android":"levelo://app?vid=bf249f81-2ef0-45f9-a595-8436dd14fe0c","ios":"levelo://app?vid=bf249f81-2ef0-45f9-a595-8436dd14fe0c"},"vehicle_type_id":"4","last_reported":1773766493,"current_range_meters":8800,"station_id":"ce4bhrh2rcd13ifvqhug","pricing_plan_id":"cebpf4jnsgd1na2vs0mg"},{"bike_id":"007db501-1ef4-469e-bd1c-b5962ff300e7","system_id":"levelo_inurba_marseille","lat":43.28408,"lon":5.34984,"is_reserved":false,"is_disabled":false,"rental_uris":{"android":"levelo://app?vid=007db501-1ef4-469e-bd1c-b5962ff300e7","ios":"levelo://app?vid=007db501-1ef4-469e-bd1c-b5962ff300e7"},"vehicle_type_id":"4","last_reported":1773766493,"current_range_meters":8800,"station_id":"ce4bhbh2rcd13ifvqepg","pricing_plan_id":"cebpf4jnsgd1na2vs0mg"},{"bike_id":"70f98469-d2c0-43f4-9102-c6ad6fb97bca","system_id":"levelo_inurba_marseille","lat":43.21746,"lon":5.34593,"is_reserved":false,"is_disabled":false,"rental_uris":{"android":"levelo://app?vid=70f98469-d2c0-43f4-9102-c6ad6fb97bca","ios":"levelo://app?vid=70f98469-d2c0-43f4-9102-c6ad6fb97bca"},"vehicle_type_id":"4","last_reported":1773766493,"current_range_meters":8800,"station_id":"st_cvj6r9ubvosntc0bgbag","pricing_plan_id":"cebpf4jnsgd1na2vs0mg"},{"bike_id":"d0501d96-64ea-4b37-ab2b-49862d64980b","system_id":"levelo_inurba_marseille","lat":43.25503,"lon":5.37702,"is_reserved":false,"is_disabled":false,"rental_uris":{"android":"levelo://app?vid=d0501d96-64ea-4b37-ab2b-49862d64980b","ios":"levelo://app?vid=d0501d96-64ea-4b37-ab2b-49862d64980b"},"vehicle_type_id":"4","last_reported":1773766493,"current_range_meters":8800,"station_id":"ce4bhh12rcd13ifvqff0","pricing_plan_id":"cebpf4jnsgd1na2vs0mg"},{"bike_id":"e00fef88-2abf-45c7-8786-bdc52b793edc","system_id":"levelo_inurba_marseille","lat":43.28411,"lon":5.34977,"is_reserved":false,"is_disabled":false,"rental_uris":{"android":"levelo://app?vid=e00fef88-2abf-45c7-8786-bdc52b793edc","ios":"levelo://app?vid=e00fef88-2abf-45c7-8786-bdc52b793edc"},"vehicle_type_id":"4","last_reported":1773766493,"current_range_meters":8800,"station_id":"ce4bhbh2rcd13ifvqepg","pricing_plan_id":"cebpf4jnsgd1na2vs0mg"},{"bike_id":"ea3c54d1-5815-4c69-bb20-9e5341681cce","system_id":"levelo_inurba_marseille","lat":43.29744,"lon":5.38038,"is_reserved":false,"is_disabled":true,"rental_uris":{"android":"levelo://app?vid=ea3c54d1-5815-4c69-bb20-9e5341681cce","ios":"levelo://app?vid=ea3c54d1-5815-4c69-bb20-9e5341681cce"},"vehicle_type_id":"4","last_reported":1773766493,"current_range_meters":8800,"station_id":"","pricing_plan_id":"cebpf4jnsgd1na2vs0mg"},{"bike_id":"48a39f3e-78bd-4ac6-870a-dc30c63099c6","system_id":"levelo_inurba_marseille","lat":43.28393,"lon":5.37519,"is_reserved":false,"is_disabled":false,"rental_uris":{"android":"levelo://app?vid=48a39f3e-78bd-4ac6-870a-dc30c63099c6","ios":"levelo://app?vid=48a39f3e-78bd-4ac6-870a-dc30c63099c6"},"vehicle_type_id":"4","last_reported":1773766493,"current_range_meters":8800,"station_id":"ce4bh412rcd13ifvqds0","pricing_plan_id":"cebpf4jnsgd1na2vs0mg"},{"bike_id":"643281bc-1ddb-4326-b8ee-47c3de73f7fc","system_id":"levelo_inurba_marseille","lat":43.23045,"lon":5.35507,"is_reserved":false,"is_disabled":false,"rental_uris":{"android":"levelo://app?vid=643281bc-1ddb-4326-b8ee-47c3de73f7fc","ios":"levelo://app?vid=643281bc-1ddb-4326-b8ee-47c3de73f7fc"},"vehicle_type_id":"4","last_reported":1773766493,"current_range_meters":8800,"station_id":"cpo3342slgdg3j2ifvpg","pricing_plan_id":"cebpf4jnsgd1na2vs0mg"},{"bike_id":"1243150c-1527-43cb-a469-9696a9890f69","system_id":"levelo_inurba_marseille","lat":43.29238,"lon":5.38428,"is_reserved":false,"is_disabled":false,"rental_uris":{"android":"levelo://app?vid=1243150c-1527-43cb-a469-9696a9890f69","ios":"levelo://app?vid=1243150c-1527-43cb-a469-9696a9890f69"},"vehicle_type_id":"4","last_reported":1773766493,"current_range_meters":8800,"station_id":"ce4bh692rcd13ifvqea0","pricing_plan_id":"cebpf4jnsgd1na2vs0mg"},{"bike_id":"eb60aa75-479f-41a7-83f8-a4e36ba5b4ce","system_id":"levelo_inurba_marseille","lat":43.267749,"lon":5.394284,"is_reserved":false,"is_disabled":false,"rental_uris":{"android":"levelo://app?vid=eb60aa75-479f-41a7-83f8-a4e36ba5b4ce","ios":"levelo://app?vid=eb60aa75-479f-41a7-83f8-a4e36ba5b4ce"},"vehicle_type_id":"4","last_reported":1773766493,"current_range_meters":8800,"station_id":"ce4bhh12rcd13ifvqfg0","pricing_plan_id":"cebpf4jnsgd1na2vs0mg"},{"bike_id":"41ad3007-9434-48dc-a432-f397caf6325e","system_id":"levelo_inurba_marseille","lat":43.26935,"lon":5.38919,"is_reserved":false,"is_disabled":false,"rental_uris":{"android":"levelo://app?vid=41ad3007-9434-48dc-a432-f397caf6325e","ios":"levelo://app?vid=41ad3007-9434-48dc-a432-f397caf6325e"},"vehicle_type_id":"4","last_reported":1773766493,"current_range_meters":9200,"station_id":"ce4bhhh2rcd13ifvqfl0","pricing_plan_id":"cebpf4jnsgd1na2vs0mg"},{"bike_id":"52fa14df-d474-4338-bde9-a8fa518e7f12","system_id":"levelo_inurba_marseille","lat":43.31722,"lon":5.42413,"is_reserved":false,"is_disabled":false,"rental_uris":{"android":"levelo://app?vid=52fa14df-d474-4338-bde9-a8fa518e7f12","ios":"levelo://app?vid=52fa14df-d474-4338-bde9-a8fa518e7f12"},"vehicle_type_id":"4","last_reported":1773766493,"current_range_meters":9200,"station_id":"ce4bhp92rcd13ifvqhbg","pricing_plan_id":"cebpf4jnsgd1na2vs0mg"},{"bike_id":"152f7022-b9ff-41bd-8767-48611caaa226","system_id":"levelo_inurba_marseille","lat":43.26163,"lon":5.37447,"is_reserved":false,"is_disabled":false,"rental_uris":{"android":"levelo://app?vid=152f7022-b9ff-41bd-8767-48611caaa226","ios":"levelo://app?vid=152f7022-b9ff-41bd-8767-48611caaa226"},"vehicle_type_id":"4","last_reported":1773766493,"current_range_meters":9200,"station_id":"ce4bhgp2rcd13ifvqfc0","pricing_plan_id":"cebpf4jnsgd1na2vs0mg"},{"bike_id":"d36ae96d-4a10-4c23-8570-631a18c93622","system_id":"levelo_inurba_marseille","lat":43.26207,"lon":5.37456,"is_reserved":false,"is_disabled":false,"rental_uris":{"android":"levelo://app?vid=d36ae96d-4a10-4c23-8570-631a18c93622","ios":"levelo://app?vid=d36ae96d-4a10-4c23-8570-631a18c93622"},"vehicle_type_id":"4","last_reported":1773766493,"current_range_meters":9200,"station_id":"ce4bhgp2rcd13ifvqfc0","pricing_plan_id":"cebpf4jnsgd1na2vs0mg"},{"bike_id":"2169c768-eb50-4715-a1bc-613be8561953","system_id":"levelo_inurba_marseille","lat":43.25004,"lon":5.38909,"is_reserved":false,"is_disabled":false,"rental_uris":{"android":"levelo://app?vid=2169c768-eb50-4715-a1bc-613be8561953","ios":"levelo://app?vid=2169c768-eb50-4715-a1bc-613be8561953"},"vehicle_type_id":"4","last_reported":1773766493,"current_range_meters":9200,"station_id":"ce4bhgp2rcd13ifvqfd0","pricing_plan_id":"cebpf4jnsgd1na2vs0mg"},{"bike_id":"82dcdf4f-8f8d-49c8-bf8f-175264f4f3bd","system_id":"levelo_inurba_marseille","lat":43.22539,"lon":5.34826,"is_reserved":false,"is_disabled":false,"rental_uris":{"android":"levelo://app?vid=82dcdf4f-8f8d-49c8-bf8f-175264f4f3bd","ios":"levelo://app?vid=82dcdf4f-8f8d-49c8-bf8f-175264f4f3bd"},"vehicle_type_id":"4","last_reported":1773766493,"current_range_meters":9200,"station_id":"st_cvj5dfep6f1abm77gieg","pricing_plan_id":"cebpf4jnsgd1na2vs0mg"},{"bike_id":"5d494bdc-5e63-4b8d-88b5-206d375a4c9d","system_id":"levelo_inurba_marseille","lat":43.28422,"lon":5.34969,"is_reserved":false,"is_disabled":false,"rental_uris":{"android":"levelo://app?vid=5d494bdc-5e63-4b8d-88b5-206d375a4c9d","ios":"levelo://app?vid=5d494bdc-5e63-4b8d-88b5-206d375a4c9d"},"vehicle_type_id":"4","last_reported":1773766493,"current_range_meters":9200,"station_id":"ce4bhbh2rcd13ifvqepg","pricing_plan_id":"cebpf4jnsgd1na2vs0mg"},{"bike_id":"047af0a5-14e2-479e-aa98-65733b038f29","system_id":"levelo_inurba_marseille","lat":43.337444,"lon":5.374475,"is_reserved":false,"is_disabled":true,"rental_uris":{"android":"levelo://app?vid=047af0a5-14e2-479e-aa98-65733b038f29","ios":"levelo://app?vid=047af0a5-14e2-479e-aa98-65733b038f29"},"vehicle_type_id":"4","last_reported":1773766493,"current_range_meters":9200,"station_id":"ce4bgip2rcd13ifvqbb0","pricing_plan_id":"cebpf4jnsgd1na2vs0mg"},{"bike_id":"06b788ca-92b0-4e4d-b04c-68843f06fdb4","system_id":"levelo_inurba_marseille","lat":43.29528,"lon":5.39401,"is_reserved":false,"is_disabled":false,"rental_uris":{"android":"levelo://app?vid=06b788ca-92b0-4e4d-b04c-68843f06fdb4","ios":"levelo://app?vid=06b788ca-92b0-4e4d-b04c-68843f06fdb4"},"vehicle_type_id":"4","last_reported":1773766493,"current_range_meters":9200,"station_id":"ce4bh292rcd13ifvqdf0","pricing_plan_id":"cebpf4jnsgd1na2vs0mg"},{"bike_id":"8d111567-6bd5-4bfb-a2bc-97fcce076e03","system_id":"levelo_inurba_marseille","lat":43.30416,"lon":5.41286,"is_reserved":false,"is_disabled":false,"rental_uris":{"android":"levelo://app?vid=8d111567-6bd5-4bfb-a2bc-97fcce076e03","ios":"levelo://app?vid=8d111567-6bd5-4bfb-a2bc-97fcce076e03"},"vehicle_type_id":"4","last_reported":1773766493,"current_range_meters":9200,"station_id":"ce4bhop2rcd13ifvqh8g","pricing_plan_id":"cebpf4jnsgd1na2vs0mg"},{"bike_id":"87cafd97-fe5c-40de-85ae-f55de1929c82","system_id":"levelo_inurba_marseille","lat":43.2846,"lon":5.35887,"is_reserved":false,"is_disabled":false,"rental_uris":{"android":"levelo://app?vid=87cafd97-fe5c-40de-85ae-f55de1929c82","ios":"levelo://app?vid=87cafd97-fe5c-40de-85ae-f55de1929c82"},"vehicle_type_id":"4","last_reported":1773766493,"current_range_meters":9200,"station_id":"ce4bhah2rcd13ifvqei0","pricing_plan_id":"cebpf4jnsgd1na2vs0mg"},{"bike_id":"3feb4c73-6e63-47f9-927f-446525b49f72","system_id":"levelo_inurba_marseille","lat":43.31891,"lon":5.36819,"is_reserved":false,"is_disabled":false,"rental_uris":{"android":"levelo://app?vid=3feb4c73-6e63-47f9-927f-446525b49f72","ios":"levelo://app?vid=3feb4c73-6e63-47f9-927f-446525b49f72"},"vehicle_type_id":"4","last_reported":1773766493,"current_range_meters":9200,"station_id":"ce4bhrh2rcd13ifvqhug","pricing_plan_id":"cebpf4jnsgd1na2vs0mg"},{"bike_id":"988179be-f1f3-4a4f-a448-319d3ea4b27e","system_id":"levelo_inurba_marseille","lat":43.25351,"lon":5.42586,"is_reserved":false,"is_disabled":false,"rental_uris":{"android":"levelo://app?vid=988179be-f1f3-4a4f-a448-319d3ea4b27e","ios":"levelo://app?vid=988179be-f1f3-4a4f-a448-319d3ea4b27e"},"vehicle_type_id":"4","last_reported":1773766493,"current_range_meters":9200,"station_id":"","pricing_plan_id":"cebpf4jnsgd1na2vs0mg"},{"bike_id":"a63a7b3c-1c77-4a64-9e37-cf117184230a","system_id":"levelo_inurba_marseille","lat":43.29896,"lon":5.37467,"is_reserved":false,"is_disabled":false,"rental_uris":{"android":"levelo://app?vid=a63a7b3c-1c77-4a64-9e37-cf117184230a","ios":"levelo://app?vid=a63a7b3c-1c77-4a64-9e37-cf117184230a"},"vehicle_type_id":"4","last_reported":1773766493,"current_range_meters":9200,"station_id":"ce4bgjh2rcd13ifvqbg0","pricing_plan_id":"cebpf4jnsgd1na2vs0mg"},{"bike_id":"d86f7f17-c40c-40d2-9445-70d30fa0ef64","system_id":"levelo_inurba_marseille","lat":43.2176,"lon":5.34583,"is_reserved":false,"is_disabled":true,"rental_uris":{"android":"levelo://app?vid=d86f7f17-c40c-40d2-9445-70d30fa0ef64","ios":"levelo://app?vid=d86f7f17-c40c-40d2-9445-70d30fa0ef64"},"vehicle_type_id":"4","last_reported":1773766493,"current_range_meters":9600,"station_id":"st_cvj6r9ubvosntc0bgbag","pricing_plan_id":"cebpf4jnsgd1na2vs0mg"},{"bike_id":"cfd61f2b-b4cb-4d66-a549-15ad7cc72891","system_id":"levelo_inurba_marseille","lat":43.30256,"lon":5.4008,"is_reserved":false,"is_disabled":false,"rental_uris":{"android":"levelo://app?vid=cfd61f2b-b4cb-4d66-a549-15ad7cc72891","ios":"levelo://app?vid=cfd61f2b-b4cb-4d66-a549-15ad7cc72891"},"vehicle_type_id":"4","last_reported":1773766493,"current_range_meters":9600,"station_id":"ce4bgvh2rcd13ifvqcs0","pricing_plan_id":"cebpf4jnsgd1na2vs0mg"},{"bike_id":"155a8e91-ccca-4509-a253-16095eafbd83","system_id":"levelo_inurba_marseille","lat":43.27911,"lon":5.39579,"is_reserved":false,"is_disabled":false,"rental_uris":{"android":"levelo://app?vid=155a8e91-ccca-4509-a253-16095eafbd83","ios":"levelo://app?vid=155a8e91-ccca-4509-a253-16095eafbd83"},"vehicle_type_id":"4","last_reported":1773766493,"current_range_meters":9600,"station_id":"ce4bhf92rcd13ifvqf40","pricing_plan_id":"cebpf4jnsgd1na2vs0mg"},{"bike_id":"6792ebb5-f31d-4140-b17e-5d0ec069c279","system_id":"levelo_inurba_marseille","lat":43.28406,"lon":5.34991,"is_reserved":false,"is_disabled":false,"rental_uris":{"android":"levelo://app?vid=6792ebb5-f31d-4140-b17e-5d0ec069c279","ios":"levelo://app?vid=6792ebb5-f31d-4140-b17e-5d0ec069c279"},"vehicle_type_id":"4","last_reported":1773766493,"current_range_meters":9600,"station_id":"ce4bhbh2rcd13ifvqepg","pricing_plan_id":"cebpf4jnsgd1na2vs0mg"},{"bike_id":"24e8d114-1569-4a12-8e0e-ae2e5647460e","system_id":"levelo_inurba_marseille","lat":43.25124,"lon":5.40357,"is_reserved":false,"is_disabled":false,"rental_uris":{"android":"levelo://app?vid=24e8d114-1569-4a12-8e0e-ae2e5647460e","ios":"levelo://app?vid=24e8d114-1569-4a12-8e0e-ae2e5647460e"},"vehicle_type_id":"4","last_reported":1773766493,"current_range_meters":9600,"station_id":"ce4bhlh2rcd13ifvqgig","pricing_plan_id":"cebpf4jnsgd1na2vs0mg"},{"bike_id":"4e0543f3-c08c-4c64-8ed6-02b7a864a4be","system_id":"levelo_inurba_marseille","lat":43.29253,"lon":5.40903,"is_reserved":false,"is_disabled":false,"rental_uris":{"android":"levelo://app?vid=4e0543f3-c08c-4c64-8ed6-02b7a864a4be","ios":"levelo://app?vid=4e0543f3-c08c-4c64-8ed6-02b7a864a4be"},"vehicle_type_id":"4","last_reported":1773766493,"current_range_meters":9600,"station_id":"ce4bh192rcd13ifvqdc0","pricing_plan_id":"cebpf4jnsgd1na2vs0mg"},{"bike_id":"4499d989-e138-4a8e-8431-7052c287c9e5","system_id":"levelo_inurba_marseille","lat":43.27814,"lon":5.40707,"is_reserved":false,"is_disabled":false,"rental_uris":{"android":"levelo://app?vid=4499d989-e138-4a8e-8431-7052c287c9e5","ios":"levelo://app?vid=4499d989-e138-4a8e-8431-7052c287c9e5"},"vehicle_type_id":"4","last_reported":1773766493,"current_range_meters":9600,"station_id":"ce4bhnh2rcd13ifvqgtg","pricing_plan_id":"cebpf4jnsgd1na2vs0mg"},{"bike_id":"519aa5bd-b109-4869-8999-d248b9917930","system_id":"levelo_inurba_marseille","lat":43.27075,"lon":5.42278,"is_reserved":false,"is_disabled":false,"rental_uris":{"android":"levelo://app?vid=519aa5bd-b109-4869-8999-d248b9917930","ios":"levelo://app?vid=519aa5bd-b109-4869-8999-d248b9917930"},"vehicle_type_id":"4","last_reported":1773766493,"current_range_meters":9600,"station_id":"ce4bhk92rcd13ifvqgb0","pricing_plan_id":"cebpf4jnsgd1na2vs0mg"},{"bike_id":"5d1e30c3-3104-4471-b39a-a0f17b9fd49f","system_id":"levelo_inurba_marseille","lat":43.29622,"lon":5.37159,"is_reserved":false,"is_disabled":false,"rental_uris":{"android":"levelo://app?vid=5d1e30c3-3104-4471-b39a-a0f17b9fd49f","ios":"levelo://app?vid=5d1e30c3-3104-4471-b39a-a0f17b9fd49f"},"vehicle_type_id":"4","last_reported":1773766493,"current_range_meters":9600,"station_id":"ce4bgnh2rcd13ifvqc0g","pricing_plan_id":"cebpf4jnsgd1na2vs0mg"},{"bike_id":"e6346949-387d-46de-b045-e9828006a2e7","system_id":"levelo_inurba_marseille","lat":43.33022,"lon":5.39035,"is_reserved":false,"is_disabled":false,"rental_uris":{"android":"levelo://app?vid=e6346949-387d-46de-b045-e9828006a2e7","ios":"levelo://app?vid=e6346949-387d-46de-b045-e9828006a2e7"},"vehicle_type_id":"4","last_reported":1773766493,"current_range_meters":9600,"station_id":"ce4bhr92rcd13ifvqhrg","pricing_plan_id":"cebpf4jnsgd1na2vs0mg"},{"bike_id":"779b8a3c-1846-46b5-9cab-bf0ec2b1118f","system_id":"levelo_inurba_marseille","lat":43.28489,"lon":5.48354,"is_reserved":false,"is_disabled":false,"rental_uris":{"android":"levelo://app?vid=779b8a3c-1846-46b5-9cab-bf0ec2b1118f","ios":"levelo://app?vid=779b8a3c-1846-46b5-9cab-bf0ec2b1118f"},