{"last_updated":1730031317,"ttl":60,"version":"2.2","data":{"bikes":[{"bike_id":"46ca7a5a-b63f-4a23-af18-d368d3c3861e","system_id":"levelo_inurba_marseille","lat":43.27325,"lon":5.3906,"is_reserved":false,"is_disabled":false,"rental_uris":{"android":"levelo://app?vid=46ca7a5a-b63f-4a23-af18-d368d3c3861e","ios":"levelo://app?vid=46ca7a5a-b63f-4a23-af18-d368d3c3861e"},"vehicle_type_id":"4","last_reported":1730031317,"current_range_meters":32800,"station_id":"ce4bhgp2rcd13ifvqfe0","pricing_plan_id":"cebpf4jnsgd1na2vs0mg"},{"bike_id":"afcafc6c-ecc3-4f5c-a312-79b6f9633782","system_id":"levelo_inurba_marseille","lat":43.28413,"lon":5.34987,"is_reserved":false,"is_disabled":false,"rental_uris":{"android":"levelo://app?vid=afcafc6c-ecc3-4f5c-a312-79b6f9633782","ios":"levelo://app?vid=afcafc6c-ecc3-4f5c-a312-79b6f9633782"},"vehicle_type_id":"4","last_reported":1730031317,"current_range_meters":18000,"station_id":"ce4bhbh2rcd13ifvqepg","pricing_plan_id":"cebpf4jnsgd1na2vs0mg"},{"bike_id":"69f4165a-13a2-4bd8-b4d6-abfa25614867","system_id":"levelo_inurba_marseille","lat":43.26807,"lon":5.4026,"is_reserved":false,"is_disabled":false,"rental_uris":{"android":"levelo://app?vid=69f4165a-13a2-4bd8-b4d6-abfa25614867","ios":"levelo://app?vid=69f4165a-13a2-4bd8-b4d6-abfa25614867"},"vehicle_type_id":"4","last_reported":1730031317,"current_range_meters":38800,"station_id":"ce501612rcd8frsf0b60","pricing_plan_id":"cebpf4jnsgd1na2vs0mg"},{"bike_id":"a5665962-8f9b-48f5-a5d3-fa16ab36a6ff","system_id":"levelo_inurba_marseille","lat":43.28075,"lon":5.39647,"is_reserved":false,"is_disabled":false,"rental_uris":{"android":"levelo://app?vid=a5665962-8f9b-48f5-a5d3-fa16ab36a6ff","ios":"levelo://app?vid=a5665962-8f9b-48f5-a5d3-fa16ab36a6ff"},"vehicle_type_id":"4","last_reported":1730031317,"current_range_meters":38800,"station_id":"ce4bho12rcd13ifvqh2g","pricing_plan_id":"cebpf4jnsgd1na2vs0mg"},{"bike_id":"5fb7b3c7-bbad-4c2d-828b-aaad6b48e7cf","system_id":"levelo_inurba_marseille","lat":43.27994,"lon":5.40029,"is_reserved":false,"is_disabled":false,"rental_uris":{"android":"levelo://app?vid=5fb7b3c7-bbad-4c2d-828b-aaad6b48e7cf","ios":"levelo://app?vid=5fb7b3c7-bbad-4c2d-828b-aaad6b48e7cf"},"vehicle_type_id":"4","last_reported":1730031317,"current_range_meters":30400,"station_id":"ce4bho92rcd13ifvqh4g","pricing_plan_id":"cebpf4jnsgd1na2vs0mg"},{"bike_id":"556647e4-9c26-4576-bd8c-415461ddabd4","system_id":"levelo_inurba_marseille","lat":43.27569,"lon":5.38406,"is_reserved":false,"is_disabled":false,"rental_uris":{"android":"levelo://app?vid=556647e4-9c26-4576-bd8c-415461ddabd4","ios":"levelo://app?vid=556647e4-9c26-4576-bd8c-415461ddabd4"},"vehicle_type_id":"4","last_reported":1730031317,"current_range_meters":34800,"station_id":"ce4bhh92rcd13ifvqfi0","pricing_plan_id":"cebpf4jnsgd1na2vs0mg"},{"bike_id":"48660d12-eacc-4f93-a06c-04c2aa9e37e4","system_id":"levelo_inurba_marseille","lat":43.26802,"lon":5.40264,"is_reserved":false,"is_disabled":false,"rental_uris":{"android":"levelo://app?vid=48660d12-eacc-4f93-a06c-04c2aa9e37e4","ios":"levelo://app?vid=48660d12-eacc-4f93-a06c-04c2aa9e37e4"},"vehicle_type_id":"4","last_reported":1730031317,"current_range_meters":18000,"station_id":"ce501612rcd8frsf0b60","pricing_plan_id":"cebpf4jnsgd1na2vs0mg"},{"bike_id":"227dfb85-6075-42c0-b05c-b75593ec92d7","system_id":"levelo_inurba_marseille","lat":43.3122,"lon":5.36862,"is_reserved":false,"is_disabled":false,"rental_uris":{"android":"levelo://app?vid=227dfb85-6075-42c0-b05c-b75593ec92d7","ios":"levelo://app?vid=227dfb85-6075-42c0-b05c-b75593ec92d7"},"vehicle_type_id":"4","last_reported":1730031317,"current_range_meters":38000,"station_id":"ce4bgl92rcd13ifvqbq0","pricing_plan_id":"cebpf4jnsgd1na2vs0mg"},{"bike_id":"f3d5c86c-ab11-4ca3-aa72-c97ea732ed17","system_id":"levelo_inurba_marseille","lat":43.27323,"lon":5.39089,"is_reserved":false,"is_disabled":false,"rental_uris":{"android":"levelo://app?vid=f3d5c86c-ab11-4ca3-aa72-c97ea732ed17","ios":"levelo://app?vid=f3d5c86c-ab11-4ca3-aa72-c97ea732ed17"},"vehicle_type_id":"4","last_reported":1730031317,"current_range_meters":29600,"station_id":"ce4bhgp2rcd13ifvqfe0","pricing_plan_id":"cebpf4jnsgd1na2vs0mg"},{"bike_id":"3381cd79-1316-4c50-ad86-ee5056cd0e14","system_id":"levelo_inurba_marseille","lat":43.26061,"lon":5.39393,"is_reserved":false,"is_disabled":false,"rental_uris":{"android":"levelo://app?vid=3381cd79-1316-4c50-ad86-ee5056cd0e14","ios":"levelo://app?vid=3381cd79-1316-4c50-ad86-ee5056cd0e14"},"vehicle_type_id":"4","last_reported":1730031317,"current_range_meters":31200,"station_id":"ce4bhh92rcd13ifvqfj0","pricing_plan_id":"cebpf4jnsgd1na2vs0mg"},{"bike_id":"c9651fb3-7b99-44ae-a0ca-7e5acf898697","system_id":"levelo_inurba_marseille","lat":43.30422,"lon":5.41289,"is_reserved":false,"is_disabled":false,"rental_uris":{"android":"levelo://app?vid=c9651fb3-7b99-44ae-a0ca-7e5acf898697","ios":"levelo://app?vid=c9651fb3-7b99-44ae-a0ca-7e5acf898697"},"vehicle_type_id":"4","last_reported":1730031317,"current_range_meters":31200,"station_id":"ce4bhop2rcd13ifvqh8g","pricing_plan_id":"cebpf4jnsgd1na2vs0mg"},{"bike_id":"cba112a0-44f4-4f47-a8fa-15542b39a456","system_id":"levelo_inurba_marseille","lat":43.23187,"lon":5.35551,"is_reserved":false,"is_disabled":false,"rental_uris":{"android":"levelo://app?vid=cba112a0-44f4-4f47-a8fa-15542b39a456","ios":"levelo://app?vid=cba112a0-44f4-4f47-a8fa-15542b39a456"},"vehicle_type_id":"4","last_reported":1730031317,"current_range_meters":28400,"station_id":"ce4bhu92rcd13ifvqi70","pricing_plan_id":"cebpf4jnsgd1na2vs0mg"},{"bike_id":"d3c00326-2053-4dfa-8f38-475bf5a8246c","system_id":"levelo_inurba_marseille","lat":43.24389,"lon":5.37056,"is_reserved":false,"is_disabled":false,"rental_uris":{"android":"levelo://app?vid=d3c00326-2053-4dfa-8f38-475bf5a8246c","ios":"levelo://app?vid=d3c00326-2053-4dfa-8f38-475bf5a8246c"},"vehicle_type_id":"4","last_reported":1730031317,"current_range_meters":32400,"station_id":"ce4bhhh2rcd13ifvqfk0","pricing_plan_id":"cebpf4jnsgd1na2vs0mg"},{"bike_id":"abc1cbd8-f302-480b-80c1-79d269cb054d","system_id":"levelo_inurba_marseille","lat":43.29728,"lon":5.37695,"is_reserved":false,"is_disabled":false,"rental_uris":{"android":"levelo://app?vid=abc1cbd8-f302-480b-80c1-79d269cb054d","ios":"levelo://app?vid=abc1cbd8-f302-480b-80c1-79d269cb054d"},"vehicle_type_id":"4","last_reported":1730031317,"current_range_meters":18800,"station_id":"ce4bgkh2rcd13ifvqbl0","pricing_plan_id":"cebpf4jnsgd1na2vs0mg"},{"bike_id":"96e8a04e-eaaa-4c54-b7b2-d27222ec8868","system_id":"levelo_inurba_marseille","lat":43.25006,"lon":5.38917,"is_reserved":false,"is_disabled":false,"rental_uris":{"android":"levelo://app?vid=96e8a04e-eaaa-4c54-b7b2-d27222ec8868","ios":"levelo://app?vid=96e8a04e-eaaa-4c54-b7b2-d27222ec8868"},"vehicle_type_id":"4","last_reported":1730031317,"current_range_meters":9200,"station_id":"ce4bhgp2rcd13ifvqfd0","pricing_plan_id":"cebpf4jnsgd1na2vs0mg"},{"bike_id":"d97b91f4-e188-49a4-8c71-216ae6228de5","system_id":"levelo_inurba_marseille","lat":43.32666,"lon":5.4099,"is_reserved":false,"is_disabled":false,"rental_uris":{"android":"levelo://app?vid=d97b91f4-e188-49a4-8c71-216ae6228de5","ios":"levelo://app?vid=d97b91f4-e188-49a4-8c71-216ae6228de5"},"vehicle_type_id":"4","last_reported":1730031317,"current_range_meters":38800,"station_id":"ce4bhpp2rcd13ifvqhgg","pricing_plan_id":"cebpf4jnsgd1na2vs0mg"},{"bike_id":"6f5be585-ce43-4721-b2d4-ef357e71fe7d","system_id":"levelo_inurba_marseille","lat":43.29728,"lon":5.38549,"is_reserved":false,"is_disabled":false,"rental_uris":{"android":"levelo://app?vid=6f5be585-ce43-4721-b2d4-ef357e71fe7d","ios":"levelo://app?vid=6f5be585-ce43-4721-b2d4-ef357e71fe7d"},"vehicle_type_id":"4","last_reported":1730031317,"current_range_meters":6000,"station_id":"","pricing_plan_id":"cebpf4jnsgd1na2vs0mg"},{"bike_id":"dd85d6ee-8329-49b3-9eca-13a38a896c8c","system_id":"levelo_inurba_marseille","lat":43.2439,"lon":5.37059,"is_reserved":false,"is_disabled":false,"rental_uris":{"android":"levelo://app?vid=dd85d6ee-8329-49b3-9eca-13a38a896c8c","ios":"levelo://app?vid=dd85d6ee-8329-49b3-9eca-13a38a896c8c"},"vehicle_type_id":"4","last_reported":1730031317,"current_range_meters":28800,"station_id":"ce4bhhh2rcd13ifvqfk0","pricing_plan_id":"cebpf4jnsgd1na2vs0mg"},{"bike_id":"f85d1b72-3a8c-4a2a-864a-92a540d77af2","system_id":"levelo_inurba_marseille","lat":43.31271,"lon":5.40166,"is_reserved":false,"is_disabled":false,"rental_uris":{"android":"levelo://app?vid=f85d1b72-3a8c-4a2a-864a-92a540d77af2","ios":"levelo://app?vid=f85d1b72-3a8c-4a2a-864a-92a540d77af2"},"vehicle_type_id":"4","last_reported":1730031317,"current_range_meters":38800,"station_id":"ce4bh092rcd13ifvqd30","pricing_plan_id":"cebpf4jnsgd1na2vs0mg"},{"bike_id":"151a1447-b1f7-487b-888f-15524d3e08a6","system_id":"levelo_inurba_marseille","lat":43.29939,"lon":5.36542,"is_reserved":false,"is_disabled":false,"rental_uris":{"android":"levelo://app?vid=151a1447-b1f7-487b-888f-15524d3e08a6","ios":"levelo://app?vid=151a1447-b1f7-487b-888f-15524d3e08a6"},"vehicle_type_id":"4","last_reported":1730031317,"current_range_meters":25200,"station_id":"ce4bgm92rcd13ifvqbr0","pricing_plan_id":"cebpf4jnsgd1na2vs0mg"},{"bike_id":"633bdd84-8a27-486c-8d5a-62bd9dd56f9f","system_id":"levelo_inurba_marseille","lat":43.26935,"lon":5.40248,"is_reserved":false,"is_disabled":false,"rental_uris":{"android":"levelo://app?vid=633bdd84-8a27-486c-8d5a-62bd9dd56f9f","ios":"levelo://app?vid=633bdd84-8a27-486c-8d5a-62bd9dd56f9f"},"vehicle_type_id":"4","last_reported":1730031317,"current_range_meters":38400,"station_id":"cjm6bp8fraef2m0cb0m0","pricing_plan_id":"cebpf4jnsgd1na2vs0mg"},{"bike_id":"92486913-3069-465a-9940-1f6062124ee2","system_id":"levelo_inurba_marseille","lat":43.29839,"lon":5.36274,"is_reserved":false,"is_disabled":false,"rental_uris":{"android":"levelo://app?vid=92486913-3069-465a-9940-1f6062124ee2","ios":"levelo://app?vid=92486913-3069-465a-9940-1f6062124ee2"},"vehicle_type_id":"4","last_reported":1730031317,"current_range_meters":39200,"station_id":"ce4bgpp2rcd13ifvqc3g","pricing_plan_id":"cebpf4jnsgd1na2vs0mg"},{"bike_id":"94008cea-95dd-4c3d-b32c-368ab2fae152","system_id":"levelo_inurba_marseille","lat":43.24176,"lon":5.39723,"is_reserved":false,"is_disabled":false,"rental_uris":{"android":"levelo://app?vid=94008cea-95dd-4c3d-b32c-368ab2fae152","ios":"levelo://app?vid=94008cea-95dd-4c3d-b32c-368ab2fae152"},"vehicle_type_id":"4","last_reported":1730031317,"current_range_meters":38800,"station_id":"ce4bhn12rcd13ifvqgpg","pricing_plan_id":"cebpf4jnsgd1na2vs0mg"},{"bike_id":"0c5cd99c-9f06-4e90-a5fc-6ff2c5bc4703","system_id":"levelo_inurba_marseille","lat":43.26932,"lon":5.38906,"is_reserved":false,"is_disabled":false,"rental_uris":{"android":"levelo://app?vid=0c5cd99c-9f06-4e90-a5fc-6ff2c5bc4703","ios":"levelo://app?vid=0c5cd99c-9f06-4e90-a5fc-6ff2c5bc4703"},"vehicle_type_id":"4","last_reported":1730031317,"current_range_meters":37600,"station_id":"ce4bhhh2rcd13ifvqfl0","pricing_plan_id":"cebpf4jnsgd1na2vs0mg"},{"bike_id":"08a8dde5-3ec1-4654-918c-07ac841525d9","system_id":"levelo_inurba_marseille","lat":43.29419,"lon":5.38629,"is_reserved":false,"is_disabled":false,"rental_uris":{"android":"levelo://app?vid=08a8dde5-3ec1-4654-918c-07ac841525d9","ios":"levelo://app?vid=08a8dde5-3ec1-4654-918c-07ac841525d9"},"vehicle_type_id":"4","last_reported":1730031317,"current_range_meters":29600,"station_id":"ce4bh2h2rcd13ifvqdh0","pricing_plan_id":"cebpf4jnsgd1na2vs0mg"},{"bike_id":"a402349c-2289-4512-8e06-ddedd18ccc18","system_id":"levelo_inurba_marseille","lat":43.27311,"lon":5.39092,"is_reserved":false,"is_disabled":false,"rental_uris":{"android":"levelo://app?vid=a402349c-2289-4512-8e06-ddedd18ccc18","ios":"levelo://app?vid=a402349c-2289-4512-8e06-ddedd18ccc18"},"vehicle_type_id":"4","last_reported":1730031317,"current_range_meters":12400,"station_id":"ce4bhgp2rcd13ifvqfe0","pricing_plan_id":"cebpf4jnsgd1na2vs0mg"},{"bike_id":"ff081f0c-ea21-431a-8d61-ad48db65fd3a","system_id":"levelo_inurba_marseille","lat":43.30353,"lon":5.41879,"is_reserved":false,"is_disabled":false,"rental_uris":{"android":"levelo://app?vid=ff081f0c-ea21-431a-8d61-ad48db65fd3a","ios":"levelo://app?vid=ff081f0c-ea21-431a-8d61-ad48db65fd3a"},"vehicle_type_id":"4","last_reported":1730031317,"current_range_meters":29600,"station_id":"ce4bhop2rcd13ifvqh7g","pricing_plan_id":"cebpf4jnsgd1na2vs0mg"},{"bike_id":"b3dddb20-083c-47eb-8f00-9a6e4abc0713","system_id":"levelo_inurba_marseille","lat":43.27901,"lon":5.3801,"is_reserved":false,"is_disabled":false,"rental_uris":{"android":"levelo://app?vid=b3dddb20-083c-47eb-8f00-9a6e4abc0713","ios":"levelo://app?vid=b3dddb20-083c-47eb-8f00-9a6e4abc0713"},"vehicle_type_id":"4","last_reported":1730031317,"current_range_meters":10800,"station_id":"ce4bhf92rcd13ifvqf50","pricing_plan_id":"cebpf4jnsgd1na2vs0mg"},{"bike_id":"8c0c2fa1-37f9-48f1-b246-0c1a1c47fbb2","system_id":"levelo_inurba_marseille","lat":43.26567,"lon":5.38997,"is_reserved":false,"is_disabled":false,"rental_uris":{"android":"levelo://app?vid=8c0c2fa1-37f9-48f1-b246-0c1a1c47fbb2","ios":"levelo://app?vid=8c0c2fa1-37f9-48f1-b246-0c1a1c47fbb2"},"vehicle_type_id":"4","last_reported":1730031317,"current_range_meters":38800,"station_id":"ce4bhe12rcd13ifvqf30","pricing_plan_id":"cebpf4jnsgd1na2vs0mg"},{"bike_id":"91a84928-1b47-45f2-826f-9c7968eeed3b","system_id":"levelo_inurba_marseille","lat":43.32367,"lon":5.38886,"is_reserved":false,"is_disabled":false,"rental_uris":{"android":"levelo://app?vid=91a84928-1b47-45f2-826f-9c7968eeed3b","ios":"levelo://app?vid=91a84928-1b47-45f2-826f-9c7968eeed3b"},"vehicle_type_id":"4","last_reported":1730031317,"current_range_meters":17600,"station_id":"ce4bhqp2rcd13ifvqhog","pricing_plan_id":"cebpf4jnsgd1na2vs0mg"},{"bike_id":"8ed0e600-52f7-4841-aa09-f2be0f0fd557","system_id":"levelo_inurba_marseille","lat":43.26806,"lon":5.40246,"is_reserved":false,"is_disabled":false,"rental_uris":{"android":"levelo://app?vid=8ed0e600-52f7-4841-aa09-f2be0f0fd557","ios":"levelo://app?vid=8ed0e600-52f7-4841-aa09-f2be0f0fd557"},"vehicle_type_id":"4","last_reported":1730031317,"current_range_meters":38800,"station_id":"ce501612rcd8frsf0b60","pricing_plan_id":"cebpf4jnsgd1na2vs0mg"},{"bike_id":"77bdee59-8b1a-4a67-a616-a0a4a9f1faaa","system_id":"levelo_inurba_marseille","lat":43.29176,"lon":5.37149,"is_reserved":false,"is_disabled":false,"rental_uris":{"android":"levelo://app?vid=77bdee59-8b1a-4a67-a616-a0a4a9f1faaa","ios":"levelo://app?vid=77bdee59-8b1a-4a67-a616-a0a4a9f1faaa"},"vehicle_type_id":"4","last_reported":1730031317,"current_range_meters":39200,"station_id":"ce4bha92rcd13ifvqeh0","pricing_plan_id":"cebpf4jnsgd1na2vs0mg"},{"bike_id":"44a5db39-0c5e-4feb-8620-bece69ea1e6d","system_id":"levelo_inurba_marseille","lat":43.25089,"lon":5.3952,"is_reserved":false,"is_disabled":false,"rental_uris":{"android":"levelo://app?vid=44a5db39-0c5e-4feb-8620-bece69ea1e6d","ios":"levelo://app?vid=44a5db39-0c5e-4feb-8620-bece69ea1e6d"},"vehicle_type_id":"4","last_reported":1730031317,"current_range_meters":8800,"station_id":"ce4bhm12rcd13ifvqgkg","pricing_plan_id":"cebpf4jnsgd1na2vs0mg"},{"bike_id":"13fcab48-2227-46d0-8df5-97d26659dc2b","system_id":"levelo_inurba_marseille","lat":43.26212,"lon":5.37443,"is_reserved":false,"is_disabled":false,"rental_uris":{"android":"levelo://app?vid=13fcab48-2227-46d0-8df5-97d26659dc2b","ios":"levelo://app?vid=13fcab48-2227-46d0-8df5-97d26659dc2b"},"vehicle_type_id":"4","last_reported":1730031317,"current_range_meters":11600,"station_id":"ce4bhgp2rcd13ifvqfc0","pricing_plan_id":"cebpf4jnsgd1na2vs0mg"},{"bike_id":"b8b59812-7afe-47c0-9894-bde2533a587e","system_id":"levelo_inurba_marseille","lat":43.297852,"lon":5.380902,"is_reserved":false,"is_disabled":false,"rental_uris":{"android":"levelo://app?vid=b8b59812-7afe-47c0-9894-bde2533a587e","ios":"levelo://app?vid=b8b59812-7afe-47c0-9894-bde2533a587e"},"vehicle_type_id":"4","last_reported":1730031317,"current_range_meters":39200,"station_id":"ce4bgip2rcd13ifvqbb0","pricing_plan_id":"cebpf4jnsgd1na2vs0mg"},{"bike_id":"8d083ce6-a870-4d2e-8e48-f42f492e858e","system_id":"levelo_inurba_marseille","lat":43.30457,"lon":5.37906,"is_reserved":false,"is_disabled":false,"rental_uris":{"android":"levelo://app?vid=8d083ce6-a870-4d2e-8e48-f42f492e858e","ios":"levelo://app?vid=8d083ce6-a870-4d2e-8e48-f42f492e858e"},"vehicle_type_id":"4","last_reported":1730031317,"current_range_meters":24000,"station_id":"ce4bgup2rcd13ifvqcn0","pricing_plan_id":"cebpf4jnsgd1na2vs0mg"},{"bike_id":"5de0a329-7698-4bce-b772-88bd5818048d","system_id":"levelo_inurba_marseille","lat":43.26067,"lon":5.39391,"is_reserved":false,"is_disabled":false,"rental_uris":{"android":"levelo://app?vid=5de0a329-7698-4bce-b772-88bd5818048d","ios":"levelo://app?vid=5de0a329-7698-4bce-b772-88bd5818048d"},"vehicle_type_id":"4","last_reported":1730031317,"current_range_meters":32800,"station_id":"ce4bhh92rcd13ifvqfj0","pricing_plan_id":"cebpf4jnsgd1na2vs0mg"},{"bike_id":"70700a34-6b52-4026-9dda-e7d0f34f205f","system_id":"levelo_inurba_marseille","lat":43.28463,"lon":5.35895,"is_reserved":false,"is_disabled":false,"rental_uris":{"android":"levelo://app?vid=70700a34-6b52-4026-9dda-e7d0f34f205f","ios":"levelo://app?vid=70700a34-6b52-4026-9dda-e7d0f34f205f"},"vehicle_type_id":"4","last_reported":1730031317,"current_range_meters":29600,"station_id":"ce4bhah2rcd13ifvqei0","pricing_plan_id":"cebpf4jnsgd1na2vs0mg"},{"bike_id":"27f39214-437b-402f-ba70-e8fd46f4e41b","system_id":"levelo_inurba_marseille","lat":43.28489,"lon":5.36929,"is_reserved":false,"is_disabled":false,"rental_uris":{"android":"levelo://app?vid=27f39214-437b-402f-ba70-e8fd46f4e41b","ios":"levelo://app?vid=27f39214-437b-402f-ba70-e8fd46f4e41b"},"vehicle_type_id":"4","last_reported":1730031317,"current_range_meters":19200,"station_id":"","pricing_plan_id":"cebpf4jnsgd1na2vs0mg"},{"bike_id":"5ed72901-e44e-460e-9669-5f1f8a6d2f53","system_id":"levelo_inurba_marseille","lat":43.28659,"lon":5.44464,"is_reserved":false,"is_disabled":false,"rental_uris":{"android":"levelo://app?vid=5ed72901-e44e-460e-9669-5f1f8a6d2f53","ios":"levelo://app?vid=5ed72901-e44e-460e-9669-5f1f8a6d2f53"},"vehicle_type_id":"4","last_reported":1730031317,"current_range_meters":9600,"station_id":"","pricing_plan_id":"cebpf4jnsgd1na2vs0mg"},{"bike_id":"e7360508-6978-487a-a79b-5e2dad5d0ea3","system_id":"levelo_inurba_marseille","lat":43.22932,"lon":5.35374,"is_reserved":false,"is_disabled":false,"rental_uris":{"android":"levelo://app?vid=e7360508-6978-487a-a79b-5e2dad5d0ea3","ios":"levelo://app?vid=e7360508-6978-487a-a79b-5e2dad5d0ea3"},"vehicle_type_id":"4","last_reported":1730031317,"current_range_meters":24800,"station_id":"cpo3532slgdg3j2ikp40","pricing_plan_id":"cebpf4jnsgd1na2vs0mg"},{"bike_id":"72fff3d2-f3e9-45aa-ae6a-0949dc559f0e","system_id":"levelo_inurba_marseille","lat":43.27055,"lon":5.40261,"is_reserved":false,"is_disabled":false,"rental_uris":{"android":"levelo://app?vid=72fff3d2-f3e9-45aa-ae6a-0949dc559f0e","ios":"levelo://app?vid=72fff3d2-f3e9-45aa-ae6a-0949dc559f0e"},"vehicle_type_id":"4","last_reported":1730031317,"current_range_meters":33600,"station_id":"ce4bhk92rcd13ifvqgc0","pricing_plan_id":"cebpf4jnsgd1na2vs0mg"},{"bike_id":"b370fb83-f80d-47e5-8795-152ad10d3ed6","system_id":"levelo_inurba_marseille","lat":43.29448,"lon":5.39741,"is_reserved":false,"is_disabled":false,"rental_uris":{"android":"levelo://app?vid=b370fb83-f80d-47e5-8795-152ad10d3ed6","ios":"levelo://app?vid=b370fb83-f80d-47e5-8795-152ad10d3ed6"},"vehicle_type_id":"4","last_reported":1730031317,"current_range_meters":34000,"station_id":"ce4bh3h2rcd13ifvqdo0","pricing_plan_id":"cebpf4jnsgd1na2vs0mg"},{"bike_id":"c2816766-592f-4674-bf60-334ed739127f","system_id":"levelo_inurba_marseille","lat":43.29373,"lon":5.3784,"is_reserved":false,"is_disabled":false,"rental_uris":{"android":"levelo://app?vid=c2816766-592f-4674-bf60-334ed739127f","ios":"levelo://app?vid=c2816766-592f-4674-bf60-334ed739127f"},"vehicle_type_id":"4","last_reported":1730031317,"current_range_meters":28800,"station_id":"ce4bgjh2rcd13ifvqbf0","pricing_plan_id":"cebpf4jnsgd1na2vs0mg"},{"bike_id":"6fb4883f-9895-49db-9058-304fcd0f6f2d","system_id":"levelo_inurba_marseille","lat":43.27378,"lon":5.36247,"is_reserved":false,"is_disabled":false,"rental_uris":{"android":"levelo://app?vid=6fb4883f-9895-49db-9058-304fcd0f6f2d","ios":"levelo://app?vid=6fb4883f-9895-49db-9058-304fcd0f6f2d"},"vehicle_type_id":"4","last_reported":1730031317,"current_range_meters":18000,"station_id":"ce4bhbh2rcd13ifvqeo0","pricing_plan_id":"cebpf4jnsgd1na2vs0mg"},{"bike_id":"32669b12-4ec1-41d8-be48-28f196a0ec8b","system_id":"levelo_inurba_marseille","lat":43.30149,"lon":5.37409,"is_reserved":false,"is_disabled":false,"rental_uris":{"android":"levelo://app?vid=32669b12-4ec1-41d8-be48-28f196a0ec8b","ios":"levelo://app?vid=32669b12-4ec1-41d8-be48-28f196a0ec8b"},"vehicle_type_id":"4","last_reported":1730031317,"current_range_meters":38000,"station_id":"ce4bgs92rcd13ifvqcc0","pricing_plan_id":"cebpf4jnsgd1na2vs0mg"},{"bike_id":"0a6d3b0a-4878-4436-843f-b04829c7eda5","system_id":"levelo_inurba_marseille","lat":43.28936,"lon":5.36636,"is_reserved":false,"is_disabled":false,"rental_uris":{"android":"levelo://app?vid=0a6d3b0a-4878-4436-843f-b04829c7eda5","ios":"levelo://app?vid=0a6d3b0a-4878-4436-843f-b04829c7eda5"},"vehicle_type_id":"4","last_reported":1730031317,"current_range_meters":19600,"station_id":"ce4bhap2rcd13ifvqek0","pricing_plan_id":"cebpf4jnsgd1na2vs0mg"},{"bike_id":"34c0b19e-e327-425b-bf09-25bec92dd9c4","system_id":"levelo_inurba_marseille","lat":43.293294,"lon":5.454687,"is_reserved":false,"is_disabled":false,"rental_uris":{"android":"levelo://app?vid=34c0b19e-e327-425b-bf09-25bec92dd9c4","ios":"levelo://app?vid=34c0b19e-e327-425b-bf09-25bec92dd9c4"},"vehicle_type_id":"4","last_reported":1730031317,"current_range_meters":5600,"station_id":"","pricing_plan_id":"cebpf4jnsgd1na2vs0mg"},{"bike_id":"a7ddf5af-c7ea-4387-bec9-254f99961866","system_id":"levelo_inurba_marseille","lat":43.23184,"lon":5.39994,"is_reserved":false,"is_disabled":false,"rental_uris":{"android":"levelo://app?vid=a7ddf5af-c7ea-4387-bec9-254f99961866","ios":"levelo://app?vid=a7ddf5af-c7ea-4387-bec9-254f99961866"},"vehicle_type_id":"4","last_reported":1730031317,"current_range_meters":35600,"station_id":"ce4bhn12rcd13ifvqgqg","pricing_plan_id":"cebpf4jnsgd1na2vs0mg"},{"bike_id":"34f93e00-5029-4642-b0c4-0b8938f16f5d","system_id":"levelo_inurba_marseille","lat":43.313543,"lon":5.367231,"is_reserved":false,"is_disabled":false,"rental_uris":{"android":"levelo://app?vid=34f93e00-5029-4642-b0c4-0b8938f16f5d","ios":"levelo://app?vid=34f93e00-5029-4642-b0c4-0b8938f16f5d"},"vehicle_type_id":"4","last_reported":1730031317,"current_range_meters":30800,"station_id":"ce4bgr92rcd13ifvqc6g","pricing_plan_id":"cebpf4jnsgd1na2vs0mg"},{"bike_id":"3cc705ec-4bbd-4307-b39d-b4bf6168a1b1","system_id":"levelo_inurba_marseille","lat":43.29717,"lon":5.37708,"is_reserved":false,"is_disabled":false,"rental_uris":{"android":"levelo://app?vid=3cc705ec-4bbd-4307-b39d-b4bf6168a1b1","ios":"levelo://app?vid=3cc705ec-4bbd-4307-b39d-b4bf6168a1b1"},"vehicle_type_id":"4","last_reported":1730031317,"current_range_meters":36000,"station_id":"ce4bgkh2rcd13ifvqbl0","pricing_plan_id":"cebpf4jnsgd1na2vs0mg"},{"bike_id":"e16ba0fb-c8f9-4074-a1c8-ad626ad5602f","system_id":"levelo_inurba_marseille","lat":43.26938,"lon":5.40249,"is_reserved":false,"is_disabled":false,"rental_uris":{"android":"levelo://app?vid=e16ba0fb-c8f9-4074-a1c8-ad626ad5602f","ios":"levelo://app?vid=e16ba0fb-c8f9-4074-a1c8-ad626ad5602f"},"vehicle_type_id":"4","last_reported":1730031317,"current_range_meters":38400,"station_id":"cjm6bp8fraef2m0cb0m0","pricing_plan_id":"cebpf4jnsgd1na2vs0mg"},{"bike_id":"0e1999de-b984-4f60-b291-f83e907cbd57","system_id":"levelo_inurba_marseille","lat":43.27304,"lon":5.39084,"is_reserved":false,"is_disabled":false,"rental_uris":{"android":"levelo://app?vid=0e1999de-b984-4f60-b291-f83e907cbd57","ios":"levelo://app?vid=0e1999de-b984-4f60-b291-f83e907cbd57"},"vehicle_type_id":"4","last_reported":1730031317,"current_range_meters":34000,"station_id":"ce4bhgp2rcd13ifvqfe0","pricing_plan_id":"cebpf4jnsgd1na2vs0mg"},{"bike_id":"516d2c7e-30e2-429a-adec-fbbadb0d1d0b","system_id":"levelo_inurba_marseille","lat":43.28618,"lon":5.351,"is_reserved":false,"is_disabled":false,"rental_uris":{"android":"levelo://app?vid=516d2c7e-30e2-429a-adec-fbbadb0d1d0b","ios":"levelo://app?vid=516d2c7e-30e2-429a-adec-fbbadb0d1d0b"},"vehicle_type_id":"4","last_reported":1730031317,"current_range_meters":32800,"station_id":"ce4bhch2rcd13ifvqeug","pricing_plan_id":"cebpf4jnsgd1na2vs0mg"},{"bike_id":"9b3cc3a6-e177-4079-bc04-9d5bd534426d","system_id":"levelo_inurba_marseille","lat":43.27213,"lon":5.39189,"is_reserved":false,"is_disabled":false,"rental_uris":{"android":"levelo://app?vid=9b3cc3a6-e177-4079-bc04-9d5bd534426d","ios":"levelo://app?vid=9b3cc3a6-e177-4079-bc04-9d5bd534426d"},"vehicle_type_id":"4","last_reported":1730031317,"current_range_meters":17200,"station_id":"ce4bhhp2rcd13ifvqfm0","pricing_plan_id":"cebpf4jnsgd1na2vs0mg"},{"bike_id":"0927a9a6-2aa8-4e37-9962-91ca9c7b80a8","system_id":"levelo_inurba_marseille","lat":43.27418,"lon":5.3941,"is_reserved":false,"is_disabled":false,"rental_uris":{"android":"levelo://app?vid=0927a9a6-2aa8-4e37-9962-91ca9c7b80a8","ios":"levelo://app?vid=0927a9a6-2aa8-4e37-9962-91ca9c7b80a8"},"vehicle_type_id":"4","last_reported":1730031317,"current_range_meters":28800,"station_id":"ce4bhdp2rcd13ifvqf20","pricing_plan_id":"cebpf4jnsgd1na2vs0mg"},{"bike_id":"6875a1a6-32b9-4783-93f5-84a3a0c85f67","system_id":"levelo_inurba_marseille","lat":43.23069,"lon":5.35489,"is_reserved":false,"is_disabled":false,"rental_uris":{"android":"levelo://app?vid=6875a1a6-32b9-4783-93f5-84a3a0c85f67","ios":"levelo://app?vid=6875a1a6-32b9-4783-93f5-84a3a0c85f67"},"vehicle_type_id":"4","last_reported":1730031317,"current_range_meters":25600,"station_id":"cpo3342slgdg3j2ifvpg","pricing_plan_id":"cebpf4jnsgd1na2vs0mg"},{"bike_id":"4d119be0-f244-48af-924a-f5cd3481568e","system_id":"levelo_inurba_marseille","lat":43.30138,"lon":5.37412,"is_reserved":false,"is_disabled":false,"rental_uris":{"android":"levelo://app?vid=4d119be0-f244-48af-924a-f5cd3481568e","ios":"levelo://app?vid=4d119be0-f244-48af-924a-f5cd3481568e"},"vehicle_type_id":"4","last_reported":1730031317,"current_range_meters":37600,"station_id":"ce4bgs92rcd13ifvqcc0","pricing_plan_id":"cebpf4jnsgd1na2vs0mg"},{"bike_id":"b0c69a31-8df0-4543-be39-d450987138e1","system_id":"levelo_inurba_marseille","lat":43.27315,"lon":5.39093,"is_reserved":false,"is_disabled":false,"rental_uris":{"android":"levelo://app?vid=b0c69a31-8df0-4543-be39-d450987138e1","ios":"levelo://app?vid=b0c69a31-8df0-4543-be39-d450987138e1"},"vehicle_type_id":"4","last_reported":1730031317,"current_range_meters":33600,"station_id":"ce4bhgp2rcd13ifvqfe0","pricing_plan_id":"cebpf4jnsgd1na2vs0mg"},{"bike_id":"b53fffa5-0d16-4a06-9e9e-cb1255503a6e","system_id":"levelo_inurba_marseille","lat":43.28156,"lon":5.42651,"is_reserved":false,"is_disabled":false,"rental_uris":{"android":"levelo://app?vid=b53fffa5-0d16-4a06-9e9e-cb1255503a6e","ios":"levelo://app?vid=b53fffa5-0d16-4a06-9e9e-cb1255503a6e"},"vehicle_type_id":"4","last_reported":1730031317,"current_range_meters":28400,"station_id":"ce4bhnh2rcd13ifvqgug","pricing_plan_id":"cebpf4jnsgd1na2vs0mg"},{"bike_id":"794d7bc8-d607-44de-a2b0-2a1fc45dca3e","system_id":"levelo_inurba_marseille","lat":43.25488,"lon":5.3765,"is_reserved":false,"is_disabled":false,"rental_uris":{"android":"levelo://app?vid=794d7bc8-d607-44de-a2b0-2a1fc45dca3e","ios":"levelo://app?vid=794d7bc8-d607-44de-a2b0-2a1fc45dca3e"},"vehicle_type_id":"4","last_reported":1730031317,"current_range_meters":22800,"station_id":"ce4bhh12rcd13ifvqff0","pricing_plan_id":"cebpf4jnsgd1na2vs0mg"},{"bike_id":"10ee936f-868d-43e4-990f-cc800eeddb4e","system_id":"levelo_inurba_marseille","lat":43.32656,"lon":5.4099,"is_reserved":false,"is_disabled":false,"rental_uris":{"android":"levelo://app?vid=10ee936f-868d-43e4-990f-cc800eeddb4e","ios":"levelo://app?vid=10ee936f-868d-43e4-990f-cc800eeddb4e"},"vehicle_type_id":"4","last_reported":1730031317,"current_range_meters":25200,"station_id":"ce4bhpp2rcd13ifvqhgg","pricing_plan_id":"cebpf4jnsgd1na2vs0mg"},{"bike_id":"54642b2e-0ba2-49a2-8b26-3d73f5c6be8d","system_id":"levelo_inurba_marseille","lat":43.2694,"lon":5.40256,"is_reserved":false,"is_disabled":false,"rental_uris":{"android":"levelo://app?vid=54642b2e-0ba2-49a2-8b26-3d73f5c6be8d","ios":"levelo://app?vid=54642b2e-0ba2-49a2-8b26-3d73f5c6be8d"},"vehicle_type_id":"4","last_reported":1730031317,"current_range_meters":38800,"station_id":"cjm6bp8fraef2m0cb0m0","pricing_plan_id":"cebpf4jnsgd1na2vs0mg"},{"bike_id":"e8ea77e6-0897-4a06-a289-c9fecbdac725","system_id":"levelo_inurba_marseille","lat":43.30352,"lon":5.41874,"is_reserved":false,"is_disabled":false,"rental_uris":{"android":"levelo://app?vid=e8ea77e6-0897-4a06-a289-c9fecbdac725","ios":"levelo://app?vid=e8ea77e6-0897-4a06-a289-c9fecbdac725"},"vehicle_type_id":"4","last_reported":1730031317,"current_range_meters":17600,"station_id":"ce4bhop2rcd13ifvqh7g","pricing_plan_id":"cebpf4jnsgd1na2vs0mg"},{"bike_id":"272108ab-c66d-4277-b942-346fbf20d819","system_id":"levelo_inurba_marseille","lat":43.30355,"lon":5.41876,"is_reserved":false,"is_disabled":false,"rental_uris":{"android":"levelo://app?vid=272108ab-c66d-4277-b942-346fbf20d819","ios":"levelo://app?vid=272108ab-c66d-4277-b942-346fbf20d819"},"vehicle_type_id":"4","last_reported":1730031317,"current_range_meters":8000,"station_id":"ce4bhop2rcd13ifvqh7g","pricing_plan_id":"cebpf4jnsgd1na2vs0mg"},{"bike_id":"9bf2ab5d-f85c-4d9a-a1f6-70dc559d4a7f","system_id":"levelo_inurba_marseille","lat":43.26024,"lon":5.37548,"is_reserved":false,"is_disabled":false,"rental_uris":{"android":"levelo://app?vid=9bf2ab5d-f85c-4d9a-a1f6-70dc559d4a7f","ios":"levelo://app?vid=9bf2ab5d-f85c-4d9a-a1f6-70dc559d4a7f"},"vehicle_type_id":"4","last_reported":1730031317,"current_range_meters":38000,"station_id":"ce4bhgh2rcd13ifvqfa0","pricing_plan_id":"cebpf4jnsgd1na2vs0mg"},{"bike_id":"8fbb3d87-cdca-4c4a-859f-e70dea3485a5","system_id":"levelo_inurba_marseille","lat":43.27493,"lon":5.4246,"is_reserved":false,"is_disabled":false,"rental_uris":{"android":"levelo://app?vid=8fbb3d87-cdca-4c4a-859f-e70dea3485a5","ios":"levelo://app?vid=8fbb3d87-cdca-4c4a-859f-e70dea3485a5"},"vehicle_type_id":"4","last_reported":1730031317,"current_range_meters":33600,"station_id":"ce4bhn92rcd13ifvqgrg","pricing_plan_id":"cebpf4jnsgd1na2vs0mg"},{"bike_id":"b1f541c4-f6f1-4393-b5dc-7f8b525508f0","system_id":"levelo_inurba_marseille","lat":43.31268,"lon":5.40169,"is_reserved":false,"is_disabled":false,"rental_uris":{"android":"levelo://app?vid=b1f541c4-f6f1-4393-b5dc-7f8b525508f0","ios":"levelo://app?vid=b1f541c4-f6f1-4393-b5dc-7f8b525508f0"},"vehicle_type_id":"4","last_reported":1730031317,"current_range_meters":17200,"station_id":"ce4bh092rcd13ifvqd30","pricing_plan_id":"cebpf4jnsgd1na2vs0mg"},{"bike_id":"51a3b430-922e-4c29-a369-d8bcbb43e4f4","system_id":"levelo_inurba_marseille","lat":43.27307,"lon":5.3909,"is_reserved":false,"is_disabled":false,"rental_uris":{"android":"levelo://app?vid=51a3b430-922e-4c29-a369-d8bcbb43e4f4","ios":"levelo://app?vid=51a3b430-922e-4c29-a369-d8bcbb43e4f4"},"vehicle_type_id":"4","last_reported":1730031317,"current_range_meters":38800,"station_id":"ce4bhgp2rcd13ifvqfe0","pricing_plan_id":"cebpf4jnsgd1na2vs0mg"},{"bike_id":"2d44fc96-e02c-40a2-bba4-95d7e4605511","system_id":"levelo_inurba_marseille","lat":43.2781,"lon":5.40712,"is_reserved":false,"is_disabled":false,"rental_uris":{"android":"levelo://app?vid=2d44fc96-e02c-40a2-bba4-95d7e4605511","ios":"levelo://app?vid=2d44fc96-e02c-40a2-bba4-95d7e4605511"},"vehicle_type_id":"4","last_reported":1730031317,"current_range_meters":4400,"station_id":"ce4bhnh2rcd13ifvqgtg","pricing_plan_id":"cebpf4jnsgd1na2vs0mg"},{"bike_id":"0d715061-4764-4092-9b7a-0a81263e465c","system_id":"levelo_inurba_marseille","lat":43.29193,"lon":5.35805,"is_reserved":false,"is_disabled":false,"rental_uris":{"android":"levelo://app?vid=0d715061-4764-4092-9b7a-0a81263e465c","ios":"levelo://app?vid=0d715061-4764-4092-9b7a-0a81263e465c"},"vehicle_type_id":"4","last_reported":1730031317,"current_range_meters":38000,"station_id":"ce4bhb12rcd13ifvqel0","pricing_plan_id":"cebpf4jnsgd1na2vs0mg"},{"bike_id":"cae5512b-eeb1-4b21-8d8f-d8841b2677f3","system_id":"levelo_inurba_marseille","lat":43.24183,"lon":5.39727,"is_reserved":false,"is_disabled":false,"rental_uris":{"android":"levelo://app?vid=cae5512b-eeb1-4b21-8d8f-d8841b2677f3","ios":"levelo://app?vid=cae5512b-eeb1-4b21-8d8f-d8841b2677f3"},"vehicle_type_id":"4","last_reported":1730031317,"current_range_meters":20400,"station_id":"ce4bhn12rcd13ifvqgpg","pricing_plan_id":"cebpf4jnsgd1na2vs0mg"},{"bike_id":"6a4eb022-f152-489a-8e62-14a70c94325d","system_id":"levelo_inurba_marseille","lat":43.24552,"lon":5.39531,"is_reserved":false,"is_disabled":false,"rental_uris":{"android":"levelo://app?vid=6a4eb022-f152-489a-8e62-14a70c94325d","ios":"levelo://app?vid=6a4eb022-f152-489a-8e62-14a70c94325d"},"vehicle_type_id":"4","last_reported":1730031317,"current_range_meters":24400,"station_id":"ce4bhlp2rcd13ifvqgjg","pricing_plan_id":"cebpf4jnsgd1na2vs0mg"},{"bike_id":"efd7936a-3670-4cb6-b25e-cced64860ccf","system_id":"levelo_inurba_marseille","lat":43.30294,"lon":5.39219,"is_reserved":false,"is_disabled":false,"rental_uris":{"android":"levelo://app?vid=efd7936a-3670-4cb6-b25e-cced64860ccf","ios":"levelo://app?vid=efd7936a-3670-4cb6-b25e-cced64860ccf"},"vehicle_type_id":"4","last_reported":1730031317,"current_range_meters":27200,"station_id":"ce4bgkh2rcd13ifvqbk0","pricing_plan_id":"cebpf4jnsgd1na2vs0mg"},{"bike_id":"cd8988cf-34e0-4cd8-92c1-67d3cd8c964e","system_id":"levelo_inurba_marseille","lat":43.23959,"lon":5.3663,"is_reserved":false,"is_disabled":false,"rental_uris":{"android":"levelo://app?vid=cd8988cf-34e0-4cd8-92c1-67d3cd8c964e","ios":"levelo://app?vid=cd8988cf-34e0-4cd8-92c1-67d3cd8c964e"},"vehicle_type_id":"4","last_reported":1730031317,"current_range_meters":16800,"station_id":"ce4bhi12rcd13ifvqfp0","pricing_plan_id":"cebpf4jnsgd1na2vs0mg"},{"bike_id":"c6b2fc05-7410-47d6-b54b-25615935e650","system_id":"levelo_inurba_marseille","lat":43.28152,"lon":5.42637,"is_reserved":false,"is_disabled":false,"rental_uris":{"android":"levelo://app?vid=c6b2fc05-7410-47d6-b54b-25615935e650","ios":"levelo://app?vid=c6b2fc05-7410-47d6-b54b-25615935e650"},"vehicle_type_id":"4","last_reported":1730031317,"current_range_meters":30400,"station_id":"ce4bhnh2rcd13ifvqgug","pricing_plan_id":"cebpf4jnsgd1na2vs0mg"},{"bike_id":"8300f4af-3b29-4c7d-8ec8-48620780b31d","system_id":"levelo_inurba_marseille","lat":43.26932,"lon":5.38907,"is_reserved":false,"is_disabled":false,"rental_uris":{"android":"levelo://app?vid=8300f4af-3b29-4c7d-8ec8-48620780b31d","ios":"levelo://app?vid=8300f4af-3b29-4c7d-8ec8-48620780b31d"},"vehicle_type_id":"4","last_reported":1730031317,"current_range_meters":29600,"station_id":"ce4bhhh2rcd13ifvqfl0","pricing_plan_id":"cebpf4jnsgd1na2vs0mg"},{"bike_id":"ef136fa5-257b-4ee5-bd73-f0de7405e6ba","system_id":"levelo_inurba_marseille","lat":43.24538,"lon":5.39525,"is_reserved":false,"is_disabled":false,"rental_uris":{"android":"levelo://app?vid=ef136fa5-257b-4ee5-bd73-f0de7405e6ba","ios":"levelo://app?vid=ef136fa5-257b-4ee5-bd73-f0de7405e6ba"},"vehicle_type_id":"4","last_reported":1730031317,"current_range_meters":24800,"station_id":"ce4bhlp2rcd13ifvqgjg","pricing_plan_id":"cebpf4jnsgd1na2vs0mg"},{"bike_id":"ca45949b-df01-4bad-9b31-2f0055c3b9a4","system_id":"levelo_inurba_marseille","lat":43.30463,"lon":5.37917,"is_reserved":false,"is_disabled":false,"rental_uris":{"android":"levelo://app?vid=ca45949b-df01-4bad-9b31-2f0055c3b9a4","ios":"levelo://app?vid=ca45949b-df01-4bad-9b31-2f0055c3b9a4"},"vehicle_type_id":"4","last_reported":1730031317,"current_range_meters":34000,"station_id":"ce4bgup2rcd13ifvqcn0","pricing_plan_id":"cebpf4jnsgd1na2vs0mg"},{"bike_id":"67d33dda-8872-42e4-81a7-a7fb36b0d7be","system_id":"levelo_inurba_marseille","lat":43.29959,"lon":5.41316,"is_reserved":false,"is_disabled":false,"rental_uris":{"android":"levelo://app?vid=67d33dda-8872-42e4-81a7-a7fb36b0d7be","ios":"levelo://app?vid=67d33dda-8872-42e4-81a7-a7fb36b0d7be"},"vehicle_type_id":"4","last_reported":1730031317,"current_range_meters":36000,"station_id":"ce4bhp12rcd13ifvqh9g","pricing_plan_id":"cebpf4jnsgd1na2vs0mg"},{"bike_id":"65bbbc38-f821-4a59-ae0f-5a06f57c77e3","system_id":"levelo_inurba_marseille","lat":43.2781,"lon":5.40717,"is_reserved":false,"is_disabled":false,"rental_uris":{"android":"levelo://app?vid=65bbbc38-f821-4a59-ae0f-5a06f57c77e3","ios":"levelo://app?vid=65bbbc38-f821-4a59-ae0f-5a06f57c77e3"},"vehicle_type_id":"4","last_reported":1730031317,"current_range_meters":30400,"station_id":"ce4bhnh2rcd13ifvqgtg","pricing_plan_id":"cebpf4jnsgd1na2vs0mg"},{"bike_id":"9488ca84-aa5e-4311-bde9-38d634703444","system_id":"levelo_inurba_marseille","lat":43.32477,"lon":5.36559,"is_reserved":false,"is_disabled":false,"rental_uris":{"android":"levelo://app?vid=9488ca84-aa5e-4311-bde9-38d634703444","ios":"levelo://app?vid=9488ca84-aa5e-4311-bde9-38d634703444"},"vehicle_type_id":"4","last_reported":1730031317,"current_range_meters":38000,"station_id":"ce4bhs12rcd13ifvqhvg","pricing_plan_id":"cebpf4jnsgd1na2vs0mg"},{"bike_id":"5809a0b6-4a3c-4116-a401-5ea44791b160","system_id":"levelo_inurba_marseille","lat":43.26681,"lon":5.38275,"is_reserved":false,"is_disabled":false,"rental_uris":{"android":"levelo://app?vid=5809a0b6-4a3c-4116-a401-5ea44791b160","ios":"levelo://app?vid=5809a0b6-4a3c-4116-a401-5ea44791b160"},"vehicle_type_id":"4","last_reported":1730031317,"current_range_meters":29600,"station_id":"ce4bhg92rcd13ifvqf90","pricing_plan_id":"cebpf4jnsgd1na2vs0mg"},{"bike_id":"e5e817e3-05ee-42a0-97b8-792b18b2b2d7","system_id":"levelo_inurba_marseille","lat":43.324828,"lon":5.365733,"is_reserved":false,"is_disabled":false,"rental_uris":{"android":"levelo://app?vid=e5e817e3-05ee-42a0-97b8-792b18b2b2d7","ios":"levelo://app?vid=e5e817e3-05ee-42a0-97b8-792b18b2b2d7"},"vehicle_type_id":"4","last_reported":1730031317,"current_range_meters":24400,"station_id":"ce4bhs12rcd13ifvqhvg","pricing_plan_id":"cebpf4jnsgd1na2vs0mg"},{"bike_id":"e145adb6-5aa2-4b11-96d2-eb3a71fb3ad1","system_id":"levelo_inurba_marseille","lat":43.29847,"lon":5.36272,"is_reserved":false,"is_disabled":false,"rental_uris":{"android":"levelo://app?vid=e145adb6-5aa2-4b11-96d2-eb3a71fb3ad1","ios":"levelo://app?vid=e145adb6-5aa2-4b11-96d2-eb3a71fb3ad1"},"vehicle_type_id":"4","last_reported":1730031317,"current_range_meters":7200,"station_id":"ce4bgpp2rcd13ifvqc3g","pricing_plan_id":"cebpf4jnsgd1na2vs0mg"},{"bike_id":"80f76666-e73a-42ad-ae8f-0e775abdc325","system_id":"levelo_inurba_marseille","lat":43.30606,"lon":5.37216,"is_reserved":false,"is_disabled":false,"rental_uris":{"android":"levelo://app?vid=80f76666-e73a-42ad-ae8f-0e775abdc325","ios":"levelo://app?vid=80f76666-e73a-42ad-ae8f-0e775abdc325"},"vehicle_type_id":"4","last_reported":1730031317,"current_range_meters":39200,"station_id":"ce4bgqh2rcd13ifvqc4g","pricing_plan_id":"cebpf4jnsgd1na2vs0mg"},{"bike_id":"601916c5-3274-4e01-863c-d96df39ce3b1","system_id":"levelo_inurba_marseille","lat":43.26553,"lon":5.39008,"is_reserved":false,"is_disabled":false,"rental_uris":{"android":"levelo://app?vid=601916c5-3274-4e01-863c-d96df39ce3b1","ios":"levelo://app?vid=601916c5-3274-4e01-863c-d96df39ce3b1"},"vehicle_type_id":"4","last_reported":1730031317,"current_range_meters":36400,"station_id":"ce4bhe12rcd13ifvqf30","pricing_plan_id":"cebpf4jnsgd1na2vs0mg"},{"bike_id":"442f174d-481d-4e1c-b166-ca9b8e9629dd","system_id":"levelo_inurba_marseille","lat":43.251587,"lon":5.404588,"is_reserved":false,"is_disabled":false,"rental_uris":{"android":"levelo://app?vid=442f174d-481d-4e1c-b166-ca9b8e9629dd","ios":"levelo://app?vid=442f174d-481d-4e1c-b166-ca9b8e9629dd"},"vehicle_type_id":"4","last_reported":1730031317,"current_range_meters":16800,"station_id":"ce4bhlh2rcd13ifvqgig","pricing_plan_id":"cebpf4jnsgd1na2vs0mg"},{"bike_id":"741a9276-099e-4b5c-8bfa-f0ca87b134b9","system_id":"levelo_inurba_marseille","lat":43.303047,"lon":5.392145,"is_reserved":false,"is_disabled":false,"rental_uris":{"android":"levelo://app?vid=741a9276-099e-4b5c-8bfa-f0ca87b134b9","ios":"levelo://app?vid=741a9276-099e-4b5c-8bfa-f0ca87b134b9"},"vehicle_type_id":"4","last_reported":1730031317,"current_range_meters":30000,"station_id":"ce4bh0h2rcd13ifvqd50","pricing_plan_id":"cebpf4jnsgd1na2vs0mg"},{"bike_id":"1fafbe93-2ba4-4077-bfcf-7b3992b30a25","system_id":"levelo_inurba_marseille","lat":43.29552,"lon":5.42283,"is_reserved":false,"is_disabled":false,"rental_uris":{"android":"levelo://app?vid=1fafbe93-2ba4-4077-bfcf-7b3992b30a25","ios":"levelo://app?vid=1fafbe93-2ba4-4077-bfcf-7b3992b30a25"},"vehicle_type_id":"4","last_reported":1730031317,"current_range_meters":38800,"station_id":"ce4bhph2rcd13ifvqhdg","pricing_plan_id":"cebpf4jnsgd1na2vs0mg"},{"bike_id":"ec9cc92c-04fc-46c2-b561-96b56723c8b4","system_id":"levelo_inurba_marseille","lat":43.28106,"lon":5.37846,"is_reserved":false,"is_disabled":false,"rental_uris":{"android":"levelo://app?vid=ec9cc92c-04fc-46c2-b561-96b56723c8b4","ios":"levelo://app?vid=ec9cc92c-04fc-46c2-b561-96b56723c8b4"},"vehicle_type_id":"4","last_reported":1730031317,"current_range_meters":34000,"station_id":"ce4bha12rcd13ifvqee0","pricing_plan_id":"cebpf4jnsgd1na2vs0mg"},{"bike_id":"8a55373d-8f54-4890-9729-5db301ba9fa0","system_id":"levelo_inurba_marseille","lat":43.2501,"lon":5.38919,"is_reserved":false,"is_disabled":false,"rental_uris":{"android":"levelo://app?vid=8a55373d-8f54-4890-9729-5db301ba9fa0","ios":"levelo://app?vid=8a55373d-8f54-4890-9729-5db301ba9fa0"},"vehicle_type_id":"4","last_reported":1730031317,"current_range_meters":32400,"station_id":"ce4bhgp2rcd13ifvqfd0","pricing_plan_id":"cebpf4jnsgd1na2vs0mg"},{"bike_id":"235bd10d-a5a9-41f6-920b-e75d3e702fcb","system_id":"levelo_inurba_marseille","lat":43.256929,"lon":5.382411,"is_reserved":false,"is_disabled":false,"rental_uris":{"android":"levelo://app?vid=235bd10d-a5a9-41f6-920b-e75d3e702fcb","ios":"levelo://app?vid=235bd10d-a5a9-41f6-920b-e75d3e702fcb"},"vehicle_type_id":"4","last_reported":1730031317,"current_range_meters":25600,"station_id":"ce4bhih2rcd13ifvqfs0","pricing_plan_id":"cebpf4jnsgd1na2vs0mg"},{"bike_id":"b0c7ce4f-cf48-4b13-99b1-24dbbfafc315","system_id":"levelo_inurba_marseille","lat":43.27816,"lon":5.4071,"is_reserved":false,"is_disabled":false,"rental_uris":{"android":"levelo://app?vid=b0c7ce4f-cf48-4b13-99b1-24dbbfafc315","ios":"levelo://app?vid=b0c7ce4f-cf48-4b13-99b1-24dbbfafc315"},"vehicle_type_id":"4","last_reported":1730031317,"current_range_meters":28400,"station_id":"ce4bhnh2rcd13ifvqgtg","pricing_plan_id":"cebpf4jnsgd1na2vs0mg"},{"bike_id":"e113f747-4daa-44f7-a218-9e030daa2565","system_id":"levelo_inurba_marseille","lat":43.32105,"lon":5.36773,"is_reserved":false,"is_disabled":false,"rental_uris":{"android":"levelo://app?vid=e113f747-4daa-44f7-a218-9e030daa2565","ios":"levelo://app?vid=e113f747-4daa-44f7-a218-9e030daa2565"},"vehicle_type_id":"4","last_reported":1730031317,"current_range_meters":26800,"station_id":"ce4bhrh2rcd13ifvqhug","pricing_plan_id":"cebpf4jnsgd1na2vs0mg"},{"bike_id":"bc90f224-bf50-48ab-9476-f806f6f8efc8","system_id":"levelo_inurba_marseille","lat":43.29284,"lon":5.37452,"is_reserved":false,"is_disabled":false,"rental_uris":{"android":"levelo://app?vid=bc90f224-bf50-48ab-9476-f806f6f8efc8","ios":"levelo://app?vid=bc90f224-bf50-48ab-9476-f806f6f8efc8"},"vehicle_type_id":"4","last_reported":1730031317,"current_range_meters":10000,"station_id":"ce4bgi12rcd13ifvqb70","pricing_plan_id":"cebpf4jnsgd1na2vs0mg"},{"bike_id":"6dfe5cc9-8aa4-4177-aac2-34ca48bf27f9","system_id":"levelo_inurba_marseille","lat":43.3127,"lon":5.40165,"is_reserved":false,"is_disabled":false,"rental_uris":{"android":"levelo://app?vid=6dfe5cc9-8aa4-4177-aac2-34ca48bf27f9","ios":"levelo://app?vid=6dfe5cc9-8aa4-4177-aac2-34ca48bf27f9"},"vehicle_type_id":"4","last_reported":1730031317,"current_range_meters":4000,"station_id":"ce4bh092rcd13ifvqd30","pricing_plan_id":"cebpf4jnsgd1na2vs0mg"},{"bike_id":"4cb54fe2-6aa3-4b51-89f9-1a40a399762b","system_id":"levelo_inurba_marseille","lat":43.29619,"lon":5.37162,"is_reserved":false,"is_disabled":false,"rental_uris":{"android":"levelo://app?vid=4cb54fe2-6aa3-4b51-89f9-1a40a399762b","ios":"levelo://app?vid=4cb54fe2-6aa3-4b51-89f9-1a40a399762b"},"vehicle_type_id":"4","last_reported":1730031317,"current_range_meters":19600,"station_id":"ce4bgnh2rcd13ifvqc0g","pricing_plan_id":"cebpf4jnsgd1na2vs0mg"},{"bike_id":"9fd56fad-5f3d-42b4-b491-7b57b76bc0cf","system_id":"levelo_inurba_marseille","lat":43.27816,"lon":5.40719,"is_reserved":false,"is_disabled":false,"rental_uris":{"android":"levelo://app?vid=9fd56fad-5f3d-42b4-b491-7b57b76bc0cf","ios":"levelo://app?vid=9fd56fad-5f3d-42b4-b491-7b57b76bc0cf"},"vehicle_type_id":"4","last_reported":1730031317,"current_range_meters":23200,"station_id":"ce4bhnh2rcd13ifvqgtg","pricing_plan_id":"cebpf4jnsgd1na2vs0mg"},{"bike_id":"f4d4ddee-e7ff-4eb3-b0d8-184faccc62c8","system_id":"levelo_inurba_marseille","lat":43.292603,"lon":5.384387,"is_reserved":false,"is_disabled":false,"rental_uris":{"android":"levelo://app?vid=f4d4ddee-e7ff-4eb3-b0d8-184faccc62c8","ios":"levelo://app?vid=f4d4ddee-e7ff-4eb3-b0d8-184faccc62c8"},"vehicle_type_id":"4","last_reported":1730031317,"current_range_meters":10800,"station_id":"ce4bh692rcd13ifvqea0","pricing_plan_id":"cebpf4jnsgd1na2vs0mg"},{"bike_id":"785d6ee6-4dc5-4acb-875d-e3b74e52aea2","system_id":"levelo_inurba_marseille","lat":43.24392,"lon":5.3706,"is_reserved":false,"is_disabled":false,"rental_uris":{"android":"levelo://app?vid=785d6ee6-4dc5-4acb-875d-e3b74e52aea2","ios":"levelo://app?vid=785d6ee6-4dc5-4acb-875d-e3b74e52aea2"},"vehicle_type_id":"4","last_reported":1730031317,"current_range_meters":28000,"station_id":"ce4bhhh2rcd13ifvqfk0","pricing_plan_id":"cebpf4jnsgd1na2vs0mg"},{"bike_id":"744bde82-bd02-445d-b711-6cd860d3c3d0","system_id":"levelo_inurba_marseille","lat":43.30422,"lon":5.41278,"is_reserved":false,"is_disabled":false,"rental_uris":{"android":"levelo://app?vid=744bde82-bd02-445d-b711-6cd860d3c3d0","ios":"levelo://app?vid=744bde82-bd02-445d-b711-6cd860d3c3d0"},"vehicle_type_id":"4","last_reported":1730031317,"current_range_meters":35600,"station_id":"ce4bhop2rcd13ifvqh8g","pricing_plan_id":"cebpf4jnsgd1na2vs0mg"},{"bike_id":"c1896d1c-f4d3-431f-be00-17bea34feb0d","system_id":"levelo_inurba_marseille","lat":43.31492,"lon":5.37305,"is_reserved":false,"is_disabled":false,"rental_uris":{"android":"levelo://app?vid=c1896d1c-f4d3-431f-be00-17bea34feb0d","ios":"levelo://app?vid=c1896d1c-f4d3-431f-be00-17bea34feb0d"},"vehicle_type_id":"4","last_reported":1730031317,"current_range_meters":28800,"station_id":"ce4bgt12rcd13ifvqcd0","pricing_plan_id":"cebpf4jnsgd1na2vs0mg"},{"bike_id":"4e34ffc2-4ae4-4483-9511-9a97f6d751e6","system_id":"levelo_inurba_marseille","lat":43.293001,"lon":5.3745,"is_reserved":false,"is_disabled":false,"rental_uris":{"android":"levelo://app?vid=4e34ffc2-4ae4-4483-9511-9a97f6d751e6","ios":"levelo://app?vid=4e34ffc2-4ae4-4483-9511-9a97f6d751e6"},"vehicle_type_id":"4","last_reported":1730031317,"current_range_meters":33600,"station_id":"ce4bgi12rcd13ifvqb70","pricing_plan_id":"cebpf4jnsgd1na2vs0mg"},{"bike_id":"76655054-c5bb-403b-83de-851da69c462b","system_id":"levelo_inurba_marseille","lat":43.30421,"lon":5.4128,"is_reserved":false,"is_disabled":false,"rental_uris":{"android":"levelo://app?vid=76655054-c5bb-403b-83de-851da69c462b","ios":"levelo://app?vid=76655054-c5bb-403b-83de-851da69c462b"},"vehicle_type_id":"4","last_reported":1730031317,"current_range_meters":26800,"station_id":"ce4bhop2rcd13ifvqh8g","pricing_plan_id":"cebpf4jnsgd1na2vs0mg"},{"bike_id":"a4cdb9e2-dcee-478e-b833-1e72009d3ae3","system_id":"levelo_inurba_marseille","lat":43.3042,"lon":5.41286,"is_reserved":false,"is_disabled":false,"rental_uris":{"android":"levelo://app?vid=a4cdb9e2-dcee-478e-b833-1e72009d3ae3","ios":"levelo://app?vid=a4cdb9e2-dcee-478e-b833-1e72009d3ae3"},"vehicle_type_id":"4","last_reported":1730031317,"current_range_meters":37600,"station_id":"ce4bhop2rcd13ifvqh8g","pricing_plan_id":"cebpf4jnsgd1na2vs0mg"},{"bike_id":"c65417d6-6622-4395-b76f-feb2f4595473","system_id":"levelo_inurba_marseille","lat":43.25723,"lon":5.41102,"is_reserved":false,"is_disabled":false,"rental_uris":{"android":"levelo://app?vid=c65417d6-6622-4395-b76f-feb2f4595473","ios":"levelo://app?vid=c65417d6-6622-4395-b76f-feb2f4595473"},"vehicle_type_id":"4","last_reported":1730031317,"current_range_meters":36400,"station_id":"ce4bhkp2rcd13ifvqgd0","pricing_plan_id":"cebpf4jnsgd1na2vs0mg"},{"bike_id":"75bc418d-5fa4-4111-819c-79228dcd39de","system_id":"levelo_inurba_marseille","lat":43.26056,"lon":5.39394,"is_reserved":false,"is_disabled":false,"rental_uris":{"android":"levelo://app?vid=75bc418d-5fa4-4111-819c-79228dcd39de","ios":"levelo://app?vid=75bc418d-5fa4-4111-819c-79228dcd39de"},"vehicle_type_id":"4","last_reported":1730031317,"current_range_meters":9200,"station_id":"ce4bhh92rcd13ifvqfj0","pricing_plan_id":"cebpf4jnsgd1na2vs0mg"},{"bike_id":"d7ff7165-6d5c-4f76-865c-b2ea1a2a3c7a","system_id":"levelo_inurba_marseille","lat":43.27491,"lon":5.42455,"is_reserved":false,"is_disabled":false,"rental_uris":{"android":"levelo://app?vid=d7ff7165-6d5c-4f76-865c-b2ea1a2a3c7a","ios":"levelo://app?vid=d7ff7165-6d5c-4f76-865c-b2ea1a2a3c7a"},"vehicle_type_id":"4","last_reported":1730031317,"current_range_meters":5600,"station_id":"ce4bhn92rcd13ifvqgrg","pricing_plan_id":"cebpf4jnsgd1na2vs0mg"},{"bike_id":"39975f8c-e476-4165-92c6-e7572605f8b1","system_id":"levelo_inurba_marseille","lat":43.24068,"lon":5.37766,"is_reserved":false,"is_disabled":false,"rental_uris":{"android":"levelo://app?vid=39975f8c-e476-4165-92c6-e7572605f8b1","ios":"levelo://app?vid=39975f8c-e476-4165-92c6-e7572605f8b1"},"vehicle_type_id":"4","last_reported":1730031317,"current_range_meters":14800,"station_id":"ce4bhnp2rcd13ifvqgvg","pricing_plan_id":"cebpf4jnsgd1na2vs0mg"},{"bike_id":"b3c71d30-6ded-428e-8293-1451c253108f","system_id":"levelo_inurba_marseille","lat":43.29893,"lon":5.43659,"is_reserved":false,"is_disabled":false,"rental_uris":{"android":"levelo://app?vid=b3c71d30-6ded-428e-8293-1451c253108f","ios":"levelo://app?vid=b3c71d30-6ded-428e-8293-1451c253108f"},"vehicle_type_id":"4","last_reported":1730031317,"current_range_meters":30400,"station_id":"ce4bhpp2rcd13ifvqhfg","pricing_plan_id":"cebpf4jnsgd1na2vs0mg"},{"bike_id":"da41005b-3fbd-4389-9128-80ea7e3c96a4","system_id":"levelo_inurba_marseille","lat":43.26955,"lon":5.38631,"is_reserved":false,"is_disabled":false,"rental_uris":{"android":"levelo://app?vid=da41005b-3fbd-4389-9128-80ea7e3c96a4","ios":"levelo://app?vid=da41005b-3fbd-4389-9128-80ea7e3c96a4"},"vehicle_type_id":"4","last_reported":1730031317,"current_range_meters":37600,"station_id":"ce4bhh92rcd13ifvqfh0","pricing_plan_id":"cebpf4jnsgd1na2vs0mg"},{"bike_id":"e7724ef7-2c56-40d1-a107-98b66e372f66","system_id":"levelo_inurba_marseille","lat":43.28612,"lon":5.35097,"is_reserved":false,"is_disabled":false,"rental_uris":{"android":"levelo://app?vid=e7724ef7-2c56-40d1-a107-98b66e372f66","ios":"levelo://app?vid=e7724ef7-2c56-40d1-a107-98b66e372f66"},"vehicle_type_id":"4","last_reported":1730031317,"current_range_meters":8400,"station_id":"ce4bhch2rcd13ifvqeug","pricing_plan_id":"cebpf4jnsgd1na2vs0mg"},{"bike_id":"b54a1450-a5e2-4400-8ed0-f6ad27dc90fa","system_id":"levelo_inurba_marseille","lat":43.27308,"lon":5.39091,"is_reserved":false,"is_disabled":false,"rental_uris":{"android":"levelo://app?vid=b54a1450-a5e2-4400-8ed0-f6ad27dc90fa","ios":"levelo://app?vid=b54a1450-a5e2-4400-8ed0-f6ad27dc90fa"},"vehicle_type_id":"4","last_reported":1730031317,"current_range_meters":13600,"station_id":"ce4bhgp2rcd13ifvqfe0","pricing_plan_id":"cebpf4jnsgd1na2vs0mg"},{"bike_id":"82bad05c-5c93-4d77-8736-9fe9cd98889f","system_id":"levelo_inurba_marseille","lat":43.30306,"lon":5.36885,"is_reserved":false,"is_disabled":false,"rental_uris":{"android":"levelo://app?vid=82bad05c-5c93-4d77-8736-9fe9cd98889f","ios":"levelo://app?vid=82bad05c-5c93-4d77-8736-9fe9cd98889f"},"vehicle_type_id":"4","last_reported":1730031317,"current_range_meters":36400,"station_id":"ce4bgqh2rcd13ifvqc5g","pricing_plan_id":"cebpf4jnsgd1na2vs0mg"},{"bike_id":"263f93c9-144a-4508-b60e-cbaf71ba2571","system_id":"levelo_inurba_marseille","lat":43.24184,"lon":5.39721,"is_reserved":false,"is_disabled":false,"rental_uris":{"android":"levelo://app?vid=263f93c9-144a-4508-b60e-cbaf71ba2571","ios":"levelo://app?vid=263f93c9-144a-4508-b60e-cbaf71ba2571"},"vehicle_type_id":"4","last_reported":1730031317,"current_range_meters":37600,"station_id":"ce4bhn12rcd13ifvqgpg","pricing_plan_id":"cebpf4jnsgd1na2vs0mg"},{"bike_id":"f9dd0103-b045-4d3e-97f0-feaf4a2d3923","system_id":"levelo_inurba_marseille","lat":43.25006,"lon":5.38909,"is_reserved":false,"is_disabled":false,"rental_uris":{"android":"levelo://app?vid=f9dd0103-b045-4d3e-97f0-feaf4a2d3923","ios":"levelo://app?vid=f9dd0103-b045-4d3e-97f0-feaf4a2d3923"},"vehicle_type_id":"4","last_reported":1730031317,"current_range_meters":38800,"station_id":"ce4bhgp2rcd13ifvqfd0","pricing_plan_id":"cebpf4jnsgd1na2vs0mg"},{"bike_id":"c7493202-7ba4-4657-a88f-5b1ffe0cc379","system_id":"levelo_inurba_marseille","lat":43.25725,"lon":5.41101,"is_reserved":false,"is_disabled":false,"rental_uris":{"android":"levelo://app?vid=c7493202-7ba4-4657-a88f-5b1ffe0cc379","ios":"levelo://app?vid=c7493202-7ba4-4657-a88f-5b1ffe0cc379"},"vehicle_type_id":"4","last_reported":1730031317,"current_range_meters":36800,"station_id":"ce4bhkp2rcd13ifvqgd0","pricing_plan_id":"cebpf4jnsgd1na2vs0mg"},{"bike_id":"fdb7a2ea-1502-497e-9330-45cbda59e4b8","system_id":"levelo_inurba_marseille","lat":43.25932,"lon":5.40907,"is_reserved":false,"is_disabled":false,"rental_uris":{"android":"levelo://app?vid=fdb7a2ea-1502-497e-9330-45cbda59e4b8","ios":"levelo://app?vid=fdb7a2ea-1502-497e-9330-45cbda59e4b8"},"vehicle_type_id":"4","last_reported":1730031317,"current_range_meters":38000,"station_id":"ce4bhm92rcd13ifvqglg","pricing_plan_id":"cebpf4jnsgd1na2vs0mg"},{"bike_id":"66573150-901d-4315-999f-1bdf296e6efc","system_id":"levelo_inurba_marseille","lat":43.2885,"lon":5.35863,"is_reserved":false,"is_disabled":false,"rental_uris":{"android":"levelo://app?vid=66573150-901d-4315-999f-1bdf296e6efc","ios":"levelo://app?vid=66573150-901d-4315-999f-1bdf296e6efc"},"vehicle_type_id":"4","last_reported":1730031317,"current_range_meters":38800,"station_id":"ce4bhb12rcd13ifvqem0","pricing_plan_id":"cebpf4jnsgd1na2vs0mg"},{"bike_id":"f2953a5b-b1da-4fa6-8050-a8db9bba59a4","system_id":"levelo_inurba_marseille","lat":43.29304,"lon":5.37456,"is_reserved":false,"is_disabled":false,"rental_uris":{"android":"levelo://app?vid=f2953a5b-b1da-4fa6-8050-a8db9bba59a4","ios":"levelo://app?vid=f2953a5b-b1da-4fa6-8050-a8db9bba59a4"},"vehicle_type_id":"4","last_reported":1730031317,"current_range_meters":26800,"station_id":"ce4bgi12rcd13ifvqb70","pricing_plan_id":"cebpf4jnsgd1na2vs0mg"},{"bike_id":"7a723d88-02b3-4905-8f70-4b634c51f36c","system_id":"levelo_inurba_marseille","lat":43.29689,"lon":5.37288,"is_reserved":false,"is_disabled":false,"rental_uris":{"android":"levelo://app?vid=7a723d88-02b3-4905-8f70-4b634c51f36c","ios":"levelo://app?vid=7a723d88-02b3-4905-8f70-4b634c51f36c"},"vehicle_type_id":"4","last_reported":1730031317,"current_range_meters":38800,"station_id":"ce4bgk12rcd13ifvqbj0","pricing_plan_id":"cebpf4jnsgd1na2vs0mg"},{"bike_id":"8e05c1c9-c561-470b-83c7-44b67333075d","system_id":"levelo_inurba_marseille","lat":43.29283,"lon":5.38445,"is_reserved":false,"is_disabled":false,"rental_uris":{"android":"levelo://app?vid=8e05c1c9-c561-470b-83c7-44b67333075d","ios":"levelo://app?vid=8e05c1c9-c561-470b-83c7-44b67333075d"},"vehicle_type_id":"4","last_reported":1730031317,"current_range_meters":36800,"station_id":"ce4bh692rcd13ifvqea0","pricing_plan_id":"cebpf4jnsgd1na2vs0mg"},{"bike_id":"0ecf5e07-d4ac-4f2c-bd1b-3acf9f99ddc6","system_id":"levelo_inurba_marseille","lat":43.2602,"lon":5.37544,"is_reserved":false,"is_disabled":false,"rental_uris":{"android":"levelo://app?vid=0ecf5e07-d4ac-4f2c-bd1b-3acf9f99ddc6","ios":"levelo://app?vid=0ecf5e07-d4ac-4f2c-bd1b-3acf9f99ddc6"},"vehicle_type_id":"4","last_reported":1730031317,"current_range_meters":36400,"station_id":"ce4bhgh2rcd13ifvqfa0","pricing_plan_id":"cebpf4jnsgd1na2vs0mg"},{"bike_id":"67afa27e-68f9-408d-b78e-74323c879a53","system_id":"levelo_inurba_marseille","lat":43.29219,"lon":5.36066,"is_reserved":false,"is_disabled":false,"rental_uris":{"android":"levelo://app?vid=67afa27e-68f9-408d-b78e-74323c879a53","ios":"levelo://app?vid=67afa27e-68f9-408d-b78e-74323c879a53"},"vehicle_type_id":"4","last_reported":1730031317,"current_range_meters":35200,"station_id":"ce4bhbh2rcd13ifvqeqg","pricing_plan_id":"cebpf4jnsgd1na2vs0mg"},{"bike_id":"000c3fba-3aea-43e7-8c62-f7f4d64635ae","system_id":"levelo_inurba_marseille","lat":43.25731,"lon":5.41106,"is_reserved":false,"is_disabled":false,"rental_uris":{"android":"levelo://app?vid=000c3fba-3aea-43e7-8c62-f7f4d64635ae","ios":"levelo://app?vid=000c3fba-3aea-43e7-8c62-f7f4d64635ae"},"vehicle_type_id":"4","last_reported":1730031317,"current_range_meters":14800,"station_id":"ce4bhkp2rcd13ifvqgd0","pricing_plan_id":"cebpf4jnsgd1na2vs0mg"},{"bike_id":"769194de-d424-42b0-beab-ad5df5706bdb","system_id":"levelo_inurba_marseille","lat":43.23179,"lon":5.39981,"is_reserved":false,"is_disabled":false,"rental_uris":{"android":"levelo://app?vid=769194de-d424-42b0-beab-ad5df5706bdb","ios":"levelo://app?vid=769194de-d424-42b0-beab-ad5df5706bdb"},"vehicle_type_id":"4","last_reported":1730031317,"current_range_meters":20400,"station_id":"ce4bhn12rcd13ifvqgqg","pricing_plan_id":"cebpf4jnsgd1na2vs0mg"},{"bike_id":"1c256453-29a9-41f8-9be2-df0c87896625","system_id":"levelo_inurba_marseille","lat":43.29843,"lon":5.36268,"is_reserved":false,"is_disabled":false,"rental_uris":{"android":"levelo://app?vid=1c256453-29a9-41f8-9be2-df0c87896625","ios":"levelo://app?vid=1c256453-29a9-41f8-9be2-df0c87896625"},"vehicle_type_id":"4","last_reported":1730031317,"current_range_meters":14400,"station_id":"ce4bgpp2rcd13ifvqc3g","pricing_plan_id":"cebpf4jnsgd1na2vs0mg"},{"bike_id":"488036ca-7994-4e23-a5d9-e4b3ac45f05e","system_id":"levelo_inurba_marseille","lat":43.29167,"lon":5.37161,"is_reserved":false,"is_disabled":false,"rental_uris":{"android":"levelo://app?vid=488036ca-7994-4e23-a5d9-e4b3ac45f05e","ios":"levelo://app?vid=488036ca-7994-4e23-a5d9-e4b3ac45f05e"},"vehicle_type_id":"4","last_reported":1730031317,"current_range_meters":27200,"station_id":"ce4bha92rcd13ifvqeh0","pricing_plan_id":"cebpf4jnsgd1na2vs0mg"},{"bike_id":"8d1224ea-8c67-414f-8e8e-8dff85dd0343","system_id":"levelo_inurba_marseille","lat":43.25008,"lon":5.38929,"is_reserved":false,"is_disabled":false,"rental_uris":{"android":"levelo://app?vid=8d1224ea-8c67-414f-8e8e-8dff85dd0343","ios":"levelo://app?vid=8d1224ea-8c67-414f-8e8e-8dff85dd0343"},"vehicle_type_id":"4","last_reported":1730031317,"current_range_meters":36800,"station_id":"ce4bhgp2rcd13ifvqfd0","pricing_plan_id":"cebpf4jnsgd1na2vs0mg"},{"bike_id":"9befed88-9f8c-464c-b07b-093bd97066bb","system_id":"levelo_inurba_marseille","lat":43.29805,"lon":5.37136,"is_reserved":false,"is_disabled":false,"rental_uris":{"android":"levelo://app?vid=9befed88-9f8c-464c-b07b-093bd97066bb","ios":"levelo://app?vid=9befed88-9f8c-464c-b07b-093bd97066bb"},"vehicle_type_id":"4","last_reported":1730031317,"current_range_meters":20000,"station_id":"","pricing_plan_id":"cebpf4jnsgd1na2vs0mg"},{"bike_id":"f37e3b02-a49c-4c4e-b112-f9c8c24edf90","system_id":"levelo_inurba_marseille","lat":43.2319,"lon":5.35552,"is_reserved":false,"is_disabled":false,"rental_uris":{"android":"levelo://app?vid=f37e3b02-a49c-4c4e-b112-f9c8c24edf90","ios":"levelo://app?vid=f37e3b02-a49c-4c4e-b112-f9c8c24edf90"},"vehicle_type_id":"4","last_reported":1730031317,"current_range_meters":16800,"station_id":"ce4bhu92rcd13ifvqi70","pricing_plan_id":"cebpf4jnsgd1na2vs0mg"},{"bike_id":"601b34eb-bb27-49aa-bc78-4cf12d6bde95","system_id":"levelo_inurba_marseille","lat":43.28256,"lon":5.35061,"is_reserved":false,"is_disabled":false,"rental_uris":{"android":"levelo://app?vid=601b34eb-bb27-49aa-bc78-4cf12d6bde95","ios":"levelo://app?vid=601b34eb-bb27-49aa-bc78-4cf12d6bde95"},"vehicle_type_id":"4","last_reported":1730031317,"current_range_meters":26000,"station_id":"ce4bhbp2rcd13ifvqerg","pricing_plan_id":"cebpf4jnsgd1na2vs0mg"},{"bike_id":"de385991-9db4-4ae2-aea0-6231cbc1bafc","system_id":"levelo_inurba_marseille","lat":43.27616,"lon":5.36119,"is_reserved":false,"is_disabled":false,"rental_uris":{"android":"levelo://app?vid=de385991-9db4-4ae2-aea0-6231cbc1bafc","ios":"levelo://app?vid=de385991-9db4-4ae2-aea0-6231cbc1bafc"},"vehicle_type_id":"4","last_reported":1730031317,"current_range_meters":37600,"station_id":"ce4bgj92rcd13ifvqbe0","pricing_plan_id":"cebpf4jnsgd1na2vs0mg"},{"bike_id":"95fd31be-1268-4609-a09d-9283ad286b90","system_id":"levelo_inurba_marseille","lat":43.30148,"lon":5.37414,"is_reserved":false,"is_disabled":false,"rental_uris":{"android":"levelo://app?vid=95fd31be-1268-4609-a09d-9283ad286b90","ios":"levelo://app?vid=95fd31be-1268-4609-a09d-9283ad286b90"},"vehicle_type_id":"4","last_reported":1730031317,"current_range_meters":32000,"station_id":"ce4bgs92rcd13ifvqcc0","pricing_plan_id":"cebpf4jnsgd1na2vs0mg"},{"bike_id":"b34006c4-4a8d-41be-95d1-471c5cd262f4","system_id":"levelo_inurba_marseille","lat":43.29201,"lon":5.35793,"is_reserved":false,"is_disabled":false,"rental_uris":{"android":"levelo://app?vid=b34006c4-4a8d-41be-95d1-471c5cd262f4","ios":"levelo://app?vid=b34006c4-4a8d-41be-95d1-471c5cd262f4"},"vehicle_type_id":"4","last_reported":1730031317,"current_range_meters":39200,"station_id":"ce4bhb12rcd13ifvqel0","pricing_plan_id":"cebpf4jnsgd1na2vs0mg"},{"bike_id":"a4d2aac1-98f7-4ee9-bb54-2720ee698eac","system_id":"levelo_inurba_marseille","lat":43.25579,"lon":5.38239,"is_reserved":false,"is_disabled":false,"rental_uris":{"android":"levelo://app?vid=a4d2aac1-98f7-4ee9-bb54-2720ee698eac","ios":"levelo://app?vid=a4d2aac1-98f7-4ee9-bb54-2720ee698eac"},"vehicle_type_id":"4","last_reported":1730031317,"current_range_meters":30800,"station_id":"ce4bhih2rcd13ifvqfs0","pricing_plan_id":"cebpf4jnsgd1na2vs0mg"},{"bike_id":"dad2718b-ffdf-4024-8a84-70e058921ae1","system_id":"levelo_inurba_marseille","lat":43.26052,"lon":5.39395,"is_reserved":false,"is_disabled":false,"rental_uris":{"android":"levelo://app?vid=dad2718b-ffdf-4024-8a84-70e058921ae1","ios":"levelo://app?vid=dad2718b-ffdf-4024-8a84-70e058921ae1"},"vehicle_type_id":"4","last_reported":1730031317,"current_range_meters":28000,"station_id":"ce4bhh92rcd13ifvqfj0","pricing_plan_id":"cebpf4jnsgd1na2vs0mg"},{"bike_id":"5c8d47df-cace-44d5-9922-d4ea86fc841f","system_id":"levelo_inurba_marseille","lat":43.23956,"lon":5.36648,"is_reserved":false,"is_disabled":false,"rental_uris":{"android":"levelo://app?vid=5c8d47df-cace-44d5-9922-d4ea86fc841f","ios":"levelo://app?vid=5c8d47df-cace-44d5-9922-d4ea86fc841f"},"vehicle_type_id":"4","last_reported":1730031317,"current_range_meters":38000,"station_id":"ce4bhi12rcd13ifvqfp0","pricing_plan_id":"cebpf4jnsgd1na2vs0mg"},{"bike_id":"872bf1d7-f852-4002-8545-4ba28e44ca4c","system_id":"levelo_inurba_marseille","lat":43.27494,"lon":5.42454,"is_reserved":false,"is_disabled":false,"rental_uris":{"android":"levelo://app?vid=872bf1d7-f852-4002-8545-4ba28e44ca4c","ios":"levelo://app?vid=872bf1d7-f852-4002-8545-4ba28e44ca4c"},"vehicle_type_id":"4","last_reported":1730031317,"current_range_meters":24800,"station_id":"ce4bhn92rcd13ifvqgrg","pricing_plan_id":"cebpf4jnsgd1na2vs0mg"},{"bike_id":"7c415667-afd5-4e51-88b5-a0f16e35d58c","system_id":"levelo_inurba_marseille","lat":43.27489,"lon":5.42462,"is_reserved":false,"is_disabled":false,"rental_uris":{"android":"levelo://app?vid=7c415667-afd5-4e51-88b5-a0f16e35d58c","ios":"levelo://app?vid=7c415667-afd5-4e51-88b5-a0f16e35d58c"},"vehicle_type_id":"4","last_reported":1730031317,"current_range_meters":27200,"station_id":"ce4bhn92rcd13ifvqgrg","pricing_plan_id":"cebpf4jnsgd1na2vs0mg"},{"bike_id":"63dffe58-b321-4992-b66b-9f28a3e3e3b4","system_id":"levelo_inurba_marseille","lat":43.29962,"lon":5.41317,"is_reserved":false,"is_disabled":false,"rental_uris":{"android":"levelo://app?vid=63dffe58-b321-4992-b66b-9f28a3e3e3b4","ios":"levelo://app?vid=63dffe58-b321-4992-b66b-9f28a3e3e3b4"},"vehicle_type_id":"4","last_reported":1730031317,"current_range_meters":38800,"station_id":"ce4bhp12rcd13ifvqh9g","pricing_plan_id":"cebpf4jnsgd1na2vs0mg"},{"bike_id":"a3e0d9da-5427-4778-8249-427ccd80d981","system_id":"levelo_inurba_marseille","lat":43.29551,"lon":5.42283,"is_reserved":false,"is_disabled":false,"rental_uris":{"android":"levelo://app?vid=a3e0d9da-5427-4778-8249-427ccd80d981","ios":"levelo://app?vid=a3e0d9da-5427-4778-8249-427ccd80d981"},"vehicle_type_id":"4","last_reported":1730031317,"current_range_meters":38800,"station_id":"ce4bhph2rcd13ifvqhdg","pricing_plan_id":"cebpf4jnsgd1na2vs0mg"},{"bike_id":"b3395865-638c-409f-8ba5-b009807c2e9a","system_id":"levelo_inurba_marseille","lat":43.29939,"lon":5.36543,"is_reserved":false,"is_disabled":false,"rental_uris":{"android":"levelo://app?vid=b3395865-638c-409f-8ba5-b009807c2e9a","ios":"levelo://app?vid=b3395865-638c-409f-8ba5-b009807c2e9a"},"vehicle_type_id":"4","last_reported":1730031317,"current_range_meters":36400,"station_id":"ce4bgm92rcd13ifvqbr0","pricing_plan_id":"cebpf4jnsgd1na2vs0mg"},{"bike_id":"3b7397bd-c910-48bb-804f-acb33aed6b5c","system_id":"levelo_inurba_marseille","lat":43.29224,"lon":5.36073,"is_reserved":false,"is_disabled":false,"rental_uris":{"android":"levelo://app?vid=3b7397bd-c910-48bb-804f-acb33aed6b5c","ios":"levelo://app?vid=3b7397bd-c910-48bb-804f-acb33aed6b5c"},"vehicle_type_id":"4","last_reported":1730031317,"current_range_meters":21600,"station_id":"ce4bhbh2rcd13ifvqeqg","pricing_plan_id":"cebpf4jnsgd1na2vs0mg"},{"bike_id":"1f32e874-c685-4c8a-b132-6ffcc04a7c74","system_id":"levelo_inurba_marseille","lat":43.2466,"lon":5.38161,"is_reserved":false,"is_disabled":false,"rental_uris":{"android":"levelo://app?vid=1f32e874-c685-4c8a-b132-6ffcc04a7c74","ios":"levelo://app?vid=1f32e874-c685-4c8a-b132-6ffcc04a7c74"},"vehicle_type_id":"4","last_reported":1730031317,"current_range_meters":16000,"station_id":"ce4bhih2rcd13ifvqfr0","pricing_plan_id":"cebpf4jnsgd1na2vs0mg"},{"bike_id":"8fd93a99-3875-44d7-8d41-3bd4af32fd00","system_id":"levelo_inurba_marseille","lat":43.31221,"lon":5.36849,"is_reserved":false,"is_disabled":false,"rental_uris":{"android":"levelo://app?vid=8fd93a99-3875-44d7-8d41-3bd4af32fd00","ios":"levelo://app?vid=8fd93a99-3875-44d7-8d41-3bd4af32fd00"},"vehicle_type_id":"4","last_reported":1730031317,"current_range_meters":35200,"station_id":"ce4bgl92rcd13ifvqbq0","pricing_plan_id":"cebpf4jnsgd1na2vs0mg"},{"bike_id":"b4348c01-0050-43c0-9d00-efd0ac088090","system_id":"levelo_inurba_marseille","lat":43.31489,"lon":5.373,"is_reserved":false,"is_disabled":false,"rental_uris":{"android":"levelo://app?vid=b4348c01-0050-43c0-9d00-efd0ac088090","ios":"levelo://app?vid=b4348c01-0050-43c0-9d00-efd0ac088090"},"vehicle_type_id":"4","last_reported":1730031317,"current_range_meters":36400,"station_id":"ce4bgt12rcd13ifvqcd0","pricing_plan_id":"cebpf4jnsgd1na2vs0mg"},{"bike_id":"2f1d10f6-d9e1-4e2b-9127-b509011bd6ea","system_id":"levelo_inurba_marseille","lat":43.26805,"lon":5.40267,"is_reserved":false,"is_disabled":false,"rental_uris":{"android":"levelo://app?vid=2f1d10f6-d9e1-4e2b-9127-b509011bd6ea","ios":"levelo://app?vid=2f1d10f6-d9e1-4e2b-9127-b509011bd6ea"},"vehicle_type_id":"4","last_reported":1730031317,"current_range_meters":4400,"station_id":"ce501612rcd8frsf0b60","pricing_plan_id":"cebpf4jnsgd1na2vs0mg"},{"bike_id":"b425a53a-2ca1-45d6-9375-1a007f59f76d","system_id":"levelo_inurba_marseille","lat":43.27414,"lon":5.39411,"is_reserved":false,"is_disabled":false,"rental_uris":{"android":"levelo://app?vid=b425a53a-2ca1-45d6-9375-1a007f59f76d","ios":"levelo://app?vid=b425a53a-2ca1-45d6-9375-1a007f59f76d"},"vehicle_type_id":"4","last_reported":1730031317,"current_range_meters":14400,"station_id":"ce4bhdp2rcd13ifvqf20","pricing_plan_id":"cebpf4jnsgd1na2vs0mg"},{"bike_id":"0a8f76cc-76e5-49dd-a5c6-ca2a8c60c54d","system_id":"levelo_inurba_marseille","lat":43.31485,"lon":5.37315,"is_reserved":false,"is_disabled":false,"rental_uris":{"android":"levelo://app?vid=0a8f76cc-76e5-49dd-a5c6-ca2a8c60c54d","ios":"levelo://app?vid=0a8f76cc-76e5-49dd-a5c6-ca2a8c60c54d"},"vehicle_type_id":"4","last_reported":1730031317,"current_range_meters":18000,"station_id":"ce4bgt12rcd13ifvqcd0","pricing_plan_id":"cebpf4jnsgd1na2vs0mg"},{"bike_id":"d8d619c6-7301-4ff3-a605-7c1e2e08b62e","system_id":"levelo_inurba_marseille","lat":43.280396,"lon":5.369349,"is_reserved":false,"is_disabled":false,"rental_uris":{"android":"levelo://app?vid=d8d619c6-7301-4ff3-a605-7c1e2e08b62e","ios":"levelo://app?vid=d8d619c6-7301-4ff3-a605-7c1e2e08b62e"},"vehicle_type_id":"4","last_reported":1730031317,"current_range_meters":26800,"station_id":"ce4bha12rcd13ifvqef0","pricing_plan_id":"cebpf4jnsgd1na2vs0mg"},{"bike_id":"ab6ec0ef-c958-4a6f-bffa-eece25fd5ed1","system_id":"levelo_inurba_marseille","lat":43.262085,"lon":5.374633,"is_reserved":false,"is_disabled":false,"rental_uris":{"android":"levelo://app?vid=ab6ec0ef-c958-4a6f-bffa-eece25fd5ed1","ios":"levelo://app?vid=ab6ec0ef-c958-4a6f-bffa-eece25fd5ed1"},"vehicle_type_id":"4","last_reported":1730031317,"current_range_meters":17200,"station_id":"ce4bhgp2rcd13ifvqfc0","pricing_plan_id":"cebpf4jnsgd1na2vs0mg"},{"bike_id":"63fb4238-ccb1-4f60-ba12-a20cd06f9154","system_id":"levelo_inurba_marseille","lat":43.303,"lon":5.39216,"is_reserved":false,"is_disabled":false,"rental_uris":{"android":"levelo://app?vid=63fb4238-ccb1-4f60-ba12-a20cd06f9154","ios":"levelo://app?vid=63fb4238-ccb1-4f60-ba12-a20cd06f9154"},"vehicle_type_id":"4","last_reported":1730031317,"current_range_meters":38400,"station_id":"ce4bgkh2rcd13ifvqbk0","pricing_plan_id":"cebpf4jnsgd1na2vs0mg"},{"bike_id":"2fdd8efd-807f-43c0-a5f8-acb8d352d834","system_id":"levelo_inurba_marseille","lat":43.32365,"lon":5.38884,"is_reserved":false,"is_disabled":false,"rental_uris":{"android":"levelo://app?vid=2fdd8efd-807f-43c0-a5f8-acb8d352d834","ios":"levelo://app?vid=2fdd8efd-807f-43c0-a5f8-acb8d352d834"},"vehicle_type_id":"4","last_reported":1730031317,"current_range_meters":4400,"station_id":"ce4bhqp2rcd13ifvqhog","pricing_plan_id":"cebpf4jnsgd1na2vs0mg"},{"bike_id":"43df6f01-ce4c-441f-bf0c-95fe2920d7eb","system_id":"levelo_inurba_marseille","lat":43.26561,"lon":5.38998,"is_reserved":false,"is_disabled":false,"rental_uris":{"android":"levelo://app?vid=43df6f01-ce4c-441f-bf0c-95fe2920d7eb","ios":"levelo://app?vid=43df6f01-ce4c-441f-bf0c-95fe2920d7eb"},"vehicle_type_id":"4","last_reported":1730031317,"current_range_meters":28400,"station_id":"ce4bhe12rcd13ifvqf30","pricing_plan_id":"cebpf4jnsgd1na2vs0mg"},{"bike_id":"a5fdf9c1-fd52-4abe-90ae-59eb8e3e6fb3","system_id":"levelo_inurba_marseille","lat":43.2815,"lon":5.42649,"is_reserved":false,"is_disabled":false,"rental_uris":{"android":"levelo://app?vid=a5fdf9c1-fd52-4abe-90ae-59eb8e3e6fb3","ios":"levelo://app?vid=a5fdf9c1-fd52-4abe-90ae-59eb8e3e6fb3"},"vehicle_type_id":"4","last_reported":1730031317,"current_range_meters":39200,"station_id":"ce4bhnh2rcd13ifvqgug","pricing_plan_id":"cebpf4jnsgd1na2vs0mg"},{"bike_id":"59cf5278-0bb9-48eb-9f54-5c0fbb1e820a","system_id":"levelo_inurba_marseille","lat":43.27054,"lon":5.40254,"is_reserved":false,"is_disabled":false,"rental_uris":{"android":"levelo://app?vid=59cf5278-0bb9-48eb-9f54-5c0fbb1e820a","ios":"levelo://app?vid=59cf5278-0bb9-48eb-9f54-5c0fbb1e820a"},"vehicle_type_id":"4","last_reported":1730031317,"current_range_meters":37600,"station_id":"ce4bhk92rcd13ifvqgc0","pricing_plan_id":"cebpf4jnsgd1na2vs0mg"},{"bike_id":"f4f7c64e-fe86-4aed-9e22-c40cd65f15d7","system_id":"levelo_inurba_marseille","lat":43.29521,"lon":5.37497,"is_reserved":false,"is_disabled":false,"rental_uris":{"android":"levelo://app?vid=f4f7c64e-fe86-4aed-9e22-c40cd65f15d7","ios":"levelo://app?vid=f4f7c64e-fe86-4aed-9e22-c40cd65f15d7"},"vehicle_type_id":"4","last_reported":1730031317,"current_range_meters":36800,"station_id":"ce4bgkp2rcd13ifvqbmg","pricing_plan_id":"cebpf4jnsgd1na2vs0mg"},{"bike_id":"14ed6f32-87b3-40ee-b4c8-36524f4a27d9","system_id":"levelo_inurba_marseille","lat":43.27378,"lon":5.36254,"is_reserved":false,"is_disabled":false,"rental_uris":{"android":"levelo://app?vid=14ed6f32-87b3-40ee-b4c8-36524f4a27d9","ios":"levelo://app?vid=14ed6f32-87b3-40ee-b4c8-36524f4a27d9"},"vehicle_type_id":"4","last_reported":1730031317,"current_range_meters":10800,"station_id":"ce4bhbh2rcd13ifvqeo0","pricing_plan_id":"cebpf4jnsgd1na2vs0mg"},{"bike_id":"de1cb2e8-5b82-4389-92ad-3386beb7b82f","system_id":"levelo_inurba_marseille","lat":43.29295,"lon":5.37168,"is_reserved":false,"is_disabled":false,"rental_uris":{"android":"levelo://app?vid=de1cb2e8-5b82-4389-92ad-3386beb7b82f","ios":"levelo://app?vid=de1cb2e8-5b82-4389-92ad-3386beb7b82f"},"vehicle_type_id":"4","last_reported":1730031317,"current_range_meters":28800,"station_id":"ce4bgh92rcd13ifvqb40","pricing_plan_id":"cebpf4jnsgd1na2vs0mg"},{"bike_id":"315552ae-12d3-4b73-b5ec-d1580a4accf3","system_id":"levelo_inurba_marseille","lat":43.3126,"lon":5.40173,"is_reserved":false,"is_disabled":false,"rental_uris":{"android":"levelo://app?vid=315552ae-12d3-4b73-b5ec-d1580a4accf3","ios":"levelo://app?vid=315552ae-12d3-4b73-b5ec-d1580a4accf3"},"vehicle_type_id":"4","last_reported":1730031317,"current_range_meters":38800,"station_id":"ce4bh092rcd13ifvqd30","pricing_plan_id":"cebpf4jnsgd1na2vs0mg"},{"bike_id":"764364f0-86a2-4166-8605-314636f3daef","system_id":"levelo_inurba_marseille","lat":43.29846,"lon":5.36271,"is_reserved":false,"is_disabled":false,"rental_uris":{"android":"levelo://app?vid=764364f0-86a2-4166-8605-314636f3daef","ios":"levelo://app?vid=764364f0-86a2-4166-8605-314636f3daef"},"vehicle_type_id":"4","last_reported":1730031317,"current_range_meters":38000,"station_id":"ce4bgpp2rcd13ifvqc3g","pricing_plan_id":"cebpf4jnsgd1na2vs0mg"},{"bike_id":"d4b0d68a-ae82-42a1-b0da-b39254ee1044","system_id":"levelo_inurba_marseille","lat":43.23199,"lon":5.35546,"is_reserved":false,"is_disabled":false,"rental_uris":{"android":"levelo://app?vid=d4b0d68a-ae82-42a1-b0da-b39254ee1044","ios":"levelo://app?vid=d4b0d68a-ae82-42a1-b0da-b39254ee1044"},"vehicle_type_id":"4","last_reported":1730031317,"current_range_meters":10800,"station_id":"ce4bhu92rcd13ifvqi70","pricing_plan_id":"cebpf4jnsgd1na2vs0mg"},{"bike_id":"7cdd88d2-5824-40fa-8faf-90ef733261c2","system_id":"levelo_inurba_marseille","lat":43.23972,"lon":5.36634,"is_reserved":false,"is_disabled":false,"rental_uris":{"android":"levelo://app?vid=7cdd88d2-5824-40fa-8faf-90ef733261c2","ios":"levelo://app?vid=7cdd88d2-5824-40fa-8faf-90ef733261c2"},"vehicle_type_id":"4","last_reported":1730031317,"current_range_meters":16800,"station_id":"ce4bhi12rcd13ifvqfp0","pricing_plan_id":"cebpf4jnsgd1na2vs0mg"},{"bike_id":"d93f5d66-5801-405e-8177-d8044aa5543d","system_id":"levelo_inurba_marseille","lat":43.28156,"lon":5.42639,"is_reserved":false,"is_disabled":false,"rental_uris":{"android":"levelo://app?vid=d93f5d66-5801-405e-8177-d8044aa5543d","ios":"levelo://app?vid=d93f5d66-5801-405e-8177-d8044aa5543d"},"vehicle_type_id":"4","last_reported":1730031317,"current_range_meters":3600,"station_id":"ce4bhnh2rcd13ifvqgug","pricing_plan_id":"cebpf4jnsgd1na2vs0mg"},{"bike_id":"8a7ea3b3-7c19-4f13-a31a-07202c98e2c3","system_id":"levelo_inurba_marseille","lat":43.32485,"lon":5.36559,"is_reserved":false,"is_disabled":false,"rental_uris":{"android":"levelo://app?vid=8a7ea3b3-7c19-4f13-a31a-07202c98e2c3","ios":"levelo://app?vid=8a7ea3b3-7c19-4f13-a31a-07202c98e2c3"},"vehicle_type_id":"4","last_reported":1730031317,"current_range_meters":22000,"station_id":"ce4bhs12rcd13ifvqhvg","pricing_plan_id":"cebpf4jnsgd1na2vs0mg"},{"bike_id":"04518ea9-c53f-40a3-80da-3e58bba4a32f","system_id":"levelo_inurba_marseille","lat":43.2293,"lon":5.35377,"is_reserved":false,"is_disabled":false,"rental_uris":{"android":"levelo://app?vid=04518ea9-c53f-40a3-80da-3e58bba4a32f","ios":"levelo://app?vid=04518ea9-c53f-40a3-80da-3e58bba4a32f"},"vehicle_type_id":"4","last_reported":1730031317,"current_range_meters":28000,"station_id":"cpo3532slgdg3j2ikp40","pricing_plan_id":"cebpf4jnsgd1na2vs0mg"},{"bike_id":"944a1341-d5b0-4573-9e40-38a85c06908c","system_id":"levelo_inurba_marseille","lat":43.28937,"lon":5.36636,"is_reserved":false,"is_disabled":false,"rental_uris":{"android":"levelo://app?vid=944a1341-d5b0-4573-9e40-38a85c06908c","ios":"levelo://app?vid=944a1341-d5b0-4573-9e40-38a85c06908c"},"vehicle_type_id":"4","last_reported":1730031317,"current_range_meters":28800,"station_id":"ce4bhap2rcd13ifvqek0","pricing_plan_id":"cebpf4jnsgd1na2vs0mg"},{"bike_id":"37715975-b7d7-45ae-87a1-9fd2bf4e6777","system_id":"levelo_inurba_marseille","lat":43.23966,"lon":5.36631,"is_reserved":false,"is_disabled":false,"rental_uris":{"android":"levelo://app?vid=37715975-b7d7-45ae-87a1-9fd2bf4e6777","ios":"levelo://app?vid=37715975-b7d7-45ae-87a1-9fd2bf4e6777"},"vehicle_type_id":"4","last_reported":1730031317,"current_range_meters":8400,"station_id":"ce4bhi12rcd13ifvqfp0","pricing_plan_id":"cebpf4jnsgd1na2vs0mg"},{"bike_id":"a929bb97-02ec-400c-aafd-a4d93e575497","system_id":"levelo_inurba_marseille","lat":43.24172,"lon":5.36396,"is_reserved":false,"is_disabled":false,"rental_uris":{"android":"levelo://app?vid=a929bb97-02ec-400c-aafd-a4d93e575497","ios":"levelo://app?vid=a929bb97-02ec-400c-aafd-a4d93e575497"},"vehicle_type_id":"4","last_reported":1730031317,"current_range_meters":29600,"station_id":"cpo36qri1sfpv3e86is0","pricing_plan_id":"cebpf4jnsgd1na2vs0mg"},{"bike_id":"1a504bb3-387b-4e83-ae89-5c5ddfebd1d6","system_id":"levelo_inurba_marseille","lat":43.26929,"lon":5.38913,"is_reserved":false,"is_disabled":false,"rental_uris":{"android":"levelo://app?vid=1a504bb3-387b-4e83-ae89-5c5ddfebd1d6","ios":"levelo://app?vid=1a504bb3-387b-4e83-ae89-5c5ddfebd1d6"},"vehicle_type_id":"4","last_reported":1730031317,"current_range_meters":39200,"station_id":"ce4bhhh2rcd13ifvqfl0","pricing_plan_id":"cebpf4jnsgd1na2vs0mg"},{"bike_id":"19c5e0ad-9a68-45ec-9fcc-eeb02537eb82","system_id":"levelo_inurba_marseille","lat":43.274139,"lon":5.394079,"is_reserved":false,"is_disabled":false,"rental_uris":{"android":"levelo://app?vid=19c5e0ad-9a68-45ec-9fcc-eeb02537eb82","ios":"levelo://app?vid=19c5e0ad-9a68-45ec-9fcc-eeb02537eb82"},"vehicle_type_id":"4","last_reported":1730031317,"current_range_meters":38800,"station_id":"ce4bhb12rcd13ifvqel0","pricing_plan_id":"cebpf4jnsgd1na2vs0mg"},{"bike_id":"4be51580-de59-4bce-83f1-933e1f9eff4a","system_id":"levelo_inurba_marseille","lat":43.29373,"lon":5.3785,"is_reserved":false,"is_disabled":false,"rental_uris":{"android":"levelo://app?vid=4be51580-de59-4bce-83f1-933e1f9eff4a","ios":"levelo://app?vid=4be51580-de59-4bce-83f1-933e1f9eff4a"},"vehicle_type_id":"4","last_reported":1730031317,"current_range_meters":29600,"station_id":"ce4bgjh2rcd13ifvqbf0","pricing_plan_id":"cebpf4jnsgd1na2vs0mg"},{"bike_id":"6495af04-c874-4345-ae15-2fb517b868e4","system_id":"levelo_inurba_marseille","lat":43.30538,"lon":5.36525,"is_reserved":false,"is_disabled":false,"rental_uris":{"android":"levelo://app?vid=6495af04-c874-4345-ae15-2fb517b868e4","ios":"levelo://app?vid=6495af04-c874-4345-ae15-2fb517b868e4"},"vehicle_type_id":"4","last_reported":1730031317,"current_range_meters":28400,"station_id":"ce4bgs12rcd13ifvqcag","pricing_plan_id":"cebpf4jnsgd1na2vs0mg"},{"bike_id":"01a8e98b-5b3e-425b-8bde-b143fe7810a1","system_id":"levelo_inurba_marseille","lat":43.26558,"lon":5.39006,"is_reserved":false,"is_disabled":false,"rental_uris":{"android":"levelo://app?vid=01a8e98b-5b3e-425b-8bde-b143fe7810a1","ios":"levelo://app?vid=01a8e98b-5b3e-425b-8bde-b143fe7810a1"},"vehicle_type_id":"4","last_reported":1730031317,"current_range_meters":26800,"station_id":"ce4bhe12rcd13ifvqf30","pricing_plan_id":"cebpf4jnsgd1na2vs0mg"},{"bike_id":"46b631eb-2e74-4466-b4ed-98bb2494e13b","system_id":"levelo_inurba_marseille","lat":43.29731,"lon":5.37703,"is_reserved":false,"is_disabled":false,"rental_uris":{"android":"levelo://app?vid=46b631eb-2e74-4466-b4ed-98bb2494e13b","ios":"levelo://app?vid=46b631eb-2e74-4466-b4ed-98bb2494e13b"},"vehicle_type_id":"4","last_reported":1730031317,"current_range_meters":8000,"station_id":"ce4bgkh2rcd13ifvqbl0","pricing_plan_id":"cebpf4jnsgd1na2vs0mg"},{"bike_id":"c79335e0-960b-4d8e-963f-fa1127f85895","system_id":"levelo_inurba_marseille","lat":43.3054,"lon":5.36703,"is_reserved":false,"is_disabled":false,"rental_uris":{"android":"levelo://app?vid=c79335e0-960b-4d8e-963f-fa1127f85895","ios":"levelo://app?vid=c79335e0-960b-4d8e-963f-fa1127f85895"},"vehicle_type_id":"4","last_reported":1730031317,"current_range_meters":27200,"station_id":"ce4bgrp2rcd13ifvqc9g","pricing_plan_id":"cebpf4jnsgd1na2vs0mg"},{"bike_id":"396b02c8-3bf6-444d-ba51-1cc84b771be6","system_id":"levelo_inurba_marseille","lat":43.3053,"lon":5.36533,"is_reserved":false,"is_disabled":false,"rental_uris":{"android":"levelo://app?vid=396b02c8-3bf6-444d-ba51-1cc84b771be6","ios":"levelo://app?vid=396b02c8-3bf6-444d-ba51-1cc84b771be6"},"vehicle_type_id":"4","last_reported":1730031317,"current_range_meters":30000,"station_id":"ce4bgs12rcd13ifvqcag","pricing_plan_id":"cebpf4jnsgd1na2vs0mg"},{"bike_id":"6e45bd55-8d3d-47a0-ae26-852c24ebcb13","system_id":"levelo_inurba_marseille","lat":43.2781,"lon":5.40704,"is_reserved":false,"is_disabled":false,"rental_uris":{"android":"levelo://app?vid=6e45bd55-8d3d-47a0-ae26-852c24ebcb13","ios":"levelo://app?vid=6e45bd55-8d3d-47a0-ae26-852c24ebcb13"},"vehicle_type_id":"4","last_reported":1730031317,"current_range_meters":38400,"station_id":"ce4bhnh2rcd13ifvqgtg","pricing_plan_id":"cebpf4jnsgd1na2vs0mg"},{"bike_id":"e89316dc-a19a-469f-a9cd-dc00b495757e","system_id":"levelo_inurba_marseille","lat":43.27432,"lon":5.40649,"is_reserved":false,"is_disabled":false,"rental_uris":{"android":"levelo://app?vid=e89316dc-a19a-469f-a9cd-dc00b495757e","ios":"levelo://app?vid=e89316dc-a19a-469f-a9cd-dc00b495757e"},"vehicle_type_id":"4","last_reported":1730031317,"current_range_meters":9600,"station_id":"","pricing_plan_id":"cebpf4jnsgd1na2vs0mg"},{"bike_id":"518fa5dc-5e53-4bd0-ac65-365ea5bf382b","system_id":"levelo_inurba_marseille","lat":43.2923,"lon":5.36071,"is_reserved":false,"is_disabled":false,"rental_uris":{"android":"levelo://app?vid=518fa5dc-5e53-4bd0-ac65-365ea5bf382b","ios":"levelo://app?vid=518fa5dc-5e53-4bd0-ac65-365ea5bf382b"},"vehicle_type_id":"4","last_reported":1730031317,"current_range_meters":13600,"station_id":"ce4bhbh2rcd13ifvqeqg","pricing_plan_id":"cebpf4jnsgd1na2vs0mg"},{"bike_id":"9be507ed-0dcf-4d40-9c2d-96fb14b928c1","system_id":"levelo_inurba_marseille","lat":43.28966,"lon":5.37837,"is_reserved":false,"is_disabled":false,"rental_uris":{"android":"levelo://app?vid=9be507ed-0dcf-4d40-9c2d-96fb14b928c1","ios":"levelo://app?vid=9be507ed-0dcf-4d40-9c2d-96fb14b928c1"},"vehicle_type_id":"4","last_reported":1730031317,"current_range_meters":30400,"station_id":"ce4bh9p2rcd13ifvqed0","pricing_plan_id":"cebpf4jnsgd1na2vs0mg"},{"bike_id":"81e500be-3ff6-45b1-af40-237783c8efb0","system_id":"levelo_inurba_marseille","lat":43.27816,"lon":5.40715,"is_reserved":false,"is_disabled":false,"rental_uris":{"android":"levelo://app?vid=81e500be-3ff6-45b1-af40-237783c8efb0","ios":"levelo://app?vid=81e500be-3ff6-45b1-af40-237783c8efb0"},"vehicle_type_id":"4","last_reported":1730031317,"current_range_meters":15200,"station_id":"ce4bhnh2rcd13ifvqgtg","pricing_plan_id":"cebpf4jnsgd1na2vs0mg"},{"bike_id":"7b3b741d-a094-426f-91d3-b81d9fa8a93e","system_id":"levelo_inurba_marseille","lat":43.28051,"lon":5.40971,"is_reserved":false,"is_disabled":false,"rental_uris":{"android":"levelo://app?vid=7b3b741d-a094-426f-91d3-b81d9fa8a93e","ios":"levelo://app?vid=7b3b741d-a094-426f-91d3-b81d9fa8a93e"},"vehicle_type_id":"4","last_reported":1730031317,"current_range_meters":16400,"station_id":"","pricing_plan_id":"cebpf4jnsgd1na2vs0mg"},{"bike_id":"fa30867d-31fd-449d-bf86-f380d61b29ca","system_id":"levelo_inurba_marseille","lat":43.28421,"lon":5.34977,"is_reserved":false,"is_disabled":false,"rental_uris":{"android":"levelo://app?vid=fa30867d-31fd-449d-bf86-f380d61b29ca","ios":"levelo://app?vid=fa30867d-31fd-449d-bf86-f380d61b29ca"},"vehicle_type_id":"4","last_reported":1730031317,"current_range_meters":31200,"station_id":"ce4bhbh2rcd13ifvqepg","pricing_plan_id":"cebpf4jnsgd1na2vs0mg"},{"bike_id":"89a2f930-4ba7-4878-a5a7-dc8e17fa5c57","system_id":"levelo_inurba_marseille","lat":43.26945,"lon":5.38641,"is_reserved":false,"is_disabled":false,"rental_uris":{"android":"levelo://app?vid=89a2f930-4ba7-4878-a5a7-dc8e17fa5c57","ios":"levelo://app?vid=89a2f930-4ba7-4878-a5a7-dc8e17fa5c57"},"vehicle_type_id":"4","last_reported":1730031317,"current_range_meters":11200,"station_id":"ce4bhh92rcd13ifvqfh0","pricing_plan_id":"cebpf4jnsgd1na2vs0mg"},{"bike_id":"d8ee650a-d3a8-4135-a06c-ed80a904e08d","system_id":"levelo_inurba_marseille","lat":43.28615,"lon":5.35105,"is_reserved":false,"is_disabled":false,"rental_uris":{"android":"levelo://app?vid=d8ee650a-d3a8-4135-a06c-ed80a904e08d","ios":"levelo://app?vid=d8ee650a-d3a8-4135-a06c-ed80a904e08d"},"vehicle_type_id":"4","last_reported":1730031317,"current_range_meters":27200,"station_id":"ce4bhch2rcd13ifvqeug","pricing_plan_id":"cebpf4jnsgd1na2vs0mg"},{"bike_id":"6204e96c-d490-4fdc-bb6c-0ef871fb6e64","system_id":"levelo_inurba_marseille","lat":43.29853,"lon":5.3629,"is_reserved":false,"is_disabled":false,"rental_uris":{"android":"levelo://app?vid=6204e96c-d490-4fdc-bb6c-0ef871fb6e64","ios":"levelo://app?vid=6204e96c-d490-4fdc-bb6c-0ef871fb6e64"},"vehicle_type_id":"4","last_reported":1730031317,"current_range_meters":37600,"station_id":"ce4bgpp2rcd13ifvqc3g","pricing_plan_id":"cebpf4jnsgd1na2vs0mg"},{"bike_id":"132b2b43-1a72-4a40-8fd2-2ba4c1f0e49a","system_id":"levelo_inurba_marseille","lat":43.30534,"lon":5.36553,"is_reserved":false,"is_disabled":false,"rental_uris":{"android":"levelo://app?vid=132b2b43-1a72-4a40-8fd2-2ba4c1f0e49a","ios":"levelo://app?vid=132b2b43-1a72-4a40-8fd2-2ba4c1f0e49a"},"vehicle_type_id":"4","last_reported":1730031317,"current_range_meters":36800,"station_id":"ce4bgs12rcd13ifvqcag","pricing_plan_id":"cebpf4jnsgd1na2vs0mg"},{"bike_id":"9845a481-28a2-455b-82da-9a74fc1c7c0a","system_id":"levelo_inurba_marseille","lat":43.301856,"lon":5.366089,"is_reserved":false,"is_disabled":false,"rental_uris":{"android":"levelo://app?vid=9845a481-28a2-455b-82da-9a74fc1c7c0a","ios":"levelo://app?vid=9845a481-28a2-455b-82da-9a74fc1c7c0a"},"vehicle_type_id":"4","last_reported":1730031317,"current_range_meters":33600,"station_id":"ce4bgrh2rcd13ifvqc8g","pricing_plan_id":"cebpf4jnsgd1na2vs0mg"},{"bike_id":"86399b09-533a-4ed5-b292-0f2cc01123cd","system_id":"levelo_inurba_marseille","lat":43.29005,"lon":5.35609,"is_reserved":false,"is_disabled":false,"rental_uris":{"android":"levelo://app?vid=86399b09-533a-4ed5-b292-0f2cc01123cd","ios":"levelo://app?vid=86399b09-533a-4ed5-b292-0f2cc01123cd"},"vehicle_type_id":"4","last_reported":1730031317,"current_range_meters":33200,"station_id":"ce4bhb92rcd13ifvqen0","pricing_plan_id":"cebpf4jnsgd1na2vs0mg"},{"bike_id":"9d8a8e85-1dcf-449a-9dd2-898e6f1c7b5d","system_id":"levelo_inurba_marseille","lat":43.29178,"lon":5.40724,"is_reserved":false,"is_disabled":false,"rental_uris":{"android":"levelo://app?vid=9d8a8e85-1dcf-449a-9dd2-898e6f1c7b5d","ios":"levelo://app?vid=9d8a8e85-1dcf-449a-9dd2-898e6f1c7b5d"},"vehicle_type_id":"4","last_reported":1730031317,"current_range_meters":33200,"station_id":"ce4bhnh2rcd13ifvqgug","pricing_plan_id":"cebpf4jnsgd1na2vs0mg"},{"bike_id":"2460a2b2-5b60-45e0-951f-4988396cb5d8","system_id":"levelo_inurba_marseille","lat":43.26196,"lon":5.37918,"is_reserved":false,"is_disabled":false,"rental_uris":{"android":"levelo://app?vid=2460a2b2-5b60-45e0-951f-4988396cb5d8","ios":"levelo://app?vid=2460a2b2-5b60-45e0-951f-4988396cb5d8"},"vehicle_type_id":"4","last_reported":1730031317,"current_range_meters":38800,"station_id":"ce4bhjp2rcd13ifvqg90","pricing_plan_id":"cebpf4jnsgd1na2vs0mg"},{"bike_id":"4f40e012-ea5b-4575-9527-1f943967bef1","system_id":"levelo_inurba_marseille","lat":43.23969,"lon":5.36633,"is_reserved":false,"is_disabled":false,"rental_uris":{"android":"levelo://app?vid=4f40e012-ea5b-4575-9527-1f943967bef1","ios":"levelo://app?vid=4f40e012-ea5b-4575-9527-1f943967bef1"},"vehicle_type_id":"4","last_reported":1730031317,"current_range_meters":16800,"station_id":"ce4bhi12rcd13ifvqfp0","pricing_plan_id":"cebpf4jnsgd1na2vs0mg"},{"bike_id":"4d18fdf7-40fd-43b3-89ca-7d0f38bd83c5","system_id":"levelo_inurba_marseille","lat":43.32484,"lon":5.36546,"is_reserved":false,"is_disabled":false,"rental_uris":{"android":"levelo://app?vid=4d18fdf7-40fd-43b3-89ca-7d0f38bd83c5","ios":"levelo://app?vid=4d18fdf7-40fd-43b3-89ca-7d0f38bd83c5"},"vehicle_type_id":"4","last_reported":1730031317,"current_range_meters":22800,"station_id":"ce4bhs12rcd13ifvqhvg","pricing_plan_id":"cebpf4jnsgd1na2vs0mg"},{"bike_id":"ec544e73-f03c-418a-b19e-58778fa8a67d","system_id":"levelo_inurba_marseille","lat":43.23189,"lon":5.35548,"is_reserved":false,"is_disabled":false,"rental_uris":{"android":"levelo://app?vid=ec544e73-f03c-418a-b19e-58778fa8a67d","ios":"levelo://app?vid=ec544e73-f03c-418a-b19e-58778fa8a67d"},"vehicle_type_id":"4","last_reported":1730031317,"current_range_meters":38800,"station_id":"ce4bhu92rcd13ifvqi70","pricing_plan_id":"cebpf4jnsgd1na2vs0mg"},{"bike_id":"0d2dad77-65b4-495d-a554-fbe297a6bfa9","system_id":"levelo_inurba_marseille","lat":43.28938,"lon":5.36633,"is_reserved":false,"is_disabled":false,"rental_uris":{"android":"levelo://app?vid=0d2dad77-65b4-495d-a554-fbe297a6bfa9","ios":"levelo://app?vid=0d2dad77-65b4-495d-a554-fbe297a6bfa9"},"vehicle_type_id":"4","last_reported":1730031317,"current_range_meters":30400,"station_id":"ce4bhap2rcd13ifvqek0","pricing_plan_id":"cebpf4jnsgd1na2vs0mg"},{"bike_id":"16e9674d-5ef2-4f16-80d0-7e03195162b0","system_id":"levelo_inurba_marseille","lat":43.25088,"lon":5.39524,"is_reserved":false,"is_disabled":false,"rental_uris":{"android":"levelo://app?vid=16e9674d-5ef2-4f16-80d0-7e03195162b0","ios":"levelo://app?vid=16e9674d-5ef2-4f16-80d0-7e03195162b0"},"vehicle_type_id":"4","last_reported":1730031317,"current_range_meters":31200,"station_id":"ce4bhm12rcd13ifvqgkg","pricing_plan_id":"cebpf4jnsgd1na2vs0mg"},{"bike_id":"4fce8218-6bfc-440b-b108-5cf1b5e5e58a","system_id":"levelo_inurba_marseille","lat":43.23192,"lon":5.35552,"is_reserved":false,"is_disabled":false,"rental_uris":{"android":"levelo://app?vid=4fce8218-6bfc-440b-b108-5cf1b5e5e58a","ios":"levelo://app?vid=4fce8218-6bfc-440b-b108-5cf1b5e5e58a"},"vehicle_type_id":"4","last_reported":1730031317,"current_range_meters":38800,"station_id":"ce4bhu92rcd13ifvqi70","pricing_plan_id":"cebpf4jnsgd1na2vs0mg"},{"bike_id":"e2082c5c-9f16-465d-a177-6cb759129b32","system_id":"levelo_inurba_marseille","lat":43.30143,"lon":5.37422,"is_reserved":false,"is_disabled":false,"rental_uris":{"android":"levelo://app?vid=e2082c5c-9f16-465d-a177-6cb759129b32","ios":"levelo://app?vid=e2082c5c-9f16-465d-a177-6cb759129b32"},"vehicle_type_id":"4","last_reported":1730031317,"current_range_meters":38000,"station_id":"ce4bgs92rcd13ifvqcc0","pricing_plan_id":"cebpf4jnsgd1na2vs0mg"},{"bike_id":"6b10aa57-a20f-4a52-8be5-7f69bd4f0e4a","system_id":"levelo_inurba_marseille","lat":43.24647,"lon":5.38887,"is_reserved":false,"is_disabled":false,"rental_uris":{"android":"levelo://app?vid=6b10aa57-a20f-4a52-8be5-7f69bd4f0e4a","ios":"levelo://app?vid=6b10aa57-a20f-4a52-8be5-7f69bd4f0e4a"},"vehicle_type_id":"4","last_reported":1730031317,"current_range_meters":36400,"station_id":"ce4bhg12rcd13ifvqf60","pricing_plan_id":"cebpf4jnsgd1na2vs0mg"},{"bike_id":"4ce3e7c6-b889-4a5c-a91b-dfdfae01dedf","system_id":"levelo_inurba_marseille","lat":43.29867,"lon":5.3972,"is_reserved":false,"is_disabled":false,"rental_uris":{"android":"levelo://app?vid=4ce3e7c6-b889-4a5c-a91b-dfdfae01dedf","ios":"levelo://app?vid=4ce3e7c6-b889-4a5c-a91b-dfdfae01dedf"},"vehicle_type_id":"4","last_reported":1730031317,"current_range_meters":38000,"station_id":"ce4bh0h2rcd13ifvqd50","pricing_plan_id":"cebpf4jnsgd1na2vs0mg"},{"bike_id":"28d93dbd-e41b-452e-b7b6-f59358ab2e68","system_id":"levelo_inurba_marseille","lat":43.23179,"lon":5.39986,"is_reserved":false,"is_disabled":false,"rental_uris":{"android":"levelo://app?vid=28d93dbd-e41b-452e-b7b6-f59358ab2e68","ios":"levelo://app?vid=28d93dbd-e41b-452e-b7b6-f59358ab2e68"},"vehicle_type_id":"4","last_reported":1730031317,"current_range_meters":10000,"station_id":"ce4bhn12rcd13ifvqgqg","pricing_plan_id":"cebpf4jnsgd1na2vs0mg"},{"bike_id":"3119b666-b043-466d-b44b-94fc7abaa02b","system_id":"levelo_inurba_marseille","lat":43.30137,"lon":5.37418,"is_reserved":false,"is_disabled":false,"rental_uris":{"android":"levelo://app?vid=3119b666-b043-466d-b44b-94fc7abaa02b","ios":"levelo://app?vid=3119b666-b043-466d-b44b-94fc7abaa02b"},"vehicle_type_id":"4","last_reported":1730031317,"current_range_meters":23200,"station_id":"ce4bgs92rcd13ifvqcc0","pricing_plan_id":"cebpf4jnsgd1na2vs0mg"},{"bike_id":"a64c9bae-96b6-4749-b19c-ac41d1700858","system_id":"levelo_inurba_marseille","lat":43.27491,"lon":5.42466,"is_reserved":false,"is_disabled":false,"rental_uris":{"android":"levelo://app?vid=a64c9bae-96b6-4749-b19c-ac41d1700858","ios":"levelo://app?vid=a64c9bae-96b6-4749-b19c-ac41d1700858"},"vehicle_type_id":"4","last_reported":1730031317,"current_range_meters":29600,"station_id":"ce4bhn92rcd13ifvqgrg","pricing_plan_id":"cebpf4jnsgd1na2vs0mg"},{"bike_id":"9d059d25-ad8d-44c5-bbe1-bb7829c10bf2","system_id":"levelo_inurba_marseille","lat":43.29843,"lon":5.36268,"is_reserved":false,"is_disabled":false,"rental_uris":{"android":"levelo://app?vid=9d059d25-ad8d-44c5-bbe1-bb7829c10bf2","ios":"levelo://app?vid=9d059d25-ad8d-44c5-bbe1-bb7829c10bf2"},"vehicle_type_id":"4","last_reported":1730031317,"current_range_meters":32000,"station_id":"ce4bgpp2rcd13ifvqc3g","pricing_plan_id":"cebpf4jnsgd1na2vs0mg"},{"bike_id":"0dff1091-0489-44d6-83cb-b06c22606e9a","system_id":"levelo_inurba_marseille","lat":43.23065,"lon":5.355,"is_reserved":false,"is_disabled":false,"rental_uris":{"android":"levelo://app?vid=0dff1091-0489-44d6-83cb-b06c22606e9a","ios":"levelo://app?vid=0dff1091-0489-44d6-83cb-b06c22606e9a"},"vehicle_type_id":"4","last_reported":1730031317,"current_range_meters":20000,"station_id":"cpo3342slgdg3j2ifvpg","pricing_plan_id":"cebpf4jnsgd1na2vs0mg"},{"bike_id":"a637ddb5-b9e8-4510-912c-1884ad257272","system_id":"levelo_inurba_marseille","lat":43.26806,"lon":5.40264,"is_reserved":false,"is_disabled":false,"rental_uris":{"android":"levelo://app?vid=a637ddb5-b9e8-4510-912c-1884ad257272","ios":"levelo://app?vid=a637ddb5-b9e8-4510-912c-1884ad257272"},"vehicle_type_id":"4","last_reported":1730031317,"current_range_meters":34800,"station_id":"ce501612rcd8frsf0b60","pricing_plan_id":"cebpf4jnsgd1na2vs0mg"},{"bike_id":"85ac3782-a481-4c19-82eb-99e53814c534","system_id":"levelo_inurba_marseille","lat":43.29961,"lon":5.41314,"is_reserved":false,"is_disabled":false,"rental_uris":{"android":"levelo://app?vid=85ac3782-a481-4c19-82eb-99e53814c534","ios":"levelo://app?vid=85ac3782-a481-4c19-82eb-99e53814c534"},"vehicle_type_id":"4","last_reported":1730031317,"current_range_meters":36400,"station_id":"ce4bhp12rcd13ifvqh9g","pricing_plan_id":"cebpf4jnsgd1na2vs0mg"},{"bike_id":"88c2f752-1379-480f-b126-8d3cf00219e6","system_id":"levelo_inurba_marseille","lat":43.29584,"lon":5.36746,"is_reserved":false,"is_disabled":false,"rental_uris":{"android":"levelo://app?vid=88c2f752-1379-480f-b126-8d3cf00219e6","ios":"levelo://app?vid=88c2f752-1379-480f-b126-8d3cf00219e6"},"vehicle_type_id":"4","last_reported":1730031317,"current_range_meters":38800,"station_id":"ce4bgph2rcd13ifvqc2g","pricing_plan_id":"cebpf4jnsgd1na2vs0mg"},{"bike_id":"f898b434-78c7-42e2-b315-602e16e13bc8","system_id":"levelo_inurba_marseille","lat":43.299176,"lon":5.385594,"is_reserved":false,"is_disabled":false,"rental_uris":{"android":"levelo://app?vid=f898b434-78c7-42e2-b315-602e16e13bc8","ios":"levelo://app?vid=f898b434-78c7-42e2-b315-602e16e13bc8"},"vehicle_type_id":"4","last_reported":1730031317,"current_range_meters":28000,"station_id":"ce4bgj92rcd13ifvqbd0","pricing_plan_id":"cebpf4jnsgd1na2vs0mg"},{"bike_id":"a9208498-8298-4737-b748-eee37b2a37cb","system_id":"levelo_inurba_marseille","lat":43.24391,"lon":5.37059,"is_reserved":false,"is_disabled":false,"rental_uris":{"android":"levelo://app?vid=a9208498-8298-4737-b748-eee37b2a37cb","ios":"levelo://app?vid=a9208498-8298-4737-b748-eee37b2a37cb"},"vehicle_type_id":"4","last_reported":1730031317,"current_range_meters":32800,"station_id":"ce4bhhh2rcd13ifvqfk0","pricing_plan_id":"cebpf4jnsgd1na2vs0mg"},{"bike_id":"7af0d532-f314-459d-aee5-f126a8ca0f1d","system_id":"levelo_inurba_marseille","lat":43.22932,"lon":5.35372,"is_reserved":false,"is_disabled":false,"rental_uris":{"android":"levelo://app?vid=7af0d532-f314-459d-aee5-f126a8ca0f1d","ios":"levelo://app?vid=7af0d532-f314-459d-aee5-f126a8ca0f1d"},"vehicle_type_id":"4","last_reported":1730031317,"current_range_meters":8000,"station_id":"cpo3532slgdg3j2ikp40","pricing_plan_id":"cebpf4jnsgd1na2vs0mg"},{"bike_id":"7bd94e56-d4c8-4f67-8b04-fabd93b071f3","system_id":"levelo_inurba_marseille","lat":43.24177,"lon":5.39733,"is_reserved":false,"is_disabled":false,"rental_uris":{"android":"levelo://app?vid=7bd94e56-d4c8-4f67-8b04-fabd93b071f3","ios":"levelo://app?vid=7bd94e56-d4c8-4f67-8b04-fabd93b071f3"},"vehicle_type_id":"4","last_reported":1730031317,"current_range_meters":38800,"station_id":"ce4bhn12rcd13ifvqgpg","pricing_plan_id":"cebpf4jnsgd1na2vs0mg"},{"bike_id":"2d830caa-b02f-49b3-ade7-bd7ddef5abda","system_id":"levelo_inurba_marseille","lat":43.27915,"lon":5.40705,"is_reserved":false,"is_disabled":false,"rental_uris":{"android":"levelo://app?vid=2d830caa-b02f-49b3-ade7-bd7ddef5abda","ios":"levelo://app?vid=2d830caa-b02f-49b3-ade7-bd7ddef5abda"},"vehicle_type_id":"4","last_reported":1730031317,"current_range_meters":3600,"station_id":"","pricing_plan_id":"cebpf4jnsgd1na2vs0mg"},{"bike_id":"c059b18a-c78b-49a8-94ee-98d314b4324e","system_id":"levelo_inurba_marseille","lat":43.268027,"lon":5.402623,"is_reserved":false,"is_disabled":false,"rental_uris":{"android":"levelo://app?vid=c059b18a-c78b-49a8-94ee-98d314b4324e","ios":"levelo://app?vid=c059b18a-c78b-49a8-94ee-98d314b4324e"},"vehicle_type_id":"4","last_reported":1730031317,"current_range_meters":22000,"station_id":"ce501612rcd8frsf0b60","pricing_plan_id":"cebpf4jnsgd1na2vs0mg"},{"bike_id":"b41fa1df-0ff5-4311-912d-ce8cc0c4ef8d","system_id":"levelo_inurba_marseille","lat":43.25925,"lon":5.40901,"is_reserved":false,"is_disabled":false,"rental_uris":{"android":"levelo://app?vid=b41fa1df-0ff5-4311-912d-ce8cc0c4ef8d","ios":"levelo://app?vid=b41fa1df-0ff5-4311-912d-ce8cc0c4ef8d"},"vehicle_type_id":"4","last_reported":1730031317,"current_range_meters":38400,"station_id":"ce4bhm92rcd13ifvqglg","pricing_plan_id":"cebpf4jnsgd1na2vs0mg"},{"bike_id":"5f309689-e017-4833-b270-af2713a13570","system_id":"levelo_inurba_marseille","lat":43.28311,"lon":5.35051,"is_reserved":false,"is_disabled":false,"rental_uris":{"android":"levelo://app?vid=5f309689-e017-4833-b270-af2713a13570","ios":"levelo://app?vid=5f309689-e017-4833-b270-af2713a13570"},"vehicle_type_id":"4","last_reported":1730031317,"current_range_meters":37600,"station_id":"ce4bhbp2rcd13ifvqerg","pricing_plan_id":"cebpf4jnsgd1na2vs0mg"},