{"last_updated":1752693048,"ttl":60,"version":"2.2","data":{"bikes":[{"bike_id":"53b742a7-31ae-4272-9bba-7740339e2a2f","system_id":"levelo_inurba_marseille","lat":43.33747,"lon":5.37463,"is_reserved":false,"is_disabled":false,"rental_uris":{"android":"levelo://app?vid=53b742a7-31ae-4272-9bba-7740339e2a2f","ios":"levelo://app?vid=53b742a7-31ae-4272-9bba-7740339e2a2f"},"vehicle_type_id":"1","last_reported":1752693049,"current_range_meters":27600,"station_id":"","pricing_plan_id":"cebpf4jnsgd1na2vs0mg"},{"bike_id":"ddca42be-e0e6-47a8-a2b1-542473986d9c","system_id":"levelo_inurba_marseille","lat":43.277608,"lon":5.40053,"is_reserved":false,"is_disabled":false,"rental_uris":{"android":"levelo://app?vid=ddca42be-e0e6-47a8-a2b1-542473986d9c","ios":"levelo://app?vid=ddca42be-e0e6-47a8-a2b1-542473986d9c"},"vehicle_type_id":"4","last_reported":1752693049,"current_range_meters":2800,"station_id":"ce4bhnh2rcd13ifvqgtg","pricing_plan_id":"cebpf4jnsgd1na2vs0mg"},{"bike_id":"da62ebd2-75ff-45b9-8331-5082331eb1fb","system_id":"levelo_inurba_marseille","lat":43.313007,"lon":5.384867,"is_reserved":false,"is_disabled":false,"rental_uris":{"android":"levelo://app?vid=da62ebd2-75ff-45b9-8331-5082331eb1fb","ios":"levelo://app?vid=da62ebd2-75ff-45b9-8331-5082331eb1fb"},"vehicle_type_id":"4","last_reported":1752693049,"current_range_meters":2800,"station_id":"","pricing_plan_id":"cebpf4jnsgd1na2vs0mg"},{"bike_id":"0517f226-9c35-473e-b2c6-52179b326362","system_id":"levelo_inurba_marseille","lat":43.282639,"lon":5.350543,"is_reserved":false,"is_disabled":false,"rental_uris":{"android":"levelo://app?vid=0517f226-9c35-473e-b2c6-52179b326362","ios":"levelo://app?vid=0517f226-9c35-473e-b2c6-52179b326362"},"vehicle_type_id":"4","last_reported":1752693049,"current_range_meters":2800,"station_id":"","pricing_plan_id":"cebpf4jnsgd1na2vs0mg"},{"bike_id":"ce44358e-afa4-4b9c-8de3-b08684351f76","system_id":"levelo_inurba_marseille","lat":43.27939,"lon":5.41071,"is_reserved":false,"is_disabled":true,"rental_uris":{"android":"levelo://app?vid=ce44358e-afa4-4b9c-8de3-b08684351f76","ios":"levelo://app?vid=ce44358e-afa4-4b9c-8de3-b08684351f76"},"vehicle_type_id":"4","last_reported":1752693049,"current_range_meters":2800,"station_id":"ce4bhnp2rcd13ifvqh0g","pricing_plan_id":"cebpf4jnsgd1na2vs0mg"},{"bike_id":"6368de16-d144-4f73-833e-ca19d2aeee12","system_id":"levelo_inurba_marseille","lat":43.22531,"lon":5.34767,"is_reserved":false,"is_disabled":false,"rental_uris":{"android":"levelo://app?vid=6368de16-d144-4f73-833e-ca19d2aeee12","ios":"levelo://app?vid=6368de16-d144-4f73-833e-ca19d2aeee12"},"vehicle_type_id":"4","last_reported":1752693049,"current_range_meters":2800,"station_id":"st_cvj5dfep6f1abm77gieg","pricing_plan_id":"cebpf4jnsgd1na2vs0mg"},{"bike_id":"1ee19f79-d7f7-44cf-9385-f9958580de39","system_id":"levelo_inurba_marseille","lat":43.33605,"lon":5.41029,"is_reserved":false,"is_disabled":false,"rental_uris":{"android":"levelo://app?vid=1ee19f79-d7f7-44cf-9385-f9958580de39","ios":"levelo://app?vid=1ee19f79-d7f7-44cf-9385-f9958580de39"},"vehicle_type_id":"4","last_reported":1752693049,"current_range_meters":3200,"station_id":"ce4bhqh2rcd13ifvqhmg","pricing_plan_id":"cebpf4jnsgd1na2vs0mg"},{"bike_id":"c6cabbe0-f347-44d0-b058-1ab918ff9200","system_id":"levelo_inurba_marseille","lat":43.217525,"lon":5.346018,"is_reserved":false,"is_disabled":false,"rental_uris":{"android":"levelo://app?vid=c6cabbe0-f347-44d0-b058-1ab918ff9200","ios":"levelo://app?vid=c6cabbe0-f347-44d0-b058-1ab918ff9200"},"vehicle_type_id":"4","last_reported":1752693049,"current_range_meters":3200,"station_id":"","pricing_plan_id":"cebpf4jnsgd1na2vs0mg"},{"bike_id":"e23e2ec5-72cd-4d25-8428-8c0ad4a4bd36","system_id":"levelo_inurba_marseille","lat":43.28152,"lon":5.42646,"is_reserved":false,"is_disabled":false,"rental_uris":{"android":"levelo://app?vid=e23e2ec5-72cd-4d25-8428-8c0ad4a4bd36","ios":"levelo://app?vid=e23e2ec5-72cd-4d25-8428-8c0ad4a4bd36"},"vehicle_type_id":"4","last_reported":1752693049,"current_range_meters":3200,"station_id":"ce4bhnh2rcd13ifvqgug","pricing_plan_id":"cebpf4jnsgd1na2vs0mg"},{"bike_id":"9e6de0e6-b8a1-4dd9-85a3-a9c23667145e","system_id":"levelo_inurba_marseille","lat":43.295264,"lon":5.385451,"is_reserved":false,"is_disabled":false,"rental_uris":{"android":"levelo://app?vid=9e6de0e6-b8a1-4dd9-85a3-a9c23667145e","ios":"levelo://app?vid=9e6de0e6-b8a1-4dd9-85a3-a9c23667145e"},"vehicle_type_id":"4","last_reported":1752693049,"current_range_meters":3200,"station_id":"ce4bgih2rcd13ifvqba0","pricing_plan_id":"cebpf4jnsgd1na2vs0mg"},{"bike_id":"25dc8139-7be2-4e96-86b7-1011178ce3e8","system_id":"levelo_inurba_marseille","lat":43.294332,"lon":5.396682,"is_reserved":false,"is_disabled":false,"rental_uris":{"android":"levelo://app?vid=25dc8139-7be2-4e96-86b7-1011178ce3e8","ios":"levelo://app?vid=25dc8139-7be2-4e96-86b7-1011178ce3e8"},"vehicle_type_id":"4","last_reported":1752693049,"current_range_meters":3200,"station_id":"ce4bgm92rcd13ifvqbr0","pricing_plan_id":"cebpf4jnsgd1na2vs0mg"},{"bike_id":"c133bdfa-9198-4fd5-9186-7e97b1fb7648","system_id":"levelo_inurba_marseille","lat":43.299652,"lon":5.384917,"is_reserved":false,"is_disabled":false,"rental_uris":{"android":"levelo://app?vid=c133bdfa-9198-4fd5-9186-7e97b1fb7648","ios":"levelo://app?vid=c133bdfa-9198-4fd5-9186-7e97b1fb7648"},"vehicle_type_id":"4","last_reported":1752693049,"current_range_meters":3200,"station_id":"ce4bgj92rcd13ifvqbd0","pricing_plan_id":"cebpf4jnsgd1na2vs0mg"},{"bike_id":"5346ac48-925d-4b0f-ab1b-9763518b58ed","system_id":"levelo_inurba_marseille","lat":43.27054,"lon":5.40259,"is_reserved":false,"is_disabled":false,"rental_uris":{"android":"levelo://app?vid=5346ac48-925d-4b0f-ab1b-9763518b58ed","ios":"levelo://app?vid=5346ac48-925d-4b0f-ab1b-9763518b58ed"},"vehicle_type_id":"4","last_reported":1752693049,"current_range_meters":3600,"station_id":"ce4bhk92rcd13ifvqgc0","pricing_plan_id":"cebpf4jnsgd1na2vs0mg"},{"bike_id":"ac8d43c4-acec-4821-bc54-044f516dc789","system_id":"levelo_inurba_marseille","lat":43.229255,"lon":5.353466,"is_reserved":false,"is_disabled":false,"rental_uris":{"android":"levelo://app?vid=ac8d43c4-acec-4821-bc54-044f516dc789","ios":"levelo://app?vid=ac8d43c4-acec-4821-bc54-044f516dc789"},"vehicle_type_id":"4","last_reported":1752693049,"current_range_meters":3600,"station_id":"cpo3532slgdg3j2ikp40","pricing_plan_id":"cebpf4jnsgd1na2vs0mg"},{"bike_id":"087763ea-286c-4179-843a-f9866e8a2d2f","system_id":"levelo_inurba_marseille","lat":43.279616,"lon":5.410839,"is_reserved":false,"is_disabled":false,"rental_uris":{"android":"levelo://app?vid=087763ea-286c-4179-843a-f9866e8a2d2f","ios":"levelo://app?vid=087763ea-286c-4179-843a-f9866e8a2d2f"},"vehicle_type_id":"4","last_reported":1752693049,"current_range_meters":4000,"station_id":"ce4bhnp2rcd13ifvqh0g","pricing_plan_id":"cebpf4jnsgd1na2vs0mg"},{"bike_id":"5ad69396-e92b-4193-a439-3f8b088fa007","system_id":"levelo_inurba_marseille","lat":43.289825,"lon":5.366696,"is_reserved":false,"is_disabled":false,"rental_uris":{"android":"levelo://app?vid=5ad69396-e92b-4193-a439-3f8b088fa007","ios":"levelo://app?vid=5ad69396-e92b-4193-a439-3f8b088fa007"},"vehicle_type_id":"4","last_reported":1752693049,"current_range_meters":4400,"station_id":"ce4bhap2rcd13ifvqek0","pricing_plan_id":"cebpf4jnsgd1na2vs0mg"},{"bike_id":"d38fcd45-9c10-4837-87ce-0c7b72020e7b","system_id":"levelo_inurba_marseille","lat":43.26805,"lon":5.40269,"is_reserved":false,"is_disabled":false,"rental_uris":{"android":"levelo://app?vid=d38fcd45-9c10-4837-87ce-0c7b72020e7b","ios":"levelo://app?vid=d38fcd45-9c10-4837-87ce-0c7b72020e7b"},"vehicle_type_id":"4","last_reported":1752693049,"current_range_meters":4800,"station_id":"ce501612rcd8frsf0b60","pricing_plan_id":"cebpf4jnsgd1na2vs0mg"},{"bike_id":"37d6cf8b-ff71-4623-ad2e-6b4c6fc28c73","system_id":"levelo_inurba_marseille","lat":43.2861,"lon":5.3706,"is_reserved":false,"is_disabled":false,"rental_uris":{"android":"levelo://app?vid=37d6cf8b-ff71-4623-ad2e-6b4c6fc28c73","ios":"levelo://app?vid=37d6cf8b-ff71-4623-ad2e-6b4c6fc28c73"},"vehicle_type_id":"4","last_reported":1752693049,"current_range_meters":4800,"station_id":"","pricing_plan_id":"cebpf4jnsgd1na2vs0mg"},{"bike_id":"cb98f2d1-9294-40aa-8451-6bcf39af84aa","system_id":"levelo_inurba_marseille","lat":43.26198,"lon":5.37492,"is_reserved":false,"is_disabled":true,"rental_uris":{"android":"levelo://app?vid=cb98f2d1-9294-40aa-8451-6bcf39af84aa","ios":"levelo://app?vid=cb98f2d1-9294-40aa-8451-6bcf39af84aa"},"vehicle_type_id":"4","last_reported":1752693049,"current_range_meters":4800,"station_id":"ce4bhgp2rcd13ifvqfc0","pricing_plan_id":"cebpf4jnsgd1na2vs0mg"},{"bike_id":"892165f6-25a5-4f0a-a9a6-cf4efe50c3be","system_id":"levelo_inurba_marseille","lat":43.248461,"lon":5.425297,"is_reserved":false,"is_disabled":false,"rental_uris":{"android":"levelo://app?vid=892165f6-25a5-4f0a-a9a6-cf4efe50c3be","ios":"levelo://app?vid=892165f6-25a5-4f0a-a9a6-cf4efe50c3be"},"vehicle_type_id":"4","last_reported":1752693049,"current_range_meters":5600,"station_id":"","pricing_plan_id":"cebpf4jnsgd1na2vs0mg"},{"bike_id":"1ba49663-8395-4105-8277-99c88dd0b83a","system_id":"levelo_inurba_marseille","lat":43.29582,"lon":5.36746,"is_reserved":false,"is_disabled":false,"rental_uris":{"android":"levelo://app?vid=1ba49663-8395-4105-8277-99c88dd0b83a","ios":"levelo://app?vid=1ba49663-8395-4105-8277-99c88dd0b83a"},"vehicle_type_id":"4","last_reported":1752693049,"current_range_meters":5600,"station_id":"ce4bgph2rcd13ifvqc2g","pricing_plan_id":"cebpf4jnsgd1na2vs0mg"},{"bike_id":"5087101d-1bb4-4a72-905e-7cfe39a5f524","system_id":"levelo_inurba_marseille","lat":43.28465,"lon":5.35894,"is_reserved":false,"is_disabled":false,"rental_uris":{"android":"levelo://app?vid=5087101d-1bb4-4a72-905e-7cfe39a5f524","ios":"levelo://app?vid=5087101d-1bb4-4a72-905e-7cfe39a5f524"},"vehicle_type_id":"4","last_reported":1752693049,"current_range_meters":5600,"station_id":"ce4bhah2rcd13ifvqei0","pricing_plan_id":"cebpf4jnsgd1na2vs0mg"},{"bike_id":"84dce584-3ddd-4b40-a236-d45995825597","system_id":"levelo_inurba_marseille","lat":43.29594,"lon":5.36743,"is_reserved":false,"is_disabled":false,"rental_uris":{"android":"levelo://app?vid=84dce584-3ddd-4b40-a236-d45995825597","ios":"levelo://app?vid=84dce584-3ddd-4b40-a236-d45995825597"},"vehicle_type_id":"4","last_reported":1752693049,"current_range_meters":6000,"station_id":"ce4bgph2rcd13ifvqc2g","pricing_plan_id":"cebpf4jnsgd1na2vs0mg"},{"bike_id":"5ff06d2e-1fcb-4f7f-b26f-494ef01051e2","system_id":"levelo_inurba_marseille","lat":43.26587,"lon":5.39483,"is_reserved":false,"is_disabled":true,"rental_uris":{"android":"levelo://app?vid=5ff06d2e-1fcb-4f7f-b26f-494ef01051e2","ios":"levelo://app?vid=5ff06d2e-1fcb-4f7f-b26f-494ef01051e2"},"vehicle_type_id":"4","last_reported":1752693049,"current_range_meters":6000,"station_id":"","pricing_plan_id":"cebpf4jnsgd1na2vs0mg"},{"bike_id":"340fb662-288a-4f60-80b7-d9094f7b9896","system_id":"levelo_inurba_marseille","lat":43.290893,"lon":5.381091,"is_reserved":false,"is_disabled":false,"rental_uris":{"android":"levelo://app?vid=340fb662-288a-4f60-80b7-d9094f7b9896","ios":"levelo://app?vid=340fb662-288a-4f60-80b7-d9094f7b9896"},"vehicle_type_id":"4","last_reported":1752693049,"current_range_meters":6000,"station_id":"ce4bgl12rcd13ifvqbo0","pricing_plan_id":"cebpf4jnsgd1na2vs0mg"},{"bike_id":"e376f1a3-8da4-40c9-8c40-892c653b8a68","system_id":"levelo_inurba_marseille","lat":43.28,"lon":5.40011,"is_reserved":false,"is_disabled":false,"rental_uris":{"android":"levelo://app?vid=e376f1a3-8da4-40c9-8c40-892c653b8a68","ios":"levelo://app?vid=e376f1a3-8da4-40c9-8c40-892c653b8a68"},"vehicle_type_id":"4","last_reported":1752693049,"current_range_meters":6000,"station_id":"ce4bho92rcd13ifvqh4g","pricing_plan_id":"cebpf4jnsgd1na2vs0mg"},{"bike_id":"37c075b6-f064-41a5-9348-c0c512adf503","system_id":"levelo_inurba_marseille","lat":43.29843,"lon":5.36275,"is_reserved":false,"is_disabled":false,"rental_uris":{"android":"levelo://app?vid=37c075b6-f064-41a5-9348-c0c512adf503","ios":"levelo://app?vid=37c075b6-f064-41a5-9348-c0c512adf503"},"vehicle_type_id":"4","last_reported":1752693049,"current_range_meters":6000,"station_id":"ce4bgpp2rcd13ifvqc3g","pricing_plan_id":"cebpf4jnsgd1na2vs0mg"},{"bike_id":"e2f2f893-16c7-42e5-8c51-893940a1136e","system_id":"levelo_inurba_marseille","lat":43.30117,"lon":5.36838,"is_reserved":false,"is_disabled":false,"rental_uris":{"android":"levelo://app?vid=e2f2f893-16c7-42e5-8c51-893940a1136e","ios":"levelo://app?vid=e2f2f893-16c7-42e5-8c51-893940a1136e"},"vehicle_type_id":"4","last_reported":1752693049,"current_range_meters":6400,"station_id":"","pricing_plan_id":"cebpf4jnsgd1na2vs0mg"},{"bike_id":"20bc2867-c3dd-49a8-a224-525f1f32ef96","system_id":"levelo_inurba_marseille","lat":43.32357,"lon":5.36757,"is_reserved":false,"is_disabled":false,"rental_uris":{"android":"levelo://app?vid=20bc2867-c3dd-49a8-a224-525f1f32ef96","ios":"levelo://app?vid=20bc2867-c3dd-49a8-a224-525f1f32ef96"},"vehicle_type_id":"4","last_reported":1752693049,"current_range_meters":6400,"station_id":"ce4bhsh2rcd13ifvqi2g","pricing_plan_id":"cebpf4jnsgd1na2vs0mg"},{"bike_id":"bbc369ab-b664-4925-96a4-183dcb6dba0d","system_id":"levelo_inurba_marseille","lat":43.309701,"lon":5.369646,"is_reserved":false,"is_disabled":false,"rental_uris":{"android":"levelo://app?vid=bbc369ab-b664-4925-96a4-183dcb6dba0d","ios":"levelo://app?vid=bbc369ab-b664-4925-96a4-183dcb6dba0d"},"vehicle_type_id":"4","last_reported":1752693049,"current_range_meters":6400,"station_id":"ce4bgn92rcd13ifvqbvg","pricing_plan_id":"cebpf4jnsgd1na2vs0mg"},{"bike_id":"f0fe88d2-5a85-4e0c-8a47-51a1a7340dad","system_id":"levelo_inurba_marseille","lat":43.30418,"lon":5.41297,"is_reserved":false,"is_disabled":false,"rental_uris":{"android":"levelo://app?vid=f0fe88d2-5a85-4e0c-8a47-51a1a7340dad","ios":"levelo://app?vid=f0fe88d2-5a85-4e0c-8a47-51a1a7340dad"},"vehicle_type_id":"4","last_reported":1752693049,"current_range_meters":6400,"station_id":"ce4bhop2rcd13ifvqh8g","pricing_plan_id":"cebpf4jnsgd1na2vs0mg"},{"bike_id":"435a9a56-6e1e-4cc2-b021-71255d417143","system_id":"levelo_inurba_marseille","lat":43.29584,"lon":5.36728,"is_reserved":false,"is_disabled":false,"rental_uris":{"android":"levelo://app?vid=435a9a56-6e1e-4cc2-b021-71255d417143","ios":"levelo://app?vid=435a9a56-6e1e-4cc2-b021-71255d417143"},"vehicle_type_id":"4","last_reported":1752693049,"current_range_meters":6400,"station_id":"ce4bgph2rcd13ifvqc2g","pricing_plan_id":"cebpf4jnsgd1na2vs0mg"},{"bike_id":"fc511652-3103-4d0c-a5bd-df5755920129","system_id":"levelo_inurba_marseille","lat":43.29852,"lon":5.3627,"is_reserved":false,"is_disabled":false,"rental_uris":{"android":"levelo://app?vid=fc511652-3103-4d0c-a5bd-df5755920129","ios":"levelo://app?vid=fc511652-3103-4d0c-a5bd-df5755920129"},"vehicle_type_id":"4","last_reported":1752693049,"current_range_meters":6800,"station_id":"ce4bgpp2rcd13ifvqc3g","pricing_plan_id":"cebpf4jnsgd1na2vs0mg"},{"bike_id":"a8ce6efe-50ae-4699-a953-570b09452efb","system_id":"levelo_inurba_marseille","lat":43.25012,"lon":5.38902,"is_reserved":false,"is_disabled":true,"rental_uris":{"android":"levelo://app?vid=a8ce6efe-50ae-4699-a953-570b09452efb","ios":"levelo://app?vid=a8ce6efe-50ae-4699-a953-570b09452efb"},"vehicle_type_id":"4","last_reported":1752693049,"current_range_meters":6800,"station_id":"ce4bhgp2rcd13ifvqfd0","pricing_plan_id":"cebpf4jnsgd1na2vs0mg"},{"bike_id":"3859f018-7b5f-469a-871e-d6832dcfaf8e","system_id":"levelo_inurba_marseille","lat":43.24806,"lon":5.3745,"is_reserved":false,"is_disabled":true,"rental_uris":{"android":"levelo://app?vid=3859f018-7b5f-469a-871e-d6832dcfaf8e","ios":"levelo://app?vid=3859f018-7b5f-469a-871e-d6832dcfaf8e"},"vehicle_type_id":"4","last_reported":1752693049,"current_range_meters":7200,"station_id":"ce4bhgh2rcd13ifvqfb0","pricing_plan_id":"cebpf4jnsgd1na2vs0mg"},{"bike_id":"e5ec4b25-dbcc-42eb-bf86-2cca309a0b15","system_id":"levelo_inurba_marseille","lat":43.264945,"lon":5.395365,"is_reserved":false,"is_disabled":true,"rental_uris":{"android":"levelo://app?vid=e5ec4b25-dbcc-42eb-bf86-2cca309a0b15","ios":"levelo://app?vid=e5ec4b25-dbcc-42eb-bf86-2cca309a0b15"},"vehicle_type_id":"4","last_reported":1752693049,"current_range_meters":7200,"station_id":"","pricing_plan_id":"cebpf4jnsgd1na2vs0mg"},{"bike_id":"2c6e34ec-e4ad-4b55-908f-732bdcecdb2f","system_id":"levelo_inurba_marseille","lat":43.21193,"lon":5.35062,"is_reserved":false,"is_disabled":false,"rental_uris":{"android":"levelo://app?vid=2c6e34ec-e4ad-4b55-908f-732bdcecdb2f","ios":"levelo://app?vid=2c6e34ec-e4ad-4b55-908f-732bdcecdb2f"},"vehicle_type_id":"4","last_reported":1752693049,"current_range_meters":8000,"station_id":"st_cvj6sg6p6f1abm77japg","pricing_plan_id":"cebpf4jnsgd1na2vs0mg"},{"bike_id":"a0c4810f-e56f-4b43-ba4e-0f62d74e40d6","system_id":"levelo_inurba_marseille","lat":43.28483,"lon":5.38442,"is_reserved":false,"is_disabled":false,"rental_uris":{"android":"levelo://app?vid=a0c4810f-e56f-4b43-ba4e-0f62d74e40d6","ios":"levelo://app?vid=a0c4810f-e56f-4b43-ba4e-0f62d74e40d6"},"vehicle_type_id":"4","last_reported":1752693049,"current_range_meters":8000,"station_id":"ce4bh512rcd13ifvqe3g","pricing_plan_id":"cebpf4jnsgd1na2vs0mg"},{"bike_id":"aa2bcbf0-0cdb-4b8f-9ddc-01f3b23d402e","system_id":"levelo_inurba_marseille","lat":43.29007,"lon":5.35615,"is_reserved":false,"is_disabled":false,"rental_uris":{"android":"levelo://app?vid=aa2bcbf0-0cdb-4b8f-9ddc-01f3b23d402e","ios":"levelo://app?vid=aa2bcbf0-0cdb-4b8f-9ddc-01f3b23d402e"},"vehicle_type_id":"4","last_reported":1752693049,"current_range_meters":8000,"station_id":"ce4bhb92rcd13ifvqen0","pricing_plan_id":"cebpf4jnsgd1na2vs0mg"},{"bike_id":"f4091af9-3620-4810-8b47-da40c80e097a","system_id":"levelo_inurba_marseille","lat":43.28614,"lon":5.35099,"is_reserved":false,"is_disabled":false,"rental_uris":{"android":"levelo://app?vid=f4091af9-3620-4810-8b47-da40c80e097a","ios":"levelo://app?vid=f4091af9-3620-4810-8b47-da40c80e097a"},"vehicle_type_id":"4","last_reported":1752693049,"current_range_meters":8000,"station_id":"ce4bhch2rcd13ifvqeug","pricing_plan_id":"cebpf4jnsgd1na2vs0mg"},{"bike_id":"441e9e61-4763-4935-a23d-424cece9c168","system_id":"levelo_inurba_marseille","lat":43.29917,"lon":5.37493,"is_reserved":false,"is_disabled":false,"rental_uris":{"android":"levelo://app?vid=441e9e61-4763-4935-a23d-424cece9c168","ios":"levelo://app?vid=441e9e61-4763-4935-a23d-424cece9c168"},"vehicle_type_id":"4","last_reported":1752693049,"current_range_meters":7200,"station_id":"ce4bgjh2rcd13ifvqbg0","pricing_plan_id":"cebpf4jnsgd1na2vs0mg"},{"bike_id":"52d78d14-887c-48e1-8622-ed5a61115b3f","system_id":"levelo_inurba_marseille","lat":43.29066,"lon":5.37176,"is_reserved":false,"is_disabled":false,"rental_uris":{"android":"levelo://app?vid=52d78d14-887c-48e1-8622-ed5a61115b3f","ios":"levelo://app?vid=52d78d14-887c-48e1-8622-ed5a61115b3f"},"vehicle_type_id":"4","last_reported":1752693049,"current_range_meters":8000,"station_id":"ce4bh5p2rcd13ifvqe4g","pricing_plan_id":"cebpf4jnsgd1na2vs0mg"},{"bike_id":"843ea17c-ae40-4638-b74f-36938083b198","system_id":"levelo_inurba_marseille","lat":43.26804,"lon":5.40264,"is_reserved":false,"is_disabled":false,"rental_uris":{"android":"levelo://app?vid=843ea17c-ae40-4638-b74f-36938083b198","ios":"levelo://app?vid=843ea17c-ae40-4638-b74f-36938083b198"},"vehicle_type_id":"4","last_reported":1752693049,"current_range_meters":8400,"station_id":"ce501612rcd8frsf0b60","pricing_plan_id":"cebpf4jnsgd1na2vs0mg"},{"bike_id":"b2f271b4-522a-4569-94d9-74f5e1cfe292","system_id":"levelo_inurba_marseille","lat":43.29518,"lon":5.39028,"is_reserved":false,"is_disabled":false,"rental_uris":{"android":"levelo://app?vid=b2f271b4-522a-4569-94d9-74f5e1cfe292","ios":"levelo://app?vid=b2f271b4-522a-4569-94d9-74f5e1cfe292"},"vehicle_type_id":"4","last_reported":1752693049,"current_range_meters":8400,"station_id":"ce4bh3p2rcd13ifvqdp0","pricing_plan_id":"cebpf4jnsgd1na2vs0mg"},{"bike_id":"271a729c-3031-481b-8d6a-b9fe370536ce","system_id":"levelo_inurba_marseille","lat":43.29555,"lon":5.42273,"is_reserved":false,"is_disabled":false,"rental_uris":{"android":"levelo://app?vid=271a729c-3031-481b-8d6a-b9fe370536ce","ios":"levelo://app?vid=271a729c-3031-481b-8d6a-b9fe370536ce"},"vehicle_type_id":"4","last_reported":1752693049,"current_range_meters":8400,"station_id":"ce4bhph2rcd13ifvqhdg","pricing_plan_id":"cebpf4jnsgd1na2vs0mg"},{"bike_id":"b2691039-7ff6-41ed-9b25-53013cba226e","system_id":"levelo_inurba_marseille","lat":43.341417,"lon":5.40897,"is_reserved":false,"is_disabled":false,"rental_uris":{"android":"levelo://app?vid=b2691039-7ff6-41ed-9b25-53013cba226e","ios":"levelo://app?vid=b2691039-7ff6-41ed-9b25-53013cba226e"},"vehicle_type_id":"4","last_reported":1752693049,"current_range_meters":8400,"station_id":"ce4bhqh2rcd13ifvqhlg","pricing_plan_id":"cebpf4jnsgd1na2vs0mg"},{"bike_id":"3a1340c2-c220-44ac-8f78-3f522a1fee86","system_id":"levelo_inurba_marseille","lat":43.30424,"lon":5.41277,"is_reserved":false,"is_disabled":false,"rental_uris":{"android":"levelo://app?vid=3a1340c2-c220-44ac-8f78-3f522a1fee86","ios":"levelo://app?vid=3a1340c2-c220-44ac-8f78-3f522a1fee86"},"vehicle_type_id":"4","last_reported":1752693049,"current_range_meters":8400,"station_id":"ce4bhop2rcd13ifvqh8g","pricing_plan_id":"cebpf4jnsgd1na2vs0mg"},{"bike_id":"73b14f66-acd3-42ca-ad07-1e25c3738060","system_id":"levelo_inurba_marseille","lat":43.29277,"lon":5.40124,"is_reserved":false,"is_disabled":false,"rental_uris":{"android":"levelo://app?vid=73b14f66-acd3-42ca-ad07-1e25c3738060","ios":"levelo://app?vid=73b14f66-acd3-42ca-ad07-1e25c3738060"},"vehicle_type_id":"4","last_reported":1752693049,"current_range_meters":8400,"station_id":"ce4bh312rcd13ifvqdk0","pricing_plan_id":"cebpf4jnsgd1na2vs0mg"},{"bike_id":"22fcd451-b93a-493d-833a-23868eef8ddc","system_id":"levelo_inurba_marseille","lat":43.27211,"lon":5.39178,"is_reserved":false,"is_disabled":false,"rental_uris":{"android":"levelo://app?vid=22fcd451-b93a-493d-833a-23868eef8ddc","ios":"levelo://app?vid=22fcd451-b93a-493d-833a-23868eef8ddc"},"vehicle_type_id":"4","last_reported":1752693049,"current_range_meters":8400,"station_id":"ce4bhhp2rcd13ifvqfm0","pricing_plan_id":"cebpf4jnsgd1na2vs0mg"},{"bike_id":"af131aa2-9c5e-428a-9dae-7e0bcf0b27d2","system_id":"levelo_inurba_marseille","lat":43.29421,"lon":5.38613,"is_reserved":false,"is_disabled":false,"rental_uris":{"android":"levelo://app?vid=af131aa2-9c5e-428a-9dae-7e0bcf0b27d2","ios":"levelo://app?vid=af131aa2-9c5e-428a-9dae-7e0bcf0b27d2"},"vehicle_type_id":"4","last_reported":1752693049,"current_range_meters":8400,"station_id":"ce4bh2h2rcd13ifvqdh0","pricing_plan_id":"cebpf4jnsgd1na2vs0mg"},{"bike_id":"080b0f22-14dd-4044-a18f-ee7f74366cea","system_id":"levelo_inurba_marseille","lat":43.32,"lon":5.38144,"is_reserved":false,"is_disabled":true,"rental_uris":{"android":"levelo://app?vid=080b0f22-14dd-4044-a18f-ee7f74366cea","ios":"levelo://app?vid=080b0f22-14dd-4044-a18f-ee7f74366cea"},"vehicle_type_id":"4","last_reported":1752693049,"current_range_meters":8400,"station_id":"ce4bhr12rcd13ifvqhpg","pricing_plan_id":"cebpf4jnsgd1na2vs0mg"},{"bike_id":"39e08b44-b4c4-4a79-b7d1-b3cefa82ccd9","system_id":"levelo_inurba_marseille","lat":43.30802,"lon":5.43525,"is_reserved":false,"is_disabled":false,"rental_uris":{"android":"levelo://app?vid=39e08b44-b4c4-4a79-b7d1-b3cefa82ccd9","ios":"levelo://app?vid=39e08b44-b4c4-4a79-b7d1-b3cefa82ccd9"},"vehicle_type_id":"4","last_reported":1752693049,"current_range_meters":8800,"station_id":"ce4bhph2rcd13ifvqheg","pricing_plan_id":"cebpf4jnsgd1na2vs0mg"},{"bike_id":"74a8d47c-1c2a-44c2-8c1f-11954990d964","system_id":"levelo_inurba_marseille","lat":43.29306,"lon":5.37458,"is_reserved":false,"is_disabled":false,"rental_uris":{"android":"levelo://app?vid=74a8d47c-1c2a-44c2-8c1f-11954990d964","ios":"levelo://app?vid=74a8d47c-1c2a-44c2-8c1f-11954990d964"},"vehicle_type_id":"4","last_reported":1752693049,"current_range_meters":8800,"station_id":"ce4bgi12rcd13ifvqb70","pricing_plan_id":"cebpf4jnsgd1na2vs0mg"},{"bike_id":"818d3c99-d38b-43ba-ae52-023d92419335","system_id":"levelo_inurba_marseille","lat":43.3108,"lon":5.38348,"is_reserved":false,"is_disabled":false,"rental_uris":{"android":"levelo://app?vid=818d3c99-d38b-43ba-ae52-023d92419335","ios":"levelo://app?vid=818d3c99-d38b-43ba-ae52-023d92419335"},"vehicle_type_id":"4","last_reported":1752693049,"current_range_meters":8800,"station_id":"ce4bgv92rcd13ifvqcr0","pricing_plan_id":"cebpf4jnsgd1na2vs0mg"},{"bike_id":"1257df95-c896-46a8-9d56-423ff8dce606","system_id":"levelo_inurba_marseille","lat":43.2857,"lon":5.39499,"is_reserved":false,"is_disabled":false,"rental_uris":{"android":"levelo://app?vid=1257df95-c896-46a8-9d56-423ff8dce606","ios":"levelo://app?vid=1257df95-c896-46a8-9d56-423ff8dce606"},"vehicle_type_id":"4","last_reported":1752693049,"current_range_meters":8400,"station_id":"ce4bh292rcd13ifvqdg0","pricing_plan_id":"cebpf4jnsgd1na2vs0mg"},{"bike_id":"0011a4b6-4016-4ac7-b17d-90bb72ac30b0","system_id":"levelo_inurba_marseille","lat":43.28617,"lon":5.35089,"is_reserved":false,"is_disabled":false,"rental_uris":{"android":"levelo://app?vid=0011a4b6-4016-4ac7-b17d-90bb72ac30b0","ios":"levelo://app?vid=0011a4b6-4016-4ac7-b17d-90bb72ac30b0"},"vehicle_type_id":"4","last_reported":1752693049,"current_range_meters":8800,"station_id":"ce4bhch2rcd13ifvqeug","pricing_plan_id":"cebpf4jnsgd1na2vs0mg"},{"bike_id":"9a148977-a594-4845-bd11-c176cc991842","system_id":"levelo_inurba_marseille","lat":43.2418,"lon":5.39729,"is_reserved":false,"is_disabled":false,"rental_uris":{"android":"levelo://app?vid=9a148977-a594-4845-bd11-c176cc991842","ios":"levelo://app?vid=9a148977-a594-4845-bd11-c176cc991842"},"vehicle_type_id":"4","last_reported":1752693049,"current_range_meters":8800,"station_id":"ce4bhn12rcd13ifvqgpg","pricing_plan_id":"cebpf4jnsgd1na2vs0mg"},{"bike_id":"b07f3dc6-c284-43af-9c28-14ec1a79d4d2","system_id":"levelo_inurba_marseille","lat":43.29203,"lon":5.35794,"is_reserved":false,"is_disabled":false,"rental_uris":{"android":"levelo://app?vid=b07f3dc6-c284-43af-9c28-14ec1a79d4d2","ios":"levelo://app?vid=b07f3dc6-c284-43af-9c28-14ec1a79d4d2"},"vehicle_type_id":"4","last_reported":1752693049,"current_range_meters":8800,"station_id":"ce4bhb12rcd13ifvqel0","pricing_plan_id":"cebpf4jnsgd1na2vs0mg"},{"bike_id":"23bea0ab-8703-494d-9c02-d12aed685832","system_id":"levelo_inurba_marseille","lat":43.28626,"lon":5.35095,"is_reserved":false,"is_disabled":false,"rental_uris":{"android":"levelo://app?vid=23bea0ab-8703-494d-9c02-d12aed685832","ios":"levelo://app?vid=23bea0ab-8703-494d-9c02-d12aed685832"},"vehicle_type_id":"4","last_reported":1752693049,"current_range_meters":8800,"station_id":"ce4bhch2rcd13ifvqeug","pricing_plan_id":"cebpf4jnsgd1na2vs0mg"},{"bike_id":"d0d99b62-4f55-41db-a34d-9e24a1bf82f6","system_id":"levelo_inurba_marseille","lat":43.28613,"lon":5.35104,"is_reserved":false,"is_disabled":false,"rental_uris":{"android":"levelo://app?vid=d0d99b62-4f55-41db-a34d-9e24a1bf82f6","ios":"levelo://app?vid=d0d99b62-4f55-41db-a34d-9e24a1bf82f6"},"vehicle_type_id":"4","last_reported":1752693049,"current_range_meters":9200,"station_id":"ce4bhch2rcd13ifvqeug","pricing_plan_id":"cebpf4jnsgd1na2vs0mg"},{"bike_id":"ec426ff8-bb78-4a2a-bac4-406b03463bb4","system_id":"levelo_inurba_marseille","lat":43.28363,"lon":5.38643,"is_reserved":false,"is_disabled":false,"rental_uris":{"android":"levelo://app?vid=ec426ff8-bb78-4a2a-bac4-406b03463bb4","ios":"levelo://app?vid=ec426ff8-bb78-4a2a-bac4-406b03463bb4"},"vehicle_type_id":"4","last_reported":1752693049,"current_range_meters":8800,"station_id":"ce4bh492rcd13ifvqdvg","pricing_plan_id":"cebpf4jnsgd1na2vs0mg"},{"bike_id":"21277f10-5153-4980-90c8-114919d3afab","system_id":"levelo_inurba_marseille","lat":43.31073,"lon":5.38352,"is_reserved":false,"is_disabled":true,"rental_uris":{"android":"levelo://app?vid=21277f10-5153-4980-90c8-114919d3afab","ios":"levelo://app?vid=21277f10-5153-4980-90c8-114919d3afab"},"vehicle_type_id":"4","last_reported":1752693049,"current_range_meters":9200,"station_id":"ce4bgv92rcd13ifvqcr0","pricing_plan_id":"cebpf4jnsgd1na2vs0mg"},{"bike_id":"d98ef30e-38a0-41ef-a00a-304afa979a1e","system_id":"levelo_inurba_marseille","lat":43.298946,"lon":5.436615,"is_reserved":false,"is_disabled":true,"rental_uris":{"android":"levelo://app?vid=d98ef30e-38a0-41ef-a00a-304afa979a1e","ios":"levelo://app?vid=d98ef30e-38a0-41ef-a00a-304afa979a1e"},"vehicle_type_id":"4","last_reported":1752693049,"current_range_meters":9200,"station_id":"ce4bhpp2rcd13ifvqhfg","pricing_plan_id":"cebpf4jnsgd1na2vs0mg"},{"bike_id":"d697a0e1-0b37-44af-adfc-5d1b93e25d4d","system_id":"levelo_inurba_marseille","lat":43.28151,"lon":5.42644,"is_reserved":false,"is_disabled":false,"rental_uris":{"android":"levelo://app?vid=d697a0e1-0b37-44af-adfc-5d1b93e25d4d","ios":"levelo://app?vid=d697a0e1-0b37-44af-adfc-5d1b93e25d4d"},"vehicle_type_id":"4","last_reported":1752693049,"current_range_meters":8800,"station_id":"ce4bhnh2rcd13ifvqgug","pricing_plan_id":"cebpf4jnsgd1na2vs0mg"},{"bike_id":"498f96f8-c4d3-4424-b717-177ee31da36d","system_id":"levelo_inurba_marseille","lat":43.29845,"lon":5.36276,"is_reserved":false,"is_disabled":false,"rental_uris":{"android":"levelo://app?vid=498f96f8-c4d3-4424-b717-177ee31da36d","ios":"levelo://app?vid=498f96f8-c4d3-4424-b717-177ee31da36d"},"vehicle_type_id":"4","last_reported":1752693049,"current_range_meters":9200,"station_id":"ce4bgpp2rcd13ifvqc3g","pricing_plan_id":"cebpf4jnsgd1na2vs0mg"},{"bike_id":"33d3299a-61a6-461e-b1e7-23a36b3d69c7","system_id":"levelo_inurba_marseille","lat":43.26056,"lon":5.39398,"is_reserved":false,"is_disabled":false,"rental_uris":{"android":"levelo://app?vid=33d3299a-61a6-461e-b1e7-23a36b3d69c7","ios":"levelo://app?vid=33d3299a-61a6-461e-b1e7-23a36b3d69c7"},"vehicle_type_id":"4","last_reported":1752693049,"current_range_meters":8800,"station_id":"ce4bhh92rcd13ifvqfj0","pricing_plan_id":"cebpf4jnsgd1na2vs0mg"},{"bike_id":"1d7305c6-9a0a-4587-a736-7298e4fb5942","system_id":"levelo_inurba_marseille","lat":43.288652,"lon":5.358573,"is_reserved":false,"is_disabled":true,"rental_uris":{"android":"levelo://app?vid=1d7305c6-9a0a-4587-a736-7298e4fb5942","ios":"levelo://app?vid=1d7305c6-9a0a-4587-a736-7298e4fb5942"},"vehicle_type_id":"4","last_reported":1752693049,"current_range_meters":9200,"station_id":"ce4bhb12rcd13ifvqem0","pricing_plan_id":"cebpf4jnsgd1na2vs0mg"},{"bike_id":"041eb070-b1b9-4d73-a5ee-ec2cea1717c6","system_id":"levelo_inurba_marseille","lat":43.28613,"lon":5.3706,"is_reserved":false,"is_disabled":false,"rental_uris":{"android":"levelo://app?vid=041eb070-b1b9-4d73-a5ee-ec2cea1717c6","ios":"levelo://app?vid=041eb070-b1b9-4d73-a5ee-ec2cea1717c6"},"vehicle_type_id":"4","last_reported":1752693049,"current_range_meters":9200,"station_id":"ce4bht12rcd13ifvqi60","pricing_plan_id":"cebpf4jnsgd1na2vs0mg"},{"bike_id":"2a954aa8-eab5-4a5c-b80b-4e06ce3b3852","system_id":"levelo_inurba_marseille","lat":43.29176,"lon":5.37155,"is_reserved":false,"is_disabled":false,"rental_uris":{"android":"levelo://app?vid=2a954aa8-eab5-4a5c-b80b-4e06ce3b3852","ios":"levelo://app?vid=2a954aa8-eab5-4a5c-b80b-4e06ce3b3852"},"vehicle_type_id":"4","last_reported":1752693049,"current_range_meters":9200,"station_id":"ce4bha92rcd13ifvqeh0","pricing_plan_id":"cebpf4jnsgd1na2vs0mg"},{"bike_id":"c588f21b-3a83-42a4-9068-2e0425a358b3","system_id":"levelo_inurba_marseille","lat":43.29448,"lon":5.38635,"is_reserved":false,"is_disabled":false,"rental_uris":{"android":"levelo://app?vid=c588f21b-3a83-42a4-9068-2e0425a358b3","ios":"levelo://app?vid=c588f21b-3a83-42a4-9068-2e0425a358b3"},"vehicle_type_id":"4","last_reported":1752693049,"current_range_meters":9200,"station_id":"ce4bh2h2rcd13ifvqdh0","pricing_plan_id":"cebpf4jnsgd1na2vs0mg"},{"bike_id":"ba4cd902-17b2-4f6d-a3ae-a54d826db352","system_id":"levelo_inurba_marseille","lat":43.30207,"lon":5.39457,"is_reserved":false,"is_disabled":false,"rental_uris":{"android":"levelo://app?vid=ba4cd902-17b2-4f6d-a3ae-a54d826db352","ios":"levelo://app?vid=ba4cd902-17b2-4f6d-a3ae-a54d826db352"},"vehicle_type_id":"4","last_reported":1752693049,"current_range_meters":9200,"station_id":"ce4bh0p2rcd13ifvqd70","pricing_plan_id":"cebpf4jnsgd1na2vs0mg"},{"bike_id":"258a64d9-14eb-4da2-9034-5cecfcb94a87","system_id":"levelo_inurba_marseille","lat":43.27375,"lon":5.36247,"is_reserved":false,"is_disabled":false,"rental_uris":{"android":"levelo://app?vid=258a64d9-14eb-4da2-9034-5cecfcb94a87","ios":"levelo://app?vid=258a64d9-14eb-4da2-9034-5cecfcb94a87"},"vehicle_type_id":"4","last_reported":1752693049,"current_range_meters":9200,"station_id":"ce4bhbh2rcd13ifvqeo0","pricing_plan_id":"cebpf4jnsgd1na2vs0mg"},{"bike_id":"74b4390d-0242-429b-b32a-0523a3e24ef3","system_id":"levelo_inurba_marseille","lat":43.25452,"lon":5.37598,"is_reserved":false,"is_disabled":false,"rental_uris":{"android":"levelo://app?vid=74b4390d-0242-429b-b32a-0523a3e24ef3","ios":"levelo://app?vid=74b4390d-0242-429b-b32a-0523a3e24ef3"},"vehicle_type_id":"4","last_reported":1752693049,"current_range_meters":9600,"station_id":"","pricing_plan_id":"cebpf4jnsgd1na2vs0mg"},{"bike_id":"fd98485d-d049-4777-ad0b-170381c262c9","system_id":"levelo_inurba_marseille","lat":43.29063,"lon":5.37576,"is_reserved":false,"is_disabled":false,"rental_uris":{"android":"levelo://app?vid=fd98485d-d049-4777-ad0b-170381c262c9","ios":"levelo://app?vid=fd98485d-d049-4777-ad0b-170381c262c9"},"vehicle_type_id":"4","last_reported":1752693049,"current_range_meters":9600,"station_id":"ce4bh692rcd13ifvqe90","pricing_plan_id":"cebpf4jnsgd1na2vs0mg"},{"bike_id":"86ec0fea-51f3-484c-9268-308de95371ee","system_id":"levelo_inurba_marseille","lat":43.29265,"lon":5.38443,"is_reserved":false,"is_disabled":false,"rental_uris":{"android":"levelo://app?vid=86ec0fea-51f3-484c-9268-308de95371ee","ios":"levelo://app?vid=86ec0fea-51f3-484c-9268-308de95371ee"},"vehicle_type_id":"4","last_reported":1752693049,"current_range_meters":9600,"station_id":"ce4bh692rcd13ifvqea0","pricing_plan_id":"cebpf4jnsgd1na2vs0mg"},{"bike_id":"a25572fe-43fc-4fb5-82fd-39239899280b","system_id":"levelo_inurba_marseille","lat":43.28163,"lon":5.42638,"is_reserved":false,"is_disabled":false,"rental_uris":{"android":"levelo://app?vid=a25572fe-43fc-4fb5-82fd-39239899280b","ios":"levelo://app?vid=a25572fe-43fc-4fb5-82fd-39239899280b"},"vehicle_type_id":"4","last_reported":1752693049,"current_range_meters":9600,"station_id":"ce4bhnh2rcd13ifvqgug","pricing_plan_id":"cebpf4jnsgd1na2vs0mg"},{"bike_id":"edd1e6fd-b630-4bf6-ad38-c040dc7c6b29","system_id":"levelo_inurba_marseille","lat":43.30143,"lon":5.38078,"is_reserved":false,"is_disabled":false,"rental_uris":{"android":"levelo://app?vid=edd1e6fd-b630-4bf6-ad38-c040dc7c6b29","ios":"levelo://app?vid=edd1e6fd-b630-4bf6-ad38-c040dc7c6b29"},"vehicle_type_id":"4","last_reported":1752693049,"current_range_meters":9200,"station_id":"ce4bgjp2rcd13ifvqbh0","pricing_plan_id":"cebpf4jnsgd1na2vs0mg"},{"bike_id":"83d0535d-b199-4ce3-8c7e-a80799768416","system_id":"levelo_inurba_marseille","lat":43.30885,"lon":5.39645,"is_reserved":false,"is_disabled":false,"rental_uris":{"android":"levelo://app?vid=83d0535d-b199-4ce3-8c7e-a80799768416","ios":"levelo://app?vid=83d0535d-b199-4ce3-8c7e-a80799768416"},"vehicle_type_id":"4","last_reported":1752693049,"current_range_meters":9200,"station_id":"ce4bh012rcd13ifvqcv0","pricing_plan_id":"cebpf4jnsgd1na2vs0mg"},{"bike_id":"df5a74a2-35d0-458d-a86e-115cbef5dd2c","system_id":"levelo_inurba_marseille","lat":43.304415,"lon":5.390929,"is_reserved":false,"is_disabled":false,"rental_uris":{"android":"levelo://app?vid=df5a74a2-35d0-458d-a86e-115cbef5dd2c","ios":"levelo://app?vid=df5a74a2-35d0-458d-a86e-115cbef5dd2c"},"vehicle_type_id":"4","last_reported":1752693049,"current_range_meters":9600,"station_id":"ce4bgpp2rcd13ifvqc3g","pricing_plan_id":"cebpf4jnsgd1na2vs0mg"},{"bike_id":"3ed97ebf-4334-4ad6-b974-5f407541e058","system_id":"levelo_inurba_marseille","lat":43.26226,"lon":5.4045,"is_reserved":false,"is_disabled":false,"rental_uris":{"android":"levelo://app?vid=3ed97ebf-4334-4ad6-b974-5f407541e058","ios":"levelo://app?vid=3ed97ebf-4334-4ad6-b974-5f407541e058"},"vehicle_type_id":"4","last_reported":1752693049,"current_range_meters":10000,"station_id":"ce4bhmh2rcd13ifvqgmg","pricing_plan_id":"cebpf4jnsgd1na2vs0mg"},{"bike_id":"1145602c-3b12-4604-b8ff-291284dfc532","system_id":"levelo_inurba_marseille","lat":43.22508,"lon":5.34775,"is_reserved":false,"is_disabled":false,"rental_uris":{"android":"levelo://app?vid=1145602c-3b12-4604-b8ff-291284dfc532","ios":"levelo://app?vid=1145602c-3b12-4604-b8ff-291284dfc532"},"vehicle_type_id":"4","last_reported":1752693049,"current_range_meters":10000,"station_id":"st_cvj5dfep6f1abm77gieg","pricing_plan_id":"cebpf4jnsgd1na2vs0mg"},{"bike_id":"bcf5333d-6575-4ff5-832a-b7b8686b71bb","system_id":"levelo_inurba_marseille","lat":43.289373,"lon":5.396449,"is_reserved":false,"is_disabled":false,"rental_uris":{"android":"levelo://app?vid=bcf5333d-6575-4ff5-832a-b7b8686b71bb","ios":"levelo://app?vid=bcf5333d-6575-4ff5-832a-b7b8686b71bb"},"vehicle_type_id":"4","last_reported":1752693049,"current_range_meters":10000,"station_id":"","pricing_plan_id":"cebpf4jnsgd1na2vs0mg"},{"bike_id":"5c5183f7-02b4-4738-84b2-076637792d0b","system_id":"levelo_inurba_marseille","lat":43.28707,"lon":5.37367,"is_reserved":false,"is_disabled":false,"rental_uris":{"android":"levelo://app?vid=5c5183f7-02b4-4738-84b2-076637792d0b","ios":"levelo://app?vid=5c5183f7-02b4-4738-84b2-076637792d0b"},"vehicle_type_id":"4","last_reported":1752693049,"current_range_meters":10000,"station_id":"ce4bh3p2rcd13ifvqdq0","pricing_plan_id":"cebpf4jnsgd1na2vs0mg"},{"bike_id":"cc8fd054-ead8-42be-aa25-5cba9b544a3e","system_id":"levelo_inurba_marseille","lat":43.28612,"lon":5.3705,"is_reserved":false,"is_disabled":false,"rental_uris":{"android":"levelo://app?vid=cc8fd054-ead8-42be-aa25-5cba9b544a3e","ios":"levelo://app?vid=cc8fd054-ead8-42be-aa25-5cba9b544a3e"},"vehicle_type_id":"4","last_reported":1752693049,"current_range_meters":10000,"station_id":"ce4bht12rcd13ifvqi60","pricing_plan_id":"cebpf4jnsgd1na2vs0mg"},{"bike_id":"2bacaccd-1bb2-41bf-ab2e-30b8a5fb7d5d","system_id":"levelo_inurba_marseille","lat":43.2738,"lon":5.36245,"is_reserved":false,"is_disabled":true,"rental_uris":{"android":"levelo://app?vid=2bacaccd-1bb2-41bf-ab2e-30b8a5fb7d5d","ios":"levelo://app?vid=2bacaccd-1bb2-41bf-ab2e-30b8a5fb7d5d"},"vehicle_type_id":"4","last_reported":1752693049,"current_range_meters":10000,"station_id":"ce4bhbh2rcd13ifvqeo0","pricing_plan_id":"cebpf4jnsgd1na2vs0mg"},{"bike_id":"dd5871ae-6538-4aeb-98aa-aee429d89359","system_id":"levelo_inurba_marseille","lat":43.29572,"lon":5.36738,"is_reserved":false,"is_disabled":false,"rental_uris":{"android":"levelo://app?vid=dd5871ae-6538-4aeb-98aa-aee429d89359","ios":"levelo://app?vid=dd5871ae-6538-4aeb-98aa-aee429d89359"},"vehicle_type_id":"4","last_reported":1752693049,"current_range_meters":9600,"station_id":"ce4bgph2rcd13ifvqc2g","pricing_plan_id":"cebpf4jnsgd1na2vs0mg"},{"bike_id":"a8fa3032-6b80-4821-a5a5-27332eeffd22","system_id":"levelo_inurba_marseille","lat":43.2843,"lon":5.34996,"is_reserved":false,"is_disabled":false,"rental_uris":{"android":"levelo://app?vid=a8fa3032-6b80-4821-a5a5-27332eeffd22","ios":"levelo://app?vid=a8fa3032-6b80-4821-a5a5-27332eeffd22"},"vehicle_type_id":"4","last_reported":1752693049,"current_range_meters":10000,"station_id":"ce4bhbh2rcd13ifvqepg","pricing_plan_id":"cebpf4jnsgd1na2vs0mg"},{"bike_id":"1b263a2b-fa47-4de2-86ee-60bb43a61e21","system_id":"levelo_inurba_marseille","lat":43.284033,"lon":5.349807,"is_reserved":false,"is_disabled":false,"rental_uris":{"android":"levelo://app?vid=1b263a2b-fa47-4de2-86ee-60bb43a61e21","ios":"levelo://app?vid=1b263a2b-fa47-4de2-86ee-60bb43a61e21"},"vehicle_type_id":"4","last_reported":1752693049,"current_range_meters":10000,"station_id":"ce4bhbh2rcd13ifvqepg","pricing_plan_id":"cebpf4jnsgd1na2vs0mg"},{"bike_id":"6acd1869-31a6-41b9-94b7-b9846845906f","system_id":"levelo_inurba_marseille","lat":43.27171,"lon":5.39209,"is_reserved":false,"is_disabled":false,"rental_uris":{"android":"levelo://app?vid=6acd1869-31a6-41b9-94b7-b9846845906f","ios":"levelo://app?vid=6acd1869-31a6-41b9-94b7-b9846845906f"},"vehicle_type_id":"4","last_reported":1752693049,"current_range_meters":10800,"station_id":"","pricing_plan_id":"cebpf4jnsgd1na2vs0mg"},{"bike_id":"a6b95d2a-512b-4928-866a-aa1ea2105b6a","system_id":"levelo_inurba_marseille","lat":43.28851,"lon":5.35859,"is_reserved":false,"is_disabled":false,"rental_uris":{"android":"levelo://app?vid=a6b95d2a-512b-4928-866a-aa1ea2105b6a","ios":"levelo://app?vid=a6b95d2a-512b-4928-866a-aa1ea2105b6a"},"vehicle_type_id":"4","last_reported":1752693049,"current_range_meters":10800,"station_id":"ce4bhb12rcd13ifvqem0","pricing_plan_id":"cebpf4jnsgd1na2vs0mg"},{"bike_id":"71525951-763f-4130-b5b7-4d4a53c2ab15","system_id":"levelo_inurba_marseille","lat":43.29256,"lon":5.38435,"is_reserved":false,"is_disabled":false,"rental_uris":{"android":"levelo://app?vid=71525951-763f-4130-b5b7-4d4a53c2ab15","ios":"levelo://app?vid=71525951-763f-4130-b5b7-4d4a53c2ab15"},"vehicle_type_id":"4","last_reported":1752693049,"current_range_meters":10800,"station_id":"ce4bh692rcd13ifvqea0","pricing_plan_id":"cebpf4jnsgd1na2vs0mg"},{"bike_id":"806331f4-ee29-4414-ae26-1813a04f9356","system_id":"levelo_inurba_marseille","lat":43.28613,"lon":5.37058,"is_reserved":false,"is_disabled":false,"rental_uris":{"android":"levelo://app?vid=806331f4-ee29-4414-ae26-1813a04f9356","ios":"levelo://app?vid=806331f4-ee29-4414-ae26-1813a04f9356"},"vehicle_type_id":"4","last_reported":1752693049,"current_range_meters":10800,"station_id":"ce4bht12rcd13ifvqi60","pricing_plan_id":"cebpf4jnsgd1na2vs0mg"},{"bike_id":"652abf99-a378-42df-8ac6-e6fe6eac2c13","system_id":"levelo_inurba_marseille","lat":43.291966,"lon":5.357998,"is_reserved":false,"is_disabled":false,"rental_uris":{"android":"levelo://app?vid=652abf99-a378-42df-8ac6-e6fe6eac2c13","ios":"levelo://app?vid=652abf99-a378-42df-8ac6-e6fe6eac2c13"},"vehicle_type_id":"4","last_reported":1752693049,"current_range_meters":10800,"station_id":"ce4bhb12rcd13ifvqel0","pricing_plan_id":"cebpf4jnsgd1na2vs0mg"},{"bike_id":"2ed2bfbe-f294-4f5b-bf5f-8df8acee532c","system_id":"levelo_inurba_marseille","lat":43.24791,"lon":5.37468,"is_reserved":false,"is_disabled":false,"rental_uris":{"android":"levelo://app?vid=2ed2bfbe-f294-4f5b-bf5f-8df8acee532c","ios":"levelo://app?vid=2ed2bfbe-f294-4f5b-bf5f-8df8acee532c"},"vehicle_type_id":"4","last_reported":1752693049,"current_range_meters":11200,"station_id":"ce4bhgh2rcd13ifvqfb0","pricing_plan_id":"cebpf4jnsgd1na2vs0mg"},{"bike_id":"54b283c6-c314-444c-b492-3e78ed7f2d30","system_id":"levelo_inurba_marseille","lat":43.32929,"lon":5.39057,"is_reserved":false,"is_disabled":false,"rental_uris":{"android":"levelo://app?vid=54b283c6-c314-444c-b492-3e78ed7f2d30","ios":"levelo://app?vid=54b283c6-c314-444c-b492-3e78ed7f2d30"},"vehicle_type_id":"4","last_reported":1752693049,"current_range_meters":11200,"station_id":"","pricing_plan_id":"cebpf4jnsgd1na2vs0mg"},{"bike_id":"cfcc65df-bb0e-4708-a013-2c5eecb3d6dc","system_id":"levelo_inurba_marseille","lat":43.279665,"lon":5.387531,"is_reserved":false,"is_disabled":false,"rental_uris":{"android":"levelo://app?vid=cfcc65df-bb0e-4708-a013-2c5eecb3d6dc","ios":"levelo://app?vid=cfcc65df-bb0e-4708-a013-2c5eecb3d6dc"},"vehicle_type_id":"4","last_reported":1752693049,"current_range_meters":11200,"station_id":"ce4bhg12rcd13ifvqf80","pricing_plan_id":"cebpf4jnsgd1na2vs0mg"},{"bike_id":"3497b8c1-eec3-4bcf-a2a8-074629d1c01b","system_id":"levelo_inurba_marseille","lat":43.305316,"lon":5.367038,"is_reserved":false,"is_disabled":false,"rental_uris":{"android":"levelo://app?vid=3497b8c1-eec3-4bcf-a2a8-074629d1c01b","ios":"levelo://app?vid=3497b8c1-eec3-4bcf-a2a8-074629d1c01b"},"vehicle_type_id":"4","last_reported":1752693049,"current_range_meters":11200,"station_id":"","pricing_plan_id":"cebpf4jnsgd1na2vs0mg"},{"bike_id":"dbf61732-46c3-460d-8803-3199bc9edf64","system_id":"levelo_inurba_marseille","lat":43.28616,"lon":5.35111,"is_reserved":false,"is_disabled":false,"rental_uris":{"android":"levelo://app?vid=dbf61732-46c3-460d-8803-3199bc9edf64","ios":"levelo://app?vid=dbf61732-46c3-460d-8803-3199bc9edf64"},"vehicle_type_id":"4","last_reported":1752693049,"current_range_meters":11200,"station_id":"ce4bhch2rcd13ifvqeug","pricing_plan_id":"cebpf4jnsgd1na2vs0mg"},{"bike_id":"dec9a2a3-95c9-410a-93ff-76e3754c1372","system_id":"levelo_inurba_marseille","lat":43.29197,"lon":5.35802,"is_reserved":false,"is_disabled":false,"rental_uris":{"android":"levelo://app?vid=dec9a2a3-95c9-410a-93ff-76e3754c1372","ios":"levelo://app?vid=dec9a2a3-95c9-410a-93ff-76e3754c1372"},"vehicle_type_id":"4","last_reported":1752693049,"current_range_meters":11200,"station_id":"ce4bhb12rcd13ifvqel0","pricing_plan_id":"cebpf4jnsgd1na2vs0mg"},{"bike_id":"6d7ff662-bb5b-4d04-b0c6-5aa5f1790dfe","system_id":"levelo_inurba_marseille","lat":43.28155,"lon":5.42643,"is_reserved":false,"is_disabled":false,"rental_uris":{"android":"levelo://app?vid=6d7ff662-bb5b-4d04-b0c6-5aa5f1790dfe","ios":"levelo://app?vid=6d7ff662-bb5b-4d04-b0c6-5aa5f1790dfe"},"vehicle_type_id":"4","last_reported":1752693049,"current_range_meters":11200,"station_id":"ce4bhnh2rcd13ifvqgug","pricing_plan_id":"cebpf4jnsgd1na2vs0mg"},{"bike_id":"1bd36e8f-9902-44aa-9bd7-fa22c4374576","system_id":"levelo_inurba_marseille","lat":43.291855,"lon":5.357998,"is_reserved":false,"is_disabled":false,"rental_uris":{"android":"levelo://app?vid=1bd36e8f-9902-44aa-9bd7-fa22c4374576","ios":"levelo://app?vid=1bd36e8f-9902-44aa-9bd7-fa22c4374576"},"vehicle_type_id":"4","last_reported":1752693049,"current_range_meters":11600,"station_id":"ce4bhb12rcd13ifvqel0","pricing_plan_id":"cebpf4jnsgd1na2vs0mg"},{"bike_id":"338de1f6-1801-40f5-8252-d637cf4b19c5","system_id":"levelo_inurba_marseille","lat":43.28149,"lon":5.42636,"is_reserved":false,"is_disabled":false,"rental_uris":{"android":"levelo://app?vid=338de1f6-1801-40f5-8252-d637cf4b19c5","ios":"levelo://app?vid=338de1f6-1801-40f5-8252-d637cf4b19c5"},"vehicle_type_id":"4","last_reported":1752693049,"current_range_meters":11600,"station_id":"ce4bhnh2rcd13ifvqgug","pricing_plan_id":"cebpf4jnsgd1na2vs0mg"},{"bike_id":"84524b78-df1d-4bab-af64-d2e4a401bf6b","system_id":"levelo_inurba_marseille","lat":43.24804,"lon":5.37442,"is_reserved":false,"is_disabled":false,"rental_uris":{"android":"levelo://app?vid=84524b78-df1d-4bab-af64-d2e4a401bf6b","ios":"levelo://app?vid=84524b78-df1d-4bab-af64-d2e4a401bf6b"},"vehicle_type_id":"4","last_reported":1752693049,"current_range_meters":11600,"station_id":"ce4bhgh2rcd13ifvqfb0","pricing_plan_id":"cebpf4jnsgd1na2vs0mg"},{"bike_id":"5931833f-f29e-43c3-bf9e-fc4b71e432f0","system_id":"levelo_inurba_marseille","lat":43.29843,"lon":5.36276,"is_reserved":false,"is_disabled":false,"rental_uris":{"android":"levelo://app?vid=5931833f-f29e-43c3-bf9e-fc4b71e432f0","ios":"levelo://app?vid=5931833f-f29e-43c3-bf9e-fc4b71e432f0"},"vehicle_type_id":"4","last_reported":1752693049,"current_range_meters":11600,"station_id":"ce4bgpp2rcd13ifvqc3g","pricing_plan_id":"cebpf4jnsgd1na2vs0mg"},{"bike_id":"794b998d-7e45-4d53-b270-ae51136a9420","system_id":"levelo_inurba_marseille","lat":43.31632,"lon":5.38287,"is_reserved":false,"is_disabled":false,"rental_uris":{"android":"levelo://app?vid=794b998d-7e45-4d53-b270-ae51136a9420","ios":"levelo://app?vid=794b998d-7e45-4d53-b270-ae51136a9420"},"vehicle_type_id":"4","last_reported":1752693049,"current_range_meters":11600,"station_id":"","pricing_plan_id":"cebpf4jnsgd1na2vs0mg"},{"bike_id":"7cc19fc2-a2bb-4346-a3fe-43cec3a18d95","system_id":"levelo_inurba_marseille","lat":43.29416,"lon":5.38613,"is_reserved":false,"is_disabled":false,"rental_uris":{"android":"levelo://app?vid=7cc19fc2-a2bb-4346-a3fe-43cec3a18d95","ios":"levelo://app?vid=7cc19fc2-a2bb-4346-a3fe-43cec3a18d95"},"vehicle_type_id":"4","last_reported":1752693049,"current_range_meters":11600,"station_id":"ce4bh2h2rcd13ifvqdh0","pricing_plan_id":"cebpf4jnsgd1na2vs0mg"},{"bike_id":"81feae73-5f45-4837-bc34-2dc71b23b689","system_id":"levelo_inurba_marseille","lat":43.29835,"lon":5.36265,"is_reserved":false,"is_disabled":false,"rental_uris":{"android":"levelo://app?vid=81feae73-5f45-4837-bc34-2dc71b23b689","ios":"levelo://app?vid=81feae73-5f45-4837-bc34-2dc71b23b689"},"vehicle_type_id":"4","last_reported":1752693049,"current_range_meters":11600,"station_id":"ce4bgpp2rcd13ifvqc3g","pricing_plan_id":"cebpf4jnsgd1na2vs0mg"},{"bike_id":"988ddd5f-264c-40c8-ba3e-fc48800939f7","system_id":"levelo_inurba_marseille","lat":43.28833,"lon":5.35855,"is_reserved":false,"is_disabled":false,"rental_uris":{"android":"levelo://app?vid=988ddd5f-264c-40c8-ba3e-fc48800939f7","ios":"levelo://app?vid=988ddd5f-264c-40c8-ba3e-fc48800939f7"},"vehicle_type_id":"4","last_reported":1752693049,"current_range_meters":12000,"station_id":"ce4bhb12rcd13ifvqem0","pricing_plan_id":"cebpf4jnsgd1na2vs0mg"},{"bike_id":"10307035-eddb-467b-9540-03dae7cef7e1","system_id":"levelo_inurba_marseille","lat":43.26215,"lon":5.37433,"is_reserved":false,"is_disabled":false,"rental_uris":{"android":"levelo://app?vid=10307035-eddb-467b-9540-03dae7cef7e1","ios":"levelo://app?vid=10307035-eddb-467b-9540-03dae7cef7e1"},"vehicle_type_id":"4","last_reported":1752693049,"current_range_meters":12000,"station_id":"ce4bhgp2rcd13ifvqfc0","pricing_plan_id":"cebpf4jnsgd1na2vs0mg"},{"bike_id":"dd18b9ff-e276-40b6-85ab-bc225ce4ed9b","system_id":"levelo_inurba_marseille","lat":43.283508,"lon":5.38105,"is_reserved":false,"is_disabled":false,"rental_uris":{"android":"levelo://app?vid=dd18b9ff-e276-40b6-85ab-bc225ce4ed9b","ios":"levelo://app?vid=dd18b9ff-e276-40b6-85ab-bc225ce4ed9b"},"vehicle_type_id":"4","last_reported":1752693049,"current_range_meters":12000,"station_id":"ce4bh412rcd13ifvqdr0","pricing_plan_id":"cebpf4jnsgd1na2vs0mg"},{"bike_id":"d6a8a3e3-e61c-41d8-b9e0-de207ba323b0","system_id":"levelo_inurba_marseille","lat":43.29969,"lon":5.41308,"is_reserved":false,"is_disabled":false,"rental_uris":{"android":"levelo://app?vid=d6a8a3e3-e61c-41d8-b9e0-de207ba323b0","ios":"levelo://app?vid=d6a8a3e3-e61c-41d8-b9e0-de207ba323b0"},"vehicle_type_id":"4","last_reported":1752693049,"current_range_meters":12000,"station_id":"ce4bhp12rcd13ifvqh9g","pricing_plan_id":"cebpf4jnsgd1na2vs0mg"},{"bike_id":"4dd784f6-6546-4c21-945b-44809730ab1c","system_id":"levelo_inurba_marseille","lat":43.28619,"lon":5.35107,"is_reserved":false,"is_disabled":false,"rental_uris":{"android":"levelo://app?vid=4dd784f6-6546-4c21-945b-44809730ab1c","ios":"levelo://app?vid=4dd784f6-6546-4c21-945b-44809730ab1c"},"vehicle_type_id":"4","last_reported":1752693049,"current_range_meters":12000,"station_id":"ce4bhch2rcd13ifvqeug","pricing_plan_id":"cebpf4jnsgd1na2vs0mg"},{"bike_id":"e5bec6b1-43e6-46f2-9810-affd93766dd8","system_id":"levelo_inurba_marseille","lat":43.33774,"lon":5.37475,"is_reserved":false,"is_disabled":true,"rental_uris":{"android":"levelo://app?vid=e5bec6b1-43e6-46f2-9810-affd93766dd8","ios":"levelo://app?vid=e5bec6b1-43e6-46f2-9810-affd93766dd8"},"vehicle_type_id":"4","last_reported":1752693049,"current_range_meters":12400,"station_id":"","pricing_plan_id":"cebpf4jnsgd1na2vs0mg"},{"bike_id":"f53ab926-2de1-4f3c-a7d9-6743ca1bfb1f","system_id":"levelo_inurba_marseille","lat":43.21189,"lon":5.35121,"is_reserved":false,"is_disabled":false,"rental_uris":{"android":"levelo://app?vid=f53ab926-2de1-4f3c-a7d9-6743ca1bfb1f","ios":"levelo://app?vid=f53ab926-2de1-4f3c-a7d9-6743ca1bfb1f"},"vehicle_type_id":"4","last_reported":1752693049,"current_range_meters":12400,"station_id":"st_cvj6sg6p6f1abm77japg","pricing_plan_id":"cebpf4jnsgd1na2vs0mg"},{"bike_id":"5ad01da5-8b6e-451c-96ee-324bb1f20701","system_id":"levelo_inurba_marseille","lat":43.290353,"lon":5.386447,"is_reserved":false,"is_disabled":false,"rental_uris":{"android":"levelo://app?vid=5ad01da5-8b6e-451c-96ee-324bb1f20701","ios":"levelo://app?vid=5ad01da5-8b6e-451c-96ee-324bb1f20701"},"vehicle_type_id":"4","last_reported":1752693049,"current_range_meters":12400,"station_id":"ce4bh4p2rcd13ifvqe0g","pricing_plan_id":"cebpf4jnsgd1na2vs0mg"},{"bike_id":"38b19586-0e49-4d38-bdec-6f6b0c5cd1fe","system_id":"levelo_inurba_marseille","lat":43.29631,"lon":5.40592,"is_reserved":false,"is_disabled":false,"rental_uris":{"android":"levelo://app?vid=38b19586-0e49-4d38-bdec-6f6b0c5cd1fe","ios":"levelo://app?vid=38b19586-0e49-4d38-bdec-6f6b0c5cd1fe"},"vehicle_type_id":"4","last_reported":1752693049,"current_range_meters":12400,"station_id":"ce4bh0h2rcd13ifvqd60","pricing_plan_id":"cebpf4jnsgd1na2vs0mg"},{"bike_id":"557a352a-658c-4b7e-afa9-2e6600a2d9f9","system_id":"levelo_inurba_marseille","lat":43.28709,"lon":5.37384,"is_reserved":false,"is_disabled":false,"rental_uris":{"android":"levelo://app?vid=557a352a-658c-4b7e-afa9-2e6600a2d9f9","ios":"levelo://app?vid=557a352a-658c-4b7e-afa9-2e6600a2d9f9"},"vehicle_type_id":"4","last_reported":1752693049,"current_range_meters":12400,"station_id":"ce4bh3p2rcd13ifvqdq0","pricing_plan_id":"cebpf4jnsgd1na2vs0mg"},{"bike_id":"b0f534da-8e66-4152-b967-e328e4be2d91","system_id":"levelo_inurba_marseille","lat":43.28961,"lon":5.38376,"is_reserved":false,"is_disabled":false,"rental_uris":{"android":"levelo://app?vid=b0f534da-8e66-4152-b967-e328e4be2d91","ios":"levelo://app?vid=b0f534da-8e66-4152-b967-e328e4be2d91"},"vehicle_type_id":"4","last_reported":1752693049,"current_range_meters":12800,"station_id":"ce4bh612rcd13ifvqe6g","pricing_plan_id":"cebpf4jnsgd1na2vs0mg"},{"bike_id":"22b1649b-0264-465b-88a7-f73c32c713f0","system_id":"levelo_inurba_marseille","lat":43.283728,"lon":5.418528,"is_reserved":false,"is_disabled":false,"rental_uris":{"android":"levelo://app?vid=22b1649b-0264-465b-88a7-f73c32c713f0","ios":"levelo://app?vid=22b1649b-0264-465b-88a7-f73c32c713f0"},"vehicle_type_id":"4","last_reported":1752693049,"current_range_meters":12800,"station_id":"","pricing_plan_id":"cebpf4jnsgd1na2vs0mg"},{"bike_id":"21b948e7-b696-4860-bf03-3e616f524c72","system_id":"levelo_inurba_marseille","lat":43.2958,"lon":5.36733,"is_reserved":false,"is_disabled":false,"rental_uris":{"android":"levelo://app?vid=21b948e7-b696-4860-bf03-3e616f524c72","ios":"levelo://app?vid=21b948e7-b696-4860-bf03-3e616f524c72"},"vehicle_type_id":"4","last_reported":1752693049,"current_range_meters":12400,"station_id":"ce4bgph2rcd13ifvqc2g","pricing_plan_id":"cebpf4jnsgd1na2vs0mg"},{"bike_id":"0d0cb779-f04d-49a3-b24e-b494e6617955","system_id":"levelo_inurba_marseille","lat":43.31684,"lon":5.40458,"is_reserved":false,"is_disabled":false,"rental_uris":{"android":"levelo://app?vid=0d0cb779-f04d-49a3-b24e-b494e6617955","ios":"levelo://app?vid=0d0cb779-f04d-49a3-b24e-b494e6617955"},"vehicle_type_id":"4","last_reported":1752693049,"current_range_meters":12800,"station_id":"ce4bh012rcd13ifvqd00","pricing_plan_id":"cebpf4jnsgd1na2vs0mg"},{"bike_id":"61a9e916-b95f-4f2c-8dca-c5b11be80287","system_id":"levelo_inurba_marseille","lat":43.29224,"lon":5.36039,"is_reserved":false,"is_disabled":true,"rental_uris":{"android":"levelo://app?vid=61a9e916-b95f-4f2c-8dca-c5b11be80287","ios":"levelo://app?vid=61a9e916-b95f-4f2c-8dca-c5b11be80287"},"vehicle_type_id":"4","last_reported":1752693049,"current_range_meters":12800,"station_id":"ce4bhbh2rcd13ifvqeqg","pricing_plan_id":"cebpf4jnsgd1na2vs0mg"},{"bike_id":"fd2fff76-fffe-429f-b576-2c09de1840f6","system_id":"levelo_inurba_marseille","lat":43.29263,"lon":5.38436,"is_reserved":false,"is_disabled":false,"rental_uris":{"android":"levelo://app?vid=fd2fff76-fffe-429f-b576-2c09de1840f6","ios":"levelo://app?vid=fd2fff76-fffe-429f-b576-2c09de1840f6"},"vehicle_type_id":"4","last_reported":1752693049,"current_range_meters":12800,"station_id":"ce4bh692rcd13ifvqea0","pricing_plan_id":"cebpf4jnsgd1na2vs0mg"},{"bike_id":"9cc9d874-91b9-452d-a93e-b79cf1730931","system_id":"levelo_inurba_marseille","lat":43.29846,"lon":5.36282,"is_reserved":false,"is_disabled":false,"rental_uris":{"android":"levelo://app?vid=9cc9d874-91b9-452d-a93e-b79cf1730931","ios":"levelo://app?vid=9cc9d874-91b9-452d-a93e-b79cf1730931"},"vehicle_type_id":"4","last_reported":1752693049,"current_range_meters":12800,"station_id":"ce4bgpp2rcd13ifvqc3g","pricing_plan_id":"cebpf4jnsgd1na2vs0mg"},{"bike_id":"66b1e9d1-55dc-4cf7-8f3f-a84eeafa3893","system_id":"levelo_inurba_marseille","lat":43.29004,"lon":5.35618,"is_reserved":false,"is_disabled":false,"rental_uris":{"android":"levelo://app?vid=66b1e9d1-55dc-4cf7-8f3f-a84eeafa3893","ios":"levelo://app?vid=66b1e9d1-55dc-4cf7-8f3f-a84eeafa3893"},"vehicle_type_id":"4","last_reported":1752693049,"current_range_meters":12800,"station_id":"ce4bhb92rcd13ifvqen0","pricing_plan_id":"cebpf4jnsgd1na2vs0mg"},{"bike_id":"2f7d48dc-a90b-412a-ab40-15bfc7de2d41","system_id":"levelo_inurba_marseille","lat":43.284233,"lon":5.349879,"is_reserved":false,"is_disabled":false,"rental_uris":{"android":"levelo://app?vid=2f7d48dc-a90b-412a-ab40-15bfc7de2d41","ios":"levelo://app?vid=2f7d48dc-a90b-412a-ab40-15bfc7de2d41"},"vehicle_type_id":"4","last_reported":1752693049,"current_range_meters":13600,"station_id":"ce4bhbh2rcd13ifvqepg","pricing_plan_id":"cebpf4jnsgd1na2vs0mg"},{"bike_id":"1011ae38-03aa-48fd-b06c-8e2a1b4ffeaa","system_id":"levelo_inurba_marseille","lat":43.30794,"lon":5.37647,"is_reserved":false,"is_disabled":false,"rental_uris":{"android":"levelo://app?vid=1011ae38-03aa-48fd-b06c-8e2a1b4ffeaa","ios":"levelo://app?vid=1011ae38-03aa-48fd-b06c-8e2a1b4ffeaa"},"vehicle_type_id":"4","last_reported":1752693049,"current_range_meters":12800,"station_id":"ce4bgv92rcd13ifvqcq0","pricing_plan_id":"cebpf4jnsgd1na2vs0mg"},{"bike_id":"1915dd37-e2af-4c97-8c71-2c4aca1283fa","system_id":"levelo_inurba_marseille","lat":43.29263,"lon":5.38438,"is_reserved":false,"is_disabled":false,"rental_uris":{"android":"levelo://app?vid=1915dd37-e2af-4c97-8c71-2c4aca1283fa","ios":"levelo://app?vid=1915dd37-e2af-4c97-8c71-2c4aca1283fa"},"vehicle_type_id":"4","last_reported":1752693049,"current_range_meters":13600,"station_id":"ce4bh692rcd13ifvqea0","pricing_plan_id":"cebpf4jnsgd1na2vs0mg"},{"bike_id":"f5817eae-0567-4a50-9665-23663a2ae4f8","system_id":"levelo_inurba_marseille","lat":43.28429,"lon":5.35011,"is_reserved":false,"is_disabled":false,"rental_uris":{"android":"levelo://app?vid=f5817eae-0567-4a50-9665-23663a2ae4f8","ios":"levelo://app?vid=f5817eae-0567-4a50-9665-23663a2ae4f8"},"vehicle_type_id":"4","last_reported":1752693049,"current_range_meters":13600,"station_id":"ce4bhbh2rcd13ifvqepg","pricing_plan_id":"cebpf4jnsgd1na2vs0mg"},{"bike_id":"2979d731-9333-4af5-a963-386268404255","system_id":"levelo_inurba_marseille","lat":43.22932,"lon":5.353632,"is_reserved":false,"is_disabled":false,"rental_uris":{"android":"levelo://app?vid=2979d731-9333-4af5-a963-386268404255","ios":"levelo://app?vid=2979d731-9333-4af5-a963-386268404255"},"vehicle_type_id":"4","last_reported":1752693049,"current_range_meters":13600,"station_id":"cpo3532slgdg3j2ikp40","pricing_plan_id":"cebpf4jnsgd1na2vs0mg"},{"bike_id":"a43c9672-69a3-48ba-9e63-cd56b312a7e1","system_id":"levelo_inurba_marseille","lat":43.26026,"lon":5.37551,"is_reserved":false,"is_disabled":false,"rental_uris":{"android":"levelo://app?vid=a43c9672-69a3-48ba-9e63-cd56b312a7e1","ios":"levelo://app?vid=a43c9672-69a3-48ba-9e63-cd56b312a7e1"},"vehicle_type_id":"4","last_reported":1752693049,"current_range_meters":13600,"station_id":"ce4bhgh2rcd13ifvqfa0","pricing_plan_id":"cebpf4jnsgd1na2vs0mg"},{"bike_id":"63b68163-23ff-4509-a7ff-da745c70a782","system_id":"levelo_inurba_marseille","lat":43.295232,"lon":5.394075,"is_reserved":false,"is_disabled":false,"rental_uris":{"android":"levelo://app?vid=63b68163-23ff-4509-a7ff-da745c70a782","ios":"levelo://app?vid=63b68163-23ff-4509-a7ff-da745c70a782"},"vehicle_type_id":"4","last_reported":1752693049,"current_range_meters":13600,"station_id":"","pricing_plan_id":"cebpf4jnsgd1na2vs0mg"},{"bike_id":"b27b4c8c-f654-418a-88bf-7c1afbf8f2d8","system_id":"levelo_inurba_marseille","lat":43.27055,"lon":5.40272,"is_reserved":false,"is_disabled":false,"rental_uris":{"android":"levelo://app?vid=b27b4c8c-f654-418a-88bf-7c1afbf8f2d8","ios":"levelo://app?vid=b27b4c8c-f654-418a-88bf-7c1afbf8f2d8"},"vehicle_type_id":"4","last_reported":1752693049,"current_range_meters":13600,"station_id":"ce4bhk92rcd13ifvqgc0","pricing_plan_id":"cebpf4jnsgd1na2vs0mg"},{"bike_id":"766de559-a81a-4d42-bcc4-30791327515d","system_id":"levelo_inurba_marseille","lat":43.2894,"lon":5.36637,"is_reserved":false,"is_disabled":false,"rental_uris":{"android":"levelo://app?vid=766de559-a81a-4d42-bcc4-30791327515d","ios":"levelo://app?vid=766de559-a81a-4d42-bcc4-30791327515d"},"vehicle_type_id":"4","last_reported":1752693049,"current_range_meters":11600,"station_id":"ce4bhap2rcd13ifvqek0","pricing_plan_id":"cebpf4jnsgd1na2vs0mg"},{"bike_id":"941f5e0c-adb3-4b4e-bcb7-3588acd87787","system_id":"levelo_inurba_marseille","lat":43.30142,"lon":5.38782,"is_reserved":false,"is_disabled":true,"rental_uris":{"android":"levelo://app?vid=941f5e0c-adb3-4b4e-bcb7-3588acd87787","ios":"levelo://app?vid=941f5e0c-adb3-4b4e-bcb7-3588acd87787"},"vehicle_type_id":"4","last_reported":1752693049,"current_range_meters":14000,"station_id":"ce4bghh2rcd13ifvqb60","pricing_plan_id":"cebpf4jnsgd1na2vs0mg"},{"bike_id":"0f469724-d119-44bc-9285-a4ce7be567ee","system_id":"levelo_inurba_marseille","lat":43.29598,"lon":5.36735,"is_reserved":false,"is_disabled":false,"rental_uris":{"android":"levelo://app?vid=0f469724-d119-44bc-9285-a4ce7be567ee","ios":"levelo://app?vid=0f469724-d119-44bc-9285-a4ce7be567ee"},"vehicle_type_id":"4","last_reported":1752693049,"current_range_meters":14000,"station_id":"ce4bgph2rcd13ifvqc2g","pricing_plan_id":"cebpf4jnsgd1na2vs0mg"},{"bike_id":"d9cac6a6-f876-47d2-8111-1305781d7a00","system_id":"levelo_inurba_marseille","lat":43.26215,"lon":5.37439,"is_reserved":false,"is_disabled":false,"rental_uris":{"android":"levelo://app?vid=d9cac6a6-f876-47d2-8111-1305781d7a00","ios":"levelo://app?vid=d9cac6a6-f876-47d2-8111-1305781d7a00"},"vehicle_type_id":"4","last_reported":1752693049,"current_range_meters":14000,"station_id":"ce4bhgp2rcd13ifvqfc0","pricing_plan_id":"cebpf4jnsgd1na2vs0mg"},{"bike_id":"b0b6f871-43c2-4485-859c-625ac9b57112","system_id":"levelo_inurba_marseille","lat":43.29034,"lon":5.38636,"is_reserved":false,"is_disabled":false,"rental_uris":{"android":"levelo://app?vid=b0b6f871-43c2-4485-859c-625ac9b57112","ios":"levelo://app?vid=b0b6f871-43c2-4485-859c-625ac9b57112"},"vehicle_type_id":"4","last_reported":1752693049,"current_range_meters":14000,"station_id":"ce4bh4p2rcd13ifvqe0g","pricing_plan_id":"cebpf4jnsgd1na2vs0mg"},{"bike_id":"f4d50b9f-67c5-4a4e-82cd-5fb34bc9ddef","system_id":"levelo_inurba_marseille","lat":43.25443,"lon":5.38226,"is_reserved":false,"is_disabled":false,"rental_uris":{"android":"levelo://app?vid=f4d50b9f-67c5-4a4e-82cd-5fb34bc9ddef","ios":"levelo://app?vid=f4d50b9f-67c5-4a4e-82cd-5fb34bc9ddef"},"vehicle_type_id":"4","last_reported":1752693049,"current_range_meters":14000,"station_id":"","pricing_plan_id":"cebpf4jnsgd1na2vs0mg"},{"bike_id":"32d1218f-165c-441f-ad46-a226bdc8e1de","system_id":"levelo_inurba_marseille","lat":43.28604,"lon":5.35089,"is_reserved":false,"is_disabled":false,"rental_uris":{"android":"levelo://app?vid=32d1218f-165c-441f-ad46-a226bdc8e1de","ios":"levelo://app?vid=32d1218f-165c-441f-ad46-a226bdc8e1de"},"vehicle_type_id":"4","last_reported":1752693049,"current_range_meters":14000,"station_id":"ce4bhch2rcd13ifvqeug","pricing_plan_id":"cebpf4jnsgd1na2vs0mg"},{"bike_id":"bb91fdfd-e2e6-4861-a682-9985a5c5d97b","system_id":"levelo_inurba_marseille","lat":43.23196,"lon":5.39966,"is_reserved":false,"is_disabled":false,"rental_uris":{"android":"levelo://app?vid=bb91fdfd-e2e6-4861-a682-9985a5c5d97b","ios":"levelo://app?vid=bb91fdfd-e2e6-4861-a682-9985a5c5d97b"},"vehicle_type_id":"4","last_reported":1752693049,"current_range_meters":14000,"station_id":"ce4bhn12rcd13ifvqgqg","pricing_plan_id":"cebpf4jnsgd1na2vs0mg"},{"bike_id":"9eaf072e-fd31-4296-8388-8574f90d4c98","system_id":"levelo_inurba_marseille","lat":43.28608,"lon":5.37067,"is_reserved":false,"is_disabled":false,"rental_uris":{"android":"levelo://app?vid=9eaf072e-fd31-4296-8388-8574f90d4c98","ios":"levelo://app?vid=9eaf072e-fd31-4296-8388-8574f90d4c98"},"vehicle_type_id":"4","last_reported":1752693049,"current_range_meters":14000,"station_id":"ce4bht12rcd13ifvqi60","pricing_plan_id":"cebpf4jnsgd1na2vs0mg"},{"bike_id":"8eeeb77c-8234-4556-b507-da0594d01e95","system_id":"levelo_inurba_marseille","lat":43.22504,"lon":5.34776,"is_reserved":false,"is_disabled":false,"rental_uris":{"android":"levelo://app?vid=8eeeb77c-8234-4556-b507-da0594d01e95","ios":"levelo://app?vid=8eeeb77c-8234-4556-b507-da0594d01e95"},"vehicle_type_id":"4","last_reported":1752693049,"current_range_meters":14000,"station_id":"st_cvj5dfep6f1abm77gieg","pricing_plan_id":"cebpf4jnsgd1na2vs0mg"},{"bike_id":"7dee92bf-5b07-4927-aa41-9e9493644eeb","system_id":"levelo_inurba_marseille","lat":43.21188,"lon":5.35023,"is_reserved":false,"is_disabled":false,"rental_uris":{"android":"levelo://app?vid=7dee92bf-5b07-4927-aa41-9e9493644eeb","ios":"levelo://app?vid=7dee92bf-5b07-4927-aa41-9e9493644eeb"},"vehicle_type_id":"4","last_reported":1752693049,"current_range_meters":14000,"station_id":"","pricing_plan_id":"cebpf4jnsgd1na2vs0mg"},{"bike_id":"6a0a4851-b1ed-4849-a17c-d97bdaa8dd01","system_id":"levelo_inurba_marseille","lat":43.308,"lon":5.38164,"is_reserved":false,"is_disabled":false,"rental_uris":{"android":"levelo://app?vid=6a0a4851-b1ed-4849-a17c-d97bdaa8dd01","ios":"levelo://app?vid=6a0a4851-b1ed-4849-a17c-d97bdaa8dd01"},"vehicle_type_id":"4","last_reported":1752693049,"current_range_meters":14400,"station_id":"ce4bgt12rcd13ifvqce0","pricing_plan_id":"cebpf4jnsgd1na2vs0mg"},{"bike_id":"fec9ee64-026c-46c6-a4c8-c66ae693a529","system_id":"levelo_inurba_marseille","lat":43.29308,"lon":5.3718,"is_reserved":false,"is_disabled":true,"rental_uris":{"android":"levelo://app?vid=fec9ee64-026c-46c6-a4c8-c66ae693a529","ios":"levelo://app?vid=fec9ee64-026c-46c6-a4c8-c66ae693a529"},"vehicle_type_id":"4","last_reported":1752693049,"current_range_meters":14400,"station_id":"ce4bgh92rcd13ifvqb40","pricing_plan_id":"cebpf4jnsgd1na2vs0mg"},{"bike_id":"b83ebe5b-715a-4e73-9e79-7020d08643a0","system_id":"levelo_inurba_marseille","lat":43.29604,"lon":5.37697,"is_reserved":false,"is_disabled":true,"rental_uris":{"android":"levelo://app?vid=b83ebe5b-715a-4e73-9e79-7020d08643a0","ios":"levelo://app?vid=b83ebe5b-715a-4e73-9e79-7020d08643a0"},"vehicle_type_id":"4","last_reported":1752693049,"current_range_meters":14800,"station_id":"ce4bgi92rcd13ifvqb90","pricing_plan_id":"cebpf4jnsgd1na2vs0mg"},{"bike_id":"64075157-5fa9-4af6-9683-e9c2c410a07e","system_id":"levelo_inurba_marseille","lat":43.28611,"lon":5.35111,"is_reserved":false,"is_disabled":false,"rental_uris":{"android":"levelo://app?vid=64075157-5fa9-4af6-9683-e9c2c410a07e","ios":"levelo://app?vid=64075157-5fa9-4af6-9683-e9c2c410a07e"},"vehicle_type_id":"4","last_reported":1752693049,"current_range_meters":14800,"station_id":"ce4bhch2rcd13ifvqeug","pricing_plan_id":"cebpf4jnsgd1na2vs0mg"},{"bike_id":"fbf1be62-5469-4c3b-9397-dc3b9d201809","system_id":"levelo_inurba_marseille","lat":43.30797,"lon":5.3816,"is_reserved":false,"is_disabled":false,"rental_uris":{"android":"levelo://app?vid=fbf1be62-5469-4c3b-9397-dc3b9d201809","ios":"levelo://app?vid=fbf1be62-5469-4c3b-9397-dc3b9d201809"},"vehicle_type_id":"4","last_reported":1752693049,"current_range_meters":15200,"station_id":"","pricing_plan_id":"cebpf4jnsgd1na2vs0mg"},{"bike_id":"7aa4f608-4b77-4e32-88b0-fc5ccdecdfa7","system_id":"levelo_inurba_marseille","lat":43.29582,"lon":5.36741,"is_reserved":false,"is_disabled":false,"rental_uris":{"android":"levelo://app?vid=7aa4f608-4b77-4e32-88b0-fc5ccdecdfa7","ios":"levelo://app?vid=7aa4f608-4b77-4e32-88b0-fc5ccdecdfa7"},"vehicle_type_id":"4","last_reported":1752693049,"current_range_meters":15200,"station_id":"ce4bgph2rcd13ifvqc2g","pricing_plan_id":"cebpf4jnsgd1na2vs0mg"},{"bike_id":"229a51b8-d35a-46ef-90d9-099d3d4f556b","system_id":"levelo_inurba_marseille","lat":43.29419,"lon":5.3861,"is_reserved":false,"is_disabled":true,"rental_uris":{"android":"levelo://app?vid=229a51b8-d35a-46ef-90d9-099d3d4f556b","ios":"levelo://app?vid=229a51b8-d35a-46ef-90d9-099d3d4f556b"},"vehicle_type_id":"4","last_reported":1752693049,"current_range_meters":15200,"station_id":"ce4bh2h2rcd13ifvqdh0","pricing_plan_id":"cebpf4jnsgd1na2vs0mg"},{"bike_id":"47e84c87-4631-48fa-8064-ac43c2313bba","system_id":"levelo_inurba_marseille","lat":43.29326,"lon":5.37205,"is_reserved":false,"is_disabled":true,"rental_uris":{"android":"levelo://app?vid=47e84c87-4631-48fa-8064-ac43c2313bba","ios":"levelo://app?vid=47e84c87-4631-48fa-8064-ac43c2313bba"},"vehicle_type_id":"4","last_reported":1752693049,"current_range_meters":15200,"station_id":"ce4bgh92rcd13ifvqb40","pricing_plan_id":"cebpf4jnsgd1na2vs0mg"},{"bike_id":"6e07a895-a3f6-496f-a8b9-b694cdeb0b48","system_id":"levelo_inurba_marseille","lat":43.2961,"lon":5.37722,"is_reserved":false,"is_disabled":false,"rental_uris":{"android":"levelo://app?vid=6e07a895-a3f6-496f-a8b9-b694cdeb0b48","ios":"levelo://app?vid=6e07a895-a3f6-496f-a8b9-b694cdeb0b48"},"vehicle_type_id":"4","last_reported":1752693049,"current_range_meters":15200,"station_id":"ce4bgi92rcd13ifvqb90","pricing_plan_id":"cebpf4jnsgd1na2vs0mg"},{"bike_id":"011b79d6-fd4e-4a43-b39a-554909c6320d","system_id":"levelo_inurba_marseille","lat":43.29257,"lon":5.38433,"is_reserved":false,"is_disabled":false,"rental_uris":{"android":"levelo://app?vid=011b79d6-fd4e-4a43-b39a-554909c6320d","ios":"levelo://app?vid=011b79d6-fd4e-4a43-b39a-554909c6320d"},"vehicle_type_id":"4","last_reported":1752693049,"current_range_meters":16000,"station_id":"ce4bh692rcd13ifvqea0","pricing_plan_id":"cebpf4jnsgd1na2vs0mg"},{"bike_id":"01f59634-d44d-4c81-8d1e-d125f49bd941","system_id":"levelo_inurba_marseille","lat":43.31326,"lon":5.39683,"is_reserved":false,"is_disabled":false,"rental_uris":{"android":"levelo://app?vid=01f59634-d44d-4c81-8d1e-d125f49bd941","ios":"levelo://app?vid=01f59634-d44d-4c81-8d1e-d125f49bd941"},"vehicle_type_id":"4","last_reported":1752693049,"current_range_meters":15200,"station_id":"ce4bgvp2rcd13ifvqcu0","pricing_plan_id":"cebpf4jnsgd1na2vs0mg"},{"bike_id":"0251491b-c678-423b-bd29-5a5e2bd56df5","system_id":"levelo_inurba_marseille","lat":43.24545,"lon":5.39521,"is_reserved":false,"is_disabled":false,"rental_uris":{"android":"levelo://app?vid=0251491b-c678-423b-bd29-5a5e2bd56df5","ios":"levelo://app?vid=0251491b-c678-423b-bd29-5a5e2bd56df5"},"vehicle_type_id":"4","last_reported":1752693049,"current_range_meters":16000,"station_id":"ce4bhlp2rcd13ifvqgjg","pricing_plan_id":"cebpf4jnsgd1na2vs0mg"},{"bike_id":"57c5cb18-5bd1-4bb2-a03f-cdbd2ebc5642","system_id":"levelo_inurba_marseille","lat":43.28416,"lon":5.34983,"is_reserved":false,"is_disabled":false,"rental_uris":{"android":"levelo://app?vid=57c5cb18-5bd1-4bb2-a03f-cdbd2ebc5642","ios":"levelo://app?vid=57c5cb18-5bd1-4bb2-a03f-cdbd2ebc5642"},"vehicle_type_id":"4","last_reported":1752693049,"current_range_meters":16000,"station_id":"ce4bhbh2rcd13ifvqepg","pricing_plan_id":"cebpf4jnsgd1na2vs0mg"},{"bike_id":"7425af41-f939-4fb5-81a7-e1169ccaa6d8","system_id":"levelo_inurba_marseille","lat":43.24686,"lon":5.38149,"is_reserved":false,"is_disabled":true,"rental_uris":{"android":"levelo://app?vid=7425af41-f939-4fb5-81a7-e1169ccaa6d8","ios":"levelo://app?vid=7425af41-f939-4fb5-81a7-e1169ccaa6d8"},"vehicle_type_id":"4","last_reported":1752693049,"current_range_meters":16000,"station_id":"ce4bhih2rcd13ifvqfr0","pricing_plan_id":"cebpf4jnsgd1na2vs0mg"},{"bike_id":"304c8ed8-ce08-40d1-8073-2fb311ee4530","system_id":"levelo_inurba_marseille","lat":43.30788,"lon":5.37641,"is_reserved":false,"is_disabled":false,"rental_uris":{"android":"levelo://app?vid=304c8ed8-ce08-40d1-8073-2fb311ee4530","ios":"levelo://app?vid=304c8ed8-ce08-40d1-8073-2fb311ee4530"},"vehicle_type_id":"4","last_reported":1752693049,"current_range_meters":16000,"station_id":"ce4bgv92rcd13ifvqcq0","pricing_plan_id":"cebpf4jnsgd1na2vs0mg"},{"bike_id":"f1e9e722-d054-490d-b0eb-fa2dfdb4ffa3","system_id":"levelo_inurba_marseille","lat":43.28614,"lon":5.3509,"is_reserved":false,"is_disabled":false,"rental_uris":{"android":"levelo://app?vid=f1e9e722-d054-490d-b0eb-fa2dfdb4ffa3","ios":"levelo://app?vid=f1e9e722-d054-490d-b0eb-fa2dfdb4ffa3"},"vehicle_type_id":"4","last_reported":1752693049,"current_range_meters":16000,"station_id":"ce4bhch2rcd13ifvqeug","pricing_plan_id":"cebpf4jnsgd1na2vs0mg"},{"bike_id":"2b751b92-c0f8-4447-a98b-dce05636b436","system_id":"levelo_inurba_marseille","lat":43.29531,"lon":5.38551,"is_reserved":false,"is_disabled":false,"rental_uris":{"android":"levelo://app?vid=2b751b92-c0f8-4447-a98b-dce05636b436","ios":"levelo://app?vid=2b751b92-c0f8-4447-a98b-dce05636b436"},"vehicle_type_id":"4","last_reported":1752693049,"current_range_meters":16000,"station_id":"ce4bgih2rcd13ifvqba0","pricing_plan_id":"cebpf4jnsgd1na2vs0mg"},{"bike_id":"9090e647-a713-44ba-b392-5ac73cd154dd","system_id":"levelo_inurba_marseille","lat":43.23075,"lon":5.35477,"is_reserved":false,"is_disabled":false,"rental_uris":{"android":"levelo://app?vid=9090e647-a713-44ba-b392-5ac73cd154dd","ios":"levelo://app?vid=9090e647-a713-44ba-b392-5ac73cd154dd"},"vehicle_type_id":"4","last_reported":1752693049,"current_range_meters":16000,"station_id":"cpo3342slgdg3j2ifvpg","pricing_plan_id":"cebpf4jnsgd1na2vs0mg"},{"bike_id":"5d174ef5-e4ba-4b48-88b0-f45a55d3d9dc","system_id":"levelo_inurba_marseille","lat":43.28696,"lon":5.37383,"is_reserved":false,"is_disabled":false,"rental_uris":{"android":"levelo://app?vid=5d174ef5-e4ba-4b48-88b0-f45a55d3d9dc","ios":"levelo://app?vid=5d174ef5-e4ba-4b48-88b0-f45a55d3d9dc"},"vehicle_type_id":"4","last_reported":1752693049,"current_range_meters":16000,"station_id":"ce4bh3p2rcd13ifvqdq0","pricing_plan_id":"cebpf4jnsgd1na2vs0mg"},{"bike_id":"1f10401f-b7cc-4ad8-b16a-62268da07c88","system_id":"levelo_inurba_marseille","lat":43.21188,"lon":5.3507,"is_reserved":false,"is_disabled":false,"rental_uris":{"android":"levelo://app?vid=1f10401f-b7cc-4ad8-b16a-62268da07c88","ios":"levelo://app?vid=1f10401f-b7cc-4ad8-b16a-62268da07c88"},"vehicle_type_id":"4","last_reported":1752693049,"current_range_meters":16000,"station_id":"st_cvj6sg6p6f1abm77japg","pricing_plan_id":"cebpf4jnsgd1na2vs0mg"},{"bike_id":"285aaa26-07be-4c4a-9be9-3c0873597bc5","system_id":"levelo_inurba_marseille","lat":43.29611,"lon":5.36741,"is_reserved":false,"is_disabled":false,"rental_uris":{"android":"levelo://app?vid=285aaa26-07be-4c4a-9be9-3c0873597bc5","ios":"levelo://app?vid=285aaa26-07be-4c4a-9be9-3c0873597bc5"},"vehicle_type_id":"4","last_reported":1752693049,"current_range_meters":16000,"station_id":"ce4bgph2rcd13ifvqc2g","pricing_plan_id":"cebpf4jnsgd1na2vs0mg"},{"bike_id":"39c6203f-25ee-487c-9399-b36ef495fc6b","system_id":"levelo_inurba_marseille","lat":43.240996,"lon":5.377264,"is_reserved":false,"is_disabled":false,"rental_uris":{"android":"levelo://app?vid=39c6203f-25ee-487c-9399-b36ef495fc6b","ios":"levelo://app?vid=39c6203f-25ee-487c-9399-b36ef495fc6b"},"vehicle_type_id":"4","last_reported":1752693049,"current_range_meters":16000,"station_id":"ce4bhnp2rcd13ifvqgvg","pricing_plan_id":"cebpf4jnsgd1na2vs0mg"},{"bike_id":"3db90f43-2f36-4a4a-b113-754b8a5e5d30","system_id":"levelo_inurba_marseille","lat":43.29262,"lon":5.38438,"is_reserved":false,"is_disabled":false,"rental_uris":{"android":"levelo://app?vid=3db90f43-2f36-4a4a-b113-754b8a5e5d30","ios":"levelo://app?vid=3db90f43-2f36-4a4a-b113-754b8a5e5d30"},"vehicle_type_id":"4","last_reported":1752693049,"current_range_meters":16000,"station_id":"ce4bh692rcd13ifvqea0","pricing_plan_id":"cebpf4jnsgd1na2vs0mg"},{"bike_id":"9c5f4a1a-b323-4daf-9e2f-4408ae6c6b17","system_id":"levelo_inurba_marseille","lat":43.29226,"lon":5.3606,"is_reserved":false,"is_disabled":false,"rental_uris":{"android":"levelo://app?vid=9c5f4a1a-b323-4daf-9e2f-4408ae6c6b17","ios":"levelo://app?vid=9c5f4a1a-b323-4daf-9e2f-4408ae6c6b17"},"vehicle_type_id":"4","last_reported":1752693049,"current_range_meters":16000,"station_id":"ce4bhbh2rcd13ifvqeqg","pricing_plan_id":"cebpf4jnsgd1na2vs0mg"},{"bike_id":"0398468c-6c0f-49fd-b525-08c45b6a4cd9","system_id":"levelo_inurba_marseille","lat":43.22506,"lon":5.34769,"is_reserved":false,"is_disabled":false,"rental_uris":{"android":"levelo://app?vid=0398468c-6c0f-49fd-b525-08c45b6a4cd9","ios":"levelo://app?vid=0398468c-6c0f-49fd-b525-08c45b6a4cd9"},"vehicle_type_id":"4","last_reported":1752693049,"current_range_meters":16400,"station_id":"st_cvj5dfep6f1abm77gieg","pricing_plan_id":"cebpf4jnsgd1na2vs0mg"},{"bike_id":"50e152cf-edc9-4bc9-8232-19cb41a00858","system_id":"levelo_inurba_marseille","lat":43.28415,"lon":5.34999,"is_reserved":false,"is_disabled":false,"rental_uris":{"android":"levelo://app?vid=50e152cf-edc9-4bc9-8232-19cb41a00858","ios":"levelo://app?vid=50e152cf-edc9-4bc9-8232-19cb41a00858"},"vehicle_type_id":"4","last_reported":1752693049,"current_range_meters":16400,"station_id":"ce4bhbh2rcd13ifvqepg","pricing_plan_id":"cebpf4jnsgd1na2vs0mg"},{"bike_id":"aa85db87-45c9-42c8-9f92-c2883729b9fb","system_id":"levelo_inurba_marseille","lat":43.239601,"lon":5.366443,"is_reserved":false,"is_disabled":false,"rental_uris":{"android":"levelo://app?vid=aa85db87-45c9-42c8-9f92-c2883729b9fb","ios":"levelo://app?vid=aa85db87-45c9-42c8-9f92-c2883729b9fb"},"vehicle_type_id":"4","last_reported":1752693049,"current_range_meters":16400,"station_id":"ce4bhi12rcd13ifvqfp0","pricing_plan_id":"cebpf4jnsgd1na2vs0mg"},{"bike_id":"3444bdc6-514a-4ba6-9650-f9073305e33d","system_id":"levelo_inurba_marseille","lat":43.29682,"lon":5.3698,"is_reserved":false,"is_disabled":false,"rental_uris":{"android":"levelo://app?vid=3444bdc6-514a-4ba6-9650-f9073305e33d","ios":"levelo://app?vid=3444bdc6-514a-4ba6-9650-f9073305e33d"},"vehicle_type_id":"4","last_reported":1752693049,"current_range_meters":16400,"station_id":"","pricing_plan_id":"cebpf4jnsgd1na2vs0mg"},{"bike_id":"f9fbac16-b0d2-41ee-a305-6c8a5a8258e8","system_id":"levelo_inurba_marseille","lat":43.29009,"lon":5.3561,"is_reserved":false,"is_disabled":false,"rental_uris":{"android":"levelo://app?vid=f9fbac16-b0d2-41ee-a305-6c8a5a8258e8","ios":"levelo://app?vid=f9fbac16-b0d2-41ee-a305-6c8a5a8258e8"},"vehicle_type_id":"4","last_reported":1752693049,"current_range_meters":16400,"station_id":"ce4bhb92rcd13ifvqen0","pricing_plan_id":"cebpf4jnsgd1na2vs0mg"},{"bike_id":"555bc53e-5286-4fb6-9154-af42b3fd9792","system_id":"levelo_inurba_marseille","lat":43.30068,"lon":5.37273,"is_reserved":false,"is_disabled":false,"rental_uris":{"android":"levelo://app?vid=555bc53e-5286-4fb6-9154-af42b3fd9792","ios":"levelo://app?vid=555bc53e-5286-4fb6-9154-af42b3fd9792"},"vehicle_type_id":"4","last_reported":1752693049,"current_range_meters":16400,"station_id":"","pricing_plan_id":"cebpf4jnsgd1na2vs0mg"},{"bike_id":"761350d9-0dac-46b7-a5f9-176d5ba9b822","system_id":"levelo_inurba_marseille","lat":43.28412,"lon":5.34993,"is_reserved":false,"is_disabled":false,"rental_uris":{"android":"levelo://app?vid=761350d9-0dac-46b7-a5f9-176d5ba9b822","ios":"levelo://app?vid=761350d9-0dac-46b7-a5f9-176d5ba9b822"},"vehicle_type_id":"4","last_reported":1752693049,"current_range_meters":16400,"station_id":"ce4bhbh2rcd13ifvqepg","pricing_plan_id":"cebpf4jnsgd1na2vs0mg"},{"bike_id":"f9a11f17-979a-498d-be16-2241ddf2bc8c","system_id":"levelo_inurba_marseille","lat":43.28624,"lon":5.37031,"is_reserved":false,"is_disabled":false,"rental_uris":{"android":"levelo://app?vid=f9a11f17-979a-498d-be16-2241ddf2bc8c","ios":"levelo://app?vid=f9a11f17-979a-498d-be16-2241ddf2bc8c"},"vehicle_type_id":"4","last_reported":1752693049,"current_range_meters":16400,"station_id":"ce4bht12rcd13ifvqi60","pricing_plan_id":"cebpf4jnsgd1na2vs0mg"},{"bike_id":"23aea49e-3be5-46af-b900-481df4dbf21f","system_id":"levelo_inurba_marseille","lat":43.2921,"lon":5.39335,"is_reserved":false,"is_disabled":false,"rental_uris":{"android":"levelo://app?vid=23aea49e-3be5-46af-b900-481df4dbf21f","ios":"levelo://app?vid=23aea49e-3be5-46af-b900-481df4dbf21f"},"vehicle_type_id":"4","last_reported":1752693049,"current_range_meters":16400,"station_id":"ce4bh192rcd13ifvqdd0","pricing_plan_id":"cebpf4jnsgd1na2vs0mg"},{"bike_id":"243ff24d-c224-4f6c-8766-a9a443123038","system_id":"levelo_inurba_marseille","lat":43.23957,"lon":5.36628,"is_reserved":false,"is_disabled":false,"rental_uris":{"android":"levelo://app?vid=243ff24d-c224-4f6c-8766-a9a443123038","ios":"levelo://app?vid=243ff24d-c224-4f6c-8766-a9a443123038"},"vehicle_type_id":"4","last_reported":1752693049,"current_range_meters":16400,"station_id":"ce4bhi12rcd13ifvqfp0","pricing_plan_id":"cebpf4jnsgd1na2vs0mg"},{"bike_id":"b0913f93-a684-4140-9689-82edfbc4235d","system_id":"levelo_inurba_marseille","lat":43.21181,"lon":5.35072,"is_reserved":false,"is_disabled":false,"rental_uris":{"android":"levelo://app?vid=b0913f93-a684-4140-9689-82edfbc4235d","ios":"levelo://app?vid=b0913f93-a684-4140-9689-82edfbc4235d"},"vehicle_type_id":"4","last_reported":1752693049,"current_range_meters":16800,"station_id":"st_cvj6sg6p6f1abm77japg","pricing_plan_id":"cebpf4jnsgd1na2vs0mg"},{"bike_id":"77462ebb-e03d-4667-ac0c-67071c39c754","system_id":"levelo_inurba_marseille","lat":43.24386,"lon":5.37056,"is_reserved":false,"is_disabled":false,"rental_uris":{"android":"levelo://app?vid=77462ebb-e03d-4667-ac0c-67071c39c754","ios":"levelo://app?vid=77462ebb-e03d-4667-ac0c-67071c39c754"},"vehicle_type_id":"4","last_reported":1752693049,"current_range_meters":16400,"station_id":"ce4bhhh2rcd13ifvqfk0","pricing_plan_id":"cebpf4jnsgd1na2vs0mg"},{"bike_id":"34e62ee5-3131-428c-842a-9ad03de94ba5","system_id":"levelo_inurba_marseille","lat":43.22439,"lon":5.3486,"is_reserved":false,"is_disabled":false,"rental_uris":{"android":"levelo://app?vid=34e62ee5-3131-428c-842a-9ad03de94ba5","ios":"levelo://app?vid=34e62ee5-3131-428c-842a-9ad03de94ba5"},"vehicle_type_id":"4","last_reported":1752693049,"current_range_meters":16800,"station_id":"","pricing_plan_id":"cebpf4jnsgd1na2vs0mg"},{"bike_id":"c5a36724-d437-41b9-be67-b25afef6e1ee","system_id":"levelo_inurba_marseille","lat":43.29619,"lon":5.37728,"is_reserved":false,"is_disabled":false,"rental_uris":{"android":"levelo://app?vid=c5a36724-d437-41b9-be67-b25afef6e1ee","ios":"levelo://app?vid=c5a36724-d437-41b9-be67-b25afef6e1ee"},"vehicle_type_id":"4","last_reported":1752693049,"current_range_meters":16800,"station_id":"","pricing_plan_id":"cebpf4jnsgd1na2vs0mg"},{"bike_id":"bcde9883-e98f-4a92-909e-e5fd6f77c809","system_id":"levelo_inurba_marseille","lat":43.29901,"lon":5.4365,"is_reserved":false,"is_disabled":false,"rental_uris":{"android":"levelo://app?vid=bcde9883-e98f-4a92-909e-e5fd6f77c809","ios":"levelo://app?vid=bcde9883-e98f-4a92-909e-e5fd6f77c809"},"vehicle_type_id":"4","last_reported":1752693049,"current_range_meters":16800,"station_id":"ce4bhpp2rcd13ifvqhfg","pricing_plan_id":"cebpf4jnsgd1na2vs0mg"},{"bike_id":"82fa503f-4857-4cca-857e-f1e1791bacf4","system_id":"levelo_inurba_marseille","lat":43.2985,"lon":5.36287,"is_reserved":false,"is_disabled":false,"rental_uris":{"android":"levelo://app?vid=82fa503f-4857-4cca-857e-f1e1791bacf4","ios":"levelo://app?vid=82fa503f-4857-4cca-857e-f1e1791bacf4"},"vehicle_type_id":"4","last_reported":1752693049,"current_range_meters":16800,"station_id":"ce4bgpp2rcd13ifvqc3g","pricing_plan_id":"cebpf4jnsgd1na2vs0mg"},{"bike_id":"8acdf02c-787e-4a1e-956a-5c94a3dff06a","system_id":"levelo_inurba_marseille","lat":43.28499,"lon":5.40612,"is_reserved":false,"is_disabled":false,"rental_uris":{"android":"levelo://app?vid=8acdf02c-787e-4a1e-956a-5c94a3dff06a","ios":"levelo://app?vid=8acdf02c-787e-4a1e-956a-5c94a3dff06a"},"vehicle_type_id":"4","last_reported":1752693049,"current_range_meters":16800,"station_id":"","pricing_plan_id":"cebpf4jnsgd1na2vs0mg"},{"bike_id":"25525a05-d0a2-4bc7-a84e-7f7cc9489ae6","system_id":"levelo_inurba_marseille","lat":43.29003,"lon":5.35611,"is_reserved":false,"is_disabled":false,"rental_uris":{"android":"levelo://app?vid=25525a05-d0a2-4bc7-a84e-7f7cc9489ae6","ios":"levelo://app?vid=25525a05-d0a2-4bc7-a84e-7f7cc9489ae6"},"vehicle_type_id":"4","last_reported":1752693049,"current_range_meters":16800,"station_id":"ce4bhb92rcd13ifvqen0","pricing_plan_id":"cebpf4jnsgd1na2vs0mg"},{"bike_id":"cde34f09-c0fd-42cd-818c-167e586dec6a","system_id":"levelo_inurba_marseille","lat":43.25493,"lon":5.37649,"is_reserved":false,"is_disabled":false,"rental_uris":{"android":"levelo://app?vid=cde34f09-c0fd-42cd-818c-167e586dec6a","ios":"levelo://app?vid=cde34f09-c0fd-42cd-818c-167e586dec6a"},"vehicle_type_id":"4","last_reported":1752693049,"current_range_meters":16800,"station_id":"ce4bhh12rcd13ifvqff0","pricing_plan_id":"cebpf4jnsgd1na2vs0mg"},{"bike_id":"b6ab01fd-a838-4fd6-9390-ef4016410ef6","system_id":"levelo_inurba_marseille","lat":43.2861,"lon":5.35098,"is_reserved":false,"is_disabled":false,"rental_uris":{"android":"levelo://app?vid=b6ab01fd-a838-4fd6-9390-ef4016410ef6","ios":"levelo://app?vid=b6ab01fd-a838-4fd6-9390-ef4016410ef6"},"vehicle_type_id":"4","last_reported":1752693049,"current_range_meters":16800,"station_id":"ce4bhch2rcd13ifvqeug","pricing_plan_id":"cebpf4jnsgd1na2vs0mg"},{"bike_id":"07f5ae19-0925-43ef-aab4-48ec58bc62b9","system_id":"levelo_inurba_marseille","lat":43.314522,"lon":5.374392,"is_reserved":false,"is_disabled":false,"rental_uris":{"android":"levelo://app?vid=07f5ae19-0925-43ef-aab4-48ec58bc62b9","ios":"levelo://app?vid=07f5ae19-0925-43ef-aab4-48ec58bc62b9"},"vehicle_type_id":"4","last_reported":1752693049,"current_range_meters":16800,"station_id":"","pricing_plan_id":"cebpf4jnsgd1na2vs0mg"},{"bike_id":"8417ad62-2136-4647-b89c-f46e0aabae59","system_id":"levelo_inurba_marseille","lat":43.229296,"lon":5.353674,"is_reserved":false,"is_disabled":false,"rental_uris":{"android":"levelo://app?vid=8417ad62-2136-4647-b89c-f46e0aabae59","ios":"levelo://app?vid=8417ad62-2136-4647-b89c-f46e0aabae59"},"vehicle_type_id":"4","last_reported":1752693049,"current_range_meters":16800,"station_id":"cpo3532slgdg3j2ikp40","pricing_plan_id":"cebpf4jnsgd1na2vs0mg"},{"bike_id":"9b0e0565-c7cb-4555-868f-b9f4018ee021","system_id":"levelo_inurba_marseille","lat":43.272309,"lon":5.390888,"is_reserved":false,"is_disabled":false,"rental_uris":{"android":"levelo://app?vid=9b0e0565-c7cb-4555-868f-b9f4018ee021","ios":"levelo://app?vid=9b0e0565-c7cb-4555-868f-b9f4018ee021"},"vehicle_type_id":"4","last_reported":1752693049,"current_range_meters":16400,"station_id":"ce4bhhp2rcd13ifvqfm0","pricing_plan_id":"cebpf4jnsgd1na2vs0mg"},{"bike_id":"f3e9f469-c1be-42be-b3cc-289a007dc381","system_id":"levelo_inurba_marseille","lat":43.29075,"lon":5.37153,"is_reserved":false,"is_disabled":false,"rental_uris":{"android":"levelo://app?vid=f3e9f469-c1be-42be-b3cc-289a007dc381","ios":"levelo://app?vid=f3e9f469-c1be-42be-b3cc-289a007dc381"},"vehicle_type_id":"4","last_reported":1752693049,"current_range_meters":17200,"station_id":"ce4bh5p2rcd13ifvqe4g","pricing_plan_id":"cebpf4jnsgd1na2vs0mg"},{"bike_id":"46270db4-21bc-4a8e-907f-6963856f4406","system_id":"levelo_inurba_marseille","lat":43.29004,"lon":5.35592,"is_reserved":false,"is_disabled":false,"rental_uris":{"android":"levelo://app?vid=46270db4-21bc-4a8e-907f-6963856f4406","ios":"levelo://app?vid=46270db4-21bc-4a8e-907f-6963856f4406"},"vehicle_type_id":"4","last_reported":1752693049,"current_range_meters":17200,"station_id":"ce4bhb92rcd13ifvqen0","pricing_plan_id":"cebpf4jnsgd1na2vs0mg"},{"bike_id":"cc80135b-c46e-4c24-800a-d5f7fc903ea8","system_id":"levelo_inurba_marseille","lat":43.24803,"lon":5.37454,"is_reserved":false,"is_disabled":false,"rental_uris":{"android":"levelo://app?vid=cc80135b-c46e-4c24-800a-d5f7fc903ea8","ios":"levelo://app?vid=cc80135b-c46e-4c24-800a-d5f7fc903ea8"},"vehicle_type_id":"4","last_reported":1752693049,"current_range_meters":17200,"station_id":"ce4bhgh2rcd13ifvqfb0","pricing_plan_id":"cebpf4jnsgd1na2vs0mg"},{"bike_id":"ff5c8968-3975-479f-9d7b-125d882ea4b6","system_id":"levelo_inurba_marseille","lat":43.284241,"lon":5.349882,"is_reserved":false,"is_disabled":false,"rental_uris":{"android":"levelo://app?vid=ff5c8968-3975-479f-9d7b-125d882ea4b6","ios":"levelo://app?vid=ff5c8968-3975-479f-9d7b-125d882ea4b6"},"vehicle_type_id":"4","last_reported":1752693049,"current_range_meters":17200,"station_id":"ce4bhbh2rcd13ifvqepg","pricing_plan_id":"cebpf4jnsgd1na2vs0mg"},{"bike_id":"0113d280-522b-4679-bde9-135a6a8591f2","system_id":"levelo_inurba_marseille","lat":43.21195,"lon":5.35073,"is_reserved":false,"is_disabled":false,"rental_uris":{"android":"levelo://app?vid=0113d280-522b-4679-bde9-135a6a8591f2","ios":"levelo://app?vid=0113d280-522b-4679-bde9-135a6a8591f2"},"vehicle_type_id":"4","last_reported":1752693049,"current_range_meters":17200,"station_id":"st_cvj6sg6p6f1abm77japg","pricing_plan_id":"cebpf4jnsgd1na2vs0mg"},{"bike_id":"efe730ed-69e6-4510-877b-ba1387e45e2c","system_id":"levelo_inurba_marseille","lat":43.23192,"lon":5.39998,"is_reserved":false,"is_disabled":false,"rental_uris":{"android":"levelo://app?vid=efe730ed-69e6-4510-877b-ba1387e45e2c","ios":"levelo://app?vid=efe730ed-69e6-4510-877b-ba1387e45e2c"},"vehicle_type_id":"4","last_reported":1752693049,"current_range_meters":17200,"station_id":"ce4bhn12rcd13ifvqgqg","pricing_plan_id":"cebpf4jnsgd1na2vs0mg"},{"bike_id":"c6f6cecd-a5ed-4c82-b5ff-1ec11b2102d0","system_id":"levelo_inurba_marseille","lat":43.29072,"lon":5.37183,"is_reserved":false,"is_disabled":false,"rental_uris":{"android":"levelo://app?vid=c6f6cecd-a5ed-4c82-b5ff-1ec11b2102d0","ios":"levelo://app?vid=c6f6cecd-a5ed-4c82-b5ff-1ec11b2102d0"},"vehicle_type_id":"4","last_reported":1752693049,"current_range_meters":16800,"station_id":"ce4bh5p2rcd13ifvqe4g","pricing_plan_id":"cebpf4jnsgd1na2vs0mg"},{"bike_id":"020a6318-bf2f-4f7c-9c38-616db0f191fe","system_id":"levelo_inurba_marseille","lat":43.30217,"lon":5.39455,"is_reserved":false,"is_disabled":false,"rental_uris":{"android":"levelo://app?vid=020a6318-bf2f-4f7c-9c38-616db0f191fe","ios":"levelo://app?vid=020a6318-bf2f-4f7c-9c38-616db0f191fe"},"vehicle_type_id":"4","last_reported":1752693049,"current_range_meters":16400,"station_id":"ce4bh0p2rcd13ifvqd70","pricing_plan_id":"cebpf4jnsgd1na2vs0mg"},{"bike_id":"e5a78094-df82-41b7-bdd9-e204ce06c68d","system_id":"levelo_inurba_marseille","lat":43.2862,"lon":5.35105,"is_reserved":false,"is_disabled":false,"rental_uris":{"android":"levelo://app?vid=e5a78094-df82-41b7-bdd9-e204ce06c68d","ios":"levelo://app?vid=e5a78094-df82-41b7-bdd9-e204ce06c68d"},"vehicle_type_id":"4","last_reported":1752693049,"current_range_meters":17200,"station_id":"ce4bhch2rcd13ifvqeug","pricing_plan_id":"cebpf4jnsgd1na2vs0mg"},{"bike_id":"f0ab1315-f4ea-4546-a4a8-a1b72f873a6e","system_id":"levelo_inurba_marseille","lat":43.28931,"lon":5.3664,"is_reserved":false,"is_disabled":false,"rental_uris":{"android":"levelo://app?vid=f0ab1315-f4ea-4546-a4a8-a1b72f873a6e","ios":"levelo://app?vid=f0ab1315-f4ea-4546-a4a8-a1b72f873a6e"},"vehicle_type_id":"4","last_reported":1752693049,"current_range_meters":17200,"station_id":"ce4bhap2rcd13ifvqek0","pricing_plan_id":"cebpf4jnsgd1na2vs0mg"},{"bike_id":"15e281ac-ac0d-4b6f-b426-fa5c002bd7ee","system_id":"levelo_inurba_marseille","lat":43.2768,"lon":5.38914,"is_reserved":false,"is_disabled":true,"rental_uris":{"android":"levelo://app?vid=15e281ac-ac0d-4b6f-b426-fa5c002bd7ee","ios":"levelo://app?vid=15e281ac-ac0d-4b6f-b426-fa5c002bd7ee"},"vehicle_type_id":"4","last_reported":1752693049,"current_range_meters":17600,"station_id":"ce4bhi12rcd13ifvqfo0","pricing_plan_id":"cebpf4jnsgd1na2vs0mg"},{"bike_id":"f6e67167-3686-4cae-82da-4610049996dc","system_id":"levelo_inurba_marseille","lat":43.269254,"lon":5.385279,"is_reserved":false,"is_disabled":false,"rental_uris":{"android":"levelo://app?vid=f6e67167-3686-4cae-82da-4610049996dc","ios":"levelo://app?vid=f6e67167-3686-4cae-82da-4610049996dc"},"vehicle_type_id":"4","last_reported":1752693049,"current_range_meters":17600,"station_id":"","pricing_plan_id":"cebpf4jnsgd1na2vs0mg"},{"bike_id":"c4d7c0d3-3fa0-42f9-a775-3626a94c8e22","system_id":"levelo_inurba_marseille","lat":43.27378,"lon":5.36261,"is_reserved":false,"is_disabled":false,"rental_uris":{"android":"levelo://app?vid=c4d7c0d3-3fa0-42f9-a775-3626a94c8e22","ios":"levelo://app?vid=c4d7c0d3-3fa0-42f9-a775-3626a94c8e22"},"vehicle_type_id":"4","last_reported":1752693049,"current_range_meters":17600,"station_id":"ce4bhbh2rcd13ifvqeo0","pricing_plan_id":"cebpf4jnsgd1na2vs0mg"},{"bike_id":"7f675b4b-4a55-40f8-90cd-9109a77efe5f","system_id":"levelo_inurba_marseille","lat":43.29528,"lon":5.39406,"is_reserved":false,"is_disabled":false,"rental_uris":{"android":"levelo://app?vid=7f675b4b-4a55-40f8-90cd-9109a77efe5f","ios":"levelo://app?vid=7f675b4b-4a55-40f8-90cd-9109a77efe5f"},"vehicle_type_id":"4","last_reported":1752693049,"current_range_meters":17600,"station_id":"ce4bh292rcd13ifvqdf0","pricing_plan_id":"cebpf4jnsgd1na2vs0mg"},{"bike_id":"75db7fdc-0baf-4fe6-ba32-b1e42bd2e9fd","system_id":"levelo_inurba_marseille","lat":43.29439,"lon":5.39755,"is_reserved":false,"is_disabled":false,"rental_uris":{"android":"levelo://app?vid=75db7fdc-0baf-4fe6-ba32-b1e42bd2e9fd","ios":"levelo://app?vid=75db7fdc-0baf-4fe6-ba32-b1e42bd2e9fd"},"vehicle_type_id":"4","last_reported":1752693049,"current_range_meters":17600,"station_id":"ce4bh3h2rcd13ifvqdo0","pricing_plan_id":"cebpf4jnsgd1na2vs0mg"},{"bike_id":"5edaaff6-d2a9-43d5-97e9-b3e7190297c6","system_id":"levelo_inurba_marseille","lat":43.28425,"lon":5.3497,"is_reserved":false,"is_disabled":false,"rental_uris":{"android":"levelo://app?vid=5edaaff6-d2a9-43d5-97e9-b3e7190297c6","ios":"levelo://app?vid=5edaaff6-d2a9-43d5-97e9-b3e7190297c6"},"vehicle_type_id":"4","last_reported":1752693049,"current_range_meters":17600,"station_id":"ce4bhbh2rcd13ifvqepg","pricing_plan_id":"cebpf4jnsgd1na2vs0mg"},{"bike_id":"a05087b2-37de-4855-8040-647edc0892c4","system_id":"levelo_inurba_marseille","lat":43.28431,"lon":5.3498,"is_reserved":false,"is_disabled":false,"rental_uris":{"android":"levelo://app?vid=a05087b2-37de-4855-8040-647edc0892c4","ios":"levelo://app?vid=a05087b2-37de-4855-8040-647edc0892c4"},"vehicle_type_id":"4","last_reported":1752693049,"current_range_meters":17600,"station_id":"ce4bhbh2rcd13ifvqepg","pricing_plan_id":"cebpf4jnsgd1na2vs0mg"},{"bike_id":"f671c8c3-ba4b-4106-b9ce-553d2ebc7ec2","system_id":"levelo_inurba_marseille","lat":43.23184,"lon":5.35557,"is_reserved":false,"is_disabled":false,"rental_uris":{"android":"levelo://app?vid=f671c8c3-ba4b-4106-b9ce-553d2ebc7ec2","ios":"levelo://app?vid=f671c8c3-ba4b-4106-b9ce-553d2ebc7ec2"},"vehicle_type_id":"4","last_reported":1752693049,"current_range_meters":17600,"station_id":"ce4bhu92rcd13ifvqi70","pricing_plan_id":"cebpf4jnsgd1na2vs0mg"},{"bike_id":"75203b7a-4b9e-4b6b-9201-44c4e1860c09","system_id":"levelo_inurba_marseille","lat":43.28576,"lon":5.35055,"is_reserved":false,"is_disabled":false,"rental_uris":{"android":"levelo://app?vid=75203b7a-4b9e-4b6b-9201-44c4e1860c09","ios":"levelo://app?vid=75203b7a-4b9e-4b6b-9201-44c4e1860c09"},"vehicle_type_id":"4","last_reported":1752693049,"current_range_meters":17600,"station_id":"","pricing_plan_id":"cebpf4jnsgd1na2vs0mg"},{"bike_id":"f7947e96-4d95-4c2a-b94f-12bda140a7ff","system_id":"levelo_inurba_marseille","lat":43.2842,"lon":5.34987,"is_reserved":false,"is_disabled":false,"rental_uris":{"android":"levelo://app?vid=f7947e96-4d95-4c2a-b94f-12bda140a7ff","ios":"levelo://app?vid=f7947e96-4d95-4c2a-b94f-12bda140a7ff"},"vehicle_type_id":"4","last_reported":1752693049,"current_range_meters":17600,"station_id":"ce4bhbh2rcd13ifvqepg","pricing_plan_id":"cebpf4jnsgd1na2vs0mg"},{"bike_id":"eb0576d5-3ad0-4892-ab26-08f5b0edf9da","system_id":"levelo_inurba_marseille","lat":43.29844,"lon":5.3627,"is_reserved":false,"is_disabled":false,"rental_uris":{"android":"levelo://app?vid=eb0576d5-3ad0-4892-ab26-08f5b0edf9da","ios":"levelo://app?vid=eb0576d5-3ad0-4892-ab26-08f5b0edf9da"},"vehicle_type_id":"4","last_reported":1752693049,"current_range_meters":17600,"station_id":"ce4bgpp2rcd13ifvqc3g","pricing_plan_id":"cebpf4jnsgd1na2vs0mg"},{"bike_id":"8716a6dc-edc9-4ce8-b2db-da4e68c247be","system_id":"levelo_inurba_marseille","lat":43.2954,"lon":5.38549,"is_reserved":false,"is_disabled":true,"rental_uris":{"android":"levelo://app?vid=8716a6dc-edc9-4ce8-b2db-da4e68c247be","ios":"levelo://app?vid=8716a6dc-edc9-4ce8-b2db-da4e68c247be"},"vehicle_type_id":"4","last_reported":1752693049,"current_range_meters":18000,"station_id":"ce4bgih2rcd13ifvqba0","pricing_plan_id":"cebpf4jnsgd1na2vs0mg"},{"bike_id":"1a1de22c-864f-4087-990e-227151d55abc","system_id":"levelo_inurba_marseille","lat":43.21186,"lon":5.35037,"is_reserved":false,"is_disabled":false,"rental_uris":{"android":"levelo://app?vid=1a1de22c-864f-4087-990e-227151d55abc","ios":"levelo://app?vid=1a1de22c-864f-4087-990e-227151d55abc"},"vehicle_type_id":"4","last_reported":1752693049,"current_range_meters":18000,"station_id":"st_cvj6sg6p6f1abm77japg","pricing_plan_id":"cebpf4jnsgd1na2vs0mg"},{"bike_id":"0dde28c2-8199-4b17-9146-8b2336ecd46f","system_id":"levelo_inurba_marseille","lat":43.28849,"lon":5.39328,"is_reserved":false,"is_disabled":false,"rental_uris":{"android":"levelo://app?vid=0dde28c2-8199-4b17-9146-8b2336ecd46f","ios":"levelo://app?vid=0dde28c2-8199-4b17-9146-8b2336ecd46f"},"vehicle_type_id":"4","last_reported":1752693049,"current_range_meters":18000,"station_id":"ce4bh2p2rcd13ifvqdi0","pricing_plan_id":"cebpf4jnsgd1na2vs0mg"},{"bike_id":"fbfb7252-26c4-4ec5-b69e-f696bb400a72","system_id":"levelo_inurba_marseille","lat":43.28612,"lon":5.35104,"is_reserved":false,"is_disabled":false,"rental_uris":{"android":"levelo://app?vid=fbfb7252-26c4-4ec5-b69e-f696bb400a72","ios":"levelo://app?vid=fbfb7252-26c4-4ec5-b69e-f696bb400a72"},"vehicle_type_id":"4","last_reported":1752693049,"current_range_meters":18000,"station_id":"ce4bhch2rcd13ifvqeug","pricing_plan_id":"cebpf4jnsgd1na2vs0mg"},{"bike_id":"855ff8f9-641c-41af-8e00-5d71e1a04e0f","system_id":"levelo_inurba_marseille","lat":43.22505,"lon":5.34764,"is_reserved":false,"is_disabled":false,"rental_uris":{"android":"levelo://app?vid=855ff8f9-641c-41af-8e00-5d71e1a04e0f","ios":"levelo://app?vid=855ff8f9-641c-41af-8e00-5d71e1a04e0f"},"vehicle_type_id":"4","last_reported":1752693049,"current_range_meters":18000,"station_id":"st_cvj5dfep6f1abm77gieg","pricing_plan_id":"cebpf4jnsgd1na2vs0mg"},{"bike_id":"3e919868-c14f-47c4-8f1b-a78b78a770b4","system_id":"levelo_inurba_marseille","lat":43.284088,"lon":5.349744,"is_reserved":false,"is_disabled":false,"rental_uris":{"android":"levelo://app?vid=3e919868-c14f-47c4-8f1b-a78b78a770b4","ios":"levelo://app?vid=3e919868-c14f-47c4-8f1b-a78b78a770b4"},"vehicle_type_id":"4","last_reported":1752693049,"current_range_meters":18000,"station_id":"ce4bhbh2rcd13ifvqepg","pricing_plan_id":"cebpf4jnsgd1na2vs0mg"},{"bike_id":"63362215-e6b0-499c-9a27-42bef6c7836f","system_id":"levelo_inurba_marseille","lat":43.21776,"lon":5.3459,"is_reserved":false,"is_disabled":false,"rental_uris":{"android":"levelo://app?vid=63362215-e6b0-499c-9a27-42bef6c7836f","ios":"levelo://app?vid=63362215-e6b0-499c-9a27-42bef6c7836f"},"vehicle_type_id":"4","last_reported":1752693049,"current_range_meters":18000,"station_id":"st_cvj6r9ubvosntc0bgbag","pricing_plan_id":"cebpf4jnsgd1na2vs0mg"},{"bike_id":"42350c25-77bf-403a-ab1c-b95c718199c8","system_id":"levelo_inurba_marseille","lat":43.25718,"lon":5.41091,"is_reserved":false,"is_disabled":false,"rental_uris":{"android":"levelo://app?vid=42350c25-77bf-403a-ab1c-b95c718199c8","ios":"levelo://app?vid=42350c25-77bf-403a-ab1c-b95c718199c8"},"vehicle_type_id":"4","last_reported":1752693049,"current_range_meters":18000,"station_id":"ce4bhkp2rcd13ifvqgd0","pricing_plan_id":"cebpf4jnsgd1na2vs0mg"},