{"last_updated":1732191532,"ttl":60,"version":"2.2","data":{"bikes":[{"bike_id":"aafb4067-d7af-47ed-81dd-6d51e9a8b32f","system_id":"levelo_inurba_marseille","lat":43.30527,"lon":5.36519,"is_reserved":false,"is_disabled":false,"rental_uris":{"android":"levelo://app?vid=aafb4067-d7af-47ed-81dd-6d51e9a8b32f","ios":"levelo://app?vid=aafb4067-d7af-47ed-81dd-6d51e9a8b32f"},"vehicle_type_id":"4","last_reported":1732191532,"current_range_meters":38800,"station_id":"ce4bgs12rcd13ifvqcag","pricing_plan_id":"cebpf4jnsgd1na2vs0mg"},{"bike_id":"0ec6eba6-3dc5-4795-9499-1aac9954324d","system_id":"levelo_inurba_marseille","lat":43.29372,"lon":5.37853,"is_reserved":false,"is_disabled":true,"rental_uris":{"android":"levelo://app?vid=0ec6eba6-3dc5-4795-9499-1aac9954324d","ios":"levelo://app?vid=0ec6eba6-3dc5-4795-9499-1aac9954324d"},"vehicle_type_id":"4","last_reported":1732191532,"current_range_meters":0,"station_id":"ce4bgjh2rcd13ifvqbf0","pricing_plan_id":"cebpf4jnsgd1na2vs0mg"},{"bike_id":"156320ae-cdf1-448d-a5dd-5f82d48b8bf7","system_id":"levelo_inurba_marseille","lat":43.28622,"lon":5.35102,"is_reserved":false,"is_disabled":false,"rental_uris":{"android":"levelo://app?vid=156320ae-cdf1-448d-a5dd-5f82d48b8bf7","ios":"levelo://app?vid=156320ae-cdf1-448d-a5dd-5f82d48b8bf7"},"vehicle_type_id":"4","last_reported":1732191532,"current_range_meters":36800,"station_id":"ce4bhch2rcd13ifvqeug","pricing_plan_id":"cebpf4jnsgd1na2vs0mg"},{"bike_id":"2db373e3-2811-4a9a-a267-a0ca7eb499e7","system_id":"levelo_inurba_marseille","lat":43.26192,"lon":5.37447,"is_reserved":false,"is_disabled":false,"rental_uris":{"android":"levelo://app?vid=2db373e3-2811-4a9a-a267-a0ca7eb499e7","ios":"levelo://app?vid=2db373e3-2811-4a9a-a267-a0ca7eb499e7"},"vehicle_type_id":"4","last_reported":1732191532,"current_range_meters":38000,"station_id":"ce4bhgp2rcd13ifvqfc0","pricing_plan_id":"cebpf4jnsgd1na2vs0mg"},{"bike_id":"3c9e831e-4701-4a4c-8771-3c3dd1588279","system_id":"levelo_inurba_marseille","lat":43.26212,"lon":5.37449,"is_reserved":false,"is_disabled":false,"rental_uris":{"android":"levelo://app?vid=3c9e831e-4701-4a4c-8771-3c3dd1588279","ios":"levelo://app?vid=3c9e831e-4701-4a4c-8771-3c3dd1588279"},"vehicle_type_id":"4","last_reported":1732191532,"current_range_meters":37600,"station_id":"ce4bhgp2rcd13ifvqfc0","pricing_plan_id":"cebpf4jnsgd1na2vs0mg"},{"bike_id":"fa3b4529-ac0b-456b-acfc-4e5f8fd0d89d","system_id":"levelo_inurba_marseille","lat":43.26681,"lon":5.38272,"is_reserved":false,"is_disabled":false,"rental_uris":{"android":"levelo://app?vid=fa3b4529-ac0b-456b-acfc-4e5f8fd0d89d","ios":"levelo://app?vid=fa3b4529-ac0b-456b-acfc-4e5f8fd0d89d"},"vehicle_type_id":"4","last_reported":1732191532,"current_range_meters":39200,"station_id":"ce4bhg92rcd13ifvqf90","pricing_plan_id":"cebpf4jnsgd1na2vs0mg"},{"bike_id":"3d4f4541-0ce5-44c4-b89f-9a920af4dfeb","system_id":"levelo_inurba_marseille","lat":43.27328,"lon":5.39087,"is_reserved":false,"is_disabled":true,"rental_uris":{"android":"levelo://app?vid=3d4f4541-0ce5-44c4-b89f-9a920af4dfeb","ios":"levelo://app?vid=3d4f4541-0ce5-44c4-b89f-9a920af4dfeb"},"vehicle_type_id":"4","last_reported":1732191532,"current_range_meters":25600,"station_id":"ce4bhgp2rcd13ifvqfe0","pricing_plan_id":"cebpf4jnsgd1na2vs0mg"},{"bike_id":"d2581040-8772-4d35-a569-af5f240334a7","system_id":"levelo_inurba_marseille","lat":43.26937,"lon":5.40251,"is_reserved":false,"is_disabled":false,"rental_uris":{"android":"levelo://app?vid=d2581040-8772-4d35-a569-af5f240334a7","ios":"levelo://app?vid=d2581040-8772-4d35-a569-af5f240334a7"},"vehicle_type_id":"4","last_reported":1732191532,"current_range_meters":10000,"station_id":"cjm6bp8fraef2m0cb0m0","pricing_plan_id":"cebpf4jnsgd1na2vs0mg"},{"bike_id":"8bfad94c-9ea4-4427-a814-17f07d680ca3","system_id":"levelo_inurba_marseille","lat":43.29042,"lon":5.39969,"is_reserved":false,"is_disabled":false,"rental_uris":{"android":"levelo://app?vid=8bfad94c-9ea4-4427-a814-17f07d680ca3","ios":"levelo://app?vid=8bfad94c-9ea4-4427-a814-17f07d680ca3"},"vehicle_type_id":"4","last_reported":1732191532,"current_range_meters":24400,"station_id":"ce4bh392rcd13ifvqdm0","pricing_plan_id":"cebpf4jnsgd1na2vs0mg"},{"bike_id":"8e6a3078-d201-4b7f-83a6-596972387b0b","system_id":"levelo_inurba_marseille","lat":43.26949,"lon":5.38637,"is_reserved":false,"is_disabled":false,"rental_uris":{"android":"levelo://app?vid=8e6a3078-d201-4b7f-83a6-596972387b0b","ios":"levelo://app?vid=8e6a3078-d201-4b7f-83a6-596972387b0b"},"vehicle_type_id":"4","last_reported":1732191532,"current_range_meters":39200,"station_id":"ce4bhh92rcd13ifvqfh0","pricing_plan_id":"cebpf4jnsgd1na2vs0mg"},{"bike_id":"ab95fd7f-a825-4add-9a37-d3865730f19e","system_id":"levelo_inurba_marseille","lat":43.29634,"lon":5.40598,"is_reserved":false,"is_disabled":false,"rental_uris":{"android":"levelo://app?vid=ab95fd7f-a825-4add-9a37-d3865730f19e","ios":"levelo://app?vid=ab95fd7f-a825-4add-9a37-d3865730f19e"},"vehicle_type_id":"4","last_reported":1732191532,"current_range_meters":19200,"station_id":"ce4bh0h2rcd13ifvqd60","pricing_plan_id":"cebpf4jnsgd1na2vs0mg"},{"bike_id":"1f203897-1164-43c5-8a36-2a35df13aaf6","system_id":"levelo_inurba_marseille","lat":43.23154,"lon":5.43723,"is_reserved":false,"is_disabled":true,"rental_uris":{"android":"levelo://app?vid=1f203897-1164-43c5-8a36-2a35df13aaf6","ios":"levelo://app?vid=1f203897-1164-43c5-8a36-2a35df13aaf6"},"vehicle_type_id":"4","last_reported":1732191532,"current_range_meters":3200,"station_id":"ce4bhmp2rcd13ifvqgog","pricing_plan_id":"cebpf4jnsgd1na2vs0mg"},{"bike_id":"4be3997b-0298-4a92-a78f-ce2230a4e3ad","system_id":"levelo_inurba_marseille","lat":43.29913,"lon":5.3813,"is_reserved":false,"is_disabled":true,"rental_uris":{"android":"levelo://app?vid=4be3997b-0298-4a92-a78f-ce2230a4e3ad","ios":"levelo://app?vid=4be3997b-0298-4a92-a78f-ce2230a4e3ad"},"vehicle_type_id":"4","last_reported":1732191532,"current_range_meters":32400,"station_id":"ce4bgj12rcd13ifvqbc0","pricing_plan_id":"cebpf4jnsgd1na2vs0mg"},{"bike_id":"9734ed54-19a1-4f2f-8093-83c1180da34a","system_id":"levelo_inurba_marseille","lat":43.29042,"lon":5.38646,"is_reserved":false,"is_disabled":false,"rental_uris":{"android":"levelo://app?vid=9734ed54-19a1-4f2f-8093-83c1180da34a","ios":"levelo://app?vid=9734ed54-19a1-4f2f-8093-83c1180da34a"},"vehicle_type_id":"4","last_reported":1732191532,"current_range_meters":6000,"station_id":"ce4bh4p2rcd13ifvqe0g","pricing_plan_id":"cebpf4jnsgd1na2vs0mg"},{"bike_id":"4633b1c2-ce30-49c6-98e5-95d4bb70140f","system_id":"levelo_inurba_marseille","lat":43.31357,"lon":5.36716,"is_reserved":false,"is_disabled":false,"rental_uris":{"android":"levelo://app?vid=4633b1c2-ce30-49c6-98e5-95d4bb70140f","ios":"levelo://app?vid=4633b1c2-ce30-49c6-98e5-95d4bb70140f"},"vehicle_type_id":"4","last_reported":1732191532,"current_range_meters":26800,"station_id":"ce4bgr92rcd13ifvqc6g","pricing_plan_id":"cebpf4jnsgd1na2vs0mg"},{"bike_id":"e642ccdb-cb84-421c-a18f-c3de34e58923","system_id":"levelo_inurba_marseille","lat":43.29789,"lon":5.38111,"is_reserved":false,"is_disabled":false,"rental_uris":{"android":"levelo://app?vid=e642ccdb-cb84-421c-a18f-c3de34e58923","ios":"levelo://app?vid=e642ccdb-cb84-421c-a18f-c3de34e58923"},"vehicle_type_id":"4","last_reported":1732191532,"current_range_meters":19600,"station_id":"ce4bgip2rcd13ifvqbb0","pricing_plan_id":"cebpf4jnsgd1na2vs0mg"},{"bike_id":"c0755ad7-8353-40d1-98a4-bba43ca0e3ab","system_id":"levelo_inurba_marseille","lat":43.3372,"lon":5.39182,"is_reserved":false,"is_disabled":false,"rental_uris":{"android":"levelo://app?vid=c0755ad7-8353-40d1-98a4-bba43ca0e3ab","ios":"levelo://app?vid=c0755ad7-8353-40d1-98a4-bba43ca0e3ab"},"vehicle_type_id":"4","last_reported":1732191532,"current_range_meters":19200,"station_id":"ce4bhr92rcd13ifvqhsg","pricing_plan_id":"cebpf4jnsgd1na2vs0mg"},{"bike_id":"5996db57-59a4-4fac-a07b-fe6f610f8f44","system_id":"levelo_inurba_marseille","lat":43.30143,"lon":5.3878,"is_reserved":false,"is_disabled":true,"rental_uris":{"android":"levelo://app?vid=5996db57-59a4-4fac-a07b-fe6f610f8f44","ios":"levelo://app?vid=5996db57-59a4-4fac-a07b-fe6f610f8f44"},"vehicle_type_id":"4","last_reported":1732191532,"current_range_meters":34000,"station_id":"ce4bghh2rcd13ifvqb60","pricing_plan_id":"cebpf4jnsgd1na2vs0mg"},{"bike_id":"b8e74fa2-c82f-4ec7-84db-84bdfff9a537","system_id":"levelo_inurba_marseille","lat":43.29846,"lon":5.36275,"is_reserved":false,"is_disabled":false,"rental_uris":{"android":"levelo://app?vid=b8e74fa2-c82f-4ec7-84db-84bdfff9a537","ios":"levelo://app?vid=b8e74fa2-c82f-4ec7-84db-84bdfff9a537"},"vehicle_type_id":"4","last_reported":1732191532,"current_range_meters":14400,"station_id":"ce4bgpp2rcd13ifvqc3g","pricing_plan_id":"cebpf4jnsgd1na2vs0mg"},{"bike_id":"35a8628f-fb93-4db6-94c8-fa1706ae2626","system_id":"levelo_inurba_marseille","lat":43.30416,"lon":5.4128,"is_reserved":false,"is_disabled":false,"rental_uris":{"android":"levelo://app?vid=35a8628f-fb93-4db6-94c8-fa1706ae2626","ios":"levelo://app?vid=35a8628f-fb93-4db6-94c8-fa1706ae2626"},"vehicle_type_id":"4","last_reported":1732191532,"current_range_meters":38000,"station_id":"ce4bhop2rcd13ifvqh8g","pricing_plan_id":"cebpf4jnsgd1na2vs0mg"},{"bike_id":"aaa68104-60d6-454b-9438-4e38b46ffb6c","system_id":"levelo_inurba_marseille","lat":43.30816,"lon":5.37062,"is_reserved":false,"is_disabled":false,"rental_uris":{"android":"levelo://app?vid=aaa68104-60d6-454b-9438-4e38b46ffb6c","ios":"levelo://app?vid=aaa68104-60d6-454b-9438-4e38b46ffb6c"},"vehicle_type_id":"4","last_reported":1732191532,"current_range_meters":16800,"station_id":"","pricing_plan_id":"cebpf4jnsgd1na2vs0mg"},{"bike_id":"d2321b4c-ae3a-4b43-8bcd-12cb7984481d","system_id":"levelo_inurba_marseille","lat":43.30756,"lon":5.37017,"is_reserved":false,"is_disabled":true,"rental_uris":{"android":"levelo://app?vid=d2321b4c-ae3a-4b43-8bcd-12cb7984481d","ios":"levelo://app?vid=d2321b4c-ae3a-4b43-8bcd-12cb7984481d"},"vehicle_type_id":"4","last_reported":1732191532,"current_range_meters":24000,"station_id":"","pricing_plan_id":"cebpf4jnsgd1na2vs0mg"},{"bike_id":"eba35b14-0ea4-4a4f-9525-dc9511c16675","system_id":"levelo_inurba_marseille","lat":43.29718,"lon":5.36618,"is_reserved":false,"is_disabled":false,"rental_uris":{"android":"levelo://app?vid=eba35b14-0ea4-4a4f-9525-dc9511c16675","ios":"levelo://app?vid=eba35b14-0ea4-4a4f-9525-dc9511c16675"},"vehicle_type_id":"4","last_reported":1732191532,"current_range_meters":22400,"station_id":"ce4bgn12rcd13ifvqbt0","pricing_plan_id":"cebpf4jnsgd1na2vs0mg"},{"bike_id":"ab29e05e-7a50-4e13-8031-d682b514f3f9","system_id":"levelo_inurba_marseille","lat":43.33766,"lon":5.37466,"is_reserved":false,"is_disabled":false,"rental_uris":{"android":"levelo://app?vid=ab29e05e-7a50-4e13-8031-d682b514f3f9","ios":"levelo://app?vid=ab29e05e-7a50-4e13-8031-d682b514f3f9"},"vehicle_type_id":"4","last_reported":1732191532,"current_range_meters":13600,"station_id":"","pricing_plan_id":"cebpf4jnsgd1na2vs0mg"},{"bike_id":"ed37508a-b0e4-437f-9a04-e25844b72733","system_id":"levelo_inurba_marseille","lat":43.25857,"lon":5.39904,"is_reserved":false,"is_disabled":true,"rental_uris":{"android":"levelo://app?vid=ed37508a-b0e4-437f-9a04-e25844b72733","ios":"levelo://app?vid=ed37508a-b0e4-437f-9a04-e25844b72733"},"vehicle_type_id":"4","last_reported":1732191532,"current_range_meters":8000,"station_id":"ce4bhl92rcd13ifvqghg","pricing_plan_id":"cebpf4jnsgd1na2vs0mg"},{"bike_id":"a01317b5-7a7e-497a-9b85-248058728779","system_id":"levelo_inurba_marseille","lat":43.29567,"lon":5.37515,"is_reserved":false,"is_disabled":false,"rental_uris":{"android":"levelo://app?vid=a01317b5-7a7e-497a-9b85-248058728779","ios":"levelo://app?vid=a01317b5-7a7e-497a-9b85-248058728779"},"vehicle_type_id":"4","last_reported":1732191532,"current_range_meters":38000,"station_id":"ce4bgh92rcd13ifvqb50","pricing_plan_id":"cebpf4jnsgd1na2vs0mg"},{"bike_id":"ff096b2b-2949-453d-974b-e7c91d9e83b6","system_id":"levelo_inurba_marseille","lat":43.29309,"lon":5.37159,"is_reserved":false,"is_disabled":false,"rental_uris":{"android":"levelo://app?vid=ff096b2b-2949-453d-974b-e7c91d9e83b6","ios":"levelo://app?vid=ff096b2b-2949-453d-974b-e7c91d9e83b6"},"vehicle_type_id":"4","last_reported":1732191532,"current_range_meters":38800,"station_id":"ce4bgh92rcd13ifvqb40","pricing_plan_id":"cebpf4jnsgd1na2vs0mg"},{"bike_id":"5c3000a0-a190-4007-a723-aa2707fd1ce3","system_id":"levelo_inurba_marseille","lat":43.22933,"lon":5.35391,"is_reserved":false,"is_disabled":false,"rental_uris":{"android":"levelo://app?vid=5c3000a0-a190-4007-a723-aa2707fd1ce3","ios":"levelo://app?vid=5c3000a0-a190-4007-a723-aa2707fd1ce3"},"vehicle_type_id":"4","last_reported":1732191532,"current_range_meters":38800,"station_id":"cpo3532slgdg3j2ikp40","pricing_plan_id":"cebpf4jnsgd1na2vs0mg"},{"bike_id":"749dcff2-f3db-46db-bd3a-aabc18114a16","system_id":"levelo_inurba_marseille","lat":43.31232,"lon":5.36847,"is_reserved":false,"is_disabled":false,"rental_uris":{"android":"levelo://app?vid=749dcff2-f3db-46db-bd3a-aabc18114a16","ios":"levelo://app?vid=749dcff2-f3db-46db-bd3a-aabc18114a16"},"vehicle_type_id":"4","last_reported":1732191532,"current_range_meters":39200,"station_id":"ce4bgl92rcd13ifvqbq0","pricing_plan_id":"cebpf4jnsgd1na2vs0mg"},{"bike_id":"46c49dce-98b7-428a-b21a-8ef877502ee0","system_id":"levelo_inurba_marseille","lat":43.2957,"lon":5.37502,"is_reserved":false,"is_disabled":false,"rental_uris":{"android":"levelo://app?vid=46c49dce-98b7-428a-b21a-8ef877502ee0","ios":"levelo://app?vid=46c49dce-98b7-428a-b21a-8ef877502ee0"},"vehicle_type_id":"4","last_reported":1732191532,"current_range_meters":38800,"station_id":"ce4bgh92rcd13ifvqb50","pricing_plan_id":"cebpf4jnsgd1na2vs0mg"},{"bike_id":"e3f992ed-ce5d-426e-8686-094b80b146c3","system_id":"levelo_inurba_marseille","lat":43.25108,"lon":5.40321,"is_reserved":false,"is_disabled":false,"rental_uris":{"android":"levelo://app?vid=e3f992ed-ce5d-426e-8686-094b80b146c3","ios":"levelo://app?vid=e3f992ed-ce5d-426e-8686-094b80b146c3"},"vehicle_type_id":"4","last_reported":1732191532,"current_range_meters":39200,"station_id":"ce4bhlh2rcd13ifvqgig","pricing_plan_id":"cebpf4jnsgd1na2vs0mg"},{"bike_id":"7df079bd-f3ba-4c3b-97e9-fd5db78f9816","system_id":"levelo_inurba_marseille","lat":43.23183,"lon":5.39985,"is_reserved":false,"is_disabled":false,"rental_uris":{"android":"levelo://app?vid=7df079bd-f3ba-4c3b-97e9-fd5db78f9816","ios":"levelo://app?vid=7df079bd-f3ba-4c3b-97e9-fd5db78f9816"},"vehicle_type_id":"4","last_reported":1732191532,"current_range_meters":25200,"station_id":"ce4bhn12rcd13ifvqgqg","pricing_plan_id":"cebpf4jnsgd1na2vs0mg"},{"bike_id":"2066dce1-d166-4495-89fa-8730e6d3aa66","system_id":"levelo_inurba_marseille","lat":43.33776,"lon":5.37437,"is_reserved":false,"is_disabled":false,"rental_uris":{"android":"levelo://app?vid=2066dce1-d166-4495-89fa-8730e6d3aa66","ios":"levelo://app?vid=2066dce1-d166-4495-89fa-8730e6d3aa66"},"vehicle_type_id":"4","last_reported":1732191532,"current_range_meters":12800,"station_id":"","pricing_plan_id":"cebpf4jnsgd1na2vs0mg"},{"bike_id":"62d0ee86-5b1c-494d-b80a-0c29643d8236","system_id":"levelo_inurba_marseille","lat":43.2984,"lon":5.36264,"is_reserved":false,"is_disabled":false,"rental_uris":{"android":"levelo://app?vid=62d0ee86-5b1c-494d-b80a-0c29643d8236","ios":"levelo://app?vid=62d0ee86-5b1c-494d-b80a-0c29643d8236"},"vehicle_type_id":"4","last_reported":1732191532,"current_range_meters":39200,"station_id":"ce4bgpp2rcd13ifvqc3g","pricing_plan_id":"cebpf4jnsgd1na2vs0mg"},{"bike_id":"895dae95-9dde-4a45-9252-bfb2ffb1ef60","system_id":"levelo_inurba_marseille","lat":43.2985,"lon":5.36252,"is_reserved":false,"is_disabled":false,"rental_uris":{"android":"levelo://app?vid=895dae95-9dde-4a45-9252-bfb2ffb1ef60","ios":"levelo://app?vid=895dae95-9dde-4a45-9252-bfb2ffb1ef60"},"vehicle_type_id":"4","last_reported":1732191532,"current_range_meters":38800,"station_id":"ce4bgpp2rcd13ifvqc3g","pricing_plan_id":"cebpf4jnsgd1na2vs0mg"},{"bike_id":"0537b288-f6d5-4a4a-b5a0-fbb6f073f2c1","system_id":"levelo_inurba_marseille","lat":43.30534,"lon":5.36536,"is_reserved":false,"is_disabled":false,"rental_uris":{"android":"levelo://app?vid=0537b288-f6d5-4a4a-b5a0-fbb6f073f2c1","ios":"levelo://app?vid=0537b288-f6d5-4a4a-b5a0-fbb6f073f2c1"},"vehicle_type_id":"4","last_reported":1732191532,"current_range_meters":39200,"station_id":"ce4bgs12rcd13ifvqcag","pricing_plan_id":"cebpf4jnsgd1na2vs0mg"},{"bike_id":"f1a5529f-d308-4bb7-8ccd-2d79295e5b55","system_id":"levelo_inurba_marseille","lat":43.25582,"lon":5.38237,"is_reserved":false,"is_disabled":false,"rental_uris":{"android":"levelo://app?vid=f1a5529f-d308-4bb7-8ccd-2d79295e5b55","ios":"levelo://app?vid=f1a5529f-d308-4bb7-8ccd-2d79295e5b55"},"vehicle_type_id":"4","last_reported":1732191532,"current_range_meters":36800,"station_id":"ce4bhih2rcd13ifvqfs0","pricing_plan_id":"cebpf4jnsgd1na2vs0mg"},{"bike_id":"fce5cead-f708-488c-9b32-ae07588a04b4","system_id":"levelo_inurba_marseille","lat":43.32358,"lon":5.38878,"is_reserved":false,"is_disabled":true,"rental_uris":{"android":"levelo://app?vid=fce5cead-f708-488c-9b32-ae07588a04b4","ios":"levelo://app?vid=fce5cead-f708-488c-9b32-ae07588a04b4"},"vehicle_type_id":"4","last_reported":1732191532,"current_range_meters":800,"station_id":"ce4bhqp2rcd13ifvqhog","pricing_plan_id":"cebpf4jnsgd1na2vs0mg"},{"bike_id":"78112314-0167-4770-aec6-47ed16f97dd3","system_id":"levelo_inurba_marseille","lat":43.2757,"lon":5.38411,"is_reserved":false,"is_disabled":true,"rental_uris":{"android":"levelo://app?vid=78112314-0167-4770-aec6-47ed16f97dd3","ios":"levelo://app?vid=78112314-0167-4770-aec6-47ed16f97dd3"},"vehicle_type_id":"4","last_reported":1732191532,"current_range_meters":0,"station_id":"ce4bhh92rcd13ifvqfi0","pricing_plan_id":"cebpf4jnsgd1na2vs0mg"},{"bike_id":"1cd0daee-d68a-4e66-9883-fbe67fd8260f","system_id":"levelo_inurba_marseille","lat":43.30583,"lon":5.37118,"is_reserved":false,"is_disabled":true,"rental_uris":{"android":"levelo://app?vid=1cd0daee-d68a-4e66-9883-fbe67fd8260f","ios":"levelo://app?vid=1cd0daee-d68a-4e66-9883-fbe67fd8260f"},"vehicle_type_id":"4","last_reported":1732191532,"current_range_meters":0,"station_id":"","pricing_plan_id":"cebpf4jnsgd1na2vs0mg"},{"bike_id":"23483f6a-9e23-49bb-b436-f1a71f5025bc","system_id":"levelo_inurba_marseille","lat":43.2923,"lon":5.36067,"is_reserved":false,"is_disabled":false,"rental_uris":{"android":"levelo://app?vid=23483f6a-9e23-49bb-b436-f1a71f5025bc","ios":"levelo://app?vid=23483f6a-9e23-49bb-b436-f1a71f5025bc"},"vehicle_type_id":"4","last_reported":1732191532,"current_range_meters":17600,"station_id":"ce4bhbh2rcd13ifvqeqg","pricing_plan_id":"cebpf4jnsgd1na2vs0mg"},{"bike_id":"86a89804-36ec-438c-bc01-475db48bc788","system_id":"levelo_inurba_marseille","lat":43.29101,"lon":5.38161,"is_reserved":false,"is_disabled":false,"rental_uris":{"android":"levelo://app?vid=86a89804-36ec-438c-bc01-475db48bc788","ios":"levelo://app?vid=86a89804-36ec-438c-bc01-475db48bc788"},"vehicle_type_id":"4","last_reported":1732191532,"current_range_meters":33200,"station_id":"ce4bh512rcd13ifvqe2g","pricing_plan_id":"cebpf4jnsgd1na2vs0mg"},{"bike_id":"b7991d04-4d9b-4f7b-8adc-53eda61fa0f9","system_id":"levelo_inurba_marseille","lat":43.2408,"lon":5.3775,"is_reserved":false,"is_disabled":false,"rental_uris":{"android":"levelo://app?vid=b7991d04-4d9b-4f7b-8adc-53eda61fa0f9","ios":"levelo://app?vid=b7991d04-4d9b-4f7b-8adc-53eda61fa0f9"},"vehicle_type_id":"4","last_reported":1732191532,"current_range_meters":38000,"station_id":"ce4bhnp2rcd13ifvqgvg","pricing_plan_id":"cebpf4jnsgd1na2vs0mg"},{"bike_id":"2aa5db3e-f71e-43a1-ba0c-ffe86e7384e5","system_id":"levelo_inurba_marseille","lat":43.29039,"lon":5.37559,"is_reserved":false,"is_disabled":false,"rental_uris":{"android":"levelo://app?vid=2aa5db3e-f71e-43a1-ba0c-ffe86e7384e5","ios":"levelo://app?vid=2aa5db3e-f71e-43a1-ba0c-ffe86e7384e5"},"vehicle_type_id":"4","last_reported":1732191532,"current_range_meters":9200,"station_id":"ce4bh692rcd13ifvqe90","pricing_plan_id":"cebpf4jnsgd1na2vs0mg"},{"bike_id":"a91d19d3-8057-4b70-88f1-be828ea306bd","system_id":"levelo_inurba_marseille","lat":43.26682,"lon":5.38273,"is_reserved":false,"is_disabled":false,"rental_uris":{"android":"levelo://app?vid=a91d19d3-8057-4b70-88f1-be828ea306bd","ios":"levelo://app?vid=a91d19d3-8057-4b70-88f1-be828ea306bd"},"vehicle_type_id":"4","last_reported":1732191532,"current_range_meters":23200,"station_id":"ce4bhg92rcd13ifvqf90","pricing_plan_id":"cebpf4jnsgd1na2vs0mg"},{"bike_id":"05cb2897-8ba0-44c6-a0a8-269865ae5cf4","system_id":"levelo_inurba_marseille","lat":43.3035,"lon":5.4188,"is_reserved":false,"is_disabled":false,"rental_uris":{"android":"levelo://app?vid=05cb2897-8ba0-44c6-a0a8-269865ae5cf4","ios":"levelo://app?vid=05cb2897-8ba0-44c6-a0a8-269865ae5cf4"},"vehicle_type_id":"4","last_reported":1732191532,"current_range_meters":35600,"station_id":"ce4bhop2rcd13ifvqh7g","pricing_plan_id":"cebpf4jnsgd1na2vs0mg"},{"bike_id":"e3424ef3-00b4-4d10-8ee6-83fba6add79b","system_id":"levelo_inurba_marseille","lat":43.27375,"lon":5.36261,"is_reserved":false,"is_disabled":false,"rental_uris":{"android":"levelo://app?vid=e3424ef3-00b4-4d10-8ee6-83fba6add79b","ios":"levelo://app?vid=e3424ef3-00b4-4d10-8ee6-83fba6add79b"},"vehicle_type_id":"4","last_reported":1732191532,"current_range_meters":22800,"station_id":"ce4bhbh2rcd13ifvqeo0","pricing_plan_id":"cebpf4jnsgd1na2vs0mg"},{"bike_id":"e5bf3afe-e290-4776-a2bb-f436af787119","system_id":"levelo_inurba_marseille","lat":43.29572,"lon":5.37501,"is_reserved":false,"is_disabled":false,"rental_uris":{"android":"levelo://app?vid=e5bf3afe-e290-4776-a2bb-f436af787119","ios":"levelo://app?vid=e5bf3afe-e290-4776-a2bb-f436af787119"},"vehicle_type_id":"4","last_reported":1732191532,"current_range_meters":26800,"station_id":"ce4bgh92rcd13ifvqb50","pricing_plan_id":"cebpf4jnsgd1na2vs0mg"},{"bike_id":"a7fce1eb-2f2a-4561-bd8b-f77092da043b","system_id":"levelo_inurba_marseille","lat":43.27061,"lon":5.42273,"is_reserved":false,"is_disabled":true,"rental_uris":{"android":"levelo://app?vid=a7fce1eb-2f2a-4561-bd8b-f77092da043b","ios":"levelo://app?vid=a7fce1eb-2f2a-4561-bd8b-f77092da043b"},"vehicle_type_id":"4","last_reported":1732191532,"current_range_meters":34800,"station_id":"ce4bhk92rcd13ifvqgb0","pricing_plan_id":"cebpf4jnsgd1na2vs0mg"},{"bike_id":"a5b9971c-5595-4209-8088-4b4244949dd4","system_id":"levelo_inurba_marseille","lat":43.30801,"lon":5.3816,"is_reserved":false,"is_disabled":false,"rental_uris":{"android":"levelo://app?vid=a5b9971c-5595-4209-8088-4b4244949dd4","ios":"levelo://app?vid=a5b9971c-5595-4209-8088-4b4244949dd4"},"vehicle_type_id":"4","last_reported":1732191532,"current_range_meters":24400,"station_id":"ce4bgt12rcd13ifvqce0","pricing_plan_id":"cebpf4jnsgd1na2vs0mg"},{"bike_id":"d50ed79f-555f-4f66-90de-150020b39639","system_id":"levelo_inurba_marseille","lat":43.29914,"lon":5.38164,"is_reserved":false,"is_disabled":false,"rental_uris":{"android":"levelo://app?vid=d50ed79f-555f-4f66-90de-150020b39639","ios":"levelo://app?vid=d50ed79f-555f-4f66-90de-150020b39639"},"vehicle_type_id":"4","last_reported":1732191532,"current_range_meters":38800,"station_id":"ce4bgj12rcd13ifvqbc0","pricing_plan_id":"cebpf4jnsgd1na2vs0mg"},{"bike_id":"3fd5bebc-428a-4b96-b754-ca818ccd1f16","system_id":"levelo_inurba_marseille","lat":43.25929,"lon":5.40911,"is_reserved":false,"is_disabled":true,"rental_uris":{"android":"levelo://app?vid=3fd5bebc-428a-4b96-b754-ca818ccd1f16","ios":"levelo://app?vid=3fd5bebc-428a-4b96-b754-ca818ccd1f16"},"vehicle_type_id":"4","last_reported":1732191532,"current_range_meters":36800,"station_id":"ce4bhm92rcd13ifvqglg","pricing_plan_id":"cebpf4jnsgd1na2vs0mg"},{"bike_id":"a764c778-c8a8-4fae-886e-64f3d5668825","system_id":"levelo_inurba_marseille","lat":43.28153,"lon":5.42647,"is_reserved":false,"is_disabled":true,"rental_uris":{"android":"levelo://app?vid=a764c778-c8a8-4fae-886e-64f3d5668825","ios":"levelo://app?vid=a764c778-c8a8-4fae-886e-64f3d5668825"},"vehicle_type_id":"4","last_reported":1732191532,"current_range_meters":38400,"station_id":"ce4bhnh2rcd13ifvqgug","pricing_plan_id":"cebpf4jnsgd1na2vs0mg"},{"bike_id":"9c7a30dd-75dd-49b4-ba57-49afb2facd2d","system_id":"levelo_inurba_marseille","lat":43.27056,"lon":5.40258,"is_reserved":false,"is_disabled":false,"rental_uris":{"android":"levelo://app?vid=9c7a30dd-75dd-49b4-ba57-49afb2facd2d","ios":"levelo://app?vid=9c7a30dd-75dd-49b4-ba57-49afb2facd2d"},"vehicle_type_id":"4","last_reported":1732191532,"current_range_meters":18000,"station_id":"ce4bhk92rcd13ifvqgc0","pricing_plan_id":"cebpf4jnsgd1na2vs0mg"},{"bike_id":"04809465-5c0c-4b6a-aae9-e5fe9ea931d3","system_id":"levelo_inurba_marseille","lat":43.27579,"lon":5.3842,"is_reserved":false,"is_disabled":false,"rental_uris":{"android":"levelo://app?vid=04809465-5c0c-4b6a-aae9-e5fe9ea931d3","ios":"levelo://app?vid=04809465-5c0c-4b6a-aae9-e5fe9ea931d3"},"vehicle_type_id":"4","last_reported":1732191532,"current_range_meters":14800,"station_id":"ce4bhh92rcd13ifvqfi0","pricing_plan_id":"cebpf4jnsgd1na2vs0mg"},{"bike_id":"5dd4afbb-16bd-43bd-b0db-67e7146c68d0","system_id":"levelo_inurba_marseille","lat":43.30534,"lon":5.36696,"is_reserved":false,"is_disabled":false,"rental_uris":{"android":"levelo://app?vid=5dd4afbb-16bd-43bd-b0db-67e7146c68d0","ios":"levelo://app?vid=5dd4afbb-16bd-43bd-b0db-67e7146c68d0"},"vehicle_type_id":"4","last_reported":1732191532,"current_range_meters":32000,"station_id":"ce4bgrp2rcd13ifvqc9g","pricing_plan_id":"cebpf4jnsgd1na2vs0mg"},{"bike_id":"571825fc-1c1f-4e61-ba4d-fc13912fcda9","system_id":"levelo_inurba_marseille","lat":43.324849,"lon":5.365609,"is_reserved":false,"is_disabled":false,"rental_uris":{"android":"levelo://app?vid=571825fc-1c1f-4e61-ba4d-fc13912fcda9","ios":"levelo://app?vid=571825fc-1c1f-4e61-ba4d-fc13912fcda9"},"vehicle_type_id":"4","last_reported":1732191532,"current_range_meters":39200,"station_id":"ce4bhs12rcd13ifvqhvg","pricing_plan_id":"cebpf4jnsgd1na2vs0mg"},{"bike_id":"4d598418-a01c-45c6-b777-a2c3632da517","system_id":"levelo_inurba_marseille","lat":43.30191,"lon":5.39802,"is_reserved":false,"is_disabled":false,"rental_uris":{"android":"levelo://app?vid=4d598418-a01c-45c6-b777-a2c3632da517","ios":"levelo://app?vid=4d598418-a01c-45c6-b777-a2c3632da517"},"vehicle_type_id":"4","last_reported":1732191532,"current_range_meters":37600,"station_id":"","pricing_plan_id":"cebpf4jnsgd1na2vs0mg"},{"bike_id":"6d8d4026-73c3-4703-a895-b6045425d457","system_id":"levelo_inurba_marseille","lat":43.30546,"lon":5.36698,"is_reserved":false,"is_disabled":false,"rental_uris":{"android":"levelo://app?vid=6d8d4026-73c3-4703-a895-b6045425d457","ios":"levelo://app?vid=6d8d4026-73c3-4703-a895-b6045425d457"},"vehicle_type_id":"4","last_reported":1732191532,"current_range_meters":38800,"station_id":"ce4bgrp2rcd13ifvqc9g","pricing_plan_id":"cebpf4jnsgd1na2vs0mg"},{"bike_id":"4e0ae9d0-4853-4c4a-8966-a6752727c462","system_id":"levelo_inurba_marseille","lat":43.28945,"lon":5.39632,"is_reserved":false,"is_disabled":true,"rental_uris":{"android":"levelo://app?vid=4e0ae9d0-4853-4c4a-8966-a6752727c462","ios":"levelo://app?vid=4e0ae9d0-4853-4c4a-8966-a6752727c462"},"vehicle_type_id":"4","last_reported":1732191532,"current_range_meters":0,"station_id":"ce4bh3h2rcd13ifvqdn0","pricing_plan_id":"cebpf4jnsgd1na2vs0mg"},{"bike_id":"14f4c62c-9b40-414f-8516-aa612a31b3c0","system_id":"levelo_inurba_marseille","lat":43.28704,"lon":5.3739,"is_reserved":false,"is_disabled":false,"rental_uris":{"android":"levelo://app?vid=14f4c62c-9b40-414f-8516-aa612a31b3c0","ios":"levelo://app?vid=14f4c62c-9b40-414f-8516-aa612a31b3c0"},"vehicle_type_id":"4","last_reported":1732191532,"current_range_meters":38000,"station_id":"ce4bh3p2rcd13ifvqdq0","pricing_plan_id":"cebpf4jnsgd1na2vs0mg"},{"bike_id":"be9ae0a8-c549-4adb-a0f6-54609edbc62f","system_id":"levelo_inurba_marseille","lat":43.29851,"lon":5.36285,"is_reserved":false,"is_disabled":false,"rental_uris":{"android":"levelo://app?vid=be9ae0a8-c549-4adb-a0f6-54609edbc62f","ios":"levelo://app?vid=be9ae0a8-c549-4adb-a0f6-54609edbc62f"},"vehicle_type_id":"4","last_reported":1732191532,"current_range_meters":38400,"station_id":"ce4bgpp2rcd13ifvqc3g","pricing_plan_id":"cebpf4jnsgd1na2vs0mg"},{"bike_id":"c172d9d0-ede4-49c5-b256-6c8ea7b60db6","system_id":"levelo_inurba_marseille","lat":43.32008,"lon":5.38146,"is_reserved":false,"is_disabled":false,"rental_uris":{"android":"levelo://app?vid=c172d9d0-ede4-49c5-b256-6c8ea7b60db6","ios":"levelo://app?vid=c172d9d0-ede4-49c5-b256-6c8ea7b60db6"},"vehicle_type_id":"4","last_reported":1732191532,"current_range_meters":3200,"station_id":"ce4bhr12rcd13ifvqhpg","pricing_plan_id":"cebpf4jnsgd1na2vs0mg"},{"bike_id":"57e4235a-8009-4ce2-b6f7-98a683f66d90","system_id":"levelo_inurba_marseille","lat":43.27968,"lon":5.38755,"is_reserved":false,"is_disabled":false,"rental_uris":{"android":"levelo://app?vid=57e4235a-8009-4ce2-b6f7-98a683f66d90","ios":"levelo://app?vid=57e4235a-8009-4ce2-b6f7-98a683f66d90"},"vehicle_type_id":"4","last_reported":1732191532,"current_range_meters":30000,"station_id":"ce4bhg12rcd13ifvqf80","pricing_plan_id":"cebpf4jnsgd1na2vs0mg"},{"bike_id":"479dce5a-a87e-4f4f-9e5c-2f72f537f867","system_id":"levelo_inurba_marseille","lat":43.29282,"lon":5.36847,"is_reserved":false,"is_disabled":false,"rental_uris":{"android":"levelo://app?vid=479dce5a-a87e-4f4f-9e5c-2f72f537f867","ios":"levelo://app?vid=479dce5a-a87e-4f4f-9e5c-2f72f537f867"},"vehicle_type_id":"4","last_reported":1732191532,"current_range_meters":28800,"station_id":"ce4bhbp2rcd13ifvqesg","pricing_plan_id":"cebpf4jnsgd1na2vs0mg"},{"bike_id":"f0fa4e60-0a2b-48c7-9942-83170358dd4a","system_id":"levelo_inurba_marseille","lat":43.32291,"lon":5.38276,"is_reserved":false,"is_disabled":false,"rental_uris":{"android":"levelo://app?vid=f0fa4e60-0a2b-48c7-9942-83170358dd4a","ios":"levelo://app?vid=f0fa4e60-0a2b-48c7-9942-83170358dd4a"},"vehicle_type_id":"4","last_reported":1732191532,"current_range_meters":39200,"station_id":"ce4bhr12rcd13ifvqhqg","pricing_plan_id":"cebpf4jnsgd1na2vs0mg"},{"bike_id":"550f0269-af81-4f74-bed5-fe17c4459dfd","system_id":"levelo_inurba_marseille","lat":43.2593,"lon":5.40903,"is_reserved":false,"is_disabled":true,"rental_uris":{"android":"levelo://app?vid=550f0269-af81-4f74-bed5-fe17c4459dfd","ios":"levelo://app?vid=550f0269-af81-4f74-bed5-fe17c4459dfd"},"vehicle_type_id":"4","last_reported":1732191532,"current_range_meters":0,"station_id":"ce4bhm92rcd13ifvqglg","pricing_plan_id":"cebpf4jnsgd1na2vs0mg"},{"bike_id":"9c37a5af-6b01-4e75-9657-7ef6bddc1bc6","system_id":"levelo_inurba_marseille","lat":43.33024,"lon":5.39041,"is_reserved":false,"is_disabled":false,"rental_uris":{"android":"levelo://app?vid=9c37a5af-6b01-4e75-9657-7ef6bddc1bc6","ios":"levelo://app?vid=9c37a5af-6b01-4e75-9657-7ef6bddc1bc6"},"vehicle_type_id":"4","last_reported":1732191532,"current_range_meters":27600,"station_id":"ce4bhr92rcd13ifvqhrg","pricing_plan_id":"cebpf4jnsgd1na2vs0mg"},{"bike_id":"12e09f24-8ae3-48be-9753-7913e18788eb","system_id":"levelo_inurba_marseille","lat":43.25868,"lon":5.39897,"is_reserved":false,"is_disabled":false,"rental_uris":{"android":"levelo://app?vid=12e09f24-8ae3-48be-9753-7913e18788eb","ios":"levelo://app?vid=12e09f24-8ae3-48be-9753-7913e18788eb"},"vehicle_type_id":"4","last_reported":1732191532,"current_range_meters":24800,"station_id":"ce4bhl92rcd13ifvqghg","pricing_plan_id":"cebpf4jnsgd1na2vs0mg"},{"bike_id":"3585d018-4b66-4cf5-bca5-17fcec2fef21","system_id":"levelo_inurba_marseille","lat":43.23189,"lon":5.35558,"is_reserved":false,"is_disabled":false,"rental_uris":{"android":"levelo://app?vid=3585d018-4b66-4cf5-bca5-17fcec2fef21","ios":"levelo://app?vid=3585d018-4b66-4cf5-bca5-17fcec2fef21"},"vehicle_type_id":"4","last_reported":1732191532,"current_range_meters":33200,"station_id":"ce4bhu92rcd13ifvqi70","pricing_plan_id":"cebpf4jnsgd1na2vs0mg"},{"bike_id":"5f94102a-92bf-473a-a926-bc765900825f","system_id":"levelo_inurba_marseille","lat":43.30416,"lon":5.41279,"is_reserved":false,"is_disabled":false,"rental_uris":{"android":"levelo://app?vid=5f94102a-92bf-473a-a926-bc765900825f","ios":"levelo://app?vid=5f94102a-92bf-473a-a926-bc765900825f"},"vehicle_type_id":"4","last_reported":1732191532,"current_range_meters":30800,"station_id":"ce4bhop2rcd13ifvqh8g","pricing_plan_id":"cebpf4jnsgd1na2vs0mg"},{"bike_id":"90340766-caf9-4bb2-860b-64195ebef110","system_id":"levelo_inurba_marseille","lat":43.2827,"lon":5.35076,"is_reserved":false,"is_disabled":false,"rental_uris":{"android":"levelo://app?vid=90340766-caf9-4bb2-860b-64195ebef110","ios":"levelo://app?vid=90340766-caf9-4bb2-860b-64195ebef110"},"vehicle_type_id":"4","last_reported":1732191532,"current_range_meters":38800,"station_id":"ce4bhbp2rcd13ifvqerg","pricing_plan_id":"cebpf4jnsgd1na2vs0mg"},{"bike_id":"b7af818c-618d-45b2-9edf-b5e0ce9049b0","system_id":"levelo_inurba_marseille","lat":43.29914,"lon":5.38133,"is_reserved":false,"is_disabled":true,"rental_uris":{"android":"levelo://app?vid=b7af818c-618d-45b2-9edf-b5e0ce9049b0","ios":"levelo://app?vid=b7af818c-618d-45b2-9edf-b5e0ce9049b0"},"vehicle_type_id":"4","last_reported":1732191532,"current_range_meters":36400,"station_id":"ce4bgj12rcd13ifvqbc0","pricing_plan_id":"cebpf4jnsgd1na2vs0mg"},{"bike_id":"a6d5ad62-cc28-4f8d-bea7-62693026e2bf","system_id":"levelo_inurba_marseille","lat":43.29224,"lon":5.36063,"is_reserved":false,"is_disabled":false,"rental_uris":{"android":"levelo://app?vid=a6d5ad62-cc28-4f8d-bea7-62693026e2bf","ios":"levelo://app?vid=a6d5ad62-cc28-4f8d-bea7-62693026e2bf"},"vehicle_type_id":"4","last_reported":1732191532,"current_range_meters":39200,"station_id":"ce4bhbh2rcd13ifvqeqg","pricing_plan_id":"cebpf4jnsgd1na2vs0mg"},{"bike_id":"e57590cc-a844-462b-b95c-023047b497c3","system_id":"levelo_inurba_marseille","lat":43.26027,"lon":5.3755,"is_reserved":false,"is_disabled":false,"rental_uris":{"android":"levelo://app?vid=e57590cc-a844-462b-b95c-023047b497c3","ios":"levelo://app?vid=e57590cc-a844-462b-b95c-023047b497c3"},"vehicle_type_id":"4","last_reported":1732191532,"current_range_meters":38000,"station_id":"ce4bhgh2rcd13ifvqfa0","pricing_plan_id":"cebpf4jnsgd1na2vs0mg"},{"bike_id":"02548de1-a79f-4bc6-8c03-f2b86f8bd8f9","system_id":"levelo_inurba_marseille","lat":43.3236,"lon":5.38878,"is_reserved":false,"is_disabled":false,"rental_uris":{"android":"levelo://app?vid=02548de1-a79f-4bc6-8c03-f2b86f8bd8f9","ios":"levelo://app?vid=02548de1-a79f-4bc6-8c03-f2b86f8bd8f9"},"vehicle_type_id":"4","last_reported":1732191532,"current_range_meters":8400,"station_id":"ce4bhqp2rcd13ifvqhog","pricing_plan_id":"cebpf4jnsgd1na2vs0mg"},{"bike_id":"442acdc7-d628-44bd-a1aa-8017b95e373d","system_id":"levelo_inurba_marseille","lat":43.25935,"lon":5.40908,"is_reserved":false,"is_disabled":false,"rental_uris":{"android":"levelo://app?vid=442acdc7-d628-44bd-a1aa-8017b95e373d","ios":"levelo://app?vid=442acdc7-d628-44bd-a1aa-8017b95e373d"},"vehicle_type_id":"4","last_reported":1732191532,"current_range_meters":15200,"station_id":"ce4bhm92rcd13ifvqglg","pricing_plan_id":"cebpf4jnsgd1na2vs0mg"},{"bike_id":"7ef9a5ef-b3b2-4ff2-82cc-f161ced30464","system_id":"levelo_inurba_marseille","lat":43.29417,"lon":5.38607,"is_reserved":false,"is_disabled":true,"rental_uris":{"android":"levelo://app?vid=7ef9a5ef-b3b2-4ff2-82cc-f161ced30464","ios":"levelo://app?vid=7ef9a5ef-b3b2-4ff2-82cc-f161ced30464"},"vehicle_type_id":"4","last_reported":1732191532,"current_range_meters":34800,"station_id":"ce4bh2h2rcd13ifvqdh0","pricing_plan_id":"cebpf4jnsgd1na2vs0mg"},{"bike_id":"ccd208dd-3d0b-41e2-93a6-fda6e537f6b8","system_id":"levelo_inurba_marseille","lat":43.31362,"lon":5.36686,"is_reserved":false,"is_disabled":false,"rental_uris":{"android":"levelo://app?vid=ccd208dd-3d0b-41e2-93a6-fda6e537f6b8","ios":"levelo://app?vid=ccd208dd-3d0b-41e2-93a6-fda6e537f6b8"},"vehicle_type_id":"4","last_reported":1732191532,"current_range_meters":7200,"station_id":"ce4bgr92rcd13ifvqc6g","pricing_plan_id":"cebpf4jnsgd1na2vs0mg"},{"bike_id":"33d90dea-5255-41d8-8779-b8b60f563856","system_id":"levelo_inurba_marseille","lat":43.28458,"lon":5.35897,"is_reserved":false,"is_disabled":false,"rental_uris":{"android":"levelo://app?vid=33d90dea-5255-41d8-8779-b8b60f563856","ios":"levelo://app?vid=33d90dea-5255-41d8-8779-b8b60f563856"},"vehicle_type_id":"4","last_reported":1732191532,"current_range_meters":28400,"station_id":"ce4bhah2rcd13ifvqei0","pricing_plan_id":"cebpf4jnsgd1na2vs0mg"},{"bike_id":"1fe2f133-8d49-4f9e-9343-02c2af7f3209","system_id":"levelo_inurba_marseille","lat":43.30551,"lon":5.36548,"is_reserved":false,"is_disabled":false,"rental_uris":{"android":"levelo://app?vid=1fe2f133-8d49-4f9e-9343-02c2af7f3209","ios":"levelo://app?vid=1fe2f133-8d49-4f9e-9343-02c2af7f3209"},"vehicle_type_id":"4","last_reported":1732191532,"current_range_meters":38400,"station_id":"ce4bgs12rcd13ifvqcag","pricing_plan_id":"cebpf4jnsgd1na2vs0mg"},{"bike_id":"8d5e8e54-f87c-49b3-8720-7e21078f8fcd","system_id":"levelo_inurba_marseille","lat":43.26492,"lon":5.39551,"is_reserved":false,"is_disabled":false,"rental_uris":{"android":"levelo://app?vid=8d5e8e54-f87c-49b3-8720-7e21078f8fcd","ios":"levelo://app?vid=8d5e8e54-f87c-49b3-8720-7e21078f8fcd"},"vehicle_type_id":"4","last_reported":1732191532,"current_range_meters":36800,"station_id":"ce4bhi12rcd13ifvqfq0","pricing_plan_id":"cebpf4jnsgd1na2vs0mg"},{"bike_id":"844cb461-f780-45f5-88b2-3951b51e6462","system_id":"levelo_inurba_marseille","lat":43.30119,"lon":5.37824,"is_reserved":false,"is_disabled":true,"rental_uris":{"android":"levelo://app?vid=844cb461-f780-45f5-88b2-3951b51e6462","ios":"levelo://app?vid=844cb461-f780-45f5-88b2-3951b51e6462"},"vehicle_type_id":"4","last_reported":1732191532,"current_range_meters":0,"station_id":"","pricing_plan_id":"cebpf4jnsgd1na2vs0mg"},{"bike_id":"9953ec00-c345-4049-8d21-b04e2299c43f","system_id":"levelo_inurba_marseille","lat":43.27844,"lon":5.39201,"is_reserved":false,"is_disabled":false,"rental_uris":{"android":"levelo://app?vid=9953ec00-c345-4049-8d21-b04e2299c43f","ios":"levelo://app?vid=9953ec00-c345-4049-8d21-b04e2299c43f"},"vehicle_type_id":"4","last_reported":1732191532,"current_range_meters":8800,"station_id":"ce4bhjp2rcd13ifvqga0","pricing_plan_id":"cebpf4jnsgd1na2vs0mg"},{"bike_id":"5e40f376-4713-4509-a484-6f6d63bac293","system_id":"levelo_inurba_marseille","lat":43.31117,"lon":5.37772,"is_reserved":false,"is_disabled":false,"rental_uris":{"android":"levelo://app?vid=5e40f376-4713-4509-a484-6f6d63bac293","ios":"levelo://app?vid=5e40f376-4713-4509-a484-6f6d63bac293"},"vehicle_type_id":"4","last_reported":1732191532,"current_range_meters":18800,"station_id":"ce4bgt92rcd13ifvqcg0","pricing_plan_id":"cebpf4jnsgd1na2vs0mg"},{"bike_id":"03c3a0ad-5ae3-421a-90f7-7a26e9286ea2","system_id":"levelo_inurba_marseille","lat":43.29523,"lon":5.3905,"is_reserved":false,"is_disabled":false,"rental_uris":{"android":"levelo://app?vid=03c3a0ad-5ae3-421a-90f7-7a26e9286ea2","ios":"levelo://app?vid=03c3a0ad-5ae3-421a-90f7-7a26e9286ea2"},"vehicle_type_id":"4","last_reported":1732191532,"current_range_meters":38400,"station_id":"ce4bh3p2rcd13ifvqdp0","pricing_plan_id":"cebpf4jnsgd1na2vs0mg"},{"bike_id":"d5fad729-dcc6-46f0-b4be-9f69354c8b21","system_id":"levelo_inurba_marseille","lat":43.33752,"lon":5.37445,"is_reserved":false,"is_disabled":false,"rental_uris":{"android":"levelo://app?vid=d5fad729-dcc6-46f0-b4be-9f69354c8b21","ios":"levelo://app?vid=d5fad729-dcc6-46f0-b4be-9f69354c8b21"},"vehicle_type_id":"4","last_reported":1732191532,"current_range_meters":37600,"station_id":"","pricing_plan_id":"cebpf4jnsgd1na2vs0mg"},{"bike_id":"141a6003-9c1b-40ba-b273-5abd7a8326b6","system_id":"levelo_inurba_marseille","lat":43.26552,"lon":5.3728,"is_reserved":false,"is_disabled":false,"rental_uris":{"android":"levelo://app?vid=141a6003-9c1b-40ba-b273-5abd7a8326b6","ios":"levelo://app?vid=141a6003-9c1b-40ba-b273-5abd7a8326b6"},"vehicle_type_id":"4","last_reported":1732191532,"current_range_meters":38800,"station_id":"ce4bhg12rcd13ifvqf70","pricing_plan_id":"cebpf4jnsgd1na2vs0mg"},{"bike_id":"51555b90-b7c7-4e79-bc4e-60c6b5e837a5","system_id":"levelo_inurba_marseille","lat":43.29622,"lon":5.37169,"is_reserved":false,"is_disabled":false,"rental_uris":{"android":"levelo://app?vid=51555b90-b7c7-4e79-bc4e-60c6b5e837a5","ios":"levelo://app?vid=51555b90-b7c7-4e79-bc4e-60c6b5e837a5"},"vehicle_type_id":"4","last_reported":1732191532,"current_range_meters":38800,"station_id":"ce4bgnh2rcd13ifvqc0g","pricing_plan_id":"cebpf4jnsgd1na2vs0mg"},{"bike_id":"7e647cfe-54cf-490a-bb7e-01f10acdb5a0","system_id":"levelo_inurba_marseille","lat":43.28367,"lon":5.38636,"is_reserved":false,"is_disabled":true,"rental_uris":{"android":"levelo://app?vid=7e647cfe-54cf-490a-bb7e-01f10acdb5a0","ios":"levelo://app?vid=7e647cfe-54cf-490a-bb7e-01f10acdb5a0"},"vehicle_type_id":"4","last_reported":1732191532,"current_range_meters":38800,"station_id":"ce4bh492rcd13ifvqdvg","pricing_plan_id":"cebpf4jnsgd1na2vs0mg"},{"bike_id":"cdaafd2d-0da1-4fac-9881-15c66a7cd7c0","system_id":"levelo_inurba_marseille","lat":43.23151,"lon":5.43707,"is_reserved":false,"is_disabled":false,"rental_uris":{"android":"levelo://app?vid=cdaafd2d-0da1-4fac-9881-15c66a7cd7c0","ios":"levelo://app?vid=cdaafd2d-0da1-4fac-9881-15c66a7cd7c0"},"vehicle_type_id":"4","last_reported":1732191532,"current_range_meters":39200,"station_id":"ce4bhmp2rcd13ifvqgog","pricing_plan_id":"cebpf4jnsgd1na2vs0mg"},{"bike_id":"a08ecdd5-22d5-4486-81c9-89d3c7400955","system_id":"levelo_inurba_marseille","lat":43.34397,"lon":5.42048,"is_reserved":false,"is_disabled":false,"rental_uris":{"android":"levelo://app?vid=a08ecdd5-22d5-4486-81c9-89d3c7400955","ios":"levelo://app?vid=a08ecdd5-22d5-4486-81c9-89d3c7400955"},"vehicle_type_id":"4","last_reported":1732191532,"current_range_meters":38000,"station_id":"","pricing_plan_id":"cebpf4jnsgd1na2vs0mg"},{"bike_id":"1d606ca2-d831-4cab-8cc3-213a7446614a","system_id":"levelo_inurba_marseille","lat":43.3149,"lon":5.37303,"is_reserved":false,"is_disabled":false,"rental_uris":{"android":"levelo://app?vid=1d606ca2-d831-4cab-8cc3-213a7446614a","ios":"levelo://app?vid=1d606ca2-d831-4cab-8cc3-213a7446614a"},"vehicle_type_id":"4","last_reported":1732191532,"current_range_meters":26800,"station_id":"ce4bgt12rcd13ifvqcd0","pricing_plan_id":"cebpf4jnsgd1na2vs0mg"},{"bike_id":"8d5ad0a8-268e-4afd-be61-7919f93826c7","system_id":"levelo_inurba_marseille","lat":43.299095,"lon":5.374709,"is_reserved":false,"is_disabled":true,"rental_uris":{"android":"levelo://app?vid=8d5ad0a8-268e-4afd-be61-7919f93826c7","ios":"levelo://app?vid=8d5ad0a8-268e-4afd-be61-7919f93826c7"},"vehicle_type_id":"4","last_reported":1732191532,"current_range_meters":33200,"station_id":"ce4bgjh2rcd13ifvqbg0","pricing_plan_id":"cebpf4jnsgd1na2vs0mg"},{"bike_id":"7bc52ef8-b780-4f98-8fa2-b2125397c84e","system_id":"levelo_inurba_marseille","lat":43.32362,"lon":5.3888,"is_reserved":false,"is_disabled":false,"rental_uris":{"android":"levelo://app?vid=7bc52ef8-b780-4f98-8fa2-b2125397c84e","ios":"levelo://app?vid=7bc52ef8-b780-4f98-8fa2-b2125397c84e"},"vehicle_type_id":"4","last_reported":1732191532,"current_range_meters":32000,"station_id":"ce4bhqp2rcd13ifvqhog","pricing_plan_id":"cebpf4jnsgd1na2vs0mg"},{"bike_id":"26ef3bf1-5967-4c9e-90dc-77d70dd1c17d","system_id":"levelo_inurba_marseille","lat":43.28354,"lon":5.38105,"is_reserved":false,"is_disabled":false,"rental_uris":{"android":"levelo://app?vid=26ef3bf1-5967-4c9e-90dc-77d70dd1c17d","ios":"levelo://app?vid=26ef3bf1-5967-4c9e-90dc-77d70dd1c17d"},"vehicle_type_id":"4","last_reported":1732191532,"current_range_meters":28800,"station_id":"ce4bh412rcd13ifvqdr0","pricing_plan_id":"cebpf4jnsgd1na2vs0mg"},{"bike_id":"21e611ca-1d52-46b2-9962-730ca3426b93","system_id":"levelo_inurba_marseille","lat":43.314859,"lon":5.372989,"is_reserved":false,"is_disabled":false,"rental_uris":{"android":"levelo://app?vid=21e611ca-1d52-46b2-9962-730ca3426b93","ios":"levelo://app?vid=21e611ca-1d52-46b2-9962-730ca3426b93"},"vehicle_type_id":"4","last_reported":1732191532,"current_range_meters":17200,"station_id":"ce4bgt12rcd13ifvqcd0","pricing_plan_id":"cebpf4jnsgd1na2vs0mg"},{"bike_id":"62e4a358-c2a0-48ac-be94-b0cfc53ce058","system_id":"levelo_inurba_marseille","lat":43.30292,"lon":5.37707,"is_reserved":false,"is_disabled":false,"rental_uris":{"android":"levelo://app?vid=62e4a358-c2a0-48ac-be94-b0cfc53ce058","ios":"levelo://app?vid=62e4a358-c2a0-48ac-be94-b0cfc53ce058"},"vehicle_type_id":"4","last_reported":1732191532,"current_range_meters":38800,"station_id":"ce4bguh2rcd13ifvqcj0","pricing_plan_id":"cebpf4jnsgd1na2vs0mg"},{"bike_id":"77166ead-af9d-4f34-a7d0-d70f44d50fc2","system_id":"levelo_inurba_marseille","lat":43.29292,"lon":5.37467,"is_reserved":false,"is_disabled":false,"rental_uris":{"android":"levelo://app?vid=77166ead-af9d-4f34-a7d0-d70f44d50fc2","ios":"levelo://app?vid=77166ead-af9d-4f34-a7d0-d70f44d50fc2"},"vehicle_type_id":"4","last_reported":1732191532,"current_range_meters":35200,"station_id":"ce4bgi12rcd13ifvqb70","pricing_plan_id":"cebpf4jnsgd1na2vs0mg"},{"bike_id":"e41e2b51-c116-404e-9858-995a8625acfc","system_id":"levelo_inurba_marseille","lat":43.3055,"lon":5.36697,"is_reserved":false,"is_disabled":false,"rental_uris":{"android":"levelo://app?vid=e41e2b51-c116-404e-9858-995a8625acfc","ios":"levelo://app?vid=e41e2b51-c116-404e-9858-995a8625acfc"},"vehicle_type_id":"4","last_reported":1732191532,"current_range_meters":38800,"station_id":"ce4bgrp2rcd13ifvqc9g","pricing_plan_id":"cebpf4jnsgd1na2vs0mg"},{"bike_id":"3663e551-0669-4733-ba48-df97cefac38e","system_id":"levelo_inurba_marseille","lat":43.26551,"lon":5.37285,"is_reserved":false,"is_disabled":false,"rental_uris":{"android":"levelo://app?vid=3663e551-0669-4733-ba48-df97cefac38e","ios":"levelo://app?vid=3663e551-0669-4733-ba48-df97cefac38e"},"vehicle_type_id":"4","last_reported":1732191532,"current_range_meters":38800,"station_id":"ce4bhg12rcd13ifvqf70","pricing_plan_id":"cebpf4jnsgd1na2vs0mg"},{"bike_id":"79062315-c396-425e-b0f2-e3729387cfe9","system_id":"levelo_inurba_marseille","lat":43.30548,"lon":5.38433,"is_reserved":false,"is_disabled":false,"rental_uris":{"android":"levelo://app?vid=79062315-c396-425e-b0f2-e3729387cfe9","ios":"levelo://app?vid=79062315-c396-425e-b0f2-e3729387cfe9"},"vehicle_type_id":"4","last_reported":1732191532,"current_range_meters":38400,"station_id":"ce4bgg92rcd13ifvqb30","pricing_plan_id":"cebpf4jnsgd1na2vs0mg"},{"bike_id":"f3d1de11-ea0c-4809-8e9c-3957146035eb","system_id":"levelo_inurba_marseille","lat":43.26025,"lon":5.37553,"is_reserved":false,"is_disabled":false,"rental_uris":{"android":"levelo://app?vid=f3d1de11-ea0c-4809-8e9c-3957146035eb","ios":"levelo://app?vid=f3d1de11-ea0c-4809-8e9c-3957146035eb"},"vehicle_type_id":"4","last_reported":1732191532,"current_range_meters":32000,"station_id":"ce4bhgh2rcd13ifvqfa0","pricing_plan_id":"cebpf4jnsgd1na2vs0mg"},{"bike_id":"319639f6-c364-407e-9612-56f449d4d076","system_id":"levelo_inurba_marseille","lat":43.28072,"lon":5.39653,"is_reserved":false,"is_disabled":true,"rental_uris":{"android":"levelo://app?vid=319639f6-c364-407e-9612-56f449d4d076","ios":"levelo://app?vid=319639f6-c364-407e-9612-56f449d4d076"},"vehicle_type_id":"4","last_reported":1732191532,"current_range_meters":0,"station_id":"ce4bho12rcd13ifvqh2g","pricing_plan_id":"cebpf4jnsgd1na2vs0mg"},{"bike_id":"58f2a0a1-9371-43c5-807e-fd99ff92529a","system_id":"levelo_inurba_marseille","lat":43.29055,"lon":5.35901,"is_reserved":false,"is_disabled":false,"rental_uris":{"android":"levelo://app?vid=58f2a0a1-9371-43c5-807e-fd99ff92529a","ios":"levelo://app?vid=58f2a0a1-9371-43c5-807e-fd99ff92529a"},"vehicle_type_id":"4","last_reported":1732191532,"current_range_meters":37600,"station_id":"ce4bha92rcd13ifvqeg0","pricing_plan_id":"cebpf4jnsgd1na2vs0mg"},{"bike_id":"20327a65-d185-47c0-9c7a-139090f9fbdf","system_id":"levelo_inurba_marseille","lat":43.26215,"lon":5.3744,"is_reserved":false,"is_disabled":false,"rental_uris":{"android":"levelo://app?vid=20327a65-d185-47c0-9c7a-139090f9fbdf","ios":"levelo://app?vid=20327a65-d185-47c0-9c7a-139090f9fbdf"},"vehicle_type_id":"4","last_reported":1732191532,"current_range_meters":7200,"station_id":"ce4bhgp2rcd13ifvqfc0","pricing_plan_id":"cebpf4jnsgd1na2vs0mg"},{"bike_id":"adf5ed37-f7b7-49c3-9a7a-072c7076a425","system_id":"levelo_inurba_marseille","lat":43.32541,"lon":5.41427,"is_reserved":false,"is_disabled":false,"rental_uris":{"android":"levelo://app?vid=adf5ed37-f7b7-49c3-9a7a-072c7076a425","ios":"levelo://app?vid=adf5ed37-f7b7-49c3-9a7a-072c7076a425"},"vehicle_type_id":"4","last_reported":1732191532,"current_range_meters":14800,"station_id":"ce4bhq12rcd13ifvqhhg","pricing_plan_id":"cebpf4jnsgd1na2vs0mg"},{"bike_id":"bf776de6-76d7-4c17-b80e-66169c0d355f","system_id":"levelo_inurba_marseille","lat":43.29968,"lon":5.38509,"is_reserved":false,"is_disabled":false,"rental_uris":{"android":"levelo://app?vid=bf776de6-76d7-4c17-b80e-66169c0d355f","ios":"levelo://app?vid=bf776de6-76d7-4c17-b80e-66169c0d355f"},"vehicle_type_id":"4","last_reported":1732191532,"current_range_meters":29600,"station_id":"ce4bgj92rcd13ifvqbd0","pricing_plan_id":"cebpf4jnsgd1na2vs0mg"},{"bike_id":"53bbdfc0-4d63-4cc4-86e6-4ec910061123","system_id":"levelo_inurba_marseille","lat":43.3091,"lon":5.36701,"is_reserved":false,"is_disabled":true,"rental_uris":{"android":"levelo://app?vid=53bbdfc0-4d63-4cc4-86e6-4ec910061123","ios":"levelo://app?vid=53bbdfc0-4d63-4cc4-86e6-4ec910061123"},"vehicle_type_id":"4","last_reported":1732191532,"current_range_meters":0,"station_id":"","pricing_plan_id":"cebpf4jnsgd1na2vs0mg"},{"bike_id":"b494a81b-9378-4a05-b7e5-9de8ae63939b","system_id":"levelo_inurba_marseille","lat":43.249978,"lon":5.389246,"is_reserved":false,"is_disabled":false,"rental_uris":{"android":"levelo://app?vid=b494a81b-9378-4a05-b7e5-9de8ae63939b","ios":"levelo://app?vid=b494a81b-9378-4a05-b7e5-9de8ae63939b"},"vehicle_type_id":"4","last_reported":1732191532,"current_range_meters":17200,"station_id":"ce4bhgp2rcd13ifvqfd0","pricing_plan_id":"cebpf4jnsgd1na2vs0mg"},{"bike_id":"dfca3e23-b1dd-40cd-81b2-441e5e82c803","system_id":"levelo_inurba_marseille","lat":43.24163,"lon":5.36391,"is_reserved":false,"is_disabled":false,"rental_uris":{"android":"levelo://app?vid=dfca3e23-b1dd-40cd-81b2-441e5e82c803","ios":"levelo://app?vid=dfca3e23-b1dd-40cd-81b2-441e5e82c803"},"vehicle_type_id":"4","last_reported":1732191532,"current_range_meters":2000,"station_id":"cpo36qri1sfpv3e86is0","pricing_plan_id":"cebpf4jnsgd1na2vs0mg"},{"bike_id":"3193222d-584b-4642-a1d8-0c04b2309736","system_id":"levelo_inurba_marseille","lat":43.33725,"lon":5.39183,"is_reserved":false,"is_disabled":false,"rental_uris":{"android":"levelo://app?vid=3193222d-584b-4642-a1d8-0c04b2309736","ios":"levelo://app?vid=3193222d-584b-4642-a1d8-0c04b2309736"},"vehicle_type_id":"4","last_reported":1732191532,"current_range_meters":8000,"station_id":"ce4bhr92rcd13ifvqhsg","pricing_plan_id":"cebpf4jnsgd1na2vs0mg"},{"bike_id":"b47fe88f-9cf2-4265-8d21-f71b1a276992","system_id":"levelo_inurba_marseille","lat":43.30545,"lon":5.38431,"is_reserved":false,"is_disabled":false,"rental_uris":{"android":"levelo://app?vid=b47fe88f-9cf2-4265-8d21-f71b1a276992","ios":"levelo://app?vid=b47fe88f-9cf2-4265-8d21-f71b1a276992"},"vehicle_type_id":"4","last_reported":1732191532,"current_range_meters":28800,"station_id":"ce4bgg92rcd13ifvqb30","pricing_plan_id":"cebpf4jnsgd1na2vs0mg"},{"bike_id":"bc287d9c-98f8-4217-96a4-14fcc9b0f36d","system_id":"levelo_inurba_marseille","lat":43.29225,"lon":5.36051,"is_reserved":false,"is_disabled":false,"rental_uris":{"android":"levelo://app?vid=bc287d9c-98f8-4217-96a4-14fcc9b0f36d","ios":"levelo://app?vid=bc287d9c-98f8-4217-96a4-14fcc9b0f36d"},"vehicle_type_id":"4","last_reported":1732191532,"current_range_meters":37600,"station_id":"ce4bhbh2rcd13ifvqeqg","pricing_plan_id":"cebpf4jnsgd1na2vs0mg"},{"bike_id":"4c66b00c-1191-456f-9275-e9489d946017","system_id":"levelo_inurba_marseille","lat":43.2893,"lon":5.38395,"is_reserved":false,"is_disabled":false,"rental_uris":{"android":"levelo://app?vid=4c66b00c-1191-456f-9275-e9489d946017","ios":"levelo://app?vid=4c66b00c-1191-456f-9275-e9489d946017"},"vehicle_type_id":"4","last_reported":1732191532,"current_range_meters":38800,"station_id":"ce4bh612rcd13ifvqe6g","pricing_plan_id":"cebpf4jnsgd1na2vs0mg"},{"bike_id":"d3dffc6d-495e-47d8-9cef-0bc272b096ee","system_id":"levelo_inurba_marseille","lat":43.30194,"lon":5.3662,"is_reserved":false,"is_disabled":false,"rental_uris":{"android":"levelo://app?vid=d3dffc6d-495e-47d8-9cef-0bc272b096ee","ios":"levelo://app?vid=d3dffc6d-495e-47d8-9cef-0bc272b096ee"},"vehicle_type_id":"4","last_reported":1732191532,"current_range_meters":5600,"station_id":"ce4bgrh2rcd13ifvqc8g","pricing_plan_id":"cebpf4jnsgd1na2vs0mg"},{"bike_id":"fae4826f-7cb0-49ab-84f6-0e67dea50443","system_id":"levelo_inurba_marseille","lat":43.27204,"lon":5.39177,"is_reserved":false,"is_disabled":true,"rental_uris":{"android":"levelo://app?vid=fae4826f-7cb0-49ab-84f6-0e67dea50443","ios":"levelo://app?vid=fae4826f-7cb0-49ab-84f6-0e67dea50443"},"vehicle_type_id":"4","last_reported":1732191532,"current_range_meters":0,"station_id":"ce4bhhp2rcd13ifvqfm0","pricing_plan_id":"cebpf4jnsgd1na2vs0mg"},{"bike_id":"c7cde52b-40a3-4b6f-9cb2-9dcdaa738746","system_id":"levelo_inurba_marseille","lat":43.28464,"lon":5.35882,"is_reserved":false,"is_disabled":false,"rental_uris":{"android":"levelo://app?vid=c7cde52b-40a3-4b6f-9cb2-9dcdaa738746","ios":"levelo://app?vid=c7cde52b-40a3-4b6f-9cb2-9dcdaa738746"},"vehicle_type_id":"4","last_reported":1732191532,"current_range_meters":20000,"station_id":"ce4bhah2rcd13ifvqei0","pricing_plan_id":"cebpf4jnsgd1na2vs0mg"},{"bike_id":"8ae288fe-7f9e-4636-bc68-3daa0c790f34","system_id":"levelo_inurba_marseille","lat":43.24662,"lon":5.38168,"is_reserved":false,"is_disabled":false,"rental_uris":{"android":"levelo://app?vid=8ae288fe-7f9e-4636-bc68-3daa0c790f34","ios":"levelo://app?vid=8ae288fe-7f9e-4636-bc68-3daa0c790f34"},"vehicle_type_id":"4","last_reported":1732191532,"current_range_meters":36800,"station_id":"ce4bhih2rcd13ifvqfr0","pricing_plan_id":"cebpf4jnsgd1na2vs0mg"},{"bike_id":"dc97ad47-8228-4c79-9eca-aecab34aa7b1","system_id":"levelo_inurba_marseille","lat":43.27941,"lon":5.41045,"is_reserved":false,"is_disabled":false,"rental_uris":{"android":"levelo://app?vid=dc97ad47-8228-4c79-9eca-aecab34aa7b1","ios":"levelo://app?vid=dc97ad47-8228-4c79-9eca-aecab34aa7b1"},"vehicle_type_id":"4","last_reported":1732191532,"current_range_meters":16400,"station_id":"ce4bhnp2rcd13ifvqh0g","pricing_plan_id":"cebpf4jnsgd1na2vs0mg"},{"bike_id":"e7380664-05a3-49c0-af4e-9d199a3b9f42","system_id":"levelo_inurba_marseille","lat":43.29629,"lon":5.37719,"is_reserved":false,"is_disabled":false,"rental_uris":{"android":"levelo://app?vid=e7380664-05a3-49c0-af4e-9d199a3b9f42","ios":"levelo://app?vid=e7380664-05a3-49c0-af4e-9d199a3b9f42"},"vehicle_type_id":"4","last_reported":1732191532,"current_range_meters":31200,"station_id":"ce4bgi92rcd13ifvqb90","pricing_plan_id":"cebpf4jnsgd1na2vs0mg"},{"bike_id":"3ab17ba5-d81d-4591-bc2d-07a6a22ccfb2","system_id":"levelo_inurba_marseille","lat":43.29729,"lon":5.37688,"is_reserved":false,"is_disabled":false,"rental_uris":{"android":"levelo://app?vid=3ab17ba5-d81d-4591-bc2d-07a6a22ccfb2","ios":"levelo://app?vid=3ab17ba5-d81d-4591-bc2d-07a6a22ccfb2"},"vehicle_type_id":"4","last_reported":1732191532,"current_range_meters":26000,"station_id":"ce4bgkh2rcd13ifvqbl0","pricing_plan_id":"cebpf4jnsgd1na2vs0mg"},{"bike_id":"beb38203-3c72-444b-9302-f5ea33823b29","system_id":"levelo_inurba_marseille","lat":43.28001,"lon":5.40017,"is_reserved":false,"is_disabled":false,"rental_uris":{"android":"levelo://app?vid=beb38203-3c72-444b-9302-f5ea33823b29","ios":"levelo://app?vid=beb38203-3c72-444b-9302-f5ea33823b29"},"vehicle_type_id":"4","last_reported":1732191532,"current_range_meters":6400,"station_id":"ce4bho92rcd13ifvqh4g","pricing_plan_id":"cebpf4jnsgd1na2vs0mg"},{"bike_id":"612e2fb5-5bdd-4493-9d90-eaa49396d072","system_id":"levelo_inurba_marseille","lat":43.30558,"lon":5.36501,"is_reserved":false,"is_disabled":false,"rental_uris":{"android":"levelo://app?vid=612e2fb5-5bdd-4493-9d90-eaa49396d072","ios":"levelo://app?vid=612e2fb5-5bdd-4493-9d90-eaa49396d072"},"vehicle_type_id":"4","last_reported":1732191532,"current_range_meters":38000,"station_id":"ce4bgs12rcd13ifvqcag","pricing_plan_id":"cebpf4jnsgd1na2vs0mg"},{"bike_id":"24618c6c-9f3e-4480-ac3f-3dfa9b93dc99","system_id":"levelo_inurba_marseille","lat":43.27942,"lon":5.41044,"is_reserved":false,"is_disabled":true,"rental_uris":{"android":"levelo://app?vid=24618c6c-9f3e-4480-ac3f-3dfa9b93dc99","ios":"levelo://app?vid=24618c6c-9f3e-4480-ac3f-3dfa9b93dc99"},"vehicle_type_id":"4","last_reported":1732191532,"current_range_meters":0,"station_id":"ce4bhnp2rcd13ifvqh0g","pricing_plan_id":"cebpf4jnsgd1na2vs0mg"},{"bike_id":"d67adecc-f4bc-486c-995c-7f6c894d54fe","system_id":"levelo_inurba_marseille","lat":43.2992,"lon":5.37477,"is_reserved":false,"is_disabled":false,"rental_uris":{"android":"levelo://app?vid=d67adecc-f4bc-486c-995c-7f6c894d54fe","ios":"levelo://app?vid=d67adecc-f4bc-486c-995c-7f6c894d54fe"},"vehicle_type_id":"4","last_reported":1732191532,"current_range_meters":38800,"station_id":"ce4bgjh2rcd13ifvqbg0","pricing_plan_id":"cebpf4jnsgd1na2vs0mg"},{"bike_id":"9a224ce9-2993-48b2-9e56-d24e870555b1","system_id":"levelo_inurba_marseille","lat":43.26785,"lon":5.39411,"is_reserved":false,"is_disabled":false,"rental_uris":{"android":"levelo://app?vid=9a224ce9-2993-48b2-9e56-d24e870555b1","ios":"levelo://app?vid=9a224ce9-2993-48b2-9e56-d24e870555b1"},"vehicle_type_id":"4","last_reported":1732191532,"current_range_meters":38800,"station_id":"ce4bhh12rcd13ifvqfg0","pricing_plan_id":"cebpf4jnsgd1na2vs0mg"},{"bike_id":"6f3a2c32-febe-4d20-b478-1904fbbc827c","system_id":"levelo_inurba_marseille","lat":43.306,"lon":5.37228,"is_reserved":false,"is_disabled":false,"rental_uris":{"android":"levelo://app?vid=6f3a2c32-febe-4d20-b478-1904fbbc827c","ios":"levelo://app?vid=6f3a2c32-febe-4d20-b478-1904fbbc827c"},"vehicle_type_id":"4","last_reported":1732191532,"current_range_meters":19600,"station_id":"ce4bgqh2rcd13ifvqc4g","pricing_plan_id":"cebpf4jnsgd1na2vs0mg"},{"bike_id":"889549f4-52db-4c10-8952-2d713c9cb7e7","system_id":"levelo_inurba_marseille","lat":43.24081,"lon":5.37744,"is_reserved":false,"is_disabled":false,"rental_uris":{"android":"levelo://app?vid=889549f4-52db-4c10-8952-2d713c9cb7e7","ios":"levelo://app?vid=889549f4-52db-4c10-8952-2d713c9cb7e7"},"vehicle_type_id":"4","last_reported":1732191532,"current_range_meters":38800,"station_id":"ce4bhnp2rcd13ifvqgvg","pricing_plan_id":"cebpf4jnsgd1na2vs0mg"},{"bike_id":"f739db3d-e57b-4e04-a4d0-90a64085c96d","system_id":"levelo_inurba_marseille","lat":43.2397,"lon":5.36627,"is_reserved":false,"is_disabled":false,"rental_uris":{"android":"levelo://app?vid=f739db3d-e57b-4e04-a4d0-90a64085c96d","ios":"levelo://app?vid=f739db3d-e57b-4e04-a4d0-90a64085c96d"},"vehicle_type_id":"4","last_reported":1732191532,"current_range_meters":5600,"station_id":"ce4bhi12rcd13ifvqfp0","pricing_plan_id":"cebpf4jnsgd1na2vs0mg"},{"bike_id":"089fadd4-bd3e-433a-b4d1-be4d9cb61c9f","system_id":"levelo_inurba_marseille","lat":43.30138,"lon":5.37414,"is_reserved":false,"is_disabled":false,"rental_uris":{"android":"levelo://app?vid=089fadd4-bd3e-433a-b4d1-be4d9cb61c9f","ios":"levelo://app?vid=089fadd4-bd3e-433a-b4d1-be4d9cb61c9f"},"vehicle_type_id":"4","last_reported":1732191532,"current_range_meters":26000,"station_id":"ce4bgs92rcd13ifvqcc0","pricing_plan_id":"cebpf4jnsgd1na2vs0mg"},{"bike_id":"8fff82c0-94c8-4109-9d0c-0de6261ecbde","system_id":"levelo_inurba_marseille","lat":43.26555,"lon":5.37292,"is_reserved":false,"is_disabled":false,"rental_uris":{"android":"levelo://app?vid=8fff82c0-94c8-4109-9d0c-0de6261ecbde","ios":"levelo://app?vid=8fff82c0-94c8-4109-9d0c-0de6261ecbde"},"vehicle_type_id":"4","last_reported":1732191532,"current_range_meters":38800,"station_id":"ce4bhg12rcd13ifvqf70","pricing_plan_id":"cebpf4jnsgd1na2vs0mg"},{"bike_id":"519aef3f-1ad2-4edb-bb0d-161b0166ade4","system_id":"levelo_inurba_marseille","lat":43.2894,"lon":5.39632,"is_reserved":false,"is_disabled":true,"rental_uris":{"android":"levelo://app?vid=519aef3f-1ad2-4edb-bb0d-161b0166ade4","ios":"levelo://app?vid=519aef3f-1ad2-4edb-bb0d-161b0166ade4"},"vehicle_type_id":"4","last_reported":1732191532,"current_range_meters":11200,"station_id":"ce4bh3h2rcd13ifvqdn0","pricing_plan_id":"cebpf4jnsgd1na2vs0mg"},{"bike_id":"1a51f640-6b48-41c3-8e7d-c6952041deac","system_id":"levelo_inurba_marseille","lat":43.29801,"lon":5.40409,"is_reserved":false,"is_disabled":false,"rental_uris":{"android":"levelo://app?vid=1a51f640-6b48-41c3-8e7d-c6952041deac","ios":"levelo://app?vid=1a51f640-6b48-41c3-8e7d-c6952041deac"},"vehicle_type_id":"4","last_reported":1732191532,"current_range_meters":36000,"station_id":"ce4bh112rcd13ifvqd90","pricing_plan_id":"cebpf4jnsgd1na2vs0mg"},{"bike_id":"75d0508e-0486-4999-84e8-3fddd3f3ebd3","system_id":"levelo_inurba_marseille","lat":43.27313,"lon":5.39077,"is_reserved":false,"is_disabled":false,"rental_uris":{"android":"levelo://app?vid=75d0508e-0486-4999-84e8-3fddd3f3ebd3","ios":"levelo://app?vid=75d0508e-0486-4999-84e8-3fddd3f3ebd3"},"vehicle_type_id":"4","last_reported":1732191532,"current_range_meters":39200,"station_id":"ce4bhgp2rcd13ifvqfe0","pricing_plan_id":"cebpf4jnsgd1na2vs0mg"},{"bike_id":"5d65b627-3435-4723-9775-b5218e9b2a7a","system_id":"levelo_inurba_marseille","lat":43.27207,"lon":5.39186,"is_reserved":false,"is_disabled":true,"rental_uris":{"android":"levelo://app?vid=5d65b627-3435-4723-9775-b5218e9b2a7a","ios":"levelo://app?vid=5d65b627-3435-4723-9775-b5218e9b2a7a"},"vehicle_type_id":"4","last_reported":1732191532,"current_range_meters":3200,"station_id":"ce4bhhp2rcd13ifvqfm0","pricing_plan_id":"cebpf4jnsgd1na2vs0mg"},{"bike_id":"9c2f56c3-b6c0-4a04-ad1c-456b29248b9e","system_id":"levelo_inurba_marseille","lat":43.30534,"lon":5.36688,"is_reserved":false,"is_disabled":false,"rental_uris":{"android":"levelo://app?vid=9c2f56c3-b6c0-4a04-ad1c-456b29248b9e","ios":"levelo://app?vid=9c2f56c3-b6c0-4a04-ad1c-456b29248b9e"},"vehicle_type_id":"4","last_reported":1732191532,"current_range_meters":26800,"station_id":"ce4bgrp2rcd13ifvqc9g","pricing_plan_id":"cebpf4jnsgd1na2vs0mg"},{"bike_id":"32c2fe9f-a607-4c07-a100-4beef28636ed","system_id":"levelo_inurba_marseille","lat":43.32479,"lon":5.36566,"is_reserved":false,"is_disabled":false,"rental_uris":{"android":"levelo://app?vid=32c2fe9f-a607-4c07-a100-4beef28636ed","ios":"levelo://app?vid=32c2fe9f-a607-4c07-a100-4beef28636ed"},"vehicle_type_id":"4","last_reported":1732191532,"current_range_meters":25600,"station_id":"ce4bhs12rcd13ifvqhvg","pricing_plan_id":"cebpf4jnsgd1na2vs0mg"},{"bike_id":"43c8e9b3-9b4a-4510-a969-75b32db670f0","system_id":"levelo_inurba_marseille","lat":43.26787,"lon":5.39416,"is_reserved":false,"is_disabled":true,"rental_uris":{"android":"levelo://app?vid=43c8e9b3-9b4a-4510-a969-75b32db670f0","ios":"levelo://app?vid=43c8e9b3-9b4a-4510-a969-75b32db670f0"},"vehicle_type_id":"4","last_reported":1732191532,"current_range_meters":0,"station_id":"ce4bhh12rcd13ifvqfg0","pricing_plan_id":"cebpf4jnsgd1na2vs0mg"},{"bike_id":"1904e4d6-e1e0-456f-9800-8b0e0e7107b4","system_id":"levelo_inurba_marseille","lat":43.23152,"lon":5.43708,"is_reserved":false,"is_disabled":false,"rental_uris":{"android":"levelo://app?vid=1904e4d6-e1e0-456f-9800-8b0e0e7107b4","ios":"levelo://app?vid=1904e4d6-e1e0-456f-9800-8b0e0e7107b4"},"vehicle_type_id":"4","last_reported":1732191532,"current_range_meters":39200,"station_id":"ce4bhmp2rcd13ifvqgog","pricing_plan_id":"cebpf4jnsgd1na2vs0mg"},{"bike_id":"910acaca-1fd5-47a9-8099-4a1ea3edf288","system_id":"levelo_inurba_marseille","lat":43.30804,"lon":5.38158,"is_reserved":false,"is_disabled":false,"rental_uris":{"android":"levelo://app?vid=910acaca-1fd5-47a9-8099-4a1ea3edf288","ios":"levelo://app?vid=910acaca-1fd5-47a9-8099-4a1ea3edf288"},"vehicle_type_id":"4","last_reported":1732191532,"current_range_meters":38800,"station_id":"ce4bgt12rcd13ifvqce0","pricing_plan_id":"cebpf4jnsgd1na2vs0mg"},{"bike_id":"d10b2987-86cd-485f-aa80-f1f4baac1d33","system_id":"levelo_inurba_marseille","lat":43.29974,"lon":5.37178,"is_reserved":false,"is_disabled":false,"rental_uris":{"android":"levelo://app?vid=d10b2987-86cd-485f-aa80-f1f4baac1d33","ios":"levelo://app?vid=d10b2987-86cd-485f-aa80-f1f4baac1d33"},"vehicle_type_id":"4","last_reported":1732191532,"current_range_meters":20400,"station_id":"ce4bgr92rcd13ifvqc7g","pricing_plan_id":"cebpf4jnsgd1na2vs0mg"},{"bike_id":"1eff5ce5-2d56-4465-a12c-60db9ec2175a","system_id":"levelo_inurba_marseille","lat":43.22931,"lon":5.35371,"is_reserved":false,"is_disabled":false,"rental_uris":{"android":"levelo://app?vid=1eff5ce5-2d56-4465-a12c-60db9ec2175a","ios":"levelo://app?vid=1eff5ce5-2d56-4465-a12c-60db9ec2175a"},"vehicle_type_id":"4","last_reported":1732191532,"current_range_meters":9600,"station_id":"cpo3532slgdg3j2ikp40","pricing_plan_id":"cebpf4jnsgd1na2vs0mg"},{"bike_id":"ce6d46e5-4223-4bce-a0db-85f63ca84039","system_id":"levelo_inurba_marseille","lat":43.3015,"lon":5.4005,"is_reserved":false,"is_disabled":true,"rental_uris":{"android":"levelo://app?vid=ce6d46e5-4223-4bce-a0db-85f63ca84039","ios":"levelo://app?vid=ce6d46e5-4223-4bce-a0db-85f63ca84039"},"vehicle_type_id":"4","last_reported":1732191532,"current_range_meters":2000,"station_id":"","pricing_plan_id":"cebpf4jnsgd1na2vs0mg"},{"bike_id":"dc815649-e3e3-48aa-b0fd-022cdb8ac58a","system_id":"levelo_inurba_marseille","lat":43.32367,"lon":5.3888,"is_reserved":false,"is_disabled":false,"rental_uris":{"android":"levelo://app?vid=dc815649-e3e3-48aa-b0fd-022cdb8ac58a","ios":"levelo://app?vid=dc815649-e3e3-48aa-b0fd-022cdb8ac58a"},"vehicle_type_id":"4","last_reported":1732191532,"current_range_meters":8400,"station_id":"ce4bhqp2rcd13ifvqhog","pricing_plan_id":"cebpf4jnsgd1na2vs0mg"},{"bike_id":"5c801927-33bd-48a8-8984-1ac5bb499b83","system_id":"levelo_inurba_marseille","lat":43.30545,"lon":5.36547,"is_reserved":false,"is_disabled":false,"rental_uris":{"android":"levelo://app?vid=5c801927-33bd-48a8-8984-1ac5bb499b83","ios":"levelo://app?vid=5c801927-33bd-48a8-8984-1ac5bb499b83"},"vehicle_type_id":"4","last_reported":1732191532,"current_range_meters":24800,"station_id":"ce4bgs12rcd13ifvqcag","pricing_plan_id":"cebpf4jnsgd1na2vs0mg"},{"bike_id":"971bc59d-3905-4305-a7ab-d4c18176b064","system_id":"levelo_inurba_marseille","lat":43.24064,"lon":5.37759,"is_reserved":false,"is_disabled":false,"rental_uris":{"android":"levelo://app?vid=971bc59d-3905-4305-a7ab-d4c18176b064","ios":"levelo://app?vid=971bc59d-3905-4305-a7ab-d4c18176b064"},"vehicle_type_id":"4","last_reported":1732191532,"current_range_meters":17200,"station_id":"ce4bhnp2rcd13ifvqgvg","pricing_plan_id":"cebpf4jnsgd1na2vs0mg"},{"bike_id":"6e1202d7-79a0-4929-9ed3-a6242fdc8587","system_id":"levelo_inurba_marseille","lat":43.25583,"lon":5.38238,"is_reserved":false,"is_disabled":false,"rental_uris":{"android":"levelo://app?vid=6e1202d7-79a0-4929-9ed3-a6242fdc8587","ios":"levelo://app?vid=6e1202d7-79a0-4929-9ed3-a6242fdc8587"},"vehicle_type_id":"4","last_reported":1732191532,"current_range_meters":38000,"station_id":"ce4bhih2rcd13ifvqfs0","pricing_plan_id":"cebpf4jnsgd1na2vs0mg"},{"bike_id":"d5e18f5c-b2ab-4047-84c8-18de805c95b5","system_id":"levelo_inurba_marseille","lat":43.26951,"lon":5.38622,"is_reserved":false,"is_disabled":true,"rental_uris":{"android":"levelo://app?vid=d5e18f5c-b2ab-4047-84c8-18de805c95b5","ios":"levelo://app?vid=d5e18f5c-b2ab-4047-84c8-18de805c95b5"},"vehicle_type_id":"4","last_reported":1732191532,"current_range_meters":8400,"station_id":"ce4bhh92rcd13ifvqfh0","pricing_plan_id":"cebpf4jnsgd1na2vs0mg"},{"bike_id":"87bdbe60-5511-4418-a4e4-682b5da37bfd","system_id":"levelo_inurba_marseille","lat":43.25865,"lon":5.39897,"is_reserved":false,"is_disabled":true,"rental_uris":{"android":"levelo://app?vid=87bdbe60-5511-4418-a4e4-682b5da37bfd","ios":"levelo://app?vid=87bdbe60-5511-4418-a4e4-682b5da37bfd"},"vehicle_type_id":"4","last_reported":1732191532,"current_range_meters":38800,"station_id":"ce4bhl92rcd13ifvqghg","pricing_plan_id":"cebpf4jnsgd1na2vs0mg"},{"bike_id":"47052fe1-a05c-49c3-b626-f5c628f20fc0","system_id":"levelo_inurba_marseille","lat":43.29108,"lon":5.38132,"is_reserved":false,"is_disabled":false,"rental_uris":{"android":"levelo://app?vid=47052fe1-a05c-49c3-b626-f5c628f20fc0","ios":"levelo://app?vid=47052fe1-a05c-49c3-b626-f5c628f20fc0"},"vehicle_type_id":"4","last_reported":1732191532,"current_range_meters":38800,"station_id":"ce4bh512rcd13ifvqe2g","pricing_plan_id":"cebpf4jnsgd1na2vs0mg"},{"bike_id":"3fbe99a9-12ca-4576-a9f7-40446b8230d0","system_id":"levelo_inurba_marseille","lat":43.23155,"lon":5.43706,"is_reserved":false,"is_disabled":false,"rental_uris":{"android":"levelo://app?vid=3fbe99a9-12ca-4576-a9f7-40446b8230d0","ios":"levelo://app?vid=3fbe99a9-12ca-4576-a9f7-40446b8230d0"},"vehicle_type_id":"4","last_reported":1732191532,"current_range_meters":8800,"station_id":"ce4bhmp2rcd13ifvqgog","pricing_plan_id":"cebpf4jnsgd1na2vs0mg"},{"bike_id":"bbcc4b32-d984-4eab-9051-c2a360328c48","system_id":"levelo_inurba_marseille","lat":43.29226,"lon":5.36058,"is_reserved":false,"is_disabled":false,"rental_uris":{"android":"levelo://app?vid=bbcc4b32-d984-4eab-9051-c2a360328c48","ios":"levelo://app?vid=bbcc4b32-d984-4eab-9051-c2a360328c48"},"vehicle_type_id":"4","last_reported":1732191532,"current_range_meters":20000,"station_id":"ce4bhbh2rcd13ifvqeqg","pricing_plan_id":"cebpf4jnsgd1na2vs0mg"},{"bike_id":"54e837b7-b737-4c16-90fc-fd21fc078745","system_id":"levelo_inurba_marseille","lat":43.28998,"lon":5.35619,"is_reserved":false,"is_disabled":false,"rental_uris":{"android":"levelo://app?vid=54e837b7-b737-4c16-90fc-fd21fc078745","ios":"levelo://app?vid=54e837b7-b737-4c16-90fc-fd21fc078745"},"vehicle_type_id":"4","last_reported":1732191532,"current_range_meters":9200,"station_id":"ce4bhb92rcd13ifvqen0","pricing_plan_id":"cebpf4jnsgd1na2vs0mg"},{"bike_id":"c74528e0-ae6e-446f-b436-91ec4ca23880","system_id":"levelo_inurba_marseille","lat":43.28475,"lon":5.3855,"is_reserved":false,"is_disabled":true,"rental_uris":{"android":"levelo://app?vid=c74528e0-ae6e-446f-b436-91ec4ca23880","ios":"levelo://app?vid=c74528e0-ae6e-446f-b436-91ec4ca23880"},"vehicle_type_id":"4","last_reported":1732191532,"current_range_meters":6400,"station_id":"ce4bh8p2rcd13ifvqeb0","pricing_plan_id":"cebpf4jnsgd1na2vs0mg"},{"bike_id":"e9fa929c-8d0c-4b11-96e9-4c8f00808128","system_id":"levelo_inurba_marseille","lat":43.28677,"lon":5.38669,"is_reserved":false,"is_disabled":false,"rental_uris":{"android":"levelo://app?vid=e9fa929c-8d0c-4b11-96e9-4c8f00808128","ios":"levelo://app?vid=e9fa929c-8d0c-4b11-96e9-4c8f00808128"},"vehicle_type_id":"4","last_reported":1732191532,"current_range_meters":14000,"station_id":"ce4bh492rcd13ifvqdug","pricing_plan_id":"cebpf4jnsgd1na2vs0mg"},{"bike_id":"42d6fa67-3d3d-427c-a63a-15e267a4a6ee","system_id":"levelo_inurba_marseille","lat":43.27946,"lon":5.41044,"is_reserved":false,"is_disabled":true,"rental_uris":{"android":"levelo://app?vid=42d6fa67-3d3d-427c-a63a-15e267a4a6ee","ios":"levelo://app?vid=42d6fa67-3d3d-427c-a63a-15e267a4a6ee"},"vehicle_type_id":"4","last_reported":1732191532,"current_range_meters":24000,"station_id":"ce4bhnp2rcd13ifvqh0g","pricing_plan_id":"cebpf4jnsgd1na2vs0mg"},{"bike_id":"719f3477-a835-478f-a872-829b54e82498","system_id":"levelo_inurba_marseille","lat":43.29956,"lon":5.41316,"is_reserved":false,"is_disabled":false,"rental_uris":{"android":"levelo://app?vid=719f3477-a835-478f-a872-829b54e82498","ios":"levelo://app?vid=719f3477-a835-478f-a872-829b54e82498"},"vehicle_type_id":"4","last_reported":1732191532,"current_range_meters":38000,"station_id":"ce4bhp12rcd13ifvqh9g","pricing_plan_id":"cebpf4jnsgd1na2vs0mg"},{"bike_id":"c534a875-bdfb-439d-8fdd-faa757628176","system_id":"levelo_inurba_marseille","lat":43.23968,"lon":5.36632,"is_reserved":false,"is_disabled":false,"rental_uris":{"android":"levelo://app?vid=c534a875-bdfb-439d-8fdd-faa757628176","ios":"levelo://app?vid=c534a875-bdfb-439d-8fdd-faa757628176"},"vehicle_type_id":"4","last_reported":1732191532,"current_range_meters":38800,"station_id":"ce4bhi12rcd13ifvqfp0","pricing_plan_id":"cebpf4jnsgd1na2vs0mg"},{"bike_id":"b7cc5daa-c7f7-4edc-ac39-aecbeffae53c","system_id":"levelo_inurba_marseille","lat":43.28971,"lon":5.37841,"is_reserved":false,"is_disabled":false,"rental_uris":{"android":"levelo://app?vid=b7cc5daa-c7f7-4edc-ac39-aecbeffae53c","ios":"levelo://app?vid=b7cc5daa-c7f7-4edc-ac39-aecbeffae53c"},"vehicle_type_id":"4","last_reported":1732191532,"current_range_meters":38800,"station_id":"ce4bh9p2rcd13ifvqed0","pricing_plan_id":"cebpf4jnsgd1na2vs0mg"},{"bike_id":"6a1cf72b-8b4d-4929-af84-9c436a903bb4","system_id":"levelo_inurba_marseille","lat":43.29917,"lon":5.37467,"is_reserved":false,"is_disabled":false,"rental_uris":{"android":"levelo://app?vid=6a1cf72b-8b4d-4929-af84-9c436a903bb4","ios":"levelo://app?vid=6a1cf72b-8b4d-4929-af84-9c436a903bb4"},"vehicle_type_id":"4","last_reported":1732191532,"current_range_meters":39200,"station_id":"ce4bgjh2rcd13ifvqbg0","pricing_plan_id":"cebpf4jnsgd1na2vs0mg"},{"bike_id":"763f2290-7c08-4148-a774-5727b7f723cc","system_id":"levelo_inurba_marseille","lat":43.30953,"lon":5.39033,"is_reserved":false,"is_disabled":false,"rental_uris":{"android":"levelo://app?vid=763f2290-7c08-4148-a774-5727b7f723cc","ios":"levelo://app?vid=763f2290-7c08-4148-a774-5727b7f723cc"},"vehicle_type_id":"4","last_reported":1732191532,"current_range_meters":31200,"station_id":"ce4bgup2rcd13ifvqco0","pricing_plan_id":"cebpf4jnsgd1na2vs0mg"},{"bike_id":"b40ede3d-3df1-4e75-aa7c-f784505f0ad9","system_id":"levelo_inurba_marseille","lat":43.32,"lon":5.38146,"is_reserved":false,"is_disabled":false,"rental_uris":{"android":"levelo://app?vid=b40ede3d-3df1-4e75-aa7c-f784505f0ad9","ios":"levelo://app?vid=b40ede3d-3df1-4e75-aa7c-f784505f0ad9"},"vehicle_type_id":"4","last_reported":1732191532,"current_range_meters":38800,"station_id":"ce4bhr12rcd13ifvqhpg","pricing_plan_id":"cebpf4jnsgd1na2vs0mg"},{"bike_id":"2d9c7a8f-20b5-4467-8eb3-df2b557322a4","system_id":"levelo_inurba_marseille","lat":43.3133,"lon":5.39687,"is_reserved":false,"is_disabled":false,"rental_uris":{"android":"levelo://app?vid=2d9c7a8f-20b5-4467-8eb3-df2b557322a4","ios":"levelo://app?vid=2d9c7a8f-20b5-4467-8eb3-df2b557322a4"},"vehicle_type_id":"4","last_reported":1732191532,"current_range_meters":14800,"station_id":"ce4bgvp2rcd13ifvqcu0","pricing_plan_id":"cebpf4jnsgd1na2vs0mg"},{"bike_id":"01c81827-d820-4edc-9a26-38eac8bf434e","system_id":"levelo_inurba_marseille","lat":43.30128,"lon":5.38786,"is_reserved":false,"is_disabled":false,"rental_uris":{"android":"levelo://app?vid=01c81827-d820-4edc-9a26-38eac8bf434e","ios":"levelo://app?vid=01c81827-d820-4edc-9a26-38eac8bf434e"},"vehicle_type_id":"4","last_reported":1732191532,"current_range_meters":25600,"station_id":"ce4bghh2rcd13ifvqb60","pricing_plan_id":"cebpf4jnsgd1na2vs0mg"},{"bike_id":"0b3fe690-93e2-45fa-a389-62ee4335c2aa","system_id":"levelo_inurba_marseille","lat":43.30909,"lon":5.36847,"is_reserved":false,"is_disabled":true,"rental_uris":{"android":"levelo://app?vid=0b3fe690-93e2-45fa-a389-62ee4335c2aa","ios":"levelo://app?vid=0b3fe690-93e2-45fa-a389-62ee4335c2aa"},"vehicle_type_id":"4","last_reported":1732191532,"current_range_meters":9600,"station_id":"ce4bgn92rcd13ifvqbvg","pricing_plan_id":"cebpf4jnsgd1na2vs0mg"},{"bike_id":"1a88079e-ca3a-4e16-9bb1-2dbd342dd3a2","system_id":"levelo_inurba_marseille","lat":43.27203,"lon":5.39189,"is_reserved":false,"is_disabled":true,"rental_uris":{"android":"levelo://app?vid=1a88079e-ca3a-4e16-9bb1-2dbd342dd3a2","ios":"levelo://app?vid=1a88079e-ca3a-4e16-9bb1-2dbd342dd3a2"},"vehicle_type_id":"4","last_reported":1732191532,"current_range_meters":10000,"station_id":"ce4bhhp2rcd13ifvqfm0","pricing_plan_id":"cebpf4jnsgd1na2vs0mg"},{"bike_id":"1d0e6f9d-ffe0-4f98-a2ea-2e9800754c1c","system_id":"levelo_inurba_marseille","lat":43.32481,"lon":5.3657,"is_reserved":false,"is_disabled":false,"rental_uris":{"android":"levelo://app?vid=1d0e6f9d-ffe0-4f98-a2ea-2e9800754c1c","ios":"levelo://app?vid=1d0e6f9d-ffe0-4f98-a2ea-2e9800754c1c"},"vehicle_type_id":"4","last_reported":1732191532,"current_range_meters":30000,"station_id":"ce4bhs12rcd13ifvqhvg","pricing_plan_id":"cebpf4jnsgd1na2vs0mg"},{"bike_id":"436225a6-4694-4ff0-bed2-3c1da85ae302","system_id":"levelo_inurba_marseille","lat":43.30546,"lon":5.36704,"is_reserved":false,"is_disabled":false,"rental_uris":{"android":"levelo://app?vid=436225a6-4694-4ff0-bed2-3c1da85ae302","ios":"levelo://app?vid=436225a6-4694-4ff0-bed2-3c1da85ae302"},"vehicle_type_id":"4","last_reported":1732191532,"current_range_meters":38800,"station_id":"ce4bgrp2rcd13ifvqc9g","pricing_plan_id":"cebpf4jnsgd1na2vs0mg"},{"bike_id":"eb61e3d8-1e2a-446b-9a20-9a30543a99d8","system_id":"levelo_inurba_marseille","lat":43.27051,"lon":5.40252,"is_reserved":false,"is_disabled":false,"rental_uris":{"android":"levelo://app?vid=eb61e3d8-1e2a-446b-9a20-9a30543a99d8","ios":"levelo://app?vid=eb61e3d8-1e2a-446b-9a20-9a30543a99d8"},"vehicle_type_id":"4","last_reported":1732191532,"current_range_meters":36800,"station_id":"ce4bhk92rcd13ifvqgc0","pricing_plan_id":"cebpf4jnsgd1na2vs0mg"},{"bike_id":"552ae1f9-34eb-4d70-a19b-3616d3661778","system_id":"levelo_inurba_marseille","lat":43.33714,"lon":5.39172,"is_reserved":false,"is_disabled":false,"rental_uris":{"android":"levelo://app?vid=552ae1f9-34eb-4d70-a19b-3616d3661778","ios":"levelo://app?vid=552ae1f9-34eb-4d70-a19b-3616d3661778"},"vehicle_type_id":"4","last_reported":1732191532,"current_range_meters":29600,"station_id":"ce4bhr92rcd13ifvqhsg","pricing_plan_id":"cebpf4jnsgd1na2vs0mg"},{"bike_id":"1bf91585-1655-41ca-aa3f-ff0ba6e8cc52","system_id":"levelo_inurba_marseille","lat":43.33026,"lon":5.3904,"is_reserved":false,"is_disabled":false,"rental_uris":{"android":"levelo://app?vid=1bf91585-1655-41ca-aa3f-ff0ba6e8cc52","ios":"levelo://app?vid=1bf91585-1655-41ca-aa3f-ff0ba6e8cc52"},"vehicle_type_id":"4","last_reported":1732191532,"current_range_meters":34800,"station_id":"ce4bhr92rcd13ifvqhrg","pricing_plan_id":"cebpf4jnsgd1na2vs0mg"},{"bike_id":"c7918193-fa65-4835-86b6-87f36f654569","system_id":"levelo_inurba_marseille","lat":43.2315,"lon":5.43725,"is_reserved":false,"is_disabled":false,"rental_uris":{"android":"levelo://app?vid=c7918193-fa65-4835-86b6-87f36f654569","ios":"levelo://app?vid=c7918193-fa65-4835-86b6-87f36f654569"},"vehicle_type_id":"4","last_reported":1732191532,"current_range_meters":24400,"station_id":"ce4bhmp2rcd13ifvqgog","pricing_plan_id":"cebpf4jnsgd1na2vs0mg"},{"bike_id":"7a942108-16ea-4f98-9d80-82c238759071","system_id":"levelo_inurba_marseille","lat":43.29563,"lon":5.39967,"is_reserved":false,"is_disabled":true,"rental_uris":{"android":"levelo://app?vid=7a942108-16ea-4f98-9d80-82c238759071","ios":"levelo://app?vid=7a942108-16ea-4f98-9d80-82c238759071"},"vehicle_type_id":"4","last_reported":1732191532,"current_range_meters":34000,"station_id":"ce4bh312rcd13ifvqdj0","pricing_plan_id":"cebpf4jnsgd1na2vs0mg"},{"bike_id":"028e5427-36e2-49e1-b3db-260058fffb58","system_id":"levelo_inurba_marseille","lat":43.25574,"lon":5.38231,"is_reserved":false,"is_disabled":false,"rental_uris":{"android":"levelo://app?vid=028e5427-36e2-49e1-b3db-260058fffb58","ios":"levelo://app?vid=028e5427-36e2-49e1-b3db-260058fffb58"},"vehicle_type_id":"4","last_reported":1732191532,"current_range_meters":24000,"station_id":"ce4bhih2rcd13ifvqfs0","pricing_plan_id":"cebpf4jnsgd1na2vs0mg"},{"bike_id":"9952c749-f930-4b47-b572-7bb8856a269a","system_id":"levelo_inurba_marseille","lat":43.3095,"lon":5.39027,"is_reserved":false,"is_disabled":false,"rental_uris":{"android":"levelo://app?vid=9952c749-f930-4b47-b572-7bb8856a269a","ios":"levelo://app?vid=9952c749-f930-4b47-b572-7bb8856a269a"},"vehicle_type_id":"4","last_reported":1732191532,"current_range_meters":38800,"station_id":"ce4bgup2rcd13ifvqco0","pricing_plan_id":"cebpf4jnsgd1na2vs0mg"},{"bike_id":"7e17a81f-3b24-49e1-a5fc-e88f9462d78d","system_id":"levelo_inurba_marseille","lat":43.28423,"lon":5.40927,"is_reserved":false,"is_disabled":false,"rental_uris":{"android":"levelo://app?vid=7e17a81f-3b24-49e1-a5fc-e88f9462d78d","ios":"levelo://app?vid=7e17a81f-3b24-49e1-a5fc-e88f9462d78d"},"vehicle_type_id":"4","last_reported":1732191532,"current_range_meters":8800,"station_id":"","pricing_plan_id":"cebpf4jnsgd1na2vs0mg"},{"bike_id":"0d5efe48-32bd-461f-be09-c1d5e2d6ef37","system_id":"levelo_inurba_marseille","lat":43.32363,"lon":5.38881,"is_reserved":false,"is_disabled":false,"rental_uris":{"android":"levelo://app?vid=0d5efe48-32bd-461f-be09-c1d5e2d6ef37","ios":"levelo://app?vid=0d5efe48-32bd-461f-be09-c1d5e2d6ef37"},"vehicle_type_id":"4","last_reported":1732191532,"current_range_meters":38000,"station_id":"ce4bhqp2rcd13ifvqhog","pricing_plan_id":"cebpf4jnsgd1na2vs0mg"},{"bike_id":"cefe354e-158d-451f-9fd1-3f182ab507aa","system_id":"levelo_inurba_marseille","lat":43.24067,"lon":5.37766,"is_reserved":false,"is_disabled":false,"rental_uris":{"android":"levelo://app?vid=cefe354e-158d-451f-9fd1-3f182ab507aa","ios":"levelo://app?vid=cefe354e-158d-451f-9fd1-3f182ab507aa"},"vehicle_type_id":"4","last_reported":1732191532,"current_range_meters":38800,"station_id":"ce4bhnp2rcd13ifvqgvg","pricing_plan_id":"cebpf4jnsgd1na2vs0mg"},{"bike_id":"1deabaa7-1d02-474d-b833-0dc5ee1bcadb","system_id":"levelo_inurba_marseille","lat":43.284228,"lon":5.349859,"is_reserved":false,"is_disabled":false,"rental_uris":{"android":"levelo://app?vid=1deabaa7-1d02-474d-b833-0dc5ee1bcadb","ios":"levelo://app?vid=1deabaa7-1d02-474d-b833-0dc5ee1bcadb"},"vehicle_type_id":"4","last_reported":1732191532,"current_range_meters":38000,"station_id":"ce4bhbh2rcd13ifvqepg","pricing_plan_id":"cebpf4jnsgd1na2vs0mg"},{"bike_id":"2299b820-f196-4260-94c0-b18365bdbb31","system_id":"levelo_inurba_marseille","lat":43.29293,"lon":5.3745,"is_reserved":false,"is_disabled":false,"rental_uris":{"android":"levelo://app?vid=2299b820-f196-4260-94c0-b18365bdbb31","ios":"levelo://app?vid=2299b820-f196-4260-94c0-b18365bdbb31"},"vehicle_type_id":"4","last_reported":1732191532,"current_range_meters":22400,"station_id":"ce4bgi12rcd13ifvqb70","pricing_plan_id":"cebpf4jnsgd1na2vs0mg"},{"bike_id":"41b66025-5082-421d-922c-552de41f1f1b","system_id":"levelo_inurba_marseille","lat":43.33756,"lon":5.37437,"is_reserved":false,"is_disabled":false,"rental_uris":{"android":"levelo://app?vid=41b66025-5082-421d-922c-552de41f1f1b","ios":"levelo://app?vid=41b66025-5082-421d-922c-552de41f1f1b"},"vehicle_type_id":"4","last_reported":1732191532,"current_range_meters":29600,"station_id":"","pricing_plan_id":"cebpf4jnsgd1na2vs0mg"},{"bike_id":"b1bf8ce3-72d7-40b1-8813-50ceac3d27ce","system_id":"levelo_inurba_marseille","lat":43.29021,"lon":5.38129,"is_reserved":false,"is_disabled":false,"rental_uris":{"android":"levelo://app?vid=b1bf8ce3-72d7-40b1-8813-50ceac3d27ce","ios":"levelo://app?vid=b1bf8ce3-72d7-40b1-8813-50ceac3d27ce"},"vehicle_type_id":"4","last_reported":1732191532,"current_range_meters":36400,"station_id":"ce4bh4p2rcd13ifvqe1g","pricing_plan_id":"cebpf4jnsgd1na2vs0mg"},{"bike_id":"b342d09a-b301-4ab1-a529-f1fff73940f8","system_id":"levelo_inurba_marseille","lat":43.3361,"lon":5.41034,"is_reserved":false,"is_disabled":false,"rental_uris":{"android":"levelo://app?vid=b342d09a-b301-4ab1-a529-f1fff73940f8","ios":"levelo://app?vid=b342d09a-b301-4ab1-a529-f1fff73940f8"},"vehicle_type_id":"4","last_reported":1732191532,"current_range_meters":36800,"station_id":"ce4bhqh2rcd13ifvqhmg","pricing_plan_id":"cebpf4jnsgd1na2vs0mg"},{"bike_id":"e092006c-73fc-47d0-9953-16a161a38977","system_id":"levelo_inurba_marseille","lat":43.30191,"lon":5.366,"is_reserved":false,"is_disabled":false,"rental_uris":{"android":"levelo://app?vid=e092006c-73fc-47d0-9953-16a161a38977","ios":"levelo://app?vid=e092006c-73fc-47d0-9953-16a161a38977"},"vehicle_type_id":"4","last_reported":1732191532,"current_range_meters":24400,"station_id":"ce4bgrh2rcd13ifvqc8g","pricing_plan_id":"cebpf4jnsgd1na2vs0mg"},{"bike_id":"0aeb214c-fde7-45c8-b020-03be17efcbb9","system_id":"levelo_inurba_marseille","lat":43.33019,"lon":5.39036,"is_reserved":false,"is_disabled":false,"rental_uris":{"android":"levelo://app?vid=0aeb214c-fde7-45c8-b020-03be17efcbb9","ios":"levelo://app?vid=0aeb214c-fde7-45c8-b020-03be17efcbb9"},"vehicle_type_id":"4","last_reported":1732191532,"current_range_meters":28800,"station_id":"ce4bhr92rcd13ifvqhrg","pricing_plan_id":"cebpf4jnsgd1na2vs0mg"},{"bike_id":"eac211e0-5ad3-46de-a2e3-4183f2224029","system_id":"levelo_inurba_marseille","lat":43.29048,"lon":5.37573,"is_reserved":false,"is_disabled":false,"rental_uris":{"android":"levelo://app?vid=eac211e0-5ad3-46de-a2e3-4183f2224029","ios":"levelo://app?vid=eac211e0-5ad3-46de-a2e3-4183f2224029"},"vehicle_type_id":"4","last_reported":1732191532,"current_range_meters":26000,"station_id":"ce4bh692rcd13ifvqe90","pricing_plan_id":"cebpf4jnsgd1na2vs0mg"},{"bike_id":"040c6404-31b1-42ec-9150-bb87f6b05bf3","system_id":"levelo_inurba_marseille","lat":43.2743,"lon":5.39414,"is_reserved":false,"is_disabled":false,"rental_uris":{"android":"levelo://app?vid=040c6404-31b1-42ec-9150-bb87f6b05bf3","ios":"levelo://app?vid=040c6404-31b1-42ec-9150-bb87f6b05bf3"},"vehicle_type_id":"4","last_reported":1732191532,"current_range_meters":3200,"station_id":"ce4bhdp2rcd13ifvqf20","pricing_plan_id":"cebpf4jnsgd1na2vs0mg"},{"bike_id":"c830409b-547c-4be3-b8ac-0819d1d038fe","system_id":"levelo_inurba_marseille","lat":43.29568,"lon":5.39964,"is_reserved":false,"is_disabled":true,"rental_uris":{"android":"levelo://app?vid=c830409b-547c-4be3-b8ac-0819d1d038fe","ios":"levelo://app?vid=c830409b-547c-4be3-b8ac-0819d1d038fe"},"vehicle_type_id":"4","last_reported":1732191532,"current_range_meters":21600,"station_id":"ce4bh312rcd13ifvqdj0","pricing_plan_id":"cebpf4jnsgd1na2vs0mg"},{"bike_id":"796b733f-49d0-45e2-becf-a5ec2492cb3c","system_id":"levelo_inurba_marseille","lat":43.25107,"lon":5.40324,"is_reserved":false,"is_disabled":true,"rental_uris":{"android":"levelo://app?vid=796b733f-49d0-45e2-becf-a5ec2492cb3c","ios":"levelo://app?vid=796b733f-49d0-45e2-becf-a5ec2492cb3c"},"vehicle_type_id":"4","last_reported":1732191532,"current_range_meters":400,"station_id":"ce4bhlh2rcd13ifvqgig","pricing_plan_id":"cebpf4jnsgd1na2vs0mg"},{"bike_id":"da7f8bd4-8fd7-46fd-961a-7182e334da8d","system_id":"levelo_inurba_marseille","lat":43.30288,"lon":5.37699,"is_reserved":false,"is_disabled":false,"rental_uris":{"android":"levelo://app?vid=da7f8bd4-8fd7-46fd-961a-7182e334da8d","ios":"levelo://app?vid=da7f8bd4-8fd7-46fd-961a-7182e334da8d"},"vehicle_type_id":"4","last_reported":1732191532,"current_range_meters":38800,"station_id":"ce4bguh2rcd13ifvqcj0","pricing_plan_id":"cebpf4jnsgd1na2vs0mg"},{"bike_id":"446dde05-3026-43da-a56e-3b6385bf6887","system_id":"levelo_inurba_marseille","lat":43.303116,"lon":5.391984,"is_reserved":false,"is_disabled":false,"rental_uris":{"android":"levelo://app?vid=446dde05-3026-43da-a56e-3b6385bf6887","ios":"levelo://app?vid=446dde05-3026-43da-a56e-3b6385bf6887"},"vehicle_type_id":"4","last_reported":1732191532,"current_range_meters":19600,"station_id":"ce4bgkh2rcd13ifvqbk0","pricing_plan_id":"cebpf4jnsgd1na2vs0mg"},{"bike_id":"16aef39f-ab36-4f23-b87f-112dd99a8179","system_id":"levelo_inurba_marseille","lat":43.29983,"lon":5.3718,"is_reserved":false,"is_disabled":false,"rental_uris":{"android":"levelo://app?vid=16aef39f-ab36-4f23-b87f-112dd99a8179","ios":"levelo://app?vid=16aef39f-ab36-4f23-b87f-112dd99a8179"},"vehicle_type_id":"4","last_reported":1732191532,"current_range_meters":39200,"station_id":"ce4bgr92rcd13ifvqc7g","pricing_plan_id":"cebpf4jnsgd1na2vs0mg"},{"bike_id":"e5951ee3-4a5a-4ebb-b469-096c5188dfa3","system_id":"levelo_inurba_marseille","lat":43.23193,"lon":5.35552,"is_reserved":false,"is_disabled":false,"rental_uris":{"android":"levelo://app?vid=e5951ee3-4a5a-4ebb-b469-096c5188dfa3","ios":"levelo://app?vid=e5951ee3-4a5a-4ebb-b469-096c5188dfa3"},"vehicle_type_id":"4","last_reported":1732191532,"current_range_meters":34800,"station_id":"ce4bhu92rcd13ifvqi70","pricing_plan_id":"cebpf4jnsgd1na2vs0mg"},{"bike_id":"ba8df0b3-9288-423d-9995-b04b81fa6c10","system_id":"levelo_inurba_marseille","lat":43.30952,"lon":5.39039,"is_reserved":false,"is_disabled":false,"rental_uris":{"android":"levelo://app?vid=ba8df0b3-9288-423d-9995-b04b81fa6c10","ios":"levelo://app?vid=ba8df0b3-9288-423d-9995-b04b81fa6c10"},"vehicle_type_id":"4","last_reported":1732191532,"current_range_meters":2800,"station_id":"ce4bgup2rcd13ifvqco0","pricing_plan_id":"cebpf4jnsgd1na2vs0mg"},{"bike_id":"b2f6b9cf-69db-40ab-8230-689c41a2c16c","system_id":"levelo_inurba_marseille","lat":43.24166,"lon":5.36395,"is_reserved":false,"is_disabled":false,"rental_uris":{"android":"levelo://app?vid=b2f6b9cf-69db-40ab-8230-689c41a2c16c","ios":"levelo://app?vid=b2f6b9cf-69db-40ab-8230-689c41a2c16c"},"vehicle_type_id":"4","last_reported":1732191532,"current_range_meters":33200,"station_id":"cpo36qri1sfpv3e86is0","pricing_plan_id":"cebpf4jnsgd1na2vs0mg"},{"bike_id":"58a208f4-fd83-44a4-bf12-9a135848ed36","system_id":"levelo_inurba_marseille","lat":43.33722,"lon":5.39178,"is_reserved":false,"is_disabled":false,"rental_uris":{"android":"levelo://app?vid=58a208f4-fd83-44a4-bf12-9a135848ed36","ios":"levelo://app?vid=58a208f4-fd83-44a4-bf12-9a135848ed36"},"vehicle_type_id":"4","last_reported":1732191532,"current_range_meters":39200,"station_id":"ce4bhr92rcd13ifvqhsg","pricing_plan_id":"cebpf4jnsgd1na2vs0mg"},{"bike_id":"5eae2684-d2c3-41cd-82c9-e155577ef54b","system_id":"levelo_inurba_marseille","lat":43.29011,"lon":5.35613,"is_reserved":false,"is_disabled":false,"rental_uris":{"android":"levelo://app?vid=5eae2684-d2c3-41cd-82c9-e155577ef54b","ios":"levelo://app?vid=5eae2684-d2c3-41cd-82c9-e155577ef54b"},"vehicle_type_id":"4","last_reported":1732191532,"current_range_meters":8400,"station_id":"ce4bhb92rcd13ifvqen0","pricing_plan_id":"cebpf4jnsgd1na2vs0mg"},{"bike_id":"2dc62d2b-79ca-433b-ad6f-17fb4bb3bae5","system_id":"levelo_inurba_marseille","lat":43.24081,"lon":5.3774,"is_reserved":false,"is_disabled":true,"rental_uris":{"android":"levelo://app?vid=2dc62d2b-79ca-433b-ad6f-17fb4bb3bae5","ios":"levelo://app?vid=2dc62d2b-79ca-433b-ad6f-17fb4bb3bae5"},"vehicle_type_id":"4","last_reported":1732191532,"current_range_meters":30400,"station_id":"ce4bhnp2rcd13ifvqgvg","pricing_plan_id":"cebpf4jnsgd1na2vs0mg"},{"bike_id":"1f277064-4444-47cd-91cc-444c72d3f527","system_id":"levelo_inurba_marseille","lat":43.30459,"lon":5.37901,"is_reserved":false,"is_disabled":false,"rental_uris":{"android":"levelo://app?vid=1f277064-4444-47cd-91cc-444c72d3f527","ios":"levelo://app?vid=1f277064-4444-47cd-91cc-444c72d3f527"},"vehicle_type_id":"4","last_reported":1732191532,"current_range_meters":21600,"station_id":"ce4bgup2rcd13ifvqcn0","pricing_plan_id":"cebpf4jnsgd1na2vs0mg"},{"bike_id":"d81ab7a3-51c2-4185-a371-62197aa1f5e2","system_id":"levelo_inurba_marseille","lat":43.313,"lon":5.38673,"is_reserved":false,"is_disabled":false,"rental_uris":{"android":"levelo://app?vid=d81ab7a3-51c2-4185-a371-62197aa1f5e2","ios":"levelo://app?vid=d81ab7a3-51c2-4185-a371-62197aa1f5e2"},"vehicle_type_id":"4","last_reported":1732191532,"current_range_meters":25600,"station_id":"","pricing_plan_id":"cebpf4jnsgd1na2vs0mg"},{"bike_id":"317982c3-f002-4580-b3e0-792227fa5532","system_id":"levelo_inurba_marseille","lat":43.29799,"lon":5.38085,"is_reserved":false,"is_disabled":false,"rental_uris":{"android":"levelo://app?vid=317982c3-f002-4580-b3e0-792227fa5532","ios":"levelo://app?vid=317982c3-f002-4580-b3e0-792227fa5532"},"vehicle_type_id":"4","last_reported":1732191532,"current_range_meters":11600,"station_id":"ce4bgip2rcd13ifvqbb0","pricing_plan_id":"cebpf4jnsgd1na2vs0mg"},{"bike_id":"3c7917c9-3446-4f1d-a4c4-960bb4c8b044","system_id":"levelo_inurba_marseille","lat":43.31495,"lon":5.37311,"is_reserved":false,"is_disabled":false,"rental_uris":{"android":"levelo://app?vid=3c7917c9-3446-4f1d-a4c4-960bb4c8b044","ios":"levelo://app?vid=3c7917c9-3446-4f1d-a4c4-960bb4c8b044"},"vehicle_type_id":"4","last_reported":1732191532,"current_range_meters":32400,"station_id":"ce4bgt12rcd13ifvqcd0","pricing_plan_id":"cebpf4jnsgd1na2vs0mg"},{"bike_id":"b7577726-d0d8-46a4-abb0-0e66776506ca","system_id":"levelo_inurba_marseille","lat":43.27059,"lon":5.40261,"is_reserved":false,"is_disabled":false,"rental_uris":{"android":"levelo://app?vid=b7577726-d0d8-46a4-abb0-0e66776506ca","ios":"levelo://app?vid=b7577726-d0d8-46a4-abb0-0e66776506ca"},"vehicle_type_id":"4","last_reported":1732191532,"current_range_meters":9200,"station_id":"ce4bhk92rcd13ifvqgc0","pricing_plan_id":"cebpf4jnsgd1na2vs0mg"},{"bike_id":"c8ee0726-c7bc-4f6c-af2d-73d6cf287992","system_id":"levelo_inurba_marseille","lat":43.29528,"lon":5.38542,"is_reserved":false,"is_disabled":false,"rental_uris":{"android":"levelo://app?vid=c8ee0726-c7bc-4f6c-af2d-73d6cf287992","ios":"levelo://app?vid=c8ee0726-c7bc-4f6c-af2d-73d6cf287992"},"vehicle_type_id":"4","last_reported":1732191532,"current_range_meters":22800,"station_id":"ce4bgih2rcd13ifvqba0","pricing_plan_id":"cebpf4jnsgd1na2vs0mg"},{"bike_id":"26ce6e22-11fe-4850-80ce-605c93f03f2d","system_id":"levelo_inurba_marseille","lat":43.30535,"lon":5.3654,"is_reserved":false,"is_disabled":false,"rental_uris":{"android":"levelo://app?vid=26ce6e22-11fe-4850-80ce-605c93f03f2d","ios":"levelo://app?vid=26ce6e22-11fe-4850-80ce-605c93f03f2d"},"vehicle_type_id":"4","last_reported":1732191532,"current_range_meters":24000,"station_id":"ce4bgs12rcd13ifvqcag","pricing_plan_id":"cebpf4jnsgd1na2vs0mg"},{"bike_id":"5c53cfbd-2547-413a-b79a-f8cc3b1ca992","system_id":"levelo_inurba_marseille","lat":43.32109,"lon":5.36772,"is_reserved":false,"is_disabled":false,"rental_uris":{"android":"levelo://app?vid=5c53cfbd-2547-413a-b79a-f8cc3b1ca992","ios":"levelo://app?vid=5c53cfbd-2547-413a-b79a-f8cc3b1ca992"},"vehicle_type_id":"4","last_reported":1732191532,"current_range_meters":22800,"station_id":"ce4bhrh2rcd13ifvqhug","pricing_plan_id":"cebpf4jnsgd1na2vs0mg"},{"bike_id":"109c9eb5-c17e-46e3-87ea-dab537b5f6f0","system_id":"levelo_inurba_marseille","lat":43.33588,"lon":5.41045,"is_reserved":false,"is_disabled":false,"rental_uris":{"android":"levelo://app?vid=109c9eb5-c17e-46e3-87ea-dab537b5f6f0","ios":"levelo://app?vid=109c9eb5-c17e-46e3-87ea-dab537b5f6f0"},"vehicle_type_id":"4","last_reported":1732191532,"current_range_meters":9200,"station_id":"ce4bhqh2rcd13ifvqhmg","pricing_plan_id":"cebpf4jnsgd1na2vs0mg"},{"bike_id":"15e0e232-6a82-4d33-ba5d-37f4baaf97d4","system_id":"levelo_inurba_marseille","lat":43.29558,"lon":5.37516,"is_reserved":false,"is_disabled":false,"rental_uris":{"android":"levelo://app?vid=15e0e232-6a82-4d33-ba5d-37f4baaf97d4","ios":"levelo://app?vid=15e0e232-6a82-4d33-ba5d-37f4baaf97d4"},"vehicle_type_id":"4","last_reported":1732191532,"current_range_meters":38400,"station_id":"ce4bgh92rcd13ifvqb50","pricing_plan_id":"cebpf4jnsgd1na2vs0mg"},{"bike_id":"f786c67d-5db5-4718-bece-061de4975fd6","system_id":"levelo_inurba_marseille","lat":43.32478,"lon":5.36548,"is_reserved":false,"is_disabled":false,"rental_uris":{"android":"levelo://app?vid=f786c67d-5db5-4718-bece-061de4975fd6","ios":"levelo://app?vid=f786c67d-5db5-4718-bece-061de4975fd6"},"vehicle_type_id":"4","last_reported":1732191532,"current_range_meters":33600,"station_id":"ce4bhs12rcd13ifvqhvg","pricing_plan_id":"cebpf4jnsgd1na2vs0mg"},{"bike_id":"ced939b2-a2ab-40e5-b140-575509bab6d1","system_id":"levelo_inurba_marseille","lat":43.33023,"lon":5.39037,"is_reserved":false,"is_disabled":false,"rental_uris":{"android":"levelo://app?vid=ced939b2-a2ab-40e5-b140-575509bab6d1","ios":"levelo://app?vid=ced939b2-a2ab-40e5-b140-575509bab6d1"},"vehicle_type_id":"4","last_reported":1732191532,"current_range_meters":21600,"station_id":"ce4bhr92rcd13ifvqhrg","pricing_plan_id":"cebpf4jnsgd1na2vs0mg"},{"bike_id":"4674a573-a71e-41c0-a925-5c021c5e6c25","system_id":"levelo_inurba_marseille","lat":43.29426,"lon":5.37456,"is_reserved":false,"is_disabled":true,"rental_uris":{"android":"levelo://app?vid=4674a573-a71e-41c0-a925-5c021c5e6c25","ios":"levelo://app?vid=4674a573-a71e-41c0-a925-5c021c5e6c25"},"vehicle_type_id":"4","last_reported":1732191532,"current_range_meters":0,"station_id":"","pricing_plan_id":"cebpf4jnsgd1na2vs0mg"},{"bike_id":"b847c7b1-49cf-4cfb-bf6e-3621762aef63","system_id":"levelo_inurba_marseille","lat":43.31587,"lon":5.40381,"is_reserved":false,"is_disabled":false,"rental_uris":{"android":"levelo://app?vid=b847c7b1-49cf-4cfb-bf6e-3621762aef63","ios":"levelo://app?vid=b847c7b1-49cf-4cfb-bf6e-3621762aef63"},"vehicle_type_id":"4","last_reported":1732191532,"current_range_meters":30400,"station_id":"ce4bhop2rcd13ifvqh7g","pricing_plan_id":"cebpf4jnsgd1na2vs0mg"},{"bike_id":"92101dc5-4f1c-4b65-8bd1-54415f893867","system_id":"levelo_inurba_marseille","lat":43.3176,"lon":5.39019,"is_reserved":false,"is_disabled":false,"rental_uris":{"android":"levelo://app?vid=92101dc5-4f1c-4b65-8bd1-54415f893867","ios":"levelo://app?vid=92101dc5-4f1c-4b65-8bd1-54415f893867"},"vehicle_type_id":"4","last_reported":1732191532,"current_range_meters":4800,"station_id":"ce4bhqp2rcd13ifvqhng","pricing_plan_id":"cebpf4jnsgd1na2vs0mg"},{"bike_id":"cde5eb04-35f5-4971-aec4-8004f9b2dcd9","system_id":"levelo_inurba_marseille","lat":43.2828,"lon":5.35063,"is_reserved":false,"is_disabled":true,"rental_uris":{"android":"levelo://app?vid=cde5eb04-35f5-4971-aec4-8004f9b2dcd9","ios":"levelo://app?vid=cde5eb04-35f5-4971-aec4-8004f9b2dcd9"},"vehicle_type_id":"4","last_reported":1732191532,"current_range_meters":0,"station_id":"ce4bhbp2rcd13ifvqerg","pricing_plan_id":"cebpf4jnsgd1na2vs0mg"},{"bike_id":"aca988f7-b070-4cb2-80b5-49e37e63aaac","system_id":"levelo_inurba_marseille","lat":43.31227,"lon":5.36848,"is_reserved":false,"is_disabled":false,"rental_uris":{"android":"levelo://app?vid=aca988f7-b070-4cb2-80b5-49e37e63aaac","ios":"levelo://app?vid=aca988f7-b070-4cb2-80b5-49e37e63aaac"},"vehicle_type_id":"4","last_reported":1732191532,"current_range_meters":30000,"station_id":"ce4bgl92rcd13ifvqbq0","pricing_plan_id":"cebpf4jnsgd1na2vs0mg"},{"bike_id":"b8c2e62b-983d-4fc0-a709-01b3ef967784","system_id":"levelo_inurba_marseille","lat":43.30098,"lon":5.39096,"is_reserved":false,"is_disabled":false,"rental_uris":{"android":"levelo://app?vid=b8c2e62b-983d-4fc0-a709-01b3ef967784","ios":"levelo://app?vid=b8c2e62b-983d-4fc0-a709-01b3ef967784"},"vehicle_type_id":"4","last_reported":1732191532,"current_range_meters":38400,"station_id":"ce4bh392rcd13ifvqdl0","pricing_plan_id":"cebpf4jnsgd1na2vs0mg"},{"bike_id":"983b5008-1aea-462d-9f94-ca7d239fa86f","system_id":"levelo_inurba_marseille","lat":43.24166,"lon":5.36393,"is_reserved":false,"is_disabled":false,"rental_uris":{"android":"levelo://app?vid=983b5008-1aea-462d-9f94-ca7d239fa86f","ios":"levelo://app?vid=983b5008-1aea-462d-9f94-ca7d239fa86f"},"vehicle_type_id":"4","last_reported":1732191532,"current_range_meters":20000,"station_id":"cpo36qri1sfpv3e86is0","pricing_plan_id":"cebpf4jnsgd1na2vs0mg"},{"bike_id":"a27e815f-dab9-4a3e-865f-e165054b381f","system_id":"levelo_inurba_marseille","lat":43.32053,"lon":5.41548,"is_reserved":false,"is_disabled":true,"rental_uris":{"android":"levelo://app?vid=a27e815f-dab9-4a3e-865f-e165054b381f","ios":"levelo://app?vid=a27e815f-dab9-4a3e-865f-e165054b381f"},"vehicle_type_id":"4","last_reported":1732191532,"current_range_meters":0,"station_id":"ce4bhq92rcd13ifvqhkg","pricing_plan_id":"cebpf4jnsgd1na2vs0mg"},{"bike_id":"bb82b0a5-3895-445f-8989-d42fb7ee34cc","system_id":"levelo_inurba_marseille","lat":43.27057,"lon":5.4026,"is_reserved":false,"is_disabled":false,"rental_uris":{"android":"levelo://app?vid=bb82b0a5-3895-445f-8989-d42fb7ee34cc","ios":"levelo://app?vid=bb82b0a5-3895-445f-8989-d42fb7ee34cc"},