{"last_updated":1746781873,"ttl":60,"version":"2.2","data":{"bikes":[{"bike_id":"2a530234-f85d-4cca-8e29-387c9f6acb72","system_id":"levelo_inurba_marseille","lat":43.25931,"lon":5.40911,"is_reserved":false,"is_disabled":false,"rental_uris":{"android":"levelo://app?vid=2a530234-f85d-4cca-8e29-387c9f6acb72","ios":"levelo://app?vid=2a530234-f85d-4cca-8e29-387c9f6acb72"},"vehicle_type_id":"4","last_reported":1746781873,"current_range_meters":2800,"station_id":"ce4bhm92rcd13ifvqglg","pricing_plan_id":"cebpf4jnsgd1na2vs0mg"},{"bike_id":"472e3c1a-d6e1-4dbb-b1ce-cd54ea716381","system_id":"levelo_inurba_marseille","lat":43.24591,"lon":5.40185,"is_reserved":false,"is_disabled":true,"rental_uris":{"android":"levelo://app?vid=472e3c1a-d6e1-4dbb-b1ce-cd54ea716381","ios":"levelo://app?vid=472e3c1a-d6e1-4dbb-b1ce-cd54ea716381"},"vehicle_type_id":"4","last_reported":1746781873,"current_range_meters":2800,"station_id":"","pricing_plan_id":"cebpf4jnsgd1na2vs0mg"},{"bike_id":"2021463b-9cd9-469a-887d-bb421b0f5687","system_id":"levelo_inurba_marseille","lat":43.28757,"lon":5.39966,"is_reserved":false,"is_disabled":false,"rental_uris":{"android":"levelo://app?vid=2021463b-9cd9-469a-887d-bb421b0f5687","ios":"levelo://app?vid=2021463b-9cd9-469a-887d-bb421b0f5687"},"vehicle_type_id":"4","last_reported":1746781873,"current_range_meters":2800,"station_id":"ce4bho92rcd13ifvqh3g","pricing_plan_id":"cebpf4jnsgd1na2vs0mg"},{"bike_id":"35eb5b16-1e5b-4132-9f51-f8472f0ce658","system_id":"levelo_inurba_marseille","lat":43.27476,"lon":5.42485,"is_reserved":false,"is_disabled":false,"rental_uris":{"android":"levelo://app?vid=35eb5b16-1e5b-4132-9f51-f8472f0ce658","ios":"levelo://app?vid=35eb5b16-1e5b-4132-9f51-f8472f0ce658"},"vehicle_type_id":"4","last_reported":1746781873,"current_range_meters":3200,"station_id":"ce4bhn92rcd13ifvqgrg","pricing_plan_id":"cebpf4jnsgd1na2vs0mg"},{"bike_id":"286c2bbe-b00d-49bb-8ae3-5e7369720a00","system_id":"levelo_inurba_marseille","lat":43.26557,"lon":5.37287,"is_reserved":false,"is_disabled":false,"rental_uris":{"android":"levelo://app?vid=286c2bbe-b00d-49bb-8ae3-5e7369720a00","ios":"levelo://app?vid=286c2bbe-b00d-49bb-8ae3-5e7369720a00"},"vehicle_type_id":"4","last_reported":1746781873,"current_range_meters":4400,"station_id":"ce4bhg12rcd13ifvqf70","pricing_plan_id":"cebpf4jnsgd1na2vs0mg"},{"bike_id":"db90afc0-096c-4c13-9b46-963199b64201","system_id":"levelo_inurba_marseille","lat":43.21745,"lon":5.34604,"is_reserved":false,"is_disabled":false,"rental_uris":{"android":"levelo://app?vid=db90afc0-096c-4c13-9b46-963199b64201","ios":"levelo://app?vid=db90afc0-096c-4c13-9b46-963199b64201"},"vehicle_type_id":"4","last_reported":1746781873,"current_range_meters":4400,"station_id":"st_cvj6r9ubvosntc0bgbag","pricing_plan_id":"cebpf4jnsgd1na2vs0mg"},{"bike_id":"c91b378d-26a5-4ed8-99d4-6b3ec43dd75e","system_id":"levelo_inurba_marseille","lat":43.2407,"lon":5.37755,"is_reserved":false,"is_disabled":false,"rental_uris":{"android":"levelo://app?vid=c91b378d-26a5-4ed8-99d4-6b3ec43dd75e","ios":"levelo://app?vid=c91b378d-26a5-4ed8-99d4-6b3ec43dd75e"},"vehicle_type_id":"4","last_reported":1746781873,"current_range_meters":4800,"station_id":"ce4bhnp2rcd13ifvqgvg","pricing_plan_id":"cebpf4jnsgd1na2vs0mg"},{"bike_id":"d8b2710f-8df7-4381-b6d3-c64905221459","system_id":"levelo_inurba_marseille","lat":43.30257,"lon":5.40062,"is_reserved":false,"is_disabled":false,"rental_uris":{"android":"levelo://app?vid=d8b2710f-8df7-4381-b6d3-c64905221459","ios":"levelo://app?vid=d8b2710f-8df7-4381-b6d3-c64905221459"},"vehicle_type_id":"4","last_reported":1746781873,"current_range_meters":5600,"station_id":"ce4bgvh2rcd13ifvqcs0","pricing_plan_id":"cebpf4jnsgd1na2vs0mg"},{"bike_id":"b15fe93b-1059-4d75-abd3-040e349ce402","system_id":"levelo_inurba_marseille","lat":43.30106,"lon":5.36997,"is_reserved":false,"is_disabled":false,"rental_uris":{"android":"levelo://app?vid=b15fe93b-1059-4d75-abd3-040e349ce402","ios":"levelo://app?vid=b15fe93b-1059-4d75-abd3-040e349ce402"},"vehicle_type_id":"4","last_reported":1746781873,"current_range_meters":6400,"station_id":"","pricing_plan_id":"cebpf4jnsgd1na2vs0mg"},{"bike_id":"1f281ed5-8e05-43ba-b583-cf4e73bd4cb4","system_id":"levelo_inurba_marseille","lat":43.321198,"lon":5.367798,"is_reserved":false,"is_disabled":false,"rental_uris":{"android":"levelo://app?vid=1f281ed5-8e05-43ba-b583-cf4e73bd4cb4","ios":"levelo://app?vid=1f281ed5-8e05-43ba-b583-cf4e73bd4cb4"},"vehicle_type_id":"4","last_reported":1746781873,"current_range_meters":6800,"station_id":"ce4bhrh2rcd13ifvqhug","pricing_plan_id":"cebpf4jnsgd1na2vs0mg"},{"bike_id":"c43ed3ca-340d-43d7-8ad5-7e6b2386ac59","system_id":"levelo_inurba_marseille","lat":43.29901,"lon":5.43674,"is_reserved":false,"is_disabled":false,"rental_uris":{"android":"levelo://app?vid=c43ed3ca-340d-43d7-8ad5-7e6b2386ac59","ios":"levelo://app?vid=c43ed3ca-340d-43d7-8ad5-7e6b2386ac59"},"vehicle_type_id":"4","last_reported":1746781873,"current_range_meters":6800,"station_id":"ce4bhpp2rcd13ifvqhfg","pricing_plan_id":"cebpf4jnsgd1na2vs0mg"},{"bike_id":"03f953a8-8401-4354-9ac5-733ae4c7f687","system_id":"levelo_inurba_marseille","lat":43.26552,"lon":5.37284,"is_reserved":false,"is_disabled":false,"rental_uris":{"android":"levelo://app?vid=03f953a8-8401-4354-9ac5-733ae4c7f687","ios":"levelo://app?vid=03f953a8-8401-4354-9ac5-733ae4c7f687"},"vehicle_type_id":"4","last_reported":1746781873,"current_range_meters":6800,"station_id":"ce4bhg12rcd13ifvqf70","pricing_plan_id":"cebpf4jnsgd1na2vs0mg"},{"bike_id":"cd3b8d42-3053-45b0-aa09-f76e7f38e24a","system_id":"levelo_inurba_marseille","lat":43.25934,"lon":5.4091,"is_reserved":false,"is_disabled":false,"rental_uris":{"android":"levelo://app?vid=cd3b8d42-3053-45b0-aa09-f76e7f38e24a","ios":"levelo://app?vid=cd3b8d42-3053-45b0-aa09-f76e7f38e24a"},"vehicle_type_id":"4","last_reported":1746781873,"current_range_meters":7200,"station_id":"ce4bhm92rcd13ifvqglg","pricing_plan_id":"cebpf4jnsgd1na2vs0mg"},{"bike_id":"24a02016-a932-4bb5-b40e-e65338592af4","system_id":"levelo_inurba_marseille","lat":43.24993,"lon":5.38934,"is_reserved":false,"is_disabled":false,"rental_uris":{"android":"levelo://app?vid=24a02016-a932-4bb5-b40e-e65338592af4","ios":"levelo://app?vid=24a02016-a932-4bb5-b40e-e65338592af4"},"vehicle_type_id":"4","last_reported":1746781873,"current_range_meters":7200,"station_id":"ce4bhgp2rcd13ifvqfd0","pricing_plan_id":"cebpf4jnsgd1na2vs0mg"},{"bike_id":"11f2f90e-07ea-45fc-bea7-59b140809475","system_id":"levelo_inurba_marseille","lat":43.28495,"lon":5.38589,"is_reserved":false,"is_disabled":false,"rental_uris":{"android":"levelo://app?vid=11f2f90e-07ea-45fc-bea7-59b140809475","ios":"levelo://app?vid=11f2f90e-07ea-45fc-bea7-59b140809475"},"vehicle_type_id":"4","last_reported":1746781873,"current_range_meters":7200,"station_id":"ce4bh8p2rcd13ifvqeb0","pricing_plan_id":"cebpf4jnsgd1na2vs0mg"},{"bike_id":"c294d245-9852-4219-88d2-f0170d0eca94","system_id":"levelo_inurba_marseille","lat":43.31714,"lon":5.37747,"is_reserved":false,"is_disabled":true,"rental_uris":{"android":"levelo://app?vid=c294d245-9852-4219-88d2-f0170d0eca94","ios":"levelo://app?vid=c294d245-9852-4219-88d2-f0170d0eca94"},"vehicle_type_id":"4","last_reported":1746781873,"current_range_meters":8000,"station_id":"ce4bgth2rcd13ifvqch0","pricing_plan_id":"cebpf4jnsgd1na2vs0mg"},{"bike_id":"7047aaf7-5d58-4343-b8d8-a498bfaa03c7","system_id":"levelo_inurba_marseille","lat":43.27101,"lon":5.4225,"is_reserved":false,"is_disabled":false,"rental_uris":{"android":"levelo://app?vid=7047aaf7-5d58-4343-b8d8-a498bfaa03c7","ios":"levelo://app?vid=7047aaf7-5d58-4343-b8d8-a498bfaa03c7"},"vehicle_type_id":"4","last_reported":1746781873,"current_range_meters":8000,"station_id":"ce4bhk92rcd13ifvqgb0","pricing_plan_id":"cebpf4jnsgd1na2vs0mg"},{"bike_id":"35f36335-51c7-48bf-a321-437e1aea77da","system_id":"levelo_inurba_marseille","lat":43.3236,"lon":5.36776,"is_reserved":false,"is_disabled":false,"rental_uris":{"android":"levelo://app?vid=35f36335-51c7-48bf-a321-437e1aea77da","ios":"levelo://app?vid=35f36335-51c7-48bf-a321-437e1aea77da"},"vehicle_type_id":"4","last_reported":1746781873,"current_range_meters":8000,"station_id":"ce4bhsh2rcd13ifvqi2g","pricing_plan_id":"cebpf4jnsgd1na2vs0mg"},{"bike_id":"df7b42c0-8853-415c-9485-f3ebb237f54a","system_id":"levelo_inurba_marseille","lat":43.26018,"lon":5.4174,"is_reserved":false,"is_disabled":false,"rental_uris":{"android":"levelo://app?vid=df7b42c0-8853-415c-9485-f3ebb237f54a","ios":"levelo://app?vid=df7b42c0-8853-415c-9485-f3ebb237f54a"},"vehicle_type_id":"4","last_reported":1746781873,"current_range_meters":8000,"station_id":"","pricing_plan_id":"cebpf4jnsgd1na2vs0mg"},{"bike_id":"79ff6315-b314-4711-842a-c9b72d408e6e","system_id":"levelo_inurba_marseille","lat":43.31387,"lon":5.36755,"is_reserved":false,"is_disabled":false,"rental_uris":{"android":"levelo://app?vid=79ff6315-b314-4711-842a-c9b72d408e6e","ios":"levelo://app?vid=79ff6315-b314-4711-842a-c9b72d408e6e"},"vehicle_type_id":"4","last_reported":1746781873,"current_range_meters":8400,"station_id":"","pricing_plan_id":"cebpf4jnsgd1na2vs0mg"},{"bike_id":"3e43726a-cf1d-406a-b41a-0c5ac3ea0762","system_id":"levelo_inurba_marseille","lat":43.27681,"lon":5.38919,"is_reserved":false,"is_disabled":false,"rental_uris":{"android":"levelo://app?vid=3e43726a-cf1d-406a-b41a-0c5ac3ea0762","ios":"levelo://app?vid=3e43726a-cf1d-406a-b41a-0c5ac3ea0762"},"vehicle_type_id":"4","last_reported":1746781873,"current_range_meters":8000,"station_id":"ce4bhi12rcd13ifvqfo0","pricing_plan_id":"cebpf4jnsgd1na2vs0mg"},{"bike_id":"3311c1f1-091b-4394-846c-138bab96fa5d","system_id":"levelo_inurba_marseille","lat":43.279033,"lon":5.380023,"is_reserved":false,"is_disabled":false,"rental_uris":{"android":"levelo://app?vid=3311c1f1-091b-4394-846c-138bab96fa5d","ios":"levelo://app?vid=3311c1f1-091b-4394-846c-138bab96fa5d"},"vehicle_type_id":"4","last_reported":1746781873,"current_range_meters":8800,"station_id":"ce4bhf92rcd13ifvqf50","pricing_plan_id":"cebpf4jnsgd1na2vs0mg"},{"bike_id":"809c8673-c032-46b9-aa07-62c38e26d44e","system_id":"levelo_inurba_marseille","lat":43.25047,"lon":5.38807,"is_reserved":false,"is_disabled":false,"rental_uris":{"android":"levelo://app?vid=809c8673-c032-46b9-aa07-62c38e26d44e","ios":"levelo://app?vid=809c8673-c032-46b9-aa07-62c38e26d44e"},"vehicle_type_id":"4","last_reported":1746781873,"current_range_meters":9200,"station_id":"","pricing_plan_id":"cebpf4jnsgd1na2vs0mg"},{"bike_id":"02eb0b42-20de-46ae-80a5-fbfdbee1b980","system_id":"levelo_inurba_marseille","lat":43.28266,"lon":5.35063,"is_reserved":false,"is_disabled":false,"rental_uris":{"android":"levelo://app?vid=02eb0b42-20de-46ae-80a5-fbfdbee1b980","ios":"levelo://app?vid=02eb0b42-20de-46ae-80a5-fbfdbee1b980"},"vehicle_type_id":"4","last_reported":1746781873,"current_range_meters":9200,"station_id":"ce4bhbp2rcd13ifvqerg","pricing_plan_id":"cebpf4jnsgd1na2vs0mg"},{"bike_id":"165087f0-ecec-4039-a450-d02638c79528","system_id":"levelo_inurba_marseille","lat":43.31378,"lon":5.36679,"is_reserved":false,"is_disabled":false,"rental_uris":{"android":"levelo://app?vid=165087f0-ecec-4039-a450-d02638c79528","ios":"levelo://app?vid=165087f0-ecec-4039-a450-d02638c79528"},"vehicle_type_id":"4","last_reported":1746781873,"current_range_meters":9200,"station_id":"ce4bgr92rcd13ifvqc6g","pricing_plan_id":"cebpf4jnsgd1na2vs0mg"},{"bike_id":"47bb6f34-9c89-4a6c-b2ec-6a2d3e007f08","system_id":"levelo_inurba_marseille","lat":43.25726,"lon":5.41112,"is_reserved":false,"is_disabled":false,"rental_uris":{"android":"levelo://app?vid=47bb6f34-9c89-4a6c-b2ec-6a2d3e007f08","ios":"levelo://app?vid=47bb6f34-9c89-4a6c-b2ec-6a2d3e007f08"},"vehicle_type_id":"4","last_reported":1746781873,"current_range_meters":9200,"station_id":"ce4bhkp2rcd13ifvqgd0","pricing_plan_id":"cebpf4jnsgd1na2vs0mg"},{"bike_id":"caf9033d-5f00-49c3-b1ee-1328b62008dc","system_id":"levelo_inurba_marseille","lat":43.33584,"lon":5.42816,"is_reserved":false,"is_disabled":false,"rental_uris":{"android":"levelo://app?vid=caf9033d-5f00-49c3-b1ee-1328b62008dc","ios":"levelo://app?vid=caf9033d-5f00-49c3-b1ee-1328b62008dc"},"vehicle_type_id":"4","last_reported":1746781873,"current_range_meters":9200,"station_id":"","pricing_plan_id":"cebpf4jnsgd1na2vs0mg"},{"bike_id":"716613ad-a49c-4464-aa7e-2f3508d61c85","system_id":"levelo_inurba_marseille","lat":43.296,"lon":5.3811,"is_reserved":false,"is_disabled":false,"rental_uris":{"android":"levelo://app?vid=716613ad-a49c-4464-aa7e-2f3508d61c85","ios":"levelo://app?vid=716613ad-a49c-4464-aa7e-2f3508d61c85"},"vehicle_type_id":"4","last_reported":1746781873,"current_range_meters":9200,"station_id":"ce4bgl12rcd13ifvqbo0","pricing_plan_id":"cebpf4jnsgd1na2vs0mg"},{"bike_id":"7099ac95-2516-4474-a777-ff29178f857b","system_id":"levelo_inurba_marseille","lat":43.260213,"lon":5.417377,"is_reserved":false,"is_disabled":false,"rental_uris":{"android":"levelo://app?vid=7099ac95-2516-4474-a777-ff29178f857b","ios":"levelo://app?vid=7099ac95-2516-4474-a777-ff29178f857b"},"vehicle_type_id":"4","last_reported":1746781873,"current_range_meters":9200,"station_id":"","pricing_plan_id":"cebpf4jnsgd1na2vs0mg"},{"bike_id":"b8b1ffc5-4d33-4f16-a743-d51a24499202","system_id":"levelo_inurba_marseille","lat":43.25926,"lon":5.40929,"is_reserved":false,"is_disabled":false,"rental_uris":{"android":"levelo://app?vid=b8b1ffc5-4d33-4f16-a743-d51a24499202","ios":"levelo://app?vid=b8b1ffc5-4d33-4f16-a743-d51a24499202"},"vehicle_type_id":"4","last_reported":1746781873,"current_range_meters":9600,"station_id":"ce4bhm92rcd13ifvqglg","pricing_plan_id":"cebpf4jnsgd1na2vs0mg"},{"bike_id":"bb5b14a8-e4f8-4b99-8da0-064135166f66","system_id":"levelo_inurba_marseille","lat":43.25084,"lon":5.39527,"is_reserved":false,"is_disabled":false,"rental_uris":{"android":"levelo://app?vid=bb5b14a8-e4f8-4b99-8da0-064135166f66","ios":"levelo://app?vid=bb5b14a8-e4f8-4b99-8da0-064135166f66"},"vehicle_type_id":"4","last_reported":1746781873,"current_range_meters":9600,"station_id":"ce4bhm12rcd13ifvqgkg","pricing_plan_id":"cebpf4jnsgd1na2vs0mg"},{"bike_id":"294e5e93-618a-4492-9bac-02c9b5b12a80","system_id":"levelo_inurba_marseille","lat":43.3208,"lon":5.36806,"is_reserved":false,"is_disabled":true,"rental_uris":{"android":"levelo://app?vid=294e5e93-618a-4492-9bac-02c9b5b12a80","ios":"levelo://app?vid=294e5e93-618a-4492-9bac-02c9b5b12a80"},"vehicle_type_id":"4","last_reported":1746781873,"current_range_meters":9600,"station_id":"ce4bhrh2rcd13ifvqhug","pricing_plan_id":"cebpf4jnsgd1na2vs0mg"},{"bike_id":"812e31b7-42f9-4d63-b220-e99af5c192ed","system_id":"levelo_inurba_marseille","lat":43.31178,"lon":5.41617,"is_reserved":false,"is_disabled":false,"rental_uris":{"android":"levelo://app?vid=812e31b7-42f9-4d63-b220-e99af5c192ed","ios":"levelo://app?vid=812e31b7-42f9-4d63-b220-e99af5c192ed"},"vehicle_type_id":"4","last_reported":1746781873,"current_range_meters":9600,"station_id":"","pricing_plan_id":"cebpf4jnsgd1na2vs0mg"},{"bike_id":"e52bfd82-0d4c-4ec9-a63b-aa566ebda16e","system_id":"levelo_inurba_marseille","lat":43.31805,"lon":5.36825,"is_reserved":false,"is_disabled":false,"rental_uris":{"android":"levelo://app?vid=e52bfd82-0d4c-4ec9-a63b-aa566ebda16e","ios":"levelo://app?vid=e52bfd82-0d4c-4ec9-a63b-aa566ebda16e"},"vehicle_type_id":"4","last_reported":1746781873,"current_range_meters":10000,"station_id":"","pricing_plan_id":"cebpf4jnsgd1na2vs0mg"},{"bike_id":"caccb556-2ad0-45b8-84b8-819024dd44e6","system_id":"levelo_inurba_marseille","lat":43.29791,"lon":5.36783,"is_reserved":false,"is_disabled":false,"rental_uris":{"android":"levelo://app?vid=caccb556-2ad0-45b8-84b8-819024dd44e6","ios":"levelo://app?vid=caccb556-2ad0-45b8-84b8-819024dd44e6"},"vehicle_type_id":"4","last_reported":1746781873,"current_range_meters":10000,"station_id":"","pricing_plan_id":"cebpf4jnsgd1na2vs0mg"},{"bike_id":"a2309e80-b2ba-42c9-9c60-147f0babf9f9","system_id":"levelo_inurba_marseille","lat":43.30862,"lon":5.37025,"is_reserved":false,"is_disabled":false,"rental_uris":{"android":"levelo://app?vid=a2309e80-b2ba-42c9-9c60-147f0babf9f9","ios":"levelo://app?vid=a2309e80-b2ba-42c9-9c60-147f0babf9f9"},"vehicle_type_id":"4","last_reported":1746781873,"current_range_meters":10800,"station_id":"","pricing_plan_id":"cebpf4jnsgd1na2vs0mg"},{"bike_id":"91312870-d6c6-4946-b631-c8be8e8cee46","system_id":"levelo_inurba_marseille","lat":43.21751,"lon":5.34604,"is_reserved":false,"is_disabled":false,"rental_uris":{"android":"levelo://app?vid=91312870-d6c6-4946-b631-c8be8e8cee46","ios":"levelo://app?vid=91312870-d6c6-4946-b631-c8be8e8cee46"},"vehicle_type_id":"4","last_reported":1746781873,"current_range_meters":10800,"station_id":"st_cvj6r9ubvosntc0bgbag","pricing_plan_id":"cebpf4jnsgd1na2vs0mg"},{"bike_id":"049dee66-f320-4a39-90d5-cac240a0fc35","system_id":"levelo_inurba_marseille","lat":43.27069,"lon":5.42259,"is_reserved":false,"is_disabled":false,"rental_uris":{"android":"levelo://app?vid=049dee66-f320-4a39-90d5-cac240a0fc35","ios":"levelo://app?vid=049dee66-f320-4a39-90d5-cac240a0fc35"},"vehicle_type_id":"4","last_reported":1746781873,"current_range_meters":11200,"station_id":"ce4bhk92rcd13ifvqgb0","pricing_plan_id":"cebpf4jnsgd1na2vs0mg"},{"bike_id":"a18d34cc-2ff1-428d-88a6-7340ab70cf82","system_id":"levelo_inurba_marseille","lat":43.29078,"lon":5.37166,"is_reserved":false,"is_disabled":false,"rental_uris":{"android":"levelo://app?vid=a18d34cc-2ff1-428d-88a6-7340ab70cf82","ios":"levelo://app?vid=a18d34cc-2ff1-428d-88a6-7340ab70cf82"},"vehicle_type_id":"4","last_reported":1746781873,"current_range_meters":11200,"station_id":"ce4bh5p2rcd13ifvqe4g","pricing_plan_id":"cebpf4jnsgd1na2vs0mg"},{"bike_id":"c42d0137-01db-4e02-8a6e-f9af61ad1319","system_id":"levelo_inurba_marseille","lat":43.314585,"lon":5.373013,"is_reserved":false,"is_disabled":false,"rental_uris":{"android":"levelo://app?vid=c42d0137-01db-4e02-8a6e-f9af61ad1319","ios":"levelo://app?vid=c42d0137-01db-4e02-8a6e-f9af61ad1319"},"vehicle_type_id":"4","last_reported":1746781873,"current_range_meters":11200,"station_id":"ce4bgt12rcd13ifvqcd0","pricing_plan_id":"cebpf4jnsgd1na2vs0mg"},{"bike_id":"044478cb-8194-4092-b984-4fc9c042ef68","system_id":"levelo_inurba_marseille","lat":43.28709,"lon":5.46587,"is_reserved":false,"is_disabled":false,"rental_uris":{"android":"levelo://app?vid=044478cb-8194-4092-b984-4fc9c042ef68","ios":"levelo://app?vid=044478cb-8194-4092-b984-4fc9c042ef68"},"vehicle_type_id":"4","last_reported":1746781873,"current_range_meters":11600,"station_id":"","pricing_plan_id":"cebpf4jnsgd1na2vs0mg"},{"bike_id":"9962b8cb-c94d-4a94-804b-a946a3138815","system_id":"levelo_inurba_marseille","lat":43.31322,"lon":5.37322,"is_reserved":false,"is_disabled":false,"rental_uris":{"android":"levelo://app?vid=9962b8cb-c94d-4a94-804b-a946a3138815","ios":"levelo://app?vid=9962b8cb-c94d-4a94-804b-a946a3138815"},"vehicle_type_id":"4","last_reported":1746781873,"current_range_meters":11600,"station_id":"","pricing_plan_id":"cebpf4jnsgd1na2vs0mg"},{"bike_id":"b0c54ead-2c9a-4d45-904a-5e1b9abf7338","system_id":"levelo_inurba_marseille","lat":43.27881,"lon":5.44077,"is_reserved":false,"is_disabled":false,"rental_uris":{"android":"levelo://app?vid=b0c54ead-2c9a-4d45-904a-5e1b9abf7338","ios":"levelo://app?vid=b0c54ead-2c9a-4d45-904a-5e1b9abf7338"},"vehicle_type_id":"4","last_reported":1746781873,"current_range_meters":11600,"station_id":"","pricing_plan_id":"cebpf4jnsgd1na2vs0mg"},{"bike_id":"cfb5f8ab-2814-4f4d-9d75-d10095b1f175","system_id":"levelo_inurba_marseille","lat":43.25935,"lon":5.40906,"is_reserved":false,"is_disabled":false,"rental_uris":{"android":"levelo://app?vid=cfb5f8ab-2814-4f4d-9d75-d10095b1f175","ios":"levelo://app?vid=cfb5f8ab-2814-4f4d-9d75-d10095b1f175"},"vehicle_type_id":"4","last_reported":1746781873,"current_range_meters":11600,"station_id":"ce4bhm92rcd13ifvqglg","pricing_plan_id":"cebpf4jnsgd1na2vs0mg"},{"bike_id":"9a24683d-2cb1-4ccb-92fc-caddb4d1f434","system_id":"levelo_inurba_marseille","lat":43.243869,"lon":5.370615,"is_reserved":false,"is_disabled":false,"rental_uris":{"android":"levelo://app?vid=9a24683d-2cb1-4ccb-92fc-caddb4d1f434","ios":"levelo://app?vid=9a24683d-2cb1-4ccb-92fc-caddb4d1f434"},"vehicle_type_id":"4","last_reported":1746781873,"current_range_meters":12400,"station_id":"ce4bhhh2rcd13ifvqfk0","pricing_plan_id":"cebpf4jnsgd1na2vs0mg"},{"bike_id":"8f9f14f5-32c0-4abb-83fb-b1e302581157","system_id":"levelo_inurba_marseille","lat":43.25936,"lon":5.40901,"is_reserved":false,"is_disabled":false,"rental_uris":{"android":"levelo://app?vid=8f9f14f5-32c0-4abb-83fb-b1e302581157","ios":"levelo://app?vid=8f9f14f5-32c0-4abb-83fb-b1e302581157"},"vehicle_type_id":"4","last_reported":1746781873,"current_range_meters":12400,"station_id":"ce4bhm92rcd13ifvqglg","pricing_plan_id":"cebpf4jnsgd1na2vs0mg"},{"bike_id":"9f5c2541-d2d5-4e18-9467-072453be38a2","system_id":"levelo_inurba_marseille","lat":43.231461,"lon":5.437212,"is_reserved":false,"is_disabled":false,"rental_uris":{"android":"levelo://app?vid=9f5c2541-d2d5-4e18-9467-072453be38a2","ios":"levelo://app?vid=9f5c2541-d2d5-4e18-9467-072453be38a2"},"vehicle_type_id":"4","last_reported":1746781873,"current_range_meters":12400,"station_id":"ce4bhmp2rcd13ifvqgog","pricing_plan_id":"cebpf4jnsgd1na2vs0mg"},{"bike_id":"0bcbf222-8a94-4f64-af3a-9987abd07bae","system_id":"levelo_inurba_marseille","lat":43.26558,"lon":5.37284,"is_reserved":false,"is_disabled":false,"rental_uris":{"android":"levelo://app?vid=0bcbf222-8a94-4f64-af3a-9987abd07bae","ios":"levelo://app?vid=0bcbf222-8a94-4f64-af3a-9987abd07bae"},"vehicle_type_id":"4","last_reported":1746781873,"current_range_meters":12400,"station_id":"ce4bhg12rcd13ifvqf70","pricing_plan_id":"cebpf4jnsgd1na2vs0mg"},{"bike_id":"d50c8c57-2d1b-4c70-9ce6-e602d4219a2a","system_id":"levelo_inurba_marseille","lat":43.309121,"lon":5.368426,"is_reserved":false,"is_disabled":false,"rental_uris":{"android":"levelo://app?vid=d50c8c57-2d1b-4c70-9ce6-e602d4219a2a","ios":"levelo://app?vid=d50c8c57-2d1b-4c70-9ce6-e602d4219a2a"},"vehicle_type_id":"4","last_reported":1746781873,"current_range_meters":12400,"station_id":"ce4bgn92rcd13ifvqbvg","pricing_plan_id":"cebpf4jnsgd1na2vs0mg"},{"bike_id":"8003133d-4f16-480b-a00f-f8b759ba4ae8","system_id":"levelo_inurba_marseille","lat":43.27542,"lon":5.38418,"is_reserved":false,"is_disabled":false,"rental_uris":{"android":"levelo://app?vid=8003133d-4f16-480b-a00f-f8b759ba4ae8","ios":"levelo://app?vid=8003133d-4f16-480b-a00f-f8b759ba4ae8"},"vehicle_type_id":"4","last_reported":1746781873,"current_range_meters":12800,"station_id":"ce4bhh92rcd13ifvqfi0","pricing_plan_id":"cebpf4jnsgd1na2vs0mg"},{"bike_id":"f673a50d-776a-4d4f-8bc2-0f75017ffb52","system_id":"levelo_inurba_marseille","lat":43.284499,"lon":5.358347,"is_reserved":false,"is_disabled":false,"rental_uris":{"android":"levelo://app?vid=f673a50d-776a-4d4f-8bc2-0f75017ffb52","ios":"levelo://app?vid=f673a50d-776a-4d4f-8bc2-0f75017ffb52"},"vehicle_type_id":"4","last_reported":1746781873,"current_range_meters":12800,"station_id":"","pricing_plan_id":"cebpf4jnsgd1na2vs0mg"},{"bike_id":"a20a1240-7ac9-4476-9baa-68d9ee79a31b","system_id":"levelo_inurba_marseille","lat":43.325364,"lon":5.414627,"is_reserved":false,"is_disabled":false,"rental_uris":{"android":"levelo://app?vid=a20a1240-7ac9-4476-9baa-68d9ee79a31b","ios":"levelo://app?vid=a20a1240-7ac9-4476-9baa-68d9ee79a31b"},"vehicle_type_id":"4","last_reported":1746781873,"current_range_meters":13600,"station_id":"ce4bhq12rcd13ifvqhhg","pricing_plan_id":"cebpf4jnsgd1na2vs0mg"},{"bike_id":"2e719a53-5bb7-4e06-8c27-2cf0eae6c9f7","system_id":"levelo_inurba_marseille","lat":43.29292,"lon":5.40176,"is_reserved":false,"is_disabled":false,"rental_uris":{"android":"levelo://app?vid=2e719a53-5bb7-4e06-8c27-2cf0eae6c9f7","ios":"levelo://app?vid=2e719a53-5bb7-4e06-8c27-2cf0eae6c9f7"},"vehicle_type_id":"4","last_reported":1746781873,"current_range_meters":13600,"station_id":"ce4bh312rcd13ifvqdk0","pricing_plan_id":"cebpf4jnsgd1na2vs0mg"},{"bike_id":"526ac06a-cd77-4007-acca-7871d3084f3b","system_id":"levelo_inurba_marseille","lat":43.30553,"lon":5.36527,"is_reserved":false,"is_disabled":false,"rental_uris":{"android":"levelo://app?vid=526ac06a-cd77-4007-acca-7871d3084f3b","ios":"levelo://app?vid=526ac06a-cd77-4007-acca-7871d3084f3b"},"vehicle_type_id":"4","last_reported":1746781873,"current_range_meters":13600,"station_id":"ce4bgs12rcd13ifvqcag","pricing_plan_id":"cebpf4jnsgd1na2vs0mg"},{"bike_id":"547a8571-81a3-4b33-87ac-8fcdbfb862cc","system_id":"levelo_inurba_marseille","lat":43.24653,"lon":5.38892,"is_reserved":false,"is_disabled":false,"rental_uris":{"android":"levelo://app?vid=547a8571-81a3-4b33-87ac-8fcdbfb862cc","ios":"levelo://app?vid=547a8571-81a3-4b33-87ac-8fcdbfb862cc"},"vehicle_type_id":"4","last_reported":1746781873,"current_range_meters":12800,"station_id":"ce4bhg12rcd13ifvqf60","pricing_plan_id":"cebpf4jnsgd1na2vs0mg"},{"bike_id":"1f226b66-b0a5-43c2-b2c5-0563e6e9e107","system_id":"levelo_inurba_marseille","lat":43.2749,"lon":5.42447,"is_reserved":false,"is_disabled":false,"rental_uris":{"android":"levelo://app?vid=1f226b66-b0a5-43c2-b2c5-0563e6e9e107","ios":"levelo://app?vid=1f226b66-b0a5-43c2-b2c5-0563e6e9e107"},"vehicle_type_id":"4","last_reported":1746781873,"current_range_meters":14000,"station_id":"ce4bhn92rcd13ifvqgrg","pricing_plan_id":"cebpf4jnsgd1na2vs0mg"},{"bike_id":"94b1c6a7-a958-417d-853f-1e7583bcb7f5","system_id":"levelo_inurba_marseille","lat":43.323568,"lon":5.367563,"is_reserved":false,"is_disabled":false,"rental_uris":{"android":"levelo://app?vid=94b1c6a7-a958-417d-853f-1e7583bcb7f5","ios":"levelo://app?vid=94b1c6a7-a958-417d-853f-1e7583bcb7f5"},"vehicle_type_id":"4","last_reported":1746781873,"current_range_meters":14000,"station_id":"ce4bhsh2rcd13ifvqi2g","pricing_plan_id":"cebpf4jnsgd1na2vs0mg"},{"bike_id":"84e56baf-b90e-4038-a807-09313ef1f5cd","system_id":"levelo_inurba_marseille","lat":43.27369,"lon":5.36264,"is_reserved":false,"is_disabled":false,"rental_uris":{"android":"levelo://app?vid=84e56baf-b90e-4038-a807-09313ef1f5cd","ios":"levelo://app?vid=84e56baf-b90e-4038-a807-09313ef1f5cd"},"vehicle_type_id":"4","last_reported":1746781873,"current_range_meters":14000,"station_id":"ce4bhbh2rcd13ifvqeo0","pricing_plan_id":"cebpf4jnsgd1na2vs0mg"},{"bike_id":"1a7945c0-91f9-45ee-8319-568d65b44bde","system_id":"levelo_inurba_marseille","lat":43.34138,"lon":5.40907,"is_reserved":false,"is_disabled":false,"rental_uris":{"android":"levelo://app?vid=1a7945c0-91f9-45ee-8319-568d65b44bde","ios":"levelo://app?vid=1a7945c0-91f9-45ee-8319-568d65b44bde"},"vehicle_type_id":"4","last_reported":1746781873,"current_range_meters":14000,"station_id":"ce4bhqh2rcd13ifvqhlg","pricing_plan_id":"cebpf4jnsgd1na2vs0mg"},{"bike_id":"4fc2916e-fd8a-4057-add3-fd7205558b49","system_id":"levelo_inurba_marseille","lat":43.31467,"lon":5.39079,"is_reserved":false,"is_disabled":false,"rental_uris":{"android":"levelo://app?vid=4fc2916e-fd8a-4057-add3-fd7205558b49","ios":"levelo://app?vid=4fc2916e-fd8a-4057-add3-fd7205558b49"},"vehicle_type_id":"4","last_reported":1746781873,"current_range_meters":14400,"station_id":"","pricing_plan_id":"cebpf4jnsgd1na2vs0mg"},{"bike_id":"59c9eee2-2711-40e5-ad57-f78d6a66b9e3","system_id":"levelo_inurba_marseille","lat":43.25926,"lon":5.40904,"is_reserved":false,"is_disabled":true,"rental_uris":{"android":"levelo://app?vid=59c9eee2-2711-40e5-ad57-f78d6a66b9e3","ios":"levelo://app?vid=59c9eee2-2711-40e5-ad57-f78d6a66b9e3"},"vehicle_type_id":"4","last_reported":1746781873,"current_range_meters":14800,"station_id":"ce4bhm92rcd13ifvqglg","pricing_plan_id":"cebpf4jnsgd1na2vs0mg"},{"bike_id":"e6282093-23fb-41a9-859d-c0d9ad966535","system_id":"levelo_inurba_marseille","lat":43.31545,"lon":5.3823,"is_reserved":false,"is_disabled":false,"rental_uris":{"android":"levelo://app?vid=e6282093-23fb-41a9-859d-c0d9ad966535","ios":"levelo://app?vid=e6282093-23fb-41a9-859d-c0d9ad966535"},"vehicle_type_id":"4","last_reported":1746781873,"current_range_meters":14800,"station_id":"","pricing_plan_id":"cebpf4jnsgd1na2vs0mg"},{"bike_id":"1e122cb6-c6ae-4b5c-b493-07ff2a289a32","system_id":"levelo_inurba_marseille","lat":43.31363,"lon":5.36718,"is_reserved":false,"is_disabled":false,"rental_uris":{"android":"levelo://app?vid=1e122cb6-c6ae-4b5c-b493-07ff2a289a32","ios":"levelo://app?vid=1e122cb6-c6ae-4b5c-b493-07ff2a289a32"},"vehicle_type_id":"4","last_reported":1746781873,"current_range_meters":15200,"station_id":"ce4bgr92rcd13ifvqc6g","pricing_plan_id":"cebpf4jnsgd1na2vs0mg"},{"bike_id":"d4e825d6-11df-4dfe-b9f6-1d81c835a98c","system_id":"levelo_inurba_marseille","lat":43.287276,"lon":5.379619,"is_reserved":false,"is_disabled":false,"rental_uris":{"android":"levelo://app?vid=d4e825d6-11df-4dfe-b9f6-1d81c835a98c","ios":"levelo://app?vid=d4e825d6-11df-4dfe-b9f6-1d81c835a98c"},"vehicle_type_id":"4","last_reported":1746781873,"current_range_meters":15200,"station_id":"ce4bh9p2rcd13ifvqec0","pricing_plan_id":"cebpf4jnsgd1na2vs0mg"},{"bike_id":"44355d28-d86b-44dd-a795-f92231357464","system_id":"levelo_inurba_marseille","lat":43.25957,"lon":5.40885,"is_reserved":false,"is_disabled":false,"rental_uris":{"android":"levelo://app?vid=44355d28-d86b-44dd-a795-f92231357464","ios":"levelo://app?vid=44355d28-d86b-44dd-a795-f92231357464"},"vehicle_type_id":"4","last_reported":1746781873,"current_range_meters":16000,"station_id":"ce4bhm92rcd13ifvqglg","pricing_plan_id":"cebpf4jnsgd1na2vs0mg"},{"bike_id":"f969b97c-1c1a-4079-a8d8-16efa103018e","system_id":"levelo_inurba_marseille","lat":43.25926,"lon":5.40915,"is_reserved":false,"is_disabled":false,"rental_uris":{"android":"levelo://app?vid=f969b97c-1c1a-4079-a8d8-16efa103018e","ios":"levelo://app?vid=f969b97c-1c1a-4079-a8d8-16efa103018e"},"vehicle_type_id":"4","last_reported":1746781873,"current_range_meters":16000,"station_id":"ce4bhm92rcd13ifvqglg","pricing_plan_id":"cebpf4jnsgd1na2vs0mg"},{"bike_id":"aebd189d-00d9-4039-9abf-8ad12ae2dc58","system_id":"levelo_inurba_marseille","lat":43.28157,"lon":5.42645,"is_reserved":false,"is_disabled":false,"rental_uris":{"android":"levelo://app?vid=aebd189d-00d9-4039-9abf-8ad12ae2dc58","ios":"levelo://app?vid=aebd189d-00d9-4039-9abf-8ad12ae2dc58"},"vehicle_type_id":"4","last_reported":1746781873,"current_range_meters":16400,"station_id":"ce4bhnh2rcd13ifvqgug","pricing_plan_id":"cebpf4jnsgd1na2vs0mg"},{"bike_id":"0ddbc89d-17e4-426d-8539-f3af2b22f6e9","system_id":"levelo_inurba_marseille","lat":43.274982,"lon":5.424558,"is_reserved":false,"is_disabled":false,"rental_uris":{"android":"levelo://app?vid=0ddbc89d-17e4-426d-8539-f3af2b22f6e9","ios":"levelo://app?vid=0ddbc89d-17e4-426d-8539-f3af2b22f6e9"},"vehicle_type_id":"4","last_reported":1746781873,"current_range_meters":16400,"station_id":"ce4bhn92rcd13ifvqgrg","pricing_plan_id":"cebpf4jnsgd1na2vs0mg"},{"bike_id":"0cb542d0-661d-4a86-904d-249f6866850a","system_id":"levelo_inurba_marseille","lat":43.25715,"lon":5.41105,"is_reserved":false,"is_disabled":false,"rental_uris":{"android":"levelo://app?vid=0cb542d0-661d-4a86-904d-249f6866850a","ios":"levelo://app?vid=0cb542d0-661d-4a86-904d-249f6866850a"},"vehicle_type_id":"4","last_reported":1746781873,"current_range_meters":16400,"station_id":"ce4bhkp2rcd13ifvqgd0","pricing_plan_id":"cebpf4jnsgd1na2vs0mg"},{"bike_id":"0229c7d0-9718-4730-9db8-dc62ebffab4d","system_id":"levelo_inurba_marseille","lat":43.3415,"lon":5.40891,"is_reserved":false,"is_disabled":false,"rental_uris":{"android":"levelo://app?vid=0229c7d0-9718-4730-9db8-dc62ebffab4d","ios":"levelo://app?vid=0229c7d0-9718-4730-9db8-dc62ebffab4d"},"vehicle_type_id":"4","last_reported":1746781873,"current_range_meters":16400,"station_id":"ce4bhqh2rcd13ifvqhlg","pricing_plan_id":"cebpf4jnsgd1na2vs0mg"},{"bike_id":"f67736aa-fe78-43b4-88f3-cb130731b90b","system_id":"levelo_inurba_marseille","lat":43.33602,"lon":5.41035,"is_reserved":false,"is_disabled":false,"rental_uris":{"android":"levelo://app?vid=f67736aa-fe78-43b4-88f3-cb130731b90b","ios":"levelo://app?vid=f67736aa-fe78-43b4-88f3-cb130731b90b"},"vehicle_type_id":"4","last_reported":1746781873,"current_range_meters":16400,"station_id":"ce4bhqh2rcd13ifvqhmg","pricing_plan_id":"cebpf4jnsgd1na2vs0mg"},{"bike_id":"505cfc75-0e6e-4ff3-a1d4-dd9fccf9d9ca","system_id":"levelo_inurba_marseille","lat":43.23142,"lon":5.43723,"is_reserved":false,"is_disabled":false,"rental_uris":{"android":"levelo://app?vid=505cfc75-0e6e-4ff3-a1d4-dd9fccf9d9ca","ios":"levelo://app?vid=505cfc75-0e6e-4ff3-a1d4-dd9fccf9d9ca"},"vehicle_type_id":"4","last_reported":1746781873,"current_range_meters":16400,"station_id":"ce4bhmp2rcd13ifvqgog","pricing_plan_id":"cebpf4jnsgd1na2vs0mg"},{"bike_id":"6cae30d1-ac9a-4b9c-b85e-3bcdcf653acc","system_id":"levelo_inurba_marseille","lat":43.2175,"lon":5.34603,"is_reserved":false,"is_disabled":true,"rental_uris":{"android":"levelo://app?vid=6cae30d1-ac9a-4b9c-b85e-3bcdcf653acc","ios":"levelo://app?vid=6cae30d1-ac9a-4b9c-b85e-3bcdcf653acc"},"vehicle_type_id":"4","last_reported":1746781873,"current_range_meters":16400,"station_id":"st_cvj6r9ubvosntc0bgbag","pricing_plan_id":"cebpf4jnsgd1na2vs0mg"},{"bike_id":"d5ae9987-3c36-4197-a244-adc74140878e","system_id":"levelo_inurba_marseille","lat":43.31367,"lon":5.36674,"is_reserved":false,"is_disabled":false,"rental_uris":{"android":"levelo://app?vid=d5ae9987-3c36-4197-a244-adc74140878e","ios":"levelo://app?vid=d5ae9987-3c36-4197-a244-adc74140878e"},"vehicle_type_id":"4","last_reported":1746781873,"current_range_meters":16800,"station_id":"ce4bgr92rcd13ifvqc6g","pricing_plan_id":"cebpf4jnsgd1na2vs0mg"},{"bike_id":"cd73e777-d889-43df-be77-6949548b8dc3","system_id":"levelo_inurba_marseille","lat":43.3095,"lon":5.3903,"is_reserved":false,"is_disabled":false,"rental_uris":{"android":"levelo://app?vid=cd73e777-d889-43df-be77-6949548b8dc3","ios":"levelo://app?vid=cd73e777-d889-43df-be77-6949548b8dc3"},"vehicle_type_id":"4","last_reported":1746781873,"current_range_meters":16800,"station_id":"ce4bgup2rcd13ifvqco0","pricing_plan_id":"cebpf4jnsgd1na2vs0mg"},{"bike_id":"b67b7063-b7ba-4d38-8b72-4a6d95a51dd7","system_id":"levelo_inurba_marseille","lat":43.27496,"lon":5.4246,"is_reserved":false,"is_disabled":false,"rental_uris":{"android":"levelo://app?vid=b67b7063-b7ba-4d38-8b72-4a6d95a51dd7","ios":"levelo://app?vid=b67b7063-b7ba-4d38-8b72-4a6d95a51dd7"},"vehicle_type_id":"4","last_reported":1746781873,"current_range_meters":16800,"station_id":"ce4bhn92rcd13ifvqgrg","pricing_plan_id":"cebpf4jnsgd1na2vs0mg"},{"bike_id":"88b670e9-1f20-4e1a-90a8-67daf84ee563","system_id":"levelo_inurba_marseille","lat":43.29298,"lon":5.37457,"is_reserved":false,"is_disabled":false,"rental_uris":{"android":"levelo://app?vid=88b670e9-1f20-4e1a-90a8-67daf84ee563","ios":"levelo://app?vid=88b670e9-1f20-4e1a-90a8-67daf84ee563"},"vehicle_type_id":"4","last_reported":1746781873,"current_range_meters":16800,"station_id":"ce4bgi12rcd13ifvqb70","pricing_plan_id":"cebpf4jnsgd1na2vs0mg"},{"bike_id":"17c53b35-a2f1-475d-b28d-2c3ab96850e4","system_id":"levelo_inurba_marseille","lat":43.25931,"lon":5.40918,"is_reserved":false,"is_disabled":false,"rental_uris":{"android":"levelo://app?vid=17c53b35-a2f1-475d-b28d-2c3ab96850e4","ios":"levelo://app?vid=17c53b35-a2f1-475d-b28d-2c3ab96850e4"},"vehicle_type_id":"4","last_reported":1746781873,"current_range_meters":16800,"station_id":"ce4bhm92rcd13ifvqglg","pricing_plan_id":"cebpf4jnsgd1na2vs0mg"},{"bike_id":"ea81b7a8-7f8b-4eb2-aa57-941dee49e510","system_id":"levelo_inurba_marseille","lat":43.27564,"lon":5.38418,"is_reserved":false,"is_disabled":false,"rental_uris":{"android":"levelo://app?vid=ea81b7a8-7f8b-4eb2-aa57-941dee49e510","ios":"levelo://app?vid=ea81b7a8-7f8b-4eb2-aa57-941dee49e510"},"vehicle_type_id":"4","last_reported":1746781873,"current_range_meters":16800,"station_id":"ce4bhh92rcd13ifvqfi0","pricing_plan_id":"cebpf4jnsgd1na2vs0mg"},{"bike_id":"0bdcdff3-8294-49b9-80e9-145bbc1ad711","system_id":"levelo_inurba_marseille","lat":43.32245,"lon":5.36784,"is_reserved":false,"is_disabled":false,"rental_uris":{"android":"levelo://app?vid=0bdcdff3-8294-49b9-80e9-145bbc1ad711","ios":"levelo://app?vid=0bdcdff3-8294-49b9-80e9-145bbc1ad711"},"vehicle_type_id":"4","last_reported":1746781873,"current_range_meters":17200,"station_id":"","pricing_plan_id":"cebpf4jnsgd1na2vs0mg"},{"bike_id":"39005936-d671-4d0a-9547-d8fb0f8d498d","system_id":"levelo_inurba_marseille","lat":43.33605,"lon":5.41045,"is_reserved":false,"is_disabled":false,"rental_uris":{"android":"levelo://app?vid=39005936-d671-4d0a-9547-d8fb0f8d498d","ios":"levelo://app?vid=39005936-d671-4d0a-9547-d8fb0f8d498d"},"vehicle_type_id":"4","last_reported":1746781873,"current_range_meters":17200,"station_id":"ce4bhqh2rcd13ifvqhmg","pricing_plan_id":"cebpf4jnsgd1na2vs0mg"},{"bike_id":"228878a1-ba10-4a9d-8bd6-a2d0e5e4d6b0","system_id":"levelo_inurba_marseille","lat":43.279083,"lon":5.380071,"is_reserved":false,"is_disabled":false,"rental_uris":{"android":"levelo://app?vid=228878a1-ba10-4a9d-8bd6-a2d0e5e4d6b0","ios":"levelo://app?vid=228878a1-ba10-4a9d-8bd6-a2d0e5e4d6b0"},"vehicle_type_id":"4","last_reported":1746781873,"current_range_meters":17200,"station_id":"","pricing_plan_id":"cebpf4jnsgd1na2vs0mg"},{"bike_id":"577b6fa1-01aa-4b90-beb1-386dce7ef354","system_id":"levelo_inurba_marseille","lat":43.25919,"lon":5.40901,"is_reserved":false,"is_disabled":false,"rental_uris":{"android":"levelo://app?vid=577b6fa1-01aa-4b90-beb1-386dce7ef354","ios":"levelo://app?vid=577b6fa1-01aa-4b90-beb1-386dce7ef354"},"vehicle_type_id":"4","last_reported":1746781873,"current_range_meters":17200,"station_id":"ce4bhm92rcd13ifvqglg","pricing_plan_id":"cebpf4jnsgd1na2vs0mg"},{"bike_id":"f06af0cc-86b3-4707-be95-2702f08eea52","system_id":"levelo_inurba_marseille","lat":43.26224,"lon":5.40451,"is_reserved":false,"is_disabled":false,"rental_uris":{"android":"levelo://app?vid=f06af0cc-86b3-4707-be95-2702f08eea52","ios":"levelo://app?vid=f06af0cc-86b3-4707-be95-2702f08eea52"},"vehicle_type_id":"4","last_reported":1746781873,"current_range_meters":17600,"station_id":"ce4bhmh2rcd13ifvqgmg","pricing_plan_id":"cebpf4jnsgd1na2vs0mg"},{"bike_id":"4028afa1-6031-46e7-90c6-0ef6a7f2f34e","system_id":"levelo_inurba_marseille","lat":43.30947,"lon":5.39045,"is_reserved":false,"is_disabled":false,"rental_uris":{"android":"levelo://app?vid=4028afa1-6031-46e7-90c6-0ef6a7f2f34e","ios":"levelo://app?vid=4028afa1-6031-46e7-90c6-0ef6a7f2f34e"},"vehicle_type_id":"4","last_reported":1746781873,"current_range_meters":17600,"station_id":"ce4bgup2rcd13ifvqco0","pricing_plan_id":"cebpf4jnsgd1na2vs0mg"},{"bike_id":"18fc0d34-3175-4e98-afa4-91a308790560","system_id":"levelo_inurba_marseille","lat":43.266811,"lon":5.402758,"is_reserved":false,"is_disabled":true,"rental_uris":{"android":"levelo://app?vid=18fc0d34-3175-4e98-afa4-91a308790560","ios":"levelo://app?vid=18fc0d34-3175-4e98-afa4-91a308790560"},"vehicle_type_id":"4","last_reported":1746781873,"current_range_meters":17600,"station_id":"","pricing_plan_id":"cebpf4jnsgd1na2vs0mg"},{"bike_id":"7c16ca62-46e9-438a-aef3-dd96077d49a7","system_id":"levelo_inurba_marseille","lat":43.2918,"lon":5.37158,"is_reserved":false,"is_disabled":false,"rental_uris":{"android":"levelo://app?vid=7c16ca62-46e9-438a-aef3-dd96077d49a7","ios":"levelo://app?vid=7c16ca62-46e9-438a-aef3-dd96077d49a7"},"vehicle_type_id":"4","last_reported":1746781873,"current_range_meters":18000,"station_id":"ce4bha92rcd13ifvqeh0","pricing_plan_id":"cebpf4jnsgd1na2vs0mg"},{"bike_id":"14f68caa-6d4f-4584-abdf-1143d9baf33f","system_id":"levelo_inurba_marseille","lat":43.275051,"lon":5.424671,"is_reserved":false,"is_disabled":false,"rental_uris":{"android":"levelo://app?vid=14f68caa-6d4f-4584-abdf-1143d9baf33f","ios":"levelo://app?vid=14f68caa-6d4f-4584-abdf-1143d9baf33f"},"vehicle_type_id":"4","last_reported":1746781873,"current_range_meters":18000,"station_id":"ce4bhn92rcd13ifvqgrg","pricing_plan_id":"cebpf4jnsgd1na2vs0mg"},{"bike_id":"af9f94e5-315e-4cb9-add5-039180487c31","system_id":"levelo_inurba_marseille","lat":43.250037,"lon":5.389233,"is_reserved":false,"is_disabled":false,"rental_uris":{"android":"levelo://app?vid=af9f94e5-315e-4cb9-add5-039180487c31","ios":"levelo://app?vid=af9f94e5-315e-4cb9-add5-039180487c31"},"vehicle_type_id":"4","last_reported":1746781873,"current_range_meters":18000,"station_id":"ce4bhgp2rcd13ifvqfd0","pricing_plan_id":"cebpf4jnsgd1na2vs0mg"},{"bike_id":"2930bb53-ed05-4d99-9b1d-fe00bb0c34f3","system_id":"levelo_inurba_marseille","lat":43.26986,"lon":5.39296,"is_reserved":false,"is_disabled":true,"rental_uris":{"android":"levelo://app?vid=2930bb53-ed05-4d99-9b1d-fe00bb0c34f3","ios":"levelo://app?vid=2930bb53-ed05-4d99-9b1d-fe00bb0c34f3"},"vehicle_type_id":"4","last_reported":1746781873,"current_range_meters":18000,"station_id":"","pricing_plan_id":"cebpf4jnsgd1na2vs0mg"},{"bike_id":"db1d5f79-a0ff-42df-aeb5-73a9037e3c59","system_id":"levelo_inurba_marseille","lat":43.30538,"lon":5.36554,"is_reserved":false,"is_disabled":false,"rental_uris":{"android":"levelo://app?vid=db1d5f79-a0ff-42df-aeb5-73a9037e3c59","ios":"levelo://app?vid=db1d5f79-a0ff-42df-aeb5-73a9037e3c59"},"vehicle_type_id":"4","last_reported":1746781873,"current_range_meters":18000,"station_id":"ce4bgs12rcd13ifvqcag","pricing_plan_id":"cebpf4jnsgd1na2vs0mg"},{"bike_id":"7ef3e4f4-5d8a-45b2-8a3a-c031488f47d3","system_id":"levelo_inurba_marseille","lat":43.305402,"lon":5.366978,"is_reserved":false,"is_disabled":false,"rental_uris":{"android":"levelo://app?vid=7ef3e4f4-5d8a-45b2-8a3a-c031488f47d3","ios":"levelo://app?vid=7ef3e4f4-5d8a-45b2-8a3a-c031488f47d3"},"vehicle_type_id":"4","last_reported":1746781873,"current_range_meters":18000,"station_id":"ce4bgrp2rcd13ifvqc9g","pricing_plan_id":"cebpf4jnsgd1na2vs0mg"},{"bike_id":"ea2c0c43-e698-40be-a27e-6b75dea5c93d","system_id":"levelo_inurba_marseille","lat":43.24069,"lon":5.37778,"is_reserved":false,"is_disabled":false,"rental_uris":{"android":"levelo://app?vid=ea2c0c43-e698-40be-a27e-6b75dea5c93d","ios":"levelo://app?vid=ea2c0c43-e698-40be-a27e-6b75dea5c93d"},"vehicle_type_id":"4","last_reported":1746781873,"current_range_meters":18000,"station_id":"ce4bhnp2rcd13ifvqgvg","pricing_plan_id":"cebpf4jnsgd1na2vs0mg"},{"bike_id":"9b374d75-cee5-4ae7-acc5-d2e3eb3b42f6","system_id":"levelo_inurba_marseille","lat":43.29585,"lon":5.36739,"is_reserved":false,"is_disabled":false,"rental_uris":{"android":"levelo://app?vid=9b374d75-cee5-4ae7-acc5-d2e3eb3b42f6","ios":"levelo://app?vid=9b374d75-cee5-4ae7-acc5-d2e3eb3b42f6"},"vehicle_type_id":"4","last_reported":1746781873,"current_range_meters":18800,"station_id":"ce4bgph2rcd13ifvqc2g","pricing_plan_id":"cebpf4jnsgd1na2vs0mg"},{"bike_id":"f7b9c69a-680b-452c-80fd-336a0ac82133","system_id":"levelo_inurba_marseille","lat":43.27494,"lon":5.42456,"is_reserved":false,"is_disabled":false,"rental_uris":{"android":"levelo://app?vid=f7b9c69a-680b-452c-80fd-336a0ac82133","ios":"levelo://app?vid=f7b9c69a-680b-452c-80fd-336a0ac82133"},"vehicle_type_id":"4","last_reported":1746781873,"current_range_meters":18800,"station_id":"ce4bhn92rcd13ifvqgrg","pricing_plan_id":"cebpf4jnsgd1na2vs0mg"},{"bike_id":"bf7b80bb-1912-4bbf-bf56-3d5cccad3302","system_id":"levelo_inurba_marseille","lat":43.298472,"lon":5.362852,"is_reserved":false,"is_disabled":false,"rental_uris":{"android":"levelo://app?vid=bf7b80bb-1912-4bbf-bf56-3d5cccad3302","ios":"levelo://app?vid=bf7b80bb-1912-4bbf-bf56-3d5cccad3302"},"vehicle_type_id":"4","last_reported":1746781873,"current_range_meters":18800,"station_id":"ce4bgpp2rcd13ifvqc3g","pricing_plan_id":"cebpf4jnsgd1na2vs0mg"},{"bike_id":"14627cc4-f356-4135-9618-f7b7e9a0230f","system_id":"levelo_inurba_marseille","lat":43.27496,"lon":5.42445,"is_reserved":false,"is_disabled":false,"rental_uris":{"android":"levelo://app?vid=14627cc4-f356-4135-9618-f7b7e9a0230f","ios":"levelo://app?vid=14627cc4-f356-4135-9618-f7b7e9a0230f"},"vehicle_type_id":"4","last_reported":1746781873,"current_range_meters":18800,"station_id":"ce4bhn92rcd13ifvqgrg","pricing_plan_id":"cebpf4jnsgd1na2vs0mg"},{"bike_id":"ffb97e98-b63f-4c42-9b50-5f510ebcee9b","system_id":"levelo_inurba_marseille","lat":43.27495,"lon":5.42448,"is_reserved":false,"is_disabled":false,"rental_uris":{"android":"levelo://app?vid=ffb97e98-b63f-4c42-9b50-5f510ebcee9b","ios":"levelo://app?vid=ffb97e98-b63f-4c42-9b50-5f510ebcee9b"},"vehicle_type_id":"4","last_reported":1746781873,"current_range_meters":18800,"station_id":"ce4bhn92rcd13ifvqgrg","pricing_plan_id":"cebpf4jnsgd1na2vs0mg"},{"bike_id":"b3b14b23-f441-4b28-a804-68a7a353e2a5","system_id":"levelo_inurba_marseille","lat":43.33769,"lon":5.374334,"is_reserved":false,"is_disabled":false,"rental_uris":{"android":"levelo://app?vid=b3b14b23-f441-4b28-a804-68a7a353e2a5","ios":"levelo://app?vid=b3b14b23-f441-4b28-a804-68a7a353e2a5"},"vehicle_type_id":"4","last_reported":1746781873,"current_range_meters":18800,"station_id":"","pricing_plan_id":"cebpf4jnsgd1na2vs0mg"},{"bike_id":"17b0c5dd-3640-4569-b805-64afdc99ee11","system_id":"levelo_inurba_marseille","lat":43.24177,"lon":5.39731,"is_reserved":false,"is_disabled":false,"rental_uris":{"android":"levelo://app?vid=17b0c5dd-3640-4569-b805-64afdc99ee11","ios":"levelo://app?vid=17b0c5dd-3640-4569-b805-64afdc99ee11"},"vehicle_type_id":"4","last_reported":1746781873,"current_range_meters":18800,"station_id":"ce4bhn12rcd13ifvqgpg","pricing_plan_id":"cebpf4jnsgd1na2vs0mg"},{"bike_id":"0a1a2cf6-8ec4-4374-a505-7537295ab120","system_id":"levelo_inurba_marseille","lat":43.33622,"lon":5.41004,"is_reserved":false,"is_disabled":false,"rental_uris":{"android":"levelo://app?vid=0a1a2cf6-8ec4-4374-a505-7537295ab120","ios":"levelo://app?vid=0a1a2cf6-8ec4-4374-a505-7537295ab120"},"vehicle_type_id":"4","last_reported":1746781873,"current_range_meters":19200,"station_id":"ce4bhqh2rcd13ifvqhmg","pricing_plan_id":"cebpf4jnsgd1na2vs0mg"},{"bike_id":"c65732d7-d6e4-4134-b90d-85c2276db215","system_id":"levelo_inurba_marseille","lat":43.25951,"lon":5.40911,"is_reserved":false,"is_disabled":false,"rental_uris":{"android":"levelo://app?vid=c65732d7-d6e4-4134-b90d-85c2276db215","ios":"levelo://app?vid=c65732d7-d6e4-4134-b90d-85c2276db215"},"vehicle_type_id":"4","last_reported":1746781873,"current_range_meters":19200,"station_id":"ce4bhm92rcd13ifvqglg","pricing_plan_id":"cebpf4jnsgd1na2vs0mg"},{"bike_id":"3e7c6aae-b2bc-4dc1-ae18-e8b01d55045f","system_id":"levelo_inurba_marseille","lat":43.24633,"lon":5.43641,"is_reserved":false,"is_disabled":false,"rental_uris":{"android":"levelo://app?vid=3e7c6aae-b2bc-4dc1-ae18-e8b01d55045f","ios":"levelo://app?vid=3e7c6aae-b2bc-4dc1-ae18-e8b01d55045f"},"vehicle_type_id":"4","last_reported":1746781873,"current_range_meters":19200,"station_id":"","pricing_plan_id":"cebpf4jnsgd1na2vs0mg"},{"bike_id":"881c097a-b180-44f5-9d6b-1f54f714978b","system_id":"levelo_inurba_marseille","lat":43.27068,"lon":5.42269,"is_reserved":false,"is_disabled":false,"rental_uris":{"android":"levelo://app?vid=881c097a-b180-44f5-9d6b-1f54f714978b","ios":"levelo://app?vid=881c097a-b180-44f5-9d6b-1f54f714978b"},"vehicle_type_id":"4","last_reported":1746781873,"current_range_meters":19200,"station_id":"ce4bhk92rcd13ifvqgb0","pricing_plan_id":"cebpf4jnsgd1na2vs0mg"},{"bike_id":"72006108-1e11-484c-80e1-29ec3cb27207","system_id":"levelo_inurba_marseille","lat":43.27492,"lon":5.4245,"is_reserved":false,"is_disabled":false,"rental_uris":{"android":"levelo://app?vid=72006108-1e11-484c-80e1-29ec3cb27207","ios":"levelo://app?vid=72006108-1e11-484c-80e1-29ec3cb27207"},"vehicle_type_id":"4","last_reported":1746781873,"current_range_meters":19600,"station_id":"ce4bhn92rcd13ifvqgrg","pricing_plan_id":"cebpf4jnsgd1na2vs0mg"},{"bike_id":"2b695556-5fdc-4725-a789-9b7b81b7a3a6","system_id":"levelo_inurba_marseille","lat":43.323609,"lon":5.367639,"is_reserved":false,"is_disabled":false,"rental_uris":{"android":"levelo://app?vid=2b695556-5fdc-4725-a789-9b7b81b7a3a6","ios":"levelo://app?vid=2b695556-5fdc-4725-a789-9b7b81b7a3a6"},"vehicle_type_id":"4","last_reported":1746781873,"current_range_meters":19600,"station_id":"ce4bhsh2rcd13ifvqi2g","pricing_plan_id":"cebpf4jnsgd1na2vs0mg"},{"bike_id":"815401a9-262d-492a-9529-e70015785225","system_id":"levelo_inurba_marseille","lat":43.29297,"lon":5.3747,"is_reserved":false,"is_disabled":false,"rental_uris":{"android":"levelo://app?vid=815401a9-262d-492a-9529-e70015785225","ios":"levelo://app?vid=815401a9-262d-492a-9529-e70015785225"},"vehicle_type_id":"4","last_reported":1746781873,"current_range_meters":19600,"station_id":"ce4bgi12rcd13ifvqb70","pricing_plan_id":"cebpf4jnsgd1na2vs0mg"},{"bike_id":"545e5687-b7df-4883-81be-75a8925d5f91","system_id":"levelo_inurba_marseille","lat":43.337444,"lon":5.374475,"is_reserved":false,"is_disabled":false,"rental_uris":{"android":"levelo://app?vid=545e5687-b7df-4883-81be-75a8925d5f91","ios":"levelo://app?vid=545e5687-b7df-4883-81be-75a8925d5f91"},"vehicle_type_id":"4","last_reported":1746781873,"current_range_meters":19600,"station_id":"","pricing_plan_id":"cebpf4jnsgd1na2vs0mg"},{"bike_id":"aa87049f-0c02-4c84-8b67-99ac7c7be172","system_id":"levelo_inurba_marseille","lat":43.31238,"lon":5.36852,"is_reserved":false,"is_disabled":false,"rental_uris":{"android":"levelo://app?vid=aa87049f-0c02-4c84-8b67-99ac7c7be172","ios":"levelo://app?vid=aa87049f-0c02-4c84-8b67-99ac7c7be172"},"vehicle_type_id":"4","last_reported":1746781873,"current_range_meters":19600,"station_id":"ce4bgl92rcd13ifvqbq0","pricing_plan_id":"cebpf4jnsgd1na2vs0mg"},{"bike_id":"e5cfc71b-54d3-4724-8d7c-2fceb3fea0e4","system_id":"levelo_inurba_marseille","lat":43.27961,"lon":5.38746,"is_reserved":false,"is_disabled":false,"rental_uris":{"android":"levelo://app?vid=e5cfc71b-54d3-4724-8d7c-2fceb3fea0e4","ios":"levelo://app?vid=e5cfc71b-54d3-4724-8d7c-2fceb3fea0e4"},"vehicle_type_id":"4","last_reported":1746781873,"current_range_meters":20000,"station_id":"ce4bhg12rcd13ifvqf80","pricing_plan_id":"cebpf4jnsgd1na2vs0mg"},{"bike_id":"fc2577e7-1497-425b-9d4f-ab8d7dc843c6","system_id":"levelo_inurba_marseille","lat":43.33771,"lon":5.37485,"is_reserved":false,"is_disabled":false,"rental_uris":{"android":"levelo://app?vid=fc2577e7-1497-425b-9d4f-ab8d7dc843c6","ios":"levelo://app?vid=fc2577e7-1497-425b-9d4f-ab8d7dc843c6"},"vehicle_type_id":"4","last_reported":1746781873,"current_range_meters":20000,"station_id":"","pricing_plan_id":"cebpf4jnsgd1na2vs0mg"},{"bike_id":"fa1b1f66-7519-42e8-92aa-be43cf3d9e34","system_id":"levelo_inurba_marseille","lat":43.22503,"lon":5.34786,"is_reserved":false,"is_disabled":false,"rental_uris":{"android":"levelo://app?vid=fa1b1f66-7519-42e8-92aa-be43cf3d9e34","ios":"levelo://app?vid=fa1b1f66-7519-42e8-92aa-be43cf3d9e34"},"vehicle_type_id":"4","last_reported":1746781873,"current_range_meters":20000,"station_id":"st_cvj5dfep6f1abm77gieg","pricing_plan_id":"cebpf4jnsgd1na2vs0mg"},{"bike_id":"e64e4e06-f269-433e-87ca-aea76ac00151","system_id":"levelo_inurba_marseille","lat":43.30941,"lon":5.39071,"is_reserved":false,"is_disabled":false,"rental_uris":{"android":"levelo://app?vid=e64e4e06-f269-433e-87ca-aea76ac00151","ios":"levelo://app?vid=e64e4e06-f269-433e-87ca-aea76ac00151"},"vehicle_type_id":"4","last_reported":1746781873,"current_range_meters":20000,"station_id":"ce4bgup2rcd13ifvqco0","pricing_plan_id":"cebpf4jnsgd1na2vs0mg"},{"bike_id":"edd60f3c-8f20-43fd-b8a1-002c70da4042","system_id":"levelo_inurba_marseille","lat":43.245455,"lon":5.395438,"is_reserved":false,"is_disabled":false,"rental_uris":{"android":"levelo://app?vid=edd60f3c-8f20-43fd-b8a1-002c70da4042","ios":"levelo://app?vid=edd60f3c-8f20-43fd-b8a1-002c70da4042"},"vehicle_type_id":"4","last_reported":1746781873,"current_range_meters":20000,"station_id":"ce4bhlp2rcd13ifvqgjg","pricing_plan_id":"cebpf4jnsgd1na2vs0mg"},{"bike_id":"c9d7ac2e-3f18-44b3-b849-71281b1a822e","system_id":"levelo_inurba_marseille","lat":43.30804,"lon":5.38177,"is_reserved":false,"is_disabled":false,"rental_uris":{"android":"levelo://app?vid=c9d7ac2e-3f18-44b3-b849-71281b1a822e","ios":"levelo://app?vid=c9d7ac2e-3f18-44b3-b849-71281b1a822e"},"vehicle_type_id":"4","last_reported":1746781873,"current_range_meters":20000,"station_id":"ce4bgt12rcd13ifvqce0","pricing_plan_id":"cebpf4jnsgd1na2vs0mg"},{"bike_id":"91b878d6-ff78-42f6-9247-abcac1810df3","system_id":"levelo_inurba_marseille","lat":43.28447,"lon":5.39207,"is_reserved":false,"is_disabled":false,"rental_uris":{"android":"levelo://app?vid=91b878d6-ff78-42f6-9247-abcac1810df3","ios":"levelo://app?vid=91b878d6-ff78-42f6-9247-abcac1810df3"},"vehicle_type_id":"4","last_reported":1746781873,"current_range_meters":20000,"station_id":"ce4bhoh2rcd13ifvqh5g","pricing_plan_id":"cebpf4jnsgd1na2vs0mg"},{"bike_id":"5aff3eb5-177c-46b2-854b-e097bb7521f2","system_id":"levelo_inurba_marseille","lat":43.24165,"lon":5.36396,"is_reserved":false,"is_disabled":false,"rental_uris":{"android":"levelo://app?vid=5aff3eb5-177c-46b2-854b-e097bb7521f2","ios":"levelo://app?vid=5aff3eb5-177c-46b2-854b-e097bb7521f2"},"vehicle_type_id":"4","last_reported":1746781873,"current_range_meters":20000,"station_id":"cpo36qri1sfpv3e86is0","pricing_plan_id":"cebpf4jnsgd1na2vs0mg"},{"bike_id":"4d3aa97e-d4d6-4149-8e42-3111423f42c3","system_id":"levelo_inurba_marseille","lat":43.28945,"lon":5.36635,"is_reserved":false,"is_disabled":false,"rental_uris":{"android":"levelo://app?vid=4d3aa97e-d4d6-4149-8e42-3111423f42c3","ios":"levelo://app?vid=4d3aa97e-d4d6-4149-8e42-3111423f42c3"},"vehicle_type_id":"4","last_reported":1746781873,"current_range_meters":20400,"station_id":"ce4bhap2rcd13ifvqek0","pricing_plan_id":"cebpf4jnsgd1na2vs0mg"},{"bike_id":"95dc5ac3-f9a8-4e4d-a9ba-a15ab0bdde00","system_id":"levelo_inurba_marseille","lat":43.24077,"lon":5.37779,"is_reserved":false,"is_disabled":false,"rental_uris":{"android":"levelo://app?vid=95dc5ac3-f9a8-4e4d-a9ba-a15ab0bdde00","ios":"levelo://app?vid=95dc5ac3-f9a8-4e4d-a9ba-a15ab0bdde00"},"vehicle_type_id":"4","last_reported":1746781873,"current_range_meters":20400,"station_id":"ce4bhnp2rcd13ifvqgvg","pricing_plan_id":"cebpf4jnsgd1na2vs0mg"},{"bike_id":"7dbf7670-d1d0-4a80-8ac5-74bfe0c01954","system_id":"levelo_inurba_marseille","lat":43.23787,"lon":5.36164,"is_reserved":false,"is_disabled":false,"rental_uris":{"android":"levelo://app?vid=7dbf7670-d1d0-4a80-8ac5-74bfe0c01954","ios":"levelo://app?vid=7dbf7670-d1d0-4a80-8ac5-74bfe0c01954"},"vehicle_type_id":"4","last_reported":1746781873,"current_range_meters":20400,"station_id":"","pricing_plan_id":"cebpf4jnsgd1na2vs0mg"},{"bike_id":"857b6878-b923-48c3-a5d7-22102b13b0e0","system_id":"levelo_inurba_marseille","lat":43.30531,"lon":5.3671,"is_reserved":false,"is_disabled":false,"rental_uris":{"android":"levelo://app?vid=857b6878-b923-48c3-a5d7-22102b13b0e0","ios":"levelo://app?vid=857b6878-b923-48c3-a5d7-22102b13b0e0"},"vehicle_type_id":"4","last_reported":1746781873,"current_range_meters":20400,"station_id":"ce4bgrp2rcd13ifvqc9g","pricing_plan_id":"cebpf4jnsgd1na2vs0mg"},{"bike_id":"66d39f5f-1aac-423b-9ea7-bf9c1b0e5079","system_id":"levelo_inurba_marseille","lat":43.27504,"lon":5.41139,"is_reserved":false,"is_disabled":false,"rental_uris":{"android":"levelo://app?vid=66d39f5f-1aac-423b-9ea7-bf9c1b0e5079","ios":"levelo://app?vid=66d39f5f-1aac-423b-9ea7-bf9c1b0e5079"},"vehicle_type_id":"4","last_reported":1746781873,"current_range_meters":20400,"station_id":"","pricing_plan_id":"cebpf4jnsgd1na2vs0mg"},{"bike_id":"3456c45a-e275-4f67-83bd-d4a50f419496","system_id":"levelo_inurba_marseille","lat":43.29276,"lon":5.38443,"is_reserved":false,"is_disabled":false,"rental_uris":{"android":"levelo://app?vid=3456c45a-e275-4f67-83bd-d4a50f419496","ios":"levelo://app?vid=3456c45a-e275-4f67-83bd-d4a50f419496"},"vehicle_type_id":"4","last_reported":1746781873,"current_range_meters":20400,"station_id":"ce4bh692rcd13ifvqea0","pricing_plan_id":"cebpf4jnsgd1na2vs0mg"},{"bike_id":"cc4ec9f2-3e21-4979-b748-64b51e77de09","system_id":"levelo_inurba_marseille","lat":43.28562,"lon":5.39493,"is_reserved":false,"is_disabled":false,"rental_uris":{"android":"levelo://app?vid=cc4ec9f2-3e21-4979-b748-64b51e77de09","ios":"levelo://app?vid=cc4ec9f2-3e21-4979-b748-64b51e77de09"},"vehicle_type_id":"4","last_reported":1746781873,"current_range_meters":20800,"station_id":"ce4bh292rcd13ifvqdg0","pricing_plan_id":"cebpf4jnsgd1na2vs0mg"},{"bike_id":"9b84e65f-2424-4f8e-b51b-21355d123536","system_id":"levelo_inurba_marseille","lat":43.31506,"lon":5.37269,"is_reserved":false,"is_disabled":false,"rental_uris":{"android":"levelo://app?vid=9b84e65f-2424-4f8e-b51b-21355d123536","ios":"levelo://app?vid=9b84e65f-2424-4f8e-b51b-21355d123536"},"vehicle_type_id":"4","last_reported":1746781873,"current_range_meters":21600,"station_id":"ce4bgt12rcd13ifvqcd0","pricing_plan_id":"cebpf4jnsgd1na2vs0mg"},{"bike_id":"7093cea6-e801-467e-9bdb-e58100e6d5a9","system_id":"levelo_inurba_marseille","lat":43.29565,"lon":5.39968,"is_reserved":false,"is_disabled":false,"rental_uris":{"android":"levelo://app?vid=7093cea6-e801-467e-9bdb-e58100e6d5a9","ios":"levelo://app?vid=7093cea6-e801-467e-9bdb-e58100e6d5a9"},"vehicle_type_id":"4","last_reported":1746781873,"current_range_meters":21600,"station_id":"ce4bh312rcd13ifvqdj0","pricing_plan_id":"cebpf4jnsgd1na2vs0mg"},{"bike_id":"e82bedf9-93fa-4d8c-abab-50aba4b34b5a","system_id":"levelo_inurba_marseille","lat":43.30545,"lon":5.36675,"is_reserved":false,"is_disabled":false,"rental_uris":{"android":"levelo://app?vid=e82bedf9-93fa-4d8c-abab-50aba4b34b5a","ios":"levelo://app?vid=e82bedf9-93fa-4d8c-abab-50aba4b34b5a"},"vehicle_type_id":"4","last_reported":1746781873,"current_range_meters":21600,"station_id":"ce4bgrp2rcd13ifvqc9g","pricing_plan_id":"cebpf4jnsgd1na2vs0mg"},{"bike_id":"a1121b36-b5cd-4dda-96ef-13a3dfaa55e1","system_id":"levelo_inurba_marseille","lat":43.301401,"lon":5.387791,"is_reserved":false,"is_disabled":false,"rental_uris":{"android":"levelo://app?vid=a1121b36-b5cd-4dda-96ef-13a3dfaa55e1","ios":"levelo://app?vid=a1121b36-b5cd-4dda-96ef-13a3dfaa55e1"},"vehicle_type_id":"4","last_reported":1746781873,"current_range_meters":22000,"station_id":"","pricing_plan_id":"cebpf4jnsgd1na2vs0mg"},{"bike_id":"daec2ff5-c9b5-4e54-81c7-90c0aa476e41","system_id":"levelo_inurba_marseille","lat":43.29851,"lon":5.36281,"is_reserved":false,"is_disabled":false,"rental_uris":{"android":"levelo://app?vid=daec2ff5-c9b5-4e54-81c7-90c0aa476e41","ios":"levelo://app?vid=daec2ff5-c9b5-4e54-81c7-90c0aa476e41"},"vehicle_type_id":"4","last_reported":1746781873,"current_range_meters":21600,"station_id":"ce4bgpp2rcd13ifvqc3g","pricing_plan_id":"cebpf4jnsgd1na2vs0mg"},{"bike_id":"abfab5a1-f29f-49fc-9757-11916345b2ec","system_id":"levelo_inurba_marseille","lat":43.30536,"lon":5.36695,"is_reserved":false,"is_disabled":false,"rental_uris":{"android":"levelo://app?vid=abfab5a1-f29f-49fc-9757-11916345b2ec","ios":"levelo://app?vid=abfab5a1-f29f-49fc-9757-11916345b2ec"},"vehicle_type_id":"4","last_reported":1746781873,"current_range_meters":20800,"station_id":"ce4bgrp2rcd13ifvqc9g","pricing_plan_id":"cebpf4jnsgd1na2vs0mg"},{"bike_id":"e7ab3214-9b98-46a3-ab6d-a41455180b41","system_id":"levelo_inurba_marseille","lat":43.29605,"lon":5.38087,"is_reserved":false,"is_disabled":false,"rental_uris":{"android":"levelo://app?vid=e7ab3214-9b98-46a3-ab6d-a41455180b41","ios":"levelo://app?vid=e7ab3214-9b98-46a3-ab6d-a41455180b41"},"vehicle_type_id":"4","last_reported":1746781873,"current_range_meters":21600,"station_id":"ce4bgl12rcd13ifvqbo0","pricing_plan_id":"cebpf4jnsgd1na2vs0mg"},{"bike_id":"9ceccaaa-1906-476f-8103-309ab7228310","system_id":"levelo_inurba_marseille","lat":43.300854,"lon":5.390873,"is_reserved":false,"is_disabled":false,"rental_uris":{"android":"levelo://app?vid=9ceccaaa-1906-476f-8103-309ab7228310","ios":"levelo://app?vid=9ceccaaa-1906-476f-8103-309ab7228310"},"vehicle_type_id":"4","last_reported":1746781873,"current_range_meters":22000,"station_id":"ce4bh192rcd13ifvqdb0","pricing_plan_id":"cebpf4jnsgd1na2vs0mg"},{"bike_id":"973a3c2c-3332-446b-8303-2d441c5d81c4","system_id":"levelo_inurba_marseille","lat":43.29615,"lon":5.37712,"is_reserved":false,"is_disabled":false,"rental_uris":{"android":"levelo://app?vid=973a3c2c-3332-446b-8303-2d441c5d81c4","ios":"levelo://app?vid=973a3c2c-3332-446b-8303-2d441c5d81c4"},"vehicle_type_id":"4","last_reported":1746781873,"current_range_meters":22000,"station_id":"ce4bgi92rcd13ifvqb90","pricing_plan_id":"cebpf4jnsgd1na2vs0mg"},{"bike_id":"0d2fd00d-4669-4584-8315-5e32d6609a36","system_id":"levelo_inurba_marseille","lat":43.26557,"lon":5.37286,"is_reserved":false,"is_disabled":false,"rental_uris":{"android":"levelo://app?vid=0d2fd00d-4669-4584-8315-5e32d6609a36","ios":"levelo://app?vid=0d2fd00d-4669-4584-8315-5e32d6609a36"},"vehicle_type_id":"4","last_reported":1746781873,"current_range_meters":22400,"station_id":"ce4bhg12rcd13ifvqf70","pricing_plan_id":"cebpf4jnsgd1na2vs0mg"},{"bike_id":"e5fd4614-fee2-4d9e-a701-7e23aaf97554","system_id":"levelo_inurba_marseille","lat":43.27497,"lon":5.42451,"is_reserved":false,"is_disabled":false,"rental_uris":{"android":"levelo://app?vid=e5fd4614-fee2-4d9e-a701-7e23aaf97554","ios":"levelo://app?vid=e5fd4614-fee2-4d9e-a701-7e23aaf97554"},"vehicle_type_id":"4","last_reported":1746781873,"current_range_meters":22400,"station_id":"ce4bhn92rcd13ifvqgrg","pricing_plan_id":"cebpf4jnsgd1na2vs0mg"},{"bike_id":"59d36033-6cdf-4f1d-a353-aec62c333795","system_id":"levelo_inurba_marseille","lat":43.29612,"lon":5.37719,"is_reserved":false,"is_disabled":false,"rental_uris":{"android":"levelo://app?vid=59d36033-6cdf-4f1d-a353-aec62c333795","ios":"levelo://app?vid=59d36033-6cdf-4f1d-a353-aec62c333795"},"vehicle_type_id":"4","last_reported":1746781873,"current_range_meters":22400,"station_id":"ce4bgi92rcd13ifvqb90","pricing_plan_id":"cebpf4jnsgd1na2vs0mg"},{"bike_id":"a7ad83d4-b109-4b29-aaf3-aaaf261d1a57","system_id":"levelo_inurba_marseille","lat":43.25956,"lon":5.4089,"is_reserved":false,"is_disabled":false,"rental_uris":{"android":"levelo://app?vid=a7ad83d4-b109-4b29-aaf3-aaaf261d1a57","ios":"levelo://app?vid=a7ad83d4-b109-4b29-aaf3-aaaf261d1a57"},"vehicle_type_id":"4","last_reported":1746781873,"current_range_meters":22400,"station_id":"ce4bhm92rcd13ifvqglg","pricing_plan_id":"cebpf4jnsgd1na2vs0mg"},{"bike_id":"a4f457a4-eb2a-400c-afb7-4746940a5b45","system_id":"levelo_inurba_marseille","lat":43.304789,"lon":5.379092,"is_reserved":false,"is_disabled":false,"rental_uris":{"android":"levelo://app?vid=a4f457a4-eb2a-400c-afb7-4746940a5b45","ios":"levelo://app?vid=a4f457a4-eb2a-400c-afb7-4746940a5b45"},"vehicle_type_id":"4","last_reported":1746781873,"current_range_meters":22400,"station_id":"ce4bgup2rcd13ifvqcn0","pricing_plan_id":"cebpf4jnsgd1na2vs0mg"},{"bike_id":"fc456185-db30-484f-9530-fafa25f0f1e3","system_id":"levelo_inurba_marseille","lat":43.26683,"lon":5.38266,"is_reserved":false,"is_disabled":false,"rental_uris":{"android":"levelo://app?vid=fc456185-db30-484f-9530-fafa25f0f1e3","ios":"levelo://app?vid=fc456185-db30-484f-9530-fafa25f0f1e3"},"vehicle_type_id":"4","last_reported":1746781873,"current_range_meters":22400,"station_id":"ce4bhg92rcd13ifvqf90","pricing_plan_id":"cebpf4jnsgd1na2vs0mg"},{"bike_id":"589be833-6fc8-4c7e-abe3-20b2a016c12e","system_id":"levelo_inurba_marseille","lat":43.337444,"lon":5.374475,"is_reserved":false,"is_disabled":false,"rental_uris":{"android":"levelo://app?vid=589be833-6fc8-4c7e-abe3-20b2a016c12e","ios":"levelo://app?vid=589be833-6fc8-4c7e-abe3-20b2a016c12e"},"vehicle_type_id":"4","last_reported":1746781873,"current_range_meters":22800,"station_id":"","pricing_plan_id":"cebpf4jnsgd1na2vs0mg"},{"bike_id":"628787b5-58bd-4124-b590-b1d7cb9e4eb1","system_id":"levelo_inurba_marseille","lat":43.28464,"lon":5.35896,"is_reserved":false,"is_disabled":false,"rental_uris":{"android":"levelo://app?vid=628787b5-58bd-4124-b590-b1d7cb9e4eb1","ios":"levelo://app?vid=628787b5-58bd-4124-b590-b1d7cb9e4eb1"},"vehicle_type_id":"4","last_reported":1746781873,"current_range_meters":22800,"station_id":"ce4bhah2rcd13ifvqei0","pricing_plan_id":"cebpf4jnsgd1na2vs0mg"},{"bike_id":"39822b85-c01f-482c-b05f-800bc2e1c6ee","system_id":"levelo_inurba_marseille","lat":43.3027,"lon":5.37708,"is_reserved":false,"is_disabled":false,"rental_uris":{"android":"levelo://app?vid=39822b85-c01f-482c-b05f-800bc2e1c6ee","ios":"levelo://app?vid=39822b85-c01f-482c-b05f-800bc2e1c6ee"},"vehicle_type_id":"4","last_reported":1746781873,"current_range_meters":22800,"station_id":"ce4bguh2rcd13ifvqcj0","pricing_plan_id":"cebpf4jnsgd1na2vs0mg"},{"bike_id":"c858c73e-da31-4827-8661-76fb4ce30ba1","system_id":"levelo_inurba_marseille","lat":43.25717,"lon":5.41073,"is_reserved":false,"is_disabled":true,"rental_uris":{"android":"levelo://app?vid=c858c73e-da31-4827-8661-76fb4ce30ba1","ios":"levelo://app?vid=c858c73e-da31-4827-8661-76fb4ce30ba1"},"vehicle_type_id":"4","last_reported":1746781873,"current_range_meters":22800,"station_id":"ce4bhkp2rcd13ifvqgd0","pricing_plan_id":"cebpf4jnsgd1na2vs0mg"},{"bike_id":"c96bdc95-d3dd-462c-8eeb-c40c20c66e3c","system_id":"levelo_inurba_marseille","lat":43.29634,"lon":5.40587,"is_reserved":false,"is_disabled":false,"rental_uris":{"android":"levelo://app?vid=c96bdc95-d3dd-462c-8eeb-c40c20c66e3c","ios":"levelo://app?vid=c96bdc95-d3dd-462c-8eeb-c40c20c66e3c"},"vehicle_type_id":"4","last_reported":1746781873,"current_range_meters":22800,"station_id":"ce4bh0h2rcd13ifvqd60","pricing_plan_id":"cebpf4jnsgd1na2vs0mg"},{"bike_id":"2d6856ac-db8e-4729-a56c-d8940dfaff9b","system_id":"levelo_inurba_marseille","lat":43.259438,"lon":5.40899,"is_reserved":false,"is_disabled":false,"rental_uris":{"android":"levelo://app?vid=2d6856ac-db8e-4729-a56c-d8940dfaff9b","ios":"levelo://app?vid=2d6856ac-db8e-4729-a56c-d8940dfaff9b"},"vehicle_type_id":"4","last_reported":1746781873,"current_range_meters":22800,"station_id":"ce4bhm92rcd13ifvqglg","pricing_plan_id":"cebpf4jnsgd1na2vs0mg"},{"bike_id":"d9ca0ad4-e117-416f-9f1f-ada4a035fd8a","system_id":"levelo_inurba_marseille","lat":43.28969,"lon":5.3784,"is_reserved":false,"is_disabled":false,"rental_uris":{"android":"levelo://app?vid=d9ca0ad4-e117-416f-9f1f-ada4a035fd8a","ios":"levelo://app?vid=d9ca0ad4-e117-416f-9f1f-ada4a035fd8a"},"vehicle_type_id":"4","last_reported":1746781873,"current_range_meters":22800,"station_id":"ce4bh9p2rcd13ifvqed0","pricing_plan_id":"cebpf4jnsgd1na2vs0mg"},{"bike_id":"52756607-7827-4f61-8695-3cabe7ff1d7c","system_id":"levelo_inurba_marseille","lat":43.24177,"lon":5.39736,"is_reserved":false,"is_disabled":false,"rental_uris":{"android":"levelo://app?vid=52756607-7827-4f61-8695-3cabe7ff1d7c","ios":"levelo://app?vid=52756607-7827-4f61-8695-3cabe7ff1d7c"},"vehicle_type_id":"4","last_reported":1746781873,"current_range_meters":23200,"station_id":"ce4bhn12rcd13ifvqgpg","pricing_plan_id":"cebpf4jnsgd1na2vs0mg"},{"bike_id":"3b8aa428-be44-4b7c-bc5b-5f40f1b3ad78","system_id":"levelo_inurba_marseille","lat":43.25922,"lon":5.40903,"is_reserved":false,"is_disabled":false,"rental_uris":{"android":"levelo://app?vid=3b8aa428-be44-4b7c-bc5b-5f40f1b3ad78","ios":"levelo://app?vid=3b8aa428-be44-4b7c-bc5b-5f40f1b3ad78"},"vehicle_type_id":"4","last_reported":1746781873,"current_range_meters":23200,"station_id":"ce4bhm92rcd13ifvqglg","pricing_plan_id":"cebpf4jnsgd1na2vs0mg"},{"bike_id":"e452c63a-c77f-4b5c-9712-2be0fc8111c4","system_id":"levelo_inurba_marseille","lat":43.32541,"lon":5.414264,"is_reserved":false,"is_disabled":false,"rental_uris":{"android":"levelo://app?vid=e452c63a-c77f-4b5c-9712-2be0fc8111c4","ios":"levelo://app?vid=e452c63a-c77f-4b5c-9712-2be0fc8111c4"},"vehicle_type_id":"4","last_reported":1746781873,"current_range_meters":23200,"station_id":"ce4bhq12rcd13ifvqhhg","pricing_plan_id":"cebpf4jnsgd1na2vs0mg"},{"bike_id":"01825bcd-4441-48be-b881-4ecead04d9c5","system_id":"levelo_inurba_marseille","lat":43.33021,"lon":5.3905,"is_reserved":false,"is_disabled":false,"rental_uris":{"android":"levelo://app?vid=01825bcd-4441-48be-b881-4ecead04d9c5","ios":"levelo://app?vid=01825bcd-4441-48be-b881-4ecead04d9c5"},"vehicle_type_id":"4","last_reported":1746781873,"current_range_meters":23200,"station_id":"ce4bhr92rcd13ifvqhrg","pricing_plan_id":"cebpf4jnsgd1na2vs0mg"},{"bike_id":"66e5d8e1-c0d0-450e-86a4-94c78e8ae38e","system_id":"levelo_inurba_marseille","lat":43.30473,"lon":5.37903,"is_reserved":false,"is_disabled":false,"rental_uris":{"android":"levelo://app?vid=66e5d8e1-c0d0-450e-86a4-94c78e8ae38e","ios":"levelo://app?vid=66e5d8e1-c0d0-450e-86a4-94c78e8ae38e"},"vehicle_type_id":"4","last_reported":1746781873,"current_range_meters":23200,"station_id":"ce4bgup2rcd13ifvqcn0","pricing_plan_id":"cebpf4jnsgd1na2vs0mg"},{"bike_id":"da9bb11b-1cb7-45ed-b7bc-8a349e88f4b8","system_id":"levelo_inurba_marseille","lat":43.30892,"lon":5.37201,"is_reserved":false,"is_disabled":false,"rental_uris":{"android":"levelo://app?vid=da9bb11b-1cb7-45ed-b7bc-8a349e88f4b8","ios":"levelo://app?vid=da9bb11b-1cb7-45ed-b7bc-8a349e88f4b8"},"vehicle_type_id":"4","last_reported":1746781873,"current_range_meters":23200,"station_id":"ce4bguh2rcd13ifvqckg","pricing_plan_id":"cebpf4jnsgd1na2vs0mg"},{"bike_id":"8e58a43e-e954-4fa6-8742-3667e321b748","system_id":"levelo_inurba_marseille","lat":43.26226,"lon":5.40456,"is_reserved":false,"is_disabled":false,"rental_uris":{"android":"levelo://app?vid=8e58a43e-e954-4fa6-8742-3667e321b748","ios":"levelo://app?vid=8e58a43e-e954-4fa6-8742-3667e321b748"},"vehicle_type_id":"4","last_reported":1746781873,"current_range_meters":23200,"station_id":"ce4bhmh2rcd13ifvqgmg","pricing_plan_id":"cebpf4jnsgd1na2vs0mg"},{"bike_id":"14a797cf-ea4e-42b7-bf27-df5932f06c80","system_id":"levelo_inurba_marseille","lat":43.3089,"lon":5.37183,"is_reserved":false,"is_disabled":false,"rental_uris":{"android":"levelo://app?vid=14a797cf-ea4e-42b7-bf27-df5932f06c80","ios":"levelo://app?vid=14a797cf-ea4e-42b7-bf27-df5932f06c80"},"vehicle_type_id":"4","last_reported":1746781873,"current_range_meters":24000,"station_id":"ce4bguh2rcd13ifvqckg","pricing_plan_id":"cebpf4jnsgd1na2vs0mg"},{"bike_id":"7365be41-1046-4ddc-b6a7-e28a1ad56b2a","system_id":"levelo_inurba_marseille","lat":43.325463,"lon":5.414464,"is_reserved":false,"is_disabled":false,"rental_uris":{"android":"levelo://app?vid=7365be41-1046-4ddc-b6a7-e28a1ad56b2a","ios":"levelo://app?vid=7365be41-1046-4ddc-b6a7-e28a1ad56b2a"},"vehicle_type_id":"4","last_reported":1746781873,"current_range_meters":24000,"station_id":"ce4bhq12rcd13ifvqhhg","pricing_plan_id":"cebpf4jnsgd1na2vs0mg"},{"bike_id":"11bac9a6-0e04-4c68-9615-f13539342864","system_id":"levelo_inurba_marseille","lat":43.21205,"lon":5.35075,"is_reserved":false,"is_disabled":false,"rental_uris":{"android":"levelo://app?vid=11bac9a6-0e04-4c68-9615-f13539342864","ios":"levelo://app?vid=11bac9a6-0e04-4c68-9615-f13539342864"},"vehicle_type_id":"4","last_reported":1746781873,"current_range_meters":24000,"station_id":"st_cvj6sg6p6f1abm77japg","pricing_plan_id":"cebpf4jnsgd1na2vs0mg"},{"bike_id":"4a12c727-da06-441a-affb-72d375ee09f8","system_id":"levelo_inurba_marseille","lat":43.31348,"lon":5.36696,"is_reserved":false,"is_disabled":false,"rental_uris":{"android":"levelo://app?vid=4a12c727-da06-441a-affb-72d375ee09f8","ios":"levelo://app?vid=4a12c727-da06-441a-affb-72d375ee09f8"},"vehicle_type_id":"4","last_reported":1746781873,"current_range_meters":24000,"station_id":"ce4bgr92rcd13ifvqc6g","pricing_plan_id":"cebpf4jnsgd1na2vs0mg"},{"bike_id":"fbcbae03-7e3e-44fd-83b3-fd29b853cc74","system_id":"levelo_inurba_marseille","lat":43.30545,"lon":5.36702,"is_reserved":false,"is_disabled":false,"rental_uris":{"android":"levelo://app?vid=fbcbae03-7e3e-44fd-83b3-fd29b853cc74","ios":"levelo://app?vid=fbcbae03-7e3e-44fd-83b3-fd29b853cc74"},"vehicle_type_id":"4","last_reported":1746781873,"current_range_meters":24000,"station_id":"ce4bgrp2rcd13ifvqc9g","pricing_plan_id":"cebpf4jnsgd1na2vs0mg"},{"bike_id":"1ace52ba-e14c-40ee-8bf5-c0676338ba7d","system_id":"levelo_inurba_marseille","lat":43.27075,"lon":5.42278,"is_reserved":false,"is_disabled":true,"rental_uris":{"android":"levelo://app?vid=1ace52ba-e14c-40ee-8bf5-c0676338ba7d","ios":"levelo://app?vid=1ace52ba-e14c-40ee-8bf5-c0676338ba7d"},"vehicle_type_id":"4","last_reported":1746781873,"current_range_meters":24000,"station_id":"ce4bhk92rcd13ifvqgb0","pricing_plan_id":"cebpf4jnsgd1na2vs0mg"},{"bike_id":"a6dea811-f996-4595-81ec-efa22a05d318","system_id":"levelo_inurba_marseille","lat":43.31233,"lon":5.36859,"is_reserved":false,"is_disabled":false,"rental_uris":{"android":"levelo://app?vid=a6dea811-f996-4595-81ec-efa22a05d318","ios":"levelo://app?vid=a6dea811-f996-4595-81ec-efa22a05d318"},"vehicle_type_id":"4","last_reported":1746781873,"current_range_meters":24000,"station_id":"ce4bgl92rcd13ifvqbq0","pricing_plan_id":"cebpf4jnsgd1na2vs0mg"},{"bike_id":"87fa0919-3ab2-46fb-aaba-a66daab56c83","system_id":"levelo_inurba_marseille","lat":43.290159,"lon":5.381299,"is_reserved":false,"is_disabled":false,"rental_uris":{"android":"levelo://app?vid=87fa0919-3ab2-46fb-aaba-a66daab56c83","ios":"levelo://app?vid=87fa0919-3ab2-46fb-aaba-a66daab56c83"},"vehicle_type_id":"4","last_reported":1746781873,"current_range_meters":24000,"station_id":"","pricing_plan_id":"cebpf4jnsgd1na2vs0mg"},{"bike_id":"4fbc1e34-9ef7-49de-8d48-d1a88ba78ffb","system_id":"levelo_inurba_marseille","lat":43.30142,"lon":5.38073,"is_reserved":false,"is_disabled":false,"rental_uris":{"android":"levelo://app?vid=4fbc1e34-9ef7-49de-8d48-d1a88ba78ffb","ios":"levelo://app?vid=4fbc1e34-9ef7-49de-8d48-d1a88ba78ffb"},"vehicle_type_id":"4","last_reported":1746781873,"current_range_meters":24000,"station_id":"ce4bgjp2rcd13ifvqbh0","pricing_plan_id":"cebpf4jnsgd1na2vs0mg"},{"bike_id":"832a74c5-19c3-4267-86e2-a63779f9cbb4","system_id":"levelo_inurba_marseille","lat":43.29576,"lon":5.36744,"is_reserved":false,"is_disabled":false,"rental_uris":{"android":"levelo://app?vid=832a74c5-19c3-4267-86e2-a63779f9cbb4","ios":"levelo://app?vid=832a74c5-19c3-4267-86e2-a63779f9cbb4"},"vehicle_type_id":"4","last_reported":1746781873,"current_range_meters":24000,"station_id":"ce4bgph2rcd13ifvqc2g","pricing_plan_id":"cebpf4jnsgd1na2vs0mg"},{"bike_id":"88a749a2-1d31-4e38-91e6-f333ff0423f3","system_id":"levelo_inurba_marseille","lat":43.26209,"lon":5.37444,"is_reserved":false,"is_disabled":false,"rental_uris":{"android":"levelo://app?vid=88a749a2-1d31-4e38-91e6-f333ff0423f3","ios":"levelo://app?vid=88a749a2-1d31-4e38-91e6-f333ff0423f3"},"vehicle_type_id":"4","last_reported":1746781873,"current_range_meters":24000,"station_id":"ce4bhgp2rcd13ifvqfc0","pricing_plan_id":"cebpf4jnsgd1na2vs0mg"},{"bike_id":"46847ce3-24a2-4af0-80b2-7e78ef50263d","system_id":"levelo_inurba_marseille","lat":43.2656,"lon":5.372808,"is_reserved":false,"is_disabled":false,"rental_uris":{"android":"levelo://app?vid=46847ce3-24a2-4af0-80b2-7e78ef50263d","ios":"levelo://app?vid=46847ce3-24a2-4af0-80b2-7e78ef50263d"},"vehicle_type_id":"4","last_reported":1746781873,"current_range_meters":24000,"station_id":"ce4bhg12rcd13ifvqf70","pricing_plan_id":"cebpf4jnsgd1na2vs0mg"},{"bike_id":"bef5a1e9-3a53-4b79-8ee5-9b0c66f395e5","system_id":"levelo_inurba_marseille","lat":43.29876,"lon":5.36254,"is_reserved":false,"is_disabled":false,"rental_uris":{"android":"levelo://app?vid=bef5a1e9-3a53-4b79-8ee5-9b0c66f395e5","ios":"levelo://app?vid=bef5a1e9-3a53-4b79-8ee5-9b0c66f395e5"},"vehicle_type_id":"4","last_reported":1746781873,"current_range_meters":24400,"station_id":"ce4bgpp2rcd13ifvqc3g","pricing_plan_id":"cebpf4jnsgd1na2vs0mg"},{"bike_id":"020b7142-3123-4bc9-884a-308b5142e38a","system_id":"levelo_inurba_marseille","lat":43.30066,"lon":5.38836,"is_reserved":false,"is_disabled":false,"rental_uris":{"android":"levelo://app?vid=020b7142-3123-4bc9-884a-308b5142e38a","ios":"levelo://app?vid=020b7142-3123-4bc9-884a-308b5142e38a"},"vehicle_type_id":"4","last_reported":1746781873,"current_range_meters":24400,"station_id":"","pricing_plan_id":"cebpf4jnsgd1na2vs0mg"},{"bike_id":"152aadb7-05ab-41de-8a93-0a2e89ca3081","system_id":"levelo_inurba_marseille","lat":43.25932,"lon":5.40908,"is_reserved":false,"is_disabled":false,"rental_uris":{"android":"levelo://app?vid=152aadb7-05ab-41de-8a93-0a2e89ca3081","ios":"levelo://app?vid=152aadb7-05ab-41de-8a93-0a2e89ca3081"},"vehicle_type_id":"4","last_reported":1746781873,"current_range_meters":24400,"station_id":"ce4bhm92rcd13ifvqglg","pricing_plan_id":"cebpf4jnsgd1na2vs0mg"},{"bike_id":"dc906f3c-482b-4c09-acff-041d31d3f5cb","system_id":"levelo_inurba_marseille","lat":43.295624,"lon":5.375343,"is_reserved":false,"is_disabled":true,"rental_uris":{"android":"levelo://app?vid=dc906f3c-482b-4c09-acff-041d31d3f5cb","ios":"levelo://app?vid=dc906f3c-482b-4c09-acff-041d31d3f5cb"},"vehicle_type_id":"4","last_reported":1746781873,"current_range_meters":24400,"station_id":"ce4bgup2rcd13ifvqcn0","pricing_plan_id":"cebpf4jnsgd1na2vs0mg"},{"bike_id":"757daaae-8164-46a1-9769-99761b9ac9ab","system_id":"levelo_inurba_marseille","lat":43.24076,"lon":5.37762,"is_reserved":false,"is_disabled":false,"rental_uris":{"android":"levelo://app?vid=757daaae-8164-46a1-9769-99761b9ac9ab","ios":"levelo://app?vid=757daaae-8164-46a1-9769-99761b9ac9ab"},"vehicle_type_id":"4","last_reported":1746781873,"current_range_meters":24400,"station_id":"ce4bhnp2rcd13ifvqgvg","pricing_plan_id":"cebpf4jnsgd1na2vs0mg"},{"bike_id":"f0943fa2-0a49-45fc-84c1-5bbf38e96efd","system_id":"levelo_inurba_marseille","lat":43.312148,"lon":5.368569,"is_reserved":false,"is_disabled":false,"rental_uris":{"android":"levelo://app?vid=f0943fa2-0a49-45fc-84c1-5bbf38e96efd","ios":"levelo://app?vid=f0943fa2-0a49-45fc-84c1-5bbf38e96efd"},"vehicle_type_id":"4","last_reported":1746781873,"current_range_meters":24400,"station_id":"","pricing_plan_id":"cebpf4jnsgd1na2vs0mg"},{"bike_id":"1c731629-96f5-4188-8708-0364441a3ffd","system_id":"levelo_inurba_marseille","lat":43.274935,"lon":5.424563,"is_reserved":false,"is_disabled":false,"rental_uris":{"android":"levelo://app?vid=1c731629-96f5-4188-8708-0364441a3ffd","ios":"levelo://app?vid=1c731629-96f5-4188-8708-0364441a3ffd"},"vehicle_type_id":"4","last_reported":1746781873,"current_range_meters":24400,"station_id":"ce4bhn92rcd13ifvqgrg","pricing_plan_id":"cebpf4jnsgd1na2vs0mg"},{"bike_id":"9d91ab79-3aa3-4bdf-b86b-d9c905b92066","system_id":"levelo_inurba_marseille","lat":43.28155,"lon":5.42645,"is_reserved":false,"is_disabled":false,"rental_uris":{"android":"levelo://app?vid=9d91ab79-3aa3-4bdf-b86b-d9c905b92066","ios":"levelo://app?vid=9d91ab79-3aa3-4bdf-b86b-d9c905b92066"},"vehicle_type_id":"4","last_reported":1746781873,"current_range_meters":24400,"station_id":"ce4bhnh2rcd13ifvqgug","pricing_plan_id":"cebpf4jnsgd1na2vs0mg"},{"bike_id":"588115cb-e27a-4016-a23e-9efecb1738e1","system_id":"levelo_inurba_marseille","lat":43.26569,"lon":5.37252,"is_reserved":false,"is_disabled":false,"rental_uris":{"android":"levelo://app?vid=588115cb-e27a-4016-a23e-9efecb1738e1","ios":"levelo://app?vid=588115cb-e27a-4016-a23e-9efecb1738e1"},"vehicle_type_id":"4","last_reported":1746781873,"current_range_meters":24400,"station_id":"ce4bhg12rcd13ifvqf70","pricing_plan_id":"cebpf4jnsgd1na2vs0mg"},{"bike_id":"415078cc-ac54-44b3-b24e-af7880b47917","system_id":"levelo_inurba_marseille","lat":43.29311,"lon":5.371797,"is_reserved":false,"is_disabled":false,"rental_uris":{"android":"levelo://app?vid=415078cc-ac54-44b3-b24e-af7880b47917","ios":"levelo://app?vid=415078cc-ac54-44b3-b24e-af7880b47917"},"vehicle_type_id":"4","last_reported":1746781873,"current_range_meters":24800,"station_id":"ce4bgh92rcd13ifvqb40","pricing_plan_id":"cebpf4jnsgd1na2vs0mg"},{"bike_id":"57d8bb6b-f041-4d17-b320-44d7867a1c31","system_id":"levelo_inurba_marseille","lat":43.274977,"lon":5.424621,"is_reserved":false,"is_disabled":false,"rental_uris":{"android":"levelo://app?vid=57d8bb6b-f041-4d17-b320-44d7867a1c31","ios":"levelo://app?vid=57d8bb6b-f041-4d17-b320-44d7867a1c31"},"vehicle_type_id":"4","last_reported":1746781873,"current_range_meters":24800,"station_id":"ce4bhn92rcd13ifvqgrg","pricing_plan_id":"cebpf4jnsgd1na2vs0mg"},{"bike_id":"4921bcfb-2e4b-4797-a8ab-05c03ac382da","system_id":"levelo_inurba_marseille","lat":43.2749,"lon":5.42454,"is_reserved":false,"is_disabled":false,"rental_uris":{"android":"levelo://app?vid=4921bcfb-2e4b-4797-a8ab-05c03ac382da","ios":"levelo://app?vid=4921bcfb-2e4b-4797-a8ab-05c03ac382da"},"vehicle_type_id":"4","last_reported":1746781873,"current_range_meters":24800,"station_id":"ce4bhn92rcd13ifvqgrg","pricing_plan_id":"cebpf4jnsgd1na2vs0mg"},{"bike_id":"f658a131-e247-43c6-aa76-3d67e05d67ea","system_id":"levelo_inurba_marseille","lat":43.30537,"lon":5.36554,"is_reserved":false,"is_disabled":false,"rental_uris":{"android":"levelo://app?vid=f658a131-e247-43c6-aa76-3d67e05d67ea","ios":"levelo://app?vid=f658a131-e247-43c6-aa76-3d67e05d67ea"},"vehicle_type_id":"4","last_reported":1746781873,"current_range_meters":24800,"station_id":"ce4bgs12rcd13ifvqcag","pricing_plan_id":"cebpf4jnsgd1na2vs0mg"},{"bike_id":"8b698a34-fbf5-484e-9ecb-26e22393bc90","system_id":"levelo_inurba_marseille","lat":43.330505,"lon":5.39019,"is_reserved":false,"is_disabled":false,"rental_uris":{"android":"levelo://app?vid=8b698a34-fbf5-484e-9ecb-26e22393bc90","ios":"levelo://app?vid=8b698a34-fbf5-484e-9ecb-26e22393bc90"},"vehicle_type_id":"4","last_reported":1746781873,"current_range_meters":24800,"station_id":"ce4bhr92rcd13ifvqhrg","pricing_plan_id":"cebpf4jnsgd1na2vs0mg"},{"bike_id":"33e117f2-538f-49bf-8892-acc47b91dd92","system_id":"levelo_inurba_marseille","lat":43.322896,"lon":5.382645,"is_reserved":false,"is_disabled":false,"rental_uris":{"android":"levelo://app?vid=33e117f2-538f-49bf-8892-acc47b91dd92","ios":"levelo://app?vid=33e117f2-538f-49bf-8892-acc47b91dd92"},"vehicle_type_id":"4","last_reported":1746781873,"current_range_meters":24800,"station_id":"ce4bhr12rcd13ifvqhqg","pricing_plan_id":"cebpf4jnsgd1na2vs0mg"},{"bike_id":"8cde2739-237c-48b7-94e3-f2341427e089","system_id":"levelo_inurba_marseille","lat":43.23149,"lon":5.43724,"is_reserved":false,"is_disabled":false,"rental_uris":{"android":"levelo://app?vid=8cde2739-237c-48b7-94e3-f2341427e089","ios":"levelo://app?vid=8cde2739-237c-48b7-94e3-f2341427e089"},"vehicle_type_id":"4","last_reported":1746781873,"current_range_meters":24800,"station_id":"ce4bhmp2rcd13ifvqgog","pricing_plan_id":"cebpf4jnsgd1na2vs0mg"},{"bike_id":"f52c819d-ca4b-4640-b458-b877db1bf990","system_id":"levelo_inurba_marseille","lat":43.29876,"lon":5.40922,"is_reserved":false,"is_disabled":false,"rental_uris":{"android":"levelo://app?vid=f52c819d-ca4b-4640-b458-b877db1bf990","ios":"levelo://app?vid=f52c819d-ca4b-4640-b458-b877db1bf990"},"vehicle_type_id":"4","last_reported":1746781873,"current_range_meters":25200,"station_id":"","pricing_plan_id":"cebpf4jnsgd1na2vs0mg"},{"bike_id":"d45e5c7a-20d6-4da9-8ade-6252f2c8e495","system_id":"levelo_inurba_marseille","lat":43.26557,"lon":5.37282,"is_reserved":false,"is_disabled":false,"rental_uris":{"android":"levelo://app?vid=d45e5c7a-20d6-4da9-8ade-6252f2c8e495","ios":"levelo://app?vid=d45e5c7a-20d6-4da9-8ade-6252f2c8e495"},"vehicle_type_id":"4","last_reported":1746781873,"current_range_meters":25200,"station_id":"ce4bhg12rcd13ifvqf70","pricing_plan_id":"cebpf4jnsgd1na2vs0mg"},{"bike_id":"830ca2f3-14a2-40d4-b14d-f14634d8ac66","system_id":"levelo_inurba_marseille","lat":43.31779,"lon":5.43715,"is_reserved":false,"is_disabled":false,"rental_uris":{"android":"levelo://app?vid=830ca2f3-14a2-40d4-b14d-f14634d8ac66","ios":"levelo://app?vid=830ca2f3-14a2-40d4-b14d-f14634d8ac66"},"vehicle_type_id":"4","last_reported":1746781873,"current_range_meters":25200,"station_id":"","pricing_plan_id":"cebpf4jnsgd1na2vs0mg"},{"bike_id":"d50b3231-62ee-409a-84ed-694a06009124","system_id":"levelo_inurba_marseille","lat":43.24125,"lon":5.37711,"is_reserved":false,"is_disabled":false,"rental_uris":{"android":"levelo://app?vid=d50b3231-62ee-409a-84ed-694a06009124","ios":"levelo://app?vid=d50b3231-62ee-409a-84ed-694a06009124"},"vehicle_type_id":"4","last_reported":1746781873,"current_range_meters":25200,"station_id":"ce4bhnp2rcd13ifvqgvg","pricing_plan_id":"cebpf4jnsgd1na2vs0mg"},{"bike_id":"8e48d562-98e0-427d-91c2-1b85f9adc28b","system_id":"levelo_inurba_marseille","lat":43.24171,"lon":5.39721,"is_reserved":false,"is_disabled":false,"rental_uris":{"android":"levelo://app?vid=8e48d562-98e0-427d-91c2-1b85f9adc28b","ios":"levelo://app?vid=8e48d562-98e0-427d-91c2-1b85f9adc28b"},"vehicle_type_id":"4","last_reported":1746781873,"current_range_meters":25200,"station_id":"ce4bhn12rcd13ifvqgpg","pricing_plan_id":"cebpf4jnsgd1na2vs0mg"},{"bike_id":"31a822d7-a5ec-4f85-abd1-e2e71c8a4f93","system_id":"levelo_inurba_marseille","lat":43.29029,"lon":5.39966,"is_reserved":false,"is_disabled":false,"rental_uris":{"android":"levelo://app?vid=31a822d7-a5ec-4f85-abd1-e2e71c8a4f93","ios":"levelo://app?vid=31a822d7-a5ec-4f85-abd1-e2e71c8a4f93"},"vehicle_type_id":"4","last_reported":1746781873,"current_range_meters":25200,"station_id":"ce4bh392rcd13ifvqdm0","pricing_plan_id":"cebpf4jnsgd1na2vs0mg"},{"bike_id":"baa1a35f-9534-4c5b-b59f-f5aa59915dce","system_id":"levelo_inurba_marseille","lat":43.296844,"lon":5.377144,"is_reserved":false,"is_disabled":true,"rental_uris":{"android":"levelo://app?vid=baa1a35f-9534-4c5b-b59f-f5aa59915dce","ios":"levelo://app?vid=baa1a35f-9534-4c5b-b59f-f5aa59915dce"},"vehicle_type_id":"4","last_reported":1746781873,"current_range_meters":25200,"station_id":"ce4bgkh2rcd13ifvqbl0","pricing_plan_id":"cebpf4jnsgd1na2vs0mg"},{"bike_id":"64b6bba7-a0dd-4703-ab4f-113b737ae959","system_id":"levelo_inurba_marseille","lat":43.27511,"lon":5.42433,"is_reserved":false,"is_disabled":false,"rental_uris":{"android":"levelo://app?vid=64b6bba7-a0dd-4703-ab4f-113b737ae959","ios":"levelo://app?vid=64b6bba7-a0dd-4703-ab4f-113b737ae959"},"vehicle_type_id":"4","last_reported":1746781873,"current_range_meters":25600,"station_id":"ce4bhn92rcd13ifvqgrg","pricing_plan_id":"cebpf4jnsgd1na2vs0mg"},{"bike_id":"e0b21675-1f06-4a53-b763-ba139bf7f15a","system_id":"levelo_inurba_marseille","lat":43.27489,"lon":5.42464,"is_reserved":false,"is_disabled":false,"rental_uris":{"android":"levelo://app?vid=e0b21675-1f06-4a53-b763-ba139bf7f15a","ios":"levelo://app?vid=e0b21675-1f06-4a53-b763-ba139bf7f15a"},"vehicle_type_id":"4","last_reported":1746781873,"current_range_meters":25600,"station_id":"ce4bhn92rcd13ifvqgrg","pricing_plan_id":"cebpf4jnsgd1na2vs0mg"},{"bike_id":"c3b8ca99-775e-430c-bde9-7265d0b1a312","system_id":"levelo_inurba_marseille","lat":43.27491,"lon":5.42465,"is_reserved":false,"is_disabled":false,"rental_uris":{"android":"levelo://app?vid=c3b8ca99-775e-430c-bde9-7265d0b1a312","ios":"levelo://app?vid=c3b8ca99-775e-430c-bde9-7265d0b1a312"},"vehicle_type_id":"4","last_reported":1746781873,"current_range_meters":25600,"station_id":"ce4bhn92rcd13ifvqgrg","pricing_plan_id":"cebpf4jnsgd1na2vs0mg"},{"bike_id":"011969bc-0f12-4269-953b-4c1d6a4ccb57","system_id":"levelo_inurba_marseille","lat":43.30527,"lon":5.36699,"is_reserved":false,"is_disabled":false,"rental_uris":{"android":"levelo://app?vid=011969bc-0f12-4269-953b-4c1d6a4ccb57","ios":"levelo://app?vid=011969bc-0f12-4269-953b-4c1d6a4ccb57"},"vehicle_type_id":"4","last_reported":1746781873,"current_range_meters":26000,"station_id":"ce4bgrp2rcd13ifvqc9g","pricing_plan_id":"cebpf4jnsgd1na2vs0mg"},{"bike_id":"5b1117b6-2b38-4a7f-bdce-77a7a8c24844","system_id":"levelo_inurba_marseille","lat":43.30854,"lon":5.36829,"is_reserved":false,"is_disabled":false,"rental_uris":{"android":"levelo://app?vid=5b1117b6-2b38-4a7f-bdce-77a7a8c24844","ios":"levelo://app?vid=5b1117b6-2b38-4a7f-bdce-77a7a8c24844"},"vehicle_type_id":"4","last_reported":1746781873,"current_range_meters":26000,"station_id":"ce4bgn92rcd13ifvqbvg","pricing_plan_id":"cebpf4jnsgd1na2vs0mg"},{"bike_id":"274af550-8842-47c2-a10c-c2a0bcd53921","system_id":"levelo_inurba_marseille","lat":43.279462,"lon":5.38729,"is_reserved":false,"is_disabled":false,"rental_uris":{"android":"levelo://app?vid=274af550-8842-47c2-a10c-c2a0bcd53921","ios":"levelo://app?vid=274af550-8842-47c2-a10c-c2a0bcd53921"},"vehicle_type_id":"4","last_reported":1746781873,"current_range_meters":26000,"station_id":"ce4bhg12rcd13ifvqf80","pricing_plan_id":"cebpf4jnsgd1na2vs0mg"},{"bike_id":"87e75e9d-6df3-452b-97af-b9aee776f4d4","system_id":"levelo_inurba_marseille","lat":43.30593,"lon":5.39352,"is_reserved":false,"is_disabled":false,"rental_uris":{"android":"levelo://app?vid=87e75e9d-6df3-452b-97af-b9aee776f4d4","ios":"levelo://app?vid=87e75e9d-6df3-452b-97af-b9aee776f4d4"},"vehicle_type_id":"4","last_reported":1746781873,"current_range_meters":26000,"station_id":"ce4bh0p2rcd13ifvqd80","pricing_plan_id":"cebpf4jnsgd1na2vs0mg"},{"bike_id":"b2f1e726-e7fa-4562-adfd-5fb29851079b","system_id":"levelo_inurba_marseille","lat":43.30144,"lon":5.38097,"is_reserved":false,"is_disabled":false,"rental_uris":{"android":"levelo://app?vid=b2f1e726-e7fa-4562-adfd-5fb29851079b","ios":"levelo://app?vid=b2f1e726-e7fa-4562-adfd-5fb29851079b"},"vehicle_type_id":"4","last_reported":1746781873,"current_range_meters":26000,"station_id":"ce4bgjp2rcd13ifvqbh0","pricing_plan_id":"cebpf4jnsgd1na2vs0mg"},{"bike_id":"fd1c3f24-b7b6-4746-a9a7-e9747ac0f48e","system_id":"levelo_inurba_marseille","lat":43.30899,"lon":5.36859,"is_reserved":false,"is_disabled":false,"rental_uris":{"android":"levelo://app?vid=fd1c3f24-b7b6-4746-a9a7-e9747ac0f48e","ios":"levelo://app?vid=fd1c3f24-b7b6-4746-a9a7-e9747ac0f48e"},"vehicle_type_id":"4","last_reported":1746781873,"current_range_meters":26000,"station_id":"ce4bgn92rcd13ifvqbvg","pricing_plan_id":"cebpf4jnsgd1na2vs0mg"},{"bike_id":"c58c3d1a-ffec-4288-83f9-db2902f9edc4","system_id":"levelo_inurba_marseille","lat":43.28703,"lon":5.39996,"is_reserved":false,"is_disabled":false,"rental_uris":{"android":"levelo://app?vid=c58c3d1a-ffec-4288-83f9-db2902f9edc4","ios":"levelo://app?vid=c58c3d1a-ffec-4288-83f9-db2902f9edc4"},"vehicle_type_id":"4","last_reported":1746781873,"current_range_meters":26800,"station_id":"ce4bho92rcd13ifvqh3g","pricing_plan_id":"cebpf4jnsgd1na2vs0mg"},{"bike_id":"895020c2-2bcb-45ad-ad00-593fb825ae09","system_id":"levelo_inurba_marseille","lat":43.29567,"lon":5.37525,"is_reserved":false,"is_disabled":false,"rental_uris":{"android":"levelo://app?vid=895020c2-2bcb-45ad-ad00-593fb825ae09","ios":"levelo://app?vid=895020c2-2bcb-45ad-ad00-593fb825ae09"},"vehicle_type_id":"4","last_reported":1746781873,"current_range_meters":26800,"station_id":"ce4bgh92rcd13ifvqb50","pricing_plan_id":"cebpf4jnsgd1na2vs0mg"},{"bike_id":"68618caa-50bc-43f5-93b1-b8d3a9e2ef7f","system_id":"levelo_inurba_marseille","lat":43.24181,"lon":5.39724,"is_reserved":false,"is_disabled":false,"rental_uris":{"android":"levelo://app?vid=68618caa-50bc-43f5-93b1-b8d3a9e2ef7f","ios":"levelo://app?vid=68618caa-50bc-43f5-93b1-b8d3a9e2ef7f"},"vehicle_type_id":"4","last_reported":1746781873,"current_range_meters":26800,"station_id":"ce4bhn12rcd13ifvqgpg","pricing_plan_id":"cebpf4jnsgd1na2vs0mg"},{"bike_id":"17239759-3263-4a3b-92c4-4700bbbec4ed","system_id":"levelo_inurba_marseille","lat":43.32535,"lon":5.41469,"is_reserved":false,"is_disabled":false,"rental_uris":{"android":"levelo://app?vid=17239759-3263-4a3b-92c4-4700bbbec4ed","ios":"levelo://app?vid=17239759-3263-4a3b-92c4-4700bbbec4ed"},"vehicle_type_id":"4","last_reported":1746781873,"current_range_meters":26800,"station_id":"ce4bhq12rcd13ifvqhhg","pricing_plan_id":"cebpf4jnsgd1na2vs0mg"},{"bike_id":"ca830d59-e1f6-416d-a0a3-dd4ac4cae2bf","system_id":"levelo_inurba_marseille","lat":43.31242,"lon":5.36868,"is_reserved":false,"is_disabled":false,"rental_uris":{"android":"levelo://app?vid=ca830d59-e1f6-416d-a0a3-dd4ac4cae2bf","ios":"levelo://app?vid=ca830d59-e1f6-416d-a0a3-dd4ac4cae2bf"},"vehicle_type_id":"4","last_reported":1746781873,"current_range_meters":26800,"station_id":"ce4bgl92rcd13ifvqbq0","pricing_plan_id":"cebpf4jnsgd1na2vs0mg"},{"bike_id":"9f679310-27a4-4dc0-8dbf-5a9c4aab4dcc","system_id":"levelo_inurba_marseille","lat":43.32373,"lon":5.38878,"is_reserved":false,"is_disabled":false,"rental_uris":{"android":"levelo://app?vid=9f679310-27a4-4dc0-8dbf-5a9c4aab4dcc","ios":"levelo://app?vid=9f679310-27a4-4dc0-8dbf-5a9c4aab4dcc"},"vehicle_type_id":"4","last_reported":1746781873,"current_range_meters":26800,"station_id":"ce4bhqp2rcd13ifvqhog","pricing_plan_id":"cebpf4jnsgd1na2vs0mg"},{"bike_id":"e60b3bb6-8d5f-406d-9e9d-f6ba5e6d78c7","system_id":"levelo_inurba_marseille","lat":43.30947,"lon":5.39034,"is_reserved":false,"is_disabled":false,"rental_uris":{"android":"levelo://app?vid=e60b3bb6-8d5f-406d-9e9d-f6ba5e6d78c7","ios":"levelo://app?vid=e60b3bb6-8d5f-406d-9e9d-f6ba5e6d78c7"},"vehicle_type_id":"4","last_reported":1746781873,"current_range_meters":26800,"station_id":"ce4bgup2rcd13ifvqco0","pricing_plan_id":"cebpf4jnsgd1na2vs0mg"},{"bike_id":"5a680d98-48cc-453b-8689-30d13af29f20","system_id":"levelo_inurba_marseille","lat":43.25931,"lon":5.40885,"is_reserved":false,"is_disabled":true,"rental_uris":{"android":"levelo://app?vid=5a680d98-48cc-453b-8689-30d13af29f20","ios":"levelo://app?vid=5a680d98-48cc-453b-8689-30d13af29f20"},"vehicle_type_id":"4","last_reported":1746781873,"current_range_meters":26800,"station_id":"ce4bhm92rcd13ifvqglg","pricing_plan_id":"cebpf4jnsgd1na2vs0mg"},{"bike_id":"03e4bd11-c5d5-4c8e-a6d4-c13feee9f927","system_id":"levelo_inurba_marseille","lat":43.30914,"lon":5.36861,"is_reserved":false,"is_disabled":false,"rental_uris":{"android":"levelo://app?vid=03e4bd11-c5d5-4c8e-a6d4-c13feee9f927","ios":"levelo://app?vid=03e4bd11-c5d5-4c8e-a6d4-c13feee9f927"},"vehicle_type_id":"4","last_reported":1746781873,"current_range_meters":26800,"station_id":"ce4bgn92rcd13ifvqbvg","pricing_plan_id":"cebpf4jnsgd1na2vs0mg"},{"bike_id":"ab88553f-1ca6-47f8-b93a-946251b53f16","system_id":"levelo_inurba_marseille","lat":43.28162,"lon":5.42635,"is_reserved":false,"is_disabled":false,"rental_uris":{"android":"levelo://app?vid=ab88553f-1ca6-47f8-b93a-946251b53f16","ios":"levelo://app?vid=ab88553f-1ca6-47f8-b93a-946251b53f16"},"vehicle_type_id":"4","last_reported":1746781873,"current_range_meters":26800,"station_id":"ce4bhnh2rcd13ifvqgug","pricing_plan_id":"cebpf4jnsgd1na2vs0mg"},{"bike_id":"1c3d7422-d752-444b-be86-bb36a8cd0af3","system_id":"levelo_inurba_marseille","lat":43.275851,"lon":5.396438,"is_reserved":false,"is_disabled":false,"rental_uris":{"android":"levelo://app?vid=1c3d7422-d752-444b-be86-bb36a8cd0af3","ios":"levelo://app?vid=1c3d7422-d752-444b-be86-bb36a8cd0af3"},"vehicle_type_id":"4","last_reported":1746781873,"current_range_meters":26800,"station_id":"ce4bhnh2rcd13ifvqgtg","pricing_plan_id":"cebpf4jnsgd1na2vs0mg"},{"bike_id":"6056d7eb-beeb-429e-b45c-de5ff3df49f3","system_id":"levelo_inurba_marseille","lat":43.259449,"lon":5.409035,"is_reserved":false,"is_disabled":false,"rental_uris":{"android":"levelo://app?vid=6056d7eb-beeb-429e-b45c-de5ff3df49f3","ios":"levelo://app?vid=6056d7eb-beeb-429e-b45c-de5ff3df49f3"},"vehicle_type_id":"4","last_reported":1746781873,"current_range_meters":26800,"station_id":"ce4bhm92rcd13ifvqglg","pricing_plan_id":"cebpf4jnsgd1na2vs0mg"},{"bike_id":"7ac1c79f-c3a1-44d2-9a37-0be16ad2ba1d","system_id":"levelo_inurba_marseille","lat":43.2118,"lon":5.35056,"is_reserved":false,"is_disabled":false,"rental_uris":{"android":"levelo://app?vid=7ac1c79f-c3a1-44d2-9a37-0be16ad2ba1d","ios":"levelo://app?vid=7ac1c79f-c3a1-44d2-9a37-0be16ad2ba1d"},"vehicle_type_id":"4","last_reported":1746781873,"current_range_meters":26800,"station_id":"st_cvj6sg6p6f1abm77japg","pricing_plan_id":"cebpf4jnsgd1na2vs0mg"},{"bike_id":"48ed43fb-4ad0-4001-acee-f6ea4523cfc5","system_id":"levelo_inurba_marseille","lat":43.28606,"lon":5.477023,"is_reserved":false,"is_disabled":false,"rental_uris":{"android":"levelo://app?vid=48ed43fb-4ad0-4001-acee-f6ea4523cfc5","ios":"levelo://app?vid=48ed43fb-4ad0-4001-acee-f6ea4523cfc5"},"vehicle_type_id":"4","last_reported":1746781873,"current_range_meters":27200,"station_id":"","pricing_plan_id":"cebpf4jnsgd1na2vs0mg"},{"bike_id":"34e42673-514d-4c02-821f-05c9fff4c8f4","system_id":"levelo_inurba_marseille","lat":43.30596,"lon":5.39356,"is_reserved":false,"is_disabled":false,"rental_uris":{"android":"levelo://app?vid=34e42673-514d-4c02-821f-05c9fff4c8f4","ios":"levelo://app?vid=34e42673-514d-4c02-821f-05c9fff4c8f4"},"vehicle_type_id":"4","last_reported":1746781873,"current_range_meters":27200,"station_id":"ce4bh0p2rcd13ifvqd80","pricing_plan_id":"cebpf4jnsgd1na2vs0mg"},{"bike_id":"cdaa69d0-a0e8-459a-8239-dce28653a1c7","system_id":"levelo_inurba_marseille","lat":43.27429,"lon":5.39407,"is_reserved":false,"is_disabled":false,"rental_uris":{"android":"levelo://app?vid=cdaa69d0-a0e8-459a-8239-dce28653a1c7","ios":"levelo://app?vid=cdaa69d0-a0e8-459a-8239-dce28653a1c7"},"vehicle_type_id":"4","last_reported":1746781873,"current_range_meters":27200,"station_id":"ce4bhdp2rcd13ifvqf20","pricing_plan_id":"cebpf4jnsgd1na2vs0mg"},{"bike_id":"1dc6f21d-4863-4f8c-a60e-ae4c2286ce22","system_id":"levelo_inurba_marseille","lat":43.28277,"lon":5.35082,"is_reserved":false,"is_disabled":false,"rental_uris":{"android":"levelo://app?vid=1dc6f21d-4863-4f8c-a60e-ae4c2286ce22","ios":"levelo://app?vid=1dc6f21d-4863-4f8c-a60e-ae4c2286ce22"},"vehicle_type_id":"4","last_reported":1746781873,"current_range_meters":27200,"station_id":"ce4bhbp2rcd13ifvqerg","pricing_plan_id":"cebpf4jnsgd1na2vs0mg"},{"bike_id":"17d04247-5bd2-4457-b4ce-76163cce39e3","system_id":"levelo_inurba_marseille","lat":43.259269,"lon":5.408694,"is_reserved":false,"is_disabled":false,"rental_uris":{"android":"levelo://app?vid=17d04247-5bd2-4457-b4ce-76163cce39e3","ios":"levelo://app?vid=17d04247-5bd2-4457-b4ce-76163cce39e3"},"vehicle_type_id":"4","last_reported":1746781873,"current_range_meters":27200,"station_id":"ce4bhm92rcd13ifvqglg","pricing_plan_id":"cebpf4jnsgd1na2vs0mg"},{"bike_id":"48f291ec-8c3a-4722-9348-ae375f5bc9d0","system_id":"levelo_inurba_marseille","lat":43.27497,"lon":5.42449,"is_reserved":false,"is_disabled":false,"rental_uris":{"android":"levelo://app?vid=48f291ec-8c3a-4722-9348-ae375f5bc9d0","ios":"levelo://app?vid=48f291ec-8c3a-4722-9348-ae375f5bc9d0"},"vehicle_type_id":"4","last_reported":1746781873,"current_range_meters":27200,"station_id":"ce4bhn92rcd13ifvqgrg","pricing_plan_id":"cebpf4jnsgd1na2vs0mg"},{"bike_id":"b812e3c4-36c7-4c7c-8a8a-ddd82b7a255f","system_id":"levelo_inurba_marseille","lat":43.274938,"lon":5.424579,"is_reserved":false,"is_disabled":false,"rental_uris":{"android":"levelo://app?vid=b812e3c4-36c7-4c7c-8a8a-ddd82b7a255f","ios":"levelo://app?vid=b812e3c4-36c7-4c7c-8a8a-ddd82b7a255f"},"vehicle_type_id":"4","last_reported":1746781873,"current_range_meters":27200,"station_id":"ce4bhn92rcd13ifvqgrg","pricing_plan_id":"cebpf4jnsgd1na2vs0mg"},{"bike_id":"60c4e89d-b14b-4a37-b8a6-6ec602d9bf66","system_id":"levelo_inurba_marseille","lat":43.31401,"lon":5.36831,"is_reserved":false,"is_disabled":false,"rental_uris":{"android":"levelo://app?vid=60c4e89d-b14b-4a37-b8a6-6ec602d9bf66","ios":"levelo://app?vid=60c4e89d-b14b-4a37-b8a6-6ec602d9bf66"},"vehicle_type_id":"4","last_reported":1746781873,"current_range_meters":27200,"station_id":"","pricing_plan_id":"cebpf4jnsgd1na2vs0mg"},{"bike_id":"28382488-e299-4de9-91d3-2b4dd12eebd6","system_id":"levelo_inurba_marseille","lat":43.33763,"lon":5.37429,"is_reserved":false,"is_disabled":false,"rental_uris":{"android":"levelo://app?vid=28382488-e299-4de9-91d3-2b4dd12eebd6","ios":"levelo://app?vid=28382488-e299-4de9-91d3-2b4dd12eebd6"},"vehicle_type_id":"4","last_reported":1746781873,"current_range_meters":27600,"station_id":"","pricing_plan_id":"cebpf4jnsgd1na2vs0mg"},{"bike_id":"13e220be-81e8-48a2-b685-86df51b9bd31","system_id":"levelo_inurba_marseille","lat":43.33772,"lon":5.37433,"is_reserved":false,"is_disabled":false,"rental_uris":{"android":"levelo://app?vid=13e220be-81e8-48a2-b685-86df51b9bd31","ios":"levelo://app?vid=13e220be-81e8-48a2-b685-86df51b9bd31"},"vehicle_type_id":"4","last_reported":1746781873,"current_range_meters":27600,"station_id":"","pricing_plan_id":"cebpf4jnsgd1na2vs0mg"},