{"last_updated":1734340295,"ttl":60,"version":"2.2","data":{"bikes":[{"bike_id":"6cb06d5b-b9ac-4325-ba0a-17357eb9ec74","system_id":"levelo_inurba_marseille","lat":43.2827,"lon":5.3505,"is_reserved":false,"is_disabled":true,"rental_uris":{"android":"levelo://app?vid=6cb06d5b-b9ac-4325-ba0a-17357eb9ec74","ios":"levelo://app?vid=6cb06d5b-b9ac-4325-ba0a-17357eb9ec74"},"vehicle_type_id":"4","last_reported":1734340295,"current_range_meters":0,"station_id":"ce4bhbp2rcd13ifvqerg","pricing_plan_id":"cebpf4jnsgd1na2vs0mg"},{"bike_id":"61d772b3-e172-4f5d-8778-5fb43be913c2","system_id":"levelo_inurba_marseille","lat":43.27069,"lon":5.42277,"is_reserved":false,"is_disabled":false,"rental_uris":{"android":"levelo://app?vid=61d772b3-e172-4f5d-8778-5fb43be913c2","ios":"levelo://app?vid=61d772b3-e172-4f5d-8778-5fb43be913c2"},"vehicle_type_id":"4","last_reported":1734340295,"current_range_meters":37600,"station_id":"ce4bhk92rcd13ifvqgb0","pricing_plan_id":"cebpf4jnsgd1na2vs0mg"},{"bike_id":"a631c317-ab92-4a5a-b82f-97562232ca34","system_id":"levelo_inurba_marseille","lat":43.3031,"lon":5.36888,"is_reserved":false,"is_disabled":false,"rental_uris":{"android":"levelo://app?vid=a631c317-ab92-4a5a-b82f-97562232ca34","ios":"levelo://app?vid=a631c317-ab92-4a5a-b82f-97562232ca34"},"vehicle_type_id":"4","last_reported":1734340295,"current_range_meters":32400,"station_id":"ce4bgqh2rcd13ifvqc5g","pricing_plan_id":"cebpf4jnsgd1na2vs0mg"},{"bike_id":"f4e42c3c-32e0-4748-9c22-0eb38d560d7d","system_id":"levelo_inurba_marseille","lat":43.30551,"lon":5.36531,"is_reserved":false,"is_disabled":false,"rental_uris":{"android":"levelo://app?vid=f4e42c3c-32e0-4748-9c22-0eb38d560d7d","ios":"levelo://app?vid=f4e42c3c-32e0-4748-9c22-0eb38d560d7d"},"vehicle_type_id":"4","last_reported":1734340295,"current_range_meters":12800,"station_id":"ce4bgs12rcd13ifvqcag","pricing_plan_id":"cebpf4jnsgd1na2vs0mg"},{"bike_id":"49735576-98af-4537-b127-26ad7906beaf","system_id":"levelo_inurba_marseille","lat":43.26058,"lon":5.39378,"is_reserved":false,"is_disabled":false,"rental_uris":{"android":"levelo://app?vid=49735576-98af-4537-b127-26ad7906beaf","ios":"levelo://app?vid=49735576-98af-4537-b127-26ad7906beaf"},"vehicle_type_id":"4","last_reported":1734340295,"current_range_meters":26800,"station_id":"ce4bhh92rcd13ifvqfj0","pricing_plan_id":"cebpf4jnsgd1na2vs0mg"},{"bike_id":"1a52993b-1a03-4b22-9e6e-c580890f4bfd","system_id":"levelo_inurba_marseille","lat":43.23185,"lon":5.35554,"is_reserved":false,"is_disabled":false,"rental_uris":{"android":"levelo://app?vid=1a52993b-1a03-4b22-9e6e-c580890f4bfd","ios":"levelo://app?vid=1a52993b-1a03-4b22-9e6e-c580890f4bfd"},"vehicle_type_id":"4","last_reported":1734340295,"current_range_meters":24400,"station_id":"ce4bhu92rcd13ifvqi70","pricing_plan_id":"cebpf4jnsgd1na2vs0mg"},{"bike_id":"09590482-ee53-4c82-9a6c-5f587e82ad8b","system_id":"levelo_inurba_marseille","lat":43.25522,"lon":5.37673,"is_reserved":false,"is_disabled":true,"rental_uris":{"android":"levelo://app?vid=09590482-ee53-4c82-9a6c-5f587e82ad8b","ios":"levelo://app?vid=09590482-ee53-4c82-9a6c-5f587e82ad8b"},"vehicle_type_id":"4","last_reported":1734340295,"current_range_meters":38400,"station_id":"ce4bhh12rcd13ifvqff0","pricing_plan_id":"cebpf4jnsgd1na2vs0mg"},{"bike_id":"bcc5bc22-fe0e-4e70-97c5-6afc6c66e299","system_id":"levelo_inurba_marseille","lat":43.28713,"lon":5.37922,"is_reserved":false,"is_disabled":true,"rental_uris":{"android":"levelo://app?vid=bcc5bc22-fe0e-4e70-97c5-6afc6c66e299","ios":"levelo://app?vid=bcc5bc22-fe0e-4e70-97c5-6afc6c66e299"},"vehicle_type_id":"4","last_reported":1734340295,"current_range_meters":24400,"station_id":"ce4bh9p2rcd13ifvqec0","pricing_plan_id":"cebpf4jnsgd1na2vs0mg"},{"bike_id":"bbe1d0cd-b9c5-4e0f-9fc9-a00b7199199d","system_id":"levelo_inurba_marseille","lat":43.29567,"lon":5.37514,"is_reserved":false,"is_disabled":false,"rental_uris":{"android":"levelo://app?vid=bbe1d0cd-b9c5-4e0f-9fc9-a00b7199199d","ios":"levelo://app?vid=bbe1d0cd-b9c5-4e0f-9fc9-a00b7199199d"},"vehicle_type_id":"4","last_reported":1734340295,"current_range_meters":38400,"station_id":"ce4bgh92rcd13ifvqb50","pricing_plan_id":"cebpf4jnsgd1na2vs0mg"},{"bike_id":"99b982a3-425b-43fb-b093-4d6e58dbcd58","system_id":"levelo_inurba_marseille","lat":43.26943,"lon":5.38632,"is_reserved":false,"is_disabled":false,"rental_uris":{"android":"levelo://app?vid=99b982a3-425b-43fb-b093-4d6e58dbcd58","ios":"levelo://app?vid=99b982a3-425b-43fb-b093-4d6e58dbcd58"},"vehicle_type_id":"4","last_reported":1734340295,"current_range_meters":23200,"station_id":"ce4bhh92rcd13ifvqfh0","pricing_plan_id":"cebpf4jnsgd1na2vs0mg"},{"bike_id":"68318da2-404d-4277-bcad-71c1cc0f38c8","system_id":"levelo_inurba_marseille","lat":43.27192,"lon":5.39201,"is_reserved":false,"is_disabled":false,"rental_uris":{"android":"levelo://app?vid=68318da2-404d-4277-bcad-71c1cc0f38c8","ios":"levelo://app?vid=68318da2-404d-4277-bcad-71c1cc0f38c8"},"vehicle_type_id":"4","last_reported":1734340295,"current_range_meters":17200,"station_id":"ce4bhhp2rcd13ifvqfm0","pricing_plan_id":"cebpf4jnsgd1na2vs0mg"},{"bike_id":"c8df81c4-c005-46f0-96a4-0d7a47738bee","system_id":"levelo_inurba_marseille","lat":43.25935,"lon":5.40901,"is_reserved":false,"is_disabled":false,"rental_uris":{"android":"levelo://app?vid=c8df81c4-c005-46f0-96a4-0d7a47738bee","ios":"levelo://app?vid=c8df81c4-c005-46f0-96a4-0d7a47738bee"},"vehicle_type_id":"4","last_reported":1734340295,"current_range_meters":38800,"station_id":"ce4bhm92rcd13ifvqglg","pricing_plan_id":"cebpf4jnsgd1na2vs0mg"},{"bike_id":"2aabb9e3-ae45-4b17-b10d-af50e235d80a","system_id":"levelo_inurba_marseille","lat":43.26786,"lon":5.39921,"is_reserved":false,"is_disabled":true,"rental_uris":{"android":"levelo://app?vid=2aabb9e3-ae45-4b17-b10d-af50e235d80a","ios":"levelo://app?vid=2aabb9e3-ae45-4b17-b10d-af50e235d80a"},"vehicle_type_id":"4","last_reported":1734340295,"current_range_meters":0,"station_id":"","pricing_plan_id":"cebpf4jnsgd1na2vs0mg"},{"bike_id":"989df4e3-f5c7-4a99-a77a-c1cbc415200c","system_id":"levelo_inurba_marseille","lat":43.33249,"lon":5.41115,"is_reserved":false,"is_disabled":false,"rental_uris":{"android":"levelo://app?vid=989df4e3-f5c7-4a99-a77a-c1cbc415200c","ios":"levelo://app?vid=989df4e3-f5c7-4a99-a77a-c1cbc415200c"},"vehicle_type_id":"4","last_reported":1734340295,"current_range_meters":13600,"station_id":"","pricing_plan_id":"cebpf4jnsgd1na2vs0mg"},{"bike_id":"fa2e65c9-0662-4573-af76-4403fbb12936","system_id":"levelo_inurba_marseille","lat":43.28487,"lon":5.35099,"is_reserved":false,"is_disabled":false,"rental_uris":{"android":"levelo://app?vid=fa2e65c9-0662-4573-af76-4403fbb12936","ios":"levelo://app?vid=fa2e65c9-0662-4573-af76-4403fbb12936"},"vehicle_type_id":"4","last_reported":1734340295,"current_range_meters":34000,"station_id":"","pricing_plan_id":"cebpf4jnsgd1na2vs0mg"},{"bike_id":"fc06d4ae-19bd-4ba0-a5dc-4fe79bcc2903","system_id":"levelo_inurba_marseille","lat":43.30534,"lon":5.38418,"is_reserved":false,"is_disabled":false,"rental_uris":{"android":"levelo://app?vid=fc06d4ae-19bd-4ba0-a5dc-4fe79bcc2903","ios":"levelo://app?vid=fc06d4ae-19bd-4ba0-a5dc-4fe79bcc2903"},"vehicle_type_id":"4","last_reported":1734340295,"current_range_meters":22000,"station_id":"ce4bgg92rcd13ifvqb30","pricing_plan_id":"cebpf4jnsgd1na2vs0mg"},{"bike_id":"7bec5294-99b2-4c08-a2d1-86eb07092a91","system_id":"levelo_inurba_marseille","lat":43.24079,"lon":5.37748,"is_reserved":false,"is_disabled":false,"rental_uris":{"android":"levelo://app?vid=7bec5294-99b2-4c08-a2d1-86eb07092a91","ios":"levelo://app?vid=7bec5294-99b2-4c08-a2d1-86eb07092a91"},"vehicle_type_id":"4","last_reported":1734340295,"current_range_meters":30400,"station_id":"ce4bhnp2rcd13ifvqgvg","pricing_plan_id":"cebpf4jnsgd1na2vs0mg"},{"bike_id":"7a40c7c1-8a20-4e16-b3cc-eed59d07be05","system_id":"levelo_inurba_marseille","lat":43.29909,"lon":5.38133,"is_reserved":false,"is_disabled":true,"rental_uris":{"android":"levelo://app?vid=7a40c7c1-8a20-4e16-b3cc-eed59d07be05","ios":"levelo://app?vid=7a40c7c1-8a20-4e16-b3cc-eed59d07be05"},"vehicle_type_id":"4","last_reported":1734340295,"current_range_meters":6800,"station_id":"ce4bgj12rcd13ifvqbc0","pricing_plan_id":"cebpf4jnsgd1na2vs0mg"},{"bike_id":"42922840-2acf-47d5-9ce8-7c1690df2853","system_id":"levelo_inurba_marseille","lat":43.28348,"lon":5.38095,"is_reserved":false,"is_disabled":false,"rental_uris":{"android":"levelo://app?vid=42922840-2acf-47d5-9ce8-7c1690df2853","ios":"levelo://app?vid=42922840-2acf-47d5-9ce8-7c1690df2853"},"vehicle_type_id":"4","last_reported":1734340295,"current_range_meters":31200,"station_id":"ce4bh412rcd13ifvqdr0","pricing_plan_id":"cebpf4jnsgd1na2vs0mg"},{"bike_id":"cad7719d-6bdb-48ae-8920-e62428891cbb","system_id":"levelo_inurba_marseille","lat":43.2803,"lon":5.44121,"is_reserved":false,"is_disabled":true,"rental_uris":{"android":"levelo://app?vid=cad7719d-6bdb-48ae-8920-e62428891cbb","ios":"levelo://app?vid=cad7719d-6bdb-48ae-8920-e62428891cbb"},"vehicle_type_id":"4","last_reported":1734340295,"current_range_meters":0,"station_id":"","pricing_plan_id":"cebpf4jnsgd1na2vs0mg"},{"bike_id":"8c661a81-aa0f-4e45-ab1f-653e920751fb","system_id":"levelo_inurba_marseille","lat":43.30904,"lon":5.36853,"is_reserved":false,"is_disabled":false,"rental_uris":{"android":"levelo://app?vid=8c661a81-aa0f-4e45-ab1f-653e920751fb","ios":"levelo://app?vid=8c661a81-aa0f-4e45-ab1f-653e920751fb"},"vehicle_type_id":"4","last_reported":1734340295,"current_range_meters":23200,"station_id":"ce4bgn92rcd13ifvqbvg","pricing_plan_id":"cebpf4jnsgd1na2vs0mg"},{"bike_id":"c3fe200c-b5c2-41a4-bb54-aeb1bd77beb0","system_id":"levelo_inurba_marseille","lat":43.28165,"lon":5.4265,"is_reserved":false,"is_disabled":false,"rental_uris":{"android":"levelo://app?vid=c3fe200c-b5c2-41a4-bb54-aeb1bd77beb0","ios":"levelo://app?vid=c3fe200c-b5c2-41a4-bb54-aeb1bd77beb0"},"vehicle_type_id":"4","last_reported":1734340295,"current_range_meters":38400,"station_id":"ce4bhnh2rcd13ifvqgug","pricing_plan_id":"cebpf4jnsgd1na2vs0mg"},{"bike_id":"215c011f-dabf-4b06-a7fd-2279d6590f33","system_id":"levelo_inurba_marseille","lat":43.2656,"lon":5.37286,"is_reserved":false,"is_disabled":true,"rental_uris":{"android":"levelo://app?vid=215c011f-dabf-4b06-a7fd-2279d6590f33","ios":"levelo://app?vid=215c011f-dabf-4b06-a7fd-2279d6590f33"},"vehicle_type_id":"4","last_reported":1734340295,"current_range_meters":37600,"station_id":"ce4bhg12rcd13ifvqf70","pricing_plan_id":"cebpf4jnsgd1na2vs0mg"},{"bike_id":"4deb15ef-079e-44d5-9289-1d9084b509a7","system_id":"levelo_inurba_marseille","lat":43.31297,"lon":5.36936,"is_reserved":false,"is_disabled":false,"rental_uris":{"android":"levelo://app?vid=4deb15ef-079e-44d5-9289-1d9084b509a7","ios":"levelo://app?vid=4deb15ef-079e-44d5-9289-1d9084b509a7"},"vehicle_type_id":"4","last_reported":1734340295,"current_range_meters":37600,"station_id":"","pricing_plan_id":"cebpf4jnsgd1na2vs0mg"},{"bike_id":"d5c89c1f-3bad-4af2-9449-e04c277a4696","system_id":"levelo_inurba_marseille","lat":43.29958,"lon":5.41329,"is_reserved":false,"is_disabled":true,"rental_uris":{"android":"levelo://app?vid=d5c89c1f-3bad-4af2-9449-e04c277a4696","ios":"levelo://app?vid=d5c89c1f-3bad-4af2-9449-e04c277a4696"},"vehicle_type_id":"4","last_reported":1734340295,"current_range_meters":35600,"station_id":"ce4bhp12rcd13ifvqh9g","pricing_plan_id":"cebpf4jnsgd1na2vs0mg"},{"bike_id":"a34f973e-038d-4146-a83b-22b72df1fb74","system_id":"levelo_inurba_marseille","lat":43.29851,"lon":5.36287,"is_reserved":false,"is_disabled":false,"rental_uris":{"android":"levelo://app?vid=a34f973e-038d-4146-a83b-22b72df1fb74","ios":"levelo://app?vid=a34f973e-038d-4146-a83b-22b72df1fb74"},"vehicle_type_id":"4","last_reported":1734340295,"current_range_meters":38800,"station_id":"ce4bgpp2rcd13ifvqc3g","pricing_plan_id":"cebpf4jnsgd1na2vs0mg"},{"bike_id":"7375be9c-7b03-4ee6-b6c9-51205081fc00","system_id":"levelo_inurba_marseille","lat":43.32541,"lon":5.41427,"is_reserved":false,"is_disabled":true,"rental_uris":{"android":"levelo://app?vid=7375be9c-7b03-4ee6-b6c9-51205081fc00","ios":"levelo://app?vid=7375be9c-7b03-4ee6-b6c9-51205081fc00"},"vehicle_type_id":"4","last_reported":1734340295,"current_range_meters":37600,"station_id":"ce4bhq12rcd13ifvqhhg","pricing_plan_id":"cebpf4jnsgd1na2vs0mg"},{"bike_id":"00470025-0594-4fc8-bb13-03b023b393ad","system_id":"levelo_inurba_marseille","lat":43.2306,"lon":5.3549,"is_reserved":false,"is_disabled":false,"rental_uris":{"android":"levelo://app?vid=00470025-0594-4fc8-bb13-03b023b393ad","ios":"levelo://app?vid=00470025-0594-4fc8-bb13-03b023b393ad"},"vehicle_type_id":"4","last_reported":1734340295,"current_range_meters":28400,"station_id":"cpo3342slgdg3j2ifvpg","pricing_plan_id":"cebpf4jnsgd1na2vs0mg"},{"bike_id":"645234d5-1ba6-47d0-a264-332279a70988","system_id":"levelo_inurba_marseille","lat":43.31374,"lon":5.36663,"is_reserved":false,"is_disabled":false,"rental_uris":{"android":"levelo://app?vid=645234d5-1ba6-47d0-a264-332279a70988","ios":"levelo://app?vid=645234d5-1ba6-47d0-a264-332279a70988"},"vehicle_type_id":"4","last_reported":1734340295,"current_range_meters":10000,"station_id":"ce4bgr92rcd13ifvqc6g","pricing_plan_id":"cebpf4jnsgd1na2vs0mg"},{"bike_id":"32e80e36-16c0-4911-bc9b-dd9f3169cd9b","system_id":"levelo_inurba_marseille","lat":43.28152,"lon":5.42631,"is_reserved":false,"is_disabled":false,"rental_uris":{"android":"levelo://app?vid=32e80e36-16c0-4911-bc9b-dd9f3169cd9b","ios":"levelo://app?vid=32e80e36-16c0-4911-bc9b-dd9f3169cd9b"},"vehicle_type_id":"4","last_reported":1734340295,"current_range_meters":10000,"station_id":"ce4bhnh2rcd13ifvqgug","pricing_plan_id":"cebpf4jnsgd1na2vs0mg"},{"bike_id":"e209b4cc-b597-4646-9ecd-9f5a1bd9a464","system_id":"levelo_inurba_marseille","lat":43.33784,"lon":5.42103,"is_reserved":false,"is_disabled":true,"rental_uris":{"android":"levelo://app?vid=e209b4cc-b597-4646-9ecd-9f5a1bd9a464","ios":"levelo://app?vid=e209b4cc-b597-4646-9ecd-9f5a1bd9a464"},"vehicle_type_id":"4","last_reported":1734340295,"current_range_meters":2000,"station_id":"","pricing_plan_id":"cebpf4jnsgd1na2vs0mg"},{"bike_id":"be15b9e1-574c-45f1-b914-fc0b9a33b109","system_id":"levelo_inurba_marseille","lat":43.250385,"lon":5.416815,"is_reserved":false,"is_disabled":true,"rental_uris":{"android":"levelo://app?vid=be15b9e1-574c-45f1-b914-fc0b9a33b109","ios":"levelo://app?vid=be15b9e1-574c-45f1-b914-fc0b9a33b109"},"vehicle_type_id":"4","last_reported":1734340295,"current_range_meters":6800,"station_id":"","pricing_plan_id":"cebpf4jnsgd1na2vs0mg"},{"bike_id":"319a3701-b684-4758-bf5d-fed38e475d1c","system_id":"levelo_inurba_marseille","lat":43.2509,"lon":5.39518,"is_reserved":false,"is_disabled":true,"rental_uris":{"android":"levelo://app?vid=319a3701-b684-4758-bf5d-fed38e475d1c","ios":"levelo://app?vid=319a3701-b684-4758-bf5d-fed38e475d1c"},"vehicle_type_id":"4","last_reported":1734340295,"current_range_meters":35200,"station_id":"ce4bhm12rcd13ifvqgkg","pricing_plan_id":"cebpf4jnsgd1na2vs0mg"},{"bike_id":"ae4a0f38-858d-44d1-b22f-874fcac33cef","system_id":"levelo_inurba_marseille","lat":43.28608,"lon":5.37049,"is_reserved":false,"is_disabled":false,"rental_uris":{"android":"levelo://app?vid=ae4a0f38-858d-44d1-b22f-874fcac33cef","ios":"levelo://app?vid=ae4a0f38-858d-44d1-b22f-874fcac33cef"},"vehicle_type_id":"4","last_reported":1734340295,"current_range_meters":20800,"station_id":"ce4bht12rcd13ifvqi60","pricing_plan_id":"cebpf4jnsgd1na2vs0mg"},{"bike_id":"f8dc147a-d6ee-4e80-a361-9032b560043b","system_id":"levelo_inurba_marseille","lat":43.29927,"lon":5.36541,"is_reserved":false,"is_disabled":false,"rental_uris":{"android":"levelo://app?vid=f8dc147a-d6ee-4e80-a361-9032b560043b","ios":"levelo://app?vid=f8dc147a-d6ee-4e80-a361-9032b560043b"},"vehicle_type_id":"4","last_reported":1734340295,"current_range_meters":26000,"station_id":"ce4bgm92rcd13ifvqbr0","pricing_plan_id":"cebpf4jnsgd1na2vs0mg"},{"bike_id":"2fdb6d83-7b91-4a69-a3f1-c83eb6dfaaa5","system_id":"levelo_inurba_marseille","lat":43.31336,"lon":5.39745,"is_reserved":false,"is_disabled":false,"rental_uris":{"android":"levelo://app?vid=2fdb6d83-7b91-4a69-a3f1-c83eb6dfaaa5","ios":"levelo://app?vid=2fdb6d83-7b91-4a69-a3f1-c83eb6dfaaa5"},"vehicle_type_id":"4","last_reported":1734340295,"current_range_meters":37600,"station_id":"ce4bh0p2rcd13ifvqd70","pricing_plan_id":"cebpf4jnsgd1na2vs0mg"},{"bike_id":"d17b6580-86c1-4d99-b9cc-76a040ed346e","system_id":"levelo_inurba_marseille","lat":43.24072,"lon":5.37755,"is_reserved":false,"is_disabled":false,"rental_uris":{"android":"levelo://app?vid=d17b6580-86c1-4d99-b9cc-76a040ed346e","ios":"levelo://app?vid=d17b6580-86c1-4d99-b9cc-76a040ed346e"},"vehicle_type_id":"4","last_reported":1734340295,"current_range_meters":28400,"station_id":"ce4bhnp2rcd13ifvqgvg","pricing_plan_id":"cebpf4jnsgd1na2vs0mg"},{"bike_id":"e3ce1f04-3f88-431a-ab9f-947d6e2f270c","system_id":"levelo_inurba_marseille","lat":43.33723,"lon":5.39186,"is_reserved":false,"is_disabled":false,"rental_uris":{"android":"levelo://app?vid=e3ce1f04-3f88-431a-ab9f-947d6e2f270c","ios":"levelo://app?vid=e3ce1f04-3f88-431a-ab9f-947d6e2f270c"},"vehicle_type_id":"4","last_reported":1734340295,"current_range_meters":39200,"station_id":"ce4bhr92rcd13ifvqhsg","pricing_plan_id":"cebpf4jnsgd1na2vs0mg"},{"bike_id":"df6a6975-d79d-4952-afd7-48c94371cf52","system_id":"levelo_inurba_marseille","lat":43.337761,"lon":5.374361,"is_reserved":false,"is_disabled":false,"rental_uris":{"android":"levelo://app?vid=df6a6975-d79d-4952-afd7-48c94371cf52","ios":"levelo://app?vid=df6a6975-d79d-4952-afd7-48c94371cf52"},"vehicle_type_id":"4","last_reported":1734340295,"current_range_meters":36000,"station_id":"","pricing_plan_id":"cebpf4jnsgd1na2vs0mg"},{"bike_id":"e4445775-7d48-4b97-a7d4-cc20c4ccd0d8","system_id":"levelo_inurba_marseille","lat":43.31223,"lon":5.36878,"is_reserved":false,"is_disabled":false,"rental_uris":{"android":"levelo://app?vid=e4445775-7d48-4b97-a7d4-cc20c4ccd0d8","ios":"levelo://app?vid=e4445775-7d48-4b97-a7d4-cc20c4ccd0d8"},"vehicle_type_id":"4","last_reported":1734340295,"current_range_meters":30000,"station_id":"ce4bgl92rcd13ifvqbq0","pricing_plan_id":"cebpf4jnsgd1na2vs0mg"},{"bike_id":"ac8aa88a-e9d0-43e4-b7c7-257ef5b36f33","system_id":"levelo_inurba_marseille","lat":43.31351,"lon":5.36726,"is_reserved":false,"is_disabled":false,"rental_uris":{"android":"levelo://app?vid=ac8aa88a-e9d0-43e4-b7c7-257ef5b36f33","ios":"levelo://app?vid=ac8aa88a-e9d0-43e4-b7c7-257ef5b36f33"},"vehicle_type_id":"4","last_reported":1734340295,"current_range_meters":12400,"station_id":"ce4bgr92rcd13ifvqc6g","pricing_plan_id":"cebpf4jnsgd1na2vs0mg"},{"bike_id":"e1f14668-b3cd-4486-857f-047dd0525de8","system_id":"levelo_inurba_marseille","lat":43.28925,"lon":5.36643,"is_reserved":false,"is_disabled":true,"rental_uris":{"android":"levelo://app?vid=e1f14668-b3cd-4486-857f-047dd0525de8","ios":"levelo://app?vid=e1f14668-b3cd-4486-857f-047dd0525de8"},"vehicle_type_id":"4","last_reported":1734340295,"current_range_meters":22400,"station_id":"ce4bhap2rcd13ifvqek0","pricing_plan_id":"cebpf4jnsgd1na2vs0mg"},{"bike_id":"edaea664-24e0-4d6c-aa7a-497f5c5f88f6","system_id":"levelo_inurba_marseille","lat":43.27017,"lon":5.39142,"is_reserved":false,"is_disabled":true,"rental_uris":{"android":"levelo://app?vid=edaea664-24e0-4d6c-aa7a-497f5c5f88f6","ios":"levelo://app?vid=edaea664-24e0-4d6c-aa7a-497f5c5f88f6"},"vehicle_type_id":"4","last_reported":1734340295,"current_range_meters":0,"station_id":"","pricing_plan_id":"cebpf4jnsgd1na2vs0mg"},{"bike_id":"9f52696d-600b-40ab-b947-0c5325fde06a","system_id":"levelo_inurba_marseille","lat":43.28335,"lon":5.3811,"is_reserved":false,"is_disabled":true,"rental_uris":{"android":"levelo://app?vid=9f52696d-600b-40ab-b947-0c5325fde06a","ios":"levelo://app?vid=9f52696d-600b-40ab-b947-0c5325fde06a"},"vehicle_type_id":"4","last_reported":1734340295,"current_range_meters":32800,"station_id":"ce4bh412rcd13ifvqdr0","pricing_plan_id":"cebpf4jnsgd1na2vs0mg"},{"bike_id":"c864a9f0-28fd-4918-9cdf-7db93b288094","system_id":"levelo_inurba_marseille","lat":43.32475,"lon":5.36564,"is_reserved":false,"is_disabled":false,"rental_uris":{"android":"levelo://app?vid=c864a9f0-28fd-4918-9cdf-7db93b288094","ios":"levelo://app?vid=c864a9f0-28fd-4918-9cdf-7db93b288094"},"vehicle_type_id":"4","last_reported":1734340295,"current_range_meters":16800,"station_id":"ce4bhs12rcd13ifvqhvg","pricing_plan_id":"cebpf4jnsgd1na2vs0mg"},{"bike_id":"878fc174-bb49-46c7-a195-0ff2888ee752","system_id":"levelo_inurba_marseille","lat":43.27682,"lon":5.38904,"is_reserved":false,"is_disabled":false,"rental_uris":{"android":"levelo://app?vid=878fc174-bb49-46c7-a195-0ff2888ee752","ios":"levelo://app?vid=878fc174-bb49-46c7-a195-0ff2888ee752"},"vehicle_type_id":"4","last_reported":1734340295,"current_range_meters":24800,"station_id":"ce4bhi12rcd13ifvqfo0","pricing_plan_id":"cebpf4jnsgd1na2vs0mg"},{"bike_id":"aa51ef73-9d06-4d98-a0c9-f4d41bf527e0","system_id":"levelo_inurba_marseille","lat":43.30275,"lon":5.37708,"is_reserved":false,"is_disabled":false,"rental_uris":{"android":"levelo://app?vid=aa51ef73-9d06-4d98-a0c9-f4d41bf527e0","ios":"levelo://app?vid=aa51ef73-9d06-4d98-a0c9-f4d41bf527e0"},"vehicle_type_id":"4","last_reported":1734340295,"current_range_meters":38000,"station_id":"ce4bguh2rcd13ifvqcj0","pricing_plan_id":"cebpf4jnsgd1na2vs0mg"},{"bike_id":"a6875e9c-0c00-4bd5-a3ff-083a2c9fa6b4","system_id":"levelo_inurba_marseille","lat":43.33734,"lon":5.39123,"is_reserved":false,"is_disabled":false,"rental_uris":{"android":"levelo://app?vid=a6875e9c-0c00-4bd5-a3ff-083a2c9fa6b4","ios":"levelo://app?vid=a6875e9c-0c00-4bd5-a3ff-083a2c9fa6b4"},"vehicle_type_id":"4","last_reported":1734340295,"current_range_meters":31200,"station_id":"","pricing_plan_id":"cebpf4jnsgd1na2vs0mg"},{"bike_id":"699ad19d-1780-4c00-9754-eb0737b27b7c","system_id":"levelo_inurba_marseille","lat":43.29556,"lon":5.42295,"is_reserved":false,"is_disabled":false,"rental_uris":{"android":"levelo://app?vid=699ad19d-1780-4c00-9754-eb0737b27b7c","ios":"levelo://app?vid=699ad19d-1780-4c00-9754-eb0737b27b7c"},"vehicle_type_id":"4","last_reported":1734340295,"current_range_meters":31200,"station_id":"ce4bhph2rcd13ifvqhdg","pricing_plan_id":"cebpf4jnsgd1na2vs0mg"},{"bike_id":"d22e8691-6ee4-4638-8bf5-82b67a2e4044","system_id":"levelo_inurba_marseille","lat":43.24077,"lon":5.37754,"is_reserved":false,"is_disabled":false,"rental_uris":{"android":"levelo://app?vid=d22e8691-6ee4-4638-8bf5-82b67a2e4044","ios":"levelo://app?vid=d22e8691-6ee4-4638-8bf5-82b67a2e4044"},"vehicle_type_id":"4","last_reported":1734340295,"current_range_meters":24800,"station_id":"ce4bhnp2rcd13ifvqgvg","pricing_plan_id":"cebpf4jnsgd1na2vs0mg"},{"bike_id":"7f6721b9-b044-48eb-bba9-07ed9f841c73","system_id":"levelo_inurba_marseille","lat":43.26956,"lon":5.38635,"is_reserved":false,"is_disabled":false,"rental_uris":{"android":"levelo://app?vid=7f6721b9-b044-48eb-bba9-07ed9f841c73","ios":"levelo://app?vid=7f6721b9-b044-48eb-bba9-07ed9f841c73"},"vehicle_type_id":"4","last_reported":1734340295,"current_range_meters":38800,"station_id":"ce4bhh92rcd13ifvqfh0","pricing_plan_id":"cebpf4jnsgd1na2vs0mg"},{"bike_id":"05546136-2d33-493f-9d29-deff3b9602b7","system_id":"levelo_inurba_marseille","lat":43.30941,"lon":5.38989,"is_reserved":true,"is_disabled":false,"rental_uris":{"android":"levelo://app?vid=05546136-2d33-493f-9d29-deff3b9602b7","ios":"levelo://app?vid=05546136-2d33-493f-9d29-deff3b9602b7"},"vehicle_type_id":"4","last_reported":1734340295,"current_range_meters":32800,"station_id":"ce4bgup2rcd13ifvqco0","pricing_plan_id":"cebpf4jnsgd1na2vs0mg"},{"bike_id":"5be78cc2-d386-42ea-a601-8ec47460ad21","system_id":"levelo_inurba_marseille","lat":43.24081,"lon":5.37736,"is_reserved":false,"is_disabled":false,"rental_uris":{"android":"levelo://app?vid=5be78cc2-d386-42ea-a601-8ec47460ad21","ios":"levelo://app?vid=5be78cc2-d386-42ea-a601-8ec47460ad21"},"vehicle_type_id":"4","last_reported":1734340295,"current_range_meters":33200,"station_id":"ce4bhnp2rcd13ifvqgvg","pricing_plan_id":"cebpf4jnsgd1na2vs0mg"},{"bike_id":"8872e771-87f7-4daf-9c2b-2bfd7197e847","system_id":"levelo_inurba_marseille","lat":43.27066,"lon":5.42268,"is_reserved":false,"is_disabled":false,"rental_uris":{"android":"levelo://app?vid=8872e771-87f7-4daf-9c2b-2bfd7197e847","ios":"levelo://app?vid=8872e771-87f7-4daf-9c2b-2bfd7197e847"},"vehicle_type_id":"4","last_reported":1734340295,"current_range_meters":19200,"station_id":"ce4bhk92rcd13ifvqgb0","pricing_plan_id":"cebpf4jnsgd1na2vs0mg"},{"bike_id":"5b5b83e9-376d-40a4-a65a-140e1eeefc05","system_id":"levelo_inurba_marseille","lat":43.24538,"lon":5.39502,"is_reserved":false,"is_disabled":true,"rental_uris":{"android":"levelo://app?vid=5b5b83e9-376d-40a4-a65a-140e1eeefc05","ios":"levelo://app?vid=5b5b83e9-376d-40a4-a65a-140e1eeefc05"},"vehicle_type_id":"4","last_reported":1734340295,"current_range_meters":38800,"station_id":"ce4bhlp2rcd13ifvqgjg","pricing_plan_id":"cebpf4jnsgd1na2vs0mg"},{"bike_id":"e9b36da7-c433-4e83-94a1-2ca2c02e8e59","system_id":"levelo_inurba_marseille","lat":43.25823,"lon":5.39424,"is_reserved":false,"is_disabled":false,"rental_uris":{"android":"levelo://app?vid=e9b36da7-c433-4e83-94a1-2ca2c02e8e59","ios":"levelo://app?vid=e9b36da7-c433-4e83-94a1-2ca2c02e8e59"},"vehicle_type_id":"4","last_reported":1734340295,"current_range_meters":39200,"station_id":"ce4bhip2rcd13ifvqft0","pricing_plan_id":"cebpf4jnsgd1na2vs0mg"},{"bike_id":"109610fc-b54f-4bf2-ae64-5f0462df3bd5","system_id":"levelo_inurba_marseille","lat":43.29044,"lon":5.39941,"is_reserved":false,"is_disabled":false,"rental_uris":{"android":"levelo://app?vid=109610fc-b54f-4bf2-ae64-5f0462df3bd5","ios":"levelo://app?vid=109610fc-b54f-4bf2-ae64-5f0462df3bd5"},"vehicle_type_id":"4","last_reported":1734340295,"current_range_meters":31200,"station_id":"ce4bh392rcd13ifvqdm0","pricing_plan_id":"cebpf4jnsgd1na2vs0mg"},{"bike_id":"75236ece-8ad3-4b8f-a5ce-45decf00a4cd","system_id":"levelo_inurba_marseille","lat":43.29301,"lon":5.37452,"is_reserved":false,"is_disabled":false,"rental_uris":{"android":"levelo://app?vid=75236ece-8ad3-4b8f-a5ce-45decf00a4cd","ios":"levelo://app?vid=75236ece-8ad3-4b8f-a5ce-45decf00a4cd"},"vehicle_type_id":"4","last_reported":1734340295,"current_range_meters":39200,"station_id":"ce4bgi12rcd13ifvqb70","pricing_plan_id":"cebpf4jnsgd1na2vs0mg"},{"bike_id":"2ba8ded4-7e9f-4406-9ea8-e61387e76c85","system_id":"levelo_inurba_marseille","lat":43.31327,"lon":5.38344,"is_reserved":false,"is_disabled":true,"rental_uris":{"android":"levelo://app?vid=2ba8ded4-7e9f-4406-9ea8-e61387e76c85","ios":"levelo://app?vid=2ba8ded4-7e9f-4406-9ea8-e61387e76c85"},"vehicle_type_id":"4","last_reported":1734340295,"current_range_meters":0,"station_id":"","pricing_plan_id":"cebpf4jnsgd1na2vs0mg"},{"bike_id":"12d99581-7920-4043-b7c2-ca258313e6f3","system_id":"levelo_inurba_marseille","lat":43.33612,"lon":5.41024,"is_reserved":false,"is_disabled":false,"rental_uris":{"android":"levelo://app?vid=12d99581-7920-4043-b7c2-ca258313e6f3","ios":"levelo://app?vid=12d99581-7920-4043-b7c2-ca258313e6f3"},"vehicle_type_id":"4","last_reported":1734340295,"current_range_meters":32000,"station_id":"ce4bhqh2rcd13ifvqhmg","pricing_plan_id":"cebpf4jnsgd1na2vs0mg"},{"bike_id":"e819ae6a-d2ca-4fed-a607-5b91827a0819","system_id":"levelo_inurba_marseille","lat":43.23218,"lon":5.35562,"is_reserved":false,"is_disabled":false,"rental_uris":{"android":"levelo://app?vid=e819ae6a-d2ca-4fed-a607-5b91827a0819","ios":"levelo://app?vid=e819ae6a-d2ca-4fed-a607-5b91827a0819"},"vehicle_type_id":"4","last_reported":1734340295,"current_range_meters":27200,"station_id":"ce4bhu92rcd13ifvqi70","pricing_plan_id":"cebpf4jnsgd1na2vs0mg"},{"bike_id":"eab5287f-5593-4950-9438-195ad4749082","system_id":"levelo_inurba_marseille","lat":43.27209,"lon":5.39181,"is_reserved":false,"is_disabled":false,"rental_uris":{"android":"levelo://app?vid=eab5287f-5593-4950-9438-195ad4749082","ios":"levelo://app?vid=eab5287f-5593-4950-9438-195ad4749082"},"vehicle_type_id":"4","last_reported":1734340295,"current_range_meters":38800,"station_id":"ce4bhhp2rcd13ifvqfm0","pricing_plan_id":"cebpf4jnsgd1na2vs0mg"},{"bike_id":"c3bfecdf-9615-4d7f-833b-6813e072b57c","system_id":"levelo_inurba_marseille","lat":43.26204,"lon":5.37926,"is_reserved":false,"is_disabled":false,"rental_uris":{"android":"levelo://app?vid=c3bfecdf-9615-4d7f-833b-6813e072b57c","ios":"levelo://app?vid=c3bfecdf-9615-4d7f-833b-6813e072b57c"},"vehicle_type_id":"4","last_reported":1734340295,"current_range_meters":24000,"station_id":"ce4bhjp2rcd13ifvqg90","pricing_plan_id":"cebpf4jnsgd1na2vs0mg"},{"bike_id":"e3a3d1f3-38e8-42e4-b2ca-ad023db34801","system_id":"levelo_inurba_marseille","lat":43.30218,"lon":5.3946,"is_reserved":false,"is_disabled":true,"rental_uris":{"android":"levelo://app?vid=e3a3d1f3-38e8-42e4-b2ca-ad023db34801","ios":"levelo://app?vid=e3a3d1f3-38e8-42e4-b2ca-ad023db34801"},"vehicle_type_id":"4","last_reported":1734340295,"current_range_meters":38400,"station_id":"ce4bh0p2rcd13ifvqd70","pricing_plan_id":"cebpf4jnsgd1na2vs0mg"},{"bike_id":"9f2df41e-ff3f-43e8-a2d7-014b68a85aca","system_id":"levelo_inurba_marseille","lat":43.24074,"lon":5.37762,"is_reserved":false,"is_disabled":false,"rental_uris":{"android":"levelo://app?vid=9f2df41e-ff3f-43e8-a2d7-014b68a85aca","ios":"levelo://app?vid=9f2df41e-ff3f-43e8-a2d7-014b68a85aca"},"vehicle_type_id":"4","last_reported":1734340295,"current_range_meters":30800,"station_id":"ce4bhnp2rcd13ifvqgvg","pricing_plan_id":"cebpf4jnsgd1na2vs0mg"},{"bike_id":"d68e58c7-3ef6-4319-a78c-355ede423f3f","system_id":"levelo_inurba_marseille","lat":43.26791,"lon":5.39417,"is_reserved":false,"is_disabled":false,"rental_uris":{"android":"levelo://app?vid=d68e58c7-3ef6-4319-a78c-355ede423f3f","ios":"levelo://app?vid=d68e58c7-3ef6-4319-a78c-355ede423f3f"},"vehicle_type_id":"4","last_reported":1734340295,"current_range_meters":36400,"station_id":"ce4bhh12rcd13ifvqfg0","pricing_plan_id":"cebpf4jnsgd1na2vs0mg"},{"bike_id":"ae0bdd7b-187c-409c-b2b3-37aac32d4db3","system_id":"levelo_inurba_marseille","lat":43.32364,"lon":5.3677,"is_reserved":false,"is_disabled":false,"rental_uris":{"android":"levelo://app?vid=ae0bdd7b-187c-409c-b2b3-37aac32d4db3","ios":"levelo://app?vid=ae0bdd7b-187c-409c-b2b3-37aac32d4db3"},"vehicle_type_id":"4","last_reported":1734340295,"current_range_meters":31200,"station_id":"ce4bhsh2rcd13ifvqi2g","pricing_plan_id":"cebpf4jnsgd1na2vs0mg"},{"bike_id":"bed5f0c5-f312-444f-96b2-ad51276fcb5d","system_id":"levelo_inurba_marseille","lat":43.29711,"lon":5.37657,"is_reserved":false,"is_disabled":false,"rental_uris":{"android":"levelo://app?vid=bed5f0c5-f312-444f-96b2-ad51276fcb5d","ios":"levelo://app?vid=bed5f0c5-f312-444f-96b2-ad51276fcb5d"},"vehicle_type_id":"4","last_reported":1734340295,"current_range_meters":39200,"station_id":"ce4bgkh2rcd13ifvqbl0","pricing_plan_id":"cebpf4jnsgd1na2vs0mg"},{"bike_id":"e53787e4-0089-4043-be7d-f90e45a59497","system_id":"levelo_inurba_marseille","lat":43.29312,"lon":5.37457,"is_reserved":false,"is_disabled":false,"rental_uris":{"android":"levelo://app?vid=e53787e4-0089-4043-be7d-f90e45a59497","ios":"levelo://app?vid=e53787e4-0089-4043-be7d-f90e45a59497"},"vehicle_type_id":"4","last_reported":1734340295,"current_range_meters":36800,"station_id":"ce4bgi12rcd13ifvqb70","pricing_plan_id":"cebpf4jnsgd1na2vs0mg"},{"bike_id":"9ad311dd-c450-4f09-933a-ef53d4559dc3","system_id":"levelo_inurba_marseille","lat":43.26984,"lon":5.39863,"is_reserved":false,"is_disabled":false,"rental_uris":{"android":"levelo://app?vid=9ad311dd-c450-4f09-933a-ef53d4559dc3","ios":"levelo://app?vid=9ad311dd-c450-4f09-933a-ef53d4559dc3"},"vehicle_type_id":"4","last_reported":1734340295,"current_range_meters":17600,"station_id":"","pricing_plan_id":"cebpf4jnsgd1na2vs0mg"},{"bike_id":"6e6ba8bf-8922-4181-85d4-fe19efd3efa4","system_id":"levelo_inurba_marseille","lat":43.304633,"lon":5.379156,"is_reserved":false,"is_disabled":true,"rental_uris":{"android":"levelo://app?vid=6e6ba8bf-8922-4181-85d4-fe19efd3efa4","ios":"levelo://app?vid=6e6ba8bf-8922-4181-85d4-fe19efd3efa4"},"vehicle_type_id":"4","last_reported":1734340295,"current_range_meters":23200,"station_id":"ce4bgup2rcd13ifvqcn0","pricing_plan_id":"cebpf4jnsgd1na2vs0mg"},{"bike_id":"11e30d21-802b-4405-9f62-13e93873b482","system_id":"levelo_inurba_marseille","lat":43.33612,"lon":5.41042,"is_reserved":false,"is_disabled":false,"rental_uris":{"android":"levelo://app?vid=11e30d21-802b-4405-9f62-13e93873b482","ios":"levelo://app?vid=11e30d21-802b-4405-9f62-13e93873b482"},"vehicle_type_id":"4","last_reported":1734340295,"current_range_meters":38800,"station_id":"ce4bhqh2rcd13ifvqhmg","pricing_plan_id":"cebpf4jnsgd1na2vs0mg"},{"bike_id":"92797225-7fcd-4f1e-ba3b-ca09232bea2a","system_id":"levelo_inurba_marseille","lat":43.3138,"lon":5.36797,"is_reserved":false,"is_disabled":false,"rental_uris":{"android":"levelo://app?vid=92797225-7fcd-4f1e-ba3b-ca09232bea2a","ios":"levelo://app?vid=92797225-7fcd-4f1e-ba3b-ca09232bea2a"},"vehicle_type_id":"4","last_reported":1734340295,"current_range_meters":36400,"station_id":"ce4bgr92rcd13ifvqc6g","pricing_plan_id":"cebpf4jnsgd1na2vs0mg"},{"bike_id":"3f77fb1d-32aa-46b1-9d47-e77573ae5641","system_id":"levelo_inurba_marseille","lat":43.25583,"lon":5.3821,"is_reserved":false,"is_disabled":false,"rental_uris":{"android":"levelo://app?vid=3f77fb1d-32aa-46b1-9d47-e77573ae5641","ios":"levelo://app?vid=3f77fb1d-32aa-46b1-9d47-e77573ae5641"},"vehicle_type_id":"4","last_reported":1734340295,"current_range_meters":38000,"station_id":"ce4bhih2rcd13ifvqfs0","pricing_plan_id":"cebpf4jnsgd1na2vs0mg"},{"bike_id":"af67ac53-ba21-4ff0-8334-95679e9ff2cc","system_id":"levelo_inurba_marseille","lat":43.278805,"lon":5.388003,"is_reserved":false,"is_disabled":true,"rental_uris":{"android":"levelo://app?vid=af67ac53-ba21-4ff0-8334-95679e9ff2cc","ios":"levelo://app?vid=af67ac53-ba21-4ff0-8334-95679e9ff2cc"},"vehicle_type_id":"4","last_reported":1734340295,"current_range_meters":0,"station_id":"","pricing_plan_id":"cebpf4jnsgd1na2vs0mg"},{"bike_id":"ac12fb4e-3874-4ff3-bf0b-39ed8484910e","system_id":"levelo_inurba_marseille","lat":43.26487,"lon":5.39547,"is_reserved":false,"is_disabled":true,"rental_uris":{"android":"levelo://app?vid=ac12fb4e-3874-4ff3-bf0b-39ed8484910e","ios":"levelo://app?vid=ac12fb4e-3874-4ff3-bf0b-39ed8484910e"},"vehicle_type_id":"4","last_reported":1734340295,"current_range_meters":38800,"station_id":"ce4bhi12rcd13ifvqfq0","pricing_plan_id":"cebpf4jnsgd1na2vs0mg"},{"bike_id":"fd84ac40-9341-4f04-a352-6bde713d1bbd","system_id":"levelo_inurba_marseille","lat":43.26555,"lon":5.37284,"is_reserved":false,"is_disabled":false,"rental_uris":{"android":"levelo://app?vid=fd84ac40-9341-4f04-a352-6bde713d1bbd","ios":"levelo://app?vid=fd84ac40-9341-4f04-a352-6bde713d1bbd"},"vehicle_type_id":"4","last_reported":1734340295,"current_range_meters":36400,"station_id":"ce4bhg12rcd13ifvqf70","pricing_plan_id":"cebpf4jnsgd1na2vs0mg"},{"bike_id":"8aa1bdc1-214e-443d-8582-1cae71f80c8c","system_id":"levelo_inurba_marseille","lat":43.29033,"lon":5.39963,"is_reserved":false,"is_disabled":false,"rental_uris":{"android":"levelo://app?vid=8aa1bdc1-214e-443d-8582-1cae71f80c8c","ios":"levelo://app?vid=8aa1bdc1-214e-443d-8582-1cae71f80c8c"},"vehicle_type_id":"4","last_reported":1734340295,"current_range_meters":38000,"station_id":"ce4bh392rcd13ifvqdm0","pricing_plan_id":"cebpf4jnsgd1na2vs0mg"},{"bike_id":"2ee47aba-edd0-4d53-a17e-e6f65b10c35f","system_id":"levelo_inurba_marseille","lat":43.30127,"lon":5.39094,"is_reserved":false,"is_disabled":true,"rental_uris":{"android":"levelo://app?vid=2ee47aba-edd0-4d53-a17e-e6f65b10c35f","ios":"levelo://app?vid=2ee47aba-edd0-4d53-a17e-e6f65b10c35f"},"vehicle_type_id":"4","last_reported":1734340295,"current_range_meters":16000,"station_id":"ce4bh192rcd13ifvqdb0","pricing_plan_id":"cebpf4jnsgd1na2vs0mg"},{"bike_id":"fdcf3e72-9519-4b52-9443-19847a7ac390","system_id":"levelo_inurba_marseille","lat":43.27965,"lon":5.38698,"is_reserved":false,"is_disabled":false,"rental_uris":{"android":"levelo://app?vid=fdcf3e72-9519-4b52-9443-19847a7ac390","ios":"levelo://app?vid=fdcf3e72-9519-4b52-9443-19847a7ac390"},"vehicle_type_id":"4","last_reported":1734340295,"current_range_meters":15200,"station_id":"ce4bhg12rcd13ifvqf80","pricing_plan_id":"cebpf4jnsgd1na2vs0mg"},{"bike_id":"4ad09478-6a5d-4181-b376-9b828e0acebb","system_id":"levelo_inurba_marseille","lat":43.29035,"lon":5.39962,"is_reserved":false,"is_disabled":false,"rental_uris":{"android":"levelo://app?vid=4ad09478-6a5d-4181-b376-9b828e0acebb","ios":"levelo://app?vid=4ad09478-6a5d-4181-b376-9b828e0acebb"},"vehicle_type_id":"4","last_reported":1734340295,"current_range_meters":24400,"station_id":"ce4bh392rcd13ifvqdm0","pricing_plan_id":"cebpf4jnsgd1na2vs0mg"},{"bike_id":"b9b3604f-8c05-4f36-b45c-ad47a9085f1f","system_id":"levelo_inurba_marseille","lat":43.2707,"lon":5.42275,"is_reserved":false,"is_disabled":false,"rental_uris":{"android":"levelo://app?vid=b9b3604f-8c05-4f36-b45c-ad47a9085f1f","ios":"levelo://app?vid=b9b3604f-8c05-4f36-b45c-ad47a9085f1f"},"vehicle_type_id":"4","last_reported":1734340295,"current_range_meters":32000,"station_id":"ce4bhk92rcd13ifvqgb0","pricing_plan_id":"cebpf4jnsgd1na2vs0mg"},{"bike_id":"ad9e0e56-b232-4761-8766-3140462fc53b","system_id":"levelo_inurba_marseille","lat":43.26551,"lon":5.37287,"is_reserved":false,"is_disabled":true,"rental_uris":{"android":"levelo://app?vid=ad9e0e56-b232-4761-8766-3140462fc53b","ios":"levelo://app?vid=ad9e0e56-b232-4761-8766-3140462fc53b"},"vehicle_type_id":"4","last_reported":1734340295,"current_range_meters":24000,"station_id":"ce4bhg12rcd13ifvqf70","pricing_plan_id":"cebpf4jnsgd1na2vs0mg"},{"bike_id":"656d8740-9b85-4a93-86ce-9d32a0e761f7","system_id":"levelo_inurba_marseille","lat":43.31074,"lon":5.38343,"is_reserved":false,"is_disabled":true,"rental_uris":{"android":"levelo://app?vid=656d8740-9b85-4a93-86ce-9d32a0e761f7","ios":"levelo://app?vid=656d8740-9b85-4a93-86ce-9d32a0e761f7"},"vehicle_type_id":"4","last_reported":1734340295,"current_range_meters":0,"station_id":"ce4bgv92rcd13ifvqcr0","pricing_plan_id":"cebpf4jnsgd1na2vs0mg"},{"bike_id":"30b09c14-5db6-4bdd-8ec0-8d8fd355bef3","system_id":"levelo_inurba_marseille","lat":43.29903,"lon":5.39754,"is_reserved":false,"is_disabled":true,"rental_uris":{"android":"levelo://app?vid=30b09c14-5db6-4bdd-8ec0-8d8fd355bef3","ios":"levelo://app?vid=30b09c14-5db6-4bdd-8ec0-8d8fd355bef3"},"vehicle_type_id":"4","last_reported":1734340295,"current_range_meters":37600,"station_id":"ce4bh0h2rcd13ifvqd50","pricing_plan_id":"cebpf4jnsgd1na2vs0mg"},{"bike_id":"f08c808c-af08-40b8-81c3-97739c995b77","system_id":"levelo_inurba_marseille","lat":43.30132,"lon":5.39865,"is_reserved":false,"is_disabled":true,"rental_uris":{"android":"levelo://app?vid=f08c808c-af08-40b8-81c3-97739c995b77","ios":"levelo://app?vid=f08c808c-af08-40b8-81c3-97739c995b77"},"vehicle_type_id":"4","last_reported":1734340295,"current_range_meters":6800,"station_id":"ce4bh0h2rcd13ifvqd40","pricing_plan_id":"cebpf4jnsgd1na2vs0mg"},{"bike_id":"86970bbe-b814-43c9-89a2-85f507f309fa","system_id":"levelo_inurba_marseille","lat":43.30543,"lon":5.38419,"is_reserved":false,"is_disabled":true,"rental_uris":{"android":"levelo://app?vid=86970bbe-b814-43c9-89a2-85f507f309fa","ios":"levelo://app?vid=86970bbe-b814-43c9-89a2-85f507f309fa"},"vehicle_type_id":"4","last_reported":1734340295,"current_range_meters":0,"station_id":"ce4bgg92rcd13ifvqb30","pricing_plan_id":"cebpf4jnsgd1na2vs0mg"},{"bike_id":"9be44f59-e401-40ca-8d62-34ce82c5ce70","system_id":"levelo_inurba_marseille","lat":43.31218,"lon":5.36898,"is_reserved":false,"is_disabled":false,"rental_uris":{"android":"levelo://app?vid=9be44f59-e401-40ca-8d62-34ce82c5ce70","ios":"levelo://app?vid=9be44f59-e401-40ca-8d62-34ce82c5ce70"},"vehicle_type_id":"4","last_reported":1734340295,"current_range_meters":38800,"station_id":"ce4bgl92rcd13ifvqbq0","pricing_plan_id":"cebpf4jnsgd1na2vs0mg"},{"bike_id":"654470ed-de98-42ef-8417-aed7d83c395e","system_id":"levelo_inurba_marseille","lat":43.30904,"lon":5.36837,"is_reserved":false,"is_disabled":false,"rental_uris":{"android":"levelo://app?vid=654470ed-de98-42ef-8417-aed7d83c395e","ios":"levelo://app?vid=654470ed-de98-42ef-8417-aed7d83c395e"},"vehicle_type_id":"4","last_reported":1734340295,"current_range_meters":35200,"station_id":"ce4bgn92rcd13ifvqbvg","pricing_plan_id":"cebpf4jnsgd1na2vs0mg"},{"bike_id":"43a2fa1d-314c-4a4d-b7c9-aa2f198eb73b","system_id":"levelo_inurba_marseille","lat":43.301376,"lon":5.387809,"is_reserved":false,"is_disabled":true,"rental_uris":{"android":"levelo://app?vid=43a2fa1d-314c-4a4d-b7c9-aa2f198eb73b","ios":"levelo://app?vid=43a2fa1d-314c-4a4d-b7c9-aa2f198eb73b"},"vehicle_type_id":"4","last_reported":1734340295,"current_range_meters":27600,"station_id":"ce4bghh2rcd13ifvqb60","pricing_plan_id":"cebpf4jnsgd1na2vs0mg"},{"bike_id":"3f6a782f-6f8a-400c-bccd-3ac74aed305c","system_id":"levelo_inurba_marseille","lat":43.32533,"lon":5.41431,"is_reserved":false,"is_disabled":false,"rental_uris":{"android":"levelo://app?vid=3f6a782f-6f8a-400c-bccd-3ac74aed305c","ios":"levelo://app?vid=3f6a782f-6f8a-400c-bccd-3ac74aed305c"},"vehicle_type_id":"4","last_reported":1734340295,"current_range_meters":3200,"station_id":"ce4bhq12rcd13ifvqhhg","pricing_plan_id":"cebpf4jnsgd1na2vs0mg"},{"bike_id":"a8c6e79d-f768-4642-8a00-7634f79b21a6","system_id":"levelo_inurba_marseille","lat":43.2749,"lon":5.42415,"is_reserved":false,"is_disabled":false,"rental_uris":{"android":"levelo://app?vid=a8c6e79d-f768-4642-8a00-7634f79b21a6","ios":"levelo://app?vid=a8c6e79d-f768-4642-8a00-7634f79b21a6"},"vehicle_type_id":"4","last_reported":1734340295,"current_range_meters":18800,"station_id":"ce4bhn92rcd13ifvqgrg","pricing_plan_id":"cebpf4jnsgd1na2vs0mg"},{"bike_id":"d87ed566-b815-42ef-afb2-b4761a8b419d","system_id":"levelo_inurba_marseille","lat":43.28556,"lon":5.39492,"is_reserved":false,"is_disabled":false,"rental_uris":{"android":"levelo://app?vid=d87ed566-b815-42ef-afb2-b4761a8b419d","ios":"levelo://app?vid=d87ed566-b815-42ef-afb2-b4761a8b419d"},"vehicle_type_id":"4","last_reported":1734340295,"current_range_meters":38800,"station_id":"ce4bh292rcd13ifvqdg0","pricing_plan_id":"cebpf4jnsgd1na2vs0mg"},{"bike_id":"08cee0db-94b4-4298-bfcb-8531f0ed5faf","system_id":"levelo_inurba_marseille","lat":43.27968,"lon":5.38713,"is_reserved":false,"is_disabled":false,"rental_uris":{"android":"levelo://app?vid=08cee0db-94b4-4298-bfcb-8531f0ed5faf","ios":"levelo://app?vid=08cee0db-94b4-4298-bfcb-8531f0ed5faf"},"vehicle_type_id":"4","last_reported":1734340295,"current_range_meters":22800,"station_id":"ce4bhg12rcd13ifvqf80","pricing_plan_id":"cebpf4jnsgd1na2vs0mg"},{"bike_id":"70c673d5-6066-4faf-b215-c0e7165e8d28","system_id":"levelo_inurba_marseille","lat":43.26057,"lon":5.3939,"is_reserved":false,"is_disabled":false,"rental_uris":{"android":"levelo://app?vid=70c673d5-6066-4faf-b215-c0e7165e8d28","ios":"levelo://app?vid=70c673d5-6066-4faf-b215-c0e7165e8d28"},"vehicle_type_id":"4","last_reported":1734340295,"current_range_meters":37600,"station_id":"ce4bhh92rcd13ifvqfj0","pricing_plan_id":"cebpf4jnsgd1na2vs0mg"},{"bike_id":"0810675e-0ec1-421a-b95a-82de5ccce9b2","system_id":"levelo_inurba_marseille","lat":43.24178,"lon":5.39692,"is_reserved":false,"is_disabled":true,"rental_uris":{"android":"levelo://app?vid=0810675e-0ec1-421a-b95a-82de5ccce9b2","ios":"levelo://app?vid=0810675e-0ec1-421a-b95a-82de5ccce9b2"},"vehicle_type_id":"4","last_reported":1734340295,"current_range_meters":18000,"station_id":"ce4bhn12rcd13ifvqgpg","pricing_plan_id":"cebpf4jnsgd1na2vs0mg"},{"bike_id":"658b701e-1546-4ee7-a5a3-c849cfed5179","system_id":"levelo_inurba_marseille","lat":43.29616,"lon":5.3772,"is_reserved":false,"is_disabled":true,"rental_uris":{"android":"levelo://app?vid=658b701e-1546-4ee7-a5a3-c849cfed5179","ios":"levelo://app?vid=658b701e-1546-4ee7-a5a3-c849cfed5179"},"vehicle_type_id":"4","last_reported":1734340295,"current_range_meters":0,"station_id":"ce4bgi92rcd13ifvqb90","pricing_plan_id":"cebpf4jnsgd1na2vs0mg"},{"bike_id":"8fa3ae7a-07bb-4edf-85d8-8193196c3393","system_id":"levelo_inurba_marseille","lat":43.32282,"lon":5.38269,"is_reserved":false,"is_disabled":false,"rental_uris":{"android":"levelo://app?vid=8fa3ae7a-07bb-4edf-85d8-8193196c3393","ios":"levelo://app?vid=8fa3ae7a-07bb-4edf-85d8-8193196c3393"},"vehicle_type_id":"4","last_reported":1734340295,"current_range_meters":33600,"station_id":"ce4bhr12rcd13ifvqhqg","pricing_plan_id":"cebpf4jnsgd1na2vs0mg"},{"bike_id":"c9169d90-4952-4442-b216-225cffd88fbb","system_id":"levelo_inurba_marseille","lat":43.28709,"lon":5.39997,"is_reserved":false,"is_disabled":true,"rental_uris":{"android":"levelo://app?vid=c9169d90-4952-4442-b216-225cffd88fbb","ios":"levelo://app?vid=c9169d90-4952-4442-b216-225cffd88fbb"},"vehicle_type_id":"4","last_reported":1734340295,"current_range_meters":0,"station_id":"ce4bho92rcd13ifvqh3g","pricing_plan_id":"cebpf4jnsgd1na2vs0mg"},{"bike_id":"6b31c4b5-039b-4251-a79a-040e2afa9f70","system_id":"levelo_inurba_marseille","lat":43.30551,"lon":5.36525,"is_reserved":false,"is_disabled":false,"rental_uris":{"android":"levelo://app?vid=6b31c4b5-039b-4251-a79a-040e2afa9f70","ios":"levelo://app?vid=6b31c4b5-039b-4251-a79a-040e2afa9f70"},"vehicle_type_id":"4","last_reported":1734340295,"current_range_meters":36800,"station_id":"ce4bgs12rcd13ifvqcag","pricing_plan_id":"cebpf4jnsgd1na2vs0mg"},{"bike_id":"458c56c8-42dd-4540-9e14-c3527b1b6c85","system_id":"levelo_inurba_marseille","lat":43.2594,"lon":5.40904,"is_reserved":false,"is_disabled":false,"rental_uris":{"android":"levelo://app?vid=458c56c8-42dd-4540-9e14-c3527b1b6c85","ios":"levelo://app?vid=458c56c8-42dd-4540-9e14-c3527b1b6c85"},"vehicle_type_id":"4","last_reported":1734340295,"current_range_meters":10000,"station_id":"ce4bhm92rcd13ifvqglg","pricing_plan_id":"cebpf4jnsgd1na2vs0mg"},{"bike_id":"8b135e9e-ffef-4366-9100-fd182f024a7e","system_id":"levelo_inurba_marseille","lat":43.28154,"lon":5.42647,"is_reserved":false,"is_disabled":true,"rental_uris":{"android":"levelo://app?vid=8b135e9e-ffef-4366-9100-fd182f024a7e","ios":"levelo://app?vid=8b135e9e-ffef-4366-9100-fd182f024a7e"},"vehicle_type_id":"4","last_reported":1734340295,"current_range_meters":0,"station_id":"ce4bhnh2rcd13ifvqgug","pricing_plan_id":"cebpf4jnsgd1na2vs0mg"},{"bike_id":"7325f9df-ce46-4b5a-9a0a-a735d7d5a10d","system_id":"levelo_inurba_marseille","lat":43.29166,"lon":5.37159,"is_reserved":false,"is_disabled":false,"rental_uris":{"android":"levelo://app?vid=7325f9df-ce46-4b5a-9a0a-a735d7d5a10d","ios":"levelo://app?vid=7325f9df-ce46-4b5a-9a0a-a735d7d5a10d"},"vehicle_type_id":"4","last_reported":1734340295,"current_range_meters":38800,"station_id":"ce4bha92rcd13ifvqeh0","pricing_plan_id":"cebpf4jnsgd1na2vs0mg"},{"bike_id":"97d91bb8-91c9-49ca-b97b-ba54c431c9dd","system_id":"levelo_inurba_marseille","lat":43.24074,"lon":5.37747,"is_reserved":false,"is_disabled":false,"rental_uris":{"android":"levelo://app?vid=97d91bb8-91c9-49ca-b97b-ba54c431c9dd","ios":"levelo://app?vid=97d91bb8-91c9-49ca-b97b-ba54c431c9dd"},"vehicle_type_id":"4","last_reported":1734340295,"current_range_meters":33600,"station_id":"ce4bhnp2rcd13ifvqgvg","pricing_plan_id":"cebpf4jnsgd1na2vs0mg"},{"bike_id":"87a96fdf-6e84-4568-8408-0225b5c910e7","system_id":"levelo_inurba_marseille","lat":43.29526,"lon":5.39047,"is_reserved":false,"is_disabled":false,"rental_uris":{"android":"levelo://app?vid=87a96fdf-6e84-4568-8408-0225b5c910e7","ios":"levelo://app?vid=87a96fdf-6e84-4568-8408-0225b5c910e7"},"vehicle_type_id":"4","last_reported":1734340295,"current_range_meters":32800,"station_id":"ce4bh3p2rcd13ifvqdp0","pricing_plan_id":"cebpf4jnsgd1na2vs0mg"},{"bike_id":"097c5e0a-50b7-4b75-9ed2-1499a9353ffa","system_id":"levelo_inurba_marseille","lat":43.27493,"lon":5.42451,"is_reserved":false,"is_disabled":false,"rental_uris":{"android":"levelo://app?vid=097c5e0a-50b7-4b75-9ed2-1499a9353ffa","ios":"levelo://app?vid=097c5e0a-50b7-4b75-9ed2-1499a9353ffa"},"vehicle_type_id":"4","last_reported":1734340295,"current_range_meters":20000,"station_id":"ce4bhn92rcd13ifvqgrg","pricing_plan_id":"cebpf4jnsgd1na2vs0mg"},{"bike_id":"22b68899-8b56-4d5b-a525-250826f94187","system_id":"levelo_inurba_marseille","lat":43.30567,"lon":5.36637,"is_reserved":false,"is_disabled":true,"rental_uris":{"android":"levelo://app?vid=22b68899-8b56-4d5b-a525-250826f94187","ios":"levelo://app?vid=22b68899-8b56-4d5b-a525-250826f94187"},"vehicle_type_id":"4","last_reported":1734340295,"current_range_meters":38800,"station_id":"ce4bgrp2rcd13ifvqc9g","pricing_plan_id":"cebpf4jnsgd1na2vs0mg"},{"bike_id":"d2e412ce-b890-4afc-b073-94a1ab7a6a06","system_id":"levelo_inurba_marseille","lat":43.29291,"lon":5.37432,"is_reserved":false,"is_disabled":false,"rental_uris":{"android":"levelo://app?vid=d2e412ce-b890-4afc-b073-94a1ab7a6a06","ios":"levelo://app?vid=d2e412ce-b890-4afc-b073-94a1ab7a6a06"},"vehicle_type_id":"4","last_reported":1734340295,"current_range_meters":30800,"station_id":"ce4bgi12rcd13ifvqb70","pricing_plan_id":"cebpf4jnsgd1na2vs0mg"},{"bike_id":"83e5b1f9-e512-4755-8dfd-f85222a054ac","system_id":"levelo_inurba_marseille","lat":43.26838,"lon":5.39646,"is_reserved":false,"is_disabled":false,"rental_uris":{"android":"levelo://app?vid=83e5b1f9-e512-4755-8dfd-f85222a054ac","ios":"levelo://app?vid=83e5b1f9-e512-4755-8dfd-f85222a054ac"},"vehicle_type_id":"4","last_reported":1734340295,"current_range_meters":11600,"station_id":"","pricing_plan_id":"cebpf4jnsgd1na2vs0mg"},{"bike_id":"483537f0-0a97-4bc9-b6b9-3700316f5817","system_id":"levelo_inurba_marseille","lat":43.29531,"lon":5.38545,"is_reserved":false,"is_disabled":true,"rental_uris":{"android":"levelo://app?vid=483537f0-0a97-4bc9-b6b9-3700316f5817","ios":"levelo://app?vid=483537f0-0a97-4bc9-b6b9-3700316f5817"},"vehicle_type_id":"4","last_reported":1734340295,"current_range_meters":3600,"station_id":"ce4bgih2rcd13ifvqba0","pricing_plan_id":"cebpf4jnsgd1na2vs0mg"},{"bike_id":"e1ce7f56-26ba-470d-9187-70d49a39a2d2","system_id":"levelo_inurba_marseille","lat":43.2782,"lon":5.39201,"is_reserved":false,"is_disabled":false,"rental_uris":{"android":"levelo://app?vid=e1ce7f56-26ba-470d-9187-70d49a39a2d2","ios":"levelo://app?vid=e1ce7f56-26ba-470d-9187-70d49a39a2d2"},"vehicle_type_id":"4","last_reported":1734340295,"current_range_meters":33600,"station_id":"ce4bhjp2rcd13ifvqga0","pricing_plan_id":"cebpf4jnsgd1na2vs0mg"},{"bike_id":"1f9f2344-774c-4681-a39f-5ccd15c769b1","system_id":"levelo_inurba_marseille","lat":43.28615,"lon":5.35099,"is_reserved":false,"is_disabled":true,"rental_uris":{"android":"levelo://app?vid=1f9f2344-774c-4681-a39f-5ccd15c769b1","ios":"levelo://app?vid=1f9f2344-774c-4681-a39f-5ccd15c769b1"},"vehicle_type_id":"4","last_reported":1734340295,"current_range_meters":27600,"station_id":"ce4bhch2rcd13ifvqeug","pricing_plan_id":"cebpf4jnsgd1na2vs0mg"},{"bike_id":"a1e87f39-a169-437c-996c-14d84743b37e","system_id":"levelo_inurba_marseille","lat":43.23064,"lon":5.35489,"is_reserved":false,"is_disabled":false,"rental_uris":{"android":"levelo://app?vid=a1e87f39-a169-437c-996c-14d84743b37e","ios":"levelo://app?vid=a1e87f39-a169-437c-996c-14d84743b37e"},"vehicle_type_id":"4","last_reported":1734340295,"current_range_meters":37600,"station_id":"cpo3342slgdg3j2ifvpg","pricing_plan_id":"cebpf4jnsgd1na2vs0mg"},{"bike_id":"1bf441ad-d9c2-4800-bd23-968cca2082fe","system_id":"levelo_inurba_marseille","lat":43.29567,"lon":5.37509,"is_reserved":false,"is_disabled":false,"rental_uris":{"android":"levelo://app?vid=1bf441ad-d9c2-4800-bd23-968cca2082fe","ios":"levelo://app?vid=1bf441ad-d9c2-4800-bd23-968cca2082fe"},"vehicle_type_id":"4","last_reported":1734340295,"current_range_meters":28800,"station_id":"ce4bgh92rcd13ifvqb50","pricing_plan_id":"cebpf4jnsgd1na2vs0mg"},{"bike_id":"a4201bad-2952-479e-bfa8-345091f5dd8e","system_id":"levelo_inurba_marseille","lat":43.24648,"lon":5.38894,"is_reserved":false,"is_disabled":false,"rental_uris":{"android":"levelo://app?vid=a4201bad-2952-479e-bfa8-345091f5dd8e","ios":"levelo://app?vid=a4201bad-2952-479e-bfa8-345091f5dd8e"},"vehicle_type_id":"4","last_reported":1734340295,"current_range_meters":19200,"station_id":"ce4bhg12rcd13ifvqf60","pricing_plan_id":"cebpf4jnsgd1na2vs0mg"},{"bike_id":"876e4647-3c9e-4ad2-8c4d-aa8aa29a852e","system_id":"levelo_inurba_marseille","lat":43.25938,"lon":5.40897,"is_reserved":false,"is_disabled":false,"rental_uris":{"android":"levelo://app?vid=876e4647-3c9e-4ad2-8c4d-aa8aa29a852e","ios":"levelo://app?vid=876e4647-3c9e-4ad2-8c4d-aa8aa29a852e"},"vehicle_type_id":"4","last_reported":1734340295,"current_range_meters":13600,"station_id":"ce4bhm92rcd13ifvqglg","pricing_plan_id":"cebpf4jnsgd1na2vs0mg"},{"bike_id":"a34223f5-c6be-48ba-acdb-c689c88a699e","system_id":"levelo_inurba_marseille","lat":43.26188,"lon":5.37445,"is_reserved":false,"is_disabled":true,"rental_uris":{"android":"levelo://app?vid=a34223f5-c6be-48ba-acdb-c689c88a699e","ios":"levelo://app?vid=a34223f5-c6be-48ba-acdb-c689c88a699e"},"vehicle_type_id":"4","last_reported":1734340295,"current_range_meters":9200,"station_id":"ce4bhgp2rcd13ifvqfc0","pricing_plan_id":"cebpf4jnsgd1na2vs0mg"},{"bike_id":"2b441a44-e6d5-4ba4-b56e-f3526cf86766","system_id":"levelo_inurba_marseille","lat":43.26953,"lon":5.38634,"is_reserved":false,"is_disabled":false,"rental_uris":{"android":"levelo://app?vid=2b441a44-e6d5-4ba4-b56e-f3526cf86766","ios":"levelo://app?vid=2b441a44-e6d5-4ba4-b56e-f3526cf86766"},"vehicle_type_id":"4","last_reported":1734340295,"current_range_meters":38400,"station_id":"ce4bhh92rcd13ifvqfh0","pricing_plan_id":"cebpf4jnsgd1na2vs0mg"},{"bike_id":"4785d363-0f73-467d-aed9-e651a544a44b","system_id":"levelo_inurba_marseille","lat":43.24077,"lon":5.37761,"is_reserved":false,"is_disabled":false,"rental_uris":{"android":"levelo://app?vid=4785d363-0f73-467d-aed9-e651a544a44b","ios":"levelo://app?vid=4785d363-0f73-467d-aed9-e651a544a44b"},"vehicle_type_id":"4","last_reported":1734340295,"current_range_meters":11200,"station_id":"ce4bhnp2rcd13ifvqgvg","pricing_plan_id":"cebpf4jnsgd1na2vs0mg"},{"bike_id":"90fdbe4f-cb5a-407c-9503-1ec303e90772","system_id":"levelo_inurba_marseille","lat":43.30144,"lon":5.38805,"is_reserved":false,"is_disabled":true,"rental_uris":{"android":"levelo://app?vid=90fdbe4f-cb5a-407c-9503-1ec303e90772","ios":"levelo://app?vid=90fdbe4f-cb5a-407c-9503-1ec303e90772"},"vehicle_type_id":"4","last_reported":1734340295,"current_range_meters":21600,"station_id":"ce4bghh2rcd13ifvqb60","pricing_plan_id":"cebpf4jnsgd1na2vs0mg"},{"bike_id":"3c4a280d-f084-4af7-b757-21b392a7614e","system_id":"levelo_inurba_marseille","lat":43.33607,"lon":5.41011,"is_reserved":false,"is_disabled":true,"rental_uris":{"android":"levelo://app?vid=3c4a280d-f084-4af7-b757-21b392a7614e","ios":"levelo://app?vid=3c4a280d-f084-4af7-b757-21b392a7614e"},"vehicle_type_id":"4","last_reported":1734340295,"current_range_meters":0,"station_id":"ce4bhqh2rcd13ifvqhmg","pricing_plan_id":"cebpf4jnsgd1na2vs0mg"},{"bike_id":"6b391893-a1a7-4db8-8cae-4af12d48fe2f","system_id":"levelo_inurba_marseille","lat":43.26559,"lon":5.39015,"is_reserved":false,"is_disabled":false,"rental_uris":{"android":"levelo://app?vid=6b391893-a1a7-4db8-8cae-4af12d48fe2f","ios":"levelo://app?vid=6b391893-a1a7-4db8-8cae-4af12d48fe2f"},"vehicle_type_id":"4","last_reported":1734340295,"current_range_meters":32800,"station_id":"ce4bhe12rcd13ifvqf30","pricing_plan_id":"cebpf4jnsgd1na2vs0mg"},{"bike_id":"d4e5d77a-27d1-4c8d-8280-dbf389e80711","system_id":"levelo_inurba_marseille","lat":43.30312,"lon":5.369,"is_reserved":false,"is_disabled":false,"rental_uris":{"android":"levelo://app?vid=d4e5d77a-27d1-4c8d-8280-dbf389e80711","ios":"levelo://app?vid=d4e5d77a-27d1-4c8d-8280-dbf389e80711"},"vehicle_type_id":"4","last_reported":1734340295,"current_range_meters":38800,"station_id":"ce4bgqh2rcd13ifvqc5g","pricing_plan_id":"cebpf4jnsgd1na2vs0mg"},{"bike_id":"e76f2873-e6fb-47c1-a122-e676819dd4bf","system_id":"levelo_inurba_marseille","lat":43.24173,"lon":5.39735,"is_reserved":false,"is_disabled":true,"rental_uris":{"android":"levelo://app?vid=e76f2873-e6fb-47c1-a122-e676819dd4bf","ios":"levelo://app?vid=e76f2873-e6fb-47c1-a122-e676819dd4bf"},"vehicle_type_id":"4","last_reported":1734340295,"current_range_meters":800,"station_id":"ce4bhn12rcd13ifvqgpg","pricing_plan_id":"cebpf4jnsgd1na2vs0mg"},{"bike_id":"3ceb8620-8a84-4dff-8047-301dc3087867","system_id":"levelo_inurba_marseille","lat":43.2767,"lon":5.38902,"is_reserved":false,"is_disabled":false,"rental_uris":{"android":"levelo://app?vid=3ceb8620-8a84-4dff-8047-301dc3087867","ios":"levelo://app?vid=3ceb8620-8a84-4dff-8047-301dc3087867"},"vehicle_type_id":"4","last_reported":1734340295,"current_range_meters":36400,"station_id":"ce4bhi12rcd13ifvqfo0","pricing_plan_id":"cebpf4jnsgd1na2vs0mg"},{"bike_id":"bde54dc7-9395-46d6-bc6e-42ecf2cbe5bd","system_id":"levelo_inurba_marseille","lat":43.30482,"lon":5.37908,"is_reserved":false,"is_disabled":true,"rental_uris":{"android":"levelo://app?vid=bde54dc7-9395-46d6-bc6e-42ecf2cbe5bd","ios":"levelo://app?vid=bde54dc7-9395-46d6-bc6e-42ecf2cbe5bd"},"vehicle_type_id":"4","last_reported":1734340295,"current_range_meters":400,"station_id":"ce4bgup2rcd13ifvqcn0","pricing_plan_id":"cebpf4jnsgd1na2vs0mg"},{"bike_id":"4e3eebec-f009-4887-809b-5f30495d5092","system_id":"levelo_inurba_marseille","lat":43.286975,"lon":5.37392,"is_reserved":false,"is_disabled":true,"rental_uris":{"android":"levelo://app?vid=4e3eebec-f009-4887-809b-5f30495d5092","ios":"levelo://app?vid=4e3eebec-f009-4887-809b-5f30495d5092"},"vehicle_type_id":"4","last_reported":1734340295,"current_range_meters":12800,"station_id":"ce4bh3p2rcd13ifvqdq0","pricing_plan_id":"cebpf4jnsgd1na2vs0mg"},{"bike_id":"eb1496f4-67ed-47fd-8660-60023378367f","system_id":"levelo_inurba_marseille","lat":43.294212,"lon":5.374322,"is_reserved":false,"is_disabled":true,"rental_uris":{"android":"levelo://app?vid=eb1496f4-67ed-47fd-8660-60023378367f","ios":"levelo://app?vid=eb1496f4-67ed-47fd-8660-60023378367f"},"vehicle_type_id":"4","last_reported":1734340295,"current_range_meters":0,"station_id":"","pricing_plan_id":"cebpf4jnsgd1na2vs0mg"},{"bike_id":"71adf873-8534-4b4c-88ad-a35b28cb9554","system_id":"levelo_inurba_marseille","lat":43.2473,"lon":5.41165,"is_reserved":false,"is_disabled":false,"rental_uris":{"android":"levelo://app?vid=71adf873-8534-4b4c-88ad-a35b28cb9554","ios":"levelo://app?vid=71adf873-8534-4b4c-88ad-a35b28cb9554"},"vehicle_type_id":"4","last_reported":1734340295,"current_range_meters":16400,"station_id":"","pricing_plan_id":"cebpf4jnsgd1na2vs0mg"},{"bike_id":"5cb2253b-15ad-4ce2-af15-ca4a67df4526","system_id":"levelo_inurba_marseille","lat":43.31437,"lon":5.37046,"is_reserved":false,"is_disabled":false,"rental_uris":{"android":"levelo://app?vid=5cb2253b-15ad-4ce2-af15-ca4a67df4526","ios":"levelo://app?vid=5cb2253b-15ad-4ce2-af15-ca4a67df4526"},"vehicle_type_id":"4","last_reported":1734340295,"current_range_meters":17200,"station_id":"","pricing_plan_id":"cebpf4jnsgd1na2vs0mg"},{"bike_id":"8e15ce21-a9ab-4183-8d7a-fc30c4b5f23c","system_id":"levelo_inurba_marseille","lat":43.27614,"lon":5.36112,"is_reserved":false,"is_disabled":false,"rental_uris":{"android":"levelo://app?vid=8e15ce21-a9ab-4183-8d7a-fc30c4b5f23c","ios":"levelo://app?vid=8e15ce21-a9ab-4183-8d7a-fc30c4b5f23c"},"vehicle_type_id":"4","last_reported":1734340295,"current_range_meters":23200,"station_id":"ce4bgj92rcd13ifvqbe0","pricing_plan_id":"cebpf4jnsgd1na2vs0mg"},{"bike_id":"930810fc-705b-48f4-878d-61455430efc6","system_id":"levelo_inurba_marseille","lat":43.255756,"lon":5.382271,"is_reserved":false,"is_disabled":false,"rental_uris":{"android":"levelo://app?vid=930810fc-705b-48f4-878d-61455430efc6","ios":"levelo://app?vid=930810fc-705b-48f4-878d-61455430efc6"},"vehicle_type_id":"4","last_reported":1734340295,"current_range_meters":14400,"station_id":"ce4bhih2rcd13ifvqfs0","pricing_plan_id":"cebpf4jnsgd1na2vs0mg"},{"bike_id":"247258e1-f9a0-4677-8aa0-2d2088a0fef9","system_id":"levelo_inurba_marseille","lat":43.29536,"lon":5.38546,"is_reserved":false,"is_disabled":true,"rental_uris":{"android":"levelo://app?vid=247258e1-f9a0-4677-8aa0-2d2088a0fef9","ios":"levelo://app?vid=247258e1-f9a0-4677-8aa0-2d2088a0fef9"},"vehicle_type_id":"4","last_reported":1734340295,"current_range_meters":34000,"station_id":"ce4bgih2rcd13ifvqba0","pricing_plan_id":"cebpf4jnsgd1na2vs0mg"},{"bike_id":"eaa35eb7-0c80-4577-a387-e419e391b5f6","system_id":"levelo_inurba_marseille","lat":43.28,"lon":5.40016,"is_reserved":false,"is_disabled":true,"rental_uris":{"android":"levelo://app?vid=eaa35eb7-0c80-4577-a387-e419e391b5f6","ios":"levelo://app?vid=eaa35eb7-0c80-4577-a387-e419e391b5f6"},"vehicle_type_id":"4","last_reported":1734340295,"current_range_meters":1600,"station_id":"ce4bho92rcd13ifvqh4g","pricing_plan_id":"cebpf4jnsgd1na2vs0mg"},{"bike_id":"60e686f6-cac0-45e2-be21-108f7ad078d8","system_id":"levelo_inurba_marseille","lat":43.27068,"lon":5.42276,"is_reserved":false,"is_disabled":false,"rental_uris":{"android":"levelo://app?vid=60e686f6-cac0-45e2-be21-108f7ad078d8","ios":"levelo://app?vid=60e686f6-cac0-45e2-be21-108f7ad078d8"},"vehicle_type_id":"4","last_reported":1734340295,"current_range_meters":37600,"station_id":"ce4bhk92rcd13ifvqgb0","pricing_plan_id":"cebpf4jnsgd1na2vs0mg"},{"bike_id":"0df249be-7d40-48ad-8915-752593b717dd","system_id":"levelo_inurba_marseille","lat":43.23196,"lon":5.35551,"is_reserved":false,"is_disabled":false,"rental_uris":{"android":"levelo://app?vid=0df249be-7d40-48ad-8915-752593b717dd","ios":"levelo://app?vid=0df249be-7d40-48ad-8915-752593b717dd"},"vehicle_type_id":"4","last_reported":1734340295,"current_range_meters":25600,"station_id":"ce4bhu92rcd13ifvqi70","pricing_plan_id":"cebpf4jnsgd1na2vs0mg"},{"bike_id":"989664e1-2615-4d65-9c6b-db676949f101","system_id":"levelo_inurba_marseille","lat":43.28153,"lon":5.42627,"is_reserved":false,"is_disabled":false,"rental_uris":{"android":"levelo://app?vid=989664e1-2615-4d65-9c6b-db676949f101","ios":"levelo://app?vid=989664e1-2615-4d65-9c6b-db676949f101"},"vehicle_type_id":"4","last_reported":1734340295,"current_range_meters":8000,"station_id":"ce4bhnh2rcd13ifvqgug","pricing_plan_id":"cebpf4jnsgd1na2vs0mg"},{"bike_id":"debb21fb-24b5-4181-9f7b-a7bac051fad7","system_id":"levelo_inurba_marseille","lat":43.28261,"lon":5.35058,"is_reserved":false,"is_disabled":false,"rental_uris":{"android":"levelo://app?vid=debb21fb-24b5-4181-9f7b-a7bac051fad7","ios":"levelo://app?vid=debb21fb-24b5-4181-9f7b-a7bac051fad7"},"vehicle_type_id":"4","last_reported":1734340295,"current_range_meters":12800,"station_id":"ce4bhbp2rcd13ifvqerg","pricing_plan_id":"cebpf4jnsgd1na2vs0mg"},{"bike_id":"4a1bc0db-6a2c-4623-8864-d2d18510681f","system_id":"levelo_inurba_marseille","lat":43.23191,"lon":5.3555,"is_reserved":false,"is_disabled":false,"rental_uris":{"android":"levelo://app?vid=4a1bc0db-6a2c-4623-8864-d2d18510681f","ios":"levelo://app?vid=4a1bc0db-6a2c-4623-8864-d2d18510681f"},"vehicle_type_id":"4","last_reported":1734340295,"current_range_meters":12000,"station_id":"ce4bhu92rcd13ifvqi70","pricing_plan_id":"cebpf4jnsgd1na2vs0mg"},{"bike_id":"7b4eccf6-99cc-4304-bf6c-272ffc195531","system_id":"levelo_inurba_marseille","lat":43.29296,"lon":5.37435,"is_reserved":false,"is_disabled":false,"rental_uris":{"android":"levelo://app?vid=7b4eccf6-99cc-4304-bf6c-272ffc195531","ios":"levelo://app?vid=7b4eccf6-99cc-4304-bf6c-272ffc195531"},"vehicle_type_id":"4","last_reported":1734340295,"current_range_meters":33600,"station_id":"ce4bgi12rcd13ifvqb70","pricing_plan_id":"cebpf4jnsgd1na2vs0mg"},{"bike_id":"d4be59f7-09fc-45ee-b056-7acd3d9ca65e","system_id":"levelo_inurba_marseille","lat":43.26569,"lon":5.39007,"is_reserved":false,"is_disabled":false,"rental_uris":{"android":"levelo://app?vid=d4be59f7-09fc-45ee-b056-7acd3d9ca65e","ios":"levelo://app?vid=d4be59f7-09fc-45ee-b056-7acd3d9ca65e"},"vehicle_type_id":"4","last_reported":1734340295,"current_range_meters":18800,"station_id":"ce4bhe12rcd13ifvqf30","pricing_plan_id":"cebpf4jnsgd1na2vs0mg"},{"bike_id":"230e9a8a-c8f7-40a1-b317-d4afa1935b21","system_id":"levelo_inurba_marseille","lat":43.31694,"lon":5.40476,"is_reserved":false,"is_disabled":true,"rental_uris":{"android":"levelo://app?vid=230e9a8a-c8f7-40a1-b317-d4afa1935b21","ios":"levelo://app?vid=230e9a8a-c8f7-40a1-b317-d4afa1935b21"},"vehicle_type_id":"4","last_reported":1734340295,"current_range_meters":37600,"station_id":"ce4bh012rcd13ifvqd00","pricing_plan_id":"cebpf4jnsgd1na2vs0mg"},{"bike_id":"680bc8ce-2061-4d43-9cf7-a70eeccaf369","system_id":"levelo_inurba_marseille","lat":43.3133,"lon":5.36692,"is_reserved":false,"is_disabled":true,"rental_uris":{"android":"levelo://app?vid=680bc8ce-2061-4d43-9cf7-a70eeccaf369","ios":"levelo://app?vid=680bc8ce-2061-4d43-9cf7-a70eeccaf369"},"vehicle_type_id":"4","last_reported":1734340295,"current_range_meters":37600,"station_id":"ce4bgr92rcd13ifvqc6g","pricing_plan_id":"cebpf4jnsgd1na2vs0mg"},{"bike_id":"683a9ad3-de61-4837-8bfa-fd2fa377113b","system_id":"levelo_inurba_marseille","lat":43.30534,"lon":5.36644,"is_reserved":false,"is_disabled":true,"rental_uris":{"android":"levelo://app?vid=683a9ad3-de61-4837-8bfa-fd2fa377113b","ios":"levelo://app?vid=683a9ad3-de61-4837-8bfa-fd2fa377113b"},"vehicle_type_id":"4","last_reported":1734340295,"current_range_meters":38800,"station_id":"ce4bgrp2rcd13ifvqc9g","pricing_plan_id":"cebpf4jnsgd1na2vs0mg"},{"bike_id":"c212ed0b-ec17-4951-8b14-b8ca3fa17c31","system_id":"levelo_inurba_marseille","lat":43.27491,"lon":5.42469,"is_reserved":false,"is_disabled":false,"rental_uris":{"android":"levelo://app?vid=c212ed0b-ec17-4951-8b14-b8ca3fa17c31","ios":"levelo://app?vid=c212ed0b-ec17-4951-8b14-b8ca3fa17c31"},"vehicle_type_id":"4","last_reported":1734340295,"current_range_meters":37600,"station_id":"ce4bhn92rcd13ifvqgrg","pricing_plan_id":"cebpf4jnsgd1na2vs0mg"},{"bike_id":"8a60ab24-229f-48d4-92bf-215dc518f70f","system_id":"levelo_inurba_marseille","lat":43.23148,"lon":5.43713,"is_reserved":false,"is_disabled":false,"rental_uris":{"android":"levelo://app?vid=8a60ab24-229f-48d4-92bf-215dc518f70f","ios":"levelo://app?vid=8a60ab24-229f-48d4-92bf-215dc518f70f"},"vehicle_type_id":"4","last_reported":1734340295,"current_range_meters":38000,"station_id":"ce4bhmp2rcd13ifvqgog","pricing_plan_id":"cebpf4jnsgd1na2vs0mg"},{"bike_id":"a170ba40-17b7-4bf6-90f8-c07a5cf55709","system_id":"levelo_inurba_marseille","lat":43.24658,"lon":5.38895,"is_reserved":false,"is_disabled":true,"rental_uris":{"android":"levelo://app?vid=a170ba40-17b7-4bf6-90f8-c07a5cf55709","ios":"levelo://app?vid=a170ba40-17b7-4bf6-90f8-c07a5cf55709"},"vehicle_type_id":"4","last_reported":1734340295,"current_range_meters":35600,"station_id":"ce4bhg12rcd13ifvqf60","pricing_plan_id":"cebpf4jnsgd1na2vs0mg"},{"bike_id":"06eb94fd-69b5-42bb-9a93-3989c149a585","system_id":"levelo_inurba_marseille","lat":43.29458,"lon":5.3624,"is_reserved":false,"is_disabled":false,"rental_uris":{"android":"levelo://app?vid=06eb94fd-69b5-42bb-9a93-3989c149a585","ios":"levelo://app?vid=06eb94fd-69b5-42bb-9a93-3989c149a585"},"vehicle_type_id":"4","last_reported":1734340295,"current_range_meters":6000,"station_id":"","pricing_plan_id":"cebpf4jnsgd1na2vs0mg"},{"bike_id":"27b317b7-ef3e-4fab-a731-0cb4771be0aa","system_id":"levelo_inurba_marseille","lat":43.23202,"lon":5.3555,"is_reserved":false,"is_disabled":false,"rental_uris":{"android":"levelo://app?vid=27b317b7-ef3e-4fab-a731-0cb4771be0aa","ios":"levelo://app?vid=27b317b7-ef3e-4fab-a731-0cb4771be0aa"},"vehicle_type_id":"4","last_reported":1734340295,"current_range_meters":25200,"station_id":"ce4bhu92rcd13ifvqi70","pricing_plan_id":"cebpf4jnsgd1na2vs0mg"},{"bike_id":"d9977418-8393-49f5-a40b-c871898e58ed","system_id":"levelo_inurba_marseille","lat":43.32481,"lon":5.36565,"is_reserved":false,"is_disabled":false,"rental_uris":{"android":"levelo://app?vid=d9977418-8393-49f5-a40b-c871898e58ed","ios":"levelo://app?vid=d9977418-8393-49f5-a40b-c871898e58ed"},"vehicle_type_id":"4","last_reported":1734340295,"current_range_meters":20800,"station_id":"ce4bhs12rcd13ifvqhvg","pricing_plan_id":"cebpf4jnsgd1na2vs0mg"},{"bike_id":"abb5943c-ad1b-4763-ac39-550778aed3b8","system_id":"levelo_inurba_marseille","lat":43.2936,"lon":5.37834,"is_reserved":false,"is_disabled":false,"rental_uris":{"android":"levelo://app?vid=abb5943c-ad1b-4763-ac39-550778aed3b8","ios":"levelo://app?vid=abb5943c-ad1b-4763-ac39-550778aed3b8"},"vehicle_type_id":"4","last_reported":1734340295,"current_range_meters":18000,"station_id":"ce4bgjh2rcd13ifvqbf0","pricing_plan_id":"cebpf4jnsgd1na2vs0mg"},{"bike_id":"520770f2-5800-40e0-a831-ed18b1e0a6e1","system_id":"levelo_inurba_marseille","lat":43.29908,"lon":5.38136,"is_reserved":false,"is_disabled":true,"rental_uris":{"android":"levelo://app?vid=520770f2-5800-40e0-a831-ed18b1e0a6e1","ios":"levelo://app?vid=520770f2-5800-40e0-a831-ed18b1e0a6e1"},"vehicle_type_id":"4","last_reported":1734340295,"current_range_meters":36400,"station_id":"ce4bgj12rcd13ifvqbc0","pricing_plan_id":"cebpf4jnsgd1na2vs0mg"},{"bike_id":"dfac3074-0f88-413c-a849-e409d9cf59b0","system_id":"levelo_inurba_marseille","lat":43.260676,"lon":5.393868,"is_reserved":false,"is_disabled":false,"rental_uris":{"android":"levelo://app?vid=dfac3074-0f88-413c-a849-e409d9cf59b0","ios":"levelo://app?vid=dfac3074-0f88-413c-a849-e409d9cf59b0"},"vehicle_type_id":"4","last_reported":1734340295,"current_range_meters":38000,"station_id":"ce4bhh92rcd13ifvqfj0","pricing_plan_id":"cebpf4jnsgd1na2vs0mg"},{"bike_id":"b7ebc1ca-e5a4-48bb-8246-2ef6a8164e56","system_id":"levelo_inurba_marseille","lat":43.29611,"lon":5.37724,"is_reserved":false,"is_disabled":false,"rental_uris":{"android":"levelo://app?vid=b7ebc1ca-e5a4-48bb-8246-2ef6a8164e56","ios":"levelo://app?vid=b7ebc1ca-e5a4-48bb-8246-2ef6a8164e56"},"vehicle_type_id":"4","last_reported":1734340295,"current_range_meters":34000,"station_id":"ce4bgi92rcd13ifvqb90","pricing_plan_id":"cebpf4jnsgd1na2vs0mg"},{"bike_id":"97e55a23-328b-496c-ba93-ec3918c157b0","system_id":"levelo_inurba_marseille","lat":43.24076,"lon":5.37752,"is_reserved":false,"is_disabled":false,"rental_uris":{"android":"levelo://app?vid=97e55a23-328b-496c-ba93-ec3918c157b0","ios":"levelo://app?vid=97e55a23-328b-496c-ba93-ec3918c157b0"},"vehicle_type_id":"4","last_reported":1734340295,"current_range_meters":21600,"station_id":"ce4bhnp2rcd13ifvqgvg","pricing_plan_id":"cebpf4jnsgd1na2vs0mg"},{"bike_id":"c58821f9-7843-4f2b-8e11-dffb0b46d8fe","system_id":"levelo_inurba_marseille","lat":43.29785,"lon":5.37081,"is_reserved":false,"is_disabled":false,"rental_uris":{"android":"levelo://app?vid=c58821f9-7843-4f2b-8e11-dffb0b46d8fe","ios":"levelo://app?vid=c58821f9-7843-4f2b-8e11-dffb0b46d8fe"},"vehicle_type_id":"4","last_reported":1734340295,"current_range_meters":28400,"station_id":"ce4bgop2rcd13ifvqc1g","pricing_plan_id":"cebpf4jnsgd1na2vs0mg"},{"bike_id":"119666ee-7528-4e52-89f1-c99509e02f6e","system_id":"levelo_inurba_marseille","lat":43.30527,"lon":5.36532,"is_reserved":false,"is_disabled":false,"rental_uris":{"android":"levelo://app?vid=119666ee-7528-4e52-89f1-c99509e02f6e","ios":"levelo://app?vid=119666ee-7528-4e52-89f1-c99509e02f6e"},"vehicle_type_id":"4","last_reported":1734340295,"current_range_meters":36800,"station_id":"ce4bgs12rcd13ifvqcag","pricing_plan_id":"cebpf4jnsgd1na2vs0mg"},{"bike_id":"0d253baf-5864-4b49-8429-1468e72a0132","system_id":"levelo_inurba_marseille","lat":43.24078,"lon":5.3775,"is_reserved":false,"is_disabled":false,"rental_uris":{"android":"levelo://app?vid=0d253baf-5864-4b49-8429-1468e72a0132","ios":"levelo://app?vid=0d253baf-5864-4b49-8429-1468e72a0132"},"vehicle_type_id":"4","last_reported":1734340295,"current_range_meters":35600,"station_id":"ce4bhnp2rcd13ifvqgvg","pricing_plan_id":"cebpf4jnsgd1na2vs0mg"},{"bike_id":"c596b96c-3378-4894-bf42-27ebb37bf99f","system_id":"levelo_inurba_marseille","lat":43.33723,"lon":5.3918,"is_reserved":false,"is_disabled":false,"rental_uris":{"android":"levelo://app?vid=c596b96c-3378-4894-bf42-27ebb37bf99f","ios":"levelo://app?vid=c596b96c-3378-4894-bf42-27ebb37bf99f"},"vehicle_type_id":"4","last_reported":1734340295,"current_range_meters":10000,"station_id":"ce4bhr92rcd13ifvqhsg","pricing_plan_id":"cebpf4jnsgd1na2vs0mg"},{"bike_id":"fdfb1723-02d9-4258-8388-7076fe3d9f92","system_id":"levelo_inurba_marseille","lat":43.28341,"lon":5.38103,"is_reserved":false,"is_disabled":false,"rental_uris":{"android":"levelo://app?vid=fdfb1723-02d9-4258-8388-7076fe3d9f92","ios":"levelo://app?vid=fdfb1723-02d9-4258-8388-7076fe3d9f92"},"vehicle_type_id":"4","last_reported":1734340295,"current_range_meters":38000,"station_id":"ce4bh412rcd13ifvqdr0","pricing_plan_id":"cebpf4jnsgd1na2vs0mg"},{"bike_id":"63eaffe0-9361-4ff6-ab19-8007100ee7ae","system_id":"levelo_inurba_marseille","lat":43.24173,"lon":5.39717,"is_reserved":false,"is_disabled":false,"rental_uris":{"android":"levelo://app?vid=63eaffe0-9361-4ff6-ab19-8007100ee7ae","ios":"levelo://app?vid=63eaffe0-9361-4ff6-ab19-8007100ee7ae"},"vehicle_type_id":"4","last_reported":1734340295,"current_range_meters":34800,"station_id":"ce4bhn12rcd13ifvqgpg","pricing_plan_id":"cebpf4jnsgd1na2vs0mg"},{"bike_id":"604f4c53-7126-4c38-a496-1deeabae457e","system_id":"levelo_inurba_marseille","lat":43.24059,"lon":5.37771,"is_reserved":false,"is_disabled":false,"rental_uris":{"android":"levelo://app?vid=604f4c53-7126-4c38-a496-1deeabae457e","ios":"levelo://app?vid=604f4c53-7126-4c38-a496-1deeabae457e"},"vehicle_type_id":"4","last_reported":1734340295,"current_range_meters":35200,"station_id":"ce4bhnp2rcd13ifvqgvg","pricing_plan_id":"cebpf4jnsgd1na2vs0mg"},{"bike_id":"5209ffe9-da59-4196-a57c-eaa4cabc2b3d","system_id":"levelo_inurba_marseille","lat":43.25947,"lon":5.40885,"is_reserved":false,"is_disabled":false,"rental_uris":{"android":"levelo://app?vid=5209ffe9-da59-4196-a57c-eaa4cabc2b3d","ios":"levelo://app?vid=5209ffe9-da59-4196-a57c-eaa4cabc2b3d"},"vehicle_type_id":"4","last_reported":1734340295,"current_range_meters":26000,"station_id":"ce4bhm92rcd13ifvqglg","pricing_plan_id":"cebpf4jnsgd1na2vs0mg"},{"bike_id":"f212dc32-408b-4f31-937a-b00904fac5be","system_id":"levelo_inurba_marseille","lat":43.31356,"lon":5.36721,"is_reserved":false,"is_disabled":false,"rental_uris":{"android":"levelo://app?vid=f212dc32-408b-4f31-937a-b00904fac5be","ios":"levelo://app?vid=f212dc32-408b-4f31-937a-b00904fac5be"},"vehicle_type_id":"4","last_reported":1734340295,"current_range_meters":25600,"station_id":"ce4bgr92rcd13ifvqc6g","pricing_plan_id":"cebpf4jnsgd1na2vs0mg"},{"bike_id":"3650d84c-d2fd-4728-abeb-b9accdfa7210","system_id":"levelo_inurba_marseille","lat":43.30234,"lon":5.40041,"is_reserved":false,"is_disabled":true,"rental_uris":{"android":"levelo://app?vid=3650d84c-d2fd-4728-abeb-b9accdfa7210","ios":"levelo://app?vid=3650d84c-d2fd-4728-abeb-b9accdfa7210"},"vehicle_type_id":"4","last_reported":1734340295,"current_range_meters":16800,"station_id":"","pricing_plan_id":"cebpf4jnsgd1na2vs0mg"},{"bike_id":"fb4cab7e-3de5-4936-9564-2c299c502f29","system_id":"levelo_inurba_marseille","lat":43.29164,"lon":5.3716,"is_reserved":false,"is_disabled":false,"rental_uris":{"android":"levelo://app?vid=fb4cab7e-3de5-4936-9564-2c299c502f29","ios":"levelo://app?vid=fb4cab7e-3de5-4936-9564-2c299c502f29"},"vehicle_type_id":"4","last_reported":1734340295,"current_range_meters":22800,"station_id":"ce4bha92rcd13ifvqeh0","pricing_plan_id":"cebpf4jnsgd1na2vs0mg"},{"bike_id":"b78abdd0-5f07-43ee-acb2-0dd6a958058f","system_id":"levelo_inurba_marseille","lat":43.29965,"lon":5.37175,"is_reserved":false,"is_disabled":false,"rental_uris":{"android":"levelo://app?vid=b78abdd0-5f07-43ee-acb2-0dd6a958058f","ios":"levelo://app?vid=b78abdd0-5f07-43ee-acb2-0dd6a958058f"},"vehicle_type_id":"4","last_reported":1734340295,"current_range_meters":17200,"station_id":"ce4bgr92rcd13ifvqc7g","pricing_plan_id":"cebpf4jnsgd1na2vs0mg"},{"bike_id":"c02d8a0e-b2f8-4690-8fad-50ac6971f07a","system_id":"levelo_inurba_marseille","lat":43.28728,"lon":5.39992,"is_reserved":false,"is_disabled":false,"rental_uris":{"android":"levelo://app?vid=c02d8a0e-b2f8-4690-8fad-50ac6971f07a","ios":"levelo://app?vid=c02d8a0e-b2f8-4690-8fad-50ac6971f07a"},"vehicle_type_id":"4","last_reported":1734340295,"current_range_meters":22000,"station_id":"ce4bho92rcd13ifvqh3g","pricing_plan_id":"cebpf4jnsgd1na2vs0mg"},{"bike_id":"667fba1a-a6ba-4195-a1f2-038a34b48286","system_id":"levelo_inurba_marseille","lat":43.29034,"lon":5.37562,"is_reserved":false,"is_disabled":true,"rental_uris":{"android":"levelo://app?vid=667fba1a-a6ba-4195-a1f2-038a34b48286","ios":"levelo://app?vid=667fba1a-a6ba-4195-a1f2-038a34b48286"},"vehicle_type_id":"4","last_reported":1734340295,"current_range_meters":2000,"station_id":"ce4bh692rcd13ifvqe90","pricing_plan_id":"cebpf4jnsgd1na2vs0mg"},{"bike_id":"ef28401f-e67d-41ae-b295-6b11bd121dd1","system_id":"levelo_inurba_marseille","lat":43.2668,"lon":5.38246,"is_reserved":false,"is_disabled":false,"rental_uris":{"android":"levelo://app?vid=ef28401f-e67d-41ae-b295-6b11bd121dd1","ios":"levelo://app?vid=ef28401f-e67d-41ae-b295-6b11bd121dd1"},"vehicle_type_id":"4","last_reported":1734340295,"current_range_meters":39200,"station_id":"ce4bhg92rcd13ifvqf90","pricing_plan_id":"cebpf4jnsgd1na2vs0mg"},{"bike_id":"76805181-b86b-42c5-9eb1-0613fe81a89e","system_id":"levelo_inurba_marseille","lat":43.23196,"lon":5.35547,"is_reserved":false,"is_disabled":false,"rental_uris":{"android":"levelo://app?vid=76805181-b86b-42c5-9eb1-0613fe81a89e","ios":"levelo://app?vid=76805181-b86b-42c5-9eb1-0613fe81a89e"},"vehicle_type_id":"4","last_reported":1734340295,"current_range_meters":36800,"station_id":"ce4bhu92rcd13ifvqi70","pricing_plan_id":"cebpf4jnsgd1na2vs0mg"},{"bike_id":"0173de07-b9ca-4d90-8466-c9e9062f1a7d","system_id":"levelo_inurba_marseille","lat":43.29704,"lon":5.37701,"is_reserved":false,"is_disabled":false,"rental_uris":{"android":"levelo://app?vid=0173de07-b9ca-4d90-8466-c9e9062f1a7d","ios":"levelo://app?vid=0173de07-b9ca-4d90-8466-c9e9062f1a7d"},"vehicle_type_id":"4","last_reported":1734340295,"current_range_meters":30400,"station_id":"ce4bgkh2rcd13ifvqbl0","pricing_plan_id":"cebpf4jnsgd1na2vs0mg"},{"bike_id":"ced90bff-ac9a-41e2-8a9f-5b8797c009eb","system_id":"levelo_inurba_marseille","lat":43.26676,"lon":5.38262,"is_reserved":false,"is_disabled":false,"rental_uris":{"android":"levelo://app?vid=ced90bff-ac9a-41e2-8a9f-5b8797c009eb","ios":"levelo://app?vid=ced90bff-ac9a-41e2-8a9f-5b8797c009eb"},"vehicle_type_id":"4","last_reported":1734340295,"current_range_meters":5600,"station_id":"ce4bhg92rcd13ifvqf90","pricing_plan_id":"cebpf4jnsgd1na2vs0mg"},{"bike_id":"9f059918-e3cd-4039-8c82-1c69d654e3bc","system_id":"levelo_inurba_marseille","lat":43.29035,"lon":5.37554,"is_reserved":false,"is_disabled":false,"rental_uris":{"android":"levelo://app?vid=9f059918-e3cd-4039-8c82-1c69d654e3bc","ios":"levelo://app?vid=9f059918-e3cd-4039-8c82-1c69d654e3bc"},"vehicle_type_id":"4","last_reported":1734340295,"current_range_meters":28800,"station_id":"ce4bh692rcd13ifvqe90","pricing_plan_id":"cebpf4jnsgd1na2vs0mg"},{"bike_id":"f3523180-cf09-4b58-805c-e3c6875d06de","system_id":"levelo_inurba_marseille","lat":43.24073,"lon":5.37755,"is_reserved":false,"is_disabled":false,"rental_uris":{"android":"levelo://app?vid=f3523180-cf09-4b58-805c-e3c6875d06de","ios":"levelo://app?vid=f3523180-cf09-4b58-805c-e3c6875d06de"},"vehicle_type_id":"4","last_reported":1734340295,"current_range_meters":10800,"station_id":"ce4bhnp2rcd13ifvqgvg","pricing_plan_id":"cebpf4jnsgd1na2vs0mg"},{"bike_id":"6cb5f94f-eade-4b7c-b995-84c805be74f9","system_id":"levelo_inurba_marseille","lat":43.33763,"lon":5.374433,"is_reserved":false,"is_disabled":false,"rental_uris":{"android":"levelo://app?vid=6cb5f94f-eade-4b7c-b995-84c805be74f9","ios":"levelo://app?vid=6cb5f94f-eade-4b7c-b995-84c805be74f9"},"vehicle_type_id":"4","last_reported":1734340295,"current_range_meters":23200,"station_id":"","pricing_plan_id":"cebpf4jnsgd1na2vs0mg"},{"bike_id":"08dc57f4-3338-4c59-a9c8-58369cc24e30","system_id":"levelo_inurba_marseille","lat":43.29775,"lon":5.38092,"is_reserved":false,"is_disabled":true,"rental_uris":{"android":"levelo://app?vid=08dc57f4-3338-4c59-a9c8-58369cc24e30","ios":"levelo://app?vid=08dc57f4-3338-4c59-a9c8-58369cc24e30"},"vehicle_type_id":"4","last_reported":1734340295,"current_range_meters":36800,"station_id":"ce4bgip2rcd13ifvqbb0","pricing_plan_id":"cebpf4jnsgd1na2vs0mg"},{"bike_id":"25dcbd86-9328-4fc2-9ec4-ed691c623b1b","system_id":"levelo_inurba_marseille","lat":43.30542,"lon":5.36535,"is_reserved":false,"is_disabled":false,"rental_uris":{"android":"levelo://app?vid=25dcbd86-9328-4fc2-9ec4-ed691c623b1b","ios":"levelo://app?vid=25dcbd86-9328-4fc2-9ec4-ed691c623b1b"},"vehicle_type_id":"4","last_reported":1734340295,"current_range_meters":23200,"station_id":"ce4bgs12rcd13ifvqcag","pricing_plan_id":"cebpf4jnsgd1na2vs0mg"},{"bike_id":"4a699e76-a616-4bff-b099-c5b629cc0796","system_id":"levelo_inurba_marseille","lat":43.2669,"lon":5.38262,"is_reserved":false,"is_disabled":false,"rental_uris":{"android":"levelo://app?vid=4a699e76-a616-4bff-b099-c5b629cc0796","ios":"levelo://app?vid=4a699e76-a616-4bff-b099-c5b629cc0796"},"vehicle_type_id":"4","last_reported":1734340295,"current_range_meters":35600,"station_id":"ce4bhg92rcd13ifvqf90","pricing_plan_id":"cebpf4jnsgd1na2vs0mg"},{"bike_id":"860f1d7b-483e-4859-950a-386caf85da5d","system_id":"levelo_inurba_marseille","lat":43.29028,"lon":5.37557,"is_reserved":false,"is_disabled":false,"rental_uris":{"android":"levelo://app?vid=860f1d7b-483e-4859-950a-386caf85da5d","ios":"levelo://app?vid=860f1d7b-483e-4859-950a-386caf85da5d"},"vehicle_type_id":"4","last_reported":1734340295,"current_range_meters":38800,"station_id":"ce4bh692rcd13ifvqe90","pricing_plan_id":"cebpf4jnsgd1na2vs0mg"},{"bike_id":"2ca54642-879b-4e33-8a48-00842729805f","system_id":"levelo_inurba_marseille","lat":43.30474,"lon":5.37911,"is_reserved":false,"is_disabled":false,"rental_uris":{"android":"levelo://app?vid=2ca54642-879b-4e33-8a48-00842729805f","ios":"levelo://app?vid=2ca54642-879b-4e33-8a48-00842729805f"},"vehicle_type_id":"4","last_reported":1734340295,"current_range_meters":29600,"station_id":"ce4bgup2rcd13ifvqcn0","pricing_plan_id":"cebpf4jnsgd1na2vs0mg"},{"bike_id":"06e51b39-b8f6-4124-b15d-e8ce46328761","system_id":"levelo_inurba_marseille","lat":43.24066,"lon":5.37748,"is_reserved":false,"is_disabled":false,"rental_uris":{"android":"levelo://app?vid=06e51b39-b8f6-4124-b15d-e8ce46328761","ios":"levelo://app?vid=06e51b39-b8f6-4124-b15d-e8ce46328761"},"vehicle_type_id":"4","last_reported":1734340295,"current_range_meters":12400,"station_id":"ce4bhnp2rcd13ifvqgvg","pricing_plan_id":"cebpf4jnsgd1na2vs0mg"},{"bike_id":"42332f3b-86a6-46f7-90d6-4a4dbd921bc6","system_id":"levelo_inurba_marseille","lat":43.33612,"lon":5.41028,"is_reserved":false,"is_disabled":false,"rental_uris":{"android":"levelo://app?vid=42332f3b-86a6-46f7-90d6-4a4dbd921bc6","ios":"levelo://app?vid=42332f3b-86a6-46f7-90d6-4a4dbd921bc6"},"vehicle_type_id":"4","last_reported":1734340295,"current_range_meters":38800,"station_id":"ce4bhqh2rcd13ifvqhmg","pricing_plan_id":"cebpf4jnsgd1na2vs0mg"},{"bike_id":"84843721-5271-4f00-9091-3a7ddadf94de","system_id":"levelo_inurba_marseille","lat":43.297377,"lon":5.376863,"is_reserved":false,"is_disabled":true,"rental_uris":{"android":"levelo://app?vid=84843721-5271-4f00-9091-3a7ddadf94de","ios":"levelo://app?vid=84843721-5271-4f00-9091-3a7ddadf94de"},"vehicle_type_id":"4","last_reported":1734340295,"current_range_meters":39200,"station_id":"ce4bgkh2rcd13ifvqbl0","pricing_plan_id":"cebpf4jnsgd1na2vs0mg"},{"bike_id":"a1978487-530f-4bf8-a0b8-b724d1a20e6b","system_id":"levelo_inurba_marseille","lat":43.29275,"lon":5.36843,"is_reserved":false,"is_disabled":true,"rental_uris":{"android":"levelo://app?vid=a1978487-530f-4bf8-a0b8-b724d1a20e6b","ios":"levelo://app?vid=a1978487-530f-4bf8-a0b8-b724d1a20e6b"},"vehicle_type_id":"4","last_reported":1734340295,"current_range_meters":30800,"station_id":"ce4bhbp2rcd13ifvqesg","pricing_plan_id":"cebpf4jnsgd1na2vs0mg"},{"bike_id":"283ec910-2b59-4ffd-bbff-9867d116f826","system_id":"levelo_inurba_marseille","lat":43.337444,"lon":5.374475,"is_reserved":false,"is_disabled":true,"rental_uris":{"android":"levelo://app?vid=283ec910-2b59-4ffd-bbff-9867d116f826","ios":"levelo://app?vid=283ec910-2b59-4ffd-bbff-9867d116f826"},"vehicle_type_id":"4","last_reported":1734340295,"current_range_meters":0,"station_id":"","pricing_plan_id":"cebpf4jnsgd1na2vs0mg"},{"bike_id":"ebc8d6a8-c5ca-4ba4-88a4-b588ba4331af","system_id":"levelo_inurba_marseille","lat":43.26679,"lon":5.3827,"is_reserved":false,"is_disabled":false,"rental_uris":{"android":"levelo://app?vid=ebc8d6a8-c5ca-4ba4-88a4-b588ba4331af","ios":"levelo://app?vid=ebc8d6a8-c5ca-4ba4-88a4-b588ba4331af"},"vehicle_type_id":"4","last_reported":1734340295,"current_range_meters":23200,"station_id":"ce4bhg92rcd13ifvqf90","pricing_plan_id":"cebpf4jnsgd1na2vs0mg"},{"bike_id":"ad857147-75ea-4fa8-8a24-2a5b1b443a29","system_id":"levelo_inurba_marseille","lat":43.291968,"lon":5.39315,"is_reserved":false,"is_disabled":true,"rental_uris":{"android":"levelo://app?vid=ad857147-75ea-4fa8-8a24-2a5b1b443a29","ios":"levelo://app?vid=ad857147-75ea-4fa8-8a24-2a5b1b443a29"},"vehicle_type_id":"4","last_reported":1734340295,"current_range_meters":13600,"station_id":"ce4bh192rcd13ifvqdd0","pricing_plan_id":"cebpf4jnsgd1na2vs0mg"},{"bike_id":"bbffd889-750b-4762-ae94-78458d50ea91","system_id":"levelo_inurba_marseille","lat":43.33726,"lon":5.39183,"is_reserved":false,"is_disabled":false,"rental_uris":{"android":"levelo://app?vid=bbffd889-750b-4762-ae94-78458d50ea91","ios":"levelo://app?vid=bbffd889-750b-4762-ae94-78458d50ea91"},"vehicle_type_id":"4","last_reported":1734340295,"current_range_meters":39200,"station_id":"ce4bhr92rcd13ifvqhsg","pricing_plan_id":"cebpf4jnsgd1na2vs0mg"},{"bike_id":"92a252da-96a7-4296-aff4-49056999b9b5","system_id":"levelo_inurba_marseille","lat":43.30542,"lon":5.36693,"is_reserved":false,"is_disabled":false,"rental_uris":{"android":"levelo://app?vid=92a252da-96a7-4296-aff4-49056999b9b5","ios":"levelo://app?vid=92a252da-96a7-4296-aff4-49056999b9b5"},"vehicle_type_id":"4","last_reported":1734340295,"current_range_meters":19600,"station_id":"ce4bgrp2rcd13ifvqc9g","pricing_plan_id":"cebpf4jnsgd1na2vs0mg"},{"bike_id":"d27448c5-97c5-43db-b4ca-6e9efcde6100","system_id":"levelo_inurba_marseille","lat":43.24649,"lon":5.38895,"is_reserved":false,"is_disabled":false,"rental_uris":{"android":"levelo://app?vid=d27448c5-97c5-43db-b4ca-6e9efcde6100","ios":"levelo://app?vid=d27448c5-97c5-43db-b4ca-6e9efcde6100"},"vehicle_type_id":"4","last_reported":1734340295,"current_range_meters":21600,"station_id":"ce4bhg12rcd13ifvqf60","pricing_plan_id":"cebpf4jnsgd1na2vs0mg"},{"bike_id":"fd61cfa1-90ef-49bb-8c86-1a4c20e9c4a9","system_id":"levelo_inurba_marseille","lat":43.24178,"lon":5.39721,"is_reserved":false,"is_disabled":true,"rental_uris":{"android":"levelo://app?vid=fd61cfa1-90ef-49bb-8c86-1a4c20e9c4a9","ios":"levelo://app?vid=fd61cfa1-90ef-49bb-8c86-1a4c20e9c4a9"},"vehicle_type_id":"4","last_reported":1734340295,"current_range_meters":16400,"station_id":"ce4bhn12rcd13ifvqgpg","pricing_plan_id":"cebpf4jnsgd1na2vs0mg"},{"bike_id":"44d4e17a-b666-46b4-a605-b9806c360661","system_id":"levelo_inurba_marseille","lat":43.26955,"lon":5.38631,"is_reserved":false,"is_disabled":false,"rental_uris":{"android":"levelo://app?vid=44d4e17a-b666-46b4-a605-b9806c360661","ios":"levelo://app?vid=44d4e17a-b666-46b4-a605-b9806c360661"},"vehicle_type_id":"4","last_reported":1734340295,"current_range_meters":17600,"station_id":"ce4bhh92rcd13ifvqfh0","pricing_plan_id":"cebpf4jnsgd1na2vs0mg"},{"bike_id":"aa21e77a-662e-45cc-88fe-b9ed9859ba6e","system_id":"levelo_inurba_marseille","lat":43.28364,"lon":5.38635,"is_reserved":false,"is_disabled":true,"rental_uris":{"android":"levelo://app?vid=aa21e77a-662e-45cc-88fe-b9ed9859ba6e","ios":"levelo://app?vid=aa21e77a-662e-45cc-88fe-b9ed9859ba6e"},"vehicle_type_id":"4","last_reported":1734340295,"current_range_meters":37600,"station_id":"ce4bh492rcd13ifvqdvg","pricing_plan_id":"cebpf4jnsgd1na2vs0mg"},{"bike_id":"ec166c4d-2d91-4049-8ddf-93d8bdd9e169","system_id":"levelo_inurba_marseille","lat":43.26947,"lon":5.38632,"is_reserved":false,"is_disabled":true,"rental_uris":{"android":"levelo://app?vid=ec166c4d-2d91-4049-8ddf-93d8bdd9e169","ios":"levelo://app?vid=ec166c4d-2d91-4049-8ddf-93d8bdd9e169"},"vehicle_type_id":"4","last_reported":1734340295,"current_range_meters":0,"station_id":"ce4bhh92rcd13ifvqfh0","pricing_plan_id":"cebpf4jnsgd1na2vs0mg"},{"bike_id":"21bc27a3-f59c-41bd-9268-4abaf4d3511b","system_id":"levelo_inurba_marseille","lat":43.2668,"lon":5.38271,"is_reserved":false,"is_disabled":false,"rental_uris":{"android":"levelo://app?vid=21bc27a3-f59c-41bd-9268-4abaf4d3511b","ios":"levelo://app?vid=21bc27a3-f59c-41bd-9268-4abaf4d3511b"},"vehicle_type_id":"4","last_reported":1734340295,"current_range_meters":16400,"station_id":"ce4bhg92rcd13ifvqf90","pricing_plan_id":"cebpf4jnsgd1na2vs0mg"},{"bike_id":"5f486793-a49a-4f21-bc98-0d8bc3bc464d","system_id":"levelo_inurba_marseille","lat":43.29043,"lon":5.39953,"is_reserved":false,"is_disabled":false,"rental_uris":{"android":"levelo://app?vid=5f486793-a49a-4f21-bc98-0d8bc3bc464d","ios":"levelo://app?vid=5f486793-a49a-4f21-bc98-0d8bc3bc464d"},"vehicle_type_id":"4","last_reported":1734340295,"current_range_meters":31200,"station_id":"ce4bh392rcd13ifvqdm0","pricing_plan_id":"cebpf4jnsgd1na2vs0mg"},{"bike_id":"64d599a0-e542-4563-ae87-4a9ff44fcddd","system_id":"levelo_inurba_marseille","lat":43.24081,"lon":5.3775,"is_reserved":false,"is_disabled":false,"rental_uris":{"android":"levelo://app?vid=64d599a0-e542-4563-ae87-4a9ff44fcddd","ios":"levelo://app?vid=64d599a0-e542-4563-ae87-4a9ff44fcddd"},"vehicle_type_id":"4","last_reported":1734340295,"current_range_meters":19600,"station_id":"ce4bhnp2rcd13ifvqgvg","pricing_plan_id":"cebpf4jnsgd1na2vs0mg"},{"bike_id":"9d7d7a71-2b6e-4820-a767-f36d03238556","system_id":"levelo_inurba_marseille","lat":43.33615,"lon":5.41032,"is_reserved":false,"is_disabled":false,"rental_uris":{"android":"levelo://app?vid=9d7d7a71-2b6e-4820-a767-f36d03238556","ios":"levelo://app?vid=9d7d7a71-2b6e-4820-a767-f36d03238556"},"vehicle_type_id":"4","last_reported":1734340295,"current_range_meters":38800,"station_id":"ce4bhqh2rcd13ifvqhmg","pricing_plan_id":"cebpf4jnsgd1na2vs0mg"},{"bike_id":"7e274280-7aa7-4637-acc0-a3d35aa69dbf","system_id":"levelo_inurba_marseille","lat":43.25821,"lon":5.39436,"is_reserved":false,"is_disabled":false,"rental_uris":{"android":"levelo://app?vid=7e274280-7aa7-4637-acc0-a3d35aa69dbf","ios":"levelo://app?vid=7e274280-7aa7-4637-acc0-a3d35aa69dbf"},"vehicle_type_id":"4","last_reported":1734340295,"current_range_meters":27600,"station_id":"ce4bhip2rcd13ifvqft0","pricing_plan_id":"cebpf4jnsgd1na2vs0mg"},{"bike_id":"ab6efa45-7726-4b6e-b2b6-a93ec2c5cf3c","system_id":"levelo_inurba_marseille","lat":43.26495,"lon":5.395437,"is_reserved":false,"is_disabled":false,"rental_uris":{"android":"levelo://app?vid=ab6efa45-7726-4b6e-b2b6-a93ec2c5cf3c","ios":"levelo://app?vid=ab6efa45-7726-4b6e-b2b6-a93ec2c5cf3c"},"vehicle_type_id":"4","last_reported":1734340295,"current_range_meters":37600,"station_id":"ce4bhi12rcd13ifvqfq0","pricing_plan_id":"cebpf4jnsgd1na2vs0mg"},{"bike_id":"6877a4f6-c72e-46bf-b59e-8121638d736a","system_id":"levelo_inurba_marseille","lat":43.29518,"lon":5.39034,"is_reserved":false,"is_disabled":false,"rental_uris":{"android":"levelo://app?vid=6877a4f6-c72e-46bf-b59e-8121638d736a","ios":"levelo://app?vid=6877a4f6-c72e-46bf-b59e-8121638d736a"},"vehicle_type_id":"4","last_reported":1734340295,"current_range_meters":34000,"station_id":"ce4bh3p2rcd13ifvqdp0","pricing_plan_id":"cebpf4jnsgd1na2vs0mg"},{"bike_id":"b103cdff-3824-4aad-bc10-26ceb128587a","system_id":"levelo_inurba_marseille","lat":43.32481,"lon":5.3656,"is_reserved":false,"is_disabled":false,"rental_uris":{"android":"levelo://app?vid=b103cdff-3824-4aad-bc10-26ceb128587a","ios":"levelo://app?vid=b103cdff-3824-4aad-bc10-26ceb128587a"},"vehicle_type_id":"4","last_reported":1734340295,"current_range_meters":30800,"station_id":"ce4bhs12rcd13ifvqhvg","pricing_plan_id":"cebpf4jnsgd1na2vs0mg"},{"bike_id":"c9f6b23e-6d46-4bbd-972a-67493f7c061a","system_id":"levelo_inurba_marseille","lat":43.2952,"lon":5.39048,"is_reserved":false,"is_disabled":false,"rental_uris":{"android":"levelo://app?vid=c9f6b23e-6d46-4bbd-972a-67493f7c061a","ios":"levelo://app?vid=c9f6b23e-6d46-4bbd-972a-67493f7c061a"},"vehicle_type_id":"4","last_reported":1734340295,"current_range_meters":32800,"station_id":"ce4bh3p2rcd13ifvqdp0","pricing_plan_id":"cebpf4jnsgd1na2vs0mg"},{"bike_id":"628d28c7-0d11-4591-b5b9-3892136d0314","system_id":"levelo_inurba_marseille","lat":43.3095,"lon":5.39046,"is_reserved":false,"is_disabled":false,"rental_uris":{"android":"levelo://app?vid=628d28c7-0d11-4591-b5b9-3892136d0314","ios":"levelo://app?vid=628d28c7-0d11-4591-b5b9-3892136d0314"},"vehicle_type_id":"4","last_reported":1734340295,"current_range_meters":36800,"station_id":"ce4bgup2rcd13ifvqco0","pricing_plan_id":"cebpf4jnsgd1na2vs0mg"},{"bike_id":"8f0de3ce-29ae-41a2-ad10-6a7ac8f89380","system_id":"levelo_inurba_marseille","lat":43.26025,"lon":5.37549,"is_reserved":false,"is_disabled":false,"rental_uris":{"android":"levelo://app?vid=8f0de3ce-29ae-41a2-ad10-6a7ac8f89380","ios":"levelo://app?vid=8f0de3ce-29ae-41a2-ad10-6a7ac8f89380"},"vehicle_type_id":"4","last_reported":1734340295,"current_range_meters":37600,"station_id":"ce4bhgh2rcd13ifvqfa0","pricing_plan_id":"cebpf4jnsgd1na2vs0mg"},{"bike_id":"1f02e649-8ae7-4a54-ba10-1881eadd0ab5","system_id":"levelo_inurba_marseille","lat":43.31357,"lon":5.36732,"is_reserved":false,"is_disabled":false,"rental_uris":{"android":"levelo://app?vid=1f02e649-8ae7-4a54-ba10-1881eadd0ab5","ios":"levelo://app?vid=1f02e649-8ae7-4a54-ba10-1881eadd0ab5"},"vehicle_type_id":"4","last_reported":1734340295,"current_range_meters":25600,"station_id":"ce4bgr92rcd13ifvqc6g","pricing_plan_id":"cebpf4jnsgd1na2vs0mg"},{"bike_id":"63267f71-f57e-4768-998b-23d609691575","system_id":"levelo_inurba_marseille","lat":43.24647,"lon":5.38889,"is_reserved":false,"is_disabled":false,"rental_uris":{"android":"levelo://app?vid=63267f71-f57e-4768-998b-23d609691575","ios":"levelo://app?vid=63267f71-f57e-4768-998b-23d609691575"},"vehicle_type_id":"4","last_reported":1734340295,"current_range_meters":23200,"station_id":"ce4bhg12rcd13ifvqf60","pricing_plan_id":"cebpf4jnsgd1na2vs0mg"},{"bike_id":"943de7e3-ee97-4fdd-9536-ae8bf2af6049","system_id":"levelo_inurba_marseille","lat":43.2707,"lon":5.42278,"is_reserved":false,"is_disabled":false,"rental_uris":{"android":"levelo://app?vid=943de7e3-ee97-4fdd-9536-ae8bf2af6049","ios":"levelo://app?vid=943de7e3-ee97-4fdd-9536-ae8bf2af6049"},"vehicle_type_id":"4","last_reported":1734340295,"current_range_meters":20000,"station_id":"ce4bhk92rcd13ifvqgb0","pricing_plan_id":"cebpf4jnsgd1na2vs0mg"},{"bike_id":"03c1ead9-0a04-4e8d-8d49-aa07ab102021","system_id":"levelo_inurba_marseille","lat":43.320416,"lon":5.415407,"is_reserved":false,"is_disabled":false,"rental_uris":{"android":"levelo://app?vid=03c1ead9-0a04-4e8d-8d49-aa07ab102021","ios":"levelo://app?vid=03c1ead9-0a04-4e8d-8d49-aa07ab102021"},"vehicle_type_id":"4","last_reported":1734340295,"current_range_meters":32000,"station_id":"ce4bhq92rcd13ifvqhkg","pricing_plan_id":"cebpf4jnsgd1na2vs0mg"},{"bike_id":"6debaf91-8152-484f-a1f1-eb4536c66819","system_id":"levelo_inurba_marseille","lat":43.30276,"lon":5.37718,"is_reserved":false,"is_disabled":false,"rental_uris":{"android":"levelo://app?vid=6debaf91-8152-484f-a1f1-eb4536c66819","ios":"levelo://app?vid=6debaf91-8152-484f-a1f1-eb4536c66819"},"vehicle_type_id":"4","last_reported":1734340295,"current_range_meters":26000,"station_id":"ce4bguh2rcd13ifvqcj0","pricing_plan_id":"cebpf4jnsgd1na2vs0mg"},{"bike_id":"e500e021-5cd7-4fa8-b172-c2276c26aaf4","system_id":"levelo_inurba_marseille","lat":43.29684,"lon":5.37291,"is_reserved":false,"is_disabled":false,"rental_uris":{"android":"levelo://app?vid=e500e021-5cd7-4fa8-b172-c2276c26aaf4","ios":"levelo://app?vid=e500e021-5cd7-4fa8-b172-c2276c26aaf4"},"vehicle_type_id":"4","last_reported":1734340295,"current_range_meters":35600,"station_id":"ce4bgk12rcd13ifvqbj0","pricing_plan_id":"cebpf4jnsgd1na2vs0mg"},{"bike_id":"f3df6490-988e-4899-a172-3839bc6887bc","system_id":"levelo_inurba_marseille","lat":43.29578,"lon":5.36737,"is_reserved":false,"is_disabled":false,"rental_uris":{"android":"levelo://app?vid=f3df6490-988e-4899-a172-3839bc6887bc","ios":"levelo://app?vid=f3df6490-988e-4899-a172-3839bc6887bc"},"vehicle_type_id":"4","last_reported":1734340295,"current_range_meters":27200,"station_id":"ce4bgph2rcd13ifvqc2g","pricing_plan_id":"cebpf4jnsgd1na2vs0mg"},{"bike_id":"ea4cccf5-fd51-46fb-baee-a868b166f146","system_id":"levelo_inurba_marseille","lat":43.31222,"lon":5.36875,"is_reserved":false,"is_disabled":false,"rental_uris":{"android":"levelo://app?vid=ea4cccf5-fd51-46fb-baee-a868b166f146","ios":"levelo://app?vid=ea4cccf5-fd51-46fb-baee-a868b166f146"},"vehicle_type_id":"4","last_reported":1734340295,"current_range_meters":27200,"station_id":"ce4bgl92rcd13ifvqbq0","pricing_plan_id":"cebpf4jnsgd1na2vs0mg"},{"bike_id":"869f8fc4-6ab5-4cd0-a86d-35cce5246f07","system_id":"levelo_inurba_marseille","lat":43.29621,"lon":5.3772,"is_reserved":false,"is_disabled":false,"rental_uris":{"android":"levelo://app?vid=869f8fc4-6ab5-4cd0-a86d-35cce5246f07","ios":"levelo://app?vid=869f8fc4-6ab5-4cd0-a86d-35cce5246f07"},"vehicle_type_id":"4","last_reported":1734340295,"current_range_meters":14000,"station_id":"ce4bgi92rcd13ifvqb90","pricing_plan_id":"cebpf4jnsgd1na2vs0mg"},{"bike_id":"0a162d1d-6fc8-4065-8327-a8ef918c4e33","system_id":"levelo_inurba_marseille","lat":43.29372,"lon":5.3786,"is_reserved":false,"is_disabled":false,"rental_uris":{"android":"levelo://app?vid=0a162d1d-6fc8-4065-8327-a8ef918c4e33","ios":"levelo://app?vid=0a162d1d-6fc8-4065-8327-a8ef918c4e33"},"vehicle_type_id":"4","last_reported":1734340295,"current_range_meters":36800,"station_id":"ce4bgjh2rcd13ifvqbf0","pricing_plan_id":"cebpf4jnsgd1na2vs0mg"},{"bike_id":"cc9cdc5c-3a31-44ad-969a-0a000eb33482","system_id":"levelo_inurba_marseille","lat":43.30271,"lon":5.37701,"is_reserved":false,"is_disabled":false,"rental_uris":{"android":"levelo://app?vid=cc9cdc5c-3a31-44ad-969a-0a000eb33482","ios":"levelo://app?vid=cc9cdc5c-3a31-44ad-969a-0a000eb33482"},"vehicle_type_id":"4","last_reported":1734340295,"current_range_meters":36800,"station_id":"ce4bguh2rcd13ifvqcj0","pricing_plan_id":"cebpf4jnsgd1na2vs0mg"},{"bike_id":"29316ae7-cf0b-42af-8bfc-7c7cb36e4b15","system_id":"levelo_inurba_marseille","lat":43.29846,"lon":5.36285,"is_reserved":false,"is_disabled":false,"rental_uris":{"android":"levelo://app?vid=29316ae7-cf0b-42af-8bfc-7c7cb36e4b15","ios":"levelo://app?vid=29316ae7-cf0b-42af-8bfc-7c7cb36e4b15"},"vehicle_type_id":"4","last_reported":1734340295,"current_range_meters":13600,"station_id":"ce4bgpp2rcd13ifvqc3g","pricing_plan_id":"cebpf4jnsgd1na2vs0mg"},{"bike_id":"3529bbd0-d4c3-4a8a-b03f-5ae24b3721b3","system_id":"levelo_inurba_marseille","lat":43.29572,"lon":5.37518,"is_reserved":false,"is_disabled":false,"rental_uris":{"android":"levelo://app?vid=3529bbd0-d4c3-4a8a-b03f-5ae24b3721b3","ios":"levelo://app?vid=3529bbd0-d4c3-4a8a-b03f-5ae24b3721b3"},"vehicle_type_id":"4","last_reported":1734340295,"current_range_meters":22400,"station_id":"ce4bgh92rcd13ifvqb50","pricing_plan_id":"cebpf4jnsgd1na2vs0mg"},{"bike_id":"be46789e-5008-42aa-8eaf-4c18270d8328","system_id":"levelo_inurba_marseille","lat":43.33772,"lon":5.37422,"is_reserved":false,"is_disabled":true,"rental_uris":{"android":"levelo://app?vid=be46789e-5008-42aa-8eaf-4c18270d8328","ios":"levelo://app?vid=be46789e-5008-42aa-8eaf-4c18270d8328"},