{"last_updated":1778758918,"ttl":60,"version":"2.2","data":{"bikes":[{"bike_id":"7076757c-102e-4b9a-8844-ed202ef3c20c","system_id":"levelo_inurba_marseille","lat":43.28498,"lon":5.4839,"is_reserved":false,"is_disabled":false,"rental_uris":{"android":"levelo://app?vid=7076757c-102e-4b9a-8844-ed202ef3c20c","ios":"levelo://app?vid=7076757c-102e-4b9a-8844-ed202ef3c20c"},"vehicle_type_id":"4","last_reported":1778758919,"current_range_meters":2800,"station_id":"st_d3svhcjqgbts73a3dn0g","pricing_plan_id":"cebpf4jnsgd1na2vs0mg"},{"bike_id":"55e6840f-d0aa-455d-8fef-5561b1affdcf","system_id":"levelo_inurba_marseille","lat":43.285737,"lon":5.394995,"is_reserved":false,"is_disabled":false,"rental_uris":{"android":"levelo://app?vid=55e6840f-d0aa-455d-8fef-5561b1affdcf","ios":"levelo://app?vid=55e6840f-d0aa-455d-8fef-5561b1affdcf"},"vehicle_type_id":"4","last_reported":1778758919,"current_range_meters":2800,"station_id":"ce4bh292rcd13ifvqdg0","pricing_plan_id":"cebpf4jnsgd1na2vs0mg"},{"bike_id":"55575535-2d5b-40c7-a495-9ae194b84263","system_id":"levelo_inurba_marseille","lat":43.29734,"lon":5.43756,"is_reserved":false,"is_disabled":false,"rental_uris":{"android":"levelo://app?vid=55575535-2d5b-40c7-a495-9ae194b84263","ios":"levelo://app?vid=55575535-2d5b-40c7-a495-9ae194b84263"},"vehicle_type_id":"4","last_reported":1778758919,"current_range_meters":2800,"station_id":"","pricing_plan_id":"cebpf4jnsgd1na2vs0mg"},{"bike_id":"1b92dc77-fa37-4622-8e11-1fa6fd28c9b8","system_id":"levelo_inurba_marseille","lat":43.31334,"lon":5.3967,"is_reserved":false,"is_disabled":false,"rental_uris":{"android":"levelo://app?vid=1b92dc77-fa37-4622-8e11-1fa6fd28c9b8","ios":"levelo://app?vid=1b92dc77-fa37-4622-8e11-1fa6fd28c9b8"},"vehicle_type_id":"4","last_reported":1778758919,"current_range_meters":2800,"station_id":"ce4bgvp2rcd13ifvqcu0","pricing_plan_id":"cebpf4jnsgd1na2vs0mg"},{"bike_id":"0f37d688-46c0-4558-9b09-89bb1915d2b6","system_id":"levelo_inurba_marseille","lat":43.33549,"lon":5.37471,"is_reserved":false,"is_disabled":false,"rental_uris":{"android":"levelo://app?vid=0f37d688-46c0-4558-9b09-89bb1915d2b6","ios":"levelo://app?vid=0f37d688-46c0-4558-9b09-89bb1915d2b6"},"vehicle_type_id":"4","last_reported":1778758919,"current_range_meters":2800,"station_id":"st_d46tts09ee8s73dlu43g","pricing_plan_id":"cebpf4jnsgd1na2vs0mg"},{"bike_id":"405f1dbf-c088-4880-9365-03325b4d46a5","system_id":"levelo_inurba_marseille","lat":43.28,"lon":5.39994,"is_reserved":false,"is_disabled":true,"rental_uris":{"android":"levelo://app?vid=405f1dbf-c088-4880-9365-03325b4d46a5","ios":"levelo://app?vid=405f1dbf-c088-4880-9365-03325b4d46a5"},"vehicle_type_id":"4","last_reported":1778758919,"current_range_meters":3200,"station_id":"ce4bho92rcd13ifvqh4g","pricing_plan_id":"cebpf4jnsgd1na2vs0mg"},{"bike_id":"c31a9f30-c5f7-47aa-b43b-03ab56ffab43","system_id":"levelo_inurba_marseille","lat":43.2759,"lon":5.38399,"is_reserved":false,"is_disabled":false,"rental_uris":{"android":"levelo://app?vid=c31a9f30-c5f7-47aa-b43b-03ab56ffab43","ios":"levelo://app?vid=c31a9f30-c5f7-47aa-b43b-03ab56ffab43"},"vehicle_type_id":"4","last_reported":1778758919,"current_range_meters":3200,"station_id":"ce4bhh92rcd13ifvqfi0","pricing_plan_id":"cebpf4jnsgd1na2vs0mg"},{"bike_id":"7ae14a6e-d572-4e6c-8b2b-e642bedcdea9","system_id":"levelo_inurba_marseille","lat":43.2965,"lon":5.40581,"is_reserved":false,"is_disabled":false,"rental_uris":{"android":"levelo://app?vid=7ae14a6e-d572-4e6c-8b2b-e642bedcdea9","ios":"levelo://app?vid=7ae14a6e-d572-4e6c-8b2b-e642bedcdea9"},"vehicle_type_id":"4","last_reported":1778758919,"current_range_meters":3200,"station_id":"ce4bh0h2rcd13ifvqd60","pricing_plan_id":"cebpf4jnsgd1na2vs0mg"},{"bike_id":"6ce04484-367d-4291-bbc2-5eb175fe090e","system_id":"levelo_inurba_marseille","lat":43.29267,"lon":5.37603,"is_reserved":false,"is_disabled":false,"rental_uris":{"android":"levelo://app?vid=6ce04484-367d-4291-bbc2-5eb175fe090e","ios":"levelo://app?vid=6ce04484-367d-4291-bbc2-5eb175fe090e"},"vehicle_type_id":"4","last_reported":1778758919,"current_range_meters":3200,"station_id":"ce4bgi12rcd13ifvqb80","pricing_plan_id":"cebpf4jnsgd1na2vs0mg"},{"bike_id":"aa3f6d5a-caf7-4884-92ce-12eb0b9c9e82","system_id":"levelo_inurba_marseille","lat":43.28032,"lon":5.39314,"is_reserved":false,"is_disabled":false,"rental_uris":{"android":"levelo://app?vid=aa3f6d5a-caf7-4884-92ce-12eb0b9c9e82","ios":"levelo://app?vid=aa3f6d5a-caf7-4884-92ce-12eb0b9c9e82"},"vehicle_type_id":"4","last_reported":1778758919,"current_range_meters":3200,"station_id":"","pricing_plan_id":"cebpf4jnsgd1na2vs0mg"},{"bike_id":"eb778b7f-d6bc-49a0-94fa-f96e2976ee7d","system_id":"levelo_inurba_marseille","lat":43.25655,"lon":5.42007,"is_reserved":false,"is_disabled":false,"rental_uris":{"android":"levelo://app?vid=eb778b7f-d6bc-49a0-94fa-f96e2976ee7d","ios":"levelo://app?vid=eb778b7f-d6bc-49a0-94fa-f96e2976ee7d"},"vehicle_type_id":"4","last_reported":1778758919,"current_range_meters":3200,"station_id":"","pricing_plan_id":"cebpf4jnsgd1na2vs0mg"},{"bike_id":"30388078-cd88-4dde-9070-5a1bdfc97cfb","system_id":"levelo_inurba_marseille","lat":43.31122,"lon":5.39491,"is_reserved":false,"is_disabled":false,"rental_uris":{"android":"levelo://app?vid=30388078-cd88-4dde-9070-5a1bdfc97cfb","ios":"levelo://app?vid=30388078-cd88-4dde-9070-5a1bdfc97cfb"},"vehicle_type_id":"4","last_reported":1778758919,"current_range_meters":3600,"station_id":"","pricing_plan_id":"cebpf4jnsgd1na2vs0mg"},{"bike_id":"c00153b8-9d2a-44bd-9652-fadbf9359cf2","system_id":"levelo_inurba_marseille","lat":43.29468,"lon":5.43313,"is_reserved":false,"is_disabled":false,"rental_uris":{"android":"levelo://app?vid=c00153b8-9d2a-44bd-9652-fadbf9359cf2","ios":"levelo://app?vid=c00153b8-9d2a-44bd-9652-fadbf9359cf2"},"vehicle_type_id":"4","last_reported":1778758919,"current_range_meters":3600,"station_id":"st_d3j5ugp08ojc73fj9d10","pricing_plan_id":"cebpf4jnsgd1na2vs0mg"},{"bike_id":"e52cfb58-ced3-42f9-9f83-d479cf0887d6","system_id":"levelo_inurba_marseille","lat":43.282781,"lon":5.350585,"is_reserved":false,"is_disabled":false,"rental_uris":{"android":"levelo://app?vid=e52cfb58-ced3-42f9-9f83-d479cf0887d6","ios":"levelo://app?vid=e52cfb58-ced3-42f9-9f83-d479cf0887d6"},"vehicle_type_id":"4","last_reported":1778758919,"current_range_meters":3600,"station_id":"ce4bhbp2rcd13ifvqerg","pricing_plan_id":"cebpf4jnsgd1na2vs0mg"},{"bike_id":"48066121-841a-4b69-bb96-5a67813041e0","system_id":"levelo_inurba_marseille","lat":43.2869,"lon":5.46679,"is_reserved":false,"is_disabled":false,"rental_uris":{"android":"levelo://app?vid=48066121-841a-4b69-bb96-5a67813041e0","ios":"levelo://app?vid=48066121-841a-4b69-bb96-5a67813041e0"},"vehicle_type_id":"4","last_reported":1778758919,"current_range_meters":3600,"station_id":"st_d6tc3vkotcvc738tfjhg","pricing_plan_id":"cebpf4jnsgd1na2vs0mg"},{"bike_id":"199aff18-7bf3-4b5f-a786-739bc9a3c6ac","system_id":"levelo_inurba_marseille","lat":43.26239,"lon":5.3875,"is_reserved":false,"is_disabled":false,"rental_uris":{"android":"levelo://app?vid=199aff18-7bf3-4b5f-a786-739bc9a3c6ac","ios":"levelo://app?vid=199aff18-7bf3-4b5f-a786-739bc9a3c6ac"},"vehicle_type_id":"4","last_reported":1778758919,"current_range_meters":3600,"station_id":"","pricing_plan_id":"cebpf4jnsgd1na2vs0mg"},{"bike_id":"4660d09c-3d67-4691-b901-cf7c81798d2c","system_id":"levelo_inurba_marseille","lat":43.2748,"lon":5.4155,"is_reserved":false,"is_disabled":false,"rental_uris":{"android":"levelo://app?vid=4660d09c-3d67-4691-b901-cf7c81798d2c","ios":"levelo://app?vid=4660d09c-3d67-4691-b901-cf7c81798d2c"},"vehicle_type_id":"4","last_reported":1778758919,"current_range_meters":3600,"station_id":"st_d6im8g6chgec73a5pndg","pricing_plan_id":"cebpf4jnsgd1na2vs0mg"},{"bike_id":"805de22b-1219-4f85-96ef-75e6cd60b5f0","system_id":"levelo_inurba_marseille","lat":43.25579,"lon":5.38248,"is_reserved":false,"is_disabled":false,"rental_uris":{"android":"levelo://app?vid=805de22b-1219-4f85-96ef-75e6cd60b5f0","ios":"levelo://app?vid=805de22b-1219-4f85-96ef-75e6cd60b5f0"},"vehicle_type_id":"4","last_reported":1778758919,"current_range_meters":3600,"station_id":"ce4bhih2rcd13ifvqfs0","pricing_plan_id":"cebpf4jnsgd1na2vs0mg"},{"bike_id":"5fb8929d-8102-448c-b915-edd3a3b92015","system_id":"levelo_inurba_marseille","lat":43.33104,"lon":5.37795,"is_reserved":false,"is_disabled":false,"rental_uris":{"android":"levelo://app?vid=5fb8929d-8102-448c-b915-edd3a3b92015","ios":"levelo://app?vid=5fb8929d-8102-448c-b915-edd3a3b92015"},"vehicle_type_id":"4","last_reported":1778758919,"current_range_meters":3600,"station_id":"st_d46cu089ee8s73dldbu0","pricing_plan_id":"cebpf4jnsgd1na2vs0mg"},{"bike_id":"7f719324-2a51-47b9-8d2d-6745cde09cd4","system_id":"levelo_inurba_marseille","lat":43.29553,"lon":5.3753,"is_reserved":false,"is_disabled":false,"rental_uris":{"android":"levelo://app?vid=7f719324-2a51-47b9-8d2d-6745cde09cd4","ios":"levelo://app?vid=7f719324-2a51-47b9-8d2d-6745cde09cd4"},"vehicle_type_id":"4","last_reported":1778758919,"current_range_meters":3600,"station_id":"ce4bgh92rcd13ifvqb50","pricing_plan_id":"cebpf4jnsgd1na2vs0mg"},{"bike_id":"844741a2-f80e-4514-aadd-d1fe2ac89ebf","system_id":"levelo_inurba_marseille","lat":43.22909,"lon":5.3536,"is_reserved":false,"is_disabled":false,"rental_uris":{"android":"levelo://app?vid=844741a2-f80e-4514-aadd-d1fe2ac89ebf","ios":"levelo://app?vid=844741a2-f80e-4514-aadd-d1fe2ac89ebf"},"vehicle_type_id":"4","last_reported":1778758919,"current_range_meters":4000,"station_id":"cpo3532slgdg3j2ikp40","pricing_plan_id":"cebpf4jnsgd1na2vs0mg"},{"bike_id":"3e9a1ab0-bd4b-424d-b87d-449c5abb852e","system_id":"levelo_inurba_marseille","lat":43.21744,"lon":5.34597,"is_reserved":false,"is_disabled":false,"rental_uris":{"android":"levelo://app?vid=3e9a1ab0-bd4b-424d-b87d-449c5abb852e","ios":"levelo://app?vid=3e9a1ab0-bd4b-424d-b87d-449c5abb852e"},"vehicle_type_id":"4","last_reported":1778758919,"current_range_meters":4000,"station_id":"st_cvj6r9ubvosntc0bgbag","pricing_plan_id":"cebpf4jnsgd1na2vs0mg"},{"bike_id":"e5c2ab26-5f82-4211-9184-2be8518d941d","system_id":"levelo_inurba_marseille","lat":43.2512,"lon":5.40316,"is_reserved":false,"is_disabled":false,"rental_uris":{"android":"levelo://app?vid=e5c2ab26-5f82-4211-9184-2be8518d941d","ios":"levelo://app?vid=e5c2ab26-5f82-4211-9184-2be8518d941d"},"vehicle_type_id":"4","last_reported":1778758919,"current_range_meters":4000,"station_id":"ce4bhlh2rcd13ifvqgig","pricing_plan_id":"cebpf4jnsgd1na2vs0mg"},{"bike_id":"bbc3c688-839a-4272-ba0f-bd3ff2fd5e51","system_id":"levelo_inurba_marseille","lat":43.29892,"lon":5.42083,"is_reserved":false,"is_disabled":false,"rental_uris":{"android":"levelo://app?vid=bbc3c688-839a-4272-ba0f-bd3ff2fd5e51","ios":"levelo://app?vid=bbc3c688-839a-4272-ba0f-bd3ff2fd5e51"},"vehicle_type_id":"4","last_reported":1778758919,"current_range_meters":4000,"station_id":"st_d6tc004otcvc738tfe70","pricing_plan_id":"cebpf4jnsgd1na2vs0mg"},{"bike_id":"95c02ffd-d429-4bb4-9cec-b7834d99f0f6","system_id":"levelo_inurba_marseille","lat":43.33162,"lon":5.3768,"is_reserved":false,"is_disabled":false,"rental_uris":{"android":"levelo://app?vid=95c02ffd-d429-4bb4-9cec-b7834d99f0f6","ios":"levelo://app?vid=95c02ffd-d429-4bb4-9cec-b7834d99f0f6"},"vehicle_type_id":"4","last_reported":1778758919,"current_range_meters":4000,"station_id":"st_d46cu089ee8s73dldbu0","pricing_plan_id":"cebpf4jnsgd1na2vs0mg"},{"bike_id":"43a06db5-04b5-4a22-9e6f-f46b3fa2bbc7","system_id":"levelo_inurba_marseille","lat":43.32107,"lon":5.36774,"is_reserved":false,"is_disabled":false,"rental_uris":{"android":"levelo://app?vid=43a06db5-04b5-4a22-9e6f-f46b3fa2bbc7","ios":"levelo://app?vid=43a06db5-04b5-4a22-9e6f-f46b3fa2bbc7"},"vehicle_type_id":"4","last_reported":1778758919,"current_range_meters":4000,"station_id":"ce4bhrh2rcd13ifvqhug","pricing_plan_id":"cebpf4jnsgd1na2vs0mg"},{"bike_id":"722beec0-55ac-459f-b24a-c8234b6cbe9e","system_id":"levelo_inurba_marseille","lat":43.298023,"lon":5.381142,"is_reserved":false,"is_disabled":false,"rental_uris":{"android":"levelo://app?vid=722beec0-55ac-459f-b24a-c8234b6cbe9e","ios":"levelo://app?vid=722beec0-55ac-459f-b24a-c8234b6cbe9e"},"vehicle_type_id":"4","last_reported":1778758919,"current_range_meters":4000,"station_id":"ce4bgip2rcd13ifvqbb0","pricing_plan_id":"cebpf4jnsgd1na2vs0mg"},{"bike_id":"6d21e7ef-3ef9-4f0a-85e3-96eaf28ae7d3","system_id":"levelo_inurba_marseille","lat":43.22536,"lon":5.3483,"is_reserved":false,"is_disabled":false,"rental_uris":{"android":"levelo://app?vid=6d21e7ef-3ef9-4f0a-85e3-96eaf28ae7d3","ios":"levelo://app?vid=6d21e7ef-3ef9-4f0a-85e3-96eaf28ae7d3"},"vehicle_type_id":"4","last_reported":1778758919,"current_range_meters":4000,"station_id":"st_cvj5dfep6f1abm77gieg","pricing_plan_id":"cebpf4jnsgd1na2vs0mg"},{"bike_id":"3aae10cd-75fe-4e11-8bbf-c16337bfe95b","system_id":"levelo_inurba_marseille","lat":43.29278,"lon":5.3763,"is_reserved":false,"is_disabled":false,"rental_uris":{"android":"levelo://app?vid=3aae10cd-75fe-4e11-8bbf-c16337bfe95b","ios":"levelo://app?vid=3aae10cd-75fe-4e11-8bbf-c16337bfe95b"},"vehicle_type_id":"4","last_reported":1778758919,"current_range_meters":4000,"station_id":"ce4bgi12rcd13ifvqb80","pricing_plan_id":"cebpf4jnsgd1na2vs0mg"},{"bike_id":"0ddd1a44-6a20-4f20-87bb-54f6dbe51696","system_id":"levelo_inurba_marseille","lat":43.31744,"lon":5.402,"is_reserved":false,"is_disabled":false,"rental_uris":{"android":"levelo://app?vid=0ddd1a44-6a20-4f20-87bb-54f6dbe51696","ios":"levelo://app?vid=0ddd1a44-6a20-4f20-87bb-54f6dbe51696"},"vehicle_type_id":"4","last_reported":1778758919,"current_range_meters":4000,"station_id":"","pricing_plan_id":"cebpf4jnsgd1na2vs0mg"},{"bike_id":"e0e3f93f-16e8-4b39-b089-98387a4c334d","system_id":"levelo_inurba_marseille","lat":43.33543,"lon":5.37463,"is_reserved":false,"is_disabled":false,"rental_uris":{"android":"levelo://app?vid=e0e3f93f-16e8-4b39-b089-98387a4c334d","ios":"levelo://app?vid=e0e3f93f-16e8-4b39-b089-98387a4c334d"},"vehicle_type_id":"4","last_reported":1778758919,"current_range_meters":4000,"station_id":"st_d46tts09ee8s73dlu43g","pricing_plan_id":"cebpf4jnsgd1na2vs0mg"},{"bike_id":"a9b08a9e-aa19-4588-8ccd-1718e12e7820","system_id":"levelo_inurba_marseille","lat":43.26842,"lon":5.39415,"is_reserved":false,"is_disabled":false,"rental_uris":{"android":"levelo://app?vid=a9b08a9e-aa19-4588-8ccd-1718e12e7820","ios":"levelo://app?vid=a9b08a9e-aa19-4588-8ccd-1718e12e7820"},"vehicle_type_id":"4","last_reported":1778758919,"current_range_meters":4000,"station_id":"ce4bhh12rcd13ifvqfg0","pricing_plan_id":"cebpf4jnsgd1na2vs0mg"},{"bike_id":"1e3fe78b-f3cd-4a10-8af5-05207fec8e41","system_id":"levelo_inurba_marseille","lat":43.29966,"lon":5.38501,"is_reserved":false,"is_disabled":false,"rental_uris":{"android":"levelo://app?vid=1e3fe78b-f3cd-4a10-8af5-05207fec8e41","ios":"levelo://app?vid=1e3fe78b-f3cd-4a10-8af5-05207fec8e41"},"vehicle_type_id":"4","last_reported":1778758919,"current_range_meters":4000,"station_id":"ce4bgj92rcd13ifvqbd0","pricing_plan_id":"cebpf4jnsgd1na2vs0mg"},{"bike_id":"23dd7e9d-979a-4281-b8ae-d54103af534b","system_id":"levelo_inurba_marseille","lat":43.25816,"lon":5.39413,"is_reserved":false,"is_disabled":false,"rental_uris":{"android":"levelo://app?vid=23dd7e9d-979a-4281-b8ae-d54103af534b","ios":"levelo://app?vid=23dd7e9d-979a-4281-b8ae-d54103af534b"},"vehicle_type_id":"4","last_reported":1778758919,"current_range_meters":4000,"station_id":"ce4bhip2rcd13ifvqft0","pricing_plan_id":"cebpf4jnsgd1na2vs0mg"},{"bike_id":"a69bbb17-e904-4bbe-b1a6-d8e7b08362c7","system_id":"levelo_inurba_marseille","lat":43.23988,"lon":5.39917,"is_reserved":false,"is_disabled":false,"rental_uris":{"android":"levelo://app?vid=a69bbb17-e904-4bbe-b1a6-d8e7b08362c7","ios":"levelo://app?vid=a69bbb17-e904-4bbe-b1a6-d8e7b08362c7"},"vehicle_type_id":"4","last_reported":1778758919,"current_range_meters":4400,"station_id":"","pricing_plan_id":"cebpf4jnsgd1na2vs0mg"},{"bike_id":"92ab43c4-65a8-40ad-9026-0da4c99cc465","system_id":"levelo_inurba_marseille","lat":43.25906,"lon":5.40512,"is_reserved":false,"is_disabled":false,"rental_uris":{"android":"levelo://app?vid=92ab43c4-65a8-40ad-9026-0da4c99cc465","ios":"levelo://app?vid=92ab43c4-65a8-40ad-9026-0da4c99cc465"},"vehicle_type_id":"4","last_reported":1778758919,"current_range_meters":4400,"station_id":"","pricing_plan_id":"cebpf4jnsgd1na2vs0mg"},{"bike_id":"b5002c68-df2a-45be-bb71-4a0d43a52980","system_id":"levelo_inurba_marseille","lat":43.3114,"lon":5.37749,"is_reserved":false,"is_disabled":false,"rental_uris":{"android":"levelo://app?vid=b5002c68-df2a-45be-bb71-4a0d43a52980","ios":"levelo://app?vid=b5002c68-df2a-45be-bb71-4a0d43a52980"},"vehicle_type_id":"4","last_reported":1778758919,"current_range_meters":4400,"station_id":"ce4bgt92rcd13ifvqcg0","pricing_plan_id":"cebpf4jnsgd1na2vs0mg"},{"bike_id":"10ea7793-89fc-4210-8abc-ada687913ea7","system_id":"levelo_inurba_marseille","lat":43.321,"lon":5.36785,"is_reserved":false,"is_disabled":false,"rental_uris":{"android":"levelo://app?vid=10ea7793-89fc-4210-8abc-ada687913ea7","ios":"levelo://app?vid=10ea7793-89fc-4210-8abc-ada687913ea7"},"vehicle_type_id":"4","last_reported":1778758919,"current_range_meters":4400,"station_id":"ce4bhrh2rcd13ifvqhug","pricing_plan_id":"cebpf4jnsgd1na2vs0mg"},{"bike_id":"36606052-1c3a-4693-b343-56bc75b8bf4f","system_id":"levelo_inurba_marseille","lat":43.27366,"lon":5.36246,"is_reserved":false,"is_disabled":false,"rental_uris":{"android":"levelo://app?vid=36606052-1c3a-4693-b343-56bc75b8bf4f","ios":"levelo://app?vid=36606052-1c3a-4693-b343-56bc75b8bf4f"},"vehicle_type_id":"4","last_reported":1778758919,"current_range_meters":4400,"station_id":"ce4bhbh2rcd13ifvqeo0","pricing_plan_id":"cebpf4jnsgd1na2vs0mg"},{"bike_id":"f7b71e8a-de3b-4d59-8cbd-1c1ed6357a73","system_id":"levelo_inurba_marseille","lat":43.26922,"lon":5.40254,"is_reserved":false,"is_disabled":true,"rental_uris":{"android":"levelo://app?vid=f7b71e8a-de3b-4d59-8cbd-1c1ed6357a73","ios":"levelo://app?vid=f7b71e8a-de3b-4d59-8cbd-1c1ed6357a73"},"vehicle_type_id":"4","last_reported":1778758919,"current_range_meters":4400,"station_id":"cjm6bp8fraef2m0cb0m0","pricing_plan_id":"cebpf4jnsgd1na2vs0mg"},{"bike_id":"85c4beb0-759e-43b8-96d0-4a792eb6f9e1","system_id":"levelo_inurba_marseille","lat":43.24816,"lon":5.37451,"is_reserved":false,"is_disabled":false,"rental_uris":{"android":"levelo://app?vid=85c4beb0-759e-43b8-96d0-4a792eb6f9e1","ios":"levelo://app?vid=85c4beb0-759e-43b8-96d0-4a792eb6f9e1"},"vehicle_type_id":"4","last_reported":1778758919,"current_range_meters":4400,"station_id":"ce4bhgh2rcd13ifvqfb0","pricing_plan_id":"cebpf4jnsgd1na2vs0mg"},{"bike_id":"31ece05a-75e8-496e-82f0-3b8d5b3a3ef3","system_id":"levelo_inurba_marseille","lat":43.28531,"lon":5.44091,"is_reserved":false,"is_disabled":false,"rental_uris":{"android":"levelo://app?vid=31ece05a-75e8-496e-82f0-3b8d5b3a3ef3","ios":"levelo://app?vid=31ece05a-75e8-496e-82f0-3b8d5b3a3ef3"},"vehicle_type_id":"4","last_reported":1778758919,"current_range_meters":4400,"station_id":"st_d3j3df2ikq2c7380ej80","pricing_plan_id":"cebpf4jnsgd1na2vs0mg"},{"bike_id":"1dee72ea-cbbb-4f0f-b373-7962e2bff9d2","system_id":"levelo_inurba_marseille","lat":43.24638,"lon":5.38962,"is_reserved":false,"is_disabled":false,"rental_uris":{"android":"levelo://app?vid=1dee72ea-cbbb-4f0f-b373-7962e2bff9d2","ios":"levelo://app?vid=1dee72ea-cbbb-4f0f-b373-7962e2bff9d2"},"vehicle_type_id":"4","last_reported":1778758919,"current_range_meters":4400,"station_id":"","pricing_plan_id":"cebpf4jnsgd1na2vs0mg"},{"bike_id":"6206d17b-cf9d-41b3-a41d-c6052f6a6ce2","system_id":"levelo_inurba_marseille","lat":43.33533,"lon":5.37458,"is_reserved":false,"is_disabled":false,"rental_uris":{"android":"levelo://app?vid=6206d17b-cf9d-41b3-a41d-c6052f6a6ce2","ios":"levelo://app?vid=6206d17b-cf9d-41b3-a41d-c6052f6a6ce2"},"vehicle_type_id":"4","last_reported":1778758919,"current_range_meters":4800,"station_id":"st_d46tts09ee8s73dlu43g","pricing_plan_id":"cebpf4jnsgd1na2vs0mg"},{"bike_id":"3baf60fe-0260-4ac0-9a4d-b71fdd4d99a9","system_id":"levelo_inurba_marseille","lat":43.31669,"lon":5.40501,"is_reserved":false,"is_disabled":false,"rental_uris":{"android":"levelo://app?vid=3baf60fe-0260-4ac0-9a4d-b71fdd4d99a9","ios":"levelo://app?vid=3baf60fe-0260-4ac0-9a4d-b71fdd4d99a9"},"vehicle_type_id":"4","last_reported":1778758919,"current_range_meters":4800,"station_id":"ce4bh012rcd13ifvqd00","pricing_plan_id":"cebpf4jnsgd1na2vs0mg"},{"bike_id":"974155a8-15e9-4961-bf5a-c20f8b52fd28","system_id":"levelo_inurba_marseille","lat":43.31322,"lon":5.3969,"is_reserved":false,"is_disabled":false,"rental_uris":{"android":"levelo://app?vid=974155a8-15e9-4961-bf5a-c20f8b52fd28","ios":"levelo://app?vid=974155a8-15e9-4961-bf5a-c20f8b52fd28"},"vehicle_type_id":"4","last_reported":1778758919,"current_range_meters":4800,"station_id":"ce4bgvp2rcd13ifvqcu0","pricing_plan_id":"cebpf4jnsgd1na2vs0mg"},{"bike_id":"5eb0b80a-cdad-4426-9a8a-07687e4cbd6b","system_id":"levelo_inurba_marseille","lat":43.26229,"lon":5.37467,"is_reserved":false,"is_disabled":false,"rental_uris":{"android":"levelo://app?vid=5eb0b80a-cdad-4426-9a8a-07687e4cbd6b","ios":"levelo://app?vid=5eb0b80a-cdad-4426-9a8a-07687e4cbd6b"},"vehicle_type_id":"4","last_reported":1778758919,"current_range_meters":4800,"station_id":"","pricing_plan_id":"cebpf4jnsgd1na2vs0mg"},{"bike_id":"7131301d-beb3-473d-b8bf-2f1fa175d1da","system_id":"levelo_inurba_marseille","lat":43.2417,"lon":5.36389,"is_reserved":false,"is_disabled":false,"rental_uris":{"android":"levelo://app?vid=7131301d-beb3-473d-b8bf-2f1fa175d1da","ios":"levelo://app?vid=7131301d-beb3-473d-b8bf-2f1fa175d1da"},"vehicle_type_id":"4","last_reported":1778758919,"current_range_meters":4800,"station_id":"cpo36qri1sfpv3e86is0","pricing_plan_id":"cebpf4jnsgd1na2vs0mg"},{"bike_id":"4751127d-3aa2-446e-8601-6629ed659fa5","system_id":"levelo_inurba_marseille","lat":43.22555,"lon":5.4162,"is_reserved":false,"is_disabled":false,"rental_uris":{"android":"levelo://app?vid=4751127d-3aa2-446e-8601-6629ed659fa5","ios":"levelo://app?vid=4751127d-3aa2-446e-8601-6629ed659fa5"},"vehicle_type_id":"4","last_reported":1778758919,"current_range_meters":4800,"station_id":"st_d2o4gvlbi1j2169b742g","pricing_plan_id":"cebpf4jnsgd1na2vs0mg"},{"bike_id":"74107c3e-4a4b-404c-b3eb-5ce68acb0287","system_id":"levelo_inurba_marseille","lat":43.26232,"lon":5.38758,"is_reserved":false,"is_disabled":false,"rental_uris":{"android":"levelo://app?vid=74107c3e-4a4b-404c-b3eb-5ce68acb0287","ios":"levelo://app?vid=74107c3e-4a4b-404c-b3eb-5ce68acb0287"},"vehicle_type_id":"4","last_reported":1778758919,"current_range_meters":4800,"station_id":"","pricing_plan_id":"cebpf4jnsgd1na2vs0mg"},{"bike_id":"6a19ed57-ac73-42b5-8e17-cb7b62700533","system_id":"levelo_inurba_marseille","lat":43.24659,"lon":5.38151,"is_reserved":false,"is_disabled":false,"rental_uris":{"android":"levelo://app?vid=6a19ed57-ac73-42b5-8e17-cb7b62700533","ios":"levelo://app?vid=6a19ed57-ac73-42b5-8e17-cb7b62700533"},"vehicle_type_id":"4","last_reported":1778758919,"current_range_meters":4800,"station_id":"ce4bhih2rcd13ifvqfr0","pricing_plan_id":"cebpf4jnsgd1na2vs0mg"},{"bike_id":"a74d4fa7-7cfc-4c3c-9d37-386041ab4429","system_id":"levelo_inurba_marseille","lat":43.30644,"lon":5.40097,"is_reserved":false,"is_disabled":false,"rental_uris":{"android":"levelo://app?vid=a74d4fa7-7cfc-4c3c-9d37-386041ab4429","ios":"levelo://app?vid=a74d4fa7-7cfc-4c3c-9d37-386041ab4429"},"vehicle_type_id":"4","last_reported":1778758919,"current_range_meters":4800,"station_id":"ce4bh112rcd13ifvqda0","pricing_plan_id":"cebpf4jnsgd1na2vs0mg"},{"bike_id":"48f88682-07cd-41c9-9472-dc832ca59f26","system_id":"levelo_inurba_marseille","lat":43.28964,"lon":5.37813,"is_reserved":false,"is_disabled":false,"rental_uris":{"android":"levelo://app?vid=48f88682-07cd-41c9-9472-dc832ca59f26","ios":"levelo://app?vid=48f88682-07cd-41c9-9472-dc832ca59f26"},"vehicle_type_id":"4","last_reported":1778758919,"current_range_meters":4800,"station_id":"ce4bh9p2rcd13ifvqed0","pricing_plan_id":"cebpf4jnsgd1na2vs0mg"},{"bike_id":"9b437d8f-b173-4b3c-a864-14876e1d442e","system_id":"levelo_inurba_marseille","lat":43.30148,"lon":5.3809,"is_reserved":false,"is_disabled":false,"rental_uris":{"android":"levelo://app?vid=9b437d8f-b173-4b3c-a864-14876e1d442e","ios":"levelo://app?vid=9b437d8f-b173-4b3c-a864-14876e1d442e"},"vehicle_type_id":"4","last_reported":1778758919,"current_range_meters":5600,"station_id":"ce4bgjp2rcd13ifvqbh0","pricing_plan_id":"cebpf4jnsgd1na2vs0mg"},{"bike_id":"8c213e32-c8d9-4960-bc93-fa01f8be8240","system_id":"levelo_inurba_marseille","lat":43.31095,"lon":5.37205,"is_reserved":false,"is_disabled":false,"rental_uris":{"android":"levelo://app?vid=8c213e32-c8d9-4960-bc93-fa01f8be8240","ios":"levelo://app?vid=8c213e32-c8d9-4960-bc93-fa01f8be8240"},"vehicle_type_id":"4","last_reported":1778758919,"current_range_meters":5600,"station_id":"","pricing_plan_id":"cebpf4jnsgd1na2vs0mg"},{"bike_id":"b010d68e-2434-4145-8078-37d4a28eadfd","system_id":"levelo_inurba_marseille","lat":43.3014,"lon":5.38074,"is_reserved":false,"is_disabled":false,"rental_uris":{"android":"levelo://app?vid=b010d68e-2434-4145-8078-37d4a28eadfd","ios":"levelo://app?vid=b010d68e-2434-4145-8078-37d4a28eadfd"},"vehicle_type_id":"4","last_reported":1778758919,"current_range_meters":5600,"station_id":"ce4bgjp2rcd13ifvqbh0","pricing_plan_id":"cebpf4jnsgd1na2vs0mg"},{"bike_id":"34cc106d-e88f-464c-b290-ce7702652b61","system_id":"levelo_inurba_marseille","lat":43.28981,"lon":5.36402,"is_reserved":false,"is_disabled":false,"rental_uris":{"android":"levelo://app?vid=34cc106d-e88f-464c-b290-ce7702652b61","ios":"levelo://app?vid=34cc106d-e88f-464c-b290-ce7702652b61"},"vehicle_type_id":"4","last_reported":1778758919,"current_range_meters":5600,"station_id":"ce4bhc92rcd13ifvqetg","pricing_plan_id":"cebpf4jnsgd1na2vs0mg"},{"bike_id":"d114d888-eafe-4e27-96ce-84f56d10b9cc","system_id":"levelo_inurba_marseille","lat":43.28588,"lon":5.35083,"is_reserved":false,"is_disabled":false,"rental_uris":{"android":"levelo://app?vid=d114d888-eafe-4e27-96ce-84f56d10b9cc","ios":"levelo://app?vid=d114d888-eafe-4e27-96ce-84f56d10b9cc"},"vehicle_type_id":"4","last_reported":1778758919,"current_range_meters":5600,"station_id":"ce4bhch2rcd13ifvqeug","pricing_plan_id":"cebpf4jnsgd1na2vs0mg"},{"bike_id":"0da6948a-b597-4317-b926-141efbb7181d","system_id":"levelo_inurba_marseille","lat":43.25515,"lon":5.37627,"is_reserved":false,"is_disabled":false,"rental_uris":{"android":"levelo://app?vid=0da6948a-b597-4317-b926-141efbb7181d","ios":"levelo://app?vid=0da6948a-b597-4317-b926-141efbb7181d"},"vehicle_type_id":"4","last_reported":1778758919,"current_range_meters":5600,"station_id":"ce4bhh12rcd13ifvqff0","pricing_plan_id":"cebpf4jnsgd1na2vs0mg"},{"bike_id":"98c592a1-cd6b-45f1-8baa-5a1ce3ca61cd","system_id":"levelo_inurba_marseille","lat":43.2762,"lon":5.36111,"is_reserved":false,"is_disabled":false,"rental_uris":{"android":"levelo://app?vid=98c592a1-cd6b-45f1-8baa-5a1ce3ca61cd","ios":"levelo://app?vid=98c592a1-cd6b-45f1-8baa-5a1ce3ca61cd"},"vehicle_type_id":"4","last_reported":1778758919,"current_range_meters":5600,"station_id":"ce4bgj92rcd13ifvqbe0","pricing_plan_id":"cebpf4jnsgd1na2vs0mg"},{"bike_id":"fe12d910-b50c-4aac-9335-196cbfddb35f","system_id":"levelo_inurba_marseille","lat":43.29978,"lon":5.38475,"is_reserved":false,"is_disabled":false,"rental_uris":{"android":"levelo://app?vid=fe12d910-b50c-4aac-9335-196cbfddb35f","ios":"levelo://app?vid=fe12d910-b50c-4aac-9335-196cbfddb35f"},"vehicle_type_id":"4","last_reported":1778758919,"current_range_meters":5600,"station_id":"ce4bgj92rcd13ifvqbd0","pricing_plan_id":"cebpf4jnsgd1na2vs0mg"},{"bike_id":"e6af4dfe-7a13-4929-ac71-9d3454a95813","system_id":"levelo_inurba_marseille","lat":43.27221,"lon":5.39194,"is_reserved":false,"is_disabled":true,"rental_uris":{"android":"levelo://app?vid=e6af4dfe-7a13-4929-ac71-9d3454a95813","ios":"levelo://app?vid=e6af4dfe-7a13-4929-ac71-9d3454a95813"},"vehicle_type_id":"4","last_reported":1778758919,"current_range_meters":5600,"station_id":"ce4bhhp2rcd13ifvqfm0","pricing_plan_id":"cebpf4jnsgd1na2vs0mg"},{"bike_id":"b3842c36-8ce7-4f84-9ea8-4c68fe0e29d0","system_id":"levelo_inurba_marseille","lat":43.27171,"lon":5.4099,"is_reserved":false,"is_disabled":false,"rental_uris":{"android":"levelo://app?vid=b3842c36-8ce7-4f84-9ea8-4c68fe0e29d0","ios":"levelo://app?vid=b3842c36-8ce7-4f84-9ea8-4c68fe0e29d0"},"vehicle_type_id":"4","last_reported":1778758919,"current_range_meters":5600,"station_id":"ce4bhl12rcd13ifvqgf0","pricing_plan_id":"cebpf4jnsgd1na2vs0mg"},{"bike_id":"9db43dae-3d71-490e-820b-f190ccf4c8f2","system_id":"levelo_inurba_marseille","lat":43.25498,"lon":5.3765,"is_reserved":false,"is_disabled":false,"rental_uris":{"android":"levelo://app?vid=9db43dae-3d71-490e-820b-f190ccf4c8f2","ios":"levelo://app?vid=9db43dae-3d71-490e-820b-f190ccf4c8f2"},"vehicle_type_id":"4","last_reported":1778758919,"current_range_meters":5600,"station_id":"ce4bhh12rcd13ifvqff0","pricing_plan_id":"cebpf4jnsgd1na2vs0mg"},{"bike_id":"76abce95-1fbb-457c-83c9-8be31c1ba964","system_id":"levelo_inurba_marseille","lat":43.23176,"lon":5.39989,"is_reserved":false,"is_disabled":false,"rental_uris":{"android":"levelo://app?vid=76abce95-1fbb-457c-83c9-8be31c1ba964","ios":"levelo://app?vid=76abce95-1fbb-457c-83c9-8be31c1ba964"},"vehicle_type_id":"4","last_reported":1778758919,"current_range_meters":5600,"station_id":"ce4bhn12rcd13ifvqgqg","pricing_plan_id":"cebpf4jnsgd1na2vs0mg"},{"bike_id":"8bb75740-110f-4d4e-8348-fb9d76c42c05","system_id":"levelo_inurba_marseille","lat":43.28703,"lon":5.46673,"is_reserved":false,"is_disabled":false,"rental_uris":{"android":"levelo://app?vid=8bb75740-110f-4d4e-8348-fb9d76c42c05","ios":"levelo://app?vid=8bb75740-110f-4d4e-8348-fb9d76c42c05"},"vehicle_type_id":"4","last_reported":1778758919,"current_range_meters":5600,"station_id":"st_d6tc3vkotcvc738tfjhg","pricing_plan_id":"cebpf4jnsgd1na2vs0mg"},{"bike_id":"0971c614-d765-447c-b1cf-fb1169cee65d","system_id":"levelo_inurba_marseille","lat":43.30349,"lon":5.41872,"is_reserved":false,"is_disabled":false,"rental_uris":{"android":"levelo://app?vid=0971c614-d765-447c-b1cf-fb1169cee65d","ios":"levelo://app?vid=0971c614-d765-447c-b1cf-fb1169cee65d"},"vehicle_type_id":"4","last_reported":1778758919,"current_range_meters":5600,"station_id":"ce4bhop2rcd13ifvqh7g","pricing_plan_id":"cebpf4jnsgd1na2vs0mg"},{"bike_id":"1804e974-5920-40de-b7cc-63dc84b8df12","system_id":"levelo_inurba_marseille","lat":43.27902,"lon":5.39595,"is_reserved":false,"is_disabled":false,"rental_uris":{"android":"levelo://app?vid=1804e974-5920-40de-b7cc-63dc84b8df12","ios":"levelo://app?vid=1804e974-5920-40de-b7cc-63dc84b8df12"},"vehicle_type_id":"4","last_reported":1778758919,"current_range_meters":6000,"station_id":"ce4bhf92rcd13ifvqf40","pricing_plan_id":"cebpf4jnsgd1na2vs0mg"},{"bike_id":"eaa9162b-df1e-4cdf-86fa-1c242477da5f","system_id":"levelo_inurba_marseille","lat":43.24535,"lon":5.39524,"is_reserved":false,"is_disabled":false,"rental_uris":{"android":"levelo://app?vid=eaa9162b-df1e-4cdf-86fa-1c242477da5f","ios":"levelo://app?vid=eaa9162b-df1e-4cdf-86fa-1c242477da5f"},"vehicle_type_id":"4","last_reported":1778758919,"current_range_meters":6000,"station_id":"ce4bhlp2rcd13ifvqgjg","pricing_plan_id":"cebpf4jnsgd1na2vs0mg"},{"bike_id":"961ae3cb-3fb8-4279-8e42-ea1f7ab378e9","system_id":"levelo_inurba_marseille","lat":43.23189,"lon":5.39963,"is_reserved":false,"is_disabled":false,"rental_uris":{"android":"levelo://app?vid=961ae3cb-3fb8-4279-8e42-ea1f7ab378e9","ios":"levelo://app?vid=961ae3cb-3fb8-4279-8e42-ea1f7ab378e9"},"vehicle_type_id":"4","last_reported":1778758919,"current_range_meters":6000,"station_id":"ce4bhn12rcd13ifvqgqg","pricing_plan_id":"cebpf4jnsgd1na2vs0mg"},{"bike_id":"b1f85c10-3a72-4895-b4df-4b7782abd0b1","system_id":"levelo_inurba_marseille","lat":43.28539,"lon":5.44101,"is_reserved":false,"is_disabled":false,"rental_uris":{"android":"levelo://app?vid=b1f85c10-3a72-4895-b4df-4b7782abd0b1","ios":"levelo://app?vid=b1f85c10-3a72-4895-b4df-4b7782abd0b1"},"vehicle_type_id":"4","last_reported":1778758919,"current_range_meters":6000,"station_id":"st_d3j3df2ikq2c7380ej80","pricing_plan_id":"cebpf4jnsgd1na2vs0mg"},{"bike_id":"2c74ee0b-7d5b-44c0-8c48-036465125786","system_id":"levelo_inurba_marseille","lat":43.28236,"lon":5.35025,"is_reserved":false,"is_disabled":false,"rental_uris":{"android":"levelo://app?vid=2c74ee0b-7d5b-44c0-8c48-036465125786","ios":"levelo://app?vid=2c74ee0b-7d5b-44c0-8c48-036465125786"},"vehicle_type_id":"4","last_reported":1778758919,"current_range_meters":6000,"station_id":"ce4bhbp2rcd13ifvqerg","pricing_plan_id":"cebpf4jnsgd1na2vs0mg"},{"bike_id":"ce46e338-2b3c-4540-bcec-12f047be9263","system_id":"levelo_inurba_marseille","lat":43.28279,"lon":5.40556,"is_reserved":false,"is_disabled":false,"rental_uris":{"android":"levelo://app?vid=ce46e338-2b3c-4540-bcec-12f047be9263","ios":"levelo://app?vid=ce46e338-2b3c-4540-bcec-12f047be9263"},"vehicle_type_id":"4","last_reported":1778758919,"current_range_meters":6000,"station_id":"","pricing_plan_id":"cebpf4jnsgd1na2vs0mg"},{"bike_id":"788dfa8a-456b-4e1b-8663-b20f000fa194","system_id":"levelo_inurba_marseille","lat":43.26949,"lon":5.40216,"is_reserved":false,"is_disabled":false,"rental_uris":{"android":"levelo://app?vid=788dfa8a-456b-4e1b-8663-b20f000fa194","ios":"levelo://app?vid=788dfa8a-456b-4e1b-8663-b20f000fa194"},"vehicle_type_id":"4","last_reported":1778758919,"current_range_meters":6000,"station_id":"cjm6bp8fraef2m0cb0m0","pricing_plan_id":"cebpf4jnsgd1na2vs0mg"},{"bike_id":"1c8551e7-65a0-49fa-ba5d-23c46f24083e","system_id":"levelo_inurba_marseille","lat":43.28701,"lon":5.46693,"is_reserved":false,"is_disabled":false,"rental_uris":{"android":"levelo://app?vid=1c8551e7-65a0-49fa-ba5d-23c46f24083e","ios":"levelo://app?vid=1c8551e7-65a0-49fa-ba5d-23c46f24083e"},"vehicle_type_id":"4","last_reported":1778758919,"current_range_meters":6000,"station_id":"st_d6tc3vkotcvc738tfjhg","pricing_plan_id":"cebpf4jnsgd1na2vs0mg"},{"bike_id":"40091327-583c-4d7c-aabe-de222d51872a","system_id":"levelo_inurba_marseille","lat":43.29898,"lon":5.43669,"is_reserved":false,"is_disabled":false,"rental_uris":{"android":"levelo://app?vid=40091327-583c-4d7c-aabe-de222d51872a","ios":"levelo://app?vid=40091327-583c-4d7c-aabe-de222d51872a"},"vehicle_type_id":"4","last_reported":1778758919,"current_range_meters":6000,"station_id":"ce4bhpp2rcd13ifvqhfg","pricing_plan_id":"cebpf4jnsgd1na2vs0mg"},{"bike_id":"cc2b562c-a43f-4402-a8da-db48fd9cbc13","system_id":"levelo_inurba_marseille","lat":43.30596,"lon":5.37188,"is_reserved":false,"is_disabled":false,"rental_uris":{"android":"levelo://app?vid=cc2b562c-a43f-4402-a8da-db48fd9cbc13","ios":"levelo://app?vid=cc2b562c-a43f-4402-a8da-db48fd9cbc13"},"vehicle_type_id":"4","last_reported":1778758919,"current_range_meters":6000,"station_id":"ce4bgqh2rcd13ifvqc4g","pricing_plan_id":"cebpf4jnsgd1na2vs0mg"},{"bike_id":"b299766d-661b-4293-b516-1846fa5fb91f","system_id":"levelo_inurba_marseille","lat":43.28585,"lon":5.3861,"is_reserved":false,"is_disabled":false,"rental_uris":{"android":"levelo://app?vid=b299766d-661b-4293-b516-1846fa5fb91f","ios":"levelo://app?vid=b299766d-661b-4293-b516-1846fa5fb91f"},"vehicle_type_id":"4","last_reported":1778758919,"current_range_meters":6000,"station_id":"","pricing_plan_id":"cebpf4jnsgd1na2vs0mg"},{"bike_id":"f7ad5531-c80d-4488-932d-7c4d62779c85","system_id":"levelo_inurba_marseille","lat":43.27913,"lon":5.39574,"is_reserved":false,"is_disabled":false,"rental_uris":{"android":"levelo://app?vid=f7ad5531-c80d-4488-932d-7c4d62779c85","ios":"levelo://app?vid=f7ad5531-c80d-4488-932d-7c4d62779c85"},"vehicle_type_id":"4","last_reported":1778758919,"current_range_meters":6000,"station_id":"ce4bhf92rcd13ifvqf40","pricing_plan_id":"cebpf4jnsgd1na2vs0mg"},{"bike_id":"81ae9a97-046f-4685-b3d6-f0657cc0dac1","system_id":"levelo_inurba_marseille","lat":43.26911,"lon":5.40285,"is_reserved":false,"is_disabled":false,"rental_uris":{"android":"levelo://app?vid=81ae9a97-046f-4685-b3d6-f0657cc0dac1","ios":"levelo://app?vid=81ae9a97-046f-4685-b3d6-f0657cc0dac1"},"vehicle_type_id":"4","last_reported":1778758919,"current_range_meters":6400,"station_id":"cjm6bp8fraef2m0cb0m0","pricing_plan_id":"cebpf4jnsgd1na2vs0mg"},{"bike_id":"4066804f-6245-416c-a2b8-375581408be7","system_id":"levelo_inurba_marseille","lat":43.29133,"lon":5.42442,"is_reserved":false,"is_disabled":false,"rental_uris":{"android":"levelo://app?vid=4066804f-6245-416c-a2b8-375581408be7","ios":"levelo://app?vid=4066804f-6245-416c-a2b8-375581408be7"},"vehicle_type_id":"4","last_reported":1778758919,"current_range_meters":6400,"station_id":"","pricing_plan_id":"cebpf4jnsgd1na2vs0mg"},{"bike_id":"5e57f13f-0095-4757-85ab-b6d06c068367","system_id":"levelo_inurba_marseille","lat":43.28037,"lon":5.36949,"is_reserved":false,"is_disabled":false,"rental_uris":{"android":"levelo://app?vid=5e57f13f-0095-4757-85ab-b6d06c068367","ios":"levelo://app?vid=5e57f13f-0095-4757-85ab-b6d06c068367"},"vehicle_type_id":"4","last_reported":1778758919,"current_range_meters":6400,"station_id":"ce4bha12rcd13ifvqef0","pricing_plan_id":"cebpf4jnsgd1na2vs0mg"},{"bike_id":"f6fcf2d3-59dc-446e-8e5d-6c4db3de3165","system_id":"levelo_inurba_marseille","lat":43.308026,"lon":5.381497,"is_reserved":false,"is_disabled":false,"rental_uris":{"android":"levelo://app?vid=f6fcf2d3-59dc-446e-8e5d-6c4db3de3165","ios":"levelo://app?vid=f6fcf2d3-59dc-446e-8e5d-6c4db3de3165"},"vehicle_type_id":"4","last_reported":1778758919,"current_range_meters":6400,"station_id":"","pricing_plan_id":"cebpf4jnsgd1na2vs0mg"},{"bike_id":"72179d6d-4306-495c-979e-7fc83e24d3fc","system_id":"levelo_inurba_marseille","lat":43.30187,"lon":5.36562,"is_reserved":false,"is_disabled":false,"rental_uris":{"android":"levelo://app?vid=72179d6d-4306-495c-979e-7fc83e24d3fc","ios":"levelo://app?vid=72179d6d-4306-495c-979e-7fc83e24d3fc"},"vehicle_type_id":"4","last_reported":1778758919,"current_range_meters":6400,"station_id":"","pricing_plan_id":"cebpf4jnsgd1na2vs0mg"},{"bike_id":"9bb62d1d-98d2-456f-8ada-1bbcaeb98c00","system_id":"levelo_inurba_marseille","lat":43.2848,"lon":5.38433,"is_reserved":false,"is_disabled":false,"rental_uris":{"android":"levelo://app?vid=9bb62d1d-98d2-456f-8ada-1bbcaeb98c00","ios":"levelo://app?vid=9bb62d1d-98d2-456f-8ada-1bbcaeb98c00"},"vehicle_type_id":"4","last_reported":1778758919,"current_range_meters":6400,"station_id":"ce4bh512rcd13ifvqe3g","pricing_plan_id":"cebpf4jnsgd1na2vs0mg"},{"bike_id":"a1e2d0c0-5914-4d08-b30e-62cdc1471999","system_id":"levelo_inurba_marseille","lat":43.29001,"lon":5.35612,"is_reserved":false,"is_disabled":false,"rental_uris":{"android":"levelo://app?vid=a1e2d0c0-5914-4d08-b30e-62cdc1471999","ios":"levelo://app?vid=a1e2d0c0-5914-4d08-b30e-62cdc1471999"},"vehicle_type_id":"4","last_reported":1778758919,"current_range_meters":6400,"station_id":"ce4bhb92rcd13ifvqen0","pricing_plan_id":"cebpf4jnsgd1na2vs0mg"},{"bike_id":"bb841cfa-1077-4157-88d1-797e54c08428","system_id":"levelo_inurba_marseille","lat":43.29273,"lon":5.3844,"is_reserved":false,"is_disabled":false,"rental_uris":{"android":"levelo://app?vid=bb841cfa-1077-4157-88d1-797e54c08428","ios":"levelo://app?vid=bb841cfa-1077-4157-88d1-797e54c08428"},"vehicle_type_id":"4","last_reported":1778758919,"current_range_meters":6400,"station_id":"ce4bh692rcd13ifvqea0","pricing_plan_id":"cebpf4jnsgd1na2vs0mg"},{"bike_id":"3c9fd14c-8db8-479c-846c-f3dc1ab44fd4","system_id":"levelo_inurba_marseille","lat":43.24719,"lon":5.3929,"is_reserved":false,"is_disabled":false,"rental_uris":{"android":"levelo://app?vid=3c9fd14c-8db8-479c-846c-f3dc1ab44fd4","ios":"levelo://app?vid=3c9fd14c-8db8-479c-846c-f3dc1ab44fd4"},"vehicle_type_id":"4","last_reported":1778758919,"current_range_meters":6400,"station_id":"","pricing_plan_id":"cebpf4jnsgd1na2vs0mg"},{"bike_id":"18df3caf-e3cd-46b1-8a56-af0d8c09400e","system_id":"levelo_inurba_marseille","lat":43.24175,"lon":5.36377,"is_reserved":false,"is_disabled":false,"rental_uris":{"android":"levelo://app?vid=18df3caf-e3cd-46b1-8a56-af0d8c09400e","ios":"levelo://app?vid=18df3caf-e3cd-46b1-8a56-af0d8c09400e"},"vehicle_type_id":"4","last_reported":1778758919,"current_range_meters":6400,"station_id":"cpo36qri1sfpv3e86is0","pricing_plan_id":"cebpf4jnsgd1na2vs0mg"},{"bike_id":"e7639aa3-651f-4e26-8dc2-eebbc9adb5f8","system_id":"levelo_inurba_marseille","lat":43.24677,"lon":5.38877,"is_reserved":false,"is_disabled":true,"rental_uris":{"android":"levelo://app?vid=e7639aa3-651f-4e26-8dc2-eebbc9adb5f8","ios":"levelo://app?vid=e7639aa3-651f-4e26-8dc2-eebbc9adb5f8"},"vehicle_type_id":"4","last_reported":1778758919,"current_range_meters":6400,"station_id":"ce4bhg12rcd13ifvqf60","pricing_plan_id":"cebpf4jnsgd1na2vs0mg"},{"bike_id":"4d2f6501-f59d-42f5-8f2d-638fca42e820","system_id":"levelo_inurba_marseille","lat":43.28466,"lon":5.48373,"is_reserved":false,"is_disabled":false,"rental_uris":{"android":"levelo://app?vid=4d2f6501-f59d-42f5-8f2d-638fca42e820","ios":"levelo://app?vid=4d2f6501-f59d-42f5-8f2d-638fca42e820"},"vehicle_type_id":"4","last_reported":1778758919,"current_range_meters":6400,"station_id":"st_d3svhcjqgbts73a3dn0g","pricing_plan_id":"cebpf4jnsgd1na2vs0mg"},{"bike_id":"28e5fac9-f071-4ec3-b1de-c7818dab9421","system_id":"levelo_inurba_marseille","lat":43.231937,"lon":5.355491,"is_reserved":false,"is_disabled":false,"rental_uris":{"android":"levelo://app?vid=28e5fac9-f071-4ec3-b1de-c7818dab9421","ios":"levelo://app?vid=28e5fac9-f071-4ec3-b1de-c7818dab9421"},"vehicle_type_id":"4","last_reported":1778758919,"current_range_meters":6400,"station_id":"ce4bhu92rcd13ifvqi70","pricing_plan_id":"cebpf4jnsgd1na2vs0mg"},{"bike_id":"241e3942-3c13-4b00-90b4-13ab8de78b45","system_id":"levelo_inurba_marseille","lat":43.30701,"lon":5.37059,"is_reserved":false,"is_disabled":false,"rental_uris":{"android":"levelo://app?vid=241e3942-3c13-4b00-90b4-13ab8de78b45","ios":"levelo://app?vid=241e3942-3c13-4b00-90b4-13ab8de78b45"},"vehicle_type_id":"4","last_reported":1778758919,"current_range_meters":6400,"station_id":"","pricing_plan_id":"cebpf4jnsgd1na2vs0mg"},{"bike_id":"0e1804ca-dccb-4098-accf-62174948ed0a","system_id":"levelo_inurba_marseille","lat":43.29455,"lon":5.38221,"is_reserved":false,"is_disabled":false,"rental_uris":{"android":"levelo://app?vid=0e1804ca-dccb-4098-accf-62174948ed0a","ios":"levelo://app?vid=0e1804ca-dccb-4098-accf-62174948ed0a"},"vehicle_type_id":"4","last_reported":1778758919,"current_range_meters":6800,"station_id":"","pricing_plan_id":"cebpf4jnsgd1na2vs0mg"},{"bike_id":"d42a7cf1-1fa2-40ee-b441-c73427ab11ef","system_id":"levelo_inurba_marseille","lat":43.23967,"lon":5.36622,"is_reserved":false,"is_disabled":false,"rental_uris":{"android":"levelo://app?vid=d42a7cf1-1fa2-40ee-b441-c73427ab11ef","ios":"levelo://app?vid=d42a7cf1-1fa2-40ee-b441-c73427ab11ef"},"vehicle_type_id":"4","last_reported":1778758919,"current_range_meters":6800,"station_id":"ce4bhi12rcd13ifvqfp0","pricing_plan_id":"cebpf4jnsgd1na2vs0mg"},{"bike_id":"56c53381-6e36-46c2-b1be-2f786e2ad1c9","system_id":"levelo_inurba_marseille","lat":43.28555,"lon":5.38387,"is_reserved":false,"is_disabled":false,"rental_uris":{"android":"levelo://app?vid=56c53381-6e36-46c2-b1be-2f786e2ad1c9","ios":"levelo://app?vid=56c53381-6e36-46c2-b1be-2f786e2ad1c9"},"vehicle_type_id":"4","last_reported":1778758919,"current_range_meters":6800,"station_id":"","pricing_plan_id":"cebpf4jnsgd1na2vs0mg"},{"bike_id":"3d549a13-a4c7-4712-8ac3-f10bbe398f94","system_id":"levelo_inurba_marseille","lat":43.28364,"lon":5.38624,"is_reserved":false,"is_disabled":false,"rental_uris":{"android":"levelo://app?vid=3d549a13-a4c7-4712-8ac3-f10bbe398f94","ios":"levelo://app?vid=3d549a13-a4c7-4712-8ac3-f10bbe398f94"},"vehicle_type_id":"4","last_reported":1778758919,"current_range_meters":6800,"station_id":"ce4bh492rcd13ifvqdvg","pricing_plan_id":"cebpf4jnsgd1na2vs0mg"},{"bike_id":"0a7cbd8f-064b-4d44-8117-e07fab3df91e","system_id":"levelo_inurba_marseille","lat":43.29973,"lon":5.384785,"is_reserved":false,"is_disabled":false,"rental_uris":{"android":"levelo://app?vid=0a7cbd8f-064b-4d44-8117-e07fab3df91e","ios":"levelo://app?vid=0a7cbd8f-064b-4d44-8117-e07fab3df91e"},"vehicle_type_id":"4","last_reported":1778758919,"current_range_meters":6800,"station_id":"ce4bgj92rcd13ifvqbd0","pricing_plan_id":"cebpf4jnsgd1na2vs0mg"},{"bike_id":"c4f986f4-550e-4a87-97a3-22883ee278ee","system_id":"levelo_inurba_marseille","lat":43.24378,"lon":5.37101,"is_reserved":false,"is_disabled":false,"rental_uris":{"android":"levelo://app?vid=c4f986f4-550e-4a87-97a3-22883ee278ee","ios":"levelo://app?vid=c4f986f4-550e-4a87-97a3-22883ee278ee"},"vehicle_type_id":"4","last_reported":1778758919,"current_range_meters":6800,"station_id":"ce4bhhh2rcd13ifvqfk0","pricing_plan_id":"cebpf4jnsgd1na2vs0mg"},{"bike_id":"6ad6ae18-21fc-4cd2-8d6b-b443438f9ca8","system_id":"levelo_inurba_marseille","lat":43.29054,"lon":5.4284,"is_reserved":false,"is_disabled":false,"rental_uris":{"android":"levelo://app?vid=6ad6ae18-21fc-4cd2-8d6b-b443438f9ca8","ios":"levelo://app?vid=6ad6ae18-21fc-4cd2-8d6b-b443438f9ca8"},"vehicle_type_id":"4","last_reported":1778758919,"current_range_meters":6800,"station_id":"","pricing_plan_id":"cebpf4jnsgd1na2vs0mg"},{"bike_id":"43dc5ec9-cce1-48fb-99af-2b40ca7b9483","system_id":"levelo_inurba_marseille","lat":43.21753,"lon":5.34599,"is_reserved":false,"is_disabled":false,"rental_uris":{"android":"levelo://app?vid=43dc5ec9-cce1-48fb-99af-2b40ca7b9483","ios":"levelo://app?vid=43dc5ec9-cce1-48fb-99af-2b40ca7b9483"},"vehicle_type_id":"4","last_reported":1778758919,"current_range_meters":7200,"station_id":"st_cvj6r9ubvosntc0bgbag","pricing_plan_id":"cebpf4jnsgd1na2vs0mg"},{"bike_id":"f009bb4b-625b-4482-8ff8-5aeca90a33f4","system_id":"levelo_inurba_marseille","lat":43.26221,"lon":5.37472,"is_reserved":false,"is_disabled":false,"rental_uris":{"android":"levelo://app?vid=f009bb4b-625b-4482-8ff8-5aeca90a33f4","ios":"levelo://app?vid=f009bb4b-625b-4482-8ff8-5aeca90a33f4"},"vehicle_type_id":"4","last_reported":1778758919,"current_range_meters":7200,"station_id":"","pricing_plan_id":"cebpf4jnsgd1na2vs0mg"},{"bike_id":"b7aef511-a30b-48e6-924f-5b7ff92819c7","system_id":"levelo_inurba_marseille","lat":43.28161,"lon":5.42636,"is_reserved":false,"is_disabled":false,"rental_uris":{"android":"levelo://app?vid=b7aef511-a30b-48e6-924f-5b7ff92819c7","ios":"levelo://app?vid=b7aef511-a30b-48e6-924f-5b7ff92819c7"},"vehicle_type_id":"4","last_reported":1778758919,"current_range_meters":7200,"station_id":"ce4bhnh2rcd13ifvqgug","pricing_plan_id":"cebpf4jnsgd1na2vs0mg"},{"bike_id":"11bfc38c-9d4c-45ee-b922-1948cd421490","system_id":"levelo_inurba_marseille","lat":43.24803,"lon":5.37437,"is_reserved":false,"is_disabled":true,"rental_uris":{"android":"levelo://app?vid=11bfc38c-9d4c-45ee-b922-1948cd421490","ios":"levelo://app?vid=11bfc38c-9d4c-45ee-b922-1948cd421490"},"vehicle_type_id":"4","last_reported":1778758919,"current_range_meters":7200,"station_id":"ce4bhgh2rcd13ifvqfb0","pricing_plan_id":"cebpf4jnsgd1na2vs0mg"},{"bike_id":"f81ebe42-0cdd-438c-9026-65221b5a0476","system_id":"levelo_inurba_marseille","lat":43.2862,"lon":5.37042,"is_reserved":false,"is_disabled":false,"rental_uris":{"android":"levelo://app?vid=f81ebe42-0cdd-438c-9026-65221b5a0476","ios":"levelo://app?vid=f81ebe42-0cdd-438c-9026-65221b5a0476"},"vehicle_type_id":"4","last_reported":1778758919,"current_range_meters":7200,"station_id":"ce4bht12rcd13ifvqi60","pricing_plan_id":"cebpf4jnsgd1na2vs0mg"},{"bike_id":"7be74fa7-0980-4843-b788-b20ae5e96c51","system_id":"levelo_inurba_marseille","lat":43.29585,"lon":5.39993,"is_reserved":false,"is_disabled":false,"rental_uris":{"android":"levelo://app?vid=7be74fa7-0980-4843-b788-b20ae5e96c51","ios":"levelo://app?vid=7be74fa7-0980-4843-b788-b20ae5e96c51"},"vehicle_type_id":"4","last_reported":1778758919,"current_range_meters":7200,"station_id":"ce4bh312rcd13ifvqdj0","pricing_plan_id":"cebpf4jnsgd1na2vs0mg"},{"bike_id":"03dbd4d4-4c0e-463f-aad1-853073495b20","system_id":"levelo_inurba_marseille","lat":43.283612,"lon":5.386463,"is_reserved":false,"is_disabled":false,"rental_uris":{"android":"levelo://app?vid=03dbd4d4-4c0e-463f-aad1-853073495b20","ios":"levelo://app?vid=03dbd4d4-4c0e-463f-aad1-853073495b20"},"vehicle_type_id":"4","last_reported":1778758919,"current_range_meters":7200,"station_id":"ce4bh492rcd13ifvqdvg","pricing_plan_id":"cebpf4jnsgd1na2vs0mg"},{"bike_id":"1708bcfb-6900-4ce4-8f2f-40e64297f7b6","system_id":"levelo_inurba_marseille","lat":43.23146,"lon":5.40025,"is_reserved":false,"is_disabled":false,"rental_uris":{"android":"levelo://app?vid=1708bcfb-6900-4ce4-8f2f-40e64297f7b6","ios":"levelo://app?vid=1708bcfb-6900-4ce4-8f2f-40e64297f7b6"},"vehicle_type_id":"4","last_reported":1778758919,"current_range_meters":7200,"station_id":"ce4bhn12rcd13ifvqgqg","pricing_plan_id":"cebpf4jnsgd1na2vs0mg"},{"bike_id":"9ab268a0-a8ea-4091-be12-135023a9af46","system_id":"levelo_inurba_marseille","lat":43.3041,"lon":5.39715,"is_reserved":false,"is_disabled":false,"rental_uris":{"android":"levelo://app?vid=9ab268a0-a8ea-4091-be12-135023a9af46","ios":"levelo://app?vid=9ab268a0-a8ea-4091-be12-135023a9af46"},"vehicle_type_id":"4","last_reported":1778758919,"current_range_meters":7200,"station_id":"ce4bh092rcd13ifvqd20","pricing_plan_id":"cebpf4jnsgd1na2vs0mg"},{"bike_id":"12204e26-0270-4d31-9756-07e7283a3d62","system_id":"levelo_inurba_marseille","lat":43.28467,"lon":5.38405,"is_reserved":false,"is_disabled":false,"rental_uris":{"android":"levelo://app?vid=12204e26-0270-4d31-9756-07e7283a3d62","ios":"levelo://app?vid=12204e26-0270-4d31-9756-07e7283a3d62"},"vehicle_type_id":"4","last_reported":1778758919,"current_range_meters":7200,"station_id":"ce4bh512rcd13ifvqe3g","pricing_plan_id":"cebpf4jnsgd1na2vs0mg"},{"bike_id":"dbe42d4b-141a-495c-81fb-2666146b6eff","system_id":"levelo_inurba_marseille","lat":43.27915,"lon":5.39587,"is_reserved":false,"is_disabled":false,"rental_uris":{"android":"levelo://app?vid=dbe42d4b-141a-495c-81fb-2666146b6eff","ios":"levelo://app?vid=dbe42d4b-141a-495c-81fb-2666146b6eff"},"vehicle_type_id":"4","last_reported":1778758919,"current_range_meters":7200,"station_id":"ce4bhf92rcd13ifvqf40","pricing_plan_id":"cebpf4jnsgd1na2vs0mg"},{"bike_id":"922d80bc-895c-4181-9923-5e793971364c","system_id":"levelo_inurba_marseille","lat":43.29193,"lon":5.39313,"is_reserved":false,"is_disabled":false,"rental_uris":{"android":"levelo://app?vid=922d80bc-895c-4181-9923-5e793971364c","ios":"levelo://app?vid=922d80bc-895c-4181-9923-5e793971364c"},"vehicle_type_id":"4","last_reported":1778758919,"current_range_meters":7200,"station_id":"ce4bh192rcd13ifvqdd0","pricing_plan_id":"cebpf4jnsgd1na2vs0mg"},{"bike_id":"6ce592c9-343f-4e43-8caa-8db59564d33a","system_id":"levelo_inurba_marseille","lat":43.28265,"lon":5.35063,"is_reserved":false,"is_disabled":false,"rental_uris":{"android":"levelo://app?vid=6ce592c9-343f-4e43-8caa-8db59564d33a","ios":"levelo://app?vid=6ce592c9-343f-4e43-8caa-8db59564d33a"},"vehicle_type_id":"4","last_reported":1778758919,"current_range_meters":7200,"station_id":"ce4bhbp2rcd13ifvqerg","pricing_plan_id":"cebpf4jnsgd1na2vs0mg"},{"bike_id":"b3d14710-1626-4d99-a696-461d207af8ff","system_id":"levelo_inurba_marseille","lat":43.301562,"lon":5.380739,"is_reserved":false,"is_disabled":false,"rental_uris":{"android":"levelo://app?vid=b3d14710-1626-4d99-a696-461d207af8ff","ios":"levelo://app?vid=b3d14710-1626-4d99-a696-461d207af8ff"},"vehicle_type_id":"4","last_reported":1778758919,"current_range_meters":7200,"station_id":"ce4bgjp2rcd13ifvqbh0","pricing_plan_id":"cebpf4jnsgd1na2vs0mg"},{"bike_id":"ea2ed631-02e6-4f01-8ae6-bc79ee553a34","system_id":"levelo_inurba_marseille","lat":43.305582,"lon":5.365597,"is_reserved":false,"is_disabled":false,"rental_uris":{"android":"levelo://app?vid=ea2ed631-02e6-4f01-8ae6-bc79ee553a34","ios":"levelo://app?vid=ea2ed631-02e6-4f01-8ae6-bc79ee553a34"},"vehicle_type_id":"4","last_reported":1778758919,"current_range_meters":7200,"station_id":"ce4bgs12rcd13ifvqcag","pricing_plan_id":"cebpf4jnsgd1na2vs0mg"},{"bike_id":"ead892c9-b844-4758-9093-438046339052","system_id":"levelo_inurba_marseille","lat":43.3352,"lon":5.37409,"is_reserved":false,"is_disabled":false,"rental_uris":{"android":"levelo://app?vid=ead892c9-b844-4758-9093-438046339052","ios":"levelo://app?vid=ead892c9-b844-4758-9093-438046339052"},"vehicle_type_id":"4","last_reported":1778758919,"current_range_meters":7200,"station_id":"","pricing_plan_id":"cebpf4jnsgd1na2vs0mg"},{"bike_id":"0f39ab81-4ec8-4110-bdec-ad4c73ac1f43","system_id":"levelo_inurba_marseille","lat":43.28546,"lon":5.44082,"is_reserved":false,"is_disabled":false,"rental_uris":{"android":"levelo://app?vid=0f39ab81-4ec8-4110-bdec-ad4c73ac1f43","ios":"levelo://app?vid=0f39ab81-4ec8-4110-bdec-ad4c73ac1f43"},"vehicle_type_id":"4","last_reported":1778758919,"current_range_meters":7200,"station_id":"st_d3j3df2ikq2c7380ej80","pricing_plan_id":"cebpf4jnsgd1na2vs0mg"},{"bike_id":"d1be613e-085b-4259-9861-d62c7bd1b056","system_id":"levelo_inurba_marseille","lat":43.31882,"lon":5.36808,"is_reserved":false,"is_disabled":false,"rental_uris":{"android":"levelo://app?vid=d1be613e-085b-4259-9861-d62c7bd1b056","ios":"levelo://app?vid=d1be613e-085b-4259-9861-d62c7bd1b056"},"vehicle_type_id":"4","last_reported":1778758919,"current_range_meters":7200,"station_id":"st_d6o2h0d0559c73evc1b0","pricing_plan_id":"cebpf4jnsgd1na2vs0mg"},{"bike_id":"b2b4314a-5925-4700-bab3-038d34f53a7d","system_id":"levelo_inurba_marseille","lat":43.28718,"lon":5.4669,"is_reserved":false,"is_disabled":false,"rental_uris":{"android":"levelo://app?vid=b2b4314a-5925-4700-bab3-038d34f53a7d","ios":"levelo://app?vid=b2b4314a-5925-4700-bab3-038d34f53a7d"},"vehicle_type_id":"4","last_reported":1778758919,"current_range_meters":8000,"station_id":"st_d6tc3vkotcvc738tfjhg","pricing_plan_id":"cebpf4jnsgd1na2vs0mg"},{"bike_id":"8bfe30fe-348f-4e9d-872c-b513dd2491da","system_id":"levelo_inurba_marseille","lat":43.31994,"lon":5.38162,"is_reserved":false,"is_disabled":false,"rental_uris":{"android":"levelo://app?vid=8bfe30fe-348f-4e9d-872c-b513dd2491da","ios":"levelo://app?vid=8bfe30fe-348f-4e9d-872c-b513dd2491da"},"vehicle_type_id":"4","last_reported":1778758919,"current_range_meters":8000,"station_id":"ce4bhr12rcd13ifvqhpg","pricing_plan_id":"cebpf4jnsgd1na2vs0mg"},{"bike_id":"96a35e3c-1baa-490c-ba25-14178514c14f","system_id":"levelo_inurba_marseille","lat":43.2118,"lon":5.35072,"is_reserved":false,"is_disabled":false,"rental_uris":{"android":"levelo://app?vid=96a35e3c-1baa-490c-ba25-14178514c14f","ios":"levelo://app?vid=96a35e3c-1baa-490c-ba25-14178514c14f"},"vehicle_type_id":"4","last_reported":1778758919,"current_range_meters":8000,"station_id":"st_cvj6sg6p6f1abm77japg","pricing_plan_id":"cebpf4jnsgd1na2vs0mg"},{"bike_id":"3eb17ea7-504c-4154-a442-3f77f9eb2f74","system_id":"levelo_inurba_marseille","lat":43.25488,"lon":5.37641,"is_reserved":false,"is_disabled":false,"rental_uris":{"android":"levelo://app?vid=3eb17ea7-504c-4154-a442-3f77f9eb2f74","ios":"levelo://app?vid=3eb17ea7-504c-4154-a442-3f77f9eb2f74"},"vehicle_type_id":"4","last_reported":1778758919,"current_range_meters":8000,"station_id":"ce4bhh12rcd13ifvqff0","pricing_plan_id":"cebpf4jnsgd1na2vs0mg"},{"bike_id":"c1aea499-d26f-49bf-8367-447ce7aec604","system_id":"levelo_inurba_marseille","lat":43.25266,"lon":5.42112,"is_reserved":false,"is_disabled":false,"rental_uris":{"android":"levelo://app?vid=c1aea499-d26f-49bf-8367-447ce7aec604","ios":"levelo://app?vid=c1aea499-d26f-49bf-8367-447ce7aec604"},"vehicle_type_id":"4","last_reported":1778758919,"current_range_meters":8000,"station_id":"","pricing_plan_id":"cebpf4jnsgd1na2vs0mg"},{"bike_id":"af705914-bb9c-47f1-9802-e7ff0d2548f0","system_id":"levelo_inurba_marseille","lat":43.25478,"lon":5.37651,"is_reserved":false,"is_disabled":false,"rental_uris":{"android":"levelo://app?vid=af705914-bb9c-47f1-9802-e7ff0d2548f0","ios":"levelo://app?vid=af705914-bb9c-47f1-9802-e7ff0d2548f0"},"vehicle_type_id":"4","last_reported":1778758919,"current_range_meters":8000,"station_id":"ce4bhh12rcd13ifvqff0","pricing_plan_id":"cebpf4jnsgd1na2vs0mg"},{"bike_id":"cf86c92c-3641-4c56-b4a8-89ebd58517ee","system_id":"levelo_inurba_marseille","lat":43.3211,"lon":5.36773,"is_reserved":false,"is_disabled":false,"rental_uris":{"android":"levelo://app?vid=cf86c92c-3641-4c56-b4a8-89ebd58517ee","ios":"levelo://app?vid=cf86c92c-3641-4c56-b4a8-89ebd58517ee"},"vehicle_type_id":"4","last_reported":1778758919,"current_range_meters":8000,"station_id":"ce4bhrh2rcd13ifvqhug","pricing_plan_id":"cebpf4jnsgd1na2vs0mg"},{"bike_id":"fb6a4e03-6a4e-4ff2-aa3f-8e60f26d6bc9","system_id":"levelo_inurba_marseille","lat":43.28857,"lon":5.35851,"is_reserved":false,"is_disabled":false,"rental_uris":{"android":"levelo://app?vid=fb6a4e03-6a4e-4ff2-aa3f-8e60f26d6bc9","ios":"levelo://app?vid=fb6a4e03-6a4e-4ff2-aa3f-8e60f26d6bc9"},"vehicle_type_id":"4","last_reported":1778758919,"current_range_meters":8000,"station_id":"ce4bhb12rcd13ifvqem0","pricing_plan_id":"cebpf4jnsgd1na2vs0mg"},{"bike_id":"9ddc16ed-e7f4-4371-989b-e5635986e0ab","system_id":"levelo_inurba_marseille","lat":43.30292,"lon":5.36972,"is_reserved":false,"is_disabled":false,"rental_uris":{"android":"levelo://app?vid=9ddc16ed-e7f4-4371-989b-e5635986e0ab","ios":"levelo://app?vid=9ddc16ed-e7f4-4371-989b-e5635986e0ab"},"vehicle_type_id":"4","last_reported":1778758919,"current_range_meters":8000,"station_id":"","pricing_plan_id":"cebpf4jnsgd1na2vs0mg"},{"bike_id":"8af38655-e65c-465e-83e2-1c3ed295a51f","system_id":"levelo_inurba_marseille","lat":43.24462,"lon":5.42491,"is_reserved":false,"is_disabled":false,"rental_uris":{"android":"levelo://app?vid=8af38655-e65c-465e-83e2-1c3ed295a51f","ios":"levelo://app?vid=8af38655-e65c-465e-83e2-1c3ed295a51f"},"vehicle_type_id":"4","last_reported":1778758919,"current_range_meters":8400,"station_id":"st_d4a3vfp97mjs738cd8kg","pricing_plan_id":"cebpf4jnsgd1na2vs0mg"},{"bike_id":"003baca3-1b51-47a6-bbf5-e479a5ad0ebd","system_id":"levelo_inurba_marseille","lat":43.33572,"lon":5.37461,"is_reserved":false,"is_disabled":false,"rental_uris":{"android":"levelo://app?vid=003baca3-1b51-47a6-bbf5-e479a5ad0ebd","ios":"levelo://app?vid=003baca3-1b51-47a6-bbf5-e479a5ad0ebd"},"vehicle_type_id":"4","last_reported":1778758919,"current_range_meters":8400,"station_id":"st_d46tts09ee8s73dlu43g","pricing_plan_id":"cebpf4jnsgd1na2vs0mg"},{"bike_id":"c3c82a64-b21c-49b8-b7e2-35d28eb274f7","system_id":"levelo_inurba_marseille","lat":43.27061,"lon":5.42273,"is_reserved":false,"is_disabled":false,"rental_uris":{"android":"levelo://app?vid=c3c82a64-b21c-49b8-b7e2-35d28eb274f7","ios":"levelo://app?vid=c3c82a64-b21c-49b8-b7e2-35d28eb274f7"},"vehicle_type_id":"4","last_reported":1778758919,"current_range_meters":8400,"station_id":"ce4bhk92rcd13ifvqgb0","pricing_plan_id":"cebpf4jnsgd1na2vs0mg"},{"bike_id":"4fda1eba-1f18-4b92-81e6-b18d658c8fe7","system_id":"levelo_inurba_marseille","lat":43.31909,"lon":5.36778,"is_reserved":false,"is_disabled":false,"rental_uris":{"android":"levelo://app?vid=4fda1eba-1f18-4b92-81e6-b18d658c8fe7","ios":"levelo://app?vid=4fda1eba-1f18-4b92-81e6-b18d658c8fe7"},"vehicle_type_id":"4","last_reported":1778758919,"current_range_meters":8400,"station_id":"st_d6o2h0d0559c73evc1b0","pricing_plan_id":"cebpf4jnsgd1na2vs0mg"},{"bike_id":"403abfca-db03-47e4-b8c9-06a6b97b58d4","system_id":"levelo_inurba_marseille","lat":43.33218,"lon":5.43052,"is_reserved":false,"is_disabled":false,"rental_uris":{"android":"levelo://app?vid=403abfca-db03-47e4-b8c9-06a6b97b58d4","ios":"levelo://app?vid=403abfca-db03-47e4-b8c9-06a6b97b58d4"},"vehicle_type_id":"4","last_reported":1778758919,"current_range_meters":8400,"station_id":"","pricing_plan_id":"cebpf4jnsgd1na2vs0mg"},{"bike_id":"34cd8bea-a8f6-49af-9554-9386e6d99017","system_id":"levelo_inurba_marseille","lat":43.28146,"lon":5.42642,"is_reserved":false,"is_disabled":true,"rental_uris":{"android":"levelo://app?vid=34cd8bea-a8f6-49af-9554-9386e6d99017","ios":"levelo://app?vid=34cd8bea-a8f6-49af-9554-9386e6d99017"},"vehicle_type_id":"4","last_reported":1778758919,"current_range_meters":8400,"station_id":"ce4bhnh2rcd13ifvqgug","pricing_plan_id":"cebpf4jnsgd1na2vs0mg"},{"bike_id":"1700d583-7597-4737-8882-3cff6f507183","system_id":"levelo_inurba_marseille","lat":43.30643,"lon":5.40051,"is_reserved":false,"is_disabled":false,"rental_uris":{"android":"levelo://app?vid=1700d583-7597-4737-8882-3cff6f507183","ios":"levelo://app?vid=1700d583-7597-4737-8882-3cff6f507183"},"vehicle_type_id":"4","last_reported":1778758919,"current_range_meters":8400,"station_id":"ce4bh112rcd13ifvqda0","pricing_plan_id":"cebpf4jnsgd1na2vs0mg"},{"bike_id":"35e8ee96-f021-41ee-8a16-5cd416ace246","system_id":"levelo_inurba_marseille","lat":43.28173,"lon":5.42622,"is_reserved":false,"is_disabled":false,"rental_uris":{"android":"levelo://app?vid=35e8ee96-f021-41ee-8a16-5cd416ace246","ios":"levelo://app?vid=35e8ee96-f021-41ee-8a16-5cd416ace246"},"vehicle_type_id":"4","last_reported":1778758919,"current_range_meters":8400,"station_id":"ce4bhnh2rcd13ifvqgug","pricing_plan_id":"cebpf4jnsgd1na2vs0mg"},{"bike_id":"a805dd41-a9d9-4ba0-b517-cd11edd5e755","system_id":"levelo_inurba_marseille","lat":43.28528,"lon":5.44116,"is_reserved":false,"is_disabled":false,"rental_uris":{"android":"levelo://app?vid=a805dd41-a9d9-4ba0-b517-cd11edd5e755","ios":"levelo://app?vid=a805dd41-a9d9-4ba0-b517-cd11edd5e755"},"vehicle_type_id":"4","last_reported":1778758919,"current_range_meters":8400,"station_id":"st_d3j3df2ikq2c7380ej80","pricing_plan_id":"cebpf4jnsgd1na2vs0mg"},{"bike_id":"97584df1-b6f6-4d5b-a233-f0962dc7cb39","system_id":"levelo_inurba_marseille","lat":43.2603,"lon":5.37547,"is_reserved":false,"is_disabled":false,"rental_uris":{"android":"levelo://app?vid=97584df1-b6f6-4d5b-a233-f0962dc7cb39","ios":"levelo://app?vid=97584df1-b6f6-4d5b-a233-f0962dc7cb39"},"vehicle_type_id":"4","last_reported":1778758919,"current_range_meters":8400,"station_id":"ce4bhgh2rcd13ifvqfa0","pricing_plan_id":"cebpf4jnsgd1na2vs0mg"},{"bike_id":"cc90a0a8-a1f0-4a30-a8be-482630da4418","system_id":"levelo_inurba_marseille","lat":43.29785,"lon":5.3764,"is_reserved":false,"is_disabled":false,"rental_uris":{"android":"levelo://app?vid=cc90a0a8-a1f0-4a30-a8be-482630da4418","ios":"levelo://app?vid=cc90a0a8-a1f0-4a30-a8be-482630da4418"},"vehicle_type_id":"4","last_reported":1778758919,"current_range_meters":8400,"station_id":"","pricing_plan_id":"cebpf4jnsgd1na2vs0mg"},{"bike_id":"9062255f-0238-4e6e-b972-b53f3708ba09","system_id":"levelo_inurba_marseille","lat":43.25339,"lon":5.42166,"is_reserved":false,"is_disabled":false,"rental_uris":{"android":"levelo://app?vid=9062255f-0238-4e6e-b972-b53f3708ba09","ios":"levelo://app?vid=9062255f-0238-4e6e-b972-b53f3708ba09"},"vehicle_type_id":"4","last_reported":1778758919,"current_range_meters":8400,"station_id":"st_d2m65c5bi1j21697t3ng","pricing_plan_id":"cebpf4jnsgd1na2vs0mg"},{"bike_id":"befa7ca9-07da-4b3a-822a-5e23279d9209","system_id":"levelo_inurba_marseille","lat":43.29572,"lon":5.4227,"is_reserved":false,"is_disabled":false,"rental_uris":{"android":"levelo://app?vid=befa7ca9-07da-4b3a-822a-5e23279d9209","ios":"levelo://app?vid=befa7ca9-07da-4b3a-822a-5e23279d9209"},"vehicle_type_id":"4","last_reported":1778758919,"current_range_meters":8400,"station_id":"ce4bhph2rcd13ifvqhdg","pricing_plan_id":"cebpf4jnsgd1na2vs0mg"},{"bike_id":"b97ca2c9-214e-411d-929b-8472faf4cb9e","system_id":"levelo_inurba_marseille","lat":43.27372,"lon":5.36247,"is_reserved":false,"is_disabled":false,"rental_uris":{"android":"levelo://app?vid=b97ca2c9-214e-411d-929b-8472faf4cb9e","ios":"levelo://app?vid=b97ca2c9-214e-411d-929b-8472faf4cb9e"},"vehicle_type_id":"4","last_reported":1778758919,"current_range_meters":8400,"station_id":"ce4bhbh2rcd13ifvqeo0","pricing_plan_id":"cebpf4jnsgd1na2vs0mg"},{"bike_id":"56f10c3c-5d40-4146-aea1-bd5b16dc8ee8","system_id":"levelo_inurba_marseille","lat":43.33218,"lon":5.40626,"is_reserved":false,"is_disabled":false,"rental_uris":{"android":"levelo://app?vid=56f10c3c-5d40-4146-aea1-bd5b16dc8ee8","ios":"levelo://app?vid=56f10c3c-5d40-4146-aea1-bd5b16dc8ee8"},"vehicle_type_id":"4","last_reported":1778758919,"current_range_meters":8400,"station_id":"","pricing_plan_id":"cebpf4jnsgd1na2vs0mg"},{"bike_id":"fdf2397f-f547-4cc6-add7-832fcf66c310","system_id":"levelo_inurba_marseille","lat":43.28852,"lon":5.35859,"is_reserved":false,"is_disabled":false,"rental_uris":{"android":"levelo://app?vid=fdf2397f-f547-4cc6-add7-832fcf66c310","ios":"levelo://app?vid=fdf2397f-f547-4cc6-add7-832fcf66c310"},"vehicle_type_id":"4","last_reported":1778758919,"current_range_meters":8400,"station_id":"ce4bhb12rcd13ifvqem0","pricing_plan_id":"cebpf4jnsgd1na2vs0mg"},{"bike_id":"8be8f316-77bb-4038-a3f0-a943aa21a0e0","system_id":"levelo_inurba_marseille","lat":43.30554,"lon":5.36527,"is_reserved":false,"is_disabled":false,"rental_uris":{"android":"levelo://app?vid=8be8f316-77bb-4038-a3f0-a943aa21a0e0","ios":"levelo://app?vid=8be8f316-77bb-4038-a3f0-a943aa21a0e0"},"vehicle_type_id":"4","last_reported":1778758919,"current_range_meters":8400,"station_id":"ce4bgs12rcd13ifvqcag","pricing_plan_id":"cebpf4jnsgd1na2vs0mg"},{"bike_id":"0480f53f-32e7-48a7-94bd-18e696381361","system_id":"levelo_inurba_marseille","lat":43.3234,"lon":5.36755,"is_reserved":false,"is_disabled":false,"rental_uris":{"android":"levelo://app?vid=0480f53f-32e7-48a7-94bd-18e696381361","ios":"levelo://app?vid=0480f53f-32e7-48a7-94bd-18e696381361"},"vehicle_type_id":"4","last_reported":1778758919,"current_range_meters":8800,"station_id":"ce4bhsh2rcd13ifvqi2g","pricing_plan_id":"cebpf4jnsgd1na2vs0mg"},{"bike_id":"fc226c98-f322-48a2-8f2c-6caf8724578d","system_id":"levelo_inurba_marseille","lat":43.31126,"lon":5.37765,"is_reserved":false,"is_disabled":false,"rental_uris":{"android":"levelo://app?vid=fc226c98-f322-48a2-8f2c-6caf8724578d","ios":"levelo://app?vid=fc226c98-f322-48a2-8f2c-6caf8724578d"},"vehicle_type_id":"4","last_reported":1778758919,"current_range_meters":8800,"station_id":"ce4bgt92rcd13ifvqcg0","pricing_plan_id":"cebpf4jnsgd1na2vs0mg"},{"bike_id":"5608188d-af23-46a0-ab1a-2bcb89be4f60","system_id":"levelo_inurba_marseille","lat":43.24558,"lon":5.38096,"is_reserved":false,"is_disabled":false,"rental_uris":{"android":"levelo://app?vid=5608188d-af23-46a0-ab1a-2bcb89be4f60","ios":"levelo://app?vid=5608188d-af23-46a0-ab1a-2bcb89be4f60"},"vehicle_type_id":"4","last_reported":1778758919,"current_range_meters":8800,"station_id":"ce4bhih2rcd13ifvqfr0","pricing_plan_id":"cebpf4jnsgd1na2vs0mg"},{"bike_id":"be5ec2e3-e51c-450e-b635-2e2a7b9f299b","system_id":"levelo_inurba_marseille","lat":43.24357,"lon":5.37136,"is_reserved":false,"is_disabled":false,"rental_uris":{"android":"levelo://app?vid=be5ec2e3-e51c-450e-b635-2e2a7b9f299b","ios":"levelo://app?vid=be5ec2e3-e51c-450e-b635-2e2a7b9f299b"},"vehicle_type_id":"4","last_reported":1778758919,"current_range_meters":8800,"station_id":"","pricing_plan_id":"cebpf4jnsgd1na2vs0mg"},{"bike_id":"01d6866d-1fa3-4b9d-a3c3-f33e2c3346ea","system_id":"levelo_inurba_marseille","lat":43.23783,"lon":5.36617,"is_reserved":false,"is_disabled":false,"rental_uris":{"android":"levelo://app?vid=01d6866d-1fa3-4b9d-a3c3-f33e2c3346ea","ios":"levelo://app?vid=01d6866d-1fa3-4b9d-a3c3-f33e2c3346ea"},"vehicle_type_id":"4","last_reported":1778758919,"current_range_meters":8800,"station_id":"st_d3nk18o9ro0c73en2l3g","pricing_plan_id":"cebpf4jnsgd1na2vs0mg"},{"bike_id":"e0fe3a17-472d-4871-8c21-cb195f5dd1f7","system_id":"levelo_inurba_marseille","lat":43.33748,"lon":5.37442,"is_reserved":false,"is_disabled":false,"rental_uris":{"android":"levelo://app?vid=e0fe3a17-472d-4871-8c21-cb195f5dd1f7","ios":"levelo://app?vid=e0fe3a17-472d-4871-8c21-cb195f5dd1f7"},"vehicle_type_id":"4","last_reported":1778758919,"current_range_meters":8800,"station_id":"","pricing_plan_id":"cebpf4jnsgd1na2vs0mg"},{"bike_id":"975defbf-c33f-4bba-8ed9-2f5f7058411e","system_id":"levelo_inurba_marseille","lat":43.21706,"lon":5.34566,"is_reserved":false,"is_disabled":false,"rental_uris":{"android":"levelo://app?vid=975defbf-c33f-4bba-8ed9-2f5f7058411e","ios":"levelo://app?vid=975defbf-c33f-4bba-8ed9-2f5f7058411e"},"vehicle_type_id":"4","last_reported":1778758919,"current_range_meters":8800,"station_id":"st_cvj6r9ubvosntc0bgbag","pricing_plan_id":"cebpf4jnsgd1na2vs0mg"},{"bike_id":"b1aeb62c-99d7-42de-90eb-0e40a0a34789","system_id":"levelo_inurba_marseille","lat":43.31403,"lon":5.38414,"is_reserved":false,"is_disabled":false,"rental_uris":{"android":"levelo://app?vid=b1aeb62c-99d7-42de-90eb-0e40a0a34789","ios":"levelo://app?vid=b1aeb62c-99d7-42de-90eb-0e40a0a34789"},"vehicle_type_id":"4","last_reported":1778758919,"current_range_meters":8800,"station_id":"","pricing_plan_id":"cebpf4jnsgd1na2vs0mg"},{"bike_id":"caa46499-a8ba-48f9-80ba-02ea856c1a54","system_id":"levelo_inurba_marseille","lat":43.30936,"lon":5.40141,"is_reserved":false,"is_disabled":false,"rental_uris":{"android":"levelo://app?vid=caa46499-a8ba-48f9-80ba-02ea856c1a54","ios":"levelo://app?vid=caa46499-a8ba-48f9-80ba-02ea856c1a54"},"vehicle_type_id":"4","last_reported":1778758919,"current_range_meters":8800,"station_id":"ce4bgvp2rcd13ifvqct0","pricing_plan_id":"cebpf4jnsgd1na2vs0mg"},{"bike_id":"14ca5927-a52c-4674-8786-4b2a04005b2e","system_id":"levelo_inurba_marseille","lat":43.31081,"lon":5.37192,"is_reserved":false,"is_disabled":false,"rental_uris":{"android":"levelo://app?vid=14ca5927-a52c-4674-8786-4b2a04005b2e","ios":"levelo://app?vid=14ca5927-a52c-4674-8786-4b2a04005b2e"},"vehicle_type_id":"4","last_reported":1778758919,"current_range_meters":8800,"station_id":"st_d4kl2rp97mjs73e7tdfg","pricing_plan_id":"cebpf4jnsgd1na2vs0mg"},{"bike_id":"f0ae77a3-32eb-4c7c-8efc-fba7b5d64db2","system_id":"levelo_inurba_marseille","lat":43.27821,"lon":5.39196,"is_reserved":false,"is_disabled":false,"rental_uris":{"android":"levelo://app?vid=f0ae77a3-32eb-4c7c-8efc-fba7b5d64db2","ios":"levelo://app?vid=f0ae77a3-32eb-4c7c-8efc-fba7b5d64db2"},"vehicle_type_id":"4","last_reported":1778758919,"current_range_meters":8800,"station_id":"ce4bhjp2rcd13ifvqga0","pricing_plan_id":"cebpf4jnsgd1na2vs0mg"},{"bike_id":"f0fddcf7-5d98-4d8a-9bda-e27dac14a45c","system_id":"levelo_inurba_marseille","lat":43.33516,"lon":5.37496,"is_reserved":false,"is_disabled":false,"rental_uris":{"android":"levelo://app?vid=f0fddcf7-5d98-4d8a-9bda-e27dac14a45c","ios":"levelo://app?vid=f0fddcf7-5d98-4d8a-9bda-e27dac14a45c"},"vehicle_type_id":"4","last_reported":1778758919,"current_range_meters":8800,"station_id":"st_d46tts09ee8s73dlu43g","pricing_plan_id":"cebpf4jnsgd1na2vs0mg"},{"bike_id":"40fc61a1-fa93-44f1-b0ad-622036c3f351","system_id":"levelo_inurba_marseille","lat":43.23145,"lon":5.4373,"is_reserved":false,"is_disabled":false,"rental_uris":{"android":"levelo://app?vid=40fc61a1-fa93-44f1-b0ad-622036c3f351","ios":"levelo://app?vid=40fc61a1-fa93-44f1-b0ad-622036c3f351"},"vehicle_type_id":"4","last_reported":1778758919,"current_range_meters":8800,"station_id":"ce4bhmp2rcd13ifvqgog","pricing_plan_id":"cebpf4jnsgd1na2vs0mg"},{"bike_id":"d8b68879-59ba-4273-b219-2f9226170b3f","system_id":"levelo_inurba_marseille","lat":43.27956,"lon":5.41038,"is_reserved":false,"is_disabled":true,"rental_uris":{"android":"levelo://app?vid=d8b68879-59ba-4273-b219-2f9226170b3f","ios":"levelo://app?vid=d8b68879-59ba-4273-b219-2f9226170b3f"},"vehicle_type_id":"4","last_reported":1778758919,"current_range_meters":8800,"station_id":"ce4bhnp2rcd13ifvqh0g","pricing_plan_id":"cebpf4jnsgd1na2vs0mg"},{"bike_id":"5e360434-c987-4796-baac-a41f6d54bfe8","system_id":"levelo_inurba_marseille","lat":43.25075,"lon":5.41213,"is_reserved":false,"is_disabled":false,"rental_uris":{"android":"levelo://app?vid=5e360434-c987-4796-baac-a41f6d54bfe8","ios":"levelo://app?vid=5e360434-c987-4796-baac-a41f6d54bfe8"},"vehicle_type_id":"4","last_reported":1778758919,"current_range_meters":8800,"station_id":"","pricing_plan_id":"cebpf4jnsgd1na2vs0mg"},{"bike_id":"6171fa24-5cbb-4dd4-8a11-21768112000d","system_id":"levelo_inurba_marseille","lat":43.28531,"lon":5.44094,"is_reserved":false,"is_disabled":false,"rental_uris":{"android":"levelo://app?vid=6171fa24-5cbb-4dd4-8a11-21768112000d","ios":"levelo://app?vid=6171fa24-5cbb-4dd4-8a11-21768112000d"},"vehicle_type_id":"4","last_reported":1778758919,"current_range_meters":8800,"station_id":"st_d3j3df2ikq2c7380ej80","pricing_plan_id":"cebpf4jnsgd1na2vs0mg"},{"bike_id":"8124607f-e082-4e42-ade7-b5c221bca8c7","system_id":"levelo_inurba_marseille","lat":43.26198,"lon":5.37936,"is_reserved":false,"is_disabled":false,"rental_uris":{"android":"levelo://app?vid=8124607f-e082-4e42-ade7-b5c221bca8c7","ios":"levelo://app?vid=8124607f-e082-4e42-ade7-b5c221bca8c7"},"vehicle_type_id":"4","last_reported":1778758919,"current_range_meters":8800,"station_id":"ce4bhjp2rcd13ifvqg90","pricing_plan_id":"cebpf4jnsgd1na2vs0mg"},{"bike_id":"587a7f7e-5e69-4c24-b732-584e124682b7","system_id":"levelo_inurba_marseille","lat":43.27338,"lon":5.39089,"is_reserved":false,"is_disabled":false,"rental_uris":{"android":"levelo://app?vid=587a7f7e-5e69-4c24-b732-584e124682b7","ios":"levelo://app?vid=587a7f7e-5e69-4c24-b732-584e124682b7"},"vehicle_type_id":"4","last_reported":1778758919,"current_range_meters":8800,"station_id":"ce4bhgp2rcd13ifvqfe0","pricing_plan_id":"cebpf4jnsgd1na2vs0mg"},{"bike_id":"fd926cd8-f3e7-4ea0-9811-e5d39a863ccd","system_id":"levelo_inurba_marseille","lat":43.29032,"lon":5.39975,"is_reserved":false,"is_disabled":true,"rental_uris":{"android":"levelo://app?vid=fd926cd8-f3e7-4ea0-9811-e5d39a863ccd","ios":"levelo://app?vid=fd926cd8-f3e7-4ea0-9811-e5d39a863ccd"},"vehicle_type_id":"4","last_reported":1778758919,"current_range_meters":8800,"station_id":"ce4bh392rcd13ifvqdm0","pricing_plan_id":"cebpf4jnsgd1na2vs0mg"},{"bike_id":"9bea1e5e-87ea-43e0-9584-86663785e530","system_id":"levelo_inurba_marseille","lat":43.27204,"lon":5.39162,"is_reserved":false,"is_disabled":false,"rental_uris":{"android":"levelo://app?vid=9bea1e5e-87ea-43e0-9584-86663785e530","ios":"levelo://app?vid=9bea1e5e-87ea-43e0-9584-86663785e530"},"vehicle_type_id":"4","last_reported":1778758919,"current_range_meters":8800,"station_id":"ce4bhhp2rcd13ifvqfm0","pricing_plan_id":"cebpf4jnsgd1na2vs0mg"},{"bike_id":"19a1b87f-2a01-464a-b4e7-0762c73407fe","system_id":"levelo_inurba_marseille","lat":43.2559,"lon":5.38233,"is_reserved":false,"is_disabled":false,"rental_uris":{"android":"levelo://app?vid=19a1b87f-2a01-464a-b4e7-0762c73407fe","ios":"levelo://app?vid=19a1b87f-2a01-464a-b4e7-0762c73407fe"},"vehicle_type_id":"4","last_reported":1778758919,"current_range_meters":8800,"station_id":"ce4bhih2rcd13ifvqfs0","pricing_plan_id":"cebpf4jnsgd1na2vs0mg"},{"bike_id":"d06e21cb-7e20-41e8-9360-9b829e92b25c","system_id":"levelo_inurba_marseille","lat":43.33173,"lon":5.37653,"is_reserved":false,"is_disabled":false,"rental_uris":{"android":"levelo://app?vid=d06e21cb-7e20-41e8-9360-9b829e92b25c","ios":"levelo://app?vid=d06e21cb-7e20-41e8-9360-9b829e92b25c"},"vehicle_type_id":"4","last_reported":1778758919,"current_range_meters":8800,"station_id":"st_d46cu089ee8s73dldbu0","pricing_plan_id":"cebpf4jnsgd1na2vs0mg"},{"bike_id":"4eab02ce-d2f9-46e4-831c-81c026ee11fb","system_id":"levelo_inurba_marseille","lat":43.26208,"lon":5.37926,"is_reserved":false,"is_disabled":false,"rental_uris":{"android":"levelo://app?vid=4eab02ce-d2f9-46e4-831c-81c026ee11fb","ios":"levelo://app?vid=4eab02ce-d2f9-46e4-831c-81c026ee11fb"},"vehicle_type_id":"4","last_reported":1778758919,"current_range_meters":9200,"station_id":"ce4bhjp2rcd13ifvqg90","pricing_plan_id":"cebpf4jnsgd1na2vs0mg"},{"bike_id":"a749aa3e-52e5-43f2-aef2-449bb7bb45e8","system_id":"levelo_inurba_marseille","lat":43.31227,"lon":5.38471,"is_reserved":false,"is_disabled":false,"rental_uris":{"android":"levelo://app?vid=a749aa3e-52e5-43f2-aef2-449bb7bb45e8","ios":"levelo://app?vid=a749aa3e-52e5-43f2-aef2-449bb7bb45e8"},"vehicle_type_id":"4","last_reported":1778758919,"current_range_meters":9200,"station_id":"","pricing_plan_id":"cebpf4jnsgd1na2vs0mg"},{"bike_id":"9f727f48-3b5c-4036-ba2f-1fc1b0f93201","system_id":"levelo_inurba_marseille","lat":43.2874,"lon":5.37934,"is_reserved":false,"is_disabled":false,"rental_uris":{"android":"levelo://app?vid=9f727f48-3b5c-4036-ba2f-1fc1b0f93201","ios":"levelo://app?vid=9f727f48-3b5c-4036-ba2f-1fc1b0f93201"},"vehicle_type_id":"4","last_reported":1778758919,"current_range_meters":9200,"station_id":"ce4bh9p2rcd13ifvqec0","pricing_plan_id":"cebpf4jnsgd1na2vs0mg"},{"bike_id":"9dc449ee-a590-4785-ac49-83c95093a19c","system_id":"levelo_inurba_marseille","lat":43.24386,"lon":5.37058,"is_reserved":false,"is_disabled":false,"rental_uris":{"android":"levelo://app?vid=9dc449ee-a590-4785-ac49-83c95093a19c","ios":"levelo://app?vid=9dc449ee-a590-4785-ac49-83c95093a19c"},"vehicle_type_id":"4","last_reported":1778758919,"current_range_meters":9200,"station_id":"ce4bhhh2rcd13ifvqfk0","pricing_plan_id":"cebpf4jnsgd1na2vs0mg"},{"bike_id":"8a8b0a8e-672e-418f-a134-a039e9322b02","system_id":"levelo_inurba_marseille","lat":43.29548,"lon":5.39422,"is_reserved":false,"is_disabled":true,"rental_uris":{"android":"levelo://app?vid=8a8b0a8e-672e-418f-a134-a039e9322b02","ios":"levelo://app?vid=8a8b0a8e-672e-418f-a134-a039e9322b02"},"vehicle_type_id":"4","last_reported":1778758919,"current_range_meters":9200,"station_id":"ce4bh292rcd13ifvqdf0","pricing_plan_id":"cebpf4jnsgd1na2vs0mg"},{"bike_id":"72a46f85-b2e6-48f9-bf02-c3e6f81a7acb","system_id":"levelo_inurba_marseille","lat":43.2621,"lon":5.37918,"is_reserved":false,"is_disabled":false,"rental_uris":{"android":"levelo://app?vid=72a46f85-b2e6-48f9-bf02-c3e6f81a7acb","ios":"levelo://app?vid=72a46f85-b2e6-48f9-bf02-c3e6f81a7acb"},"vehicle_type_id":"4","last_reported":1778758919,"current_range_meters":9200,"station_id":"ce4bhjp2rcd13ifvqg90","pricing_plan_id":"cebpf4jnsgd1na2vs0mg"},{"bike_id":"b35b42df-1e5c-4e3c-be7f-d5351e008fb3","system_id":"levelo_inurba_marseille","lat":43.33547,"lon":5.37453,"is_reserved":false,"is_disabled":false,"rental_uris":{"android":"levelo://app?vid=b35b42df-1e5c-4e3c-be7f-d5351e008fb3","ios":"levelo://app?vid=b35b42df-1e5c-4e3c-be7f-d5351e008fb3"},"vehicle_type_id":"4","last_reported":1778758919,"current_range_meters":9200,"station_id":"st_d46tts09ee8s73dlu43g","pricing_plan_id":"cebpf4jnsgd1na2vs0mg"},{"bike_id":"e73472d7-b33b-4675-995d-40e938e15a0b","system_id":"levelo_inurba_marseille","lat":43.30913,"lon":5.36841,"is_reserved":false,"is_disabled":false,"rental_uris":{"android":"levelo://app?vid=e73472d7-b33b-4675-995d-40e938e15a0b","ios":"levelo://app?vid=e73472d7-b33b-4675-995d-40e938e15a0b"},"vehicle_type_id":"4","last_reported":1778758919,"current_range_meters":9200,"station_id":"ce4bgn92rcd13ifvqbvg","pricing_plan_id":"cebpf4jnsgd1na2vs0mg"},{"bike_id":"3b40133b-d576-45cb-9184-9745dbafe64b","system_id":"levelo_inurba_marseille","lat":43.29969,"lon":5.41298,"is_reserved":false,"is_disabled":false,"rental_uris":{"android":"levelo://app?vid=3b40133b-d576-45cb-9184-9745dbafe64b","ios":"levelo://app?vid=3b40133b-d576-45cb-9184-9745dbafe64b"},"vehicle_type_id":"4","last_reported":1778758919,"current_range_meters":9200,"station_id":"ce4bhp12rcd13ifvqh9g","pricing_plan_id":"cebpf4jnsgd1na2vs0mg"},{"bike_id":"03763523-6f3b-4d5b-8669-5273ed49ed77","system_id":"levelo_inurba_marseille","lat":43.26802,"lon":5.40267,"is_reserved":false,"is_disabled":false,"rental_uris":{"android":"levelo://app?vid=03763523-6f3b-4d5b-8669-5273ed49ed77","ios":"levelo://app?vid=03763523-6f3b-4d5b-8669-5273ed49ed77"},"vehicle_type_id":"4","last_reported":1778758919,"current_range_meters":9200,"station_id":"ce501612rcd8frsf0b60","pricing_plan_id":"cebpf4jnsgd1na2vs0mg"},{"bike_id":"bdc1e4a6-6881-445e-add5-bdbe16bdea85","system_id":"levelo_inurba_marseille","lat":43.30554,"lon":5.36519,"is_reserved":false,"is_disabled":false,"rental_uris":{"android":"levelo://app?vid=bdc1e4a6-6881-445e-add5-bdbe16bdea85","ios":"levelo://app?vid=bdc1e4a6-6881-445e-add5-bdbe16bdea85"},"vehicle_type_id":"4","last_reported":1778758919,"current_range_meters":9200,"station_id":"ce4bgs12rcd13ifvqcag","pricing_plan_id":"cebpf4jnsgd1na2vs0mg"},{"bike_id":"7e2f95fd-2605-4477-9b92-0e4ef2227e99","system_id":"levelo_inurba_marseille","lat":43.29786,"lon":5.3852,"is_reserved":false,"is_disabled":false,"rental_uris":{"android":"levelo://app?vid=7e2f95fd-2605-4477-9b92-0e4ef2227e99","ios":"levelo://app?vid=7e2f95fd-2605-4477-9b92-0e4ef2227e99"},"vehicle_type_id":"4","last_reported":1778758919,"current_range_meters":9200,"station_id":"","pricing_plan_id":"cebpf4jnsgd1na2vs0mg"},{"bike_id":"0fe54f00-8fed-42e9-9738-daea1b9b6dd7","system_id":"levelo_inurba_marseille","lat":43.24188,"lon":5.3639,"is_reserved":false,"is_disabled":false,"rental_uris":{"android":"levelo://app?vid=0fe54f00-8fed-42e9-9738-daea1b9b6dd7","ios":"levelo://app?vid=0fe54f00-8fed-42e9-9738-daea1b9b6dd7"},"vehicle_type_id":"4","last_reported":1778758919,"current_range_meters":9200,"station_id":"cpo36qri1sfpv3e86is0","pricing_plan_id":"cebpf4jnsgd1na2vs0mg"},{"bike_id":"1daf7321-7267-490f-b510-d317a2d79da3","system_id":"levelo_inurba_marseille","lat":43.31294,"lon":5.37865,"is_reserved":false,"is_disabled":false,"rental_uris":{"android":"levelo://app?vid=1daf7321-7267-490f-b510-d317a2d79da3","ios":"levelo://app?vid=1daf7321-7267-490f-b510-d317a2d79da3"},"vehicle_type_id":"4","last_reported":1778758919,"current_range_meters":9200,"station_id":"","pricing_plan_id":"cebpf4jnsgd1na2vs0mg"},{"bike_id":"07f256de-b05d-4562-aae9-3b482e118493","system_id":"levelo_inurba_marseille","lat":43.30614,"lon":5.37236,"is_reserved":false,"is_disabled":false,"rental_uris":{"android":"levelo://app?vid=07f256de-b05d-4562-aae9-3b482e118493","ios":"levelo://app?vid=07f256de-b05d-4562-aae9-3b482e118493"},"vehicle_type_id":"4","last_reported":1778758919,"current_range_meters":9200,"station_id":"ce4bgqh2rcd13ifvqc4g","pricing_plan_id":"cebpf4jnsgd1na2vs0mg"},{"bike_id":"d2378736-faa6-4b3d-b520-c3399b756631","system_id":"levelo_inurba_marseille","lat":43.28796,"lon":5.42477,"is_reserved":false,"is_disabled":false,"rental_uris":{"android":"levelo://app?vid=d2378736-faa6-4b3d-b520-c3399b756631","ios":"levelo://app?vid=d2378736-faa6-4b3d-b520-c3399b756631"},"vehicle_type_id":"4","last_reported":1778758919,"current_range_meters":9200,"station_id":"","pricing_plan_id":"cebpf4jnsgd1na2vs0mg"},{"bike_id":"ca3ff5ba-beb0-4730-ae3b-017407a047db","system_id":"levelo_inurba_marseille","lat":43.26325,"lon":5.4022,"is_reserved":false,"is_disabled":false,"rental_uris":{"android":"levelo://app?vid=ca3ff5ba-beb0-4730-ae3b-017407a047db","ios":"levelo://app?vid=ca3ff5ba-beb0-4730-ae3b-017407a047db"},"vehicle_type_id":"4","last_reported":1778758919,"current_range_meters":9200,"station_id":"","pricing_plan_id":"cebpf4jnsgd1na2vs0mg"},{"bike_id":"a3284f6e-6540-4c55-99cc-b6b2cd3c1aca","system_id":"levelo_inurba_marseille","lat":43.30683,"lon":5.40057,"is_reserved":false,"is_disabled":false,"rental_uris":{"android":"levelo://app?vid=a3284f6e-6540-4c55-99cc-b6b2cd3c1aca","ios":"levelo://app?vid=a3284f6e-6540-4c55-99cc-b6b2cd3c1aca"},"vehicle_type_id":"4","last_reported":1778758919,"current_range_meters":9200,"station_id":"ce4bh112rcd13ifvqda0","pricing_plan_id":"cebpf4jnsgd1na2vs0mg"},{"bike_id":"bad213e1-775c-4526-9199-e07ee68bfd65","system_id":"levelo_inurba_marseille","lat":43.292,"lon":5.36054,"is_reserved":false,"is_disabled":false,"rental_uris":{"android":"levelo://app?vid=bad213e1-775c-4526-9199-e07ee68bfd65","ios":"levelo://app?vid=bad213e1-775c-4526-9199-e07ee68bfd65"},"vehicle_type_id":"4","last_reported":1778758919,"current_range_meters":9600,"station_id":"ce4bhbh2rcd13ifvqeqg","pricing_plan_id":"cebpf4jnsgd1na2vs0mg"},{"bike_id":"cd382ef6-e165-4c5a-9266-61b6eb8de4e7","system_id":"levelo_inurba_marseille","lat":43.26545,"lon":5.37297,"is_reserved":false,"is_disabled":false,"rental_uris":{"android":"levelo://app?vid=cd382ef6-e165-4c5a-9266-61b6eb8de4e7","ios":"levelo://app?vid=cd382ef6-e165-4c5a-9266-61b6eb8de4e7"},"vehicle_type_id":"4","last_reported":1778758919,"current_range_meters":9600,"station_id":"ce4bhg12rcd13ifvqf70","pricing_plan_id":"cebpf4jnsgd1na2vs0mg"},{"bike_id":"9c7d3a6b-fd65-4577-9fe6-3362f5abd0a5","system_id":"levelo_inurba_marseille","lat":43.26034,"lon":5.37544,"is_reserved":false,"is_disabled":false,"rental_uris":{"android":"levelo://app?vid=9c7d3a6b-fd65-4577-9fe6-3362f5abd0a5","ios":"levelo://app?vid=9c7d3a6b-fd65-4577-9fe6-3362f5abd0a5"},"vehicle_type_id":"4","last_reported":1778758919,"current_range_meters":9600,"station_id":"ce4bhgh2rcd13ifvqfa0","pricing_plan_id":"cebpf4jnsgd1na2vs0mg"},{"bike_id":"0d384e12-7d27-4b4b-bb7f-7b05cc5cdd0f","system_id":"levelo_inurba_marseille","lat":43.2615,"lon":5.37497,"is_reserved":false,"is_disabled":false,"rental_uris":{"android":"levelo://app?vid=0d384e12-7d27-4b4b-bb7f-7b05cc5cdd0f","ios":"levelo://app?vid=0d384e12-7d27-4b4b-bb7f-7b05cc5cdd0f"},"vehicle_type_id":"4","last_reported":1778758919,"current_range_meters":9600,"station_id":"ce4bhgp2rcd13ifvqfc0","pricing_plan_id":"cebpf4jnsgd1na2vs0mg"},{"bike_id":"1ed1fda2-d7ee-4142-95ad-066c7b6e8d7a","system_id":"levelo_inurba_marseille","lat":43.28971,"lon":5.3783,"is_reserved":false,"is_disabled":false,"rental_uris":{"android":"levelo://app?vid=1ed1fda2-d7ee-4142-95ad-066c7b6e8d7a","ios":"levelo://app?vid=1ed1fda2-d7ee-4142-95ad-066c7b6e8d7a"},"vehicle_type_id":"4","last_reported":1778758919,"current_range_meters":9600,"station_id":"ce4bh9p2rcd13ifvqed0","pricing_plan_id":"cebpf4jnsgd1na2vs0mg"},{"bike_id":"1057eeed-7e4b-489f-9ae0-8252d1a368c2","system_id":"levelo_inurba_marseille","lat":43.28939,"lon":5.36627,"is_reserved":false,"is_disabled":false,"rental_uris":{"android":"levelo://app?vid=1057eeed-7e4b-489f-9ae0-8252d1a368c2","ios":"levelo://app?vid=1057eeed-7e4b-489f-9ae0-8252d1a368c2"},"vehicle_type_id":"4","last_reported":1778758919,"current_range_meters":9600,"station_id":"ce4bhap2rcd13ifvqek0","pricing_plan_id":"cebpf4jnsgd1na2vs0mg"},{"bike_id":"82f93eec-9eb2-44e6-a22c-b08c7c605f64","system_id":"levelo_inurba_marseille","lat":43.29718,"lon":5.377,"is_reserved":false,"is_disabled":false,"rental_uris":{"android":"levelo://app?vid=82f93eec-9eb2-44e6-a22c-b08c7c605f64","ios":"levelo://app?vid=82f93eec-9eb2-44e6-a22c-b08c7c605f64"},"vehicle_type_id":"4","last_reported":1778758919,"current_range_meters":9600,"station_id":"ce4bgkh2rcd13ifvqbl0","pricing_plan_id":"cebpf4jnsgd1na2vs0mg"},{"bike_id":"277c106d-5962-4ac5-8f17-fa3c0a1eecdc","system_id":"levelo_inurba_marseille","lat":43.22581,"lon":5.41609,"is_reserved":false,"is_disabled":false,"rental_uris":{"android":"levelo://app?vid=277c106d-5962-4ac5-8f17-fa3c0a1eecdc","ios":"levelo://app?vid=277c106d-5962-4ac5-8f17-fa3c0a1eecdc"},"vehicle_type_id":"4","last_reported":1778758919,"current_range_meters":9600,"station_id":"st_d2o4gvlbi1j2169b742g","pricing_plan_id":"cebpf4jnsgd1na2vs0mg"},{"bike_id":"996bad11-6ba1-4abe-b50c-2345edb07b6b","system_id":"levelo_inurba_marseille","lat":43.30131,"lon":5.38763,"is_reserved":false,"is_disabled":false,"rental_uris":{"android":"levelo://app?vid=996bad11-6ba1-4abe-b50c-2345edb07b6b","ios":"levelo://app?vid=996bad11-6ba1-4abe-b50c-2345edb07b6b"},"vehicle_type_id":"4","last_reported":1778758919,"current_range_meters":9600,"station_id":"ce4bghh2rcd13ifvqb60","pricing_plan_id":"cebpf4jnsgd1na2vs0mg"},{"bike_id":"1dff7f60-c48e-4ff4-87df-6bc7f11bee78","system_id":"levelo_inurba_marseille","lat":43.31,"lon":5.37194,"is_reserved":false,"is_disabled":false,"rental_uris":{"android":"levelo://app?vid=1dff7f60-c48e-4ff4-87df-6bc7f11bee78","ios":"levelo://app?vid=1dff7f60-c48e-4ff4-87df-6bc7f11bee78"},"vehicle_type_id":"4","last_reported":1778758919,"current_range_meters":9600,"station_id":"st_d4kl2rp97mjs73e7tdfg","pricing_plan_id":"cebpf4jnsgd1na2vs0mg"},{"bike_id":"8ae576a6-008d-4c27-93ca-561952a87161","system_id":"levelo_inurba_marseille","lat":43.26172,"lon":5.37491,"is_reserved":false,"is_disabled":true,"rental_uris":{"android":"levelo://app?vid=8ae576a6-008d-4c27-93ca-561952a87161","ios":"levelo://app?vid=8ae576a6-008d-4c27-93ca-561952a87161"},"vehicle_type_id":"4","last_reported":1778758919,"current_range_meters":9600,"station_id":"ce4bhgp2rcd13ifvqfc0","pricing_plan_id":"cebpf4jnsgd1na2vs0mg"},{"bike_id":"c61d3c74-3bf9-46ad-96cb-3814bee180c7","system_id":"levelo_inurba_marseille","lat":43.29207,"lon":5.35757,"is_reserved":false,"is_disabled":false,"rental_uris":{"android":"levelo://app?vid=c61d3c74-3bf9-46ad-96cb-3814bee180c7","ios":"levelo://app?vid=c61d3c74-3bf9-46ad-96cb-3814bee180c7"},"vehicle_type_id":"4","last_reported":1778758919,"current_range_meters":9600,"station_id":"ce4bhb12rcd13ifvqel0","pricing_plan_id":"cebpf4jnsgd1na2vs0mg"},{"bike_id":"111390c2-b711-460b-8437-bd49adb3615f","system_id":"levelo_inurba_marseille","lat":43.26587,"lon":5.39013,"is_reserved":false,"is_disabled":false,"rental_uris":{"android":"levelo://app?vid=111390c2-b711-460b-8437-bd49adb3615f","ios":"levelo://app?vid=111390c2-b711-460b-8437-bd49adb3615f"},"vehicle_type_id":"4","last_reported":1778758919,"current_range_meters":9600,"station_id":"ce4bhe12rcd13ifvqf30","pricing_plan_id":"cebpf4jnsgd1na2vs0mg"},{"bike_id":"27e65b6e-d97c-46e4-a04d-93012a20ed6a","system_id":"levelo_inurba_marseille","lat":43.32074,"lon":5.36752,"is_reserved":false,"is_disabled":false,"rental_uris":{"android":"levelo://app?vid=27e65b6e-d97c-46e4-a04d-93012a20ed6a","ios":"levelo://app?vid=27e65b6e-d97c-46e4-a04d-93012a20ed6a"},"vehicle_type_id":"4","last_reported":1778758919,"current_range_meters":9600,"station_id":"ce4bhrh2rcd13ifvqhug","pricing_plan_id":"cebpf4jnsgd1na2vs0mg"},{"bike_id":"b9e56bc3-4066-4f17-b1ed-550ba71ef18e","system_id":"levelo_inurba_marseille","lat":43.23795,"lon":5.41443,"is_reserved":false,"is_disabled":false,"rental_uris":{"android":"levelo://app?vid=b9e56bc3-4066-4f17-b1ed-550ba71ef18e","ios":"levelo://app?vid=b9e56bc3-4066-4f17-b1ed-550ba71ef18e"},"vehicle_type_id":"4","last_reported":1778758919,"current_range_meters":9600,"station_id":"","pricing_plan_id":"cebpf4jnsgd1na2vs0mg"},{"bike_id":"9e14cf93-c2da-4ff6-a5dd-4b49777a18a0","system_id":"levelo_inurba_marseille","lat":43.24806,"lon":5.37439,"is_reserved":false,"is_disabled":false,"rental_uris":{"android":"levelo://app?vid=9e14cf93-c2da-4ff6-a5dd-4b49777a18a0","ios":"levelo://app?vid=9e14cf93-c2da-4ff6-a5dd-4b49777a18a0"},"vehicle_type_id":"4","last_reported":1778758919,"current_range_meters":10000,"station_id":"ce4bhgh2rcd13ifvqfb0","pricing_plan_id":"cebpf4jnsgd1na2vs0mg"},{"bike_id":"d51b486f-dc45-49e6-9b45-be0e6027c9dd","system_id":"levelo_inurba_marseille","lat":43.30147,"lon":5.39869,"is_reserved":false,"is_disabled":false,"rental_uris":{"android":"levelo://app?vid=d51b486f-dc45-49e6-9b45-be0e6027c9dd","ios":"levelo://app?vid=d51b486f-dc45-49e6-9b45-be0e6027c9dd"},"vehicle_type_id":"4","last_reported":1778758919,"current_range_meters":10000,"station_id":"ce4bh0h2rcd13ifvqd40","pricing_plan_id":"cebpf4jnsgd1na2vs0mg"},{"bike_id":"317d7361-3272-42f8-ad14-39e8853ba125","system_id":"levelo_inurba_marseille","lat":43.21741,"lon":5.34599,"is_reserved":false,"is_disabled":false,"rental_uris":{"android":"levelo://app?vid=317d7361-3272-42f8-ad14-39e8853ba125","ios":"levelo://app?vid=317d7361-3272-42f8-ad14-39e8853ba125"},"vehicle_type_id":"4","last_reported":1778758919,"current_range_meters":10000,"station_id":"st_cvj6r9ubvosntc0bgbag","pricing_plan_id":"cebpf4jnsgd1na2vs0mg"},{"bike_id":"3e4ee8b2-547a-42b3-bcb3-00ed055ab339","system_id":"levelo_inurba_marseille","lat":43.24657,"lon":5.41599,"is_reserved":false,"is_disabled":false,"rental_uris":{"android":"levelo://app?vid=3e4ee8b2-547a-42b3-bcb3-00ed055ab339","ios":"levelo://app?vid=3e4ee8b2-547a-42b3-bcb3-00ed055ab339"},"vehicle_type_id":"4","last_reported":1778758919,"current_range_meters":10000,"station_id":"","pricing_plan_id":"cebpf4jnsgd1na2vs0mg"},{"bike_id":"5ca83ce5-615f-4f87-8626-f2e3cfb56bfc","system_id":"levelo_inurba_marseille","lat":43.25085,"lon":5.39517,"is_reserved":false,"is_disabled":false,"rental_uris":{"android":"levelo://app?vid=5ca83ce5-615f-4f87-8626-f2e3cfb56bfc","ios":"levelo://app?vid=5ca83ce5-615f-4f87-8626-f2e3cfb56bfc"},"vehicle_type_id":"4","last_reported":1778758919,"current_range_meters":10000,"station_id":"ce4bhm12rcd13ifvqgkg","pricing_plan_id":"cebpf4jnsgd1na2vs0mg"},{"bike_id":"3e030add-b719-4def-813e-f2b2b48b57fc","system_id":"levelo_inurba_marseille","lat":43.28469,"lon":5.48376,"is_reserved":false,"is_disabled":false,"rental_uris":{"android":"levelo://app?vid=3e030add-b719-4def-813e-f2b2b48b57fc","ios":"levelo://app?vid=3e030add-b719-4def-813e-f2b2b48b57fc"},"vehicle_type_id":"4","last_reported":1778758919,"current_range_meters":10000,"station_id":"st_d3svhcjqgbts73a3dn0g","pricing_plan_id":"cebpf4jnsgd1na2vs0mg"},{"bike_id":"0704953b-d0d4-41a9-9ea7-6a1c9458e73d","system_id":"levelo_inurba_marseille","lat":43.28429,"lon":5.35002,"is_reserved":false,"is_disabled":false,"rental_uris":{"android":"levelo://app?vid=0704953b-d0d4-41a9-9ea7-6a1c9458e73d","ios":"levelo://app?vid=0704953b-d0d4-41a9-9ea7-6a1c9458e73d"},"vehicle_type_id":"4","last_reported":1778758919,"current_range_meters":10000,"station_id":"ce4bhbh2rcd13ifvqepg","pricing_plan_id":"cebpf4jnsgd1na2vs0mg"},{"bike_id":"97f1a607-1582-4ec1-a10d-6d557651376e","system_id":"levelo_inurba_marseille","lat":43.3031,"lon":5.36875,"is_reserved":false,"is_disabled":false,"rental_uris":{"android":"levelo://app?vid=97f1a607-1582-4ec1-a10d-6d557651376e","ios":"levelo://app?vid=97f1a607-1582-4ec1-a10d-6d557651376e"},"vehicle_type_id":"4","last_reported":1778758919,"current_range_meters":10000,"station_id":"ce4bgqh2rcd13ifvqc5g","pricing_plan_id":"cebpf4jnsgd1na2vs0mg"},{"bike_id":"a02d7557-596a-44fc-9963-5f5200290fd0","system_id":"levelo_inurba_marseille","lat":43.28473,"lon":5.38406,"is_reserved":false,"is_disabled":false,"rental_uris":{"android":"levelo://app?vid=a02d7557-596a-44fc-9963-5f5200290fd0","ios":"levelo://app?vid=a02d7557-596a-44fc-9963-5f5200290fd0"},"vehicle_type_id":"4","last_reported":1778758919,"current_range_meters":10000,"station_id":"ce4bh512rcd13ifvqe3g","pricing_plan_id":"cebpf4jnsgd1na2vs0mg"},{"bike_id":"93f26607-6856-4902-a55e-1ef505787fdf","system_id":"levelo_inurba_marseille","lat":43.29895,"lon":5.39743,"is_reserved":false,"is_disabled":false,"rental_uris":{"android":"levelo://app?vid=93f26607-6856-4902-a55e-1ef505787fdf","ios":"levelo://app?vid=93f26607-6856-4902-a55e-1ef505787fdf"},"vehicle_type_id":"4","last_reported":1778758919,"current_range_meters":10000,"station_id":"ce4bh0h2rcd13ifvqd50","pricing_plan_id":"cebpf4jnsgd1na2vs0mg"},{"bike_id":"2b3f5049-27cc-4001-8724-a46119a087de","system_id":"levelo_inurba_marseille","lat":43.26206,"lon":5.37442,"is_reserved":false,"is_disabled":false,"rental_uris":{"android":"levelo://app?vid=2b3f5049-27cc-4001-8724-a46119a087de","ios":"levelo://app?vid=2b3f5049-27cc-4001-8724-a46119a087de"},"vehicle_type_id":"4","last_reported":1778758919,"current_range_meters":10000,"station_id":"ce4bhgp2rcd13ifvqfc0","pricing_plan_id":"cebpf4jnsgd1na2vs0mg"},{"bike_id":"2840d8f0-58a1-4c1e-abf8-779b156cdc6c","system_id":"levelo_inurba_marseille","lat":43.31342,"lon":5.36745,"is_reserved":false,"is_disabled":false,"rental_uris":{"android":"levelo://app?vid=2840d8f0-58a1-4c1e-abf8-779b156cdc6c","ios":"levelo://app?vid=2840d8f0-58a1-4c1e-abf8-779b156cdc6c"},"vehicle_type_id":"4","last_reported":1778758919,"current_range_meters":10000,"station_id":"ce4bgr92rcd13ifvqc6g","pricing_plan_id":"cebpf4jnsgd1na2vs0mg"},{"bike_id":"8e2caaad-2009-4aea-814b-5350daae3b1b","system_id":"levelo_inurba_marseille","lat":43.24327,"lon":5.38416,"is_reserved":false,"is_disabled":false,"rental_uris":{"android":"levelo://app?vid=8e2caaad-2009-4aea-814b-5350daae3b1b","ios":"levelo://app?vid=8e2caaad-2009-4aea-814b-5350daae3b1b"},"vehicle_type_id":"4","last_reported":1778758919,"current_range_meters":10000,"station_id":"","pricing_plan_id":"cebpf4jnsgd1na2vs0mg"},{"bike_id":"8c194f26-001c-4299-8258-fca14d9edb51","system_id":"levelo_inurba_marseille","lat":43.24615,"lon":5.38017,"is_reserved":false,"is_disabled":false,"rental_uris":{"android":"levelo://app?vid=8c194f26-001c-4299-8258-fca14d9edb51","ios":"levelo://app?vid=8c194f26-001c-4299-8258-fca14d9edb51"},"vehicle_type_id":"4","last_reported":1778758919,"current_range_meters":10000,"station_id":"","pricing_plan_id":"cebpf4jnsgd1na2vs0mg"},{"bike_id":"e7b6ed55-4257-45f2-8439-a1a2a465d90f","system_id":"levelo_inurba_marseille","lat":43.28862,"lon":5.42512,"is_reserved":false,"is_disabled":false,"rental_uris":{"android":"levelo://app?vid=e7b6ed55-4257-45f2-8439-a1a2a465d90f","ios":"levelo://app?vid=e7b6ed55-4257-45f2-8439-a1a2a465d90f"},"vehicle_type_id":"4","last_reported":1778758919,"current_range_meters":10800,"station_id":"st_d3b462108ojc7389ooeg","pricing_plan_id":"cebpf4jnsgd1na2vs0mg"},{"bike_id":"998f9cd8-99f2-4c73-91b0-204efe2ea1dc","system_id":"levelo_inurba_marseille","lat":43.23771,"lon":5.36613,"is_reserved":false,"is_disabled":false,"rental_uris":{"android":"levelo://app?vid=998f9cd8-99f2-4c73-91b0-204efe2ea1dc","ios":"levelo://app?vid=998f9cd8-99f2-4c73-91b0-204efe2ea1dc"},"vehicle_type_id":"4","last_reported":1778758919,"current_range_meters":10800,"station_id":"st_d3nk18o9ro0c73en2l3g","pricing_plan_id":"cebpf4jnsgd1na2vs0mg"},{"bike_id":"4567517f-3977-423a-b049-687d674dc8c1","system_id":"levelo_inurba_marseille","lat":43.28435,"lon":5.39165,"is_reserved":false,"is_disabled":false,"rental_uris":{"android":"levelo://app?vid=4567517f-3977-423a-b049-687d674dc8c1","ios":"levelo://app?vid=4567517f-3977-423a-b049-687d674dc8c1"},"vehicle_type_id":"4","last_reported":1778758919,"current_range_meters":10800,"station_id":"ce4bhoh2rcd13ifvqh5g","pricing_plan_id":"cebpf4jnsgd1na2vs0mg"},{"bike_id":"e887a819-5d07-47bc-a986-00aa2f5b7977","system_id":"levelo_inurba_marseille","lat":43.2418,"lon":5.39721,"is_reserved":false,"is_disabled":false,"rental_uris":{"android":"levelo://app?vid=e887a819-5d07-47bc-a986-00aa2f5b7977","ios":"levelo://app?vid=e887a819-5d07-47bc-a986-00aa2f5b7977"},"vehicle_type_id":"4","last_reported":1778758919,"current_range_meters":10800,"station_id":"ce4bhn12rcd13ifvqgpg","pricing_plan_id":"cebpf4jnsgd1na2vs0mg"},{"bike_id":"054ea04f-0f15-4584-af84-b09e727ce4ec","system_id":"levelo_inurba_marseille","lat":43.25491,"lon":5.37666,"is_reserved":false,"is_disabled":false,"rental_uris":{"android":"levelo://app?vid=054ea04f-0f15-4584-af84-b09e727ce4ec","ios":"levelo://app?vid=054ea04f-0f15-4584-af84-b09e727ce4ec"},"vehicle_type_id":"4","last_reported":1778758919,"current_range_meters":10800,"station_id":"ce4bhh12rcd13ifvqff0","pricing_plan_id":"cebpf4jnsgd1na2vs0mg"},{"bike_id":"0136b265-d75d-41a8-8b23-c2341abe7a63","system_id":"levelo_inurba_marseille","lat":43.27312,"lon":5.39092,"is_reserved":false,"is_disabled":false,"rental_uris":{"android":"levelo://app?vid=0136b265-d75d-41a8-8b23-c2341abe7a63","ios":"levelo://app?vid=0136b265-d75d-41a8-8b23-c2341abe7a63"},"vehicle_type_id":"4","last_reported":1778758919,"current_range_meters":10800,"station_id":"ce4bhgp2rcd13ifvqfe0","pricing_plan_id":"cebpf4jnsgd1na2vs0mg"},{"bike_id":"06d5e8c0-a376-440b-b633-30ca1ebd3fba","system_id":"levelo_inurba_marseille","lat":43.30158,"lon":5.38099,"is_reserved":false,"is_disabled":false,"rental_uris":{"android":"levelo://app?vid=06d5e8c0-a376-440b-b633-30ca1ebd3fba","ios":"levelo://app?vid=06d5e8c0-a376-440b-b633-30ca1ebd3fba"},"vehicle_type_id":"4","last_reported":1778758919,"current_range_meters":10800,"station_id":"ce4bgjp2rcd13ifvqbh0","pricing_plan_id":"cebpf4jnsgd1na2vs0mg"},{"bike_id":"72560541-def5-4210-8902-e0c7d10c0540","system_id":"levelo_inurba_marseille","lat":43.27919,"lon":5.39223,"is_reserved":false,"is_disabled":false,"rental_uris":{"android":"levelo://app?vid=72560541-def5-4210-8902-e0c7d10c0540","ios":"levelo://app?vid=72560541-def5-4210-8902-e0c7d10c0540"},