{"last_updated":1777528097,"ttl":60,"version":"2.2","data":{"bikes":[{"bike_id":"4efd232b-ef39-490c-93c2-48999f105f2e","system_id":"levelo_inurba_marseille","lat":43.247,"lon":5.40088,"is_reserved":false,"is_disabled":false,"rental_uris":{"android":"levelo://app?vid=4efd232b-ef39-490c-93c2-48999f105f2e","ios":"levelo://app?vid=4efd232b-ef39-490c-93c2-48999f105f2e"},"vehicle_type_id":"4","last_reported":1777528098,"current_range_meters":1600,"station_id":"","pricing_plan_id":"cebpf4jnsgd1na2vs0mg"},{"bike_id":"ca7e766e-0c22-4bb4-9391-ff9b9db52725","system_id":"levelo_inurba_marseille","lat":43.28246,"lon":5.40584,"is_reserved":false,"is_disabled":false,"rental_uris":{"android":"levelo://app?vid=ca7e766e-0c22-4bb4-9391-ff9b9db52725","ios":"levelo://app?vid=ca7e766e-0c22-4bb4-9391-ff9b9db52725"},"vehicle_type_id":"4","last_reported":1777528098,"current_range_meters":2800,"station_id":"","pricing_plan_id":"cebpf4jnsgd1na2vs0mg"},{"bike_id":"65ffaf6f-9648-4b01-aea1-dd9ed2f9b54a","system_id":"levelo_inurba_marseille","lat":43.284861,"lon":5.384147,"is_reserved":false,"is_disabled":false,"rental_uris":{"android":"levelo://app?vid=65ffaf6f-9648-4b01-aea1-dd9ed2f9b54a","ios":"levelo://app?vid=65ffaf6f-9648-4b01-aea1-dd9ed2f9b54a"},"vehicle_type_id":"4","last_reported":1777528098,"current_range_meters":2800,"station_id":"ce4bh512rcd13ifvqe3g","pricing_plan_id":"cebpf4jnsgd1na2vs0mg"},{"bike_id":"c53b0575-4201-44a3-8e35-94bea536841a","system_id":"levelo_inurba_marseille","lat":43.29724,"lon":5.37701,"is_reserved":false,"is_disabled":true,"rental_uris":{"android":"levelo://app?vid=c53b0575-4201-44a3-8e35-94bea536841a","ios":"levelo://app?vid=c53b0575-4201-44a3-8e35-94bea536841a"},"vehicle_type_id":"4","last_reported":1777528098,"current_range_meters":2800,"station_id":"ce4bgkh2rcd13ifvqbl0","pricing_plan_id":"cebpf4jnsgd1na2vs0mg"},{"bike_id":"145c254e-4088-4fef-87dc-d9bee17d760f","system_id":"levelo_inurba_marseille","lat":43.32122,"lon":5.36772,"is_reserved":false,"is_disabled":false,"rental_uris":{"android":"levelo://app?vid=145c254e-4088-4fef-87dc-d9bee17d760f","ios":"levelo://app?vid=145c254e-4088-4fef-87dc-d9bee17d760f"},"vehicle_type_id":"4","last_reported":1777528098,"current_range_meters":2800,"station_id":"ce4bhrh2rcd13ifvqhug","pricing_plan_id":"cebpf4jnsgd1na2vs0mg"},{"bike_id":"b6b9dc95-b24c-47f9-a3be-6d9f83dd84a1","system_id":"levelo_inurba_marseille","lat":43.29503,"lon":5.37478,"is_reserved":false,"is_disabled":true,"rental_uris":{"android":"levelo://app?vid=b6b9dc95-b24c-47f9-a3be-6d9f83dd84a1","ios":"levelo://app?vid=b6b9dc95-b24c-47f9-a3be-6d9f83dd84a1"},"vehicle_type_id":"4","last_reported":1777528098,"current_range_meters":2800,"station_id":"ce4bgkp2rcd13ifvqbmg","pricing_plan_id":"cebpf4jnsgd1na2vs0mg"},{"bike_id":"9cdace97-08e0-4bf7-b03a-3f8ab0cea526","system_id":"levelo_inurba_marseille","lat":43.2783,"lon":5.39207,"is_reserved":false,"is_disabled":false,"rental_uris":{"android":"levelo://app?vid=9cdace97-08e0-4bf7-b03a-3f8ab0cea526","ios":"levelo://app?vid=9cdace97-08e0-4bf7-b03a-3f8ab0cea526"},"vehicle_type_id":"4","last_reported":1777528098,"current_range_meters":2800,"station_id":"ce4bhjp2rcd13ifvqga0","pricing_plan_id":"cebpf4jnsgd1na2vs0mg"},{"bike_id":"ef3a68ef-5b94-411a-921f-f7cda00ffdfc","system_id":"levelo_inurba_marseille","lat":43.29473,"lon":5.39018,"is_reserved":false,"is_disabled":false,"rental_uris":{"android":"levelo://app?vid=ef3a68ef-5b94-411a-921f-f7cda00ffdfc","ios":"levelo://app?vid=ef3a68ef-5b94-411a-921f-f7cda00ffdfc"},"vehicle_type_id":"4","last_reported":1777528098,"current_range_meters":2800,"station_id":"","pricing_plan_id":"cebpf4jnsgd1na2vs0mg"},{"bike_id":"4c170823-d050-4f4d-affa-471734776f6c","system_id":"levelo_inurba_marseille","lat":43.25721,"lon":5.41117,"is_reserved":false,"is_disabled":false,"rental_uris":{"android":"levelo://app?vid=4c170823-d050-4f4d-affa-471734776f6c","ios":"levelo://app?vid=4c170823-d050-4f4d-affa-471734776f6c"},"vehicle_type_id":"4","last_reported":1777528098,"current_range_meters":2800,"station_id":"ce4bhkp2rcd13ifvqgd0","pricing_plan_id":"cebpf4jnsgd1na2vs0mg"},{"bike_id":"4b1c5e34-ec40-4eec-ba22-caab819bbb43","system_id":"levelo_inurba_marseille","lat":43.30204,"lon":5.3946,"is_reserved":false,"is_disabled":true,"rental_uris":{"android":"levelo://app?vid=4b1c5e34-ec40-4eec-ba22-caab819bbb43","ios":"levelo://app?vid=4b1c5e34-ec40-4eec-ba22-caab819bbb43"},"vehicle_type_id":"4","last_reported":1777528098,"current_range_meters":2800,"station_id":"ce4bh0p2rcd13ifvqd70","pricing_plan_id":"cebpf4jnsgd1na2vs0mg"},{"bike_id":"1f7a6ae0-f1ec-49cf-b1ad-70943b7230f5","system_id":"levelo_inurba_marseille","lat":43.2866,"lon":5.41528,"is_reserved":false,"is_disabled":false,"rental_uris":{"android":"levelo://app?vid=1f7a6ae0-f1ec-49cf-b1ad-70943b7230f5","ios":"levelo://app?vid=1f7a6ae0-f1ec-49cf-b1ad-70943b7230f5"},"vehicle_type_id":"4","last_reported":1777528098,"current_range_meters":3200,"station_id":"","pricing_plan_id":"cebpf4jnsgd1na2vs0mg"},{"bike_id":"21fa33d0-28a0-4e0a-9999-8d9d767ac49c","system_id":"levelo_inurba_marseille","lat":43.27045,"lon":5.38602,"is_reserved":false,"is_disabled":false,"rental_uris":{"android":"levelo://app?vid=21fa33d0-28a0-4e0a-9999-8d9d767ac49c","ios":"levelo://app?vid=21fa33d0-28a0-4e0a-9999-8d9d767ac49c"},"vehicle_type_id":"4","last_reported":1777528098,"current_range_meters":3200,"station_id":"","pricing_plan_id":"cebpf4jnsgd1na2vs0mg"},{"bike_id":"24ece96c-de68-44c6-8cd2-ca134b921b67","system_id":"levelo_inurba_marseille","lat":43.29199,"lon":5.39302,"is_reserved":false,"is_disabled":false,"rental_uris":{"android":"levelo://app?vid=24ece96c-de68-44c6-8cd2-ca134b921b67","ios":"levelo://app?vid=24ece96c-de68-44c6-8cd2-ca134b921b67"},"vehicle_type_id":"4","last_reported":1777528098,"current_range_meters":3200,"station_id":"ce4bh192rcd13ifvqdd0","pricing_plan_id":"cebpf4jnsgd1na2vs0mg"},{"bike_id":"36a88428-e754-4363-93d1-89cd7a8e2550","system_id":"levelo_inurba_marseille","lat":43.29199,"lon":5.38606,"is_reserved":false,"is_disabled":false,"rental_uris":{"android":"levelo://app?vid=36a88428-e754-4363-93d1-89cd7a8e2550","ios":"levelo://app?vid=36a88428-e754-4363-93d1-89cd7a8e2550"},"vehicle_type_id":"4","last_reported":1777528098,"current_range_meters":3200,"station_id":"","pricing_plan_id":"cebpf4jnsgd1na2vs0mg"},{"bike_id":"6defa75e-7e40-4884-9c67-4d9c72705581","system_id":"levelo_inurba_marseille","lat":43.30153,"lon":5.38084,"is_reserved":false,"is_disabled":false,"rental_uris":{"android":"levelo://app?vid=6defa75e-7e40-4884-9c67-4d9c72705581","ios":"levelo://app?vid=6defa75e-7e40-4884-9c67-4d9c72705581"},"vehicle_type_id":"4","last_reported":1777528098,"current_range_meters":3200,"station_id":"ce4bgjp2rcd13ifvqbh0","pricing_plan_id":"cebpf4jnsgd1na2vs0mg"},{"bike_id":"92f3985c-2c50-4589-a4e5-b365bc0828db","system_id":"levelo_inurba_marseille","lat":43.27173,"lon":5.40993,"is_reserved":false,"is_disabled":false,"rental_uris":{"android":"levelo://app?vid=92f3985c-2c50-4589-a4e5-b365bc0828db","ios":"levelo://app?vid=92f3985c-2c50-4589-a4e5-b365bc0828db"},"vehicle_type_id":"4","last_reported":1777528098,"current_range_meters":3200,"station_id":"ce4bhl12rcd13ifvqgf0","pricing_plan_id":"cebpf4jnsgd1na2vs0mg"},{"bike_id":"c46d8a22-772b-40f4-a01d-512476bc1bbf","system_id":"levelo_inurba_marseille","lat":43.24949,"lon":5.40507,"is_reserved":false,"is_disabled":false,"rental_uris":{"android":"levelo://app?vid=c46d8a22-772b-40f4-a01d-512476bc1bbf","ios":"levelo://app?vid=c46d8a22-772b-40f4-a01d-512476bc1bbf"},"vehicle_type_id":"4","last_reported":1777528098,"current_range_meters":3200,"station_id":"st_d2ngiaodas8pm72gd1h0","pricing_plan_id":"cebpf4jnsgd1na2vs0mg"},{"bike_id":"ea26fbb8-1fe9-45fd-86a8-020ce9ce5f0e","system_id":"levelo_inurba_marseille","lat":43.27101,"lon":5.3914,"is_reserved":false,"is_disabled":false,"rental_uris":{"android":"levelo://app?vid=ea26fbb8-1fe9-45fd-86a8-020ce9ce5f0e","ios":"levelo://app?vid=ea26fbb8-1fe9-45fd-86a8-020ce9ce5f0e"},"vehicle_type_id":"4","last_reported":1777528098,"current_range_meters":3200,"station_id":"","pricing_plan_id":"cebpf4jnsgd1na2vs0mg"},{"bike_id":"f11e3633-986d-40f4-8b5f-6b5e41220dfc","system_id":"levelo_inurba_marseille","lat":43.31887,"lon":5.36813,"is_reserved":false,"is_disabled":false,"rental_uris":{"android":"levelo://app?vid=f11e3633-986d-40f4-8b5f-6b5e41220dfc","ios":"levelo://app?vid=f11e3633-986d-40f4-8b5f-6b5e41220dfc"},"vehicle_type_id":"4","last_reported":1777528098,"current_range_meters":3200,"station_id":"st_d6o2h0d0559c73evc1b0","pricing_plan_id":"cebpf4jnsgd1na2vs0mg"},{"bike_id":"4a6e6396-5ef9-4e02-befe-28d9d3170066","system_id":"levelo_inurba_marseille","lat":43.3112,"lon":5.37764,"is_reserved":false,"is_disabled":false,"rental_uris":{"android":"levelo://app?vid=4a6e6396-5ef9-4e02-befe-28d9d3170066","ios":"levelo://app?vid=4a6e6396-5ef9-4e02-befe-28d9d3170066"},"vehicle_type_id":"4","last_reported":1777528098,"current_range_meters":3200,"station_id":"ce4bgt92rcd13ifvqcg0","pricing_plan_id":"cebpf4jnsgd1na2vs0mg"},{"bike_id":"1132fbdf-d3e2-4de2-bcb2-c2fe9eae3094","system_id":"levelo_inurba_marseille","lat":43.28074,"lon":5.39679,"is_reserved":false,"is_disabled":false,"rental_uris":{"android":"levelo://app?vid=1132fbdf-d3e2-4de2-bcb2-c2fe9eae3094","ios":"levelo://app?vid=1132fbdf-d3e2-4de2-bcb2-c2fe9eae3094"},"vehicle_type_id":"4","last_reported":1777528098,"current_range_meters":3200,"station_id":"ce4bho12rcd13ifvqh2g","pricing_plan_id":"cebpf4jnsgd1na2vs0mg"},{"bike_id":"ea36c9e8-58b8-4f79-a3ce-b396281d3b24","system_id":"levelo_inurba_marseille","lat":43.305074,"lon":5.380769,"is_reserved":false,"is_disabled":false,"rental_uris":{"android":"levelo://app?vid=ea36c9e8-58b8-4f79-a3ce-b396281d3b24","ios":"levelo://app?vid=ea36c9e8-58b8-4f79-a3ce-b396281d3b24"},"vehicle_type_id":"4","last_reported":1777528098,"current_range_meters":3200,"station_id":"","pricing_plan_id":"cebpf4jnsgd1na2vs0mg"},{"bike_id":"b3dd87fc-47f3-44b7-b1f2-1f3f2c80d205","system_id":"levelo_inurba_marseille","lat":43.2783,"lon":5.40722,"is_reserved":false,"is_disabled":false,"rental_uris":{"android":"levelo://app?vid=b3dd87fc-47f3-44b7-b1f2-1f3f2c80d205","ios":"levelo://app?vid=b3dd87fc-47f3-44b7-b1f2-1f3f2c80d205"},"vehicle_type_id":"4","last_reported":1777528098,"current_range_meters":3600,"station_id":"ce4bhnh2rcd13ifvqgtg","pricing_plan_id":"cebpf4jnsgd1na2vs0mg"},{"bike_id":"d4d191c1-1e42-44ce-acaa-f4fdd3a7ce8e","system_id":"levelo_inurba_marseille","lat":43.28526,"lon":5.38496,"is_reserved":false,"is_disabled":false,"rental_uris":{"android":"levelo://app?vid=d4d191c1-1e42-44ce-acaa-f4fdd3a7ce8e","ios":"levelo://app?vid=d4d191c1-1e42-44ce-acaa-f4fdd3a7ce8e"},"vehicle_type_id":"4","last_reported":1777528098,"current_range_meters":3600,"station_id":"","pricing_plan_id":"cebpf4jnsgd1na2vs0mg"},{"bike_id":"83a82950-3efb-4a04-9eb7-13259ab970cf","system_id":"levelo_inurba_marseille","lat":43.2846,"lon":5.35893,"is_reserved":false,"is_disabled":false,"rental_uris":{"android":"levelo://app?vid=83a82950-3efb-4a04-9eb7-13259ab970cf","ios":"levelo://app?vid=83a82950-3efb-4a04-9eb7-13259ab970cf"},"vehicle_type_id":"4","last_reported":1777528098,"current_range_meters":3600,"station_id":"ce4bhah2rcd13ifvqei0","pricing_plan_id":"cebpf4jnsgd1na2vs0mg"},{"bike_id":"6e5b6dae-47c2-4560-a34e-9c7316bfef54","system_id":"levelo_inurba_marseille","lat":43.28451,"lon":5.3918,"is_reserved":false,"is_disabled":true,"rental_uris":{"android":"levelo://app?vid=6e5b6dae-47c2-4560-a34e-9c7316bfef54","ios":"levelo://app?vid=6e5b6dae-47c2-4560-a34e-9c7316bfef54"},"vehicle_type_id":"4","last_reported":1777528098,"current_range_meters":3600,"station_id":"ce4bhoh2rcd13ifvqh5g","pricing_plan_id":"cebpf4jnsgd1na2vs0mg"},{"bike_id":"f6e4bb21-b565-4a95-b8a8-b5103e32b601","system_id":"levelo_inurba_marseille","lat":43.29702,"lon":5.37678,"is_reserved":false,"is_disabled":false,"rental_uris":{"android":"levelo://app?vid=f6e4bb21-b565-4a95-b8a8-b5103e32b601","ios":"levelo://app?vid=f6e4bb21-b565-4a95-b8a8-b5103e32b601"},"vehicle_type_id":"4","last_reported":1777528098,"current_range_meters":3600,"station_id":"ce4bgkh2rcd13ifvqbl0","pricing_plan_id":"cebpf4jnsgd1na2vs0mg"},{"bike_id":"94f11d13-a2b0-4f18-a58b-01e14d3c2001","system_id":"levelo_inurba_marseille","lat":43.2407,"lon":5.37722,"is_reserved":false,"is_disabled":true,"rental_uris":{"android":"levelo://app?vid=94f11d13-a2b0-4f18-a58b-01e14d3c2001","ios":"levelo://app?vid=94f11d13-a2b0-4f18-a58b-01e14d3c2001"},"vehicle_type_id":"4","last_reported":1777528098,"current_range_meters":3600,"station_id":"ce4bhnp2rcd13ifvqgvg","pricing_plan_id":"cebpf4jnsgd1na2vs0mg"},{"bike_id":"341d1e8b-eda7-4fb8-829d-1be9d91cd487","system_id":"levelo_inurba_marseille","lat":43.23152,"lon":5.43732,"is_reserved":false,"is_disabled":false,"rental_uris":{"android":"levelo://app?vid=341d1e8b-eda7-4fb8-829d-1be9d91cd487","ios":"levelo://app?vid=341d1e8b-eda7-4fb8-829d-1be9d91cd487"},"vehicle_type_id":"4","last_reported":1777528098,"current_range_meters":3600,"station_id":"ce4bhmp2rcd13ifvqgog","pricing_plan_id":"cebpf4jnsgd1na2vs0mg"},{"bike_id":"c221a120-8e98-40bd-8495-75f882903dd5","system_id":"levelo_inurba_marseille","lat":43.31994,"lon":5.38157,"is_reserved":false,"is_disabled":false,"rental_uris":{"android":"levelo://app?vid=c221a120-8e98-40bd-8495-75f882903dd5","ios":"levelo://app?vid=c221a120-8e98-40bd-8495-75f882903dd5"},"vehicle_type_id":"4","last_reported":1777528098,"current_range_meters":3600,"station_id":"ce4bhr12rcd13ifvqhpg","pricing_plan_id":"cebpf4jnsgd1na2vs0mg"},{"bike_id":"f6dce53f-7018-47f9-bfd2-251ba4be96ae","system_id":"levelo_inurba_marseille","lat":43.26371,"lon":5.41074,"is_reserved":false,"is_disabled":false,"rental_uris":{"android":"levelo://app?vid=f6dce53f-7018-47f9-bfd2-251ba4be96ae","ios":"levelo://app?vid=f6dce53f-7018-47f9-bfd2-251ba4be96ae"},"vehicle_type_id":"4","last_reported":1777528098,"current_range_meters":3600,"station_id":"st_d4e5ca6na9uc73bfl5fg","pricing_plan_id":"cebpf4jnsgd1na2vs0mg"},{"bike_id":"e56c1985-fff4-4847-ac92-fee4e7183c40","system_id":"levelo_inurba_marseille","lat":43.32287,"lon":5.38276,"is_reserved":false,"is_disabled":false,"rental_uris":{"android":"levelo://app?vid=e56c1985-fff4-4847-ac92-fee4e7183c40","ios":"levelo://app?vid=e56c1985-fff4-4847-ac92-fee4e7183c40"},"vehicle_type_id":"4","last_reported":1777528098,"current_range_meters":3600,"station_id":"ce4bhr12rcd13ifvqhqg","pricing_plan_id":"cebpf4jnsgd1na2vs0mg"},{"bike_id":"4d632b59-e7b2-4fdf-93bb-1e6894911303","system_id":"levelo_inurba_marseille","lat":43.29606,"lon":5.38091,"is_reserved":false,"is_disabled":false,"rental_uris":{"android":"levelo://app?vid=4d632b59-e7b2-4fdf-93bb-1e6894911303","ios":"levelo://app?vid=4d632b59-e7b2-4fdf-93bb-1e6894911303"},"vehicle_type_id":"4","last_reported":1777528098,"current_range_meters":3600,"station_id":"ce4bgl12rcd13ifvqbo0","pricing_plan_id":"cebpf4jnsgd1na2vs0mg"},{"bike_id":"7bd770c4-4531-4c57-a651-ffa6ac060caa","system_id":"levelo_inurba_marseille","lat":43.27536,"lon":5.38478,"is_reserved":false,"is_disabled":false,"rental_uris":{"android":"levelo://app?vid=7bd770c4-4531-4c57-a651-ffa6ac060caa","ios":"levelo://app?vid=7bd770c4-4531-4c57-a651-ffa6ac060caa"},"vehicle_type_id":"4","last_reported":1777528098,"current_range_meters":3600,"station_id":"ce4bhh92rcd13ifvqfi0","pricing_plan_id":"cebpf4jnsgd1na2vs0mg"},{"bike_id":"ff4152af-18c8-411e-a459-6b385583029b","system_id":"levelo_inurba_marseille","lat":43.30907,"lon":5.39645,"is_reserved":false,"is_disabled":false,"rental_uris":{"android":"levelo://app?vid=ff4152af-18c8-411e-a459-6b385583029b","ios":"levelo://app?vid=ff4152af-18c8-411e-a459-6b385583029b"},"vehicle_type_id":"4","last_reported":1777528098,"current_range_meters":3600,"station_id":"ce4bh012rcd13ifvqcv0","pricing_plan_id":"cebpf4jnsgd1na2vs0mg"},{"bike_id":"cd5fa923-7cad-4362-80bd-a901b52e8500","system_id":"levelo_inurba_marseille","lat":43.27981,"lon":5.41663,"is_reserved":false,"is_disabled":false,"rental_uris":{"android":"levelo://app?vid=cd5fa923-7cad-4362-80bd-a901b52e8500","ios":"levelo://app?vid=cd5fa923-7cad-4362-80bd-a901b52e8500"},"vehicle_type_id":"4","last_reported":1777528098,"current_range_meters":3600,"station_id":"ce4bho12rcd13ifvqh1g","pricing_plan_id":"cebpf4jnsgd1na2vs0mg"},{"bike_id":"775c7593-b564-472a-8ae0-d60f16f8d110","system_id":"levelo_inurba_marseille","lat":43.24083,"lon":5.37759,"is_reserved":false,"is_disabled":false,"rental_uris":{"android":"levelo://app?vid=775c7593-b564-472a-8ae0-d60f16f8d110","ios":"levelo://app?vid=775c7593-b564-472a-8ae0-d60f16f8d110"},"vehicle_type_id":"4","last_reported":1777528098,"current_range_meters":3600,"station_id":"ce4bhnp2rcd13ifvqgvg","pricing_plan_id":"cebpf4jnsgd1na2vs0mg"},{"bike_id":"490d543e-6b30-4b0c-b6b3-5dfd9086fe8a","system_id":"levelo_inurba_marseille","lat":43.28543,"lon":5.38371,"is_reserved":false,"is_disabled":false,"rental_uris":{"android":"levelo://app?vid=490d543e-6b30-4b0c-b6b3-5dfd9086fe8a","ios":"levelo://app?vid=490d543e-6b30-4b0c-b6b3-5dfd9086fe8a"},"vehicle_type_id":"4","last_reported":1777528098,"current_range_meters":3600,"station_id":"ce4bh512rcd13ifvqe3g","pricing_plan_id":"cebpf4jnsgd1na2vs0mg"},{"bike_id":"d0992507-d953-47b5-8f62-aca986c4af24","system_id":"levelo_inurba_marseille","lat":43.28671,"lon":5.37339,"is_reserved":false,"is_disabled":false,"rental_uris":{"android":"levelo://app?vid=d0992507-d953-47b5-8f62-aca986c4af24","ios":"levelo://app?vid=d0992507-d953-47b5-8f62-aca986c4af24"},"vehicle_type_id":"4","last_reported":1777528098,"current_range_meters":3600,"station_id":"ce4bh3p2rcd13ifvqdq0","pricing_plan_id":"cebpf4jnsgd1na2vs0mg"},{"bike_id":"39c090b7-9a74-4e0c-add2-1000b75cfa22","system_id":"levelo_inurba_marseille","lat":43.25832,"lon":5.39453,"is_reserved":false,"is_disabled":false,"rental_uris":{"android":"levelo://app?vid=39c090b7-9a74-4e0c-add2-1000b75cfa22","ios":"levelo://app?vid=39c090b7-9a74-4e0c-add2-1000b75cfa22"},"vehicle_type_id":"4","last_reported":1777528098,"current_range_meters":3600,"station_id":"ce4bhip2rcd13ifvqft0","pricing_plan_id":"cebpf4jnsgd1na2vs0mg"},{"bike_id":"b4a497ea-222e-419c-a826-4feb72e6ade8","system_id":"levelo_inurba_marseille","lat":43.28714,"lon":5.4669,"is_reserved":false,"is_disabled":false,"rental_uris":{"android":"levelo://app?vid=b4a497ea-222e-419c-a826-4feb72e6ade8","ios":"levelo://app?vid=b4a497ea-222e-419c-a826-4feb72e6ade8"},"vehicle_type_id":"4","last_reported":1777528098,"current_range_meters":4000,"station_id":"st_d6tc3vkotcvc738tfjhg","pricing_plan_id":"cebpf4jnsgd1na2vs0mg"},{"bike_id":"5537dfa5-a5e0-4afa-afaa-71ea6ad83ffd","system_id":"levelo_inurba_marseille","lat":43.28873,"lon":5.35871,"is_reserved":false,"is_disabled":true,"rental_uris":{"android":"levelo://app?vid=5537dfa5-a5e0-4afa-afaa-71ea6ad83ffd","ios":"levelo://app?vid=5537dfa5-a5e0-4afa-afaa-71ea6ad83ffd"},"vehicle_type_id":"4","last_reported":1777528098,"current_range_meters":4000,"station_id":"ce4bhb12rcd13ifvqem0","pricing_plan_id":"cebpf4jnsgd1na2vs0mg"},{"bike_id":"4374fc6c-b055-4796-935d-930387759ff8","system_id":"levelo_inurba_marseille","lat":43.337444,"lon":5.374475,"is_reserved":false,"is_disabled":false,"rental_uris":{"android":"levelo://app?vid=4374fc6c-b055-4796-935d-930387759ff8","ios":"levelo://app?vid=4374fc6c-b055-4796-935d-930387759ff8"},"vehicle_type_id":"4","last_reported":1777528098,"current_range_meters":4000,"station_id":"","pricing_plan_id":"cebpf4jnsgd1na2vs0mg"},{"bike_id":"e1d26622-7491-4fdf-a6f0-77cbc7cac2ef","system_id":"levelo_inurba_marseille","lat":43.24165,"lon":5.36403,"is_reserved":false,"is_disabled":false,"rental_uris":{"android":"levelo://app?vid=e1d26622-7491-4fdf-a6f0-77cbc7cac2ef","ios":"levelo://app?vid=e1d26622-7491-4fdf-a6f0-77cbc7cac2ef"},"vehicle_type_id":"4","last_reported":1777528098,"current_range_meters":4000,"station_id":"cpo36qri1sfpv3e86is0","pricing_plan_id":"cebpf4jnsgd1na2vs0mg"},{"bike_id":"cdecdba8-0440-4e27-8f88-2f26c7919ff8","system_id":"levelo_inurba_marseille","lat":43.28549,"lon":5.37223,"is_reserved":false,"is_disabled":false,"rental_uris":{"android":"levelo://app?vid=cdecdba8-0440-4e27-8f88-2f26c7919ff8","ios":"levelo://app?vid=cdecdba8-0440-4e27-8f88-2f26c7919ff8"},"vehicle_type_id":"4","last_reported":1777528098,"current_range_meters":4000,"station_id":"","pricing_plan_id":"cebpf4jnsgd1na2vs0mg"},{"bike_id":"e28ee9fd-4d27-4343-815f-4fe16ddfc2c7","system_id":"levelo_inurba_marseille","lat":43.27074,"lon":5.38295,"is_reserved":false,"is_disabled":false,"rental_uris":{"android":"levelo://app?vid=e28ee9fd-4d27-4343-815f-4fe16ddfc2c7","ios":"levelo://app?vid=e28ee9fd-4d27-4343-815f-4fe16ddfc2c7"},"vehicle_type_id":"4","last_reported":1777528098,"current_range_meters":4000,"station_id":"st_d3n2fo6cfp8s73cte1j0","pricing_plan_id":"cebpf4jnsgd1na2vs0mg"},{"bike_id":"5e4372d3-fba2-470f-9034-af3ba5bb5e2e","system_id":"levelo_inurba_marseille","lat":43.27319,"lon":5.39099,"is_reserved":false,"is_disabled":true,"rental_uris":{"android":"levelo://app?vid=5e4372d3-fba2-470f-9034-af3ba5bb5e2e","ios":"levelo://app?vid=5e4372d3-fba2-470f-9034-af3ba5bb5e2e"},"vehicle_type_id":"4","last_reported":1777528098,"current_range_meters":4000,"station_id":"ce4bhgp2rcd13ifvqfe0","pricing_plan_id":"cebpf4jnsgd1na2vs0mg"},{"bike_id":"b52ffd43-f0b5-471b-895f-34632dd32259","system_id":"levelo_inurba_marseille","lat":43.28221,"lon":5.39061,"is_reserved":false,"is_disabled":false,"rental_uris":{"android":"levelo://app?vid=b52ffd43-f0b5-471b-895f-34632dd32259","ios":"levelo://app?vid=b52ffd43-f0b5-471b-895f-34632dd32259"},"vehicle_type_id":"4","last_reported":1777528098,"current_range_meters":4000,"station_id":"ce4bhn92rcd13ifvqgsg","pricing_plan_id":"cebpf4jnsgd1na2vs0mg"},{"bike_id":"32ce4a48-baf2-48fe-a472-5404969ae354","system_id":"levelo_inurba_marseille","lat":43.29884,"lon":5.38893,"is_reserved":false,"is_disabled":false,"rental_uris":{"android":"levelo://app?vid=32ce4a48-baf2-48fe-a472-5404969ae354","ios":"levelo://app?vid=32ce4a48-baf2-48fe-a472-5404969ae354"},"vehicle_type_id":"4","last_reported":1777528098,"current_range_meters":4000,"station_id":"ce4bh392rcd13ifvqdl0","pricing_plan_id":"cebpf4jnsgd1na2vs0mg"},{"bike_id":"25926b90-7656-45cb-9aac-f32bfdbe8ad5","system_id":"levelo_inurba_marseille","lat":43.27968,"lon":5.43624,"is_reserved":false,"is_disabled":true,"rental_uris":{"android":"levelo://app?vid=25926b90-7656-45cb-9aac-f32bfdbe8ad5","ios":"levelo://app?vid=25926b90-7656-45cb-9aac-f32bfdbe8ad5"},"vehicle_type_id":"4","last_reported":1777528098,"current_range_meters":4000,"station_id":"","pricing_plan_id":"cebpf4jnsgd1na2vs0mg"},{"bike_id":"e841d6e3-fc80-4953-affe-f2a728a44380","system_id":"levelo_inurba_marseille","lat":43.27754,"lon":5.35624,"is_reserved":false,"is_disabled":false,"rental_uris":{"android":"levelo://app?vid=e841d6e3-fc80-4953-affe-f2a728a44380","ios":"levelo://app?vid=e841d6e3-fc80-4953-affe-f2a728a44380"},"vehicle_type_id":"4","last_reported":1777528098,"current_range_meters":4000,"station_id":"","pricing_plan_id":"cebpf4jnsgd1na2vs0mg"},{"bike_id":"550b61bf-024e-4f9e-9492-2a8f7afeae1e","system_id":"levelo_inurba_marseille","lat":43.30843,"lon":5.40486,"is_reserved":false,"is_disabled":false,"rental_uris":{"android":"levelo://app?vid=550b61bf-024e-4f9e-9492-2a8f7afeae1e","ios":"levelo://app?vid=550b61bf-024e-4f9e-9492-2a8f7afeae1e"},"vehicle_type_id":"4","last_reported":1777528098,"current_range_meters":4000,"station_id":"","pricing_plan_id":"cebpf4jnsgd1na2vs0mg"},{"bike_id":"510fc79e-9732-4d6f-9901-92a69d0052be","system_id":"levelo_inurba_marseille","lat":43.25328,"lon":5.42127,"is_reserved":false,"is_disabled":false,"rental_uris":{"android":"levelo://app?vid=510fc79e-9732-4d6f-9901-92a69d0052be","ios":"levelo://app?vid=510fc79e-9732-4d6f-9901-92a69d0052be"},"vehicle_type_id":"4","last_reported":1777528098,"current_range_meters":4000,"station_id":"st_d2m65c5bi1j21697t3ng","pricing_plan_id":"cebpf4jnsgd1na2vs0mg"},{"bike_id":"257fb236-4d01-42e8-8888-8255a7dbaa2d","system_id":"levelo_inurba_marseille","lat":43.30128,"lon":5.3811,"is_reserved":false,"is_disabled":false,"rental_uris":{"android":"levelo://app?vid=257fb236-4d01-42e8-8888-8255a7dbaa2d","ios":"levelo://app?vid=257fb236-4d01-42e8-8888-8255a7dbaa2d"},"vehicle_type_id":"4","last_reported":1777528098,"current_range_meters":4000,"station_id":"ce4bgjp2rcd13ifvqbh0","pricing_plan_id":"cebpf4jnsgd1na2vs0mg"},{"bike_id":"d29eb708-8881-444e-9044-09968ccad5bd","system_id":"levelo_inurba_marseille","lat":43.31501,"lon":5.37322,"is_reserved":false,"is_disabled":false,"rental_uris":{"android":"levelo://app?vid=d29eb708-8881-444e-9044-09968ccad5bd","ios":"levelo://app?vid=d29eb708-8881-444e-9044-09968ccad5bd"},"vehicle_type_id":"4","last_reported":1777528098,"current_range_meters":4400,"station_id":"ce4bgt12rcd13ifvqcd0","pricing_plan_id":"cebpf4jnsgd1na2vs0mg"},{"bike_id":"9abba27d-9fd6-4ebe-bc60-5951cecf546a","system_id":"levelo_inurba_marseille","lat":43.27503,"lon":5.42476,"is_reserved":false,"is_disabled":false,"rental_uris":{"android":"levelo://app?vid=9abba27d-9fd6-4ebe-bc60-5951cecf546a","ios":"levelo://app?vid=9abba27d-9fd6-4ebe-bc60-5951cecf546a"},"vehicle_type_id":"4","last_reported":1777528098,"current_range_meters":4400,"station_id":"ce4bhn92rcd13ifvqgrg","pricing_plan_id":"cebpf4jnsgd1na2vs0mg"},{"bike_id":"bbc2f778-ecf6-4419-b9a7-78a6f4492f95","system_id":"levelo_inurba_marseille","lat":43.292273,"lon":5.360653,"is_reserved":false,"is_disabled":false,"rental_uris":{"android":"levelo://app?vid=bbc2f778-ecf6-4419-b9a7-78a6f4492f95","ios":"levelo://app?vid=bbc2f778-ecf6-4419-b9a7-78a6f4492f95"},"vehicle_type_id":"4","last_reported":1777528098,"current_range_meters":4400,"station_id":"ce4bhbh2rcd13ifvqeqg","pricing_plan_id":"cebpf4jnsgd1na2vs0mg"},{"bike_id":"95ca8cc5-afd5-46a2-b335-22ee4def044e","system_id":"levelo_inurba_marseille","lat":43.24641,"lon":5.43163,"is_reserved":false,"is_disabled":false,"rental_uris":{"android":"levelo://app?vid=95ca8cc5-afd5-46a2-b335-22ee4def044e","ios":"levelo://app?vid=95ca8cc5-afd5-46a2-b335-22ee4def044e"},"vehicle_type_id":"4","last_reported":1777528098,"current_range_meters":4400,"station_id":"st_d2m6c4gdas8pm72e190g","pricing_plan_id":"cebpf4jnsgd1na2vs0mg"},{"bike_id":"484fb1ff-9b60-474a-9a2b-f9c0ac219c4e","system_id":"levelo_inurba_marseille","lat":43.31171,"lon":5.38702,"is_reserved":false,"is_disabled":false,"rental_uris":{"android":"levelo://app?vid=484fb1ff-9b60-474a-9a2b-f9c0ac219c4e","ios":"levelo://app?vid=484fb1ff-9b60-474a-9a2b-f9c0ac219c4e"},"vehicle_type_id":"4","last_reported":1777528098,"current_range_meters":4400,"station_id":"ce4bgv12rcd13ifvqcp0","pricing_plan_id":"cebpf4jnsgd1na2vs0mg"},{"bike_id":"31042abc-fdb4-45c6-af1d-f214e842ea8b","system_id":"levelo_inurba_marseille","lat":43.30969,"lon":5.42171,"is_reserved":false,"is_disabled":false,"rental_uris":{"android":"levelo://app?vid=31042abc-fdb4-45c6-af1d-f214e842ea8b","ios":"levelo://app?vid=31042abc-fdb4-45c6-af1d-f214e842ea8b"},"vehicle_type_id":"4","last_reported":1777528098,"current_range_meters":4400,"station_id":"","pricing_plan_id":"cebpf4jnsgd1na2vs0mg"},{"bike_id":"34f79ee3-0315-4628-b92d-415ca46576e9","system_id":"levelo_inurba_marseille","lat":43.24649,"lon":5.38179,"is_reserved":false,"is_disabled":false,"rental_uris":{"android":"levelo://app?vid=34f79ee3-0315-4628-b92d-415ca46576e9","ios":"levelo://app?vid=34f79ee3-0315-4628-b92d-415ca46576e9"},"vehicle_type_id":"4","last_reported":1777528098,"current_range_meters":4400,"station_id":"ce4bhih2rcd13ifvqfr0","pricing_plan_id":"cebpf4jnsgd1na2vs0mg"},{"bike_id":"69bed6b3-f53b-4286-bac2-14ab33299680","system_id":"levelo_inurba_marseille","lat":43.30592,"lon":5.39363,"is_reserved":false,"is_disabled":true,"rental_uris":{"android":"levelo://app?vid=69bed6b3-f53b-4286-bac2-14ab33299680","ios":"levelo://app?vid=69bed6b3-f53b-4286-bac2-14ab33299680"},"vehicle_type_id":"4","last_reported":1777528098,"current_range_meters":4400,"station_id":"ce4bh0p2rcd13ifvqd80","pricing_plan_id":"cebpf4jnsgd1na2vs0mg"},{"bike_id":"2e52b95c-ee8d-40d0-95e3-785d23b93297","system_id":"levelo_inurba_marseille","lat":43.29761,"lon":5.42776,"is_reserved":false,"is_disabled":false,"rental_uris":{"android":"levelo://app?vid=2e52b95c-ee8d-40d0-95e3-785d23b93297","ios":"levelo://app?vid=2e52b95c-ee8d-40d0-95e3-785d23b93297"},"vehicle_type_id":"4","last_reported":1777528098,"current_range_meters":4400,"station_id":"st_d3md5207bmas73dh9klg","pricing_plan_id":"cebpf4jnsgd1na2vs0mg"},{"bike_id":"6d415556-b533-4ddd-8f1f-db3d252f4f72","system_id":"levelo_inurba_marseille","lat":43.2969,"lon":5.37707,"is_reserved":false,"is_disabled":false,"rental_uris":{"android":"levelo://app?vid=6d415556-b533-4ddd-8f1f-db3d252f4f72","ios":"levelo://app?vid=6d415556-b533-4ddd-8f1f-db3d252f4f72"},"vehicle_type_id":"4","last_reported":1777528098,"current_range_meters":4400,"station_id":"ce4bgkh2rcd13ifvqbl0","pricing_plan_id":"cebpf4jnsgd1na2vs0mg"},{"bike_id":"5ef4a8a0-22d7-4436-83cb-694ff573e887","system_id":"levelo_inurba_marseille","lat":43.30136,"lon":5.37427,"is_reserved":false,"is_disabled":false,"rental_uris":{"android":"levelo://app?vid=5ef4a8a0-22d7-4436-83cb-694ff573e887","ios":"levelo://app?vid=5ef4a8a0-22d7-4436-83cb-694ff573e887"},"vehicle_type_id":"4","last_reported":1777528098,"current_range_meters":4800,"station_id":"ce4bgs92rcd13ifvqcc0","pricing_plan_id":"cebpf4jnsgd1na2vs0mg"},{"bike_id":"d2bffbeb-b1c3-4c62-834a-33d6be2c2f87","system_id":"levelo_inurba_marseille","lat":43.27215,"lon":5.39191,"is_reserved":false,"is_disabled":true,"rental_uris":{"android":"levelo://app?vid=d2bffbeb-b1c3-4c62-834a-33d6be2c2f87","ios":"levelo://app?vid=d2bffbeb-b1c3-4c62-834a-33d6be2c2f87"},"vehicle_type_id":"4","last_reported":1777528098,"current_range_meters":4800,"station_id":"ce4bhhp2rcd13ifvqfm0","pricing_plan_id":"cebpf4jnsgd1na2vs0mg"},{"bike_id":"cd735691-a8cf-469c-b880-28ec2dcf0dc2","system_id":"levelo_inurba_marseille","lat":43.33541,"lon":5.37469,"is_reserved":false,"is_disabled":false,"rental_uris":{"android":"levelo://app?vid=cd735691-a8cf-469c-b880-28ec2dcf0dc2","ios":"levelo://app?vid=cd735691-a8cf-469c-b880-28ec2dcf0dc2"},"vehicle_type_id":"4","last_reported":1777528098,"current_range_meters":4800,"station_id":"st_d46tts09ee8s73dlu43g","pricing_plan_id":"cebpf4jnsgd1na2vs0mg"},{"bike_id":"7e661621-2d60-436d-82ab-1d584e90908a","system_id":"levelo_inurba_marseille","lat":43.27822,"lon":5.40717,"is_reserved":false,"is_disabled":false,"rental_uris":{"android":"levelo://app?vid=7e661621-2d60-436d-82ab-1d584e90908a","ios":"levelo://app?vid=7e661621-2d60-436d-82ab-1d584e90908a"},"vehicle_type_id":"4","last_reported":1777528098,"current_range_meters":4800,"station_id":"ce4bhnh2rcd13ifvqgtg","pricing_plan_id":"cebpf4jnsgd1na2vs0mg"},{"bike_id":"5563704b-f889-41a1-a394-6e3417437bea","system_id":"levelo_inurba_marseille","lat":43.303,"lon":5.39246,"is_reserved":false,"is_disabled":true,"rental_uris":{"android":"levelo://app?vid=5563704b-f889-41a1-a394-6e3417437bea","ios":"levelo://app?vid=5563704b-f889-41a1-a394-6e3417437bea"},"vehicle_type_id":"4","last_reported":1777528098,"current_range_meters":4800,"station_id":"ce4bgkh2rcd13ifvqbk0","pricing_plan_id":"cebpf4jnsgd1na2vs0mg"},{"bike_id":"84caa600-f83f-4ce9-888d-fe1ec9949215","system_id":"levelo_inurba_marseille","lat":43.26359,"lon":5.41006,"is_reserved":false,"is_disabled":false,"rental_uris":{"android":"levelo://app?vid=84caa600-f83f-4ce9-888d-fe1ec9949215","ios":"levelo://app?vid=84caa600-f83f-4ce9-888d-fe1ec9949215"},"vehicle_type_id":"4","last_reported":1777528098,"current_range_meters":5600,"station_id":"st_d4e5ca6na9uc73bfl5fg","pricing_plan_id":"cebpf4jnsgd1na2vs0mg"},{"bike_id":"2c514eca-0c7c-4c54-8544-da1a555049b6","system_id":"levelo_inurba_marseille","lat":43.26528,"lon":5.36966,"is_reserved":false,"is_disabled":false,"rental_uris":{"android":"levelo://app?vid=2c514eca-0c7c-4c54-8544-da1a555049b6","ios":"levelo://app?vid=2c514eca-0c7c-4c54-8544-da1a555049b6"},"vehicle_type_id":"4","last_reported":1777528098,"current_range_meters":5600,"station_id":"","pricing_plan_id":"cebpf4jnsgd1na2vs0mg"},{"bike_id":"bccd3b93-1cdb-49b7-8d2b-b6c4f5686242","system_id":"levelo_inurba_marseille","lat":43.30094,"lon":5.39076,"is_reserved":false,"is_disabled":false,"rental_uris":{"android":"levelo://app?vid=bccd3b93-1cdb-49b7-8d2b-b6c4f5686242","ios":"levelo://app?vid=bccd3b93-1cdb-49b7-8d2b-b6c4f5686242"},"vehicle_type_id":"4","last_reported":1777528098,"current_range_meters":5600,"station_id":"ce4bh192rcd13ifvqdb0","pricing_plan_id":"cebpf4jnsgd1na2vs0mg"},{"bike_id":"645e35ca-c3eb-470a-bb28-3be6a1175de0","system_id":"levelo_inurba_marseille","lat":43.28988,"lon":5.37813,"is_reserved":false,"is_disabled":false,"rental_uris":{"android":"levelo://app?vid=645e35ca-c3eb-470a-bb28-3be6a1175de0","ios":"levelo://app?vid=645e35ca-c3eb-470a-bb28-3be6a1175de0"},"vehicle_type_id":"4","last_reported":1777528098,"current_range_meters":5600,"station_id":"ce4bh9p2rcd13ifvqed0","pricing_plan_id":"cebpf4jnsgd1na2vs0mg"},{"bike_id":"a496669f-42ea-4ec8-b909-b71bb128370f","system_id":"levelo_inurba_marseille","lat":43.33532,"lon":5.37445,"is_reserved":false,"is_disabled":false,"rental_uris":{"android":"levelo://app?vid=a496669f-42ea-4ec8-b909-b71bb128370f","ios":"levelo://app?vid=a496669f-42ea-4ec8-b909-b71bb128370f"},"vehicle_type_id":"4","last_reported":1777528098,"current_range_meters":5600,"station_id":"st_d46tts09ee8s73dlu43g","pricing_plan_id":"cebpf4jnsgd1na2vs0mg"},{"bike_id":"6018f625-189b-4f29-a1c0-44e812bea243","system_id":"levelo_inurba_marseille","lat":43.26679,"lon":5.38264,"is_reserved":false,"is_disabled":false,"rental_uris":{"android":"levelo://app?vid=6018f625-189b-4f29-a1c0-44e812bea243","ios":"levelo://app?vid=6018f625-189b-4f29-a1c0-44e812bea243"},"vehicle_type_id":"4","last_reported":1777528098,"current_range_meters":5600,"station_id":"ce4bhg92rcd13ifvqf90","pricing_plan_id":"cebpf4jnsgd1na2vs0mg"},{"bike_id":"07919e2d-9a9f-4079-9fd2-ae993e85b930","system_id":"levelo_inurba_marseille","lat":43.21193,"lon":5.35064,"is_reserved":false,"is_disabled":false,"rental_uris":{"android":"levelo://app?vid=07919e2d-9a9f-4079-9fd2-ae993e85b930","ios":"levelo://app?vid=07919e2d-9a9f-4079-9fd2-ae993e85b930"},"vehicle_type_id":"4","last_reported":1777528098,"current_range_meters":5600,"station_id":"st_cvj6sg6p6f1abm77japg","pricing_plan_id":"cebpf4jnsgd1na2vs0mg"},{"bike_id":"b91f4f99-7987-40ea-afbb-1e1af65ec675","system_id":"levelo_inurba_marseille","lat":43.29434,"lon":5.4092,"is_reserved":false,"is_disabled":false,"rental_uris":{"android":"levelo://app?vid=b91f4f99-7987-40ea-afbb-1e1af65ec675","ios":"levelo://app?vid=b91f4f99-7987-40ea-afbb-1e1af65ec675"},"vehicle_type_id":"4","last_reported":1777528098,"current_range_meters":5600,"station_id":"","pricing_plan_id":"cebpf4jnsgd1na2vs0mg"},{"bike_id":"ab5638f9-d49e-43c8-bab0-5e1b77321ada","system_id":"levelo_inurba_marseille","lat":43.30782,"lon":5.38176,"is_reserved":false,"is_disabled":false,"rental_uris":{"android":"levelo://app?vid=ab5638f9-d49e-43c8-bab0-5e1b77321ada","ios":"levelo://app?vid=ab5638f9-d49e-43c8-bab0-5e1b77321ada"},"vehicle_type_id":"4","last_reported":1777528098,"current_range_meters":5600,"station_id":"ce4bgt12rcd13ifvqce0","pricing_plan_id":"cebpf4jnsgd1na2vs0mg"},{"bike_id":"b5592bc3-7c5d-4ba9-b1ae-b173928aef8c","system_id":"levelo_inurba_marseille","lat":43.28491,"lon":5.48383,"is_reserved":false,"is_disabled":false,"rental_uris":{"android":"levelo://app?vid=b5592bc3-7c5d-4ba9-b1ae-b173928aef8c","ios":"levelo://app?vid=b5592bc3-7c5d-4ba9-b1ae-b173928aef8c"},"vehicle_type_id":"4","last_reported":1777528098,"current_range_meters":6000,"station_id":"","pricing_plan_id":"cebpf4jnsgd1na2vs0mg"},{"bike_id":"dde9cb7a-d2cd-49d4-9390-db18f4c0f172","system_id":"levelo_inurba_marseille","lat":43.337444,"lon":5.374475,"is_reserved":false,"is_disabled":false,"rental_uris":{"android":"levelo://app?vid=dde9cb7a-d2cd-49d4-9390-db18f4c0f172","ios":"levelo://app?vid=dde9cb7a-d2cd-49d4-9390-db18f4c0f172"},"vehicle_type_id":"4","last_reported":1777528098,"current_range_meters":6000,"station_id":"ce4bgj12rcd13ifvqbc0","pricing_plan_id":"cebpf4jnsgd1na2vs0mg"},{"bike_id":"0438d68d-b4c6-4b23-a7e1-82657231ebe9","system_id":"levelo_inurba_marseille","lat":43.28461,"lon":5.48409,"is_reserved":false,"is_disabled":false,"rental_uris":{"android":"levelo://app?vid=0438d68d-b4c6-4b23-a7e1-82657231ebe9","ios":"levelo://app?vid=0438d68d-b4c6-4b23-a7e1-82657231ebe9"},"vehicle_type_id":"4","last_reported":1777528098,"current_range_meters":6000,"station_id":"","pricing_plan_id":"cebpf4jnsgd1na2vs0mg"},{"bike_id":"82a8043e-804e-4dc9-b426-b4d299449f67","system_id":"levelo_inurba_marseille","lat":43.31044,"lon":5.37178,"is_reserved":false,"is_disabled":false,"rental_uris":{"android":"levelo://app?vid=82a8043e-804e-4dc9-b426-b4d299449f67","ios":"levelo://app?vid=82a8043e-804e-4dc9-b426-b4d299449f67"},"vehicle_type_id":"4","last_reported":1777528098,"current_range_meters":6000,"station_id":"st_d4kl2rp97mjs73e7tdfg","pricing_plan_id":"cebpf4jnsgd1na2vs0mg"},{"bike_id":"d1b0cfb9-74d2-4ee1-ab25-6099cdfdd0f2","system_id":"levelo_inurba_marseille","lat":43.28357,"lon":5.40166,"is_reserved":false,"is_disabled":false,"rental_uris":{"android":"levelo://app?vid=d1b0cfb9-74d2-4ee1-ab25-6099cdfdd0f2","ios":"levelo://app?vid=d1b0cfb9-74d2-4ee1-ab25-6099cdfdd0f2"},"vehicle_type_id":"4","last_reported":1777528098,"current_range_meters":6000,"station_id":"","pricing_plan_id":"cebpf4jnsgd1na2vs0mg"},{"bike_id":"20c418db-2f1d-4a9c-9013-660ef304788e","system_id":"levelo_inurba_marseille","lat":43.3235,"lon":5.36823,"is_reserved":false,"is_disabled":false,"rental_uris":{"android":"levelo://app?vid=20c418db-2f1d-4a9c-9013-660ef304788e","ios":"levelo://app?vid=20c418db-2f1d-4a9c-9013-660ef304788e"},"vehicle_type_id":"4","last_reported":1777528098,"current_range_meters":6000,"station_id":"ce4bhsh2rcd13ifvqi2g","pricing_plan_id":"cebpf4jnsgd1na2vs0mg"},{"bike_id":"29726be3-77d4-46de-baf0-4279f98a2c19","system_id":"levelo_inurba_marseille","lat":43.297,"lon":5.37696,"is_reserved":false,"is_disabled":false,"rental_uris":{"android":"levelo://app?vid=29726be3-77d4-46de-baf0-4279f98a2c19","ios":"levelo://app?vid=29726be3-77d4-46de-baf0-4279f98a2c19"},"vehicle_type_id":"4","last_reported":1777528098,"current_range_meters":6000,"station_id":"ce4bgkh2rcd13ifvqbl0","pricing_plan_id":"cebpf4jnsgd1na2vs0mg"},{"bike_id":"b664614e-0298-48de-96bc-27654df9d7fb","system_id":"levelo_inurba_marseille","lat":43.25685,"lon":5.40065,"is_reserved":false,"is_disabled":false,"rental_uris":{"android":"levelo://app?vid=b664614e-0298-48de-96bc-27654df9d7fb","ios":"levelo://app?vid=b664614e-0298-48de-96bc-27654df9d7fb"},"vehicle_type_id":"4","last_reported":1777528098,"current_range_meters":6000,"station_id":"","pricing_plan_id":"cebpf4jnsgd1na2vs0mg"},{"bike_id":"907b975e-fb54-4198-ad71-0a6fda3075d0","system_id":"levelo_inurba_marseille","lat":43.2989,"lon":5.39742,"is_reserved":false,"is_disabled":true,"rental_uris":{"android":"levelo://app?vid=907b975e-fb54-4198-ad71-0a6fda3075d0","ios":"levelo://app?vid=907b975e-fb54-4198-ad71-0a6fda3075d0"},"vehicle_type_id":"4","last_reported":1777528098,"current_range_meters":6000,"station_id":"ce4bh0h2rcd13ifvqd50","pricing_plan_id":"cebpf4jnsgd1na2vs0mg"},{"bike_id":"b523adde-c1af-44da-98e3-23f5e04a208c","system_id":"levelo_inurba_marseille","lat":43.32131,"lon":5.36826,"is_reserved":false,"is_disabled":false,"rental_uris":{"android":"levelo://app?vid=b523adde-c1af-44da-98e3-23f5e04a208c","ios":"levelo://app?vid=b523adde-c1af-44da-98e3-23f5e04a208c"},"vehicle_type_id":"4","last_reported":1777528098,"current_range_meters":6000,"station_id":"ce4bhrh2rcd13ifvqhug","pricing_plan_id":"cebpf4jnsgd1na2vs0mg"},{"bike_id":"c49761ac-9f33-4552-bf2f-10763f93fa50","system_id":"levelo_inurba_marseille","lat":43.31895,"lon":5.36812,"is_reserved":false,"is_disabled":false,"rental_uris":{"android":"levelo://app?vid=c49761ac-9f33-4552-bf2f-10763f93fa50","ios":"levelo://app?vid=c49761ac-9f33-4552-bf2f-10763f93fa50"},"vehicle_type_id":"4","last_reported":1777528098,"current_range_meters":6000,"station_id":"st_d6o2h0d0559c73evc1b0","pricing_plan_id":"cebpf4jnsgd1na2vs0mg"},{"bike_id":"4002786c-5fe1-4499-9c7c-4b03c2fb6d47","system_id":"levelo_inurba_marseille","lat":43.28456,"lon":5.38557,"is_reserved":false,"is_disabled":false,"rental_uris":{"android":"levelo://app?vid=4002786c-5fe1-4499-9c7c-4b03c2fb6d47","ios":"levelo://app?vid=4002786c-5fe1-4499-9c7c-4b03c2fb6d47"},"vehicle_type_id":"4","last_reported":1777528098,"current_range_meters":6000,"station_id":"ce4bh8p2rcd13ifvqeb0","pricing_plan_id":"cebpf4jnsgd1na2vs0mg"},{"bike_id":"85fc8e24-91c4-48dd-b52d-57aebea5a51b","system_id":"levelo_inurba_marseille","lat":43.24083,"lon":5.37749,"is_reserved":false,"is_disabled":false,"rental_uris":{"android":"levelo://app?vid=85fc8e24-91c4-48dd-b52d-57aebea5a51b","ios":"levelo://app?vid=85fc8e24-91c4-48dd-b52d-57aebea5a51b"},"vehicle_type_id":"4","last_reported":1777528098,"current_range_meters":6000,"station_id":"ce4bhnp2rcd13ifvqgvg","pricing_plan_id":"cebpf4jnsgd1na2vs0mg"},{"bike_id":"8ad5ce58-40a3-4e41-8cdd-c2866ecbcdd1","system_id":"levelo_inurba_marseille","lat":43.27427,"lon":5.39423,"is_reserved":false,"is_disabled":false,"rental_uris":{"android":"levelo://app?vid=8ad5ce58-40a3-4e41-8cdd-c2866ecbcdd1","ios":"levelo://app?vid=8ad5ce58-40a3-4e41-8cdd-c2866ecbcdd1"},"vehicle_type_id":"4","last_reported":1777528098,"current_range_meters":6000,"station_id":"ce4bhdp2rcd13ifvqf20","pricing_plan_id":"cebpf4jnsgd1na2vs0mg"},{"bike_id":"d8de0a64-e3bb-4f89-8f07-313cae5af722","system_id":"levelo_inurba_marseille","lat":43.22571,"lon":5.41651,"is_reserved":false,"is_disabled":false,"rental_uris":{"android":"levelo://app?vid=d8de0a64-e3bb-4f89-8f07-313cae5af722","ios":"levelo://app?vid=d8de0a64-e3bb-4f89-8f07-313cae5af722"},"vehicle_type_id":"4","last_reported":1777528098,"current_range_meters":6400,"station_id":"st_d2o4gvlbi1j2169b742g","pricing_plan_id":"cebpf4jnsgd1na2vs0mg"},{"bike_id":"8829f460-aa5f-4233-9846-cd6731fc4acd","system_id":"levelo_inurba_marseille","lat":43.26983,"lon":5.40434,"is_reserved":false,"is_disabled":false,"rental_uris":{"android":"levelo://app?vid=8829f460-aa5f-4233-9846-cd6731fc4acd","ios":"levelo://app?vid=8829f460-aa5f-4233-9846-cd6731fc4acd"},"vehicle_type_id":"4","last_reported":1777528098,"current_range_meters":6400,"station_id":"","pricing_plan_id":"cebpf4jnsgd1na2vs0mg"},{"bike_id":"96ba5a0f-537d-4ad5-80d1-4b30ca04ea89","system_id":"levelo_inurba_marseille","lat":43.314834,"lon":5.373069,"is_reserved":false,"is_disabled":false,"rental_uris":{"android":"levelo://app?vid=96ba5a0f-537d-4ad5-80d1-4b30ca04ea89","ios":"levelo://app?vid=96ba5a0f-537d-4ad5-80d1-4b30ca04ea89"},"vehicle_type_id":"4","last_reported":1777528098,"current_range_meters":6400,"station_id":"ce4bgt12rcd13ifvqcd0","pricing_plan_id":"cebpf4jnsgd1na2vs0mg"},{"bike_id":"74b97888-2010-4f62-9143-1297c2114922","system_id":"levelo_inurba_marseille","lat":43.27821,"lon":5.39207,"is_reserved":false,"is_disabled":true,"rental_uris":{"android":"levelo://app?vid=74b97888-2010-4f62-9143-1297c2114922","ios":"levelo://app?vid=74b97888-2010-4f62-9143-1297c2114922"},"vehicle_type_id":"4","last_reported":1777528098,"current_range_meters":6400,"station_id":"ce4bhjp2rcd13ifvqga0","pricing_plan_id":"cebpf4jnsgd1na2vs0mg"},{"bike_id":"e8c45a74-740f-4fc5-b008-5dd3be21b931","system_id":"levelo_inurba_marseille","lat":43.3114,"lon":5.38052,"is_reserved":false,"is_disabled":false,"rental_uris":{"android":"levelo://app?vid=e8c45a74-740f-4fc5-b008-5dd3be21b931","ios":"levelo://app?vid=e8c45a74-740f-4fc5-b008-5dd3be21b931"},"vehicle_type_id":"4","last_reported":1777528098,"current_range_meters":6400,"station_id":"","pricing_plan_id":"cebpf4jnsgd1na2vs0mg"},{"bike_id":"acc57406-75de-43a2-a6ec-d941193f0be0","system_id":"levelo_inurba_marseille","lat":43.32356,"lon":5.36751,"is_reserved":false,"is_disabled":false,"rental_uris":{"android":"levelo://app?vid=acc57406-75de-43a2-a6ec-d941193f0be0","ios":"levelo://app?vid=acc57406-75de-43a2-a6ec-d941193f0be0"},"vehicle_type_id":"4","last_reported":1777528098,"current_range_meters":6400,"station_id":"ce4bhsh2rcd13ifvqi2g","pricing_plan_id":"cebpf4jnsgd1na2vs0mg"},{"bike_id":"b0fc715f-4a35-4272-9e2a-b10f7b105dc9","system_id":"levelo_inurba_marseille","lat":43.29358,"lon":5.44556,"is_reserved":false,"is_disabled":false,"rental_uris":{"android":"levelo://app?vid=b0fc715f-4a35-4272-9e2a-b10f7b105dc9","ios":"levelo://app?vid=b0fc715f-4a35-4272-9e2a-b10f7b105dc9"},"vehicle_type_id":"4","last_reported":1777528098,"current_range_meters":6400,"station_id":"","pricing_plan_id":"cebpf4jnsgd1na2vs0mg"},{"bike_id":"4973a181-d17c-430e-bbdc-8fc4d0df0c6f","system_id":"levelo_inurba_marseille","lat":43.23152,"lon":5.43698,"is_reserved":false,"is_disabled":false,"rental_uris":{"android":"levelo://app?vid=4973a181-d17c-430e-bbdc-8fc4d0df0c6f","ios":"levelo://app?vid=4973a181-d17c-430e-bbdc-8fc4d0df0c6f"},"vehicle_type_id":"4","last_reported":1777528098,"current_range_meters":6400,"station_id":"ce4bhmp2rcd13ifvqgog","pricing_plan_id":"cebpf4jnsgd1na2vs0mg"},{"bike_id":"945b3f65-3522-4839-bb4a-92155b98bfd3","system_id":"levelo_inurba_marseille","lat":43.28438,"lon":5.35001,"is_reserved":false,"is_disabled":true,"rental_uris":{"android":"levelo://app?vid=945b3f65-3522-4839-bb4a-92155b98bfd3","ios":"levelo://app?vid=945b3f65-3522-4839-bb4a-92155b98bfd3"},"vehicle_type_id":"4","last_reported":1777528098,"current_range_meters":6400,"station_id":"ce4bhbh2rcd13ifvqepg","pricing_plan_id":"cebpf4jnsgd1na2vs0mg"},{"bike_id":"604c2532-1a42-482b-9406-049311fa427a","system_id":"levelo_inurba_marseille","lat":43.26573,"lon":5.39036,"is_reserved":false,"is_disabled":false,"rental_uris":{"android":"levelo://app?vid=604c2532-1a42-482b-9406-049311fa427a","ios":"levelo://app?vid=604c2532-1a42-482b-9406-049311fa427a"},"vehicle_type_id":"4","last_reported":1777528098,"current_range_meters":6400,"station_id":"ce4bhe12rcd13ifvqf30","pricing_plan_id":"cebpf4jnsgd1na2vs0mg"},{"bike_id":"4d3b0fb9-4fcc-46d7-8f90-81b232f0c7b3","system_id":"levelo_inurba_marseille","lat":43.30163,"lon":5.43102,"is_reserved":false,"is_disabled":false,"rental_uris":{"android":"levelo://app?vid=4d3b0fb9-4fcc-46d7-8f90-81b232f0c7b3","ios":"levelo://app?vid=4d3b0fb9-4fcc-46d7-8f90-81b232f0c7b3"},"vehicle_type_id":"4","last_reported":1777528098,"current_range_meters":6400,"station_id":"st_d3js3co5814s73ftftug","pricing_plan_id":"cebpf4jnsgd1na2vs0mg"},{"bike_id":"7334c81d-e583-462d-8089-d8c616e947cd","system_id":"levelo_inurba_marseille","lat":43.25088,"lon":5.395284,"is_reserved":false,"is_disabled":false,"rental_uris":{"android":"levelo://app?vid=7334c81d-e583-462d-8089-d8c616e947cd","ios":"levelo://app?vid=7334c81d-e583-462d-8089-d8c616e947cd"},"vehicle_type_id":"4","last_reported":1777528098,"current_range_meters":6400,"station_id":"ce4bhm12rcd13ifvqgkg","pricing_plan_id":"cebpf4jnsgd1na2vs0mg"},{"bike_id":"10ee5b03-7c4d-4483-aa0c-578e209dda87","system_id":"levelo_inurba_marseille","lat":43.29248,"lon":5.40922,"is_reserved":false,"is_disabled":false,"rental_uris":{"android":"levelo://app?vid=10ee5b03-7c4d-4483-aa0c-578e209dda87","ios":"levelo://app?vid=10ee5b03-7c4d-4483-aa0c-578e209dda87"},"vehicle_type_id":"4","last_reported":1777528098,"current_range_meters":6800,"station_id":"ce4bh192rcd13ifvqdc0","pricing_plan_id":"cebpf4jnsgd1na2vs0mg"},{"bike_id":"345bc929-f498-4128-a39a-b953913f5208","system_id":"levelo_inurba_marseille","lat":43.25576,"lon":5.38235,"is_reserved":false,"is_disabled":false,"rental_uris":{"android":"levelo://app?vid=345bc929-f498-4128-a39a-b953913f5208","ios":"levelo://app?vid=345bc929-f498-4128-a39a-b953913f5208"},"vehicle_type_id":"4","last_reported":1777528098,"current_range_meters":6800,"station_id":"ce4bhih2rcd13ifvqfs0","pricing_plan_id":"cebpf4jnsgd1na2vs0mg"},{"bike_id":"77eb40db-cfb8-4174-994b-5cff78da6f81","system_id":"levelo_inurba_marseille","lat":43.28653,"lon":5.36339,"is_reserved":false,"is_disabled":false,"rental_uris":{"android":"levelo://app?vid=77eb40db-cfb8-4174-994b-5cff78da6f81","ios":"levelo://app?vid=77eb40db-cfb8-4174-994b-5cff78da6f81"},"vehicle_type_id":"4","last_reported":1777528098,"current_range_meters":6800,"station_id":"ce4bhah2rcd13ifvqej0","pricing_plan_id":"cebpf4jnsgd1na2vs0mg"},{"bike_id":"7a4f9c5b-0770-4973-b065-ff441b4f0ec4","system_id":"levelo_inurba_marseille","lat":43.28854,"lon":5.42513,"is_reserved":false,"is_disabled":false,"rental_uris":{"android":"levelo://app?vid=7a4f9c5b-0770-4973-b065-ff441b4f0ec4","ios":"levelo://app?vid=7a4f9c5b-0770-4973-b065-ff441b4f0ec4"},"vehicle_type_id":"4","last_reported":1777528098,"current_range_meters":6800,"station_id":"st_d3b462108ojc7389ooeg","pricing_plan_id":"cebpf4jnsgd1na2vs0mg"},{"bike_id":"2096886e-d452-40d2-8425-3769c8ba6880","system_id":"levelo_inurba_marseille","lat":43.26538,"lon":5.39048,"is_reserved":false,"is_disabled":false,"rental_uris":{"android":"levelo://app?vid=2096886e-d452-40d2-8425-3769c8ba6880","ios":"levelo://app?vid=2096886e-d452-40d2-8425-3769c8ba6880"},"vehicle_type_id":"4","last_reported":1777528098,"current_range_meters":6800,"station_id":"ce4bhe12rcd13ifvqf30","pricing_plan_id":"cebpf4jnsgd1na2vs0mg"},{"bike_id":"60e4178b-57aa-4065-919c-ac596cd04313","system_id":"levelo_inurba_marseille","lat":43.30954,"lon":5.39059,"is_reserved":false,"is_disabled":false,"rental_uris":{"android":"levelo://app?vid=60e4178b-57aa-4065-919c-ac596cd04313","ios":"levelo://app?vid=60e4178b-57aa-4065-919c-ac596cd04313"},"vehicle_type_id":"4","last_reported":1777528098,"current_range_meters":6800,"station_id":"ce4bgup2rcd13ifvqco0","pricing_plan_id":"cebpf4jnsgd1na2vs0mg"},{"bike_id":"a4c6045c-f52e-4bc6-99bb-b3f5097eb70b","system_id":"levelo_inurba_marseille","lat":43.24581,"lon":5.40244,"is_reserved":false,"is_disabled":false,"rental_uris":{"android":"levelo://app?vid=a4c6045c-f52e-4bc6-99bb-b3f5097eb70b","ios":"levelo://app?vid=a4c6045c-f52e-4bc6-99bb-b3f5097eb70b"},"vehicle_type_id":"4","last_reported":1777528098,"current_range_meters":6800,"station_id":"","pricing_plan_id":"cebpf4jnsgd1na2vs0mg"},{"bike_id":"6f0d5a4b-08e1-4336-9fc6-d57686cf0751","system_id":"levelo_inurba_marseille","lat":43.28439,"lon":5.37527,"is_reserved":false,"is_disabled":false,"rental_uris":{"android":"levelo://app?vid=6f0d5a4b-08e1-4336-9fc6-d57686cf0751","ios":"levelo://app?vid=6f0d5a4b-08e1-4336-9fc6-d57686cf0751"},"vehicle_type_id":"4","last_reported":1777528098,"current_range_meters":6800,"station_id":"ce4bh412rcd13ifvqds0","pricing_plan_id":"cebpf4jnsgd1na2vs0mg"},{"bike_id":"26335112-9b2a-4a27-9ec1-b93b9cc755ad","system_id":"levelo_inurba_marseille","lat":43.30867,"lon":5.41887,"is_reserved":false,"is_disabled":false,"rental_uris":{"android":"levelo://app?vid=26335112-9b2a-4a27-9ec1-b93b9cc755ad","ios":"levelo://app?vid=26335112-9b2a-4a27-9ec1-b93b9cc755ad"},"vehicle_type_id":"4","last_reported":1777528098,"current_range_meters":6800,"station_id":"","pricing_plan_id":"cebpf4jnsgd1na2vs0mg"},{"bike_id":"4c4fd5bf-edd1-4e64-bbba-8e4e3d30b47b","system_id":"levelo_inurba_marseille","lat":43.29108,"lon":5.43008,"is_reserved":false,"is_disabled":false,"rental_uris":{"android":"levelo://app?vid=4c4fd5bf-edd1-4e64-bbba-8e4e3d30b47b","ios":"levelo://app?vid=4c4fd5bf-edd1-4e64-bbba-8e4e3d30b47b"},"vehicle_type_id":"4","last_reported":1777528098,"current_range_meters":6800,"station_id":"","pricing_plan_id":"cebpf4jnsgd1na2vs0mg"},{"bike_id":"202a2148-e07f-4b9b-afd8-f9429f3e2618","system_id":"levelo_inurba_marseille","lat":43.30799,"lon":5.3816,"is_reserved":false,"is_disabled":false,"rental_uris":{"android":"levelo://app?vid=202a2148-e07f-4b9b-afd8-f9429f3e2618","ios":"levelo://app?vid=202a2148-e07f-4b9b-afd8-f9429f3e2618"},"vehicle_type_id":"4","last_reported":1777528098,"current_range_meters":6800,"station_id":"ce4bgt12rcd13ifvqce0","pricing_plan_id":"cebpf4jnsgd1na2vs0mg"},{"bike_id":"60d77da4-6419-429b-9e7a-b2cf161a2f69","system_id":"levelo_inurba_marseille","lat":43.32642,"lon":5.39497,"is_reserved":false,"is_disabled":false,"rental_uris":{"android":"levelo://app?vid=60d77da4-6419-429b-9e7a-b2cf161a2f69","ios":"levelo://app?vid=60d77da4-6419-429b-9e7a-b2cf161a2f69"},"vehicle_type_id":"4","last_reported":1777528098,"current_range_meters":6800,"station_id":"","pricing_plan_id":"cebpf4jnsgd1na2vs0mg"},{"bike_id":"675a267f-7c22-4e41-a524-6cab3887702c","system_id":"levelo_inurba_marseille","lat":43.30145,"lon":5.38086,"is_reserved":false,"is_disabled":false,"rental_uris":{"android":"levelo://app?vid=675a267f-7c22-4e41-a524-6cab3887702c","ios":"levelo://app?vid=675a267f-7c22-4e41-a524-6cab3887702c"},"vehicle_type_id":"4","last_reported":1777528098,"current_range_meters":6800,"station_id":"ce4bgjp2rcd13ifvqbh0","pricing_plan_id":"cebpf4jnsgd1na2vs0mg"},{"bike_id":"d5388f7a-4e0a-4376-b76b-701e4b281dc2","system_id":"levelo_inurba_marseille","lat":43.27066,"lon":5.40268,"is_reserved":false,"is_disabled":true,"rental_uris":{"android":"levelo://app?vid=d5388f7a-4e0a-4376-b76b-701e4b281dc2","ios":"levelo://app?vid=d5388f7a-4e0a-4376-b76b-701e4b281dc2"},"vehicle_type_id":"4","last_reported":1777528098,"current_range_meters":6800,"station_id":"ce4bhk92rcd13ifvqgc0","pricing_plan_id":"cebpf4jnsgd1na2vs0mg"},{"bike_id":"6dc94503-0f06-4160-8789-42be3132f598","system_id":"levelo_inurba_marseille","lat":43.25539,"lon":5.37603,"is_reserved":false,"is_disabled":false,"rental_uris":{"android":"levelo://app?vid=6dc94503-0f06-4160-8789-42be3132f598","ios":"levelo://app?vid=6dc94503-0f06-4160-8789-42be3132f598"},"vehicle_type_id":"4","last_reported":1777528098,"current_range_meters":6800,"station_id":"","pricing_plan_id":"cebpf4jnsgd1na2vs0mg"},{"bike_id":"4f1ea70f-93bd-4cf0-aeb5-3608ec18929c","system_id":"levelo_inurba_marseille","lat":43.24637,"lon":5.38178,"is_reserved":false,"is_disabled":false,"rental_uris":{"android":"levelo://app?vid=4f1ea70f-93bd-4cf0-aeb5-3608ec18929c","ios":"levelo://app?vid=4f1ea70f-93bd-4cf0-aeb5-3608ec18929c"},"vehicle_type_id":"4","last_reported":1777528098,"current_range_meters":6800,"station_id":"ce4bhih2rcd13ifvqfr0","pricing_plan_id":"cebpf4jnsgd1na2vs0mg"},{"bike_id":"c7eaf045-a072-4b97-be5a-8da019ce7a1d","system_id":"levelo_inurba_marseille","lat":43.2751,"lon":5.41576,"is_reserved":false,"is_disabled":false,"rental_uris":{"android":"levelo://app?vid=c7eaf045-a072-4b97-be5a-8da019ce7a1d","ios":"levelo://app?vid=c7eaf045-a072-4b97-be5a-8da019ce7a1d"},"vehicle_type_id":"4","last_reported":1777528098,"current_range_meters":6800,"station_id":"st_d6im8g6chgec73a5pndg","pricing_plan_id":"cebpf4jnsgd1na2vs0mg"},{"bike_id":"262fc285-b6eb-4eda-9ac1-639b6caaacc5","system_id":"levelo_inurba_marseille","lat":43.32351,"lon":5.36732,"is_reserved":false,"is_disabled":false,"rental_uris":{"android":"levelo://app?vid=262fc285-b6eb-4eda-9ac1-639b6caaacc5","ios":"levelo://app?vid=262fc285-b6eb-4eda-9ac1-639b6caaacc5"},"vehicle_type_id":"4","last_reported":1777528098,"current_range_meters":7200,"station_id":"ce4bhsh2rcd13ifvqi2g","pricing_plan_id":"cebpf4jnsgd1na2vs0mg"},{"bike_id":"d97ed6ed-9254-4b2c-9752-a3aaf3378900","system_id":"levelo_inurba_marseille","lat":43.33545,"lon":5.37471,"is_reserved":false,"is_disabled":false,"rental_uris":{"android":"levelo://app?vid=d97ed6ed-9254-4b2c-9752-a3aaf3378900","ios":"levelo://app?vid=d97ed6ed-9254-4b2c-9752-a3aaf3378900"},"vehicle_type_id":"4","last_reported":1777528098,"current_range_meters":7200,"station_id":"st_d46tts09ee8s73dlu43g","pricing_plan_id":"cebpf4jnsgd1na2vs0mg"},{"bike_id":"8a4a0249-4f4c-41b5-bc94-e064df2c0d36","system_id":"levelo_inurba_marseille","lat":43.30422,"lon":5.38871,"is_reserved":false,"is_disabled":false,"rental_uris":{"android":"levelo://app?vid=8a4a0249-4f4c-41b5-bc94-e064df2c0d36","ios":"levelo://app?vid=8a4a0249-4f4c-41b5-bc94-e064df2c0d36"},"vehicle_type_id":"4","last_reported":1777528098,"current_range_meters":7200,"station_id":"ce4bgk12rcd13ifvqbi0","pricing_plan_id":"cebpf4jnsgd1na2vs0mg"},{"bike_id":"fa3c9a86-a540-4905-9a72-f95519b56baf","system_id":"levelo_inurba_marseille","lat":43.250882,"lon":5.395282,"is_reserved":false,"is_disabled":false,"rental_uris":{"android":"levelo://app?vid=fa3c9a86-a540-4905-9a72-f95519b56baf","ios":"levelo://app?vid=fa3c9a86-a540-4905-9a72-f95519b56baf"},"vehicle_type_id":"4","last_reported":1777528098,"current_range_meters":7200,"station_id":"ce4bhm12rcd13ifvqgkg","pricing_plan_id":"cebpf4jnsgd1na2vs0mg"},{"bike_id":"b98306a6-5611-4674-9d87-336fabb8dd2a","system_id":"levelo_inurba_marseille","lat":43.28233,"lon":5.39038,"is_reserved":false,"is_disabled":false,"rental_uris":{"android":"levelo://app?vid=b98306a6-5611-4674-9d87-336fabb8dd2a","ios":"levelo://app?vid=b98306a6-5611-4674-9d87-336fabb8dd2a"},"vehicle_type_id":"4","last_reported":1777528098,"current_range_meters":7200,"station_id":"ce4bhn92rcd13ifvqgsg","pricing_plan_id":"cebpf4jnsgd1na2vs0mg"},{"bike_id":"4092fda1-ef91-4a7b-a325-2635d393cc53","system_id":"levelo_inurba_marseille","lat":43.31493,"lon":5.37297,"is_reserved":false,"is_disabled":false,"rental_uris":{"android":"levelo://app?vid=4092fda1-ef91-4a7b-a325-2635d393cc53","ios":"levelo://app?vid=4092fda1-ef91-4a7b-a325-2635d393cc53"},"vehicle_type_id":"4","last_reported":1777528098,"current_range_meters":7200,"station_id":"ce4bgt12rcd13ifvqcd0","pricing_plan_id":"cebpf4jnsgd1na2vs0mg"},{"bike_id":"d20e7dd1-c0ce-4e63-b6fe-439fd2d44a3a","system_id":"levelo_inurba_marseille","lat":43.28658,"lon":5.36337,"is_reserved":false,"is_disabled":false,"rental_uris":{"android":"levelo://app?vid=d20e7dd1-c0ce-4e63-b6fe-439fd2d44a3a","ios":"levelo://app?vid=d20e7dd1-c0ce-4e63-b6fe-439fd2d44a3a"},"vehicle_type_id":"4","last_reported":1777528098,"current_range_meters":7200,"station_id":"ce4bhah2rcd13ifvqej0","pricing_plan_id":"cebpf4jnsgd1na2vs0mg"},{"bike_id":"ae5dfbbd-1caf-4019-b26d-f227bc82a32c","system_id":"levelo_inurba_marseille","lat":43.31996,"lon":5.38112,"is_reserved":false,"is_disabled":false,"rental_uris":{"android":"levelo://app?vid=ae5dfbbd-1caf-4019-b26d-f227bc82a32c","ios":"levelo://app?vid=ae5dfbbd-1caf-4019-b26d-f227bc82a32c"},"vehicle_type_id":"4","last_reported":1777528098,"current_range_meters":7200,"station_id":"ce4bhr12rcd13ifvqhpg","pricing_plan_id":"cebpf4jnsgd1na2vs0mg"},{"bike_id":"dd649e74-ed5e-4ce6-b6fc-191746436a7b","system_id":"levelo_inurba_marseille","lat":43.2512,"lon":5.42673,"is_reserved":false,"is_disabled":false,"rental_uris":{"android":"levelo://app?vid=dd649e74-ed5e-4ce6-b6fc-191746436a7b","ios":"levelo://app?vid=dd649e74-ed5e-4ce6-b6fc-191746436a7b"},"vehicle_type_id":"4","last_reported":1777528098,"current_range_meters":7200,"station_id":"","pricing_plan_id":"cebpf4jnsgd1na2vs0mg"},{"bike_id":"9704bc80-93c0-4593-9446-7d79d9f301af","system_id":"levelo_inurba_marseille","lat":43.28621,"lon":5.39895,"is_reserved":false,"is_disabled":false,"rental_uris":{"android":"levelo://app?vid=9704bc80-93c0-4593-9446-7d79d9f301af","ios":"levelo://app?vid=9704bc80-93c0-4593-9446-7d79d9f301af"},"vehicle_type_id":"4","last_reported":1777528098,"current_range_meters":7200,"station_id":"st_d4a7ka997mjs738ck50g","pricing_plan_id":"cebpf4jnsgd1na2vs0mg"},{"bike_id":"3be4a7db-61a4-4555-aa09-c404800b0f79","system_id":"levelo_inurba_marseille","lat":43.33159,"lon":5.37687,"is_reserved":false,"is_disabled":false,"rental_uris":{"android":"levelo://app?vid=3be4a7db-61a4-4555-aa09-c404800b0f79","ios":"levelo://app?vid=3be4a7db-61a4-4555-aa09-c404800b0f79"},"vehicle_type_id":"4","last_reported":1777528098,"current_range_meters":7200,"station_id":"st_d46cu089ee8s73dldbu0","pricing_plan_id":"cebpf4jnsgd1na2vs0mg"},{"bike_id":"486754d9-e4fe-4ce6-be2d-73e031393d75","system_id":"levelo_inurba_marseille","lat":43.26541,"lon":5.37298,"is_reserved":false,"is_disabled":false,"rental_uris":{"android":"levelo://app?vid=486754d9-e4fe-4ce6-be2d-73e031393d75","ios":"levelo://app?vid=486754d9-e4fe-4ce6-be2d-73e031393d75"},"vehicle_type_id":"4","last_reported":1777528098,"current_range_meters":7200,"station_id":"ce4bhg12rcd13ifvqf70","pricing_plan_id":"cebpf4jnsgd1na2vs0mg"},{"bike_id":"46523cb2-6b8e-455f-9277-3808cf80d4d2","system_id":"levelo_inurba_marseille","lat":43.337444,"lon":5.374475,"is_reserved":false,"is_disabled":true,"rental_uris":{"android":"levelo://app?vid=46523cb2-6b8e-455f-9277-3808cf80d4d2","ios":"levelo://app?vid=46523cb2-6b8e-455f-9277-3808cf80d4d2"},"vehicle_type_id":"4","last_reported":1777528098,"current_range_meters":8000,"station_id":"","pricing_plan_id":"cebpf4jnsgd1na2vs0mg"},{"bike_id":"8ecd22d6-ea16-4947-a7cb-5d0643282d24","system_id":"levelo_inurba_marseille","lat":43.28103,"lon":5.37854,"is_reserved":false,"is_disabled":false,"rental_uris":{"android":"levelo://app?vid=8ecd22d6-ea16-4947-a7cb-5d0643282d24","ios":"levelo://app?vid=8ecd22d6-ea16-4947-a7cb-5d0643282d24"},"vehicle_type_id":"4","last_reported":1777528098,"current_range_meters":8000,"station_id":"ce4bha12rcd13ifvqee0","pricing_plan_id":"cebpf4jnsgd1na2vs0mg"},{"bike_id":"67770120-bd85-4b15-af1e-f85ca14859f3","system_id":"levelo_inurba_marseille","lat":43.28879,"lon":5.42517,"is_reserved":false,"is_disabled":false,"rental_uris":{"android":"levelo://app?vid=67770120-bd85-4b15-af1e-f85ca14859f3","ios":"levelo://app?vid=67770120-bd85-4b15-af1e-f85ca14859f3"},"vehicle_type_id":"4","last_reported":1777528098,"current_range_meters":8000,"station_id":"st_d3b462108ojc7389ooeg","pricing_plan_id":"cebpf4jnsgd1na2vs0mg"},{"bike_id":"34836c56-e730-457a-8c8c-10390370c912","system_id":"levelo_inurba_marseille","lat":43.31117,"lon":5.3776,"is_reserved":false,"is_disabled":false,"rental_uris":{"android":"levelo://app?vid=34836c56-e730-457a-8c8c-10390370c912","ios":"levelo://app?vid=34836c56-e730-457a-8c8c-10390370c912"},"vehicle_type_id":"4","last_reported":1777528098,"current_range_meters":8000,"station_id":"ce4bgt92rcd13ifvqcg0","pricing_plan_id":"cebpf4jnsgd1na2vs0mg"},{"bike_id":"14ffd392-a207-41da-942f-3d5d62a42696","system_id":"levelo_inurba_marseille","lat":43.31883,"lon":5.36817,"is_reserved":false,"is_disabled":false,"rental_uris":{"android":"levelo://app?vid=14ffd392-a207-41da-942f-3d5d62a42696","ios":"levelo://app?vid=14ffd392-a207-41da-942f-3d5d62a42696"},"vehicle_type_id":"4","last_reported":1777528098,"current_range_meters":8000,"station_id":"st_d6o2h0d0559c73evc1b0","pricing_plan_id":"cebpf4jnsgd1na2vs0mg"},{"bike_id":"00ff0799-7689-45c9-8cd0-76bddacfdb63","system_id":"levelo_inurba_marseille","lat":43.28148,"lon":5.42633,"is_reserved":false,"is_disabled":false,"rental_uris":{"android":"levelo://app?vid=00ff0799-7689-45c9-8cd0-76bddacfdb63","ios":"levelo://app?vid=00ff0799-7689-45c9-8cd0-76bddacfdb63"},"vehicle_type_id":"4","last_reported":1777528098,"current_range_meters":8000,"station_id":"ce4bhnh2rcd13ifvqgug","pricing_plan_id":"cebpf4jnsgd1na2vs0mg"},{"bike_id":"7be06c3a-8473-4b45-a3f6-aea060cfe576","system_id":"levelo_inurba_marseille","lat":43.25579,"lon":5.38234,"is_reserved":false,"is_disabled":false,"rental_uris":{"android":"levelo://app?vid=7be06c3a-8473-4b45-a3f6-aea060cfe576","ios":"levelo://app?vid=7be06c3a-8473-4b45-a3f6-aea060cfe576"},"vehicle_type_id":"4","last_reported":1777528098,"current_range_meters":8000,"station_id":"ce4bhih2rcd13ifvqfs0","pricing_plan_id":"cebpf4jnsgd1na2vs0mg"},{"bike_id":"de4c0c87-b72a-499a-b48b-cb96a6d61600","system_id":"levelo_inurba_marseille","lat":43.28702,"lon":5.39979,"is_reserved":false,"is_disabled":false,"rental_uris":{"android":"levelo://app?vid=de4c0c87-b72a-499a-b48b-cb96a6d61600","ios":"levelo://app?vid=de4c0c87-b72a-499a-b48b-cb96a6d61600"},"vehicle_type_id":"4","last_reported":1777528098,"current_range_meters":8000,"station_id":"ce4bho92rcd13ifvqh3g","pricing_plan_id":"cebpf4jnsgd1na2vs0mg"},{"bike_id":"ee6a3540-ce9d-481a-aea0-1ace92116eeb","system_id":"levelo_inurba_marseille","lat":43.30426,"lon":5.38903,"is_reserved":false,"is_disabled":true,"rental_uris":{"android":"levelo://app?vid=ee6a3540-ce9d-481a-aea0-1ace92116eeb","ios":"levelo://app?vid=ee6a3540-ce9d-481a-aea0-1ace92116eeb"},"vehicle_type_id":"4","last_reported":1777528098,"current_range_meters":8000,"station_id":"ce4bgk12rcd13ifvqbi0","pricing_plan_id":"cebpf4jnsgd1na2vs0mg"},{"bike_id":"4da23bbf-8aab-4991-bb00-1a569a4581cc","system_id":"levelo_inurba_marseille","lat":43.27069,"lon":5.4228,"is_reserved":false,"is_disabled":false,"rental_uris":{"android":"levelo://app?vid=4da23bbf-8aab-4991-bb00-1a569a4581cc","ios":"levelo://app?vid=4da23bbf-8aab-4991-bb00-1a569a4581cc"},"vehicle_type_id":"4","last_reported":1777528098,"current_range_meters":8000,"station_id":"ce4bhk92rcd13ifvqgb0","pricing_plan_id":"cebpf4jnsgd1na2vs0mg"},{"bike_id":"983c419f-b2e5-41c0-a6de-4665722d0571","system_id":"levelo_inurba_marseille","lat":43.30816,"lon":5.38144,"is_reserved":false,"is_disabled":false,"rental_uris":{"android":"levelo://app?vid=983c419f-b2e5-41c0-a6de-4665722d0571","ios":"levelo://app?vid=983c419f-b2e5-41c0-a6de-4665722d0571"},"vehicle_type_id":"4","last_reported":1777528098,"current_range_meters":8000,"station_id":"ce4bgt12rcd13ifvqce0","pricing_plan_id":"cebpf4jnsgd1na2vs0mg"},{"bike_id":"3a530688-3fe7-4e09-9385-01003a337a95","system_id":"levelo_inurba_marseille","lat":43.30929,"lon":5.40151,"is_reserved":false,"is_disabled":false,"rental_uris":{"android":"levelo://app?vid=3a530688-3fe7-4e09-9385-01003a337a95","ios":"levelo://app?vid=3a530688-3fe7-4e09-9385-01003a337a95"},"vehicle_type_id":"4","last_reported":1777528098,"current_range_meters":8000,"station_id":"ce4bgvp2rcd13ifvqct0","pricing_plan_id":"cebpf4jnsgd1na2vs0mg"},{"bike_id":"9087a029-3792-4d95-bab1-f70d1a6c3adc","system_id":"levelo_inurba_marseille","lat":43.27569,"lon":5.38415,"is_reserved":false,"is_disabled":false,"rental_uris":{"android":"levelo://app?vid=9087a029-3792-4d95-bab1-f70d1a6c3adc","ios":"levelo://app?vid=9087a029-3792-4d95-bab1-f70d1a6c3adc"},"vehicle_type_id":"4","last_reported":1777528098,"current_range_meters":8000,"station_id":"ce4bhh92rcd13ifvqfi0","pricing_plan_id":"cebpf4jnsgd1na2vs0mg"},{"bike_id":"3bcecd58-64c0-4e2d-8d18-75964e1abbf6","system_id":"levelo_inurba_marseille","lat":43.27182,"lon":5.4099,"is_reserved":false,"is_disabled":false,"rental_uris":{"android":"levelo://app?vid=3bcecd58-64c0-4e2d-8d18-75964e1abbf6","ios":"levelo://app?vid=3bcecd58-64c0-4e2d-8d18-75964e1abbf6"},"vehicle_type_id":"4","last_reported":1777528098,"current_range_meters":8000,"station_id":"ce4bhl12rcd13ifvqgf0","pricing_plan_id":"cebpf4jnsgd1na2vs0mg"},{"bike_id":"a7cdfbfa-8b95-4109-9ab4-7eb42d37ca97","system_id":"levelo_inurba_marseille","lat":43.30481,"lon":5.37906,"is_reserved":false,"is_disabled":false,"rental_uris":{"android":"levelo://app?vid=a7cdfbfa-8b95-4109-9ab4-7eb42d37ca97","ios":"levelo://app?vid=a7cdfbfa-8b95-4109-9ab4-7eb42d37ca97"},"vehicle_type_id":"4","last_reported":1777528098,"current_range_meters":8000,"station_id":"ce4bgup2rcd13ifvqcn0","pricing_plan_id":"cebpf4jnsgd1na2vs0mg"},{"bike_id":"fa7e045d-8c9f-4859-94b9-0ac50a9adab0","system_id":"levelo_inurba_marseille","lat":43.3111,"lon":5.37775,"is_reserved":false,"is_disabled":false,"rental_uris":{"android":"levelo://app?vid=fa7e045d-8c9f-4859-94b9-0ac50a9adab0","ios":"levelo://app?vid=fa7e045d-8c9f-4859-94b9-0ac50a9adab0"},"vehicle_type_id":"4","last_reported":1777528098,"current_range_meters":8000,"station_id":"ce4bgt92rcd13ifvqcg0","pricing_plan_id":"cebpf4jnsgd1na2vs0mg"},{"bike_id":"c8948370-8c37-4be4-871c-799685e22b12","system_id":"levelo_inurba_marseille","lat":43.2638,"lon":5.41071,"is_reserved":false,"is_disabled":false,"rental_uris":{"android":"levelo://app?vid=c8948370-8c37-4be4-871c-799685e22b12","ios":"levelo://app?vid=c8948370-8c37-4be4-871c-799685e22b12"},"vehicle_type_id":"4","last_reported":1777528098,"current_range_meters":8000,"station_id":"st_d4e5ca6na9uc73bfl5fg","pricing_plan_id":"cebpf4jnsgd1na2vs0mg"},{"bike_id":"67f14d76-7533-4b57-a379-d5e462e525ab","system_id":"levelo_inurba_marseille","lat":43.24973,"lon":5.40495,"is_reserved":false,"is_disabled":false,"rental_uris":{"android":"levelo://app?vid=67f14d76-7533-4b57-a379-d5e462e525ab","ios":"levelo://app?vid=67f14d76-7533-4b57-a379-d5e462e525ab"},"vehicle_type_id":"4","last_reported":1777528098,"current_range_meters":8400,"station_id":"st_d2ngiaodas8pm72gd1h0","pricing_plan_id":"cebpf4jnsgd1na2vs0mg"},{"bike_id":"3b7270e9-1a3a-442b-a0f4-052f4f8c02c1","system_id":"levelo_inurba_marseille","lat":43.28653,"lon":5.36351,"is_reserved":false,"is_disabled":false,"rental_uris":{"android":"levelo://app?vid=3b7270e9-1a3a-442b-a0f4-052f4f8c02c1","ios":"levelo://app?vid=3b7270e9-1a3a-442b-a0f4-052f4f8c02c1"},"vehicle_type_id":"4","last_reported":1777528098,"current_range_meters":8400,"station_id":"ce4bhah2rcd13ifvqej0","pricing_plan_id":"cebpf4jnsgd1na2vs0mg"},{"bike_id":"c354f800-661c-4bbb-a057-e22f3a81af92","system_id":"levelo_inurba_marseille","lat":43.28071,"lon":5.39657,"is_reserved":false,"is_disabled":false,"rental_uris":{"android":"levelo://app?vid=c354f800-661c-4bbb-a057-e22f3a81af92","ios":"levelo://app?vid=c354f800-661c-4bbb-a057-e22f3a81af92"},"vehicle_type_id":"4","last_reported":1777528098,"current_range_meters":8400,"station_id":"ce4bho12rcd13ifvqh2g","pricing_plan_id":"cebpf4jnsgd1na2vs0mg"},{"bike_id":"9fc4737c-8b91-4f42-a1cd-0b4be87047a5","system_id":"levelo_inurba_marseille","lat":43.33744,"lon":5.37474,"is_reserved":false,"is_disabled":false,"rental_uris":{"android":"levelo://app?vid=9fc4737c-8b91-4f42-a1cd-0b4be87047a5","ios":"levelo://app?vid=9fc4737c-8b91-4f42-a1cd-0b4be87047a5"},"vehicle_type_id":"4","last_reported":1777528098,"current_range_meters":8400,"station_id":"","pricing_plan_id":"cebpf4jnsgd1na2vs0mg"},{"bike_id":"aa1066a2-52ee-4b5e-9ea8-f5bfb38bf0a4","system_id":"levelo_inurba_marseille","lat":43.32348,"lon":5.36741,"is_reserved":false,"is_disabled":false,"rental_uris":{"android":"levelo://app?vid=aa1066a2-52ee-4b5e-9ea8-f5bfb38bf0a4","ios":"levelo://app?vid=aa1066a2-52ee-4b5e-9ea8-f5bfb38bf0a4"},"vehicle_type_id":"4","last_reported":1777528098,"current_range_meters":8400,"station_id":"ce4bhsh2rcd13ifvqi2g","pricing_plan_id":"cebpf4jnsgd1na2vs0mg"},{"bike_id":"9c85ea94-e0db-4d3e-baca-fa152ee440d3","system_id":"levelo_inurba_marseille","lat":43.25562,"lon":5.3825,"is_reserved":false,"is_disabled":false,"rental_uris":{"android":"levelo://app?vid=9c85ea94-e0db-4d3e-baca-fa152ee440d3","ios":"levelo://app?vid=9c85ea94-e0db-4d3e-baca-fa152ee440d3"},"vehicle_type_id":"4","last_reported":1777528098,"current_range_meters":8400,"station_id":"ce4bhih2rcd13ifvqfs0","pricing_plan_id":"cebpf4jnsgd1na2vs0mg"},{"bike_id":"95f47514-1d7f-4013-95fe-a0916f7cc45a","system_id":"levelo_inurba_marseille","lat":43.33548,"lon":5.37474,"is_reserved":false,"is_disabled":false,"rental_uris":{"android":"levelo://app?vid=95f47514-1d7f-4013-95fe-a0916f7cc45a","ios":"levelo://app?vid=95f47514-1d7f-4013-95fe-a0916f7cc45a"},"vehicle_type_id":"4","last_reported":1777528098,"current_range_meters":8400,"station_id":"st_d46tts09ee8s73dlu43g","pricing_plan_id":"cebpf4jnsgd1na2vs0mg"},{"bike_id":"73ddb866-5c7b-49bc-a174-3923f7263bab","system_id":"levelo_inurba_marseille","lat":43.29634,"lon":5.36022,"is_reserved":false,"is_disabled":false,"rental_uris":{"android":"levelo://app?vid=73ddb866-5c7b-49bc-a174-3923f7263bab","ios":"levelo://app?vid=73ddb866-5c7b-49bc-a174-3923f7263bab"},"vehicle_type_id":"4","last_reported":1777528098,"current_range_meters":8400,"station_id":"","pricing_plan_id":"cebpf4jnsgd1na2vs0mg"},{"bike_id":"496d272c-75fc-4f0a-b357-88f9d2ee6a41","system_id":"levelo_inurba_marseille","lat":43.33741,"lon":5.3747,"is_reserved":false,"is_disabled":true,"rental_uris":{"android":"levelo://app?vid=496d272c-75fc-4f0a-b357-88f9d2ee6a41","ios":"levelo://app?vid=496d272c-75fc-4f0a-b357-88f9d2ee6a41"},"vehicle_type_id":"4","last_reported":1777528098,"current_range_meters":8400,"station_id":"","pricing_plan_id":"cebpf4jnsgd1na2vs0mg"},{"bike_id":"5cc847c3-c7ab-4803-a64a-cfb2e18548c3","system_id":"levelo_inurba_marseille","lat":43.29628,"lon":5.37039,"is_reserved":false,"is_disabled":false,"rental_uris":{"android":"levelo://app?vid=5cc847c3-c7ab-4803-a64a-cfb2e18548c3","ios":"levelo://app?vid=5cc847c3-c7ab-4803-a64a-cfb2e18548c3"},"vehicle_type_id":"4","last_reported":1777528098,"current_range_meters":8400,"station_id":"","pricing_plan_id":"cebpf4jnsgd1na2vs0mg"},{"bike_id":"cadcdc4c-2148-4dec-a8c2-bb77e59fbd52","system_id":"levelo_inurba_marseille","lat":43.28106,"lon":5.3786,"is_reserved":false,"is_disabled":false,"rental_uris":{"android":"levelo://app?vid=cadcdc4c-2148-4dec-a8c2-bb77e59fbd52","ios":"levelo://app?vid=cadcdc4c-2148-4dec-a8c2-bb77e59fbd52"},"vehicle_type_id":"4","last_reported":1777528098,"current_range_meters":8400,"station_id":"ce4bha12rcd13ifvqee0","pricing_plan_id":"cebpf4jnsgd1na2vs0mg"},{"bike_id":"10896329-0c2f-431e-80b9-7162366f20a8","system_id":"levelo_inurba_marseille","lat":43.30456,"lon":5.37917,"is_reserved":false,"is_disabled":false,"rental_uris":{"android":"levelo://app?vid=10896329-0c2f-431e-80b9-7162366f20a8","ios":"levelo://app?vid=10896329-0c2f-431e-80b9-7162366f20a8"},"vehicle_type_id":"4","last_reported":1777528098,"current_range_meters":8400,"station_id":"ce4bgup2rcd13ifvqcn0","pricing_plan_id":"cebpf4jnsgd1na2vs0mg"},{"bike_id":"765f90ca-0906-434e-8c87-5bafd4c0122e","system_id":"levelo_inurba_marseille","lat":43.30079,"lon":5.39086,"is_reserved":false,"is_disabled":false,"rental_uris":{"android":"levelo://app?vid=765f90ca-0906-434e-8c87-5bafd4c0122e","ios":"levelo://app?vid=765f90ca-0906-434e-8c87-5bafd4c0122e"},"vehicle_type_id":"4","last_reported":1777528098,"current_range_meters":8400,"station_id":"ce4bh192rcd13ifvqdb0","pricing_plan_id":"cebpf4jnsgd1na2vs0mg"},{"bike_id":"7f9a77c6-d4c3-4558-be05-05cc57911974","system_id":"levelo_inurba_marseille","lat":43.23194,"lon":5.39985,"is_reserved":false,"is_disabled":false,"rental_uris":{"android":"levelo://app?vid=7f9a77c6-d4c3-4558-be05-05cc57911974","ios":"levelo://app?vid=7f9a77c6-d4c3-4558-be05-05cc57911974"},"vehicle_type_id":"4","last_reported":1777528098,"current_range_meters":8400,"station_id":"ce4bhn12rcd13ifvqgqg","pricing_plan_id":"cebpf4jnsgd1na2vs0mg"},{"bike_id":"a2a694ab-bd57-45a8-a651-048e4cefae01","system_id":"levelo_inurba_marseille","lat":43.28704,"lon":5.46678,"is_reserved":false,"is_disabled":false,"rental_uris":{"android":"levelo://app?vid=a2a694ab-bd57-45a8-a651-048e4cefae01","ios":"levelo://app?vid=a2a694ab-bd57-45a8-a651-048e4cefae01"},"vehicle_type_id":"4","last_reported":1777528098,"current_range_meters":8400,"station_id":"st_d6tc3vkotcvc738tfjhg","pricing_plan_id":"cebpf4jnsgd1na2vs0mg"},{"bike_id":"b6b19092-1d16-47fb-b5df-265994d940cc","system_id":"levelo_inurba_marseille","lat":43.29253,"lon":5.40919,"is_reserved":false,"is_disabled":true,"rental_uris":{"android":"levelo://app?vid=b6b19092-1d16-47fb-b5df-265994d940cc","ios":"levelo://app?vid=b6b19092-1d16-47fb-b5df-265994d940cc"},"vehicle_type_id":"4","last_reported":1777528098,"current_range_meters":8400,"station_id":"ce4bh192rcd13ifvqdc0","pricing_plan_id":"cebpf4jnsgd1na2vs0mg"},{"bike_id":"96c1677c-ba34-44c4-b8f0-676f4f85c27f","system_id":"levelo_inurba_marseille","lat":43.29467,"lon":5.38798,"is_reserved":false,"is_disabled":true,"rental_uris":{"android":"levelo://app?vid=96c1677c-ba34-44c4-b8f0-676f4f85c27f","ios":"levelo://app?vid=96c1677c-ba34-44c4-b8f0-676f4f85c27f"},"vehicle_type_id":"4","last_reported":1777528098,"current_range_meters":8400,"station_id":"","pricing_plan_id":"cebpf4jnsgd1na2vs0mg"},{"bike_id":"dc91f8ca-7a0b-4a40-98ab-217d081de2a6","system_id":"levelo_inurba_marseille","lat":43.27206,"lon":5.3918,"is_reserved":false,"is_disabled":false,"rental_uris":{"android":"levelo://app?vid=dc91f8ca-7a0b-4a40-98ab-217d081de2a6","ios":"levelo://app?vid=dc91f8ca-7a0b-4a40-98ab-217d081de2a6"},"vehicle_type_id":"4","last_reported":1777528098,"current_range_meters":8400,"station_id":"ce4bhhp2rcd13ifvqfm0","pricing_plan_id":"cebpf4jnsgd1na2vs0mg"},{"bike_id":"bc804c16-17c2-4902-8c5c-afe58eb0e0c2","system_id":"levelo_inurba_marseille","lat":43.3013,"lon":5.39844,"is_reserved":false,"is_disabled":false,"rental_uris":{"android":"levelo://app?vid=bc804c16-17c2-4902-8c5c-afe58eb0e0c2","ios":"levelo://app?vid=bc804c16-17c2-4902-8c5c-afe58eb0e0c2"},"vehicle_type_id":"4","last_reported":1777528098,"current_range_meters":8400,"station_id":"ce4bh0h2rcd13ifvqd40","pricing_plan_id":"cebpf4jnsgd1na2vs0mg"},{"bike_id":"03c04f60-2059-46c6-a5f2-01ced091b087","system_id":"levelo_inurba_marseille","lat":43.27992,"lon":5.41656,"is_reserved":false,"is_disabled":false,"rental_uris":{"android":"levelo://app?vid=03c04f60-2059-46c6-a5f2-01ced091b087","ios":"levelo://app?vid=03c04f60-2059-46c6-a5f2-01ced091b087"},"vehicle_type_id":"4","last_reported":1777528098,"current_range_meters":8400,"station_id":"ce4bho12rcd13ifvqh1g","pricing_plan_id":"cebpf4jnsgd1na2vs0mg"},{"bike_id":"ebb165fa-43f0-4e48-8bd5-856fd05d7360","system_id":"levelo_inurba_marseille","lat":43.32367,"lon":5.36763,"is_reserved":false,"is_disabled":false,"rental_uris":{"android":"levelo://app?vid=ebb165fa-43f0-4e48-8bd5-856fd05d7360","ios":"levelo://app?vid=ebb165fa-43f0-4e48-8bd5-856fd05d7360"},"vehicle_type_id":"4","last_reported":1777528098,"current_range_meters":8400,"station_id":"ce4bhsh2rcd13ifvqi2g","pricing_plan_id":"cebpf4jnsgd1na2vs0mg"},{"bike_id":"908a149a-34af-40c3-93cd-fb9f74f40f35","system_id":"levelo_inurba_marseille","lat":43.299527,"lon":5.413228,"is_reserved":false,"is_disabled":false,"rental_uris":{"android":"levelo://app?vid=908a149a-34af-40c3-93cd-fb9f74f40f35","ios":"levelo://app?vid=908a149a-34af-40c3-93cd-fb9f74f40f35"},"vehicle_type_id":"4","last_reported":1777528098,"current_range_meters":8400,"station_id":"ce4bhp12rcd13ifvqh9g","pricing_plan_id":"cebpf4jnsgd1na2vs0mg"},{"bike_id":"76b76a5a-e9c0-44f3-94af-8de1a567c89d","system_id":"levelo_inurba_marseille","lat":43.22535,"lon":5.34839,"is_reserved":false,"is_disabled":false,"rental_uris":{"android":"levelo://app?vid=76b76a5a-e9c0-44f3-94af-8de1a567c89d","ios":"levelo://app?vid=76b76a5a-e9c0-44f3-94af-8de1a567c89d"},"vehicle_type_id":"4","last_reported":1777528098,"current_range_meters":8400,"station_id":"st_cvj5dfep6f1abm77gieg","pricing_plan_id":"cebpf4jnsgd1na2vs0mg"},{"bike_id":"d5cda9f5-de5e-48fd-b8fa-56c4fdce3a61","system_id":"levelo_inurba_marseille","lat":43.30459,"lon":5.36486,"is_reserved":false,"is_disabled":false,"rental_uris":{"android":"levelo://app?vid=d5cda9f5-de5e-48fd-b8fa-56c4fdce3a61","ios":"levelo://app?vid=d5cda9f5-de5e-48fd-b8fa-56c4fdce3a61"},"vehicle_type_id":"4","last_reported":1777528098,"current_range_meters":8400,"station_id":"","pricing_plan_id":"cebpf4jnsgd1na2vs0mg"},{"bike_id":"7d58de23-44be-4dd4-a60b-ef501bc2cc74","system_id":"levelo_inurba_marseille","lat":43.29608,"lon":5.37092,"is_reserved":false,"is_disabled":false,"rental_uris":{"android":"levelo://app?vid=7d58de23-44be-4dd4-a60b-ef501bc2cc74","ios":"levelo://app?vid=7d58de23-44be-4dd4-a60b-ef501bc2cc74"},"vehicle_type_id":"4","last_reported":1777528098,"current_range_meters":8800,"station_id":"ce4bgnh2rcd13ifvqc0g","pricing_plan_id":"cebpf4jnsgd1na2vs0mg"},{"bike_id":"29367b16-8f0b-4d37-9fef-19df22f7ec79","system_id":"levelo_inurba_marseille","lat":43.25078,"lon":5.39538,"is_reserved":false,"is_disabled":false,"rental_uris":{"android":"levelo://app?vid=29367b16-8f0b-4d37-9fef-19df22f7ec79","ios":"levelo://app?vid=29367b16-8f0b-4d37-9fef-19df22f7ec79"},"vehicle_type_id":"4","last_reported":1777528098,"current_range_meters":8800,"station_id":"ce4bhm12rcd13ifvqgkg","pricing_plan_id":"cebpf4jnsgd1na2vs0mg"},{"bike_id":"335fc8dc-ad2f-4253-b0e2-b10d3d2d0173","system_id":"levelo_inurba_marseille","lat":43.28478,"lon":5.38529,"is_reserved":false,"is_disabled":true,"rental_uris":{"android":"levelo://app?vid=335fc8dc-ad2f-4253-b0e2-b10d3d2d0173","ios":"levelo://app?vid=335fc8dc-ad2f-4253-b0e2-b10d3d2d0173"},"vehicle_type_id":"4","last_reported":1777528098,"current_range_meters":8800,"station_id":"ce4bh8p2rcd13ifvqeb0","pricing_plan_id":"cebpf4jnsgd1na2vs0mg"},{"bike_id":"3995b84f-572e-40b4-bef0-aa0d3ccae836","system_id":"levelo_inurba_marseille","lat":43.29587,"lon":5.36771,"is_reserved":false,"is_disabled":true,"rental_uris":{"android":"levelo://app?vid=3995b84f-572e-40b4-bef0-aa0d3ccae836","ios":"levelo://app?vid=3995b84f-572e-40b4-bef0-aa0d3ccae836"},"vehicle_type_id":"4","last_reported":1777528098,"current_range_meters":8800,"station_id":"ce4bgph2rcd13ifvqc2g","pricing_plan_id":"cebpf4jnsgd1na2vs0mg"},{"bike_id":"e0854d7e-ea3f-4941-bc23-75af02de5d3c","system_id":"levelo_inurba_marseille","lat":43.2872,"lon":5.37412,"is_reserved":false,"is_disabled":false,"rental_uris":{"android":"levelo://app?vid=e0854d7e-ea3f-4941-bc23-75af02de5d3c","ios":"levelo://app?vid=e0854d7e-ea3f-4941-bc23-75af02de5d3c"},"vehicle_type_id":"4","last_reported":1777528098,"current_range_meters":8800,"station_id":"ce4bh3p2rcd13ifvqdq0","pricing_plan_id":"cebpf4jnsgd1na2vs0mg"},{"bike_id":"b343647a-8af9-49ae-98e6-438f68dffe33","system_id":"levelo_inurba_marseille","lat":43.29216,"lon":5.3604,"is_reserved":false,"is_disabled":true,"rental_uris":{"android":"levelo://app?vid=b343647a-8af9-49ae-98e6-438f68dffe33","ios":"levelo://app?vid=b343647a-8af9-49ae-98e6-438f68dffe33"},"vehicle_type_id":"4","last_reported":1777528098,"current_range_meters":8800,"station_id":"ce4bhbh2rcd13ifvqeqg","pricing_plan_id":"cebpf4jnsgd1na2vs0mg"},{"bike_id":"3a4ab97e-f59c-440e-a1c5-fc235ca93bc2","system_id":"levelo_inurba_marseille","lat":43.24657,"lon":5.38157,"is_reserved":false,"is_disabled":false,"rental_uris":{"android":"levelo://app?vid=3a4ab97e-f59c-440e-a1c5-fc235ca93bc2","ios":"levelo://app?vid=3a4ab97e-f59c-440e-a1c5-fc235ca93bc2"},"vehicle_type_id":"4","last_reported":1777528098,"current_range_meters":8800,"station_id":"ce4bhih2rcd13ifvqfr0","pricing_plan_id":"cebpf4jnsgd1na2vs0mg"},{"bike_id":"275f0e36-65c4-489f-bd62-ec5e03923f09","system_id":"levelo_inurba_marseille","lat":43.22557,"lon":5.41642,"is_reserved":false,"is_disabled":false,"rental_uris":{"android":"levelo://app?vid=275f0e36-65c4-489f-bd62-ec5e03923f09","ios":"levelo://app?vid=275f0e36-65c4-489f-bd62-ec5e03923f09"},"vehicle_type_id":"4","last_reported":1777528098,"current_range_meters":8800,"station_id":"st_d2o4gvlbi1j2169b742g","pricing_plan_id":"cebpf4jnsgd1na2vs0mg"},{"bike_id":"160e418f-f550-431c-8292-fbceee2d8472","system_id":"levelo_inurba_marseille","lat":43.30128,"lon":5.4312,"is_reserved":false,"is_disabled":false,"rental_uris":{"android":"levelo://app?vid=160e418f-f550-431c-8292-fbceee2d8472","ios":"levelo://app?vid=160e418f-f550-431c-8292-fbceee2d8472"},"vehicle_type_id":"4","last_reported":1777528098,"current_range_meters":8800,"station_id":"st_d3js3co5814s73ftftug","pricing_plan_id":"cebpf4jnsgd1na2vs0mg"},{"bike_id":"446b3742-e939-4223-8be3-a8b272e2f840","system_id":"levelo_inurba_marseille","lat":43.31372,"lon":5.3902,"is_reserved":false,"is_disabled":false,"rental_uris":{"android":"levelo://app?vid=446b3742-e939-4223-8be3-a8b272e2f840","ios":"levelo://app?vid=446b3742-e939-4223-8be3-a8b272e2f840"},"vehicle_type_id":"4","last_reported":1777528098,"current_range_meters":8800,"station_id":"","pricing_plan_id":"cebpf4jnsgd1na2vs0mg"},{"bike_id":"bd381285-9688-4b86-bb58-500e4f0f2544","system_id":"levelo_inurba_marseille","lat":43.23306,"lon":5.39963,"is_reserved":false,"is_disabled":false,"rental_uris":{"android":"levelo://app?vid=bd381285-9688-4b86-bb58-500e4f0f2544","ios":"levelo://app?vid=bd381285-9688-4b86-bb58-500e4f0f2544"},"vehicle_type_id":"4","last_reported":1777528098,"current_range_meters":8800,"station_id":"","pricing_plan_id":"cebpf4jnsgd1na2vs0mg"},{"bike_id":"43c6bc05-7383-45f6-857c-a5eecd32c6b9","system_id":"levelo_inurba_marseille","lat":43.2557,"lon":5.38261,"is_reserved":false,"is_disabled":false,"rental_uris":{"android":"levelo://app?vid=43c6bc05-7383-45f6-857c-a5eecd32c6b9","ios":"levelo://app?vid=43c6bc05-7383-45f6-857c-a5eecd32c6b9"},"vehicle_type_id":"4","last_reported":1777528098,"current_range_meters":8800,"station_id":"ce4bhih2rcd13ifvqfs0","pricing_plan_id":"cebpf4jnsgd1na2vs0mg"},{"bike_id":"c66ede1e-4102-4233-9e0f-42d54b6fefb5","system_id":"levelo_inurba_marseille","lat":43.29567,"lon":5.37527,"is_reserved":false,"is_disabled":false,"rental_uris":{"android":"levelo://app?vid=c66ede1e-4102-4233-9e0f-42d54b6fefb5","ios":"levelo://app?vid=c66ede1e-4102-4233-9e0f-42d54b6fefb5"},"vehicle_type_id":"4","last_reported":1777528098,"current_range_meters":8800,"station_id":"ce4bgh92rcd13ifvqb50","pricing_plan_id":"cebpf4jnsgd1na2vs0mg"},{"bike_id":"34c5dd8e-151d-4294-a3d5-12ddf7a5e4c0","system_id":"levelo_inurba_marseille","lat":43.30933,"lon":5.40152,"is_reserved":false,"is_disabled":false,"rental_uris":{"android":"levelo://app?vid=34c5dd8e-151d-4294-a3d5-12ddf7a5e4c0","ios":"levelo://app?vid=34c5dd8e-151d-4294-a3d5-12ddf7a5e4c0"},"vehicle_type_id":"4","last_reported":1777528098,"current_range_meters":8800,"station_id":"ce4bgvp2rcd13ifvqct0","pricing_plan_id":"cebpf4jnsgd1na2vs0mg"},{"bike_id":"bfef80cf-c868-4235-818e-87c802bfd61c","system_id":"levelo_inurba_marseille","lat":43.30865,"lon":5.38156,"is_reserved":false,"is_disabled":false,"rental_uris":{"android":"levelo://app?vid=bfef80cf-c868-4235-818e-87c802bfd61c","ios":"levelo://app?vid=bfef80cf-c868-4235-818e-87c802bfd61c"},"vehicle_type_id":"4","last_reported":1777528098,"current_range_meters":8800,"station_id":"","pricing_plan_id":"cebpf4jnsgd1na2vs0mg"},{"bike_id":"7f01a6f4-e8ac-45fb-9f0a-ab2199c04104","system_id":"levelo_inurba_marseille","lat":43.28858,"lon":5.42529,"is_reserved":false,"is_disabled":false,"rental_uris":{"android":"levelo://app?vid=7f01a6f4-e8ac-45fb-9f0a-ab2199c04104","ios":"levelo://app?vid=7f01a6f4-e8ac-45fb-9f0a-ab2199c04104"},"vehicle_type_id":"4","last_reported":1777528098,"current_range_meters":8800,"station_id":"st_d3b462108ojc7389ooeg","pricing_plan_id":"cebpf4jnsgd1na2vs0mg"},{"bike_id":"2db651d7-7b81-464a-bb48-581bf1e0c30d","system_id":"levelo_inurba_marseille","lat":43.24059,"lon":5.37791,"is_reserved":false,"is_disabled":false,"rental_uris":{"android":"levelo://app?vid=2db651d7-7b81-464a-bb48-581bf1e0c30d","ios":"levelo://app?vid=2db651d7-7b81-464a-bb48-581bf1e0c30d"},"vehicle_type_id":"4","last_reported":1777528098,"current_range_meters":9200,"station_id":"ce4bhnp2rcd13ifvqgvg","pricing_plan_id":"cebpf4jnsgd1na2vs0mg"},{"bike_id":"9e5d0bd9-4bd7-4741-beef-4a391dc553d5","system_id":"levelo_inurba_marseille","lat":43.27178,"lon":5.3916,"is_reserved":false,"is_disabled":false,"rental_uris":{"android":"levelo://app?vid=9e5d0bd9-4bd7-4741-beef-4a391dc553d5","ios":"levelo://app?vid=9e5d0bd9-4bd7-4741-beef-4a391dc553d5"},"vehicle_type_id":"4","last_reported":1777528098,"current_range_meters":9200,"station_id":"ce4bhhp2rcd13ifvqfm0","pricing_plan_id":"cebpf4jnsgd1na2vs0mg"},{"bike_id":"458ae4e3-f6db-4ffc-b5b4-f4bdf3c2f83f","system_id":"levelo_inurba_marseille","lat":43.29865,"lon":5.39757,"is_reserved":false,"is_disabled":false,"rental_uris":{"android":"levelo://app?vid=458ae4e3-f6db-4ffc-b5b4-f4bdf3c2f83f","ios":"levelo://app?vid=458ae4e3-f6db-4ffc-b5b4-f4bdf3c2f83f"},"vehicle_type_id":"4","last_reported":1777528098,"current_range_meters":9200,"station_id":"ce4bh0h2rcd13ifvqd50","pricing_plan_id":"cebpf4jnsgd1na2vs0mg"},{"bike_id":"97c9a33b-79cf-429d-a3f2-acd13460133f","system_id":"levelo_inurba_marseille","lat":43.25501,"lon":5.37677,"is_reserved":false,"is_disabled":false,"rental_uris":{"android":"levelo://app?vid=97c9a33b-79cf-429d-a3f2-acd13460133f","ios":"levelo://app?vid=97c9a33b-79cf-429d-a3f2-acd13460133f"},"vehicle_type_id":"4","last_reported":1777528098,"current_range_meters":9200,"station_id":"ce4bhh12rcd13ifvqff0","pricing_plan_id":"cebpf4jnsgd1na2vs0mg"},{"bike_id":"2b3241ba-bc21-41bc-b5b0-b84c54d9454f","system_id":"levelo_inurba_marseille","lat":43.27834,"lon":5.39203,"is_reserved":false,"is_disabled":false,"rental_uris":{"android":"levelo://app?vid=2b3241ba-bc21-41bc-b5b0-b84c54d9454f","ios":"levelo://app?vid=2b3241ba-bc21-41bc-b5b0-b84c54d9454f"},"vehicle_type_id":"4","last_reported":1777528098,"current_range_meters":9200,"station_id":"ce4bhjp2rcd13ifvqga0","pricing_plan_id":"cebpf4jnsgd1na2vs0mg"},{"bike_id":"65dcd980-6fe9-4c7d-822c-075ad32b715a","system_id":"levelo_inurba_marseille","lat":43.23818,"lon":5.36629,"is_reserved":false,"is_disabled":false,"rental_uris":{"android":"levelo://app?vid=65dcd980-6fe9-4c7d-822c-075ad32b715a","ios":"levelo://app?vid=65dcd980-6fe9-4c7d-822c-075ad32b715a"},"vehicle_type_id":"4","last_reported":1777528098,"current_range_meters":9200,"station_id":"st_d3nk18o9ro0c73en2l3g","pricing_plan_id":"cebpf4jnsgd1na2vs0mg"},{"bike_id":"b2b5924c-ae57-4d04-8872-ff1b2babdda2","system_id":"levelo_inurba_marseille","lat":43.29771,"lon":5.38118,"is_reserved":false,"is_disabled":false,"rental_uris":{"android":"levelo://app?vid=b2b5924c-ae57-4d04-8872-ff1b2babdda2","ios":"levelo://app?vid=b2b5924c-ae57-4d04-8872-ff1b2babdda2"},"vehicle_type_id":"4","last_reported":1777528098,"current_range_meters":9200,"station_id":"ce4bgip2rcd13ifvqbb0","pricing_plan_id":"cebpf4jnsgd1na2vs0mg"},{"bike_id":"ac90523d-7bc5-40c1-98d4-727269a9fc74","system_id":"levelo_inurba_marseille","lat":43.28649,"lon":5.36351,"is_reserved":false,"is_disabled":false,"rental_uris":{"android":"levelo://app?vid=ac90523d-7bc5-40c1-98d4-727269a9fc74","ios":"levelo://app?vid=ac90523d-7bc5-40c1-98d4-727269a9fc74"},"vehicle_type_id":"4","last_reported":1777528098,"current_range_meters":9200,"station_id":"ce4bhah2rcd13ifvqej0","pricing_plan_id":"cebpf4jnsgd1na2vs0mg"},{"bike_id":"5d1e12f6-3836-4314-b589-b140ba9c15df","system_id":"levelo_inurba_marseille","lat":43.30238,"lon":5.40061,"is_reserved":false,"is_disabled":false,"rental_uris":{"android":"levelo://app?vid=5d1e12f6-3836-4314-b589-b140ba9c15df","ios":"levelo://app?vid=5d1e12f6-3836-4314-b589-b140ba9c15df"},"vehicle_type_id":"4","last_reported":1777528098,"current_range_meters":9200,"station_id":"ce4bgvh2rcd13ifvqcs0","pricing_plan_id":"cebpf4jnsgd1na2vs0mg"},{"bike_id":"8ac097e5-ca74-4480-907d-6926048605b1","system_id":"levelo_inurba_marseille","lat":43.2887,"lon":5.42512,"is_reserved":false,"is_disabled":false,"rental_uris":{"android":"levelo://app?vid=8ac097e5-ca74-4480-907d-6926048605b1","ios":"levelo://app?vid=8ac097e5-ca74-4480-907d-6926048605b1"},"vehicle_type_id":"4","last_reported":1777528098,"current_range_meters":9200,"station_id":"st_d3b462108ojc7389ooeg","pricing_plan_id":"cebpf4jnsgd1na2vs0mg"},{"bike_id":"c89c7030-0eda-4709-a59a-43b284f3d901","system_id":"levelo_inurba_marseille","lat":43.2823,"lon":5.36833,"is_reserved":false,"is_disabled":false,"rental_uris":{"android":"levelo://app?vid=c89c7030-0eda-4709-a59a-43b284f3d901","ios":"levelo://app?vid=c89c7030-0eda-4709-a59a-43b284f3d901"},"vehicle_type_id":"4","last_reported":1777528098,"current_range_meters":9200,"station_id":"","pricing_plan_id":"cebpf4jnsgd1na2vs0mg"},{"bike_id":"8a2f15a4-9f62-443c-9889-c7743ced62c8","system_id":"levelo_inurba_marseille","lat":43.29267,"lon":5.40129,"is_reserved":false,"is_disabled":false,"rental_uris":{"android":"levelo://app?vid=8a2f15a4-9f62-443c-9889-c7743ced62c8","ios":"levelo://app?vid=8a2f15a4-9f62-443c-9889-c7743ced62c8"},"vehicle_type_id":"4","last_reported":1777528098,"current_range_meters":9200,"station_id":"ce4bh312rcd13ifvqdk0","pricing_plan_id":"cebpf4jnsgd1na2vs0mg"},{"bike_id":"985fd6fd-d3d0-45c4-8fab-f3afa9c43c1b","system_id":"levelo_inurba_marseille","lat":43.30324,"lon":5.40443,"is_reserved":false,"is_disabled":false,"rental_uris":{"android":"levelo://app?vid=985fd6fd-d3d0-45c4-8fab-f3afa9c43c1b","ios":"levelo://app?vid=985fd6fd-d3d0-45c4-8fab-f3afa9c43c1b"},"vehicle_type_id":"4","last_reported":1777528098,"current_range_meters":9600,"station_id":"ce4bh012rcd13ifvqd10","pricing_plan_id":"cebpf4jnsgd1na2vs0mg"},{"bike_id":"267a7b36-6600-451d-b86b-12ca31d8a7d1","system_id":"levelo_inurba_marseille","lat":43.337444,"lon":5.374475,"is_reserved":false,"is_disabled":false,"rental_uris":{"android":"levelo://app?vid=267a7b36-6600-451d-b86b-12ca31d8a7d1","ios":"levelo://app?vid=267a7b36-6600-451d-b86b-12ca31d8a7d1"},"vehicle_type_id":"4","last_reported":1777528098,"current_range_meters":9600,"station_id":"","pricing_plan_id":"cebpf4jnsgd1na2vs0mg"},{"bike_id":"a5e387fa-49b5-4a17-a925-09d5f690af8f","system_id":"levelo_inurba_marseille","lat":43.32126,"lon":5.36785,"is_reserved":false,"is_disabled":false,"rental_uris":{"android":"levelo://app?vid=a5e387fa-49b5-4a17-a925-09d5f690af8f","ios":"levelo://app?vid=a5e387fa-49b5-4a17-a925-09d5f690af8f"},"vehicle_type_id":"4","last_reported":1777528098,"current_range_meters":9600,"station_id":"ce4bhrh2rcd13ifvqhug","pricing_plan_id":"cebpf4jnsgd1na2vs0mg"},{"bike_id":"0195b3a7-f19f-4649-864a-4c54bdc7ef80","system_id":"levelo_inurba_marseille","lat":43.337444,"lon":5.374475,"is_reserved":false,"is_disabled":false,"rental_uris":{"android":"levelo://app?vid=0195b3a7-f19f-4649-864a-4c54bdc7ef80","ios":"levelo://app?vid=0195b3a7-f19f-4649-864a-4c54bdc7ef80"},"vehicle_type_id":"4","last_reported":1777528098,"current_range_meters":9600,"station_id":"","pricing_plan_id":"cebpf4jnsgd1na2vs0mg"},{"bike_id":"29b655c1-f8a9-4440-b763-1463facd38b4","system_id":"levelo_inurba_marseille","lat":43.30148,"lon":5.3808,"is_reserved":false,"is_disabled":false,"rental_uris":{"android":"levelo://app?vid=29b655c1-f8a9-4440-b763-1463facd38b4","ios":"levelo://app?vid=29b655c1-f8a9-4440-b763-1463facd38b4"},"vehicle_type_id":"4","last_reported":1777528098,"current_range_meters":9600,"station_id":"ce4bgjp2rcd13ifvqbh0","pricing_plan_id":"cebpf4jnsgd1na2vs0mg"},{"bike_id":"46611baa-2233-47d3-a307-4123f065b079","system_id":"levelo_inurba_marseille","lat":43.28476,"lon":5.48395,"is_reserved":false,"is_disabled":false,"rental_uris":{"android":"levelo://app?vid=46611baa-2233-47d3-a307-4123f065b079","ios":"levelo://app?vid=46611baa-2233-47d3-a307-4123f065b079"},"vehicle_type_id":"4","last_reported":1777528098,"current_range_meters":9600,"station_id":"","pricing_plan_id":"cebpf4jnsgd1na2vs0mg"},{"bike_id":"49a2be78-b87d-40fc-8440-f719988ba934","system_id":"levelo_inurba_marseille","lat":43.28718,"lon":5.39998,"is_reserved":false,"is_disabled":false,"rental_uris":{"android":"levelo://app?vid=49a2be78-b87d-40fc-8440-f719988ba934","ios":"levelo://app?vid=49a2be78-b87d-40fc-8440-f719988ba934"},"vehicle_type_id":"4","last_reported":1777528098,"current_range_meters":9600,"station_id":"ce4bho92rcd13ifvqh3g","pricing_plan_id":"cebpf4jnsgd1na2vs0mg"},{"bike_id":"ce62a0fb-f246-459d-9e34-df0f9cf0d460","system_id":"levelo_inurba_marseille","lat":43.30596,"lon":5.3918,"is_reserved":false,"is_disabled":false,"rental_uris":{"android":"levelo://app?vid=ce62a0fb-f246-459d-9e34-df0f9cf0d460","ios":"levelo://app?vid=ce62a0fb-f246-459d-9e34-df0f9cf0d460"},"vehicle_type_id":"4","last_reported":1777528098,"current_range_meters":9600,"station_id":"","pricing_plan_id":"cebpf4jnsgd1na2vs0mg"},{"bike_id":"e018f895-5771-4f44-b64f-db1b733c0c56","system_id":"levelo_inurba_marseille","lat":43.23751,"lon":5.43061,"is_reserved":false,"is_disabled":false,"rental_uris":{"android":"levelo://app?vid=e018f895-5771-4f44-b64f-db1b733c0c56","ios":"levelo://app?vid=e018f895-5771-4f44-b64f-db1b733c0c56"},"vehicle_type_id":"4","last_reported":1777528098,"current_range_meters":9600,"station_id":"","pricing_plan_id":"cebpf4jnsgd1na2vs0mg"},{"bike_id":"d193cfeb-a038-436f-91b9-4221c91e3d89","system_id":"levelo_inurba_marseille","lat":43.27473,"lon":5.41538,"is_reserved":false,"is_disabled":true,"rental_uris":{"android":"levelo://app?vid=d193cfeb-a038-436f-91b9-4221c91e3d89","ios":"levelo://app?vid=d193cfeb-a038-436f-91b9-4221c91e3d89"},"vehicle_type_id":"4","last_reported":1777528098,"current_range_meters":9600,"station_id":"","pricing_plan_id":"cebpf4jnsgd1na2vs0mg"},{"bike_id":"cfbf3059-fd7e-4626-bbb7-f76607be3dd8","system_id":"levelo_inurba_marseille","lat":43.30546,"lon":5.3672,"is_reserved":false,"is_disabled":true,"rental_uris":{"android":"levelo://app?vid=cfbf3059-fd7e-4626-bbb7-f76607be3dd8","ios":"levelo://app?vid=cfbf3059-fd7e-4626-bbb7-f76607be3dd8"},"vehicle_type_id":"4","last_reported":1777528098,"current_range_meters":9600,"station_id":"ce4bgrp2rcd13ifvqc9g","pricing_plan_id":"cebpf4jnsgd1na2vs0mg"},{"bike_id":"dfbabb5f-0831-4fdc-b529-e2f28e6f7a1d","system_id":"levelo_inurba_marseille","lat":43.264917,"lon":5.395415,"is_reserved":false,"is_disabled":false,"rental_uris":{"android":"levelo://app?vid=dfbabb5f-0831-4fdc-b529-e2f28e6f7a1d","ios":"levelo://app?vid=dfbabb5f-0831-4fdc-b529-e2f28e6f7a1d"},"vehicle_type_id":"4","last_reported":1777528098,"current_range_meters":9600,"station_id":"ce4bhi12rcd13ifvqfq0","pricing_plan_id":"cebpf4jnsgd1na2vs0mg"},{"bike_id":"50cc6683-a4a6-490d-87fd-8c2be5eaa529","system_id":"levelo_inurba_marseille","lat":43.2709,"lon":5.42281,"is_reserved":false,"is_disabled":false,"rental_uris":{"android":"levelo://app?vid=50cc6683-a4a6-490d-87fd-8c2be5eaa529","ios":"levelo://app?vid=50cc6683-a4a6-490d-87fd-8c2be5eaa529"},"vehicle_type_id":"4","last_reported":1777528098,"current_range_meters":9600,"station_id":"ce4bhk92rcd13ifvqgb0","pricing_plan_id":"cebpf4jnsgd1na2vs0mg"},{"bike_id":"84b6390f-e94f-467a-9460-d708ac0f9aba","system_id":"levelo_inurba_marseille","lat":43.30654,"lon":5.40081,"is_reserved":false,"is_disabled":false,"rental_uris":{"android":"levelo://app?vid=84b6390f-e94f-467a-9460-d708ac0f9aba","ios":"levelo://app?vid=84b6390f-e94f-467a-9460-d708ac0f9aba"},"vehicle_type_id":"4","last_reported":1777528098,"current_range_meters":9600,"station_id":"ce4bh112rcd13ifvqda0","pricing_plan_id":"cebpf4jnsgd1na2vs0mg"},{"bike_id":"b90c1d01-6a44-4d47-adc9-f51f5ae2109b","system_id":"levelo_inurba_marseille","lat":43.22549,"lon":5.41625,"is_reserved":false,"is_disabled":false,"rental_uris":{"android":"levelo://app?vid=b90c1d01-6a44-4d47-adc9-f51f5ae2109b","ios":"levelo://app?vid=b90c1d01-6a44-4d47-adc9-f51f5ae2109b"},"vehicle_type_id":"4","last_reported":1777528098,"current_range_meters":9600,"station_id":"st_d2o4gvlbi1j2169b742g","pricing_plan_id":"cebpf4jnsgd1na2vs0mg"},{"bike_id":"777b5b2a-7d7d-4308-8581-4b69e8a2d556","system_id":"levelo_inurba_marseille","lat":43.32357,"lon":5.36745,"is_reserved":false,"is_disabled":false,"rental_uris":{"android":"levelo://app?vid=777b5b2a-7d7d-4308-8581-4b69e8a2d556","ios":"levelo://app?vid=777b5b2a-7d7d-4308-8581-4b69e8a2d556"},"vehicle_type_id":"4","last_reported":1777528098,"current_range_meters":10000,"station_id":"ce4bhsh2rcd13ifvqi2g","pricing_plan_id":"cebpf4jnsgd1na2vs0mg"},{"bike_id":"3ae19c8d-7993-4bce-8a56-bc8493cb10a6","system_id":"levelo_inurba_marseille","lat":43.22572,"lon":5.41632,"is_reserved":false,"is_disabled":false,"rental_uris":{"android":"levelo://app?vid=3ae19c8d-7993-4bce-8a56-bc8493cb10a6","ios":"levelo://app?vid=3ae19c8d-7993-4bce-8a56-bc8493cb10a6"},"vehicle_type_id":"4","last_reported":1777528098,"current_range_meters":10000,"station_id":"st_d2o4gvlbi1j2169b742g","pricing_plan_id":"cebpf4jnsgd1na2vs0mg"},{"bike_id":"d241d553-19ca-4f32-b75c-2772d3d1d639","system_id":"levelo_inurba_marseille","lat":43.28713,"lon":5.37398,"is_reserved":false,"is_disabled":false,"rental_uris":{"android":"levelo://app?vid=d241d553-19ca-4f32-b75c-2772d3d1d639","ios":"levelo://app?vid=d241d553-19ca-4f32-b75c-2772d3d1d639"},"vehicle_type_id":"4","last_reported":1777528098,"current_range_meters":10000,"station_id":"ce4bh3p2rcd13ifvqdq0","pricing_plan_id":"cebpf4jnsgd1na2vs0mg"},{"bike_id":"3b54a88c-686f-4806-9a90-c4f15e316b84","system_id":"levelo_inurba_marseille","lat":43.28002,"lon":5.40004,"is_reserved":false,"is_disabled":false,"rental_uris":{"android":"levelo://app?vid=3b54a88c-686f-4806-9a90-c4f15e316b84","ios":"levelo://app?vid=3b54a88c-686f-4806-9a90-c4f15e316b84"},"vehicle_type_id":"4","last_reported":1777528098,"current_range_meters":10000,"station_id":"ce4bho92rcd13ifvqh4g","pricing_plan_id":"cebpf4jnsgd1na2vs0mg"},