{"last_updated":1691683716,"ttl":30,"version":"2.2","data":{"bikes":[{"bike_id":"901cf419-b48c-49c5-8259-92a7d6857c7d","system_id":"levelo_inurba_marseille","lat":43.31107,"lon":5.36774,"is_reserved":false,"is_disabled":false,"rental_uris":{"android":"levelo://app?vid=901cf419-b48c-49c5-8259-92a7d6857c7d","ios":"levelo://app?vid=901cf419-b48c-49c5-8259-92a7d6857c7d"},"vehicle_type_id":"4","last_reported":1691683716,"current_range_meters":0,"station_id":"","pricing_plan_id":"free"},{"bike_id":"18c5cb90-661d-4017-a08c-1fda9e1dd655","system_id":"levelo_inurba_marseille","lat":43.305714,"lon":5.365633,"is_reserved":false,"is_disabled":false,"rental_uris":{"android":"levelo://app?vid=18c5cb90-661d-4017-a08c-1fda9e1dd655","ios":"levelo://app?vid=18c5cb90-661d-4017-a08c-1fda9e1dd655"},"vehicle_type_id":"4","last_reported":1691683716,"current_range_meters":28400,"station_id":"ce4bgs12rcd13ifvqcag","pricing_plan_id":"free"},{"bike_id":"3b68a0dc-f696-4ce6-a40c-6960a9bc4533","system_id":"levelo_inurba_marseille","lat":43.30533,"lon":5.36541,"is_reserved":false,"is_disabled":false,"rental_uris":{"android":"levelo://app?vid=3b68a0dc-f696-4ce6-a40c-6960a9bc4533","ios":"levelo://app?vid=3b68a0dc-f696-4ce6-a40c-6960a9bc4533"},"vehicle_type_id":"4","last_reported":1691683716,"current_range_meters":30800,"station_id":"ce4bgs12rcd13ifvqcag","pricing_plan_id":"free"},{"bike_id":"b8984bd3-802d-4f50-8420-ffaf70571fe7","system_id":"levelo_inurba_marseille","lat":43.305989,"lon":5.37225,"is_reserved":false,"is_disabled":false,"rental_uris":{"android":"levelo://app?vid=b8984bd3-802d-4f50-8420-ffaf70571fe7","ios":"levelo://app?vid=b8984bd3-802d-4f50-8420-ffaf70571fe7"},"vehicle_type_id":"4","last_reported":1691683716,"current_range_meters":10800,"station_id":"ce4bgqh2rcd13ifvqc4g","pricing_plan_id":"free"},{"bike_id":"8942a053-737f-45fc-b4e3-49892194c0eb","system_id":"levelo_inurba_marseille","lat":43.305989,"lon":5.37225,"is_reserved":false,"is_disabled":false,"rental_uris":{"android":"levelo://app?vid=8942a053-737f-45fc-b4e3-49892194c0eb","ios":"levelo://app?vid=8942a053-737f-45fc-b4e3-49892194c0eb"},"vehicle_type_id":"4","last_reported":1691683716,"current_range_meters":10800,"station_id":"ce4bgqh2rcd13ifvqc4g","pricing_plan_id":"free"},{"bike_id":"d7423357-6827-4fbf-9d71-c010382c54fa","system_id":"levelo_inurba_marseille","lat":43.305989,"lon":5.37225,"is_reserved":false,"is_disabled":false,"rental_uris":{"android":"levelo://app?vid=d7423357-6827-4fbf-9d71-c010382c54fa","ios":"levelo://app?vid=d7423357-6827-4fbf-9d71-c010382c54fa"},"vehicle_type_id":"4","last_reported":1691683716,"current_range_meters":31200,"station_id":"ce4bgqh2rcd13ifvqc4g","pricing_plan_id":"free"},{"bike_id":"0ea3a3f3-f2be-4a96-a039-c37886b76c48","system_id":"levelo_inurba_marseille","lat":43.305989,"lon":5.37225,"is_reserved":false,"is_disabled":false,"rental_uris":{"android":"levelo://app?vid=0ea3a3f3-f2be-4a96-a039-c37886b76c48","ios":"levelo://app?vid=0ea3a3f3-f2be-4a96-a039-c37886b76c48"},"vehicle_type_id":"4","last_reported":1691683716,"current_range_meters":30400,"station_id":"ce4bgqh2rcd13ifvqc4g","pricing_plan_id":"free"},{"bike_id":"e033f8f4-d4f1-4b9e-8052-8c83edaebdb5","system_id":"levelo_inurba_marseille","lat":43.30603,"lon":5.37224,"is_reserved":false,"is_disabled":false,"rental_uris":{"android":"levelo://app?vid=e033f8f4-d4f1-4b9e-8052-8c83edaebdb5","ios":"levelo://app?vid=e033f8f4-d4f1-4b9e-8052-8c83edaebdb5"},"vehicle_type_id":"4","last_reported":1691683716,"current_range_meters":17600,"station_id":"ce4bgqh2rcd13ifvqc4g","pricing_plan_id":"free"},{"bike_id":"2977b657-b51d-4492-ba39-1329b29e1c2f","system_id":"levelo_inurba_marseille","lat":43.305989,"lon":5.37225,"is_reserved":false,"is_disabled":false,"rental_uris":{"android":"levelo://app?vid=2977b657-b51d-4492-ba39-1329b29e1c2f","ios":"levelo://app?vid=2977b657-b51d-4492-ba39-1329b29e1c2f"},"vehicle_type_id":"4","last_reported":1691683716,"current_range_meters":23600,"station_id":"ce4bgqh2rcd13ifvqc4g","pricing_plan_id":"free"},{"bike_id":"1db0013e-b9ed-4957-a6bf-782f8194bb66","system_id":"levelo_inurba_marseille","lat":43.305989,"lon":5.37225,"is_reserved":false,"is_disabled":false,"rental_uris":{"android":"levelo://app?vid=1db0013e-b9ed-4957-a6bf-782f8194bb66","ios":"levelo://app?vid=1db0013e-b9ed-4957-a6bf-782f8194bb66"},"vehicle_type_id":"4","last_reported":1691683716,"current_range_meters":30800,"station_id":"ce4bgqh2rcd13ifvqc4g","pricing_plan_id":"free"},{"bike_id":"76a122d5-4df6-423c-a20e-74c359e07ca2","system_id":"levelo_inurba_marseille","lat":43.305989,"lon":5.37225,"is_reserved":false,"is_disabled":false,"rental_uris":{"android":"levelo://app?vid=76a122d5-4df6-423c-a20e-74c359e07ca2","ios":"levelo://app?vid=76a122d5-4df6-423c-a20e-74c359e07ca2"},"vehicle_type_id":"4","last_reported":1691683716,"current_range_meters":31600,"station_id":"ce4bgqh2rcd13ifvqc4g","pricing_plan_id":"free"},{"bike_id":"fdd0b5db-3a3f-449f-8056-1fce945f6c65","system_id":"levelo_inurba_marseille","lat":43.305989,"lon":5.37225,"is_reserved":false,"is_disabled":false,"rental_uris":{"android":"levelo://app?vid=fdd0b5db-3a3f-449f-8056-1fce945f6c65","ios":"levelo://app?vid=fdd0b5db-3a3f-449f-8056-1fce945f6c65"},"vehicle_type_id":"4","last_reported":1691683716,"current_range_meters":21200,"station_id":"ce4bgqh2rcd13ifvqc4g","pricing_plan_id":"free"},{"bike_id":"cdc72d84-1c42-47d4-bbd9-7aa05e320c89","system_id":"levelo_inurba_marseille","lat":43.305989,"lon":5.37225,"is_reserved":false,"is_disabled":false,"rental_uris":{"android":"levelo://app?vid=cdc72d84-1c42-47d4-bbd9-7aa05e320c89","ios":"levelo://app?vid=cdc72d84-1c42-47d4-bbd9-7aa05e320c89"},"vehicle_type_id":"4","last_reported":1691683716,"current_range_meters":17200,"station_id":"ce4bgqh2rcd13ifvqc4g","pricing_plan_id":"free"},{"bike_id":"32ed8b02-658b-4179-9003-2daa7d88f6f2","system_id":"levelo_inurba_marseille","lat":43.305989,"lon":5.37225,"is_reserved":false,"is_disabled":false,"rental_uris":{"android":"levelo://app?vid=32ed8b02-658b-4179-9003-2daa7d88f6f2","ios":"levelo://app?vid=32ed8b02-658b-4179-9003-2daa7d88f6f2"},"vehicle_type_id":"4","last_reported":1691683716,"current_range_meters":20000,"station_id":"ce4bgqh2rcd13ifvqc4g","pricing_plan_id":"free"},{"bike_id":"039df412-55bf-4581-8daf-a750c0c2674e","system_id":"levelo_inurba_marseille","lat":43.31117,"lon":5.37784,"is_reserved":false,"is_disabled":false,"rental_uris":{"android":"levelo://app?vid=039df412-55bf-4581-8daf-a750c0c2674e","ios":"levelo://app?vid=039df412-55bf-4581-8daf-a750c0c2674e"},"vehicle_type_id":"4","last_reported":1691683716,"current_range_meters":20000,"station_id":"ce4bgt92rcd13ifvqcg0","pricing_plan_id":"free"},{"bike_id":"9da06976-d3b7-45e8-ad5c-66a1608bec46","system_id":"levelo_inurba_marseille","lat":43.307945,"lon":5.376487,"is_reserved":false,"is_disabled":false,"rental_uris":{"android":"levelo://app?vid=9da06976-d3b7-45e8-ad5c-66a1608bec46","ios":"levelo://app?vid=9da06976-d3b7-45e8-ad5c-66a1608bec46"},"vehicle_type_id":"4","last_reported":1691683716,"current_range_meters":31200,"station_id":"ce4bgv92rcd13ifvqcq0","pricing_plan_id":"free"},{"bike_id":"af992e24-bf39-448f-bae0-545690a452ec","system_id":"levelo_inurba_marseille","lat":43.315289,"lon":5.380349,"is_reserved":false,"is_disabled":false,"rental_uris":{"android":"levelo://app?vid=af992e24-bf39-448f-bae0-545690a452ec","ios":"levelo://app?vid=af992e24-bf39-448f-bae0-545690a452ec"},"vehicle_type_id":"4","last_reported":1691683716,"current_range_meters":23600,"station_id":"ce4bhsp2rcd13ifvqi50","pricing_plan_id":"free"},{"bike_id":"100c46ee-8951-4fcc-922f-9c62e6de8588","system_id":"levelo_inurba_marseille","lat":43.30838,"lon":5.38175,"is_reserved":false,"is_disabled":false,"rental_uris":{"android":"levelo://app?vid=100c46ee-8951-4fcc-922f-9c62e6de8588","ios":"levelo://app?vid=100c46ee-8951-4fcc-922f-9c62e6de8588"},"vehicle_type_id":"4","last_reported":1691683716,"current_range_meters":18400,"station_id":"","pricing_plan_id":"free"},{"bike_id":"ac7de726-f9ac-4374-96bb-a57347ba8f41","system_id":"levelo_inurba_marseille","lat":43.30465,"lon":5.37899,"is_reserved":false,"is_disabled":false,"rental_uris":{"android":"levelo://app?vid=ac7de726-f9ac-4374-96bb-a57347ba8f41","ios":"levelo://app?vid=ac7de726-f9ac-4374-96bb-a57347ba8f41"},"vehicle_type_id":"4","last_reported":1691683716,"current_range_meters":30800,"station_id":"ce4bgup2rcd13ifvqcn0","pricing_plan_id":"free"},{"bike_id":"21c464a4-06f0-4521-8162-c0172e1b0073","system_id":"levelo_inurba_marseille","lat":43.302784,"lon":5.377158,"is_reserved":false,"is_disabled":false,"rental_uris":{"android":"levelo://app?vid=21c464a4-06f0-4521-8162-c0172e1b0073","ios":"levelo://app?vid=21c464a4-06f0-4521-8162-c0172e1b0073"},"vehicle_type_id":"4","last_reported":1691683716,"current_range_meters":20800,"station_id":"ce4bguh2rcd13ifvqcj0","pricing_plan_id":"free"},{"bike_id":"064a5de2-77d7-4319-b90e-24a4ef5f79eb","system_id":"levelo_inurba_marseille","lat":43.299361,"lon":5.365566,"is_reserved":false,"is_disabled":false,"rental_uris":{"android":"levelo://app?vid=064a5de2-77d7-4319-b90e-24a4ef5f79eb","ios":"levelo://app?vid=064a5de2-77d7-4319-b90e-24a4ef5f79eb"},"vehicle_type_id":"4","last_reported":1691683716,"current_range_meters":28800,"station_id":"","pricing_plan_id":"free"},{"bike_id":"5b179584-c2c2-4e5e-8daa-024a993fdda4","system_id":"levelo_inurba_marseille","lat":43.299745,"lon":5.371758,"is_reserved":false,"is_disabled":false,"rental_uris":{"android":"levelo://app?vid=5b179584-c2c2-4e5e-8daa-024a993fdda4","ios":"levelo://app?vid=5b179584-c2c2-4e5e-8daa-024a993fdda4"},"vehicle_type_id":"4","last_reported":1691683716,"current_range_meters":18800,"station_id":"","pricing_plan_id":"free"},{"bike_id":"b8c9a25e-2f7c-4c9a-95aa-bf9336c12443","system_id":"levelo_inurba_marseille","lat":43.29858,"lon":5.36285,"is_reserved":false,"is_disabled":false,"rental_uris":{"android":"levelo://app?vid=b8c9a25e-2f7c-4c9a-95aa-bf9336c12443","ios":"levelo://app?vid=b8c9a25e-2f7c-4c9a-95aa-bf9336c12443"},"vehicle_type_id":"4","last_reported":1691683716,"current_range_meters":31200,"station_id":"ce4bgpp2rcd13ifvqc3g","pricing_plan_id":"free"},{"bike_id":"bbe29552-eda3-4abe-aa86-3f5468f4ea08","system_id":"levelo_inurba_marseille","lat":43.29851,"lon":5.36287,"is_reserved":false,"is_disabled":false,"rental_uris":{"android":"levelo://app?vid=bbe29552-eda3-4abe-aa86-3f5468f4ea08","ios":"levelo://app?vid=bbe29552-eda3-4abe-aa86-3f5468f4ea08"},"vehicle_type_id":"4","last_reported":1691683716,"current_range_meters":24000,"station_id":"ce4bgpp2rcd13ifvqc3g","pricing_plan_id":"free"},{"bike_id":"b69ccbe3-966a-4e79-88ce-d00e02ad589e","system_id":"levelo_inurba_marseille","lat":43.2985,"lon":5.36285,"is_reserved":false,"is_disabled":false,"rental_uris":{"android":"levelo://app?vid=b69ccbe3-966a-4e79-88ce-d00e02ad589e","ios":"levelo://app?vid=b69ccbe3-966a-4e79-88ce-d00e02ad589e"},"vehicle_type_id":"4","last_reported":1691683716,"current_range_meters":24800,"station_id":"ce4bgpp2rcd13ifvqc3g","pricing_plan_id":"free"},{"bike_id":"4e67c5dd-3651-473a-83e5-27bd5a642ba6","system_id":"levelo_inurba_marseille","lat":43.298433,"lon":5.362774,"is_reserved":false,"is_disabled":false,"rental_uris":{"android":"levelo://app?vid=4e67c5dd-3651-473a-83e5-27bd5a642ba6","ios":"levelo://app?vid=4e67c5dd-3651-473a-83e5-27bd5a642ba6"},"vehicle_type_id":"4","last_reported":1691683716,"current_range_meters":26400,"station_id":"ce4bgpp2rcd13ifvqc3g","pricing_plan_id":"free"},{"bike_id":"30537d43-af02-4a10-b928-7b9b8cf633d2","system_id":"levelo_inurba_marseille","lat":43.305387,"lon":5.384253,"is_reserved":false,"is_disabled":false,"rental_uris":{"android":"levelo://app?vid=30537d43-af02-4a10-b928-7b9b8cf633d2","ios":"levelo://app?vid=30537d43-af02-4a10-b928-7b9b8cf633d2"},"vehicle_type_id":"4","last_reported":1691683716,"current_range_meters":15600,"station_id":"ce4bgg92rcd13ifvqb30","pricing_plan_id":"free"},{"bike_id":"8a414574-559f-4523-9c09-9e007a0153a7","system_id":"levelo_inurba_marseille","lat":43.305364,"lon":5.384119,"is_reserved":false,"is_disabled":false,"rental_uris":{"android":"levelo://app?vid=8a414574-559f-4523-9c09-9e007a0153a7","ios":"levelo://app?vid=8a414574-559f-4523-9c09-9e007a0153a7"},"vehicle_type_id":"4","last_reported":1691683716,"current_range_meters":24800,"station_id":"ce4bgg92rcd13ifvqb30","pricing_plan_id":"free"},{"bike_id":"7bb36c48-d44e-410a-b2cb-b2ad89353fe4","system_id":"levelo_inurba_marseille","lat":43.298433,"lon":5.362774,"is_reserved":false,"is_disabled":false,"rental_uris":{"android":"levelo://app?vid=7bb36c48-d44e-410a-b2cb-b2ad89353fe4","ios":"levelo://app?vid=7bb36c48-d44e-410a-b2cb-b2ad89353fe4"},"vehicle_type_id":"4","last_reported":1691683716,"current_range_meters":31200,"station_id":"ce4bgpp2rcd13ifvqc3g","pricing_plan_id":"free"},{"bike_id":"7b847215-29fb-4fe4-86ae-5ae74269ee3f","system_id":"levelo_inurba_marseille","lat":43.298433,"lon":5.362774,"is_reserved":false,"is_disabled":false,"rental_uris":{"android":"levelo://app?vid=7b847215-29fb-4fe4-86ae-5ae74269ee3f","ios":"levelo://app?vid=7b847215-29fb-4fe4-86ae-5ae74269ee3f"},"vehicle_type_id":"4","last_reported":1691683716,"current_range_meters":31600,"station_id":"ce4bgpp2rcd13ifvqc3g","pricing_plan_id":"free"},{"bike_id":"205d5a26-76bb-42b5-b461-7ad8696b0b2c","system_id":"levelo_inurba_marseille","lat":43.298433,"lon":5.362774,"is_reserved":false,"is_disabled":false,"rental_uris":{"android":"levelo://app?vid=205d5a26-76bb-42b5-b461-7ad8696b0b2c","ios":"levelo://app?vid=205d5a26-76bb-42b5-b461-7ad8696b0b2c"},"vehicle_type_id":"4","last_reported":1691683716,"current_range_meters":31200,"station_id":"ce4bgpp2rcd13ifvqc3g","pricing_plan_id":"free"},{"bike_id":"a6544a09-2973-44f0-b656-75d2b5feda65","system_id":"levelo_inurba_marseille","lat":43.299243,"lon":5.37481,"is_reserved":false,"is_disabled":false,"rental_uris":{"android":"levelo://app?vid=a6544a09-2973-44f0-b656-75d2b5feda65","ios":"levelo://app?vid=a6544a09-2973-44f0-b656-75d2b5feda65"},"vehicle_type_id":"4","last_reported":1691683716,"current_range_meters":21600,"station_id":"ce4bgjh2rcd13ifvqbg0","pricing_plan_id":"free"},{"bike_id":"fc0100e7-14d1-44e5-83bd-10e287e5b2b7","system_id":"levelo_inurba_marseille","lat":43.298433,"lon":5.362774,"is_reserved":false,"is_disabled":false,"rental_uris":{"android":"levelo://app?vid=fc0100e7-14d1-44e5-83bd-10e287e5b2b7","ios":"levelo://app?vid=fc0100e7-14d1-44e5-83bd-10e287e5b2b7"},"vehicle_type_id":"4","last_reported":1691683716,"current_range_meters":31600,"station_id":"ce4bgpp2rcd13ifvqc3g","pricing_plan_id":"free"},{"bike_id":"b34bfb7f-5709-4cce-ad65-a16e91ee48f5","system_id":"levelo_inurba_marseille","lat":43.29839,"lon":5.36257,"is_reserved":false,"is_disabled":false,"rental_uris":{"android":"levelo://app?vid=b34bfb7f-5709-4cce-ad65-a16e91ee48f5","ios":"levelo://app?vid=b34bfb7f-5709-4cce-ad65-a16e91ee48f5"},"vehicle_type_id":"4","last_reported":1691683716,"current_range_meters":10800,"station_id":"ce4bgpp2rcd13ifvqc3g","pricing_plan_id":"free"},{"bike_id":"8666ec56-06a8-477e-9b94-98035404545e","system_id":"levelo_inurba_marseille","lat":43.32637,"lon":5.37544,"is_reserved":false,"is_disabled":false,"rental_uris":{"android":"levelo://app?vid=8666ec56-06a8-477e-9b94-98035404545e","ios":"levelo://app?vid=8666ec56-06a8-477e-9b94-98035404545e"},"vehicle_type_id":"4","last_reported":1691683716,"current_range_meters":12800,"station_id":"","pricing_plan_id":"free"},{"bike_id":"3a574de3-b31f-4b53-9fcf-1545808be757","system_id":"levelo_inurba_marseille","lat":43.32286,"lon":5.38265,"is_reserved":false,"is_disabled":false,"rental_uris":{"android":"levelo://app?vid=3a574de3-b31f-4b53-9fcf-1545808be757","ios":"levelo://app?vid=3a574de3-b31f-4b53-9fcf-1545808be757"},"vehicle_type_id":"4","last_reported":1691683716,"current_range_meters":21600,"station_id":"ce4bhr12rcd13ifvqhqg","pricing_plan_id":"free"},{"bike_id":"c966d00d-f08a-432f-ad19-9bfa00dfa0fe","system_id":"levelo_inurba_marseille","lat":43.322872,"lon":5.382756,"is_reserved":false,"is_disabled":false,"rental_uris":{"android":"levelo://app?vid=c966d00d-f08a-432f-ad19-9bfa00dfa0fe","ios":"levelo://app?vid=c966d00d-f08a-432f-ad19-9bfa00dfa0fe"},"vehicle_type_id":"4","last_reported":1691683716,"current_range_meters":10400,"station_id":"ce4bhr12rcd13ifvqhqg","pricing_plan_id":"free"},{"bike_id":"4656a0a2-1ed7-49a9-99e1-00b2f7e77116","system_id":"levelo_inurba_marseille","lat":43.328371,"lon":5.366909,"is_reserved":false,"is_disabled":false,"rental_uris":{"android":"levelo://app?vid=4656a0a2-1ed7-49a9-99e1-00b2f7e77116","ios":"levelo://app?vid=4656a0a2-1ed7-49a9-99e1-00b2f7e77116"},"vehicle_type_id":"4","last_reported":1691683716,"current_range_meters":24400,"station_id":"ce4bhs92rcd13ifvqi0g","pricing_plan_id":"free"},{"bike_id":"5d76a089-57a6-41c3-9736-662fd5348cfc","system_id":"levelo_inurba_marseille","lat":43.32829,"lon":5.36673,"is_reserved":false,"is_disabled":false,"rental_uris":{"android":"levelo://app?vid=5d76a089-57a6-41c3-9736-662fd5348cfc","ios":"levelo://app?vid=5d76a089-57a6-41c3-9736-662fd5348cfc"},"vehicle_type_id":"4","last_reported":1691683716,"current_range_meters":26000,"station_id":"ce4bhs92rcd13ifvqi0g","pricing_plan_id":"free"},{"bike_id":"6e2049d4-c28c-4978-a454-4edbdc0f7037","system_id":"levelo_inurba_marseille","lat":43.3283,"lon":5.3668,"is_reserved":false,"is_disabled":false,"rental_uris":{"android":"levelo://app?vid=6e2049d4-c28c-4978-a454-4edbdc0f7037","ios":"levelo://app?vid=6e2049d4-c28c-4978-a454-4edbdc0f7037"},"vehicle_type_id":"4","last_reported":1691683716,"current_range_meters":4000,"station_id":"ce4bhs92rcd13ifvqi0g","pricing_plan_id":"free"},{"bike_id":"8ce81456-09b5-4da0-802b-88be49dcac1d","system_id":"levelo_inurba_marseille","lat":43.32832,"lon":5.36685,"is_reserved":false,"is_disabled":false,"rental_uris":{"android":"levelo://app?vid=8ce81456-09b5-4da0-802b-88be49dcac1d","ios":"levelo://app?vid=8ce81456-09b5-4da0-802b-88be49dcac1d"},"vehicle_type_id":"4","last_reported":1691683716,"current_range_meters":28000,"station_id":"ce4bhs92rcd13ifvqi0g","pricing_plan_id":"free"},{"bike_id":"a112a680-d3e0-411d-8250-15bff243835d","system_id":"levelo_inurba_marseille","lat":43.32833,"lon":5.36679,"is_reserved":false,"is_disabled":false,"rental_uris":{"android":"levelo://app?vid=a112a680-d3e0-411d-8250-15bff243835d","ios":"levelo://app?vid=a112a680-d3e0-411d-8250-15bff243835d"},"vehicle_type_id":"4","last_reported":1691683716,"current_range_meters":31200,"station_id":"ce4bhs92rcd13ifvqi0g","pricing_plan_id":"free"},{"bike_id":"44cbca90-a0c9-4533-9e94-08e0b85b5e18","system_id":"levelo_inurba_marseille","lat":43.32834,"lon":5.3668,"is_reserved":false,"is_disabled":false,"rental_uris":{"android":"levelo://app?vid=44cbca90-a0c9-4533-9e94-08e0b85b5e18","ios":"levelo://app?vid=44cbca90-a0c9-4533-9e94-08e0b85b5e18"},"vehicle_type_id":"4","last_reported":1691683716,"current_range_meters":17600,"station_id":"ce4bhs92rcd13ifvqi0g","pricing_plan_id":"free"},{"bike_id":"cf43544e-989a-4d21-9699-931a6368cb00","system_id":"levelo_inurba_marseille","lat":43.32835,"lon":5.36682,"is_reserved":false,"is_disabled":false,"rental_uris":{"android":"levelo://app?vid=cf43544e-989a-4d21-9699-931a6368cb00","ios":"levelo://app?vid=cf43544e-989a-4d21-9699-931a6368cb00"},"vehicle_type_id":"4","last_reported":1691683716,"current_range_meters":31200,"station_id":"ce4bhs92rcd13ifvqi0g","pricing_plan_id":"free"},{"bike_id":"dd789220-e7b5-42c1-b9dc-dc4243148021","system_id":"levelo_inurba_marseille","lat":43.297163,"lon":5.365866,"is_reserved":false,"is_disabled":false,"rental_uris":{"android":"levelo://app?vid=dd789220-e7b5-42c1-b9dc-dc4243148021","ios":"levelo://app?vid=dd789220-e7b5-42c1-b9dc-dc4243148021"},"vehicle_type_id":"4","last_reported":1691683716,"current_range_meters":31200,"station_id":"ce4bgn12rcd13ifvqbt0","pricing_plan_id":"free"},{"bike_id":"77ac92cf-63a1-4207-878b-2f7290fc6407","system_id":"levelo_inurba_marseille","lat":43.297163,"lon":5.365866,"is_reserved":false,"is_disabled":false,"rental_uris":{"android":"levelo://app?vid=77ac92cf-63a1-4207-878b-2f7290fc6407","ios":"levelo://app?vid=77ac92cf-63a1-4207-878b-2f7290fc6407"},"vehicle_type_id":"4","last_reported":1691683716,"current_range_meters":4000,"station_id":"ce4bgn12rcd13ifvqbt0","pricing_plan_id":"free"},{"bike_id":"79c574da-ed33-45e3-95d9-1e81546c3eb6","system_id":"levelo_inurba_marseille","lat":43.29573,"lon":5.367355,"is_reserved":false,"is_disabled":false,"rental_uris":{"android":"levelo://app?vid=79c574da-ed33-45e3-95d9-1e81546c3eb6","ios":"levelo://app?vid=79c574da-ed33-45e3-95d9-1e81546c3eb6"},"vehicle_type_id":"4","last_reported":1691683716,"current_range_meters":4000,"station_id":"ce4bgph2rcd13ifvqc2g","pricing_plan_id":"free"},{"bike_id":"31dfc1b4-ad35-4944-b4f4-16a3b263e14f","system_id":"levelo_inurba_marseille","lat":43.309589,"lon":5.390258,"is_reserved":false,"is_disabled":false,"rental_uris":{"android":"levelo://app?vid=31dfc1b4-ad35-4944-b4f4-16a3b263e14f","ios":"levelo://app?vid=31dfc1b4-ad35-4944-b4f4-16a3b263e14f"},"vehicle_type_id":"4","last_reported":1691683716,"current_range_meters":12800,"station_id":"ce4bgup2rcd13ifvqco0","pricing_plan_id":"free"},{"bike_id":"9e288399-e594-4c1b-827a-c224681650a9","system_id":"levelo_inurba_marseille","lat":43.317557,"lon":5.390173,"is_reserved":false,"is_disabled":false,"rental_uris":{"android":"levelo://app?vid=9e288399-e594-4c1b-827a-c224681650a9","ios":"levelo://app?vid=9e288399-e594-4c1b-827a-c224681650a9"},"vehicle_type_id":"4","last_reported":1691683716,"current_range_meters":30000,"station_id":"ce4bhqp2rcd13ifvqhng","pricing_plan_id":"free"},{"bike_id":"a4df99ce-0488-49dd-a888-94686f562e88","system_id":"levelo_inurba_marseille","lat":43.295748,"lon":5.37522,"is_reserved":false,"is_disabled":false,"rental_uris":{"android":"levelo://app?vid=a4df99ce-0488-49dd-a888-94686f562e88","ios":"levelo://app?vid=a4df99ce-0488-49dd-a888-94686f562e88"},"vehicle_type_id":"4","last_reported":1691683716,"current_range_meters":28000,"station_id":"ce4bgh92rcd13ifvqb50","pricing_plan_id":"free"},{"bike_id":"eebd6e4c-0a0d-4f0d-85ce-b5722f7e8d4a","system_id":"levelo_inurba_marseille","lat":43.296277,"lon":5.377108,"is_reserved":false,"is_disabled":false,"rental_uris":{"android":"levelo://app?vid=eebd6e4c-0a0d-4f0d-85ce-b5722f7e8d4a","ios":"levelo://app?vid=eebd6e4c-0a0d-4f0d-85ce-b5722f7e8d4a"},"vehicle_type_id":"4","last_reported":1691683716,"current_range_meters":24800,"station_id":"ce4bgi92rcd13ifvqb90","pricing_plan_id":"free"},{"bike_id":"31df8722-ca4f-46e7-b8da-b65650749ed8","system_id":"levelo_inurba_marseille","lat":43.299717,"lon":5.384845,"is_reserved":false,"is_disabled":false,"rental_uris":{"android":"levelo://app?vid=31df8722-ca4f-46e7-b8da-b65650749ed8","ios":"levelo://app?vid=31df8722-ca4f-46e7-b8da-b65650749ed8"},"vehicle_type_id":"4","last_reported":1691683716,"current_range_meters":6800,"station_id":"ce4bgj92rcd13ifvqbd0","pricing_plan_id":"free"},{"bike_id":"3260eb8c-5bd0-494d-a0c6-ff57e8df0da4","system_id":"levelo_inurba_marseille","lat":43.299717,"lon":5.384845,"is_reserved":false,"is_disabled":false,"rental_uris":{"android":"levelo://app?vid=3260eb8c-5bd0-494d-a0c6-ff57e8df0da4","ios":"levelo://app?vid=3260eb8c-5bd0-494d-a0c6-ff57e8df0da4"},"vehicle_type_id":"4","last_reported":1691683716,"current_range_meters":30000,"station_id":"ce4bgj92rcd13ifvqbd0","pricing_plan_id":"free"},{"bike_id":"51af65c0-eb64-40d5-af2a-1804a21ab835","system_id":"levelo_inurba_marseille","lat":43.32377,"lon":5.38878,"is_reserved":false,"is_disabled":false,"rental_uris":{"android":"levelo://app?vid=51af65c0-eb64-40d5-af2a-1804a21ab835","ios":"levelo://app?vid=51af65c0-eb64-40d5-af2a-1804a21ab835"},"vehicle_type_id":"4","last_reported":1691683716,"current_range_meters":9600,"station_id":"ce4bhqp2rcd13ifvqhog","pricing_plan_id":"free"},{"bike_id":"84949d2b-ae5d-4590-ad0c-f6730611f764","system_id":"levelo_inurba_marseille","lat":43.29602,"lon":5.381084,"is_reserved":false,"is_disabled":false,"rental_uris":{"android":"levelo://app?vid=84949d2b-ae5d-4590-ad0c-f6730611f764","ios":"levelo://app?vid=84949d2b-ae5d-4590-ad0c-f6730611f764"},"vehicle_type_id":"4","last_reported":1691683716,"current_range_meters":12800,"station_id":"ce4bgl12rcd13ifvqbo0","pricing_plan_id":"free"},{"bike_id":"dbe406a0-e31d-4174-932b-0d8d584d17c2","system_id":"levelo_inurba_marseille","lat":43.292749,"lon":5.368402,"is_reserved":false,"is_disabled":false,"rental_uris":{"android":"levelo://app?vid=dbe406a0-e31d-4174-932b-0d8d584d17c2","ios":"levelo://app?vid=dbe406a0-e31d-4174-932b-0d8d584d17c2"},"vehicle_type_id":"4","last_reported":1691683716,"current_range_meters":31200,"station_id":"ce4bhbp2rcd13ifvqesg","pricing_plan_id":"free"},{"bike_id":"e0c20b3c-a460-4134-a4a8-6d1f78409c74","system_id":"levelo_inurba_marseille","lat":43.293748,"lon":5.378364,"is_reserved":false,"is_disabled":false,"rental_uris":{"android":"levelo://app?vid=e0c20b3c-a460-4134-a4a8-6d1f78409c74","ios":"levelo://app?vid=e0c20b3c-a460-4134-a4a8-6d1f78409c74"},"vehicle_type_id":"4","last_reported":1691683716,"current_range_meters":25200,"station_id":"","pricing_plan_id":"free"},{"bike_id":"50c7c1ec-ea99-4125-b233-a1869f9dbab6","system_id":"levelo_inurba_marseille","lat":43.292311,"lon":5.360731,"is_reserved":false,"is_disabled":false,"rental_uris":{"android":"levelo://app?vid=50c7c1ec-ea99-4125-b233-a1869f9dbab6","ios":"levelo://app?vid=50c7c1ec-ea99-4125-b233-a1869f9dbab6"},"vehicle_type_id":"4","last_reported":1691683716,"current_range_meters":25200,"station_id":"ce4bhbh2rcd13ifvqeqg","pricing_plan_id":"free"},{"bike_id":"20425528-25d2-4ab0-8aab-9cf44ded3ca4","system_id":"levelo_inurba_marseille","lat":43.292311,"lon":5.360731,"is_reserved":false,"is_disabled":false,"rental_uris":{"android":"levelo://app?vid=20425528-25d2-4ab0-8aab-9cf44ded3ca4","ios":"levelo://app?vid=20425528-25d2-4ab0-8aab-9cf44ded3ca4"},"vehicle_type_id":"4","last_reported":1691683716,"current_range_meters":26000,"station_id":"ce4bhbh2rcd13ifvqeqg","pricing_plan_id":"free"},{"bike_id":"ab04e30b-1fce-4afe-a7c5-253799a54aa5","system_id":"levelo_inurba_marseille","lat":43.292311,"lon":5.360731,"is_reserved":false,"is_disabled":false,"rental_uris":{"android":"levelo://app?vid=ab04e30b-1fce-4afe-a7c5-253799a54aa5","ios":"levelo://app?vid=ab04e30b-1fce-4afe-a7c5-253799a54aa5"},"vehicle_type_id":"4","last_reported":1691683716,"current_range_meters":10800,"station_id":"ce4bhbh2rcd13ifvqeqg","pricing_plan_id":"free"},{"bike_id":"4f6854d9-1f8c-471a-94fc-5c26cbc1ef50","system_id":"levelo_inurba_marseille","lat":43.292311,"lon":5.360731,"is_reserved":false,"is_disabled":false,"rental_uris":{"android":"levelo://app?vid=4f6854d9-1f8c-471a-94fc-5c26cbc1ef50","ios":"levelo://app?vid=4f6854d9-1f8c-471a-94fc-5c26cbc1ef50"},"vehicle_type_id":"4","last_reported":1691683716,"current_range_meters":5200,"station_id":"ce4bhbh2rcd13ifvqeqg","pricing_plan_id":"free"},{"bike_id":"ae7b23a4-e20b-4b0c-96f0-b3330b38736b","system_id":"levelo_inurba_marseille","lat":43.29218,"lon":5.36058,"is_reserved":false,"is_disabled":false,"rental_uris":{"android":"levelo://app?vid=ae7b23a4-e20b-4b0c-96f0-b3330b38736b","ios":"levelo://app?vid=ae7b23a4-e20b-4b0c-96f0-b3330b38736b"},"vehicle_type_id":"4","last_reported":1691683716,"current_range_meters":24000,"station_id":"ce4bhbh2rcd13ifvqeqg","pricing_plan_id":"free"},{"bike_id":"96bff795-aa59-460f-b93c-0beb41cbd735","system_id":"levelo_inurba_marseille","lat":43.29211,"lon":5.36063,"is_reserved":false,"is_disabled":false,"rental_uris":{"android":"levelo://app?vid=96bff795-aa59-460f-b93c-0beb41cbd735","ios":"levelo://app?vid=96bff795-aa59-460f-b93c-0beb41cbd735"},"vehicle_type_id":"4","last_reported":1691683716,"current_range_meters":31200,"station_id":"ce4bhbh2rcd13ifvqeqg","pricing_plan_id":"free"},{"bike_id":"4adf4b6f-8a64-418e-9b0d-4f40ae422fe2","system_id":"levelo_inurba_marseille","lat":43.291675,"lon":5.371583,"is_reserved":false,"is_disabled":false,"rental_uris":{"android":"levelo://app?vid=4adf4b6f-8a64-418e-9b0d-4f40ae422fe2","ios":"levelo://app?vid=4adf4b6f-8a64-418e-9b0d-4f40ae422fe2"},"vehicle_type_id":"4","last_reported":1691683716,"current_range_meters":21600,"station_id":"ce4bha92rcd13ifvqeh0","pricing_plan_id":"free"},{"bike_id":"9a56becb-603c-4681-a1ff-5b73d070cf9e","system_id":"levelo_inurba_marseille","lat":43.298764,"lon":5.388973,"is_reserved":false,"is_disabled":false,"rental_uris":{"android":"levelo://app?vid=9a56becb-603c-4681-a1ff-5b73d070cf9e","ios":"levelo://app?vid=9a56becb-603c-4681-a1ff-5b73d070cf9e"},"vehicle_type_id":"4","last_reported":1691683716,"current_range_meters":8000,"station_id":"ce4bh392rcd13ifvqdl0","pricing_plan_id":"free"},{"bike_id":"91b5d5ed-5a23-4b65-a4d0-0023c03ef171","system_id":"levelo_inurba_marseille","lat":43.29209,"lon":5.35929,"is_reserved":false,"is_disabled":false,"rental_uris":{"android":"levelo://app?vid=91b5d5ed-5a23-4b65-a4d0-0023c03ef171","ios":"levelo://app?vid=91b5d5ed-5a23-4b65-a4d0-0023c03ef171"},"vehicle_type_id":"4","last_reported":1691683716,"current_range_meters":6000,"station_id":"","pricing_plan_id":"free"},{"bike_id":"65b8a6cb-8767-475c-b418-1c50cf319fd5","system_id":"levelo_inurba_marseille","lat":43.30887,"lon":5.39627,"is_reserved":false,"is_disabled":false,"rental_uris":{"android":"levelo://app?vid=65b8a6cb-8767-475c-b418-1c50cf319fd5","ios":"levelo://app?vid=65b8a6cb-8767-475c-b418-1c50cf319fd5"},"vehicle_type_id":"4","last_reported":1691683716,"current_range_meters":5200,"station_id":"ce4bh012rcd13ifvqcv0","pricing_plan_id":"free"},{"bike_id":"8eb5e7d9-3e60-4689-8895-40a99d3d48b5","system_id":"levelo_inurba_marseille","lat":43.3133,"lon":5.39688,"is_reserved":false,"is_disabled":false,"rental_uris":{"android":"levelo://app?vid=8eb5e7d9-3e60-4689-8895-40a99d3d48b5","ios":"levelo://app?vid=8eb5e7d9-3e60-4689-8895-40a99d3d48b5"},"vehicle_type_id":"4","last_reported":1691683716,"current_range_meters":12400,"station_id":"ce4bgvp2rcd13ifvqcu0","pricing_plan_id":"free"},{"bike_id":"5dcb5e3e-d45a-4bd1-84f5-8183bd975951","system_id":"levelo_inurba_marseille","lat":43.31327,"lon":5.39691,"is_reserved":false,"is_disabled":false,"rental_uris":{"android":"levelo://app?vid=5dcb5e3e-d45a-4bd1-84f5-8183bd975951","ios":"levelo://app?vid=5dcb5e3e-d45a-4bd1-84f5-8183bd975951"},"vehicle_type_id":"4","last_reported":1691683716,"current_range_meters":16800,"station_id":"ce4bgvp2rcd13ifvqcu0","pricing_plan_id":"free"},{"bike_id":"2c6ed814-58b6-42bb-8894-c9ecc2cac299","system_id":"levelo_inurba_marseille","lat":43.309038,"lon":5.396546,"is_reserved":false,"is_disabled":false,"rental_uris":{"android":"levelo://app?vid=2c6ed814-58b6-42bb-8894-c9ecc2cac299","ios":"levelo://app?vid=2c6ed814-58b6-42bb-8894-c9ecc2cac299"},"vehicle_type_id":"4","last_reported":1691683716,"current_range_meters":10800,"station_id":"ce4bh012rcd13ifvqcv0","pricing_plan_id":"free"},{"bike_id":"c6962f4b-fb6a-47d4-aab1-06f208c8b950","system_id":"levelo_inurba_marseille","lat":43.313487,"lon":5.397092,"is_reserved":false,"is_disabled":false,"rental_uris":{"android":"levelo://app?vid=c6962f4b-fb6a-47d4-aab1-06f208c8b950","ios":"levelo://app?vid=c6962f4b-fb6a-47d4-aab1-06f208c8b950"},"vehicle_type_id":"4","last_reported":1691683716,"current_range_meters":14000,"station_id":"ce4bgvp2rcd13ifvqcu0","pricing_plan_id":"free"},{"bike_id":"fa4a564b-073a-4b1c-9615-319a841053a8","system_id":"levelo_inurba_marseille","lat":43.29529,"lon":5.385581,"is_reserved":false,"is_disabled":false,"rental_uris":{"android":"levelo://app?vid=fa4a564b-073a-4b1c-9615-319a841053a8","ios":"levelo://app?vid=fa4a564b-073a-4b1c-9615-319a841053a8"},"vehicle_type_id":"4","last_reported":1691683716,"current_range_meters":10800,"station_id":"ce4bgih2rcd13ifvqba0","pricing_plan_id":"free"},{"bike_id":"b67a9978-ebfa-44a6-b476-e20d679f4c30","system_id":"levelo_inurba_marseille","lat":43.284534,"lon":5.358662,"is_reserved":false,"is_disabled":false,"rental_uris":{"android":"levelo://app?vid=b67a9978-ebfa-44a6-b476-e20d679f4c30","ios":"levelo://app?vid=b67a9978-ebfa-44a6-b476-e20d679f4c30"},"vehicle_type_id":"4","last_reported":1691683716,"current_range_meters":20000,"station_id":"ce4bhah2rcd13ifvqei0","pricing_plan_id":"free"},{"bike_id":"624b5cc9-ab5c-41d7-ba1b-aee6ac9b2b6b","system_id":"levelo_inurba_marseille","lat":43.290624,"lon":5.359245,"is_reserved":false,"is_disabled":false,"rental_uris":{"android":"levelo://app?vid=624b5cc9-ab5c-41d7-ba1b-aee6ac9b2b6b","ios":"levelo://app?vid=624b5cc9-ab5c-41d7-ba1b-aee6ac9b2b6b"},"vehicle_type_id":"4","last_reported":1691683716,"current_range_meters":9600,"station_id":"ce4bha92rcd13ifvqeg0","pricing_plan_id":"free"},{"bike_id":"8e5b27d6-f8b2-48f6-8bc4-aa3674679012","system_id":"levelo_inurba_marseille","lat":43.290631,"lon":5.359244,"is_reserved":false,"is_disabled":false,"rental_uris":{"android":"levelo://app?vid=8e5b27d6-f8b2-48f6-8bc4-aa3674679012","ios":"levelo://app?vid=8e5b27d6-f8b2-48f6-8bc4-aa3674679012"},"vehicle_type_id":"4","last_reported":1691683716,"current_range_meters":21200,"station_id":"ce4bha92rcd13ifvqeg0","pricing_plan_id":"free"},{"bike_id":"311c541a-c551-4541-9b5e-26010dcea443","system_id":"levelo_inurba_marseille","lat":43.294153,"lon":5.386305,"is_reserved":false,"is_disabled":false,"rental_uris":{"android":"levelo://app?vid=311c541a-c551-4541-9b5e-26010dcea443","ios":"levelo://app?vid=311c541a-c551-4541-9b5e-26010dcea443"},"vehicle_type_id":"4","last_reported":1691683716,"current_range_meters":0,"station_id":"ce4bh2h2rcd13ifvqdh0","pricing_plan_id":"free"},{"bike_id":"6c046a00-4d7b-44ef-903d-a0a07435bbb1","system_id":"levelo_inurba_marseille","lat":43.28941,"lon":5.36636,"is_reserved":false,"is_disabled":false,"rental_uris":{"android":"levelo://app?vid=6c046a00-4d7b-44ef-903d-a0a07435bbb1","ios":"levelo://app?vid=6c046a00-4d7b-44ef-903d-a0a07435bbb1"},"vehicle_type_id":"4","last_reported":1691683716,"current_range_meters":7600,"station_id":"","pricing_plan_id":"free"},{"bike_id":"ba6f8a51-b10b-41db-995f-d49fcacacce5","system_id":"levelo_inurba_marseille","lat":43.289184,"lon":5.366408,"is_reserved":false,"is_disabled":false,"rental_uris":{"android":"levelo://app?vid=ba6f8a51-b10b-41db-995f-d49fcacacce5","ios":"levelo://app?vid=ba6f8a51-b10b-41db-995f-d49fcacacce5"},"vehicle_type_id":"4","last_reported":1691683716,"current_range_meters":20400,"station_id":"ce4bhap2rcd13ifvqek0","pricing_plan_id":"free"},{"bike_id":"0b4f9564-f9f7-4727-99e5-faec45161c81","system_id":"levelo_inurba_marseille","lat":43.289468,"lon":5.363719,"is_reserved":false,"is_disabled":false,"rental_uris":{"android":"levelo://app?vid=0b4f9564-f9f7-4727-99e5-faec45161c81","ios":"levelo://app?vid=0b4f9564-f9f7-4727-99e5-faec45161c81"},"vehicle_type_id":"4","last_reported":1691683716,"current_range_meters":5200,"station_id":"ce4bhc92rcd13ifvqetg","pricing_plan_id":"free"},{"bike_id":"facce445-d206-486b-86fc-56d5f401a0a1","system_id":"levelo_inurba_marseille","lat":43.29041,"lon":5.399634,"is_reserved":false,"is_disabled":false,"rental_uris":{"android":"levelo://app?vid=facce445-d206-486b-86fc-56d5f401a0a1","ios":"levelo://app?vid=facce445-d206-486b-86fc-56d5f401a0a1"},"vehicle_type_id":"4","last_reported":1691683716,"current_range_meters":6400,"station_id":"ce4bh392rcd13ifvqdm0","pricing_plan_id":"free"},{"bike_id":"350e124f-9ae0-43e1-9caa-a83af74adc33","system_id":"levelo_inurba_marseille","lat":43.330357,"lon":5.38912,"is_reserved":false,"is_disabled":false,"rental_uris":{"android":"levelo://app?vid=350e124f-9ae0-43e1-9caa-a83af74adc33","ios":"levelo://app?vid=350e124f-9ae0-43e1-9caa-a83af74adc33"},"vehicle_type_id":"4","last_reported":1691683716,"current_range_meters":20800,"station_id":"","pricing_plan_id":"free"},{"bike_id":"1c79b98b-e834-4ec1-8c0a-11564463e8c3","system_id":"levelo_inurba_marseille","lat":43.3304,"lon":5.38916,"is_reserved":false,"is_disabled":false,"rental_uris":{"android":"levelo://app?vid=1c79b98b-e834-4ec1-8c0a-11564463e8c3","ios":"levelo://app?vid=1c79b98b-e834-4ec1-8c0a-11564463e8c3"},"vehicle_type_id":"4","last_reported":1691683716,"current_range_meters":30400,"station_id":"ce4bhr92rcd13ifvqhrg","pricing_plan_id":"free"},{"bike_id":"0fee5965-6fa3-41ed-94fd-e212550bf080","system_id":"levelo_inurba_marseille","lat":43.330442,"lon":5.389148,"is_reserved":false,"is_disabled":false,"rental_uris":{"android":"levelo://app?vid=0fee5965-6fa3-41ed-94fd-e212550bf080","ios":"levelo://app?vid=0fee5965-6fa3-41ed-94fd-e212550bf080"},"vehicle_type_id":"4","last_reported":1691683716,"current_range_meters":19200,"station_id":"ce4bhr92rcd13ifvqhrg","pricing_plan_id":"free"},{"bike_id":"e1ba2342-5cd1-4783-b75c-011209b60996","system_id":"levelo_inurba_marseille","lat":43.330442,"lon":5.389148,"is_reserved":false,"is_disabled":false,"rental_uris":{"android":"levelo://app?vid=e1ba2342-5cd1-4783-b75c-011209b60996","ios":"levelo://app?vid=e1ba2342-5cd1-4783-b75c-011209b60996"},"vehicle_type_id":"4","last_reported":1691683716,"current_range_meters":22800,"station_id":"ce4bhr92rcd13ifvqhrg","pricing_plan_id":"free"},{"bike_id":"e0f39d5b-dec2-49c2-824a-3cbc07a0375c","system_id":"levelo_inurba_marseille","lat":43.290104,"lon":5.356111,"is_reserved":false,"is_disabled":false,"rental_uris":{"android":"levelo://app?vid=e0f39d5b-dec2-49c2-824a-3cbc07a0375c","ios":"levelo://app?vid=e0f39d5b-dec2-49c2-824a-3cbc07a0375c"},"vehicle_type_id":"4","last_reported":1691683716,"current_range_meters":14400,"station_id":"ce4bhb92rcd13ifvqen0","pricing_plan_id":"free"},{"bike_id":"39ccd20a-0730-444b-b849-dc641a920bea","system_id":"levelo_inurba_marseille","lat":43.33045,"lon":5.38915,"is_reserved":false,"is_disabled":false,"rental_uris":{"android":"levelo://app?vid=39ccd20a-0730-444b-b849-dc641a920bea","ios":"levelo://app?vid=39ccd20a-0730-444b-b849-dc641a920bea"},"vehicle_type_id":"4","last_reported":1691683716,"current_range_meters":24800,"station_id":"ce4bhr92rcd13ifvqhrg","pricing_plan_id":"free"},{"bike_id":"1f8bbf70-40cd-4aae-bd00-f18723e64493","system_id":"levelo_inurba_marseille","lat":43.29005,"lon":5.35617,"is_reserved":false,"is_disabled":false,"rental_uris":{"android":"levelo://app?vid=1f8bbf70-40cd-4aae-bd00-f18723e64493","ios":"levelo://app?vid=1f8bbf70-40cd-4aae-bd00-f18723e64493"},"vehicle_type_id":"4","last_reported":1691683716,"current_range_meters":14000,"station_id":"ce4bhb92rcd13ifvqen0","pricing_plan_id":"free"},{"bike_id":"821e1ee8-8a40-4114-acad-735354dcfe6f","system_id":"levelo_inurba_marseille","lat":43.29006,"lon":5.35612,"is_reserved":false,"is_disabled":false,"rental_uris":{"android":"levelo://app?vid=821e1ee8-8a40-4114-acad-735354dcfe6f","ios":"levelo://app?vid=821e1ee8-8a40-4114-acad-735354dcfe6f"},"vehicle_type_id":"4","last_reported":1691683716,"current_range_meters":6800,"station_id":"","pricing_plan_id":"free"},{"bike_id":"7b78d55e-e99c-4fa7-968a-c672d6912f00","system_id":"levelo_inurba_marseille","lat":43.290104,"lon":5.356111,"is_reserved":false,"is_disabled":false,"rental_uris":{"android":"levelo://app?vid=7b78d55e-e99c-4fa7-968a-c672d6912f00","ios":"levelo://app?vid=7b78d55e-e99c-4fa7-968a-c672d6912f00"},"vehicle_type_id":"4","last_reported":1691683716,"current_range_meters":31200,"station_id":"ce4bhb92rcd13ifvqen0","pricing_plan_id":"free"},{"bike_id":"d92191b5-3897-428d-989c-4b986c7a7e64","system_id":"levelo_inurba_marseille","lat":43.29002,"lon":5.35611,"is_reserved":false,"is_disabled":false,"rental_uris":{"android":"levelo://app?vid=d92191b5-3897-428d-989c-4b986c7a7e64","ios":"levelo://app?vid=d92191b5-3897-428d-989c-4b986c7a7e64"},"vehicle_type_id":"4","last_reported":1691683716,"current_range_meters":27600,"station_id":"ce4bhb92rcd13ifvqen0","pricing_plan_id":"free"},{"bike_id":"d243594e-2991-4e47-955e-5ea6e3aeb3f2","system_id":"levelo_inurba_marseille","lat":43.290995,"lon":5.381361,"is_reserved":false,"is_disabled":false,"rental_uris":{"android":"levelo://app?vid=d243594e-2991-4e47-955e-5ea6e3aeb3f2","ios":"levelo://app?vid=d243594e-2991-4e47-955e-5ea6e3aeb3f2"},"vehicle_type_id":"4","last_reported":1691683716,"current_range_meters":400,"station_id":"ce4bh512rcd13ifvqe2g","pricing_plan_id":"free"},{"bike_id":"6b8fb226-2513-4f6c-91b8-538f86e6dc5f","system_id":"levelo_inurba_marseille","lat":43.2979,"lon":5.39337,"is_reserved":false,"is_disabled":false,"rental_uris":{"android":"levelo://app?vid=6b8fb226-2513-4f6c-91b8-538f86e6dc5f","ios":"levelo://app?vid=6b8fb226-2513-4f6c-91b8-538f86e6dc5f"},"vehicle_type_id":"4","last_reported":1691683716,"current_range_meters":5200,"station_id":"chh1huq6cuj3fo74tm60","pricing_plan_id":"free"},{"bike_id":"76164436-f136-4fb6-bf97-9d57eeb49bc8","system_id":"levelo_inurba_marseille","lat":43.29027,"lon":5.3813,"is_reserved":false,"is_disabled":false,"rental_uris":{"android":"levelo://app?vid=76164436-f136-4fb6-bf97-9d57eeb49bc8","ios":"levelo://app?vid=76164436-f136-4fb6-bf97-9d57eeb49bc8"},"vehicle_type_id":"4","last_reported":1691683716,"current_range_meters":4800,"station_id":"ce4bh4p2rcd13ifvqe1g","pricing_plan_id":"free"},{"bike_id":"e79486c0-f75b-4e8d-b1ca-58bdc7d22364","system_id":"levelo_inurba_marseille","lat":43.29026,"lon":5.3813,"is_reserved":false,"is_disabled":false,"rental_uris":{"android":"levelo://app?vid=e79486c0-f75b-4e8d-b1ca-58bdc7d22364","ios":"levelo://app?vid=e79486c0-f75b-4e8d-b1ca-58bdc7d22364"},"vehicle_type_id":"4","last_reported":1691683716,"current_range_meters":2400,"station_id":"ce4bh4p2rcd13ifvqe1g","pricing_plan_id":"free"},{"bike_id":"c0e93ba4-4e33-47d0-a9aa-7c5e237a9734","system_id":"levelo_inurba_marseille","lat":43.29018,"lon":5.38133,"is_reserved":false,"is_disabled":false,"rental_uris":{"android":"levelo://app?vid=c0e93ba4-4e33-47d0-a9aa-7c5e237a9734","ios":"levelo://app?vid=c0e93ba4-4e33-47d0-a9aa-7c5e237a9734"},"vehicle_type_id":"4","last_reported":1691683716,"current_range_meters":5200,"station_id":"ce4bh4p2rcd13ifvqe1g","pricing_plan_id":"free"},{"bike_id":"ed49606e-78c8-47f0-963a-10c40cf1c774","system_id":"levelo_inurba_marseille","lat":43.309371,"lon":5.401449,"is_reserved":false,"is_disabled":false,"rental_uris":{"android":"levelo://app?vid=ed49606e-78c8-47f0-963a-10c40cf1c774","ios":"levelo://app?vid=ed49606e-78c8-47f0-963a-10c40cf1c774"},"vehicle_type_id":"4","last_reported":1691683716,"current_range_meters":0,"station_id":"ce4bgvp2rcd13ifvqct0","pricing_plan_id":"free"},{"bike_id":"94bcd71b-942e-48ed-b8b3-f337cdb50842","system_id":"levelo_inurba_marseille","lat":43.33745,"lon":5.37462,"is_reserved":false,"is_disabled":false,"rental_uris":{"android":"levelo://app?vid=94bcd71b-942e-48ed-b8b3-f337cdb50842","ios":"levelo://app?vid=94bcd71b-942e-48ed-b8b3-f337cdb50842"},"vehicle_type_id":"4","last_reported":1691683716,"current_range_meters":24800,"station_id":"","pricing_plan_id":"free"},{"bike_id":"de5bbb78-03db-4bf6-8387-6fefebbdfd89","system_id":"levelo_inurba_marseille","lat":43.309371,"lon":5.401449,"is_reserved":false,"is_disabled":false,"rental_uris":{"android":"levelo://app?vid=de5bbb78-03db-4bf6-8387-6fefebbdfd89","ios":"levelo://app?vid=de5bbb78-03db-4bf6-8387-6fefebbdfd89"},"vehicle_type_id":"4","last_reported":1691683716,"current_range_meters":0,"station_id":"ce4bgvp2rcd13ifvqct0","pricing_plan_id":"free"},{"bike_id":"55c0f65a-0f66-484d-9df9-5434dd0ca22f","system_id":"levelo_inurba_marseille","lat":43.33747,"lon":5.37462,"is_reserved":false,"is_disabled":false,"rental_uris":{"android":"levelo://app?vid=55c0f65a-0f66-484d-9df9-5434dd0ca22f","ios":"levelo://app?vid=55c0f65a-0f66-484d-9df9-5434dd0ca22f"},"vehicle_type_id":"4","last_reported":1691683716,"current_range_meters":22800,"station_id":"","pricing_plan_id":"free"},{"bike_id":"587f2a5e-97aa-4562-ad3a-7a9ad8b5b318","system_id":"levelo_inurba_marseille","lat":43.33755,"lon":5.37463,"is_reserved":false,"is_disabled":false,"rental_uris":{"android":"levelo://app?vid=587f2a5e-97aa-4562-ad3a-7a9ad8b5b318","ios":"levelo://app?vid=587f2a5e-97aa-4562-ad3a-7a9ad8b5b318"},"vehicle_type_id":"4","last_reported":1691683716,"current_range_meters":25600,"station_id":"","pricing_plan_id":"free"},{"bike_id":"b169d980-8509-4d54-adaf-e43d4a6778d7","system_id":"levelo_inurba_marseille","lat":43.30642,"lon":5.401031,"is_reserved":false,"is_disabled":false,"rental_uris":{"android":"levelo://app?vid=b169d980-8509-4d54-adaf-e43d4a6778d7","ios":"levelo://app?vid=b169d980-8509-4d54-adaf-e43d4a6778d7"},"vehicle_type_id":"4","last_reported":1691683716,"current_range_meters":28400,"station_id":"ce4bh112rcd13ifvqda0","pricing_plan_id":"free"},{"bike_id":"4a1ea500-62e8-49ad-86bb-046f12396101","system_id":"levelo_inurba_marseille","lat":43.298681,"lon":5.397225,"is_reserved":false,"is_disabled":false,"rental_uris":{"android":"levelo://app?vid=4a1ea500-62e8-49ad-86bb-046f12396101","ios":"levelo://app?vid=4a1ea500-62e8-49ad-86bb-046f12396101"},"vehicle_type_id":"4","last_reported":1691683716,"current_range_meters":29200,"station_id":"ce4bh0h2rcd13ifvqd50","pricing_plan_id":"free"},{"bike_id":"915f802e-f31b-4c71-8de0-2a5fc39e5970","system_id":"levelo_inurba_marseille","lat":43.32994,"lon":5.39403,"is_reserved":false,"is_disabled":false,"rental_uris":{"android":"levelo://app?vid=915f802e-f31b-4c71-8de0-2a5fc39e5970","ios":"levelo://app?vid=915f802e-f31b-4c71-8de0-2a5fc39e5970"},"vehicle_type_id":"4","last_reported":1691683716,"current_range_meters":10400,"station_id":"","pricing_plan_id":"free"},{"bike_id":"75199276-b705-4ad7-b6a9-49aeaa84628a","system_id":"levelo_inurba_marseille","lat":43.286591,"lon":5.363346,"is_reserved":false,"is_disabled":false,"rental_uris":{"android":"levelo://app?vid=75199276-b705-4ad7-b6a9-49aeaa84628a","ios":"levelo://app?vid=75199276-b705-4ad7-b6a9-49aeaa84628a"},"vehicle_type_id":"4","last_reported":1691683716,"current_range_meters":31200,"station_id":"ce4bhah2rcd13ifvqej0","pricing_plan_id":"free"},{"bike_id":"5d527504-97f1-45dc-8d80-b4ce18268847","system_id":"levelo_inurba_marseille","lat":43.295196,"lon":5.39397,"is_reserved":false,"is_disabled":false,"rental_uris":{"android":"levelo://app?vid=5d527504-97f1-45dc-8d80-b4ce18268847","ios":"levelo://app?vid=5d527504-97f1-45dc-8d80-b4ce18268847"},"vehicle_type_id":"4","last_reported":1691683716,"current_range_meters":24000,"station_id":"ce4bh292rcd13ifvqdf0","pricing_plan_id":"free"},{"bike_id":"2c3df343-bc1c-4eb8-b5f5-75a560bc4a09","system_id":"levelo_inurba_marseille","lat":43.29876,"lon":5.3974,"is_reserved":false,"is_disabled":false,"rental_uris":{"android":"levelo://app?vid=2c3df343-bc1c-4eb8-b5f5-75a560bc4a09","ios":"levelo://app?vid=2c3df343-bc1c-4eb8-b5f5-75a560bc4a09"},"vehicle_type_id":"4","last_reported":1691683716,"current_range_meters":31200,"station_id":"ce4bh0h2rcd13ifvqd50","pricing_plan_id":"free"},{"bike_id":"e9e99643-39c7-43ca-9378-4e5599c96f69","system_id":"levelo_inurba_marseille","lat":43.286591,"lon":5.363346,"is_reserved":false,"is_disabled":false,"rental_uris":{"android":"levelo://app?vid=e9e99643-39c7-43ca-9378-4e5599c96f69","ios":"levelo://app?vid=e9e99643-39c7-43ca-9378-4e5599c96f69"},"vehicle_type_id":"4","last_reported":1691683716,"current_range_meters":12800,"station_id":"ce4bhah2rcd13ifvqej0","pricing_plan_id":"free"},{"bike_id":"dad83419-858e-40bf-b086-a3af34d64037","system_id":"levelo_inurba_marseille","lat":43.286593,"lon":5.363346,"is_reserved":false,"is_disabled":false,"rental_uris":{"android":"levelo://app?vid=dad83419-858e-40bf-b086-a3af34d64037","ios":"levelo://app?vid=dad83419-858e-40bf-b086-a3af34d64037"},"vehicle_type_id":"4","last_reported":1691683716,"current_range_meters":20800,"station_id":"ce4bhah2rcd13ifvqej0","pricing_plan_id":"free"},{"bike_id":"2b60b86e-7679-4bfd-af8f-5ce2270138eb","system_id":"levelo_inurba_marseille","lat":43.302759,"lon":5.400793,"is_reserved":false,"is_disabled":false,"rental_uris":{"android":"levelo://app?vid=2b60b86e-7679-4bfd-af8f-5ce2270138eb","ios":"levelo://app?vid=2b60b86e-7679-4bfd-af8f-5ce2270138eb"},"vehicle_type_id":"4","last_reported":1691683716,"current_range_meters":16400,"station_id":"ce4bgvh2rcd13ifvqcs0","pricing_plan_id":"free"},{"bike_id":"135346ac-0a9e-4377-a354-923051e0aa1b","system_id":"levelo_inurba_marseille","lat":43.290336,"lon":5.386425,"is_reserved":false,"is_disabled":false,"rental_uris":{"android":"levelo://app?vid=135346ac-0a9e-4377-a354-923051e0aa1b","ios":"levelo://app?vid=135346ac-0a9e-4377-a354-923051e0aa1b"},"vehicle_type_id":"4","last_reported":1691683716,"current_range_meters":23200,"station_id":"ce4bh4p2rcd13ifvqe0g","pricing_plan_id":"free"},{"bike_id":"926eb0e0-7a94-4535-bd5f-7d43180f7e3a","system_id":"levelo_inurba_marseille","lat":43.28607,"lon":5.3706,"is_reserved":false,"is_disabled":false,"rental_uris":{"android":"levelo://app?vid=926eb0e0-7a94-4535-bd5f-7d43180f7e3a","ios":"levelo://app?vid=926eb0e0-7a94-4535-bd5f-7d43180f7e3a"},"vehicle_type_id":"4","last_reported":1691683716,"current_range_meters":29200,"station_id":"ce4bht12rcd13ifvqi60","pricing_plan_id":"free"},{"bike_id":"45514465-532b-4735-8dbe-876f7efe3187","system_id":"levelo_inurba_marseille","lat":43.28607,"lon":5.37066,"is_reserved":false,"is_disabled":false,"rental_uris":{"android":"levelo://app?vid=45514465-532b-4735-8dbe-876f7efe3187","ios":"levelo://app?vid=45514465-532b-4735-8dbe-876f7efe3187"},"vehicle_type_id":"4","last_reported":1691683716,"current_range_meters":1200,"station_id":"ce4bht12rcd13ifvqi60","pricing_plan_id":"free"},{"bike_id":"a508eaf5-94a7-4546-9c6d-37c838a99e3e","system_id":"levelo_inurba_marseille","lat":43.287185,"lon":5.379373,"is_reserved":false,"is_disabled":false,"rental_uris":{"android":"levelo://app?vid=a508eaf5-94a7-4546-9c6d-37c838a99e3e","ios":"levelo://app?vid=a508eaf5-94a7-4546-9c6d-37c838a99e3e"},"vehicle_type_id":"4","last_reported":1691683716,"current_range_meters":22800,"station_id":"ce4bh9p2rcd13ifvqec0","pricing_plan_id":"free"},{"bike_id":"84646cb9-6a38-40fa-8c8e-d05a1ab21b13","system_id":"levelo_inurba_marseille","lat":43.291994,"lon":5.392907,"is_reserved":false,"is_disabled":false,"rental_uris":{"android":"levelo://app?vid=84646cb9-6a38-40fa-8c8e-d05a1ab21b13","ios":"levelo://app?vid=84646cb9-6a38-40fa-8c8e-d05a1ab21b13"},"vehicle_type_id":"4","last_reported":1691683716,"current_range_meters":15600,"station_id":"ce4bh192rcd13ifvqdd0","pricing_plan_id":"free"},{"bike_id":"b57696fb-b5b7-4b24-905e-680e88d66735","system_id":"levelo_inurba_marseille","lat":43.284538,"lon":5.358657,"is_reserved":false,"is_disabled":false,"rental_uris":{"android":"levelo://app?vid=b57696fb-b5b7-4b24-905e-680e88d66735","ios":"levelo://app?vid=b57696fb-b5b7-4b24-905e-680e88d66735"},"vehicle_type_id":"4","last_reported":1691683716,"current_range_meters":10400,"station_id":"ce4bhah2rcd13ifvqei0","pricing_plan_id":"free"},{"bike_id":"58c60236-1ac5-4fe3-8748-ace6f9fda6c0","system_id":"levelo_inurba_marseille","lat":43.28463,"lon":5.35886,"is_reserved":false,"is_disabled":false,"rental_uris":{"android":"levelo://app?vid=58c60236-1ac5-4fe3-8748-ace6f9fda6c0","ios":"levelo://app?vid=58c60236-1ac5-4fe3-8748-ace6f9fda6c0"},"vehicle_type_id":"4","last_reported":1691683716,"current_range_meters":27600,"station_id":"ce4bhah2rcd13ifvqei0","pricing_plan_id":"free"},{"bike_id":"f784d280-8628-445a-a6e0-ae62e1a1138c","system_id":"levelo_inurba_marseille","lat":43.284534,"lon":5.358662,"is_reserved":false,"is_disabled":false,"rental_uris":{"android":"levelo://app?vid=f784d280-8628-445a-a6e0-ae62e1a1138c","ios":"levelo://app?vid=f784d280-8628-445a-a6e0-ae62e1a1138c"},"vehicle_type_id":"4","last_reported":1691683716,"current_range_meters":0,"station_id":"ce4bhah2rcd13ifvqei0","pricing_plan_id":"free"},{"bike_id":"31265084-8cb9-4304-acda-0b2118b3e9cc","system_id":"levelo_inurba_marseille","lat":43.284538,"lon":5.358657,"is_reserved":false,"is_disabled":false,"rental_uris":{"android":"levelo://app?vid=31265084-8cb9-4304-acda-0b2118b3e9cc","ios":"levelo://app?vid=31265084-8cb9-4304-acda-0b2118b3e9cc"},"vehicle_type_id":"4","last_reported":1691683716,"current_range_meters":24400,"station_id":"ce4bhah2rcd13ifvqei0","pricing_plan_id":"free"},{"bike_id":"e5ce862c-9759-413f-b6b7-d39eedd8f4e8","system_id":"levelo_inurba_marseille","lat":43.284534,"lon":5.358662,"is_reserved":false,"is_disabled":false,"rental_uris":{"android":"levelo://app?vid=e5ce862c-9759-413f-b6b7-d39eedd8f4e8","ios":"levelo://app?vid=e5ce862c-9759-413f-b6b7-d39eedd8f4e8"},"vehicle_type_id":"4","last_reported":1691683716,"current_range_meters":12800,"station_id":"ce4bhah2rcd13ifvqei0","pricing_plan_id":"free"},{"bike_id":"ee55397e-7b5e-479a-afcf-22a61b1b0c8c","system_id":"levelo_inurba_marseille","lat":43.294314,"lon":5.397498,"is_reserved":false,"is_disabled":false,"rental_uris":{"android":"levelo://app?vid=ee55397e-7b5e-479a-afcf-22a61b1b0c8c","ios":"levelo://app?vid=ee55397e-7b5e-479a-afcf-22a61b1b0c8c"},"vehicle_type_id":"4","last_reported":1691683716,"current_range_meters":23200,"station_id":"ce4bh3h2rcd13ifvqdo0","pricing_plan_id":"free"},{"bike_id":"08ef7200-ff2c-4c7c-aac9-8543dae986bc","system_id":"levelo_inurba_marseille","lat":43.294314,"lon":5.397498,"is_reserved":false,"is_disabled":false,"rental_uris":{"android":"levelo://app?vid=08ef7200-ff2c-4c7c-aac9-8543dae986bc","ios":"levelo://app?vid=08ef7200-ff2c-4c7c-aac9-8543dae986bc"},"vehicle_type_id":"4","last_reported":1691683716,"current_range_meters":24800,"station_id":"ce4bh3h2rcd13ifvqdo0","pricing_plan_id":"free"},{"bike_id":"99168e4b-ba2d-47a1-af83-2dc193e9b818","system_id":"levelo_inurba_marseille","lat":43.285856,"lon":5.350771,"is_reserved":false,"is_disabled":false,"rental_uris":{"android":"levelo://app?vid=99168e4b-ba2d-47a1-af83-2dc193e9b818","ios":"levelo://app?vid=99168e4b-ba2d-47a1-af83-2dc193e9b818"},"vehicle_type_id":"4","last_reported":1691683716,"current_range_meters":16000,"station_id":"ce4bhch2rcd13ifvqeug","pricing_plan_id":"free"},{"bike_id":"14a9627a-6012-42ad-bc9c-ffadb586aefa","system_id":"levelo_inurba_marseille","lat":43.285856,"lon":5.350771,"is_reserved":false,"is_disabled":false,"rental_uris":{"android":"levelo://app?vid=14a9627a-6012-42ad-bc9c-ffadb586aefa","ios":"levelo://app?vid=14a9627a-6012-42ad-bc9c-ffadb586aefa"},"vehicle_type_id":"4","last_reported":1691683716,"current_range_meters":12000,"station_id":"ce4bhch2rcd13ifvqeug","pricing_plan_id":"free"},{"bike_id":"f1c52d5f-4bdc-493d-8140-ee3831079067","system_id":"levelo_inurba_marseille","lat":43.285856,"lon":5.350771,"is_reserved":false,"is_disabled":false,"rental_uris":{"android":"levelo://app?vid=f1c52d5f-4bdc-493d-8140-ee3831079067","ios":"levelo://app?vid=f1c52d5f-4bdc-493d-8140-ee3831079067"},"vehicle_type_id":"4","last_reported":1691683716,"current_range_meters":27200,"station_id":"ce4bhch2rcd13ifvqeug","pricing_plan_id":"free"},{"bike_id":"f06f7dc3-5aea-4720-811b-863bef03f24b","system_id":"levelo_inurba_marseille","lat":43.285856,"lon":5.350771,"is_reserved":false,"is_disabled":false,"rental_uris":{"android":"levelo://app?vid=f06f7dc3-5aea-4720-811b-863bef03f24b","ios":"levelo://app?vid=f06f7dc3-5aea-4720-811b-863bef03f24b"},"vehicle_type_id":"4","last_reported":1691683716,"current_range_meters":15600,"station_id":"ce4bhch2rcd13ifvqeug","pricing_plan_id":"free"},{"bike_id":"d00b7e4b-a24d-48a0-a2df-23490d37d5fa","system_id":"levelo_inurba_marseille","lat":43.285856,"lon":5.350771,"is_reserved":false,"is_disabled":false,"rental_uris":{"android":"levelo://app?vid=d00b7e4b-a24d-48a0-a2df-23490d37d5fa","ios":"levelo://app?vid=d00b7e4b-a24d-48a0-a2df-23490d37d5fa"},"vehicle_type_id":"4","last_reported":1691683716,"current_range_meters":29600,"station_id":"ce4bhch2rcd13ifvqeug","pricing_plan_id":"free"},{"bike_id":"f92c85a7-1c1a-42c2-a2bc-13e8e0142e3b","system_id":"levelo_inurba_marseille","lat":43.285856,"lon":5.350771,"is_reserved":false,"is_disabled":false,"rental_uris":{"android":"levelo://app?vid=f92c85a7-1c1a-42c2-a2bc-13e8e0142e3b","ios":"levelo://app?vid=f92c85a7-1c1a-42c2-a2bc-13e8e0142e3b"},"vehicle_type_id":"4","last_reported":1691683716,"current_range_meters":10000,"station_id":"ce4bhch2rcd13ifvqeug","pricing_plan_id":"free"},{"bike_id":"bab137c0-88ab-4300-9076-73432c363f7c","system_id":"levelo_inurba_marseille","lat":43.285856,"lon":5.350771,"is_reserved":false,"is_disabled":false,"rental_uris":{"android":"levelo://app?vid=bab137c0-88ab-4300-9076-73432c363f7c","ios":"levelo://app?vid=bab137c0-88ab-4300-9076-73432c363f7c"},"vehicle_type_id":"4","last_reported":1691683716,"current_range_meters":30000,"station_id":"ce4bhch2rcd13ifvqeug","pricing_plan_id":"free"},{"bike_id":"33b05dc3-bc7c-4671-afd8-7a9045515e2a","system_id":"levelo_inurba_marseille","lat":43.28614,"lon":5.35104,"is_reserved":false,"is_disabled":false,"rental_uris":{"android":"levelo://app?vid=33b05dc3-bc7c-4671-afd8-7a9045515e2a","ios":"levelo://app?vid=33b05dc3-bc7c-4671-afd8-7a9045515e2a"},"vehicle_type_id":"4","last_reported":1691683716,"current_range_meters":25200,"station_id":"ce4bhch2rcd13ifvqeug","pricing_plan_id":"free"},{"bike_id":"d8613967-23ae-4e44-8cd8-80ad8176caca","system_id":"levelo_inurba_marseille","lat":43.28615,"lon":5.351,"is_reserved":false,"is_disabled":false,"rental_uris":{"android":"levelo://app?vid=d8613967-23ae-4e44-8cd8-80ad8176caca","ios":"levelo://app?vid=d8613967-23ae-4e44-8cd8-80ad8176caca"},"vehicle_type_id":"4","last_reported":1691683716,"current_range_meters":30400,"station_id":"ce4bhch2rcd13ifvqeug","pricing_plan_id":"free"},{"bike_id":"f0c77ffc-244b-4537-bb81-2991fcb00b53","system_id":"levelo_inurba_marseille","lat":43.283998,"lon":5.375062,"is_reserved":false,"is_disabled":false,"rental_uris":{"android":"levelo://app?vid=f0c77ffc-244b-4537-bb81-2991fcb00b53","ios":"levelo://app?vid=f0c77ffc-244b-4537-bb81-2991fcb00b53"},"vehicle_type_id":"4","last_reported":1691683716,"current_range_meters":9200,"station_id":"ce4bh412rcd13ifvqds0","pricing_plan_id":"free"},{"bike_id":"619b8de8-7536-4201-91cc-b4acba31c4d7","system_id":"levelo_inurba_marseille","lat":43.28669,"lon":5.38668,"is_reserved":false,"is_disabled":false,"rental_uris":{"android":"levelo://app?vid=619b8de8-7536-4201-91cc-b4acba31c4d7","ios":"levelo://app?vid=619b8de8-7536-4201-91cc-b4acba31c4d7"},"vehicle_type_id":"4","last_reported":1691683716,"current_range_meters":0,"station_id":"ce4bh492rcd13ifvqdug","pricing_plan_id":"free"},{"bike_id":"00ec9c69-297e-4c7a-b38c-19e948bbf210","system_id":"levelo_inurba_marseille","lat":43.3372,"lon":5.39182,"is_reserved":false,"is_disabled":false,"rental_uris":{"android":"levelo://app?vid=00ec9c69-297e-4c7a-b38c-19e948bbf210","ios":"levelo://app?vid=00ec9c69-297e-4c7a-b38c-19e948bbf210"},"vehicle_type_id":"4","last_reported":1691683716,"current_range_meters":26000,"station_id":"ce4bhr92rcd13ifvqhsg","pricing_plan_id":"free"},{"bike_id":"10a145e5-87a5-4b56-91b4-e5e5def07b5f","system_id":"levelo_inurba_marseille","lat":43.33724,"lon":5.39178,"is_reserved":false,"is_disabled":false,"rental_uris":{"android":"levelo://app?vid=10a145e5-87a5-4b56-91b4-e5e5def07b5f","ios":"levelo://app?vid=10a145e5-87a5-4b56-91b4-e5e5def07b5f"},"vehicle_type_id":"4","last_reported":1691683716,"current_range_meters":6400,"station_id":"ce4bhr92rcd13ifvqhsg","pricing_plan_id":"free"},{"bike_id":"de11d07c-b7f6-4f0e-b185-78791ec160b3","system_id":"levelo_inurba_marseille","lat":43.323464,"lon":5.406297,"is_reserved":false,"is_disabled":false,"rental_uris":{"android":"levelo://app?vid=de11d07c-b7f6-4f0e-b185-78791ec160b3","ios":"levelo://app?vid=de11d07c-b7f6-4f0e-b185-78791ec160b3"},"vehicle_type_id":"4","last_reported":1691683716,"current_range_meters":28400,"station_id":"ce4bhq92rcd13ifvqhjg","pricing_plan_id":"free"},{"bike_id":"edb3c5c3-dea4-418b-ab85-ce27e4437e73","system_id":"levelo_inurba_marseille","lat":43.33722,"lon":5.39187,"is_reserved":false,"is_disabled":false,"rental_uris":{"android":"levelo://app?vid=edb3c5c3-dea4-418b-ab85-ce27e4437e73","ios":"levelo://app?vid=edb3c5c3-dea4-418b-ab85-ce27e4437e73"},"vehicle_type_id":"4","last_reported":1691683716,"current_range_meters":0,"station_id":"ce4bhr92rcd13ifvqhsg","pricing_plan_id":"free"},{"bike_id":"a369c97d-81f0-46c7-b8ce-be37c51bdc96","system_id":"levelo_inurba_marseille","lat":43.33725,"lon":5.39185,"is_reserved":false,"is_disabled":false,"rental_uris":{"android":"levelo://app?vid=a369c97d-81f0-46c7-b8ce-be37c51bdc96","ios":"levelo://app?vid=a369c97d-81f0-46c7-b8ce-be37c51bdc96"},"vehicle_type_id":"4","last_reported":1691683716,"current_range_meters":28400,"station_id":"ce4bhr92rcd13ifvqhsg","pricing_plan_id":"free"},{"bike_id":"6d42bb8a-70be-4b30-8f04-f3ff13e43697","system_id":"levelo_inurba_marseille","lat":43.323464,"lon":5.406297,"is_reserved":false,"is_disabled":false,"rental_uris":{"android":"levelo://app?vid=6d42bb8a-70be-4b30-8f04-f3ff13e43697","ios":"levelo://app?vid=6d42bb8a-70be-4b30-8f04-f3ff13e43697"},"vehicle_type_id":"4","last_reported":1691683716,"current_range_meters":6800,"station_id":"ce4bhq92rcd13ifvqhjg","pricing_plan_id":"free"},{"bike_id":"11fda3b5-1dd6-4c96-aec6-36b73fb1dc1f","system_id":"levelo_inurba_marseille","lat":43.323464,"lon":5.406297,"is_reserved":false,"is_disabled":false,"rental_uris":{"android":"levelo://app?vid=11fda3b5-1dd6-4c96-aec6-36b73fb1dc1f","ios":"levelo://app?vid=11fda3b5-1dd6-4c96-aec6-36b73fb1dc1f"},"vehicle_type_id":"4","last_reported":1691683716,"current_range_meters":31600,"station_id":"ce4bhq92rcd13ifvqhjg","pricing_plan_id":"free"},{"bike_id":"12780ec8-de1e-47ef-903b-cd2ba14849fe","system_id":"levelo_inurba_marseille","lat":43.323464,"lon":5.406297,"is_reserved":false,"is_disabled":false,"rental_uris":{"android":"levelo://app?vid=12780ec8-de1e-47ef-903b-cd2ba14849fe","ios":"levelo://app?vid=12780ec8-de1e-47ef-903b-cd2ba14849fe"},"vehicle_type_id":"4","last_reported":1691683716,"current_range_meters":31600,"station_id":"ce4bhq92rcd13ifvqhjg","pricing_plan_id":"free"},{"bike_id":"e4ce6cde-2e34-43c6-a5d2-7a0e9a204482","system_id":"levelo_inurba_marseille","lat":43.323464,"lon":5.406297,"is_reserved":false,"is_disabled":false,"rental_uris":{"android":"levelo://app?vid=e4ce6cde-2e34-43c6-a5d2-7a0e9a204482","ios":"levelo://app?vid=e4ce6cde-2e34-43c6-a5d2-7a0e9a204482"},"vehicle_type_id":"4","last_reported":1691683716,"current_range_meters":4800,"station_id":"ce4bhq92rcd13ifvqhjg","pricing_plan_id":"free"},{"bike_id":"4e1abea3-46a7-410b-ad84-e50a65fefa81","system_id":"levelo_inurba_marseille","lat":43.288497,"lon":5.393089,"is_reserved":false,"is_disabled":false,"rental_uris":{"android":"levelo://app?vid=4e1abea3-46a7-410b-ad84-e50a65fefa81","ios":"levelo://app?vid=4e1abea3-46a7-410b-ad84-e50a65fefa81"},"vehicle_type_id":"4","last_reported":1691683716,"current_range_meters":2400,"station_id":"ce4bh2p2rcd13ifvqdi0","pricing_plan_id":"free"},{"bike_id":"c4fdd0af-a286-420e-9107-8fa7d8f3778f","system_id":"levelo_inurba_marseille","lat":43.288497,"lon":5.393089,"is_reserved":false,"is_disabled":false,"rental_uris":{"android":"levelo://app?vid=c4fdd0af-a286-420e-9107-8fa7d8f3778f","ios":"levelo://app?vid=c4fdd0af-a286-420e-9107-8fa7d8f3778f"},"vehicle_type_id":"4","last_reported":1691683716,"current_range_meters":20800,"station_id":"ce4bh2p2rcd13ifvqdi0","pricing_plan_id":"free"},{"bike_id":"52cf0a6d-8dbf-4d3b-a481-496401651854","system_id":"levelo_inurba_marseille","lat":43.288497,"lon":5.393089,"is_reserved":false,"is_disabled":false,"rental_uris":{"android":"levelo://app?vid=52cf0a6d-8dbf-4d3b-a481-496401651854","ios":"levelo://app?vid=52cf0a6d-8dbf-4d3b-a481-496401651854"},"vehicle_type_id":"4","last_reported":1691683716,"current_range_meters":31200,"station_id":"ce4bh2p2rcd13ifvqdi0","pricing_plan_id":"free"},{"bike_id":"6fe114f1-b189-469c-9058-548d7b6b65fa","system_id":"levelo_inurba_marseille","lat":43.288497,"lon":5.393089,"is_reserved":false,"is_disabled":false,"rental_uris":{"android":"levelo://app?vid=6fe114f1-b189-469c-9058-548d7b6b65fa","ios":"levelo://app?vid=6fe114f1-b189-469c-9058-548d7b6b65fa"},"vehicle_type_id":"4","last_reported":1691683716,"current_range_meters":5600,"station_id":"ce4bh2p2rcd13ifvqdi0","pricing_plan_id":"free"},{"bike_id":"05165894-f9ca-4089-a5da-f18dc0ab11b0","system_id":"levelo_inurba_marseille","lat":43.284258,"lon":5.349945,"is_reserved":false,"is_disabled":false,"rental_uris":{"android":"levelo://app?vid=05165894-f9ca-4089-a5da-f18dc0ab11b0","ios":"levelo://app?vid=05165894-f9ca-4089-a5da-f18dc0ab11b0"},"vehicle_type_id":"4","last_reported":1691683716,"current_range_meters":3200,"station_id":"ce4bhbh2rcd13ifvqepg","pricing_plan_id":"free"},{"bike_id":"c0fde96f-1585-41cc-90be-b1f3157a11ec","system_id":"levelo_inurba_marseille","lat":43.284219,"lon":5.3497,"is_reserved":false,"is_disabled":false,"rental_uris":{"android":"levelo://app?vid=c0fde96f-1585-41cc-90be-b1f3157a11ec","ios":"levelo://app?vid=c0fde96f-1585-41cc-90be-b1f3157a11ec"},"vehicle_type_id":"4","last_reported":1691683716,"current_range_meters":23200,"station_id":"ce4bhbh2rcd13ifvqepg","pricing_plan_id":"free"},{"bike_id":"c0b941fc-50d4-406c-b345-ac1dfe9c92bf","system_id":"levelo_inurba_marseille","lat":43.284219,"lon":5.3497,"is_reserved":false,"is_disabled":false,"rental_uris":{"android":"levelo://app?vid=c0b941fc-50d4-406c-b345-ac1dfe9c92bf","ios":"levelo://app?vid=c0b941fc-50d4-406c-b345-ac1dfe9c92bf"},"vehicle_type_id":"4","last_reported":1691683716,"current_range_meters":31600,"station_id":"ce4bhbh2rcd13ifvqepg","pricing_plan_id":"free"},{"bike_id":"a4e40847-03e3-427b-91df-39b125da0273","system_id":"levelo_inurba_marseille","lat":43.284219,"lon":5.3497,"is_reserved":false,"is_disabled":false,"rental_uris":{"android":"levelo://app?vid=a4e40847-03e3-427b-91df-39b125da0273","ios":"levelo://app?vid=a4e40847-03e3-427b-91df-39b125da0273"},"vehicle_type_id":"4","last_reported":1691683716,"current_range_meters":10800,"station_id":"ce4bhbh2rcd13ifvqepg","pricing_plan_id":"free"},{"bike_id":"c79bc8a1-23d7-424e-ad4e-22377a24c192","system_id":"levelo_inurba_marseille","lat":43.28419,"lon":5.3499,"is_reserved":false,"is_disabled":false,"rental_uris":{"android":"levelo://app?vid=c79bc8a1-23d7-424e-ad4e-22377a24c192","ios":"levelo://app?vid=c79bc8a1-23d7-424e-ad4e-22377a24c192"},"vehicle_type_id":"4","last_reported":1691683716,"current_range_meters":17600,"station_id":"ce4bhbh2rcd13ifvqepg","pricing_plan_id":"free"},{"bike_id":"cacf1315-373b-47dd-a8dc-edda72d8a786","system_id":"levelo_inurba_marseille","lat":43.284219,"lon":5.3497,"is_reserved":false,"is_disabled":false,"rental_uris":{"android":"levelo://app?vid=cacf1315-373b-47dd-a8dc-edda72d8a786","ios":"levelo://app?vid=cacf1315-373b-47dd-a8dc-edda72d8a786"},"vehicle_type_id":"4","last_reported":1691683716,"current_range_meters":31200,"station_id":"ce4bhbh2rcd13ifvqepg","pricing_plan_id":"free"},{"bike_id":"e2bc81e9-2f2a-473a-8abc-a7b96782938b","system_id":"levelo_inurba_marseille","lat":43.284219,"lon":5.3497,"is_reserved":false,"is_disabled":false,"rental_uris":{"android":"levelo://app?vid=e2bc81e9-2f2a-473a-8abc-a7b96782938b","ios":"levelo://app?vid=e2bc81e9-2f2a-473a-8abc-a7b96782938b"},"vehicle_type_id":"4","last_reported":1691683716,"current_range_meters":31200,"station_id":"ce4bhbh2rcd13ifvqepg","pricing_plan_id":"free"},{"bike_id":"d4ea7a22-5d9e-4a12-9cbc-c9f42b777142","system_id":"levelo_inurba_marseille","lat":43.28418,"lon":5.34992,"is_reserved":false,"is_disabled":false,"rental_uris":{"android":"levelo://app?vid=d4ea7a22-5d9e-4a12-9cbc-c9f42b777142","ios":"levelo://app?vid=d4ea7a22-5d9e-4a12-9cbc-c9f42b777142"},"vehicle_type_id":"4","last_reported":1691683716,"current_range_meters":16400,"station_id":"ce4bhbh2rcd13ifvqepg","pricing_plan_id":"free"},{"bike_id":"66242709-9402-41f8-bf17-9c6281fcb8e9","system_id":"levelo_inurba_marseille","lat":43.28418,"lon":5.34992,"is_reserved":false,"is_disabled":false,"rental_uris":{"android":"levelo://app?vid=66242709-9402-41f8-bf17-9c6281fcb8e9","ios":"levelo://app?vid=66242709-9402-41f8-bf17-9c6281fcb8e9"},"vehicle_type_id":"4","last_reported":1691683716,"current_range_meters":22000,"station_id":"ce4bhbh2rcd13ifvqepg","pricing_plan_id":"free"},{"bike_id":"9b024e7c-3c81-42aa-84f2-7073e2b752bb","system_id":"levelo_inurba_marseille","lat":43.284219,"lon":5.3497,"is_reserved":false,"is_disabled":false,"rental_uris":{"android":"levelo://app?vid=9b024e7c-3c81-42aa-84f2-7073e2b752bb","ios":"levelo://app?vid=9b024e7c-3c81-42aa-84f2-7073e2b752bb"},"vehicle_type_id":"4","last_reported":1691683716,"current_range_meters":31200,"station_id":"ce4bhbh2rcd13ifvqepg","pricing_plan_id":"free"},{"bike_id":"cc67a5ea-c1b0-4bdf-a7b0-7dbeaaf7145b","system_id":"levelo_inurba_marseille","lat":43.28421,"lon":5.34982,"is_reserved":false,"is_disabled":false,"rental_uris":{"android":"levelo://app?vid=cc67a5ea-c1b0-4bdf-a7b0-7dbeaaf7145b","ios":"levelo://app?vid=cc67a5ea-c1b0-4bdf-a7b0-7dbeaaf7145b"},"vehicle_type_id":"4","last_reported":1691683716,"current_range_meters":16800,"station_id":"ce4bhbh2rcd13ifvqepg","pricing_plan_id":"free"},{"bike_id":"aecbcef8-ff5d-40b5-9e86-9708909d713b","system_id":"levelo_inurba_marseille","lat":43.284219,"lon":5.3497,"is_reserved":false,"is_disabled":false,"rental_uris":{"android":"levelo://app?vid=aecbcef8-ff5d-40b5-9e86-9708909d713b","ios":"levelo://app?vid=aecbcef8-ff5d-40b5-9e86-9708909d713b"},"vehicle_type_id":"4","last_reported":1691683716,"current_range_meters":32000,"station_id":"ce4bhbh2rcd13ifvqepg","pricing_plan_id":"free"},{"bike_id":"e4c37f6e-72f6-4978-adff-865ed245c097","system_id":"levelo_inurba_marseille","lat":43.28417,"lon":5.3499,"is_reserved":false,"is_disabled":false,"rental_uris":{"android":"levelo://app?vid=e4c37f6e-72f6-4978-adff-865ed245c097","ios":"levelo://app?vid=e4c37f6e-72f6-4978-adff-865ed245c097"},"vehicle_type_id":"4","last_reported":1691683716,"current_range_meters":22800,"station_id":"ce4bhbh2rcd13ifvqepg","pricing_plan_id":"free"},{"bike_id":"c2936cf8-cde5-44a4-9461-52a164a85c68","system_id":"levelo_inurba_marseille","lat":43.28417,"lon":5.3499,"is_reserved":false,"is_disabled":false,"rental_uris":{"android":"levelo://app?vid=c2936cf8-cde5-44a4-9461-52a164a85c68","ios":"levelo://app?vid=c2936cf8-cde5-44a4-9461-52a164a85c68"},"vehicle_type_id":"4","last_reported":1691683716,"current_range_meters":31200,"station_id":"ce4bhbh2rcd13ifvqepg","pricing_plan_id":"free"},{"bike_id":"15a96064-09bc-4a32-b3df-fdf024f6fc34","system_id":"levelo_inurba_marseille","lat":43.284219,"lon":5.3497,"is_reserved":false,"is_disabled":false,"rental_uris":{"android":"levelo://app?vid=15a96064-09bc-4a32-b3df-fdf024f6fc34","ios":"levelo://app?vid=15a96064-09bc-4a32-b3df-fdf024f6fc34"},"vehicle_type_id":"4","last_reported":1691683716,"current_range_meters":11600,"station_id":"ce4bhbh2rcd13ifvqepg","pricing_plan_id":"free"},{"bike_id":"78ca2e40-460f-461e-8da9-cdf1e3b5b4c6","system_id":"levelo_inurba_marseille","lat":43.284217,"lon":5.349697,"is_reserved":false,"is_disabled":false,"rental_uris":{"android":"levelo://app?vid=78ca2e40-460f-461e-8da9-cdf1e3b5b4c6","ios":"levelo://app?vid=78ca2e40-460f-461e-8da9-cdf1e3b5b4c6"},"vehicle_type_id":"4","last_reported":1691683716,"current_range_meters":31200,"station_id":"ce4bhbh2rcd13ifvqepg","pricing_plan_id":"free"},{"bike_id":"3caceb8e-3e6b-47e4-b97c-600f4df68da5","system_id":"levelo_inurba_marseille","lat":43.284219,"lon":5.3497,"is_reserved":false,"is_disabled":false,"rental_uris":{"android":"levelo://app?vid=3caceb8e-3e6b-47e4-b97c-600f4df68da5","ios":"levelo://app?vid=3caceb8e-3e6b-47e4-b97c-600f4df68da5"},"vehicle_type_id":"4","last_reported":1691683716,"current_range_meters":30800,"station_id":"ce4bhbh2rcd13ifvqepg","pricing_plan_id":"free"},{"bike_id":"72350d31-3352-46ec-8637-6deca64f7e46","system_id":"levelo_inurba_marseille","lat":43.284219,"lon":5.3497,"is_reserved":false,"is_disabled":false,"rental_uris":{"android":"levelo://app?vid=72350d31-3352-46ec-8637-6deca64f7e46","ios":"levelo://app?vid=72350d31-3352-46ec-8637-6deca64f7e46"},"vehicle_type_id":"4","last_reported":1691683716,"current_range_meters":0,"station_id":"ce4bhbh2rcd13ifvqepg","pricing_plan_id":"free"},{"bike_id":"413c2031-13f5-418b-82a0-e0ee9fe8a172","system_id":"levelo_inurba_marseille","lat":43.284219,"lon":5.3497,"is_reserved":false,"is_disabled":false,"rental_uris":{"android":"levelo://app?vid=413c2031-13f5-418b-82a0-e0ee9fe8a172","ios":"levelo://app?vid=413c2031-13f5-418b-82a0-e0ee9fe8a172"},"vehicle_type_id":"4","last_reported":1691683716,"current_range_meters":21200,"station_id":"ce4bhbh2rcd13ifvqepg","pricing_plan_id":"free"},{"bike_id":"ba980343-2e52-476d-9457-9983feac21d9","system_id":"levelo_inurba_marseille","lat":43.284217,"lon":5.349697,"is_reserved":false,"is_disabled":false,"rental_uris":{"android":"levelo://app?vid=ba980343-2e52-476d-9457-9983feac21d9","ios":"levelo://app?vid=ba980343-2e52-476d-9457-9983feac21d9"},"vehicle_type_id":"4","last_reported":1691683716,"current_range_meters":31200,"station_id":"ce4bhbh2rcd13ifvqepg","pricing_plan_id":"free"},{"bike_id":"da3c814e-7e32-4e3b-b1b2-c8abbb4d7d66","system_id":"levelo_inurba_marseille","lat":43.284219,"lon":5.3497,"is_reserved":false,"is_disabled":false,"rental_uris":{"android":"levelo://app?vid=da3c814e-7e32-4e3b-b1b2-c8abbb4d7d66","ios":"levelo://app?vid=da3c814e-7e32-4e3b-b1b2-c8abbb4d7d66"},"vehicle_type_id":"4","last_reported":1691683716,"current_range_meters":27600,"station_id":"ce4bhbh2rcd13ifvqepg","pricing_plan_id":"free"},{"bike_id":"7ae02a04-8d58-4cd0-ba98-1cc9ff990664","system_id":"levelo_inurba_marseille","lat":43.284217,"lon":5.349697,"is_reserved":false,"is_disabled":false,"rental_uris":{"android":"levelo://app?vid=7ae02a04-8d58-4cd0-ba98-1cc9ff990664","ios":"levelo://app?vid=7ae02a04-8d58-4cd0-ba98-1cc9ff990664"},"vehicle_type_id":"4","last_reported":1691683716,"current_range_meters":28800,"station_id":"ce4bhbh2rcd13ifvqepg","pricing_plan_id":"free"},{"bike_id":"3207fe38-4fdd-4f83-89a4-ed6933146352","system_id":"levelo_inurba_marseille","lat":43.284219,"lon":5.3497,"is_reserved":false,"is_disabled":false,"rental_uris":{"android":"levelo://app?vid=3207fe38-4fdd-4f83-89a4-ed6933146352","ios":"levelo://app?vid=3207fe38-4fdd-4f83-89a4-ed6933146352"},"vehicle_type_id":"4","last_reported":1691683716,"current_range_meters":26800,"station_id":"ce4bhbh2rcd13ifvqepg","pricing_plan_id":"free"},{"bike_id":"b916700d-7a85-4512-b37f-dec3e04ec11a","system_id":"levelo_inurba_marseille","lat":43.284217,"lon":5.349697,"is_reserved":false,"is_disabled":false,"rental_uris":{"android":"levelo://app?vid=b916700d-7a85-4512-b37f-dec3e04ec11a","ios":"levelo://app?vid=b916700d-7a85-4512-b37f-dec3e04ec11a"},"vehicle_type_id":"4","last_reported":1691683716,"current_range_meters":25200,"station_id":"ce4bhbh2rcd13ifvqepg","pricing_plan_id":"free"},{"bike_id":"98692975-f28b-4117-b1a2-02ca3fbfffbb","system_id":"levelo_inurba_marseille","lat":43.28412,"lon":5.3499,"is_reserved":false,"is_disabled":false,"rental_uris":{"android":"levelo://app?vid=98692975-f28b-4117-b1a2-02ca3fbfffbb","ios":"levelo://app?vid=98692975-f28b-4117-b1a2-02ca3fbfffbb"},"vehicle_type_id":"4","last_reported":1691683716,"current_range_meters":30800,"station_id":"ce4bhbh2rcd13ifvqepg","pricing_plan_id":"free"},{"bike_id":"ef2e1103-814b-4d38-b968-f892d7498847","system_id":"levelo_inurba_marseille","lat":43.284219,"lon":5.3497,"is_reserved":false,"is_disabled":false,"rental_uris":{"android":"levelo://app?vid=ef2e1103-814b-4d38-b968-f892d7498847","ios":"levelo://app?vid=ef2e1103-814b-4d38-b968-f892d7498847"},"vehicle_type_id":"4","last_reported":1691683716,"current_range_meters":28800,"station_id":"ce4bhbh2rcd13ifvqepg","pricing_plan_id":"free"},{"bike_id":"8df0c264-2054-411d-a31f-7b406e0b1b54","system_id":"levelo_inurba_marseille","lat":43.28411,"lon":5.34991,"is_reserved":false,"is_disabled":false,"rental_uris":{"android":"levelo://app?vid=8df0c264-2054-411d-a31f-7b406e0b1b54","ios":"levelo://app?vid=8df0c264-2054-411d-a31f-7b406e0b1b54"},"vehicle_type_id":"4","last_reported":1691683716,"current_range_meters":13200,"station_id":"ce4bhbh2rcd13ifvqepg","pricing_plan_id":"free"},{"bike_id":"990a2a4b-fa2a-439c-b1ab-b418dbf617c7","system_id":"levelo_inurba_marseille","lat":43.284219,"lon":5.3497,"is_reserved":false,"is_disabled":false,"rental_uris":{"android":"levelo://app?vid=990a2a4b-fa2a-439c-b1ab-b418dbf617c7","ios":"levelo://app?vid=990a2a4b-fa2a-439c-b1ab-b418dbf617c7"},"vehicle_type_id":"4","last_reported":1691683716,"current_range_meters":30000,"station_id":"ce4bhbh2rcd13ifvqepg","pricing_plan_id":"free"},{"bike_id":"9bf4bd5e-12af-4fb2-8ce5-3127f29b5e31","system_id":"levelo_inurba_marseille","lat":43.284217,"lon":5.349697,"is_reserved":false,"is_disabled":false,"rental_uris":{"android":"levelo://app?vid=9bf4bd5e-12af-4fb2-8ce5-3127f29b5e31","ios":"levelo://app?vid=9bf4bd5e-12af-4fb2-8ce5-3127f29b5e31"},"vehicle_type_id":"4","last_reported":1691683716,"current_range_meters":31200,"station_id":"ce4bhbh2rcd13ifvqepg","pricing_plan_id":"free"},{"bike_id":"c986643f-b1cd-4fed-bb8b-757f8edc083b","system_id":"levelo_inurba_marseille","lat":43.284219,"lon":5.3497,"is_reserved":false,"is_disabled":false,"rental_uris":{"android":"levelo://app?vid=c986643f-b1cd-4fed-bb8b-757f8edc083b","ios":"levelo://app?vid=c986643f-b1cd-4fed-bb8b-757f8edc083b"},"vehicle_type_id":"4","last_reported":1691683716,"current_range_meters":16400,"station_id":"ce4bhbh2rcd13ifvqepg","pricing_plan_id":"free"},{"bike_id":"8d6a5225-f544-4537-bb94-0f0c2c4697bf","system_id":"levelo_inurba_marseille","lat":43.2928,"lon":5.4012,"is_reserved":false,"is_disabled":false,"rental_uris":{"android":"levelo://app?vid=8d6a5225-f544-4537-bb94-0f0c2c4697bf","ios":"levelo://app?vid=8d6a5225-f544-4537-bb94-0f0c2c4697bf"},"vehicle_type_id":"4","last_reported":1691683716,"current_range_meters":17600,"station_id":"ce4bh312rcd13ifvqdk0","pricing_plan_id":"free"},{"bike_id":"5cec26ac-344f-432b-af34-450b75305b9b","system_id":"levelo_inurba_marseille","lat":43.292724,"lon":5.401131,"is_reserved":false,"is_disabled":false,"rental_uris":{"android":"levelo://app?vid=5cec26ac-344f-432b-af34-450b75305b9b","ios":"levelo://app?vid=5cec26ac-344f-432b-af34-450b75305b9b"},"vehicle_type_id":"4","last_reported":1691683716,"current_range_meters":31200,"station_id":"ce4bh312rcd13ifvqdk0","pricing_plan_id":"free"},{"bike_id":"fade5717-540c-4f8c-acb9-c66215f93814","system_id":"levelo_inurba_marseille","lat":43.28281,"lon":5.35082,"is_reserved":false,"is_disabled":false,"rental_uris":{"android":"levelo://app?vid=fade5717-540c-4f8c-acb9-c66215f93814","ios":"levelo://app?vid=fade5717-540c-4f8c-acb9-c66215f93814"},"vehicle_type_id":"4","last_reported":1691683716,"current_range_meters":31200,"station_id":"ce4bhbp2rcd13ifvqerg","pricing_plan_id":"free"},{"bike_id":"1f23f586-3191-4782-870b-9fa7bedba0e8","system_id":"levelo_inurba_marseille","lat":43.283502,"lon":5.386471,"is_reserved":false,"is_disabled":false,"rental_uris":{"android":"levelo://app?vid=1f23f586-3191-4782-870b-9fa7bedba0e8","ios":"levelo://app?vid=1f23f586-3191-4782-870b-9fa7bedba0e8"},"vehicle_type_id":"4","last_reported":1691683716,"current_range_meters":10400,"station_id":"ce4bh492rcd13ifvqdvg","pricing_plan_id":"free"},{"bike_id":"c9a02f69-5594-4ccd-a60e-f87e79f4f881","system_id":"levelo_inurba_marseille","lat":43.282754,"lon":5.350519,"is_reserved":false,"is_disabled":false,"rental_uris":{"android":"levelo://app?vid=c9a02f69-5594-4ccd-a60e-f87e79f4f881","ios":"levelo://app?vid=c9a02f69-5594-4ccd-a60e-f87e79f4f881"},"vehicle_type_id":"4","last_reported":1691683716,"current_range_meters":25600,"station_id":"ce4bhbp2rcd13ifvqerg","pricing_plan_id":"free"},{"bike_id":"1ec93569-f42e-4087-99bd-7324d932d905","system_id":"levelo_inurba_marseille","lat":43.282744,"lon":5.350533,"is_reserved":false,"is_disabled":false,"rental_uris":{"android":"levelo://app?vid=1ec93569-f42e-4087-99bd-7324d932d905","ios":"levelo://app?vid=1ec93569-f42e-4087-99bd-7324d932d905"},"vehicle_type_id":"4","last_reported":1691683716,"current_range_meters":31200,"station_id":"ce4bhbp2rcd13ifvqerg","pricing_plan_id":"free"},{"bike_id":"49cc8841-8f9b-4858-8422-6543ff6965d7","system_id":"levelo_inurba_marseille","lat":43.28275,"lon":5.35069,"is_reserved":false,"is_disabled":false,"rental_uris":{"android":"levelo://app?vid=49cc8841-8f9b-4858-8422-6543ff6965d7","ios":"levelo://app?vid=49cc8841-8f9b-4858-8422-6543ff6965d7"},"vehicle_type_id":"4","last_reported":1691683716,"current_range_meters":24400,"station_id":"ce4bhbp2rcd13ifvqerg","pricing_plan_id":"free"},{"bike_id":"cff93726-2e5e-4e8d-afb6-862809bd3056","system_id":"levelo_inurba_marseille","lat":43.28274,"lon":5.3507,"is_reserved":false,"is_disabled":false,"rental_uris":{"android":"levelo://app?vid=cff93726-2e5e-4e8d-afb6-862809bd3056","ios":"levelo://app?vid=cff93726-2e5e-4e8d-afb6-862809bd3056"},"vehicle_type_id":"4","last_reported":1691683716,"current_range_meters":12000,"station_id":"ce4bhbp2rcd13ifvqerg","pricing_plan_id":"free"},{"bike_id":"03d1406e-8230-42bd-abe9-b88a62c90724","system_id":"levelo_inurba_marseille","lat":43.282754,"lon":5.350519,"is_reserved":false,"is_disabled":false,"rental_uris":{"android":"levelo://app?vid=03d1406e-8230-42bd-abe9-b88a62c90724","ios":"levelo://app?vid=03d1406e-8230-42bd-abe9-b88a62c90724"},"vehicle_type_id":"4","last_reported":1691683716,"current_range_meters":9200,"station_id":"ce4bhbp2rcd13ifvqerg","pricing_plan_id":"free"},{"bike_id":"c79c4598-fb86-40e6-acc8-f6422ea374d4","system_id":"levelo_inurba_marseille","lat":43.282754,"lon":5.350519,"is_reserved":false,"is_disabled":false,"rental_uris":{"android":"levelo://app?vid=c79c4598-fb86-40e6-acc8-f6422ea374d4","ios":"levelo://app?vid=c79c4598-fb86-40e6-acc8-f6422ea374d4"},"vehicle_type_id":"4","last_reported":1691683716,"current_range_meters":16800,"station_id":"ce4bhbp2rcd13ifvqerg","pricing_plan_id":"free"},{"bike_id":"bd0ad05a-1f1c-4913-8f3d-5cd21b81b628","system_id":"levelo_inurba_marseille","lat":43.282754,"lon":5.350519,"is_reserved":false,"is_disabled":false,"rental_uris":{"android":"levelo://app?vid=bd0ad05a-1f1c-4913-8f3d-5cd21b81b628","ios":"levelo://app?vid=bd0ad05a-1f1c-4913-8f3d-5cd21b81b628"},"vehicle_type_id":"4","last_reported":1691683716,"current_range_meters":31200,"station_id":"ce4bhbp2rcd13ifvqerg","pricing_plan_id":"free"},{"bike_id":"bc65deac-20a3-4603-abc4-170a190de59f","system_id":"levelo_inurba_marseille","lat":43.282754,"lon":5.350519,"is_reserved":false,"is_disabled":false,"rental_uris":{"android":"levelo://app?vid=bc65deac-20a3-4603-abc4-170a190de59f","ios":"levelo://app?vid=bc65deac-20a3-4603-abc4-170a190de59f"},"vehicle_type_id":"4","last_reported":1691683716,"current_range_meters":26800,"station_id":"ce4bhbp2rcd13ifvqerg","pricing_plan_id":"free"},{"bike_id":"77923fce-1d18-4b6f-9ed3-f89e1b6b77fd","system_id":"levelo_inurba_marseille","lat":43.282754,"lon":5.350519,"is_reserved":false,"is_disabled":false,"rental_uris":{"android":"levelo://app?vid=77923fce-1d18-4b6f-9ed3-f89e1b6b77fd","ios":"levelo://app?vid=77923fce-1d18-4b6f-9ed3-f89e1b6b77fd"},"vehicle_type_id":"4","last_reported":1691683716,"current_range_meters":31600,"station_id":"ce4bhbp2rcd13ifvqerg","pricing_plan_id":"free"},{"bike_id":"69a5e357-00c6-489b-9013-54c79fcca409","system_id":"levelo_inurba_marseille","lat":43.28271,"lon":5.35071,"is_reserved":false,"is_disabled":false,"rental_uris":{"android":"levelo://app?vid=69a5e357-00c6-489b-9013-54c79fcca409","ios":"levelo://app?vid=69a5e357-00c6-489b-9013-54c79fcca409"},"vehicle_type_id":"4","last_reported":1691683716,"current_range_meters":24400,"station_id":"ce4bhbp2rcd13ifvqerg","pricing_plan_id":"free"},{"bike_id":"f3813a84-4687-4253-b202-f5534006fd35","system_id":"levelo_inurba_marseille","lat":43.2827,"lon":5.3507,"is_reserved":false,"is_disabled":false,"rental_uris":{"android":"levelo://app?vid=f3813a84-4687-4253-b202-f5534006fd35","ios":"levelo://app?vid=f3813a84-4687-4253-b202-f5534006fd35"},"vehicle_type_id":"4","last_reported":1691683716,"current_range_meters":30400,"station_id":"ce4bhbp2rcd13ifvqerg","pricing_plan_id":"free"},{"bike_id":"2ed12c1d-8154-4da8-a6ed-0c90facf64ec","system_id":"levelo_inurba_marseille","lat":43.282744,"lon":5.350533,"is_reserved":false,"is_disabled":false,"rental_uris":{"android":"levelo://app?vid=2ed12c1d-8154-4da8-a6ed-0c90facf64ec","ios":"levelo://app?vid=2ed12c1d-8154-4da8-a6ed-0c90facf64ec"},"vehicle_type_id":"4","last_reported":1691683716,"current_range_meters":31200,"station_id":"ce4bhbp2rcd13ifvqerg","pricing_plan_id":"free"},{"bike_id":"fe363d7c-0c6a-4f33-a1e0-f3f62d62cc21","system_id":"levelo_inurba_marseille","lat":43.282754,"lon":5.350519,"is_reserved":false,"is_disabled":false,"rental_uris":{"android":"levelo://app?vid=fe363d7c-0c6a-4f33-a1e0-f3f62d62cc21","ios":"levelo://app?vid=fe363d7c-0c6a-4f33-a1e0-f3f62d62cc21"},"vehicle_type_id":"4","last_reported":1691683716,"current_range_meters":26000,"station_id":"ce4bhbp2rcd13ifvqerg","pricing_plan_id":"free"},{"bike_id":"51b3f365-4a69-4db6-85be-3d5f0c328c73","system_id":"levelo_inurba_marseille","lat":43.28271,"lon":5.35066,"is_reserved":false,"is_disabled":false,"rental_uris":{"android":"levelo://app?vid=51b3f365-4a69-4db6-85be-3d5f0c328c73","ios":"levelo://app?vid=51b3f365-4a69-4db6-85be-3d5f0c328c73"},"vehicle_type_id":"4","last_reported":1691683716,"current_range_meters":12000,"station_id":"ce4bhbp2rcd13ifvqerg","pricing_plan_id":"free"},{"bike_id":"8dc7a6ac-661d-4f23-b05d-88a5cf924548","system_id":"levelo_inurba_marseille","lat":43.282754,"lon":5.350519,"is_reserved":false,"is_disabled":false,"rental_uris":{"android":"levelo://app?vid=8dc7a6ac-661d-4f23-b05d-88a5cf924548","ios":"levelo://app?vid=8dc7a6ac-661d-4f23-b05d-88a5cf924548"},"vehicle_type_id":"4","last_reported":1691683716,"current_range_meters":31600,"station_id":"ce4bhbp2rcd13ifvqerg","pricing_plan_id":"free"},{"bike_id":"6e650d33-eb33-45e1-8476-6521e2499ea3","system_id":"levelo_inurba_marseille","lat":43.282754,"lon":5.350519,"is_reserved":false,"is_disabled":false,"rental_uris":{"android":"levelo://app?vid=6e650d33-eb33-45e1-8476-6521e2499ea3","ios":"levelo://app?vid=6e650d33-eb33-45e1-8476-6521e2499ea3"},"vehicle_type_id":"4","last_reported":1691683716,"current_range_meters":21200,"station_id":"ce4bhbp2rcd13ifvqerg","pricing_plan_id":"free"},{"bike_id":"45d14e75-d6ee-4bd0-83f5-09e2af5c6dba","system_id":"levelo_inurba_marseille","lat":43.28271,"lon":5.35064,"is_reserved":false,"is_disabled":false,"rental_uris":{"android":"levelo://app?vid=45d14e75-d6ee-4bd0-83f5-09e2af5c6dba","ios":"levelo://app?vid=45d14e75-d6ee-4bd0-83f5-09e2af5c6dba"},"vehicle_type_id":"4","last_reported":1691683716,"current_range_meters":19200,"station_id":"ce4bhbp2rcd13ifvqerg","pricing_plan_id":"free"},{"bike_id":"f748e1f1-38b7-4f39-86ac-7bd325ceffb3","system_id":"levelo_inurba_marseille","lat":43.28269,"lon":5.35068,"is_reserved":false,"is_disabled":false,"rental_uris":{"android":"levelo://app?vid=f748e1f1-38b7-4f39-86ac-7bd325ceffb3","ios":"levelo://app?vid=f748e1f1-38b7-4f39-86ac-7bd325ceffb3"},"vehicle_type_id":"4","last_reported":1691683716,"current_range_meters":16400,"station_id":"ce4bhbp2rcd13ifvqerg","pricing_plan_id":"free"},{"bike_id":"fe45fd43-2c37-43c4-9386-b03633b9c45f","system_id":"levelo_inurba_marseille","lat":43.28269,"lon":5.35068,"is_reserved":false,"is_disabled":false,"rental_uris":{"android":"levelo://app?vid=fe45fd43-2c37-43c4-9386-b03633b9c45f","ios":"levelo://app?vid=fe45fd43-2c37-43c4-9386-b03633b9c45f"},"vehicle_type_id":"4","last_reported":1691683716,"current_range_meters":22000,"station_id":"ce4bhbp2rcd13ifvqerg","pricing_plan_id":"free"},{"bike_id":"faa628a9-9efc-4200-a691-f06d66e76f08","system_id":"levelo_inurba_marseille","lat":43.282754,"lon":5.350519,"is_reserved":false,"is_disabled":false,"rental_uris":{"android":"levelo://app?vid=faa628a9-9efc-4200-a691-f06d66e76f08","ios":"levelo://app?vid=faa628a9-9efc-4200-a691-f06d66e76f08"},"vehicle_type_id":"4","last_reported":1691683716,"current_range_meters":31600,"station_id":"ce4bhbp2rcd13ifvqerg","pricing_plan_id":"free"},{"bike_id":"b131168e-d797-4d9d-8a42-2ce496131037","system_id":"levelo_inurba_marseille","lat":43.282713,"lon":5.350563,"is_reserved":false,"is_disabled":false,"rental_uris":{"android":"levelo://app?vid=b131168e-d797-4d9d-8a42-2ce496131037","ios":"levelo://app?vid=b131168e-d797-4d9d-8a42-2ce496131037"},"vehicle_type_id":"4","last_reported":1691683716,"current_range_meters":30400,"station_id":"ce4bhbp2rcd13ifvqerg","pricing_plan_id":"free"},{"bike_id":"2911c951-ddce-4dbc-b3b6-3125351b1878","system_id":"levelo_inurba_marseille","lat":43.28267,"lon":5.35071,"is_reserved":false,"is_disabled":false,"rental_uris":{"android":"levelo://app?vid=2911c951-ddce-4dbc-b3b6-3125351b1878","ios":"levelo://app?vid=2911c951-ddce-4dbc-b3b6-3125351b1878"},"vehicle_type_id":"4","last_reported":1691683716,"current_range_meters":30400,"station_id":"ce4bhbp2rcd13ifvqerg","pricing_plan_id":"free"},{"bike_id":"5352d128-13c8-44a3-9e36-a82824735e85","system_id":"levelo_inurba_marseille","lat":43.2827,"lon":5.3506,"is_reserved":false,"is_disabled":false,"rental_uris":{"android":"levelo://app?vid=5352d128-13c8-44a3-9e36-a82824735e85","ios":"levelo://app?vid=5352d128-13c8-44a3-9e36-a82824735e85"},"vehicle_type_id":"4","last_reported":1691683716,"current_range_meters":4000,"station_id":"ce4bhbp2rcd13ifvqerg","pricing_plan_id":"free"},{"bike_id":"291c6558-6bab-4970-9b03-a7e5b6fcea98","system_id":"levelo_inurba_marseille","lat":43.282706,"lon":5.350579,"is_reserved":false,"is_disabled":false,"rental_uris":{"android":"levelo://app?vid=291c6558-6bab-4970-9b03-a7e5b6fcea98","ios":"levelo://app?vid=291c6558-6bab-4970-9b03-a7e5b6fcea98"},"vehicle_type_id":"4","last_reported":1691683716,"current_range_meters":30000,"station_id":"ce4bhbp2rcd13ifvqerg","pricing_plan_id":"free"},{"bike_id":"3b6b073c-ea76-46be-b303-7d40cb9d84c5","system_id":"levelo_inurba_marseille","lat":43.282693,"lon":5.350583,"is_reserved":false,"is_disabled":false,"rental_uris":{"android":"levelo://app?vid=3b6b073c-ea76-46be-b303-7d40cb9d84c5","ios":"levelo://app?vid=3b6b073c-ea76-46be-b303-7d40cb9d84c5"},"vehicle_type_id":"4","last_reported":1691683716,"current_range_meters":10400,"station_id":"ce4bhbp2rcd13ifvqerg","pricing_plan_id":"free"},{"bike_id":"4c53bfb1-b837-4839-ae7c-3afc03258106","system_id":"levelo_inurba_marseille","lat":43.282671,"lon":5.35066,"is_reserved":false,"is_disabled":false,"rental_uris":{"android":"levelo://app?vid=4c53bfb1-b837-4839-ae7c-3afc03258106","ios":"levelo://app?vid=4c53bfb1-b837-4839-ae7c-3afc03258106"},"vehicle_type_id":"4","last_reported":1691683716,"current_range_meters":31200,"station_id":"ce4bhbp2rcd13ifvqerg","pricing_plan_id":"free"},{"bike_id":"88940920-727e-47f8-bee6-24feedff1167","system_id":"levelo_inurba_marseille","lat":43.282754,"lon":5.350519,"is_reserved":false,"is_disabled":false,"rental_uris":{"android":"levelo://app?vid=88940920-727e-47f8-bee6-24feedff1167","ios":"levelo://app?vid=88940920-727e-47f8-bee6-24feedff1167"},"vehicle_type_id":"4","last_reported":1691683716,"current_range_meters":31600,"station_id":"ce4bhbp2rcd13ifvqerg","pricing_plan_id":"free"},{"bike_id":"ed6422e8-4d0e-46d0-bac7-dd6576a061c5","system_id":"levelo_inurba_marseille","lat":43.282754,"lon":5.350519,"is_reserved":false,"is_disabled":false,"rental_uris":{"android":"levelo://app?vid=ed6422e8-4d0e-46d0-bac7-dd6576a061c5","ios":"levelo://app?vid=ed6422e8-4d0e-46d0-bac7-dd6576a061c5"},"vehicle_type_id":"4","last_reported":1691683716,"current_range_meters":31600,"station_id":"ce4bhbp2rcd13ifvqerg","pricing_plan_id":"free"},{"bike_id":"a708ba46-3095-4b3a-9a0d-83b37b6f0fd6","system_id":"levelo_inurba_marseille","lat":43.282754,"lon":5.350519,"is_reserved":false,"is_disabled":false,"rental_uris":{"android":"levelo://app?vid=a708ba46-3095-4b3a-9a0d-83b37b6f0fd6","ios":"levelo://app?vid=a708ba46-3095-4b3a-9a0d-83b37b6f0fd6"},"vehicle_type_id":"4","last_reported":1691683716,"current_range_meters":31200,"station_id":"ce4bhbp2rcd13ifvqerg","pricing_plan_id":"free"},{"bike_id":"82e745ef-8d87-476c-94df-702fa1e100a3","system_id":"levelo_inurba_marseille","lat":43.28263,"lon":5.35073,"is_reserved":false,"is_disabled":false,"rental_uris":{"android":"levelo://app?vid=82e745ef-8d87-476c-94df-702fa1e100a3","ios":"levelo://app?vid=82e745ef-8d87-476c-94df-702fa1e100a3"},"vehicle_type_id":"4","last_reported":1691683716,"current_range_meters":31200,"station_id":"ce4bhbp2rcd13ifvqerg","pricing_plan_id":"free"},{"bike_id":"f48f40c2-214d-4f06-ab5d-a017fa6ab44a","system_id":"levelo_inurba_marseille","lat":43.2826,"lon":5.35082,"is_reserved":false,"is_disabled":false,"rental_uris":{"android":"levelo://app?vid=f48f40c2-214d-4f06-ab5d-a017fa6ab44a","ios":"levelo://app?vid=f48f40c2-214d-4f06-ab5d-a017fa6ab44a"},"vehicle_type_id":"4","last_reported":1691683716,"current_range_meters":31200,"station_id":"ce4bhbp2rcd13ifvqerg","pricing_plan_id":"free"},{"bike_id":"8cca7d6a-2834-49ed-947e-65d3d7c42559","system_id":"levelo_inurba_marseille","lat":43.28263,"lon":5.3507,"is_reserved":false,"is_disabled":false,"rental_uris":{"android":"levelo://app?vid=8cca7d6a-2834-49ed-947e-65d3d7c42559","ios":"levelo://app?vid=8cca7d6a-2834-49ed-947e-65d3d7c42559"},"vehicle_type_id":"4","last_reported":1691683716,"current_range_meters":2800,"station_id":"ce4bhbp2rcd13ifvqerg","pricing_plan_id":"free"},{"bike_id":"d92dd1b9-e95e-4e67-940a-0bbe9021fd5e","system_id":"levelo_inurba_marseille","lat":43.282754,"lon":5.350519,"is_reserved":false,"is_disabled":false,"rental_uris":{"android":"levelo://app?vid=d92dd1b9-e95e-4e67-940a-0bbe9021fd5e","ios":"levelo://app?vid=d92dd1b9-e95e-4e67-940a-0bbe9021fd5e"},"vehicle_type_id":"4","last_reported":1691683716,"current_range_meters":18800,"station_id":"ce4bhbp2rcd13ifvqerg","pricing_plan_id":"free"},{"bike_id":"02221ee0-ea6a-464e-ad76-426bfe5c80a8","system_id":"levelo_inurba_marseille","lat":43.28262,"lon":5.35072,"is_reserved":false,"is_disabled":false,"rental_uris":{"android":"levelo://app?vid=02221ee0-ea6a-464e-ad76-426bfe5c80a8","ios":"levelo://app?vid=02221ee0-ea6a-464e-ad76-426bfe5c80a8"},"vehicle_type_id":"4","last_reported":1691683716,"current_range_meters":31200,"station_id":"ce4bhbp2rcd13ifvqerg","pricing_plan_id":"free"},{"bike_id":"af982aef-17ae-4b63-a96e-fcd626845d1c","system_id":"levelo_inurba_marseille","lat":43.2826,"lon":5.35079,"is_reserved":false,"is_disabled":false,"rental_uris":{"android":"levelo://app?vid=af982aef-17ae-4b63-a96e-fcd626845d1c","ios":"levelo://app?vid=af982aef-17ae-4b63-a96e-fcd626845d1c"},"vehicle_type_id":"4","last_reported":1691683716,"current_range_meters":1600,"station_id":"ce4bhbp2rcd13ifvqerg","pricing_plan_id":"free"},{"bike_id":"b5658bc3-5b0a-433d-b8f1-ceb746d768c1","system_id":"levelo_inurba_marseille","lat":43.282595,"lon":5.350741,"is_reserved":false,"is_disabled":false,"rental_uris":{"android":"levelo://app?vid=b5658bc3-5b0a-433d-b8f1-ceb746d768c1","ios":"levelo://app?vid=b5658bc3-5b0a-433d-b8f1-ceb746d768c1"},"vehicle_type_id":"4","last_reported":1691683716,"current_range_meters":17600,"station_id":"ce4bhbp2rcd13ifvqerg","pricing_plan_id":"free"},{"bike_id":"f32ff974-db98-424e-9734-00f1e6006a3c","system_id":"levelo_inurba_marseille","lat":43.2826,"lon":5.3507,"is_reserved":false,"is_disabled":false,"rental_uris":{"android":"levelo://app?vid=f32ff974-db98-424e-9734-00f1e6006a3c","ios":"levelo://app?vid=f32ff974-db98-424e-9734-00f1e6006a3c"},"vehicle_type_id":"4","last_reported":1691683716,"current_range_meters":23200,"station_id":"ce4bhbp2rcd13ifvqerg","pricing_plan_id":"free"},{"bike_id":"58dc6361-9c85-4553-bad0-9d375ce80de8","system_id":"levelo_inurba_marseille","lat":43.28257,"lon":5.3508,"is_reserved":false,"is_disabled":false,"rental_uris":{"android":"levelo://app?vid=58dc6361-9c85-4553-bad0-9d375ce80de8","ios":"levelo://app?vid=58dc6361-9c85-4553-bad0-9d375ce80de8"},"vehicle_type_id":"4","last_reported":1691683716,"current_range_meters":31200,"station_id":"ce4bhbp2rcd13ifvqerg","pricing_plan_id":"free"},{"bike_id":"eb8e4c4f-5fc5-4007-ab2b-231fad0dc17c","system_id":"levelo_inurba_marseille","lat":43.290412,"lon":5.399633,"is_reserved":false,"is_disabled":false,"rental_uris":{"android":"levelo://app?vid=eb8e4c4f-5fc5-4007-ab2b-231fad0dc17c","ios":"levelo://app?vid=eb8e4c4f-5fc5-4007-ab2b-231fad0dc17c"},"vehicle_type_id":"4","last_reported":1691683716,"current_range_meters":31200,"station_id":"ce4bh392rcd13ifvqdm0","pricing_plan_id":"free"},{"bike_id":"6b6775ce-08ae-46b2-af5f-0590e7a4f848","system_id":"levelo_inurba_marseille","lat":43.29041,"lon":5.399634,"is_reserved":false,"is_disabled":false,"rental_uris":{"android":"levelo://app?vid=6b6775ce-08ae-46b2-af5f-0590e7a4f848","ios":"levelo://app?vid=6b6775ce-08ae-46b2-af5f-0590e7a4f848"},"vehicle_type_id":"4","last_reported":1691683716,"current_range_meters":0,"station_id":"ce4bh392rcd13ifvqdm0","pricing_plan_id":"free"},{"bike_id":"cf230298-0bc1-4505-bc2b-0f84ecfb65b8","system_id":"levelo_inurba_marseille","lat":43.29628,"lon":5.40602,"is_reserved":false,"is_disabled":false,"rental_uris":{"android":"levelo://app?vid=cf230298-0bc1-4505-bc2b-0f84ecfb65b8","ios":"levelo://app?vid=cf230298-0bc1-4505-bc2b-0f84ecfb65b8"},"vehicle_type_id":"4","last_reported":1691683716,"current_range_meters":22000,"station_id":"ce4bh0h2rcd13ifvqd60","pricing_plan_id":"free"},{"bike_id":"b2d03303-d257-4e2b-b76b-9e58fccd9b4d","system_id":"levelo_inurba_marseille","lat":43.32632,"lon":5.40936,"is_reserved":false,"is_disabled":false,"rental_uris":{"android":"levelo://app?vid=b2d03303-d257-4e2b-b76b-9e58fccd9b4d","ios":"levelo://app?vid=b2d03303-d257-4e2b-b76b-9e58fccd9b4d"},"vehicle_type_id":"4","last_reported":1691683716,"current_range_meters":0,"station_id":"","pricing_plan_id":"free"},{"bike_id":"13654ed6-e020-494e-a89a-4e8b641b29ca","system_id":"levelo_inurba_marseille","lat":43.32668,"lon":5.40919,"is_reserved":false,"is_disabled":false,"rental_uris":{"android":"levelo://app?vid=13654ed6-e020-494e-a89a-4e8b641b29ca","ios":"levelo://app?vid=13654ed6-e020-494e-a89a-4e8b641b29ca"},"vehicle_type_id":"4","last_reported":1691683716,"current_range_meters":22400,"station_id":"","pricing_plan_id":"free"},{"bike_id":"a0f258ed-ced3-412c-a3a0-592502c28464","system_id":"levelo_inurba_marseille","lat":43.32661,"lon":5.40929,"is_reserved":false,"is_disabled":false,"rental_uris":{"android":"levelo://app?vid=a0f258ed-ced3-412c-a3a0-592502c28464","ios":"levelo://app?vid=a0f258ed-ced3-412c-a3a0-592502c28464"},"vehicle_type_id":"4","last_reported":1691683716,"current_range_meters":22800,"station_id":"","pricing_plan_id":"free"},{"bike_id":"e17b78c4-80c1-4b0b-871d-3d3a4338e174","system_id":"levelo_inurba_marseille","lat":43.32648,"lon":5.40942,"is_reserved":false,"is_disabled":false,"rental_uris":{"android":"levelo://app?vid=e17b78c4-80c1-4b0b-871d-3d3a4338e174","ios":"levelo://app?vid=e17b78c4-80c1-4b0b-871d-3d3a4338e174"},"vehicle_type_id":"4","last_reported":1691683716,"current_range_meters":31200,"station_id":"","pricing_plan_id":"free"},{"bike_id":"e2c66241-dfe9-4be0-9f4a-b4f3ed1a2c8f","system_id":"levelo_inurba_marseille","lat":43.28573,"lon":5.394992,"is_reserved":false,"is_disabled":false,"rental_uris":{"android":"levelo://app?vid=e2c66241-dfe9-4be0-9f4a-b4f3ed1a2c8f","ios":"levelo://app?vid=e2c66241-dfe9-4be0-9f4a-b4f3ed1a2c8f"},"vehicle_type_id":"4","last_reported":1691683716,"current_range_meters":6000,"station_id":"ce4bh292rcd13ifvqdg0","pricing_plan_id":"free"},{"bike_id":"586d10ff-4927-4e78-8c19-e1c23859b2a0","system_id":"levelo_inurba_marseille","lat":43.28573,"lon":5.394992,"is_reserved":false,"is_disabled":false,"rental_uris":{"android":"levelo://app?vid=586d10ff-4927-4e78-8c19-e1c23859b2a0","ios":"levelo://app?vid=586d10ff-4927-4e78-8c19-e1c23859b2a0"},"vehicle_type_id":"4","last_reported":1691683716,"current_range_meters":28800,"station_id":"ce4bh292rcd13ifvqdg0","pricing_plan_id":"free"},{"bike_id":"8950a67e-7cfa-4ff4-b244-4cc9d15e21d9","system_id":"levelo_inurba_marseille","lat":43.28573,"lon":5.394992,"is_reserved":false,"is_disabled":false,"rental_uris":{"android":"levelo://app?vid=8950a67e-7cfa-4ff4-b244-4cc9d15e21d9","ios":"levelo://app?vid=8950a67e-7cfa-4ff4-b244-4cc9d15e21d9"},"vehicle_type_id":"4","last_reported":1691683716,"current_range_meters":21200,"station_id":"ce4bh292rcd13ifvqdg0","pricing_plan_id":"free"},