{"last_updated":1761937624,"ttl":60,"version":"2.2","data":{"bikes":[{"bike_id":"ba194722-d3a7-4159-bbb0-083a619d8d5b","system_id":"levelo_inurba_marseille","lat":43.28,"lon":5.40021,"is_reserved":false,"is_disabled":false,"rental_uris":{"android":"levelo://app?vid=ba194722-d3a7-4159-bbb0-083a619d8d5b","ios":"levelo://app?vid=ba194722-d3a7-4159-bbb0-083a619d8d5b"},"vehicle_type_id":"4","last_reported":1761937624,"current_range_meters":2800,"station_id":"ce4bho92rcd13ifvqh4g","pricing_plan_id":"cebpf4jnsgd1na2vs0mg"},{"bike_id":"e8732ffd-5b12-4a0c-b4da-ef7fd4233be6","system_id":"levelo_inurba_marseille","lat":43.29289,"lon":5.40121,"is_reserved":false,"is_disabled":false,"rental_uris":{"android":"levelo://app?vid=e8732ffd-5b12-4a0c-b4da-ef7fd4233be6","ios":"levelo://app?vid=e8732ffd-5b12-4a0c-b4da-ef7fd4233be6"},"vehicle_type_id":"4","last_reported":1761937624,"current_range_meters":3200,"station_id":"ce4bh312rcd13ifvqdk0","pricing_plan_id":"cebpf4jnsgd1na2vs0mg"},{"bike_id":"78f8a2b2-694a-4580-b351-7128275aeae0","system_id":"levelo_inurba_marseille","lat":43.31767,"lon":5.39001,"is_reserved":false,"is_disabled":false,"rental_uris":{"android":"levelo://app?vid=78f8a2b2-694a-4580-b351-7128275aeae0","ios":"levelo://app?vid=78f8a2b2-694a-4580-b351-7128275aeae0"},"vehicle_type_id":"4","last_reported":1761937624,"current_range_meters":3200,"station_id":"ce4bhqp2rcd13ifvqhng","pricing_plan_id":"cebpf4jnsgd1na2vs0mg"},{"bike_id":"80d3e652-6aea-4931-9dae-279d5865e8a7","system_id":"levelo_inurba_marseille","lat":43.30744,"lon":5.37023,"is_reserved":false,"is_disabled":false,"rental_uris":{"android":"levelo://app?vid=80d3e652-6aea-4931-9dae-279d5865e8a7","ios":"levelo://app?vid=80d3e652-6aea-4931-9dae-279d5865e8a7"},"vehicle_type_id":"4","last_reported":1761937624,"current_range_meters":3600,"station_id":"","pricing_plan_id":"cebpf4jnsgd1na2vs0mg"},{"bike_id":"80cde17b-197a-4666-8e1e-92c981f7a2d9","system_id":"levelo_inurba_marseille","lat":43.29556,"lon":5.42287,"is_reserved":false,"is_disabled":false,"rental_uris":{"android":"levelo://app?vid=80cde17b-197a-4666-8e1e-92c981f7a2d9","ios":"levelo://app?vid=80cde17b-197a-4666-8e1e-92c981f7a2d9"},"vehicle_type_id":"4","last_reported":1761937624,"current_range_meters":3600,"station_id":"ce4bhph2rcd13ifvqhdg","pricing_plan_id":"cebpf4jnsgd1na2vs0mg"},{"bike_id":"f437cb59-b3b4-4503-b8fd-a49ee76e290f","system_id":"levelo_inurba_marseille","lat":43.279122,"lon":5.380099,"is_reserved":false,"is_disabled":false,"rental_uris":{"android":"levelo://app?vid=f437cb59-b3b4-4503-b8fd-a49ee76e290f","ios":"levelo://app?vid=f437cb59-b3b4-4503-b8fd-a49ee76e290f"},"vehicle_type_id":"4","last_reported":1761937624,"current_range_meters":3600,"station_id":"ce4bhf92rcd13ifvqf50","pricing_plan_id":"cebpf4jnsgd1na2vs0mg"},{"bike_id":"1798fec5-4595-4ac7-809e-e479f2954b64","system_id":"levelo_inurba_marseille","lat":43.27942,"lon":5.41047,"is_reserved":false,"is_disabled":false,"rental_uris":{"android":"levelo://app?vid=1798fec5-4595-4ac7-809e-e479f2954b64","ios":"levelo://app?vid=1798fec5-4595-4ac7-809e-e479f2954b64"},"vehicle_type_id":"4","last_reported":1761937624,"current_range_meters":3600,"station_id":"ce4bhnp2rcd13ifvqh0g","pricing_plan_id":"cebpf4jnsgd1na2vs0mg"},{"bike_id":"55a8cb51-bba9-4966-8808-0108228a2b3a","system_id":"levelo_inurba_marseille","lat":43.28625,"lon":5.35103,"is_reserved":false,"is_disabled":false,"rental_uris":{"android":"levelo://app?vid=55a8cb51-bba9-4966-8808-0108228a2b3a","ios":"levelo://app?vid=55a8cb51-bba9-4966-8808-0108228a2b3a"},"vehicle_type_id":"4","last_reported":1761937624,"current_range_meters":3600,"station_id":"ce4bhch2rcd13ifvqeug","pricing_plan_id":"cebpf4jnsgd1na2vs0mg"},{"bike_id":"4b246919-7800-4501-a71f-4d65ab3eca5e","system_id":"levelo_inurba_marseille","lat":43.2587,"lon":5.39895,"is_reserved":false,"is_disabled":false,"rental_uris":{"android":"levelo://app?vid=4b246919-7800-4501-a71f-4d65ab3eca5e","ios":"levelo://app?vid=4b246919-7800-4501-a71f-4d65ab3eca5e"},"vehicle_type_id":"4","last_reported":1761937624,"current_range_meters":4000,"station_id":"ce4bhl92rcd13ifvqghg","pricing_plan_id":"cebpf4jnsgd1na2vs0mg"},{"bike_id":"4c3595ec-0e59-493e-97ec-5fb2867f0bf7","system_id":"levelo_inurba_marseille","lat":43.23175,"lon":5.39989,"is_reserved":false,"is_disabled":false,"rental_uris":{"android":"levelo://app?vid=4c3595ec-0e59-493e-97ec-5fb2867f0bf7","ios":"levelo://app?vid=4c3595ec-0e59-493e-97ec-5fb2867f0bf7"},"vehicle_type_id":"4","last_reported":1761937624,"current_range_meters":4000,"station_id":"ce4bhn12rcd13ifvqgqg","pricing_plan_id":"cebpf4jnsgd1na2vs0mg"},{"bike_id":"a314a4bf-761a-43fe-8f2f-99e9e4eb3f36","system_id":"levelo_inurba_marseille","lat":43.313606,"lon":5.384897,"is_reserved":false,"is_disabled":false,"rental_uris":{"android":"levelo://app?vid=a314a4bf-761a-43fe-8f2f-99e9e4eb3f36","ios":"levelo://app?vid=a314a4bf-761a-43fe-8f2f-99e9e4eb3f36"},"vehicle_type_id":"4","last_reported":1761937624,"current_range_meters":4000,"station_id":"ce4bgt92rcd13ifvqcf0","pricing_plan_id":"cebpf4jnsgd1na2vs0mg"},{"bike_id":"8e580011-9f00-47c1-845e-f4c4bfef8629","system_id":"levelo_inurba_marseille","lat":43.2495,"lon":5.40489,"is_reserved":false,"is_disabled":false,"rental_uris":{"android":"levelo://app?vid=8e580011-9f00-47c1-845e-f4c4bfef8629","ios":"levelo://app?vid=8e580011-9f00-47c1-845e-f4c4bfef8629"},"vehicle_type_id":"4","last_reported":1761937624,"current_range_meters":4000,"station_id":"st_d2ngiaodas8pm72gd1h0","pricing_plan_id":"cebpf4jnsgd1na2vs0mg"},{"bike_id":"893b4a11-38f0-4625-a7ef-1770a52a6f02","system_id":"levelo_inurba_marseille","lat":43.29197,"lon":5.40262,"is_reserved":false,"is_disabled":false,"rental_uris":{"android":"levelo://app?vid=893b4a11-38f0-4625-a7ef-1770a52a6f02","ios":"levelo://app?vid=893b4a11-38f0-4625-a7ef-1770a52a6f02"},"vehicle_type_id":"4","last_reported":1761937624,"current_range_meters":4400,"station_id":"","pricing_plan_id":"cebpf4jnsgd1na2vs0mg"},{"bike_id":"d2e5750c-87f7-43dd-b8d2-d3053442195f","system_id":"levelo_inurba_marseille","lat":43.26577,"lon":5.39027,"is_reserved":false,"is_disabled":false,"rental_uris":{"android":"levelo://app?vid=d2e5750c-87f7-43dd-b8d2-d3053442195f","ios":"levelo://app?vid=d2e5750c-87f7-43dd-b8d2-d3053442195f"},"vehicle_type_id":"4","last_reported":1761937624,"current_range_meters":4400,"station_id":"ce4bhe12rcd13ifvqf30","pricing_plan_id":"cebpf4jnsgd1na2vs0mg"},{"bike_id":"da9312cf-a46b-4b37-8ea2-60848e489d84","system_id":"levelo_inurba_marseille","lat":43.2955,"lon":5.3854,"is_reserved":false,"is_disabled":false,"rental_uris":{"android":"levelo://app?vid=da9312cf-a46b-4b37-8ea2-60848e489d84","ios":"levelo://app?vid=da9312cf-a46b-4b37-8ea2-60848e489d84"},"vehicle_type_id":"4","last_reported":1761937624,"current_range_meters":4800,"station_id":"ce4bgih2rcd13ifvqba0","pricing_plan_id":"cebpf4jnsgd1na2vs0mg"},{"bike_id":"18df9354-a901-4357-8a69-f72234d9b1e4","system_id":"levelo_inurba_marseille","lat":43.31082,"lon":5.38364,"is_reserved":false,"is_disabled":false,"rental_uris":{"android":"levelo://app?vid=18df9354-a901-4357-8a69-f72234d9b1e4","ios":"levelo://app?vid=18df9354-a901-4357-8a69-f72234d9b1e4"},"vehicle_type_id":"4","last_reported":1761937624,"current_range_meters":4800,"station_id":"ce4bgv92rcd13ifvqcr0","pricing_plan_id":"cebpf4jnsgd1na2vs0mg"},{"bike_id":"2af6db0b-edff-4a39-afbb-74f678d6747b","system_id":"levelo_inurba_marseille","lat":43.29519,"lon":5.37465,"is_reserved":false,"is_disabled":false,"rental_uris":{"android":"levelo://app?vid=2af6db0b-edff-4a39-afbb-74f678d6747b","ios":"levelo://app?vid=2af6db0b-edff-4a39-afbb-74f678d6747b"},"vehicle_type_id":"4","last_reported":1761937624,"current_range_meters":4800,"station_id":"","pricing_plan_id":"cebpf4jnsgd1na2vs0mg"},{"bike_id":"cc19a1a8-543b-4d20-8117-6a892beb41b4","system_id":"levelo_inurba_marseille","lat":43.31489,"lon":5.37307,"is_reserved":false,"is_disabled":false,"rental_uris":{"android":"levelo://app?vid=cc19a1a8-543b-4d20-8117-6a892beb41b4","ios":"levelo://app?vid=cc19a1a8-543b-4d20-8117-6a892beb41b4"},"vehicle_type_id":"4","last_reported":1761937624,"current_range_meters":4800,"station_id":"ce4bgt12rcd13ifvqcd0","pricing_plan_id":"cebpf4jnsgd1na2vs0mg"},{"bike_id":"2c47eb48-c3bc-4115-a3f5-7d15475f2658","system_id":"levelo_inurba_marseille","lat":43.27918,"lon":5.39583,"is_reserved":false,"is_disabled":false,"rental_uris":{"android":"levelo://app?vid=2c47eb48-c3bc-4115-a3f5-7d15475f2658","ios":"levelo://app?vid=2c47eb48-c3bc-4115-a3f5-7d15475f2658"},"vehicle_type_id":"4","last_reported":1761937624,"current_range_meters":4800,"station_id":"","pricing_plan_id":"cebpf4jnsgd1na2vs0mg"},{"bike_id":"7ebeb9b6-59ef-4762-bae9-d0a0a1ffa4ca","system_id":"levelo_inurba_marseille","lat":43.28701,"lon":5.39988,"is_reserved":false,"is_disabled":false,"rental_uris":{"android":"levelo://app?vid=7ebeb9b6-59ef-4762-bae9-d0a0a1ffa4ca","ios":"levelo://app?vid=7ebeb9b6-59ef-4762-bae9-d0a0a1ffa4ca"},"vehicle_type_id":"4","last_reported":1761937624,"current_range_meters":5600,"station_id":"ce4bho92rcd13ifvqh3g","pricing_plan_id":"cebpf4jnsgd1na2vs0mg"},{"bike_id":"1ec9d0a9-81a4-4a42-934d-14797af9e4be","system_id":"levelo_inurba_marseille","lat":43.301898,"lon":5.36629,"is_reserved":false,"is_disabled":false,"rental_uris":{"android":"levelo://app?vid=1ec9d0a9-81a4-4a42-934d-14797af9e4be","ios":"levelo://app?vid=1ec9d0a9-81a4-4a42-934d-14797af9e4be"},"vehicle_type_id":"4","last_reported":1761937624,"current_range_meters":5600,"station_id":"ce4bgrh2rcd13ifvqc8g","pricing_plan_id":"cebpf4jnsgd1na2vs0mg"},{"bike_id":"187c9dd3-990b-4e75-bbb0-de3c66274966","system_id":"levelo_inurba_marseille","lat":43.316816,"lon":5.404752,"is_reserved":false,"is_disabled":false,"rental_uris":{"android":"levelo://app?vid=187c9dd3-990b-4e75-bbb0-de3c66274966","ios":"levelo://app?vid=187c9dd3-990b-4e75-bbb0-de3c66274966"},"vehicle_type_id":"4","last_reported":1761937624,"current_range_meters":5600,"station_id":"ce4bh012rcd13ifvqd00","pricing_plan_id":"cebpf4jnsgd1na2vs0mg"},{"bike_id":"d20c4d30-7835-4848-ad1c-4a6356b1e6a5","system_id":"levelo_inurba_marseille","lat":43.3131,"lon":5.39639,"is_reserved":false,"is_disabled":false,"rental_uris":{"android":"levelo://app?vid=d20c4d30-7835-4848-ad1c-4a6356b1e6a5","ios":"levelo://app?vid=d20c4d30-7835-4848-ad1c-4a6356b1e6a5"},"vehicle_type_id":"4","last_reported":1761937624,"current_range_meters":5600,"station_id":"ce4bgvp2rcd13ifvqcu0","pricing_plan_id":"cebpf4jnsgd1na2vs0mg"},{"bike_id":"1bdb0524-fd2f-434a-9e83-4b7a1a09b5bb","system_id":"levelo_inurba_marseille","lat":43.33388,"lon":5.41127,"is_reserved":false,"is_disabled":false,"rental_uris":{"android":"levelo://app?vid=1bdb0524-fd2f-434a-9e83-4b7a1a09b5bb","ios":"levelo://app?vid=1bdb0524-fd2f-434a-9e83-4b7a1a09b5bb"},"vehicle_type_id":"4","last_reported":1761937624,"current_range_meters":5600,"station_id":"","pricing_plan_id":"cebpf4jnsgd1na2vs0mg"},{"bike_id":"67a79913-d6ff-465b-b8a7-1c5b19c34195","system_id":"levelo_inurba_marseille","lat":43.28482,"lon":5.38427,"is_reserved":false,"is_disabled":false,"rental_uris":{"android":"levelo://app?vid=67a79913-d6ff-465b-b8a7-1c5b19c34195","ios":"levelo://app?vid=67a79913-d6ff-465b-b8a7-1c5b19c34195"},"vehicle_type_id":"4","last_reported":1761937624,"current_range_meters":5600,"station_id":"ce4bh512rcd13ifvqe3g","pricing_plan_id":"cebpf4jnsgd1na2vs0mg"},{"bike_id":"7429e722-0140-4583-bd6d-6fc4e8aad56b","system_id":"levelo_inurba_marseille","lat":43.30533,"lon":5.37088,"is_reserved":false,"is_disabled":false,"rental_uris":{"android":"levelo://app?vid=7429e722-0140-4583-bd6d-6fc4e8aad56b","ios":"levelo://app?vid=7429e722-0140-4583-bd6d-6fc4e8aad56b"},"vehicle_type_id":"4","last_reported":1761937624,"current_range_meters":5600,"station_id":"","pricing_plan_id":"cebpf4jnsgd1na2vs0mg"},{"bike_id":"b8e8f624-25f1-4537-845a-1740b5f64814","system_id":"levelo_inurba_marseille","lat":43.29563,"lon":5.4227,"is_reserved":false,"is_disabled":false,"rental_uris":{"android":"levelo://app?vid=b8e8f624-25f1-4537-845a-1740b5f64814","ios":"levelo://app?vid=b8e8f624-25f1-4537-845a-1740b5f64814"},"vehicle_type_id":"4","last_reported":1761937624,"current_range_meters":6000,"station_id":"ce4bhph2rcd13ifvqhdg","pricing_plan_id":"cebpf4jnsgd1na2vs0mg"},{"bike_id":"a6bd83e2-3054-4bc5-8010-a7e169c07e9c","system_id":"levelo_inurba_marseille","lat":43.27034,"lon":5.40158,"is_reserved":false,"is_disabled":false,"rental_uris":{"android":"levelo://app?vid=a6bd83e2-3054-4bc5-8010-a7e169c07e9c","ios":"levelo://app?vid=a6bd83e2-3054-4bc5-8010-a7e169c07e9c"},"vehicle_type_id":"4","last_reported":1761937624,"current_range_meters":6000,"station_id":"","pricing_plan_id":"cebpf4jnsgd1na2vs0mg"},{"bike_id":"d30971f8-b748-4c26-a282-c86cad907482","system_id":"levelo_inurba_marseille","lat":43.3027,"lon":5.38473,"is_reserved":false,"is_disabled":false,"rental_uris":{"android":"levelo://app?vid=d30971f8-b748-4c26-a282-c86cad907482","ios":"levelo://app?vid=d30971f8-b748-4c26-a282-c86cad907482"},"vehicle_type_id":"4","last_reported":1761937624,"current_range_meters":6000,"station_id":"","pricing_plan_id":"cebpf4jnsgd1na2vs0mg"},{"bike_id":"65eb9f43-50b7-4816-8b37-7fb614d22e26","system_id":"levelo_inurba_marseille","lat":43.304934,"lon":5.367084,"is_reserved":false,"is_disabled":false,"rental_uris":{"android":"levelo://app?vid=65eb9f43-50b7-4816-8b37-7fb614d22e26","ios":"levelo://app?vid=65eb9f43-50b7-4816-8b37-7fb614d22e26"},"vehicle_type_id":"4","last_reported":1761937624,"current_range_meters":6400,"station_id":"","pricing_plan_id":"cebpf4jnsgd1na2vs0mg"},{"bike_id":"4ea5c8d3-596b-4c15-9f77-2d54d14bff42","system_id":"levelo_inurba_marseille","lat":43.29875,"lon":5.3844,"is_reserved":false,"is_disabled":false,"rental_uris":{"android":"levelo://app?vid=4ea5c8d3-596b-4c15-9f77-2d54d14bff42","ios":"levelo://app?vid=4ea5c8d3-596b-4c15-9f77-2d54d14bff42"},"vehicle_type_id":"4","last_reported":1761937624,"current_range_meters":6400,"station_id":"","pricing_plan_id":"cebpf4jnsgd1na2vs0mg"},{"bike_id":"6357b643-31fd-4ce9-bf78-eb6c2df213a2","system_id":"levelo_inurba_marseille","lat":43.29535,"lon":5.3902,"is_reserved":false,"is_disabled":false,"rental_uris":{"android":"levelo://app?vid=6357b643-31fd-4ce9-bf78-eb6c2df213a2","ios":"levelo://app?vid=6357b643-31fd-4ce9-bf78-eb6c2df213a2"},"vehicle_type_id":"4","last_reported":1761937624,"current_range_meters":6400,"station_id":"","pricing_plan_id":"cebpf4jnsgd1na2vs0mg"},{"bike_id":"6fff56e2-dc33-4322-9554-e738206d1bc0","system_id":"levelo_inurba_marseille","lat":43.21217,"lon":5.35064,"is_reserved":false,"is_disabled":false,"rental_uris":{"android":"levelo://app?vid=6fff56e2-dc33-4322-9554-e738206d1bc0","ios":"levelo://app?vid=6fff56e2-dc33-4322-9554-e738206d1bc0"},"vehicle_type_id":"4","last_reported":1761937624,"current_range_meters":6400,"station_id":"st_cvj6sg6p6f1abm77japg","pricing_plan_id":"cebpf4jnsgd1na2vs0mg"},{"bike_id":"196d3290-daa4-4ae9-82ad-c5321eca8495","system_id":"levelo_inurba_marseille","lat":43.28663,"lon":5.36344,"is_reserved":false,"is_disabled":false,"rental_uris":{"android":"levelo://app?vid=196d3290-daa4-4ae9-82ad-c5321eca8495","ios":"levelo://app?vid=196d3290-daa4-4ae9-82ad-c5321eca8495"},"vehicle_type_id":"4","last_reported":1761937624,"current_range_meters":6400,"station_id":"ce4bhah2rcd13ifvqej0","pricing_plan_id":"cebpf4jnsgd1na2vs0mg"},{"bike_id":"67cf2752-b12a-4479-83e8-94679ca1904c","system_id":"levelo_inurba_marseille","lat":43.27997,"lon":5.40004,"is_reserved":false,"is_disabled":false,"rental_uris":{"android":"levelo://app?vid=67cf2752-b12a-4479-83e8-94679ca1904c","ios":"levelo://app?vid=67cf2752-b12a-4479-83e8-94679ca1904c"},"vehicle_type_id":"4","last_reported":1761937624,"current_range_meters":6800,"station_id":"ce4bho92rcd13ifvqh4g","pricing_plan_id":"cebpf4jnsgd1na2vs0mg"},{"bike_id":"392ee474-6143-479d-ae32-ca5402678de5","system_id":"levelo_inurba_marseille","lat":43.2872,"lon":5.37921,"is_reserved":false,"is_disabled":false,"rental_uris":{"android":"levelo://app?vid=392ee474-6143-479d-ae32-ca5402678de5","ios":"levelo://app?vid=392ee474-6143-479d-ae32-ca5402678de5"},"vehicle_type_id":"4","last_reported":1761937624,"current_range_meters":6800,"station_id":"ce4bh9p2rcd13ifvqec0","pricing_plan_id":"cebpf4jnsgd1na2vs0mg"},{"bike_id":"76d93064-3f1a-43d8-96f5-c636c27a0bfa","system_id":"levelo_inurba_marseille","lat":43.302118,"lon":5.422706,"is_reserved":false,"is_disabled":false,"rental_uris":{"android":"levelo://app?vid=76d93064-3f1a-43d8-96f5-c636c27a0bfa","ios":"levelo://app?vid=76d93064-3f1a-43d8-96f5-c636c27a0bfa"},"vehicle_type_id":"4","last_reported":1761937624,"current_range_meters":6800,"station_id":"ce4bhop2rcd13ifvqh7g","pricing_plan_id":"cebpf4jnsgd1na2vs0mg"},{"bike_id":"809166c8-8f58-40c2-9e72-af30163d928c","system_id":"levelo_inurba_marseille","lat":43.298687,"lon":5.397435,"is_reserved":false,"is_disabled":false,"rental_uris":{"android":"levelo://app?vid=809166c8-8f58-40c2-9e72-af30163d928c","ios":"levelo://app?vid=809166c8-8f58-40c2-9e72-af30163d928c"},"vehicle_type_id":"4","last_reported":1761937624,"current_range_meters":6800,"station_id":"ce4bh0h2rcd13ifvqd50","pricing_plan_id":"cebpf4jnsgd1na2vs0mg"},{"bike_id":"8f2eb767-8f55-4624-b267-ea3c5034fdcf","system_id":"levelo_inurba_marseille","lat":43.21179,"lon":5.35058,"is_reserved":false,"is_disabled":false,"rental_uris":{"android":"levelo://app?vid=8f2eb767-8f55-4624-b267-ea3c5034fdcf","ios":"levelo://app?vid=8f2eb767-8f55-4624-b267-ea3c5034fdcf"},"vehicle_type_id":"4","last_reported":1761937624,"current_range_meters":7200,"station_id":"st_cvj6sg6p6f1abm77japg","pricing_plan_id":"cebpf4jnsgd1na2vs0mg"},{"bike_id":"b60f0f48-4b92-463c-a8a5-28d070793c24","system_id":"levelo_inurba_marseille","lat":43.27996,"lon":5.40012,"is_reserved":false,"is_disabled":false,"rental_uris":{"android":"levelo://app?vid=b60f0f48-4b92-463c-a8a5-28d070793c24","ios":"levelo://app?vid=b60f0f48-4b92-463c-a8a5-28d070793c24"},"vehicle_type_id":"4","last_reported":1761937624,"current_range_meters":7200,"station_id":"ce4bho92rcd13ifvqh4g","pricing_plan_id":"cebpf4jnsgd1na2vs0mg"},{"bike_id":"9de50460-49da-4ec2-a240-d857993e4a58","system_id":"levelo_inurba_marseille","lat":43.292,"lon":5.35814,"is_reserved":false,"is_disabled":false,"rental_uris":{"android":"levelo://app?vid=9de50460-49da-4ec2-a240-d857993e4a58","ios":"levelo://app?vid=9de50460-49da-4ec2-a240-d857993e4a58"},"vehicle_type_id":"4","last_reported":1761937624,"current_range_meters":7200,"station_id":"ce4bhb12rcd13ifvqel0","pricing_plan_id":"cebpf4jnsgd1na2vs0mg"},{"bike_id":"8a24b1f1-d56c-4fa3-a0e6-2b89f9731758","system_id":"levelo_inurba_marseille","lat":43.27628,"lon":5.3611,"is_reserved":false,"is_disabled":false,"rental_uris":{"android":"levelo://app?vid=8a24b1f1-d56c-4fa3-a0e6-2b89f9731758","ios":"levelo://app?vid=8a24b1f1-d56c-4fa3-a0e6-2b89f9731758"},"vehicle_type_id":"4","last_reported":1761937624,"current_range_meters":8000,"station_id":"ce4bgj92rcd13ifvqbe0","pricing_plan_id":"cebpf4jnsgd1na2vs0mg"},{"bike_id":"688e0991-23bb-4f67-a97d-b9bb7704a66a","system_id":"levelo_inurba_marseille","lat":43.29255,"lon":5.39101,"is_reserved":false,"is_disabled":false,"rental_uris":{"android":"levelo://app?vid=688e0991-23bb-4f67-a97d-b9bb7704a66a","ios":"levelo://app?vid=688e0991-23bb-4f67-a97d-b9bb7704a66a"},"vehicle_type_id":"4","last_reported":1761937624,"current_range_meters":8000,"station_id":"","pricing_plan_id":"cebpf4jnsgd1na2vs0mg"},{"bike_id":"fcab4ddf-7c9a-4832-a957-af763c1f4abb","system_id":"levelo_inurba_marseille","lat":43.30402,"lon":5.42503,"is_reserved":false,"is_disabled":true,"rental_uris":{"android":"levelo://app?vid=fcab4ddf-7c9a-4832-a957-af763c1f4abb","ios":"levelo://app?vid=fcab4ddf-7c9a-4832-a957-af763c1f4abb"},"vehicle_type_id":"4","last_reported":1761937624,"current_range_meters":8000,"station_id":"ce4bhoh2rcd13ifvqh6g","pricing_plan_id":"cebpf4jnsgd1na2vs0mg"},{"bike_id":"941e1df4-1b34-43bd-9a7f-6f2a6fdded4a","system_id":"levelo_inurba_marseille","lat":43.287339,"lon":5.360841,"is_reserved":false,"is_disabled":false,"rental_uris":{"android":"levelo://app?vid=941e1df4-1b34-43bd-9a7f-6f2a6fdded4a","ios":"levelo://app?vid=941e1df4-1b34-43bd-9a7f-6f2a6fdded4a"},"vehicle_type_id":"4","last_reported":1761937624,"current_range_meters":8000,"station_id":"cki0cbj6b192h4jlfktg","pricing_plan_id":"cebpf4jnsgd1na2vs0mg"},{"bike_id":"557750aa-912f-4136-b013-12b329ffb61e","system_id":"levelo_inurba_marseille","lat":43.29065,"lon":5.37151,"is_reserved":false,"is_disabled":true,"rental_uris":{"android":"levelo://app?vid=557750aa-912f-4136-b013-12b329ffb61e","ios":"levelo://app?vid=557750aa-912f-4136-b013-12b329ffb61e"},"vehicle_type_id":"4","last_reported":1761937624,"current_range_meters":8000,"station_id":"ce4bh5p2rcd13ifvqe4g","pricing_plan_id":"cebpf4jnsgd1na2vs0mg"},{"bike_id":"1f79c4dd-3941-4001-8de3-b5b893fd67b8","system_id":"levelo_inurba_marseille","lat":43.2669,"lon":5.38279,"is_reserved":false,"is_disabled":false,"rental_uris":{"android":"levelo://app?vid=1f79c4dd-3941-4001-8de3-b5b893fd67b8","ios":"levelo://app?vid=1f79c4dd-3941-4001-8de3-b5b893fd67b8"},"vehicle_type_id":"4","last_reported":1761937624,"current_range_meters":8000,"station_id":"ce4bhg92rcd13ifvqf90","pricing_plan_id":"cebpf4jnsgd1na2vs0mg"},{"bike_id":"360eb79e-0896-4169-9401-8a4fd06b32ad","system_id":"levelo_inurba_marseille","lat":43.30885,"lon":5.39642,"is_reserved":false,"is_disabled":false,"rental_uris":{"android":"levelo://app?vid=360eb79e-0896-4169-9401-8a4fd06b32ad","ios":"levelo://app?vid=360eb79e-0896-4169-9401-8a4fd06b32ad"},"vehicle_type_id":"4","last_reported":1761937624,"current_range_meters":8400,"station_id":"ce4bh012rcd13ifvqcv0","pricing_plan_id":"cebpf4jnsgd1na2vs0mg"},{"bike_id":"8d7e3022-2914-4da4-aa98-639b87809c10","system_id":"levelo_inurba_marseille","lat":43.31697,"lon":5.42371,"is_reserved":false,"is_disabled":false,"rental_uris":{"android":"levelo://app?vid=8d7e3022-2914-4da4-aa98-639b87809c10","ios":"levelo://app?vid=8d7e3022-2914-4da4-aa98-639b87809c10"},"vehicle_type_id":"4","last_reported":1761937624,"current_range_meters":8400,"station_id":"ce4bhp92rcd13ifvqhbg","pricing_plan_id":"cebpf4jnsgd1na2vs0mg"},{"bike_id":"9f8d350e-3116-42ed-a432-d650d47d5608","system_id":"levelo_inurba_marseille","lat":43.28872,"lon":5.4251,"is_reserved":false,"is_disabled":false,"rental_uris":{"android":"levelo://app?vid=9f8d350e-3116-42ed-a432-d650d47d5608","ios":"levelo://app?vid=9f8d350e-3116-42ed-a432-d650d47d5608"},"vehicle_type_id":"4","last_reported":1761937624,"current_range_meters":8400,"station_id":"st_d3b462108ojc7389ooeg","pricing_plan_id":"cebpf4jnsgd1na2vs0mg"},{"bike_id":"dbbf01d5-146c-4703-b0d4-a6fb876476cb","system_id":"levelo_inurba_marseille","lat":43.21196,"lon":5.35081,"is_reserved":false,"is_disabled":false,"rental_uris":{"android":"levelo://app?vid=dbbf01d5-146c-4703-b0d4-a6fb876476cb","ios":"levelo://app?vid=dbbf01d5-146c-4703-b0d4-a6fb876476cb"},"vehicle_type_id":"4","last_reported":1761937624,"current_range_meters":8400,"station_id":"st_cvj6sg6p6f1abm77japg","pricing_plan_id":"cebpf4jnsgd1na2vs0mg"},{"bike_id":"0565a340-2267-4c26-844b-ee012e6d4561","system_id":"levelo_inurba_marseille","lat":43.30934,"lon":5.40138,"is_reserved":false,"is_disabled":false,"rental_uris":{"android":"levelo://app?vid=0565a340-2267-4c26-844b-ee012e6d4561","ios":"levelo://app?vid=0565a340-2267-4c26-844b-ee012e6d4561"},"vehicle_type_id":"4","last_reported":1761937624,"current_range_meters":8400,"station_id":"ce4bgvp2rcd13ifvqct0","pricing_plan_id":"cebpf4jnsgd1na2vs0mg"},{"bike_id":"c15712e4-878b-48cb-9490-42835421b3a2","system_id":"levelo_inurba_marseille","lat":43.33603,"lon":5.41033,"is_reserved":false,"is_disabled":false,"rental_uris":{"android":"levelo://app?vid=c15712e4-878b-48cb-9490-42835421b3a2","ios":"levelo://app?vid=c15712e4-878b-48cb-9490-42835421b3a2"},"vehicle_type_id":"4","last_reported":1761937624,"current_range_meters":8400,"station_id":"ce4bhqh2rcd13ifvqhmg","pricing_plan_id":"cebpf4jnsgd1na2vs0mg"},{"bike_id":"59a98ef3-fca4-4263-9592-8478101dca2f","system_id":"levelo_inurba_marseille","lat":43.295685,"lon":5.399581,"is_reserved":false,"is_disabled":false,"rental_uris":{"android":"levelo://app?vid=59a98ef3-fca4-4263-9592-8478101dca2f","ios":"levelo://app?vid=59a98ef3-fca4-4263-9592-8478101dca2f"},"vehicle_type_id":"4","last_reported":1761937624,"current_range_meters":8800,"station_id":"ce4bh312rcd13ifvqdj0","pricing_plan_id":"cebpf4jnsgd1na2vs0mg"},{"bike_id":"3dab03ab-b250-4b40-b286-0668266ab52e","system_id":"levelo_inurba_marseille","lat":43.28852,"lon":5.42524,"is_reserved":false,"is_disabled":false,"rental_uris":{"android":"levelo://app?vid=3dab03ab-b250-4b40-b286-0668266ab52e","ios":"levelo://app?vid=3dab03ab-b250-4b40-b286-0668266ab52e"},"vehicle_type_id":"4","last_reported":1761937624,"current_range_meters":8800,"station_id":"st_d3b462108ojc7389ooeg","pricing_plan_id":"cebpf4jnsgd1na2vs0mg"},{"bike_id":"bbc40026-6395-413d-b0aa-52334f03ad15","system_id":"levelo_inurba_marseille","lat":43.285715,"lon":5.394958,"is_reserved":false,"is_disabled":false,"rental_uris":{"android":"levelo://app?vid=bbc40026-6395-413d-b0aa-52334f03ad15","ios":"levelo://app?vid=bbc40026-6395-413d-b0aa-52334f03ad15"},"vehicle_type_id":"4","last_reported":1761937624,"current_range_meters":8800,"station_id":"","pricing_plan_id":"cebpf4jnsgd1na2vs0mg"},{"bike_id":"00cf5cfa-d004-4cd3-ac31-8deec722a14f","system_id":"levelo_inurba_marseille","lat":43.279938,"lon":5.400139,"is_reserved":false,"is_disabled":false,"rental_uris":{"android":"levelo://app?vid=00cf5cfa-d004-4cd3-ac31-8deec722a14f","ios":"levelo://app?vid=00cf5cfa-d004-4cd3-ac31-8deec722a14f"},"vehicle_type_id":"4","last_reported":1761937624,"current_range_meters":8800,"station_id":"ce4bho92rcd13ifvqh4g","pricing_plan_id":"cebpf4jnsgd1na2vs0mg"},{"bike_id":"188be0b8-cf48-4517-a961-238d7601585a","system_id":"levelo_inurba_marseille","lat":43.26952,"lon":5.38633,"is_reserved":false,"is_disabled":false,"rental_uris":{"android":"levelo://app?vid=188be0b8-cf48-4517-a961-238d7601585a","ios":"levelo://app?vid=188be0b8-cf48-4517-a961-238d7601585a"},"vehicle_type_id":"4","last_reported":1761937624,"current_range_meters":8800,"station_id":"ce4bhh92rcd13ifvqfh0","pricing_plan_id":"cebpf4jnsgd1na2vs0mg"},{"bike_id":"066f8f42-50ce-4c9b-b28d-05dec3aea7ee","system_id":"levelo_inurba_marseille","lat":43.29488,"lon":5.43309,"is_reserved":false,"is_disabled":false,"rental_uris":{"android":"levelo://app?vid=066f8f42-50ce-4c9b-b28d-05dec3aea7ee","ios":"levelo://app?vid=066f8f42-50ce-4c9b-b28d-05dec3aea7ee"},"vehicle_type_id":"4","last_reported":1761937624,"current_range_meters":8800,"station_id":"st_d3j5ugp08ojc73fj9d10","pricing_plan_id":"cebpf4jnsgd1na2vs0mg"},{"bike_id":"999abb49-71ad-4c6e-b4a4-ab5767c21721","system_id":"levelo_inurba_marseille","lat":43.30953,"lon":5.40139,"is_reserved":false,"is_disabled":false,"rental_uris":{"android":"levelo://app?vid=999abb49-71ad-4c6e-b4a4-ab5767c21721","ios":"levelo://app?vid=999abb49-71ad-4c6e-b4a4-ab5767c21721"},"vehicle_type_id":"4","last_reported":1761937624,"current_range_meters":8800,"station_id":"ce4bgvp2rcd13ifvqct0","pricing_plan_id":"cebpf4jnsgd1na2vs0mg"},{"bike_id":"d99505fe-d7a7-4e44-b7f5-f0065cd01a03","system_id":"levelo_inurba_marseille","lat":43.33381,"lon":5.42904,"is_reserved":false,"is_disabled":false,"rental_uris":{"android":"levelo://app?vid=d99505fe-d7a7-4e44-b7f5-f0065cd01a03","ios":"levelo://app?vid=d99505fe-d7a7-4e44-b7f5-f0065cd01a03"},"vehicle_type_id":"4","last_reported":1761937624,"current_range_meters":9200,"station_id":"","pricing_plan_id":"cebpf4jnsgd1na2vs0mg"},{"bike_id":"e55c3248-cbe4-4026-bb4f-678428a0b879","system_id":"levelo_inurba_marseille","lat":43.29527,"lon":5.39031,"is_reserved":false,"is_disabled":false,"rental_uris":{"android":"levelo://app?vid=e55c3248-cbe4-4026-bb4f-678428a0b879","ios":"levelo://app?vid=e55c3248-cbe4-4026-bb4f-678428a0b879"},"vehicle_type_id":"4","last_reported":1761937624,"current_range_meters":9200,"station_id":"ce4bh3p2rcd13ifvqdp0","pricing_plan_id":"cebpf4jnsgd1na2vs0mg"},{"bike_id":"b7bf08da-3155-4ebd-90f6-2c65138a1e9a","system_id":"levelo_inurba_marseille","lat":43.21211,"lon":5.35055,"is_reserved":false,"is_disabled":false,"rental_uris":{"android":"levelo://app?vid=b7bf08da-3155-4ebd-90f6-2c65138a1e9a","ios":"levelo://app?vid=b7bf08da-3155-4ebd-90f6-2c65138a1e9a"},"vehicle_type_id":"4","last_reported":1761937624,"current_range_meters":9200,"station_id":"st_cvj6sg6p6f1abm77japg","pricing_plan_id":"cebpf4jnsgd1na2vs0mg"},{"bike_id":"a18dbf48-2c4d-4fa4-a4c5-c9871d73c9a0","system_id":"levelo_inurba_marseille","lat":43.301994,"lon":5.383462,"is_reserved":false,"is_disabled":false,"rental_uris":{"android":"levelo://app?vid=a18dbf48-2c4d-4fa4-a4c5-c9871d73c9a0","ios":"levelo://app?vid=a18dbf48-2c4d-4fa4-a4c5-c9871d73c9a0"},"vehicle_type_id":"4","last_reported":1761937624,"current_range_meters":9200,"station_id":"ce4bgup2rcd13ifvqcn0","pricing_plan_id":"cebpf4jnsgd1na2vs0mg"},{"bike_id":"c49c17dd-3e24-48a5-950a-a32baa7e537d","system_id":"levelo_inurba_marseille","lat":43.28618,"lon":5.35101,"is_reserved":false,"is_disabled":false,"rental_uris":{"android":"levelo://app?vid=c49c17dd-3e24-48a5-950a-a32baa7e537d","ios":"levelo://app?vid=c49c17dd-3e24-48a5-950a-a32baa7e537d"},"vehicle_type_id":"4","last_reported":1761937624,"current_range_meters":9200,"station_id":"ce4bhch2rcd13ifvqeug","pricing_plan_id":"cebpf4jnsgd1na2vs0mg"},{"bike_id":"46accb26-166f-449e-868b-f865607158e2","system_id":"levelo_inurba_marseille","lat":43.295221,"lon":5.390419,"is_reserved":false,"is_disabled":false,"rental_uris":{"android":"levelo://app?vid=46accb26-166f-449e-868b-f865607158e2","ios":"levelo://app?vid=46accb26-166f-449e-868b-f865607158e2"},"vehicle_type_id":"4","last_reported":1761937624,"current_range_meters":9200,"station_id":"ce4bh3p2rcd13ifvqdp0","pricing_plan_id":"cebpf4jnsgd1na2vs0mg"},{"bike_id":"4da9bbe3-8d87-4fd2-8825-53420d40d624","system_id":"levelo_inurba_marseille","lat":43.30149,"lon":5.37409,"is_reserved":false,"is_disabled":false,"rental_uris":{"android":"levelo://app?vid=4da9bbe3-8d87-4fd2-8825-53420d40d624","ios":"levelo://app?vid=4da9bbe3-8d87-4fd2-8825-53420d40d624"},"vehicle_type_id":"4","last_reported":1761937624,"current_range_meters":9200,"station_id":"ce4bgs92rcd13ifvqcc0","pricing_plan_id":"cebpf4jnsgd1na2vs0mg"},{"bike_id":"049ee272-8e46-4837-b2b7-cb28f1652d08","system_id":"levelo_inurba_marseille","lat":43.30463,"lon":5.39745,"is_reserved":false,"is_disabled":false,"rental_uris":{"android":"levelo://app?vid=049ee272-8e46-4837-b2b7-cb28f1652d08","ios":"levelo://app?vid=049ee272-8e46-4837-b2b7-cb28f1652d08"},"vehicle_type_id":"4","last_reported":1761937624,"current_range_meters":9200,"station_id":"ce4bh092rcd13ifvqd20","pricing_plan_id":"cebpf4jnsgd1na2vs0mg"},{"bike_id":"9b93b5e1-c939-4745-bf85-2d21945442dc","system_id":"levelo_inurba_marseille","lat":43.29989,"lon":5.36389,"is_reserved":false,"is_disabled":false,"rental_uris":{"android":"levelo://app?vid=9b93b5e1-c939-4745-bf85-2d21945442dc","ios":"levelo://app?vid=9b93b5e1-c939-4745-bf85-2d21945442dc"},"vehicle_type_id":"4","last_reported":1761937624,"current_range_meters":9600,"station_id":"","pricing_plan_id":"cebpf4jnsgd1na2vs0mg"},{"bike_id":"3121b9a1-bb89-47db-a15c-4c732eff79c6","system_id":"levelo_inurba_marseille","lat":43.30435,"lon":5.3974,"is_reserved":false,"is_disabled":false,"rental_uris":{"android":"levelo://app?vid=3121b9a1-bb89-47db-a15c-4c732eff79c6","ios":"levelo://app?vid=3121b9a1-bb89-47db-a15c-4c732eff79c6"},"vehicle_type_id":"4","last_reported":1761937624,"current_range_meters":9600,"station_id":"ce4bh092rcd13ifvqd20","pricing_plan_id":"cebpf4jnsgd1na2vs0mg"},{"bike_id":"c38d109c-f227-4eca-9460-52315bc47286","system_id":"levelo_inurba_marseille","lat":43.29279,"lon":5.3685,"is_reserved":false,"is_disabled":false,"rental_uris":{"android":"levelo://app?vid=c38d109c-f227-4eca-9460-52315bc47286","ios":"levelo://app?vid=c38d109c-f227-4eca-9460-52315bc47286"},"vehicle_type_id":"4","last_reported":1761937624,"current_range_meters":10000,"station_id":"ce4bhbp2rcd13ifvqesg","pricing_plan_id":"cebpf4jnsgd1na2vs0mg"},{"bike_id":"c6d01b11-c548-466a-8af4-5aed09d3e630","system_id":"levelo_inurba_marseille","lat":43.30883,"lon":5.39657,"is_reserved":false,"is_disabled":false,"rental_uris":{"android":"levelo://app?vid=c6d01b11-c548-466a-8af4-5aed09d3e630","ios":"levelo://app?vid=c6d01b11-c548-466a-8af4-5aed09d3e630"},"vehicle_type_id":"4","last_reported":1761937624,"current_range_meters":10000,"station_id":"ce4bh012rcd13ifvqcv0","pricing_plan_id":"cebpf4jnsgd1na2vs0mg"},{"bike_id":"137b5ebd-6460-4010-aeb9-d0fbe524a030","system_id":"levelo_inurba_marseille","lat":43.308919,"lon":5.371919,"is_reserved":false,"is_disabled":false,"rental_uris":{"android":"levelo://app?vid=137b5ebd-6460-4010-aeb9-d0fbe524a030","ios":"levelo://app?vid=137b5ebd-6460-4010-aeb9-d0fbe524a030"},"vehicle_type_id":"4","last_reported":1761937624,"current_range_meters":10000,"station_id":"ce4bguh2rcd13ifvqckg","pricing_plan_id":"cebpf4jnsgd1na2vs0mg"},{"bike_id":"f2a16810-af1a-499d-9ddd-ff04b1ee6343","system_id":"levelo_inurba_marseille","lat":43.28823,"lon":5.377651,"is_reserved":false,"is_disabled":false,"rental_uris":{"android":"levelo://app?vid=f2a16810-af1a-499d-9ddd-ff04b1ee6343","ios":"levelo://app?vid=f2a16810-af1a-499d-9ddd-ff04b1ee6343"},"vehicle_type_id":"4","last_reported":1761937624,"current_range_meters":10000,"station_id":"","pricing_plan_id":"cebpf4jnsgd1na2vs0mg"},{"bike_id":"8f7c4fdd-0688-44e9-b80c-478b504ee08b","system_id":"levelo_inurba_marseille","lat":43.29849,"lon":5.36285,"is_reserved":false,"is_disabled":false,"rental_uris":{"android":"levelo://app?vid=8f7c4fdd-0688-44e9-b80c-478b504ee08b","ios":"levelo://app?vid=8f7c4fdd-0688-44e9-b80c-478b504ee08b"},"vehicle_type_id":"4","last_reported":1761937624,"current_range_meters":10000,"station_id":"ce4bgpp2rcd13ifvqc3g","pricing_plan_id":"cebpf4jnsgd1na2vs0mg"},{"bike_id":"07994c72-bf44-43e1-8a8d-d1c2ed3fb617","system_id":"levelo_inurba_marseille","lat":43.2924,"lon":5.3832,"is_reserved":false,"is_disabled":false,"rental_uris":{"android":"levelo://app?vid=07994c72-bf44-43e1-8a8d-d1c2ed3fb617","ios":"levelo://app?vid=07994c72-bf44-43e1-8a8d-d1c2ed3fb617"},"vehicle_type_id":"4","last_reported":1761937624,"current_range_meters":10000,"station_id":"","pricing_plan_id":"cebpf4jnsgd1na2vs0mg"},{"bike_id":"904793d2-2986-40d7-8f5c-a7dd853cec40","system_id":"levelo_inurba_marseille","lat":43.30651,"lon":5.40099,"is_reserved":false,"is_disabled":false,"rental_uris":{"android":"levelo://app?vid=904793d2-2986-40d7-8f5c-a7dd853cec40","ios":"levelo://app?vid=904793d2-2986-40d7-8f5c-a7dd853cec40"},"vehicle_type_id":"4","last_reported":1761937624,"current_range_meters":10000,"station_id":"ce4bh112rcd13ifvqda0","pricing_plan_id":"cebpf4jnsgd1na2vs0mg"},{"bike_id":"1f7b7c7a-f8ad-47cd-bdfb-8b4115c59d75","system_id":"levelo_inurba_marseille","lat":43.2953,"lon":5.38533,"is_reserved":false,"is_disabled":false,"rental_uris":{"android":"levelo://app?vid=1f7b7c7a-f8ad-47cd-bdfb-8b4115c59d75","ios":"levelo://app?vid=1f7b7c7a-f8ad-47cd-bdfb-8b4115c59d75"},"vehicle_type_id":"4","last_reported":1761937624,"current_range_meters":10000,"station_id":"ce4bgih2rcd13ifvqba0","pricing_plan_id":"cebpf4jnsgd1na2vs0mg"},{"bike_id":"75735b9d-5864-4a0e-bd63-4a3d358016b3","system_id":"levelo_inurba_marseille","lat":43.301471,"lon":5.380831,"is_reserved":false,"is_disabled":false,"rental_uris":{"android":"levelo://app?vid=75735b9d-5864-4a0e-bd63-4a3d358016b3","ios":"levelo://app?vid=75735b9d-5864-4a0e-bd63-4a3d358016b3"},"vehicle_type_id":"4","last_reported":1761937624,"current_range_meters":10800,"station_id":"ce4bgjp2rcd13ifvqbh0","pricing_plan_id":"cebpf4jnsgd1na2vs0mg"},{"bike_id":"ee8a5af5-af71-4962-9618-1cf730393112","system_id":"levelo_inurba_marseille","lat":43.240838,"lon":5.377549,"is_reserved":false,"is_disabled":false,"rental_uris":{"android":"levelo://app?vid=ee8a5af5-af71-4962-9618-1cf730393112","ios":"levelo://app?vid=ee8a5af5-af71-4962-9618-1cf730393112"},"vehicle_type_id":"4","last_reported":1761937624,"current_range_meters":10800,"station_id":"ce4bhnp2rcd13ifvqgvg","pricing_plan_id":"cebpf4jnsgd1na2vs0mg"},{"bike_id":"5c5d9b31-7f69-40e1-b78a-53963cbff2d6","system_id":"levelo_inurba_marseille","lat":43.30885,"lon":5.39659,"is_reserved":false,"is_disabled":false,"rental_uris":{"android":"levelo://app?vid=5c5d9b31-7f69-40e1-b78a-53963cbff2d6","ios":"levelo://app?vid=5c5d9b31-7f69-40e1-b78a-53963cbff2d6"},"vehicle_type_id":"4","last_reported":1761937624,"current_range_meters":10800,"station_id":"ce4bh012rcd13ifvqcv0","pricing_plan_id":"cebpf4jnsgd1na2vs0mg"},{"bike_id":"848e0316-8bc1-4f4b-87e4-8aef8a4da505","system_id":"levelo_inurba_marseille","lat":43.30426,"lon":5.41288,"is_reserved":false,"is_disabled":false,"rental_uris":{"android":"levelo://app?vid=848e0316-8bc1-4f4b-87e4-8aef8a4da505","ios":"levelo://app?vid=848e0316-8bc1-4f4b-87e4-8aef8a4da505"},"vehicle_type_id":"4","last_reported":1761937624,"current_range_meters":10800,"station_id":"ce4bhop2rcd13ifvqh8g","pricing_plan_id":"cebpf4jnsgd1na2vs0mg"},{"bike_id":"046a1335-a486-4ea9-9d74-735f65499375","system_id":"levelo_inurba_marseille","lat":43.29252,"lon":5.38447,"is_reserved":false,"is_disabled":false,"rental_uris":{"android":"levelo://app?vid=046a1335-a486-4ea9-9d74-735f65499375","ios":"levelo://app?vid=046a1335-a486-4ea9-9d74-735f65499375"},"vehicle_type_id":"4","last_reported":1761937624,"current_range_meters":11200,"station_id":"ce4bh692rcd13ifvqea0","pricing_plan_id":"cebpf4jnsgd1na2vs0mg"},{"bike_id":"aa61a565-640a-4c32-92ec-2eba0893540a","system_id":"levelo_inurba_marseille","lat":43.306427,"lon":5.400967,"is_reserved":false,"is_disabled":false,"rental_uris":{"android":"levelo://app?vid=aa61a565-640a-4c32-92ec-2eba0893540a","ios":"levelo://app?vid=aa61a565-640a-4c32-92ec-2eba0893540a"},"vehicle_type_id":"4","last_reported":1761937624,"current_range_meters":11200,"station_id":"ce4bh112rcd13ifvqda0","pricing_plan_id":"cebpf4jnsgd1na2vs0mg"},{"bike_id":"2f477f8f-972b-406c-841a-14096d9c76ee","system_id":"levelo_inurba_marseille","lat":43.29755,"lon":5.42788,"is_reserved":false,"is_disabled":false,"rental_uris":{"android":"levelo://app?vid=2f477f8f-972b-406c-841a-14096d9c76ee","ios":"levelo://app?vid=2f477f8f-972b-406c-841a-14096d9c76ee"},"vehicle_type_id":"4","last_reported":1761937624,"current_range_meters":11200,"station_id":"st_d3md5207bmas73dh9klg","pricing_plan_id":"cebpf4jnsgd1na2vs0mg"},{"bike_id":"80c53fab-d9fd-4b9a-94e7-e3f3183e35da","system_id":"levelo_inurba_marseille","lat":43.33027,"lon":5.39042,"is_reserved":false,"is_disabled":false,"rental_uris":{"android":"levelo://app?vid=80c53fab-d9fd-4b9a-94e7-e3f3183e35da","ios":"levelo://app?vid=80c53fab-d9fd-4b9a-94e7-e3f3183e35da"},"vehicle_type_id":"4","last_reported":1761937624,"current_range_meters":11200,"station_id":"ce4bhr92rcd13ifvqhrg","pricing_plan_id":"cebpf4jnsgd1na2vs0mg"},{"bike_id":"f1cd398e-9670-4b6d-a65f-501ea2259c24","system_id":"levelo_inurba_marseille","lat":43.33607,"lon":5.41037,"is_reserved":false,"is_disabled":false,"rental_uris":{"android":"levelo://app?vid=f1cd398e-9670-4b6d-a65f-501ea2259c24","ios":"levelo://app?vid=f1cd398e-9670-4b6d-a65f-501ea2259c24"},"vehicle_type_id":"4","last_reported":1761937624,"current_range_meters":11200,"station_id":"ce4bhqh2rcd13ifvqhmg","pricing_plan_id":"cebpf4jnsgd1na2vs0mg"},{"bike_id":"70b7527d-67eb-4818-84c6-51aae343ca97","system_id":"levelo_inurba_marseille","lat":43.284675,"lon":5.484047,"is_reserved":false,"is_disabled":false,"rental_uris":{"android":"levelo://app?vid=70b7527d-67eb-4818-84c6-51aae343ca97","ios":"levelo://app?vid=70b7527d-67eb-4818-84c6-51aae343ca97"},"vehicle_type_id":"4","last_reported":1761937624,"current_range_meters":11200,"station_id":"st_d3svhcjqgbts73a3dn0g","pricing_plan_id":"cebpf4jnsgd1na2vs0mg"},{"bike_id":"df87f0c2-4d4f-4e68-8a2b-3150d17edb80","system_id":"levelo_inurba_marseille","lat":43.29253,"lon":5.38436,"is_reserved":false,"is_disabled":false,"rental_uris":{"android":"levelo://app?vid=df87f0c2-4d4f-4e68-8a2b-3150d17edb80","ios":"levelo://app?vid=df87f0c2-4d4f-4e68-8a2b-3150d17edb80"},"vehicle_type_id":"4","last_reported":1761937624,"current_range_meters":11200,"station_id":"ce4bh692rcd13ifvqea0","pricing_plan_id":"cebpf4jnsgd1na2vs0mg"},{"bike_id":"58e1cb3f-653f-418b-88a7-cb43e680f1d1","system_id":"levelo_inurba_marseille","lat":43.265821,"lon":5.390525,"is_reserved":false,"is_disabled":false,"rental_uris":{"android":"levelo://app?vid=58e1cb3f-653f-418b-88a7-cb43e680f1d1","ios":"levelo://app?vid=58e1cb3f-653f-418b-88a7-cb43e680f1d1"},"vehicle_type_id":"4","last_reported":1761937624,"current_range_meters":11200,"station_id":"ce4bhe12rcd13ifvqf30","pricing_plan_id":"cebpf4jnsgd1na2vs0mg"},{"bike_id":"07481ba1-eb21-453e-808c-aeff06cd3802","system_id":"levelo_inurba_marseille","lat":43.29792,"lon":5.38096,"is_reserved":false,"is_disabled":false,"rental_uris":{"android":"levelo://app?vid=07481ba1-eb21-453e-808c-aeff06cd3802","ios":"levelo://app?vid=07481ba1-eb21-453e-808c-aeff06cd3802"},"vehicle_type_id":"4","last_reported":1761937624,"current_range_meters":11200,"station_id":"ce4bgip2rcd13ifvqbb0","pricing_plan_id":"cebpf4jnsgd1na2vs0mg"},{"bike_id":"c146682f-7a97-4216-a11c-c898a2232e37","system_id":"levelo_inurba_marseille","lat":43.25337,"lon":5.4217,"is_reserved":false,"is_disabled":false,"rental_uris":{"android":"levelo://app?vid=c146682f-7a97-4216-a11c-c898a2232e37","ios":"levelo://app?vid=c146682f-7a97-4216-a11c-c898a2232e37"},"vehicle_type_id":"4","last_reported":1761937624,"current_range_meters":11600,"station_id":"st_d2m65c5bi1j21697t3ng","pricing_plan_id":"cebpf4jnsgd1na2vs0mg"},{"bike_id":"44380454-89e2-4b07-89dd-f2270434d08c","system_id":"levelo_inurba_marseille","lat":43.29449,"lon":5.39748,"is_reserved":false,"is_disabled":false,"rental_uris":{"android":"levelo://app?vid=44380454-89e2-4b07-89dd-f2270434d08c","ios":"levelo://app?vid=44380454-89e2-4b07-89dd-f2270434d08c"},"vehicle_type_id":"4","last_reported":1761937624,"current_range_meters":11600,"station_id":"ce4bh3h2rcd13ifvqdo0","pricing_plan_id":"cebpf4jnsgd1na2vs0mg"},{"bike_id":"f7f7a243-0c80-4b22-bbd7-7eb0f35e4377","system_id":"levelo_inurba_marseille","lat":43.30163,"lon":5.38099,"is_reserved":false,"is_disabled":false,"rental_uris":{"android":"levelo://app?vid=f7f7a243-0c80-4b22-bbd7-7eb0f35e4377","ios":"levelo://app?vid=f7f7a243-0c80-4b22-bbd7-7eb0f35e4377"},"vehicle_type_id":"4","last_reported":1761937624,"current_range_meters":11600,"station_id":"ce4bgjp2rcd13ifvqbh0","pricing_plan_id":"cebpf4jnsgd1na2vs0mg"},{"bike_id":"adecac78-4077-4196-8a54-5dc31e8aad7f","system_id":"levelo_inurba_marseille","lat":43.29294,"lon":5.37453,"is_reserved":false,"is_disabled":false,"rental_uris":{"android":"levelo://app?vid=adecac78-4077-4196-8a54-5dc31e8aad7f","ios":"levelo://app?vid=adecac78-4077-4196-8a54-5dc31e8aad7f"},"vehicle_type_id":"4","last_reported":1761937624,"current_range_meters":11600,"station_id":"ce4bgi12rcd13ifvqb70","pricing_plan_id":"cebpf4jnsgd1na2vs0mg"},{"bike_id":"f78656e7-544d-4efa-9f5c-77ee70c0c729","system_id":"levelo_inurba_marseille","lat":43.31181,"lon":5.38704,"is_reserved":false,"is_disabled":false,"rental_uris":{"android":"levelo://app?vid=f78656e7-544d-4efa-9f5c-77ee70c0c729","ios":"levelo://app?vid=f78656e7-544d-4efa-9f5c-77ee70c0c729"},"vehicle_type_id":"4","last_reported":1761937624,"current_range_meters":11600,"station_id":"ce4bgv12rcd13ifvqcp0","pricing_plan_id":"cebpf4jnsgd1na2vs0mg"},{"bike_id":"1213ff01-604d-4b83-b3a2-60440c4b245e","system_id":"levelo_inurba_marseille","lat":43.2378,"lon":5.36618,"is_reserved":false,"is_disabled":false,"rental_uris":{"android":"levelo://app?vid=1213ff01-604d-4b83-b3a2-60440c4b245e","ios":"levelo://app?vid=1213ff01-604d-4b83-b3a2-60440c4b245e"},"vehicle_type_id":"4","last_reported":1761937624,"current_range_meters":11600,"station_id":"st_d3nk18o9ro0c73en2l3g","pricing_plan_id":"cebpf4jnsgd1na2vs0mg"},{"bike_id":"c8b9d405-b0ff-4abd-9c2c-4ef8b1f474e6","system_id":"levelo_inurba_marseille","lat":43.29284,"lon":5.40116,"is_reserved":false,"is_disabled":false,"rental_uris":{"android":"levelo://app?vid=c8b9d405-b0ff-4abd-9c2c-4ef8b1f474e6","ios":"levelo://app?vid=c8b9d405-b0ff-4abd-9c2c-4ef8b1f474e6"},"vehicle_type_id":"4","last_reported":1761937624,"current_range_meters":11600,"station_id":"ce4bh312rcd13ifvqdk0","pricing_plan_id":"cebpf4jnsgd1na2vs0mg"},{"bike_id":"f487420b-f66a-4055-bf4a-8379d3093e9b","system_id":"levelo_inurba_marseille","lat":43.28077,"lon":5.39671,"is_reserved":false,"is_disabled":false,"rental_uris":{"android":"levelo://app?vid=f487420b-f66a-4055-bf4a-8379d3093e9b","ios":"levelo://app?vid=f487420b-f66a-4055-bf4a-8379d3093e9b"},"vehicle_type_id":"4","last_reported":1761937624,"current_range_meters":11600,"station_id":"ce4bho12rcd13ifvqh2g","pricing_plan_id":"cebpf4jnsgd1na2vs0mg"},{"bike_id":"bc517f03-71be-4f70-811d-a1223c25feb2","system_id":"levelo_inurba_marseille","lat":43.28368,"lon":5.38102,"is_reserved":false,"is_disabled":false,"rental_uris":{"android":"levelo://app?vid=bc517f03-71be-4f70-811d-a1223c25feb2","ios":"levelo://app?vid=bc517f03-71be-4f70-811d-a1223c25feb2"},"vehicle_type_id":"4","last_reported":1761937624,"current_range_meters":12000,"station_id":"ce4bh412rcd13ifvqdr0","pricing_plan_id":"cebpf4jnsgd1na2vs0mg"},{"bike_id":"e1374d14-ca8c-4d30-bf7a-1e91101e2cee","system_id":"levelo_inurba_marseille","lat":43.28545,"lon":5.44091,"is_reserved":false,"is_disabled":false,"rental_uris":{"android":"levelo://app?vid=e1374d14-ca8c-4d30-bf7a-1e91101e2cee","ios":"levelo://app?vid=e1374d14-ca8c-4d30-bf7a-1e91101e2cee"},"vehicle_type_id":"4","last_reported":1761937624,"current_range_meters":12000,"station_id":"st_d3j3df2ikq2c7380ej80","pricing_plan_id":"cebpf4jnsgd1na2vs0mg"},{"bike_id":"bb21024e-0823-4d5d-a0e4-5d663a413489","system_id":"levelo_inurba_marseille","lat":43.28868,"lon":5.42518,"is_reserved":false,"is_disabled":false,"rental_uris":{"android":"levelo://app?vid=bb21024e-0823-4d5d-a0e4-5d663a413489","ios":"levelo://app?vid=bb21024e-0823-4d5d-a0e4-5d663a413489"},"vehicle_type_id":"4","last_reported":1761937624,"current_range_meters":12000,"station_id":"st_d3b462108ojc7389ooeg","pricing_plan_id":"cebpf4jnsgd1na2vs0mg"},{"bike_id":"96ad2f8e-1ff0-415a-a84a-9186f2a5baf6","system_id":"levelo_inurba_marseille","lat":43.29606,"lon":5.37672,"is_reserved":false,"is_disabled":false,"rental_uris":{"android":"levelo://app?vid=96ad2f8e-1ff0-415a-a84a-9186f2a5baf6","ios":"levelo://app?vid=96ad2f8e-1ff0-415a-a84a-9186f2a5baf6"},"vehicle_type_id":"4","last_reported":1761937624,"current_range_meters":12000,"station_id":"ce4bgi12rcd13ifvqb80","pricing_plan_id":"cebpf4jnsgd1na2vs0mg"},{"bike_id":"46835159-5dd5-4fc9-a732-591f6a5307e4","system_id":"levelo_inurba_marseille","lat":43.31351,"lon":5.37912,"is_reserved":false,"is_disabled":false,"rental_uris":{"android":"levelo://app?vid=46835159-5dd5-4fc9-a732-591f6a5307e4","ios":"levelo://app?vid=46835159-5dd5-4fc9-a732-591f6a5307e4"},"vehicle_type_id":"4","last_reported":1761937624,"current_range_meters":12000,"station_id":"","pricing_plan_id":"cebpf4jnsgd1na2vs0mg"},{"bike_id":"8e61a1b0-b51e-4808-89e8-bacdad2c9db4","system_id":"levelo_inurba_marseille","lat":43.27557,"lon":5.38422,"is_reserved":false,"is_disabled":false,"rental_uris":{"android":"levelo://app?vid=8e61a1b0-b51e-4808-89e8-bacdad2c9db4","ios":"levelo://app?vid=8e61a1b0-b51e-4808-89e8-bacdad2c9db4"},"vehicle_type_id":"4","last_reported":1761937624,"current_range_meters":12000,"station_id":"ce4bhh92rcd13ifvqfi0","pricing_plan_id":"cebpf4jnsgd1na2vs0mg"},{"bike_id":"2a94ec77-e0b9-4271-87df-f50fb2e220f7","system_id":"levelo_inurba_marseille","lat":43.31692,"lon":5.37777,"is_reserved":false,"is_disabled":false,"rental_uris":{"android":"levelo://app?vid=2a94ec77-e0b9-4271-87df-f50fb2e220f7","ios":"levelo://app?vid=2a94ec77-e0b9-4271-87df-f50fb2e220f7"},"vehicle_type_id":"4","last_reported":1761937624,"current_range_meters":12000,"station_id":"ce4bgth2rcd13ifvqch0","pricing_plan_id":"cebpf4jnsgd1na2vs0mg"},{"bike_id":"cfe95386-912d-4bf5-abcf-83a4f7785b31","system_id":"levelo_inurba_marseille","lat":43.28157,"lon":5.4265,"is_reserved":false,"is_disabled":false,"rental_uris":{"android":"levelo://app?vid=cfe95386-912d-4bf5-abcf-83a4f7785b31","ios":"levelo://app?vid=cfe95386-912d-4bf5-abcf-83a4f7785b31"},"vehicle_type_id":"4","last_reported":1761937624,"current_range_meters":12000,"station_id":"ce4bhnh2rcd13ifvqgug","pricing_plan_id":"cebpf4jnsgd1na2vs0mg"},{"bike_id":"a86380f3-77ee-4331-b34f-9cce1fdbb425","system_id":"levelo_inurba_marseille","lat":43.26489,"lon":5.39538,"is_reserved":false,"is_disabled":false,"rental_uris":{"android":"levelo://app?vid=a86380f3-77ee-4331-b34f-9cce1fdbb425","ios":"levelo://app?vid=a86380f3-77ee-4331-b34f-9cce1fdbb425"},"vehicle_type_id":"4","last_reported":1761937624,"current_range_meters":12000,"station_id":"ce4bhi12rcd13ifvqfq0","pricing_plan_id":"cebpf4jnsgd1na2vs0mg"},{"bike_id":"ec53eff6-568f-4876-b1b7-7085cdef020c","system_id":"levelo_inurba_marseille","lat":43.29259,"lon":5.38448,"is_reserved":false,"is_disabled":false,"rental_uris":{"android":"levelo://app?vid=ec53eff6-568f-4876-b1b7-7085cdef020c","ios":"levelo://app?vid=ec53eff6-568f-4876-b1b7-7085cdef020c"},"vehicle_type_id":"4","last_reported":1761937624,"current_range_meters":12000,"station_id":"ce4bh692rcd13ifvqea0","pricing_plan_id":"cebpf4jnsgd1na2vs0mg"},{"bike_id":"7af2ea98-ce20-4954-bebb-ba5a49308a55","system_id":"levelo_inurba_marseille","lat":43.23788,"lon":5.36636,"is_reserved":false,"is_disabled":false,"rental_uris":{"android":"levelo://app?vid=7af2ea98-ce20-4954-bebb-ba5a49308a55","ios":"levelo://app?vid=7af2ea98-ce20-4954-bebb-ba5a49308a55"},"vehicle_type_id":"4","last_reported":1761937624,"current_range_meters":12000,"station_id":"st_d3nk18o9ro0c73en2l3g","pricing_plan_id":"cebpf4jnsgd1na2vs0mg"},{"bike_id":"2f40ac75-af66-4d6e-9d50-4ac1988ba465","system_id":"levelo_inurba_marseille","lat":43.30297,"lon":5.39216,"is_reserved":false,"is_disabled":false,"rental_uris":{"android":"levelo://app?vid=2f40ac75-af66-4d6e-9d50-4ac1988ba465","ios":"levelo://app?vid=2f40ac75-af66-4d6e-9d50-4ac1988ba465"},"vehicle_type_id":"4","last_reported":1761937624,"current_range_meters":12400,"station_id":"ce4bgkh2rcd13ifvqbk0","pricing_plan_id":"cebpf4jnsgd1na2vs0mg"},{"bike_id":"a4dac4fa-66e6-48be-a654-6e17cdc7ca0b","system_id":"levelo_inurba_marseille","lat":43.337571,"lon":5.374323,"is_reserved":false,"is_disabled":false,"rental_uris":{"android":"levelo://app?vid=a4dac4fa-66e6-48be-a654-6e17cdc7ca0b","ios":"levelo://app?vid=a4dac4fa-66e6-48be-a654-6e17cdc7ca0b"},"vehicle_type_id":"4","last_reported":1761937624,"current_range_meters":12400,"station_id":"","pricing_plan_id":"cebpf4jnsgd1na2vs0mg"},{"bike_id":"8a632559-d61b-4289-915b-e6215ea4bf27","system_id":"levelo_inurba_marseille","lat":43.323694,"lon":5.367554,"is_reserved":false,"is_disabled":false,"rental_uris":{"android":"levelo://app?vid=8a632559-d61b-4289-915b-e6215ea4bf27","ios":"levelo://app?vid=8a632559-d61b-4289-915b-e6215ea4bf27"},"vehicle_type_id":"4","last_reported":1761937624,"current_range_meters":12400,"station_id":"ce4bhsh2rcd13ifvqi2g","pricing_plan_id":"cebpf4jnsgd1na2vs0mg"},{"bike_id":"4d02e7b7-5a75-4b49-a051-517fdbdfdb50","system_id":"levelo_inurba_marseille","lat":43.32343,"lon":5.40609,"is_reserved":false,"is_disabled":false,"rental_uris":{"android":"levelo://app?vid=4d02e7b7-5a75-4b49-a051-517fdbdfdb50","ios":"levelo://app?vid=4d02e7b7-5a75-4b49-a051-517fdbdfdb50"},"vehicle_type_id":"4","last_reported":1761937624,"current_range_meters":12400,"station_id":"","pricing_plan_id":"cebpf4jnsgd1na2vs0mg"},{"bike_id":"cdb0f34d-1873-47e5-9008-0d84098965ae","system_id":"levelo_inurba_marseille","lat":43.27998,"lon":5.40018,"is_reserved":false,"is_disabled":false,"rental_uris":{"android":"levelo://app?vid=cdb0f34d-1873-47e5-9008-0d84098965ae","ios":"levelo://app?vid=cdb0f34d-1873-47e5-9008-0d84098965ae"},"vehicle_type_id":"4","last_reported":1761937624,"current_range_meters":12800,"station_id":"ce4bho92rcd13ifvqh4g","pricing_plan_id":"cebpf4jnsgd1na2vs0mg"},{"bike_id":"19700f25-adf5-45de-9e24-a1680a1a19ca","system_id":"levelo_inurba_marseille","lat":43.25097,"lon":5.39519,"is_reserved":false,"is_disabled":false,"rental_uris":{"android":"levelo://app?vid=19700f25-adf5-45de-9e24-a1680a1a19ca","ios":"levelo://app?vid=19700f25-adf5-45de-9e24-a1680a1a19ca"},"vehicle_type_id":"4","last_reported":1761937624,"current_range_meters":12800,"station_id":"ce4bhm12rcd13ifvqgkg","pricing_plan_id":"cebpf4jnsgd1na2vs0mg"},{"bike_id":"438104bc-9501-41ba-b15e-ac8c5ecf4bef","system_id":"levelo_inurba_marseille","lat":43.30132,"lon":5.38769,"is_reserved":false,"is_disabled":false,"rental_uris":{"android":"levelo://app?vid=438104bc-9501-41ba-b15e-ac8c5ecf4bef","ios":"levelo://app?vid=438104bc-9501-41ba-b15e-ac8c5ecf4bef"},"vehicle_type_id":"4","last_reported":1761937624,"current_range_meters":12800,"station_id":"ce4bghh2rcd13ifvqb60","pricing_plan_id":"cebpf4jnsgd1na2vs0mg"},{"bike_id":"2829c7de-14aa-4891-bee5-904e78845d87","system_id":"levelo_inurba_marseille","lat":43.312751,"lon":5.401741,"is_reserved":false,"is_disabled":false,"rental_uris":{"android":"levelo://app?vid=2829c7de-14aa-4891-bee5-904e78845d87","ios":"levelo://app?vid=2829c7de-14aa-4891-bee5-904e78845d87"},"vehicle_type_id":"4","last_reported":1761937624,"current_range_meters":12800,"station_id":"ce4bh092rcd13ifvqd30","pricing_plan_id":"cebpf4jnsgd1na2vs0mg"},{"bike_id":"c3cf2536-fdb8-48ce-817b-cd879e43e0db","system_id":"levelo_inurba_marseille","lat":43.308876,"lon":5.371919,"is_reserved":false,"is_disabled":false,"rental_uris":{"android":"levelo://app?vid=c3cf2536-fdb8-48ce-817b-cd879e43e0db","ios":"levelo://app?vid=c3cf2536-fdb8-48ce-817b-cd879e43e0db"},"vehicle_type_id":"4","last_reported":1761937624,"current_range_meters":13600,"station_id":"ce4bguh2rcd13ifvqckg","pricing_plan_id":"cebpf4jnsgd1na2vs0mg"},{"bike_id":"510aef2b-f7cd-47a8-af4c-abff43d05514","system_id":"levelo_inurba_marseille","lat":43.29976,"lon":5.38498,"is_reserved":false,"is_disabled":false,"rental_uris":{"android":"levelo://app?vid=510aef2b-f7cd-47a8-af4c-abff43d05514","ios":"levelo://app?vid=510aef2b-f7cd-47a8-af4c-abff43d05514"},"vehicle_type_id":"4","last_reported":1761937624,"current_range_meters":13600,"station_id":"ce4bgj92rcd13ifvqbd0","pricing_plan_id":"cebpf4jnsgd1na2vs0mg"},{"bike_id":"42e986d2-36be-4b0e-87e8-71dc3f97c04d","system_id":"levelo_inurba_marseille","lat":43.24672,"lon":5.38153,"is_reserved":false,"is_disabled":false,"rental_uris":{"android":"levelo://app?vid=42e986d2-36be-4b0e-87e8-71dc3f97c04d","ios":"levelo://app?vid=42e986d2-36be-4b0e-87e8-71dc3f97c04d"},"vehicle_type_id":"4","last_reported":1761937624,"current_range_meters":13600,"station_id":"ce4bhih2rcd13ifvqfr0","pricing_plan_id":"cebpf4jnsgd1na2vs0mg"},{"bike_id":"a4411a31-dc75-48de-8b4a-eee0e7dbe4d1","system_id":"levelo_inurba_marseille","lat":43.28161,"lon":5.42633,"is_reserved":false,"is_disabled":false,"rental_uris":{"android":"levelo://app?vid=a4411a31-dc75-48de-8b4a-eee0e7dbe4d1","ios":"levelo://app?vid=a4411a31-dc75-48de-8b4a-eee0e7dbe4d1"},"vehicle_type_id":"4","last_reported":1761937624,"current_range_meters":13600,"station_id":"ce4bhnh2rcd13ifvqgug","pricing_plan_id":"cebpf4jnsgd1na2vs0mg"},{"bike_id":"7307186f-7917-4361-930d-95b9ab1a0c43","system_id":"levelo_inurba_marseille","lat":43.29802,"lon":5.38083,"is_reserved":false,"is_disabled":false,"rental_uris":{"android":"levelo://app?vid=7307186f-7917-4361-930d-95b9ab1a0c43","ios":"levelo://app?vid=7307186f-7917-4361-930d-95b9ab1a0c43"},"vehicle_type_id":"4","last_reported":1761937624,"current_range_meters":13600,"station_id":"ce4bgip2rcd13ifvqbb0","pricing_plan_id":"cebpf4jnsgd1na2vs0mg"},{"bike_id":"aad6a064-c048-4ba9-a156-1745b89548aa","system_id":"levelo_inurba_marseille","lat":43.2831,"lon":5.41115,"is_reserved":false,"is_disabled":false,"rental_uris":{"android":"levelo://app?vid=aad6a064-c048-4ba9-a156-1745b89548aa","ios":"levelo://app?vid=aad6a064-c048-4ba9-a156-1745b89548aa"},"vehicle_type_id":"4","last_reported":1761937624,"current_range_meters":13600,"station_id":"","pricing_plan_id":"cebpf4jnsgd1na2vs0mg"},{"bike_id":"17c4d6b8-072b-4aea-994a-596dd01ada9d","system_id":"levelo_inurba_marseille","lat":43.29036,"lon":5.38631,"is_reserved":false,"is_disabled":false,"rental_uris":{"android":"levelo://app?vid=17c4d6b8-072b-4aea-994a-596dd01ada9d","ios":"levelo://app?vid=17c4d6b8-072b-4aea-994a-596dd01ada9d"},"vehicle_type_id":"4","last_reported":1761937624,"current_range_meters":13600,"station_id":"ce4bh4p2rcd13ifvqe0g","pricing_plan_id":"cebpf4jnsgd1na2vs0mg"},{"bike_id":"f3c139a8-6005-48db-ac9e-8f35ad24db6d","system_id":"levelo_inurba_marseille","lat":43.29256,"lon":5.38429,"is_reserved":false,"is_disabled":false,"rental_uris":{"android":"levelo://app?vid=f3c139a8-6005-48db-ac9e-8f35ad24db6d","ios":"levelo://app?vid=f3c139a8-6005-48db-ac9e-8f35ad24db6d"},"vehicle_type_id":"4","last_reported":1761937624,"current_range_meters":13600,"station_id":"ce4bh692rcd13ifvqea0","pricing_plan_id":"cebpf4jnsgd1na2vs0mg"},{"bike_id":"319b8584-93f2-449c-b056-ea3f20ebc971","system_id":"levelo_inurba_marseille","lat":43.28534,"lon":5.43003,"is_reserved":false,"is_disabled":false,"rental_uris":{"android":"levelo://app?vid=319b8584-93f2-449c-b056-ea3f20ebc971","ios":"levelo://app?vid=319b8584-93f2-449c-b056-ea3f20ebc971"},"vehicle_type_id":"4","last_reported":1761937624,"current_range_meters":13600,"station_id":"","pricing_plan_id":"cebpf4jnsgd1na2vs0mg"},{"bike_id":"b002f168-6d8a-4cd5-b7b7-da50dd11e3e9","system_id":"levelo_inurba_marseille","lat":43.27072,"lon":5.40305,"is_reserved":false,"is_disabled":false,"rental_uris":{"android":"levelo://app?vid=b002f168-6d8a-4cd5-b7b7-da50dd11e3e9","ios":"levelo://app?vid=b002f168-6d8a-4cd5-b7b7-da50dd11e3e9"},"vehicle_type_id":"4","last_reported":1761937624,"current_range_meters":14000,"station_id":"ce4bhk92rcd13ifvqgc0","pricing_plan_id":"cebpf4jnsgd1na2vs0mg"},{"bike_id":"6cd59db7-cb12-4301-8385-22b87d7a5cfd","system_id":"levelo_inurba_marseille","lat":43.28548,"lon":5.44098,"is_reserved":false,"is_disabled":false,"rental_uris":{"android":"levelo://app?vid=6cd59db7-cb12-4301-8385-22b87d7a5cfd","ios":"levelo://app?vid=6cd59db7-cb12-4301-8385-22b87d7a5cfd"},"vehicle_type_id":"4","last_reported":1761937624,"current_range_meters":14000,"station_id":"st_d3j3df2ikq2c7380ej80","pricing_plan_id":"cebpf4jnsgd1na2vs0mg"},{"bike_id":"4006aa9f-82bb-4dd6-80b6-4894bf617351","system_id":"levelo_inurba_marseille","lat":43.29521,"lon":5.37457,"is_reserved":false,"is_disabled":false,"rental_uris":{"android":"levelo://app?vid=4006aa9f-82bb-4dd6-80b6-4894bf617351","ios":"levelo://app?vid=4006aa9f-82bb-4dd6-80b6-4894bf617351"},"vehicle_type_id":"4","last_reported":1761937624,"current_range_meters":14000,"station_id":"","pricing_plan_id":"cebpf4jnsgd1na2vs0mg"},{"bike_id":"a74ca4e6-9019-4ce4-a364-7a22bd8e206a","system_id":"levelo_inurba_marseille","lat":43.26516,"lon":5.38525,"is_reserved":false,"is_disabled":false,"rental_uris":{"android":"levelo://app?vid=a74ca4e6-9019-4ce4-a364-7a22bd8e206a","ios":"levelo://app?vid=a74ca4e6-9019-4ce4-a364-7a22bd8e206a"},"vehicle_type_id":"4","last_reported":1761937624,"current_range_meters":14000,"station_id":"","pricing_plan_id":"cebpf4jnsgd1na2vs0mg"},{"bike_id":"63037add-beb3-4df6-ab64-6871ded0b6c6","system_id":"levelo_inurba_marseille","lat":43.28157,"lon":5.42646,"is_reserved":false,"is_disabled":false,"rental_uris":{"android":"levelo://app?vid=63037add-beb3-4df6-ab64-6871ded0b6c6","ios":"levelo://app?vid=63037add-beb3-4df6-ab64-6871ded0b6c6"},"vehicle_type_id":"4","last_reported":1761937624,"current_range_meters":14000,"station_id":"ce4bhnh2rcd13ifvqgug","pricing_plan_id":"cebpf4jnsgd1na2vs0mg"},{"bike_id":"c5498c64-63a7-4792-aa03-67c71fd003d3","system_id":"levelo_inurba_marseille","lat":43.27948,"lon":5.41047,"is_reserved":false,"is_disabled":false,"rental_uris":{"android":"levelo://app?vid=c5498c64-63a7-4792-aa03-67c71fd003d3","ios":"levelo://app?vid=c5498c64-63a7-4792-aa03-67c71fd003d3"},"vehicle_type_id":"4","last_reported":1761937624,"current_range_meters":14000,"station_id":"ce4bhnp2rcd13ifvqh0g","pricing_plan_id":"cebpf4jnsgd1na2vs0mg"},{"bike_id":"523713e0-3b79-444c-b403-f6ac4c4a4a77","system_id":"levelo_inurba_marseille","lat":43.29268,"lon":5.3845,"is_reserved":false,"is_disabled":false,"rental_uris":{"android":"levelo://app?vid=523713e0-3b79-444c-b403-f6ac4c4a4a77","ios":"levelo://app?vid=523713e0-3b79-444c-b403-f6ac4c4a4a77"},"vehicle_type_id":"4","last_reported":1761937624,"current_range_meters":14400,"station_id":"ce4bh692rcd13ifvqea0","pricing_plan_id":"cebpf4jnsgd1na2vs0mg"},{"bike_id":"8641dc16-4f8a-49bb-8d16-163cba45a42b","system_id":"levelo_inurba_marseille","lat":43.29259,"lon":5.38431,"is_reserved":false,"is_disabled":false,"rental_uris":{"android":"levelo://app?vid=8641dc16-4f8a-49bb-8d16-163cba45a42b","ios":"levelo://app?vid=8641dc16-4f8a-49bb-8d16-163cba45a42b"},"vehicle_type_id":"4","last_reported":1761937624,"current_range_meters":14400,"station_id":"ce4bh692rcd13ifvqea0","pricing_plan_id":"cebpf4jnsgd1na2vs0mg"},{"bike_id":"9c245696-f9bb-4e6b-b021-1e0fc5e14885","system_id":"levelo_inurba_marseille","lat":43.29255,"lon":5.38437,"is_reserved":false,"is_disabled":false,"rental_uris":{"android":"levelo://app?vid=9c245696-f9bb-4e6b-b021-1e0fc5e14885","ios":"levelo://app?vid=9c245696-f9bb-4e6b-b021-1e0fc5e14885"},"vehicle_type_id":"4","last_reported":1761937624,"current_range_meters":14400,"station_id":"ce4bh692rcd13ifvqea0","pricing_plan_id":"cebpf4jnsgd1na2vs0mg"},{"bike_id":"aad731fe-f402-47a2-a9e2-d1ab53621c21","system_id":"levelo_inurba_marseille","lat":43.23797,"lon":5.36632,"is_reserved":false,"is_disabled":false,"rental_uris":{"android":"levelo://app?vid=aad731fe-f402-47a2-a9e2-d1ab53621c21","ios":"levelo://app?vid=aad731fe-f402-47a2-a9e2-d1ab53621c21"},"vehicle_type_id":"4","last_reported":1761937624,"current_range_meters":14400,"station_id":"st_d3nk18o9ro0c73en2l3g","pricing_plan_id":"cebpf4jnsgd1na2vs0mg"},{"bike_id":"d3b96a45-0c36-482a-b421-c63df9f9d284","system_id":"levelo_inurba_marseille","lat":43.29264,"lon":5.38434,"is_reserved":false,"is_disabled":false,"rental_uris":{"android":"levelo://app?vid=d3b96a45-0c36-482a-b421-c63df9f9d284","ios":"levelo://app?vid=d3b96a45-0c36-482a-b421-c63df9f9d284"},"vehicle_type_id":"4","last_reported":1761937624,"current_range_meters":14400,"station_id":"ce4bh692rcd13ifvqea0","pricing_plan_id":"cebpf4jnsgd1na2vs0mg"},{"bike_id":"7bffe7d3-ee8f-44c7-a5bc-22d4f4db841d","system_id":"levelo_inurba_marseille","lat":43.31755,"lon":5.39008,"is_reserved":false,"is_disabled":false,"rental_uris":{"android":"levelo://app?vid=7bffe7d3-ee8f-44c7-a5bc-22d4f4db841d","ios":"levelo://app?vid=7bffe7d3-ee8f-44c7-a5bc-22d4f4db841d"},"vehicle_type_id":"4","last_reported":1761937624,"current_range_meters":14400,"station_id":"ce4bhqp2rcd13ifvqhng","pricing_plan_id":"cebpf4jnsgd1na2vs0mg"},{"bike_id":"455f34a8-58e4-4acc-b2e9-e37e3f8ee341","system_id":"levelo_inurba_marseille","lat":43.29536,"lon":5.38558,"is_reserved":false,"is_disabled":false,"rental_uris":{"android":"levelo://app?vid=455f34a8-58e4-4acc-b2e9-e37e3f8ee341","ios":"levelo://app?vid=455f34a8-58e4-4acc-b2e9-e37e3f8ee341"},"vehicle_type_id":"4","last_reported":1761937624,"current_range_meters":14400,"station_id":"ce4bgih2rcd13ifvqba0","pricing_plan_id":"cebpf4jnsgd1na2vs0mg"},{"bike_id":"119c0272-5e17-450d-b994-304071626f10","system_id":"levelo_inurba_marseille","lat":43.29266,"lon":5.38433,"is_reserved":false,"is_disabled":false,"rental_uris":{"android":"levelo://app?vid=119c0272-5e17-450d-b994-304071626f10","ios":"levelo://app?vid=119c0272-5e17-450d-b994-304071626f10"},"vehicle_type_id":"4","last_reported":1761937624,"current_range_meters":14400,"station_id":"ce4bh692rcd13ifvqea0","pricing_plan_id":"cebpf4jnsgd1na2vs0mg"},{"bike_id":"0dc930ae-88e6-493c-ab95-8df0b3ac1f8b","system_id":"levelo_inurba_marseille","lat":43.29879,"lon":5.43673,"is_reserved":false,"is_disabled":false,"rental_uris":{"android":"levelo://app?vid=0dc930ae-88e6-493c-ab95-8df0b3ac1f8b","ios":"levelo://app?vid=0dc930ae-88e6-493c-ab95-8df0b3ac1f8b"},"vehicle_type_id":"4","last_reported":1761937624,"current_range_meters":14800,"station_id":"ce4bhpp2rcd13ifvqhfg","pricing_plan_id":"cebpf4jnsgd1na2vs0mg"},{"bike_id":"449c74a0-6c1e-4b4e-8461-51d808c4e7c0","system_id":"levelo_inurba_marseille","lat":43.3176,"lon":5.39013,"is_reserved":false,"is_disabled":false,"rental_uris":{"android":"levelo://app?vid=449c74a0-6c1e-4b4e-8461-51d808c4e7c0","ios":"levelo://app?vid=449c74a0-6c1e-4b4e-8461-51d808c4e7c0"},"vehicle_type_id":"4","last_reported":1761937624,"current_range_meters":14800,"station_id":"ce4bhqp2rcd13ifvqhng","pricing_plan_id":"cebpf4jnsgd1na2vs0mg"},{"bike_id":"b2ce8e73-e59b-4d30-b8e2-e59e2e1e3b22","system_id":"levelo_inurba_marseille","lat":43.33775,"lon":5.37482,"is_reserved":false,"is_disabled":false,"rental_uris":{"android":"levelo://app?vid=b2ce8e73-e59b-4d30-b8e2-e59e2e1e3b22","ios":"levelo://app?vid=b2ce8e73-e59b-4d30-b8e2-e59e2e1e3b22"},"vehicle_type_id":"4","last_reported":1761937624,"current_range_meters":14800,"station_id":"","pricing_plan_id":"cebpf4jnsgd1na2vs0mg"},{"bike_id":"3ead910e-6d20-43ff-b430-acaa82febea4","system_id":"levelo_inurba_marseille","lat":43.293374,"lon":5.371627,"is_reserved":false,"is_disabled":false,"rental_uris":{"android":"levelo://app?vid=3ead910e-6d20-43ff-b430-acaa82febea4","ios":"levelo://app?vid=3ead910e-6d20-43ff-b430-acaa82febea4"},"vehicle_type_id":"4","last_reported":1761937624,"current_range_meters":14800,"station_id":"ce4bgh92rcd13ifvqb40","pricing_plan_id":"cebpf4jnsgd1na2vs0mg"},{"bike_id":"e7ead618-cc2b-4c53-bc61-330caff21889","system_id":"levelo_inurba_marseille","lat":43.25339,"lon":5.42154,"is_reserved":false,"is_disabled":false,"rental_uris":{"android":"levelo://app?vid=e7ead618-cc2b-4c53-bc61-330caff21889","ios":"levelo://app?vid=e7ead618-cc2b-4c53-bc61-330caff21889"},"vehicle_type_id":"4","last_reported":1761937624,"current_range_meters":14800,"station_id":"st_d2m65c5bi1j21697t3ng","pricing_plan_id":"cebpf4jnsgd1na2vs0mg"},{"bike_id":"ec464875-0f4a-497f-8ede-b1a2621e8aaf","system_id":"levelo_inurba_marseille","lat":43.30928,"lon":5.40144,"is_reserved":false,"is_disabled":false,"rental_uris":{"android":"levelo://app?vid=ec464875-0f4a-497f-8ede-b1a2621e8aaf","ios":"levelo://app?vid=ec464875-0f4a-497f-8ede-b1a2621e8aaf"},"vehicle_type_id":"4","last_reported":1761937624,"current_range_meters":14800,"station_id":"ce4bgvp2rcd13ifvqct0","pricing_plan_id":"cebpf4jnsgd1na2vs0mg"},{"bike_id":"c8b31ac9-fb2e-4719-928d-42439f30c01c","system_id":"levelo_inurba_marseille","lat":43.29602,"lon":5.38103,"is_reserved":false,"is_disabled":false,"rental_uris":{"android":"levelo://app?vid=c8b31ac9-fb2e-4719-928d-42439f30c01c","ios":"levelo://app?vid=c8b31ac9-fb2e-4719-928d-42439f30c01c"},"vehicle_type_id":"4","last_reported":1761937624,"current_range_meters":14800,"station_id":"ce4bgl12rcd13ifvqbo0","pricing_plan_id":"cebpf4jnsgd1na2vs0mg"},{"bike_id":"a55dc4e2-a635-4cc3-8fcb-f9c2ac694c17","system_id":"levelo_inurba_marseille","lat":43.29432,"lon":5.39748,"is_reserved":false,"is_disabled":false,"rental_uris":{"android":"levelo://app?vid=a55dc4e2-a635-4cc3-8fcb-f9c2ac694c17","ios":"levelo://app?vid=a55dc4e2-a635-4cc3-8fcb-f9c2ac694c17"},"vehicle_type_id":"4","last_reported":1761937624,"current_range_meters":15200,"station_id":"ce4bh3h2rcd13ifvqdo0","pricing_plan_id":"cebpf4jnsgd1na2vs0mg"},{"bike_id":"51da930d-9f2e-466f-8656-f19d4bcc8b60","system_id":"levelo_inurba_marseille","lat":43.30196,"lon":5.36623,"is_reserved":false,"is_disabled":false,"rental_uris":{"android":"levelo://app?vid=51da930d-9f2e-466f-8656-f19d4bcc8b60","ios":"levelo://app?vid=51da930d-9f2e-466f-8656-f19d4bcc8b60"},"vehicle_type_id":"4","last_reported":1761937624,"current_range_meters":15200,"station_id":"ce4bgrh2rcd13ifvqc8g","pricing_plan_id":"cebpf4jnsgd1na2vs0mg"},{"bike_id":"5a1a3f29-649a-4e51-8569-c7c858695985","system_id":"levelo_inurba_marseille","lat":43.29257,"lon":5.38445,"is_reserved":false,"is_disabled":false,"rental_uris":{"android":"levelo://app?vid=5a1a3f29-649a-4e51-8569-c7c858695985","ios":"levelo://app?vid=5a1a3f29-649a-4e51-8569-c7c858695985"},"vehicle_type_id":"4","last_reported":1761937624,"current_range_meters":15200,"station_id":"ce4bh692rcd13ifvqea0","pricing_plan_id":"cebpf4jnsgd1na2vs0mg"},{"bike_id":"b1e81361-2b17-4ef1-8a58-6def5753471b","system_id":"levelo_inurba_marseille","lat":43.33753,"lon":5.37484,"is_reserved":false,"is_disabled":false,"rental_uris":{"android":"levelo://app?vid=b1e81361-2b17-4ef1-8a58-6def5753471b","ios":"levelo://app?vid=b1e81361-2b17-4ef1-8a58-6def5753471b"},"vehicle_type_id":"4","last_reported":1761937624,"current_range_meters":15200,"station_id":"","pricing_plan_id":"cebpf4jnsgd1na2vs0mg"},{"bike_id":"26b9e370-206e-46cf-b64a-75078bc979a1","system_id":"levelo_inurba_marseille","lat":43.30315,"lon":5.36915,"is_reserved":false,"is_disabled":false,"rental_uris":{"android":"levelo://app?vid=26b9e370-206e-46cf-b64a-75078bc979a1","ios":"levelo://app?vid=26b9e370-206e-46cf-b64a-75078bc979a1"},"vehicle_type_id":"4","last_reported":1761937624,"current_range_meters":15200,"station_id":"ce4bgqh2rcd13ifvqc5g","pricing_plan_id":"cebpf4jnsgd1na2vs0mg"},{"bike_id":"7d3a8045-972a-498a-aced-1ae79d05e49c","system_id":"levelo_inurba_marseille","lat":43.27688,"lon":5.3887,"is_reserved":false,"is_disabled":false,"rental_uris":{"android":"levelo://app?vid=7d3a8045-972a-498a-aced-1ae79d05e49c","ios":"levelo://app?vid=7d3a8045-972a-498a-aced-1ae79d05e49c"},"vehicle_type_id":"4","last_reported":1761937624,"current_range_meters":15200,"station_id":"ce4bhi12rcd13ifvqfo0","pricing_plan_id":"cebpf4jnsgd1na2vs0mg"},{"bike_id":"52b117f2-4c01-4f66-887d-006722496528","system_id":"levelo_inurba_marseille","lat":43.3086,"lon":5.37142,"is_reserved":false,"is_disabled":false,"rental_uris":{"android":"levelo://app?vid=52b117f2-4c01-4f66-887d-006722496528","ios":"levelo://app?vid=52b117f2-4c01-4f66-887d-006722496528"},"vehicle_type_id":"4","last_reported":1761937624,"current_range_meters":15200,"station_id":"","pricing_plan_id":"cebpf4jnsgd1na2vs0mg"},{"bike_id":"8880e74f-69a6-415f-ad7a-6283909c5b52","system_id":"levelo_inurba_marseille","lat":43.28158,"lon":5.42652,"is_reserved":false,"is_disabled":false,"rental_uris":{"android":"levelo://app?vid=8880e74f-69a6-415f-ad7a-6283909c5b52","ios":"levelo://app?vid=8880e74f-69a6-415f-ad7a-6283909c5b52"},"vehicle_type_id":"4","last_reported":1761937624,"current_range_meters":15200,"station_id":"ce4bhnh2rcd13ifvqgug","pricing_plan_id":"cebpf4jnsgd1na2vs0mg"},{"bike_id":"3a644204-4cf0-4c7d-87c9-d392aea26a35","system_id":"levelo_inurba_marseille","lat":43.29529,"lon":5.39035,"is_reserved":false,"is_disabled":false,"rental_uris":{"android":"levelo://app?vid=3a644204-4cf0-4c7d-87c9-d392aea26a35","ios":"levelo://app?vid=3a644204-4cf0-4c7d-87c9-d392aea26a35"},"vehicle_type_id":"4","last_reported":1761937624,"current_range_meters":15200,"station_id":"ce4bh3p2rcd13ifvqdp0","pricing_plan_id":"cebpf4jnsgd1na2vs0mg"},{"bike_id":"9221d2ee-72c2-4402-b22d-ffdee8b1f2e3","system_id":"levelo_inurba_marseille","lat":43.29263,"lon":5.3844,"is_reserved":false,"is_disabled":false,"rental_uris":{"android":"levelo://app?vid=9221d2ee-72c2-4402-b22d-ffdee8b1f2e3","ios":"levelo://app?vid=9221d2ee-72c2-4402-b22d-ffdee8b1f2e3"},"vehicle_type_id":"4","last_reported":1761937624,"current_range_meters":15200,"station_id":"ce4bh692rcd13ifvqea0","pricing_plan_id":"cebpf4jnsgd1na2vs0mg"},{"bike_id":"9a2513e5-89a1-4655-809a-8b0e79879274","system_id":"levelo_inurba_marseille","lat":43.28864,"lon":5.42521,"is_reserved":false,"is_disabled":false,"rental_uris":{"android":"levelo://app?vid=9a2513e5-89a1-4655-809a-8b0e79879274","ios":"levelo://app?vid=9a2513e5-89a1-4655-809a-8b0e79879274"},"vehicle_type_id":"4","last_reported":1761937624,"current_range_meters":16000,"station_id":"st_d3b462108ojc7389ooeg","pricing_plan_id":"cebpf4jnsgd1na2vs0mg"},{"bike_id":"67e1b110-af18-4ceb-ac19-c7eb327c49fe","system_id":"levelo_inurba_marseille","lat":43.265625,"lon":5.390137,"is_reserved":false,"is_disabled":false,"rental_uris":{"android":"levelo://app?vid=67e1b110-af18-4ceb-ac19-c7eb327c49fe","ios":"levelo://app?vid=67e1b110-af18-4ceb-ac19-c7eb327c49fe"},"vehicle_type_id":"4","last_reported":1761937624,"current_range_meters":16000,"station_id":"ce4bhe12rcd13ifvqf30","pricing_plan_id":"cebpf4jnsgd1na2vs0mg"},{"bike_id":"719cab00-fc05-4a10-b7e7-f67576adad60","system_id":"levelo_inurba_marseille","lat":43.231543,"lon":5.437067,"is_reserved":false,"is_disabled":false,"rental_uris":{"android":"levelo://app?vid=719cab00-fc05-4a10-b7e7-f67576adad60","ios":"levelo://app?vid=719cab00-fc05-4a10-b7e7-f67576adad60"},"vehicle_type_id":"4","last_reported":1761937624,"current_range_meters":16000,"station_id":"ce4bhmp2rcd13ifvqgog","pricing_plan_id":"cebpf4jnsgd1na2vs0mg"},{"bike_id":"d6446781-8b1b-4dff-b5ff-e244759886aa","system_id":"levelo_inurba_marseille","lat":43.27971,"lon":5.41053,"is_reserved":false,"is_disabled":false,"rental_uris":{"android":"levelo://app?vid=d6446781-8b1b-4dff-b5ff-e244759886aa","ios":"levelo://app?vid=d6446781-8b1b-4dff-b5ff-e244759886aa"},"vehicle_type_id":"4","last_reported":1761937624,"current_range_meters":16000,"station_id":"ce4bhnp2rcd13ifvqh0g","pricing_plan_id":"cebpf4jnsgd1na2vs0mg"},{"bike_id":"3ab48a85-6112-4f4e-a3e2-ba74926db3ee","system_id":"levelo_inurba_marseille","lat":43.231814,"lon":5.3998,"is_reserved":false,"is_disabled":false,"rental_uris":{"android":"levelo://app?vid=3ab48a85-6112-4f4e-a3e2-ba74926db3ee","ios":"levelo://app?vid=3ab48a85-6112-4f4e-a3e2-ba74926db3ee"},"vehicle_type_id":"4","last_reported":1761937624,"current_range_meters":16400,"station_id":"ce4bhn12rcd13ifvqgqg","pricing_plan_id":"cebpf4jnsgd1na2vs0mg"},{"bike_id":"43185184-6bd6-4ef4-914d-fcbe02021410","system_id":"levelo_inurba_marseille","lat":43.28161,"lon":5.42646,"is_reserved":false,"is_disabled":false,"rental_uris":{"android":"levelo://app?vid=43185184-6bd6-4ef4-914d-fcbe02021410","ios":"levelo://app?vid=43185184-6bd6-4ef4-914d-fcbe02021410"},"vehicle_type_id":"4","last_reported":1761937624,"current_range_meters":16400,"station_id":"ce4bhnh2rcd13ifvqgug","pricing_plan_id":"cebpf4jnsgd1na2vs0mg"},{"bike_id":"8b032cc8-c06d-4881-a24b-2ba32be757e9","system_id":"levelo_inurba_marseille","lat":43.24661,"lon":5.381643,"is_reserved":false,"is_disabled":false,"rental_uris":{"android":"levelo://app?vid=8b032cc8-c06d-4881-a24b-2ba32be757e9","ios":"levelo://app?vid=8b032cc8-c06d-4881-a24b-2ba32be757e9"},"vehicle_type_id":"4","last_reported":1761937624,"current_range_meters":16400,"station_id":"ce4bhih2rcd13ifvqfr0","pricing_plan_id":"cebpf4jnsgd1na2vs0mg"},{"bike_id":"ad83d2a1-d676-4f5d-85ae-e5f95408a2ca","system_id":"levelo_inurba_marseille","lat":43.31357,"lon":5.3849,"is_reserved":false,"is_disabled":false,"rental_uris":{"android":"levelo://app?vid=ad83d2a1-d676-4f5d-85ae-e5f95408a2ca","ios":"levelo://app?vid=ad83d2a1-d676-4f5d-85ae-e5f95408a2ca"},"vehicle_type_id":"4","last_reported":1761937624,"current_range_meters":16400,"station_id":"ce4bgt92rcd13ifvqcf0","pricing_plan_id":"cebpf4jnsgd1na2vs0mg"},{"bike_id":"472a1028-9e29-4e6f-b089-eae1dc72cf56","system_id":"levelo_inurba_marseille","lat":43.23062,"lon":5.35494,"is_reserved":false,"is_disabled":false,"rental_uris":{"android":"levelo://app?vid=472a1028-9e29-4e6f-b089-eae1dc72cf56","ios":"levelo://app?vid=472a1028-9e29-4e6f-b089-eae1dc72cf56"},"vehicle_type_id":"4","last_reported":1761937624,"current_range_meters":16400,"station_id":"cpo3342slgdg3j2ifvpg","pricing_plan_id":"cebpf4jnsgd1na2vs0mg"},{"bike_id":"eadc9446-c4d5-401b-ae02-a39cea0189dd","system_id":"levelo_inurba_marseille","lat":43.29881,"lon":5.39731,"is_reserved":false,"is_disabled":false,"rental_uris":{"android":"levelo://app?vid=eadc9446-c4d5-401b-ae02-a39cea0189dd","ios":"levelo://app?vid=eadc9446-c4d5-401b-ae02-a39cea0189dd"},"vehicle_type_id":"4","last_reported":1761937624,"current_range_meters":16400,"station_id":"ce4bh0h2rcd13ifvqd50","pricing_plan_id":"cebpf4jnsgd1na2vs0mg"},{"bike_id":"2994d018-154d-4226-8150-a281dd0eb3c5","system_id":"levelo_inurba_marseille","lat":43.31278,"lon":5.40167,"is_reserved":false,"is_disabled":false,"rental_uris":{"android":"levelo://app?vid=2994d018-154d-4226-8150-a281dd0eb3c5","ios":"levelo://app?vid=2994d018-154d-4226-8150-a281dd0eb3c5"},"vehicle_type_id":"4","last_reported":1761937624,"current_range_meters":16400,"station_id":"ce4bh092rcd13ifvqd30","pricing_plan_id":"cebpf4jnsgd1na2vs0mg"},{"bike_id":"c3c1c483-20ab-4f2b-9219-ebcdc1fce33f","system_id":"levelo_inurba_marseille","lat":43.25109,"lon":5.4032,"is_reserved":false,"is_disabled":false,"rental_uris":{"android":"levelo://app?vid=c3c1c483-20ab-4f2b-9219-ebcdc1fce33f","ios":"levelo://app?vid=c3c1c483-20ab-4f2b-9219-ebcdc1fce33f"},"vehicle_type_id":"4","last_reported":1761937624,"current_range_meters":16400,"station_id":"ce4bhlh2rcd13ifvqgig","pricing_plan_id":"cebpf4jnsgd1na2vs0mg"},{"bike_id":"202e88b2-90d2-41aa-9e87-3c5e971e4e31","system_id":"levelo_inurba_marseille","lat":43.288147,"lon":5.391652,"is_reserved":false,"is_disabled":false,"rental_uris":{"android":"levelo://app?vid=202e88b2-90d2-41aa-9e87-3c5e971e4e31","ios":"levelo://app?vid=202e88b2-90d2-41aa-9e87-3c5e971e4e31"},"vehicle_type_id":"4","last_reported":1761937624,"current_range_meters":16400,"station_id":"","pricing_plan_id":"cebpf4jnsgd1na2vs0mg"},{"bike_id":"902cb9d8-ef70-438b-8a4e-f92339b55170","system_id":"levelo_inurba_marseille","lat":43.29254,"lon":5.3844,"is_reserved":false,"is_disabled":false,"rental_uris":{"android":"levelo://app?vid=902cb9d8-ef70-438b-8a4e-f92339b55170","ios":"levelo://app?vid=902cb9d8-ef70-438b-8a4e-f92339b55170"},"vehicle_type_id":"4","last_reported":1761937624,"current_range_meters":16400,"station_id":"ce4bh692rcd13ifvqea0","pricing_plan_id":"cebpf4jnsgd1na2vs0mg"},{"bike_id":"c54e575d-9d7e-42ed-9ec5-0e46002c13e0","system_id":"levelo_inurba_marseille","lat":43.30124,"lon":5.43118,"is_reserved":false,"is_disabled":false,"rental_uris":{"android":"levelo://app?vid=c54e575d-9d7e-42ed-9ec5-0e46002c13e0","ios":"levelo://app?vid=c54e575d-9d7e-42ed-9ec5-0e46002c13e0"},"vehicle_type_id":"4","last_reported":1761937624,"current_range_meters":16400,"station_id":"st_d3js3co5814s73ftftug","pricing_plan_id":"cebpf4jnsgd1na2vs0mg"},{"bike_id":"0b6929a6-5ddc-4c29-9f33-0c38bf4c0221","system_id":"levelo_inurba_marseille","lat":43.289706,"lon":5.378293,"is_reserved":false,"is_disabled":false,"rental_uris":{"android":"levelo://app?vid=0b6929a6-5ddc-4c29-9f33-0c38bf4c0221","ios":"levelo://app?vid=0b6929a6-5ddc-4c29-9f33-0c38bf4c0221"},"vehicle_type_id":"4","last_reported":1761937624,"current_range_meters":16400,"station_id":"ce4bh9p2rcd13ifvqed0","pricing_plan_id":"cebpf4jnsgd1na2vs0mg"},{"bike_id":"3e0d0073-614b-40b3-b03b-aa060578883c","system_id":"levelo_inurba_marseille","lat":43.29025,"lon":5.38613,"is_reserved":false,"is_disabled":false,"rental_uris":{"android":"levelo://app?vid=3e0d0073-614b-40b3-b03b-aa060578883c","ios":"levelo://app?vid=3e0d0073-614b-40b3-b03b-aa060578883c"},"vehicle_type_id":"4","last_reported":1761937624,"current_range_meters":16400,"station_id":"ce4bh4p2rcd13ifvqe0g","pricing_plan_id":"cebpf4jnsgd1na2vs0mg"},{"bike_id":"36a40590-ec8d-4911-b110-4cf64635fc24","system_id":"levelo_inurba_marseille","lat":43.29259,"lon":5.38439,"is_reserved":false,"is_disabled":false,"rental_uris":{"android":"levelo://app?vid=36a40590-ec8d-4911-b110-4cf64635fc24","ios":"levelo://app?vid=36a40590-ec8d-4911-b110-4cf64635fc24"},"vehicle_type_id":"4","last_reported":1761937624,"current_range_meters":16800,"station_id":"ce4bh692rcd13ifvqea0","pricing_plan_id":"cebpf4jnsgd1na2vs0mg"},{"bike_id":"e97bd841-a757-4f02-af2a-2c6920cfa105","system_id":"levelo_inurba_marseille","lat":43.28194,"lon":5.42623,"is_reserved":false,"is_disabled":false,"rental_uris":{"android":"levelo://app?vid=e97bd841-a757-4f02-af2a-2c6920cfa105","ios":"levelo://app?vid=e97bd841-a757-4f02-af2a-2c6920cfa105"},"vehicle_type_id":"4","last_reported":1761937624,"current_range_meters":16800,"station_id":"ce4bhnh2rcd13ifvqgug","pricing_plan_id":"cebpf4jnsgd1na2vs0mg"},{"bike_id":"e04f332d-b41c-47fd-b12f-6fdc7d63f429","system_id":"levelo_inurba_marseille","lat":43.30835,"lon":5.38267,"is_reserved":false,"is_disabled":false,"rental_uris":{"android":"levelo://app?vid=e04f332d-b41c-47fd-b12f-6fdc7d63f429","ios":"levelo://app?vid=e04f332d-b41c-47fd-b12f-6fdc7d63f429"},"vehicle_type_id":"4","last_reported":1761937624,"current_range_meters":16800,"station_id":"","pricing_plan_id":"cebpf4jnsgd1na2vs0mg"},{"bike_id":"ced8b747-e5ab-4e7a-b1f4-22a1ebc20f6f","system_id":"levelo_inurba_marseille","lat":43.30781,"lon":5.37647,"is_reserved":false,"is_disabled":true,"rental_uris":{"android":"levelo://app?vid=ced8b747-e5ab-4e7a-b1f4-22a1ebc20f6f","ios":"levelo://app?vid=ced8b747-e5ab-4e7a-b1f4-22a1ebc20f6f"},"vehicle_type_id":"4","last_reported":1761937624,"current_range_meters":16800,"station_id":"ce4bgv92rcd13ifvqcq0","pricing_plan_id":"cebpf4jnsgd1na2vs0mg"},{"bike_id":"a5a16550-6fb4-48f8-8a89-89ded033084f","system_id":"levelo_inurba_marseille","lat":43.281581,"lon":5.426487,"is_reserved":false,"is_disabled":false,"rental_uris":{"android":"levelo://app?vid=a5a16550-6fb4-48f8-8a89-89ded033084f","ios":"levelo://app?vid=a5a16550-6fb4-48f8-8a89-89ded033084f"},"vehicle_type_id":"4","last_reported":1761937624,"current_range_meters":16800,"station_id":"ce4bhnh2rcd13ifvqgug","pricing_plan_id":"cebpf4jnsgd1na2vs0mg"},{"bike_id":"5f6c0a8d-e2ad-48fd-b50a-a8d4b3fee249","system_id":"levelo_inurba_marseille","lat":43.31331,"lon":5.39697,"is_reserved":false,"is_disabled":false,"rental_uris":{"android":"levelo://app?vid=5f6c0a8d-e2ad-48fd-b50a-a8d4b3fee249","ios":"levelo://app?vid=5f6c0a8d-e2ad-48fd-b50a-a8d4b3fee249"},"vehicle_type_id":"4","last_reported":1761937624,"current_range_meters":16800,"station_id":"ce4bgvp2rcd13ifvqcu0","pricing_plan_id":"cebpf4jnsgd1na2vs0mg"},{"bike_id":"c42de068-ba0a-471e-b3b4-17e367f4671b","system_id":"levelo_inurba_marseille","lat":43.29511,"lon":5.39033,"is_reserved":false,"is_disabled":false,"rental_uris":{"android":"levelo://app?vid=c42de068-ba0a-471e-b3b4-17e367f4671b","ios":"levelo://app?vid=c42de068-ba0a-471e-b3b4-17e367f4671b"},"vehicle_type_id":"4","last_reported":1761937624,"current_range_meters":16800,"station_id":"ce4bh3p2rcd13ifvqdp0","pricing_plan_id":"cebpf4jnsgd1na2vs0mg"},{"bike_id":"5329277d-b696-4f32-9412-95d13ccb7cbb","system_id":"levelo_inurba_marseille","lat":43.29811,"lon":5.43996,"is_reserved":false,"is_disabled":false,"rental_uris":{"android":"levelo://app?vid=5329277d-b696-4f32-9412-95d13ccb7cbb","ios":"levelo://app?vid=5329277d-b696-4f32-9412-95d13ccb7cbb"},"vehicle_type_id":"4","last_reported":1761937624,"current_range_meters":16800,"station_id":"st_d3jp68qikq2c7381ktn0","pricing_plan_id":"cebpf4jnsgd1na2vs0mg"},{"bike_id":"c2807477-fd8d-44ed-9bdc-b3f90f0cbde0","system_id":"levelo_inurba_marseille","lat":43.31891,"lon":5.39982,"is_reserved":false,"is_disabled":false,"rental_uris":{"android":"levelo://app?vid=c2807477-fd8d-44ed-9bdc-b3f90f0cbde0","ios":"levelo://app?vid=c2807477-fd8d-44ed-9bdc-b3f90f0cbde0"},"vehicle_type_id":"4","last_reported":1761937624,"current_range_meters":16800,"station_id":"","pricing_plan_id":"cebpf4jnsgd1na2vs0mg"},{"bike_id":"eb8c6547-3774-4981-abd5-573d8d97310d","system_id":"levelo_inurba_marseille","lat":43.28077,"lon":5.39658,"is_reserved":false,"is_disabled":false,"rental_uris":{"android":"levelo://app?vid=eb8c6547-3774-4981-abd5-573d8d97310d","ios":"levelo://app?vid=eb8c6547-3774-4981-abd5-573d8d97310d"},"vehicle_type_id":"4","last_reported":1761937624,"current_range_meters":16800,"station_id":"ce4bho12rcd13ifvqh2g","pricing_plan_id":"cebpf4jnsgd1na2vs0mg"},{"bike_id":"98d10a64-5b1c-423c-87e7-a8af1618811d","system_id":"levelo_inurba_marseille","lat":43.29537,"lon":5.38534,"is_reserved":false,"is_disabled":false,"rental_uris":{"android":"levelo://app?vid=98d10a64-5b1c-423c-87e7-a8af1618811d","ios":"levelo://app?vid=98d10a64-5b1c-423c-87e7-a8af1618811d"},"vehicle_type_id":"4","last_reported":1761937624,"current_range_meters":16800,"station_id":"ce4bgih2rcd13ifvqba0","pricing_plan_id":"cebpf4jnsgd1na2vs0mg"},{"bike_id":"8000bf8a-5bbb-48af-8109-6b78556226f1","system_id":"levelo_inurba_marseille","lat":43.29262,"lon":5.38438,"is_reserved":false,"is_disabled":false,"rental_uris":{"android":"levelo://app?vid=8000bf8a-5bbb-48af-8109-6b78556226f1","ios":"levelo://app?vid=8000bf8a-5bbb-48af-8109-6b78556226f1"},"vehicle_type_id":"4","last_reported":1761937624,"current_range_meters":17200,"station_id":"ce4bh692rcd13ifvqea0","pricing_plan_id":"cebpf4jnsgd1na2vs0mg"},{"bike_id":"77cb26a1-52f9-40bd-b524-f34c2c796d9a","system_id":"levelo_inurba_marseille","lat":43.27838,"lon":5.39206,"is_reserved":false,"is_disabled":false,"rental_uris":{"android":"levelo://app?vid=77cb26a1-52f9-40bd-b524-f34c2c796d9a","ios":"levelo://app?vid=77cb26a1-52f9-40bd-b524-f34c2c796d9a"},"vehicle_type_id":"4","last_reported":1761937624,"current_range_meters":17200,"station_id":"ce4bhjp2rcd13ifvqga0","pricing_plan_id":"cebpf4jnsgd1na2vs0mg"},{"bike_id":"fe731e5b-2a0a-4ca3-b8a5-84120d1e2023","system_id":"levelo_inurba_marseille","lat":43.248015,"lon":5.374546,"is_reserved":false,"is_disabled":false,"rental_uris":{"android":"levelo://app?vid=fe731e5b-2a0a-4ca3-b8a5-84120d1e2023","ios":"levelo://app?vid=fe731e5b-2a0a-4ca3-b8a5-84120d1e2023"},"vehicle_type_id":"4","last_reported":1761937624,"current_range_meters":17200,"station_id":"ce4bho92rcd13ifvqh4g","pricing_plan_id":"cebpf4jnsgd1na2vs0mg"},{"bike_id":"c04ea6ec-c85d-4b9a-aa74-f0de2415a6d2","system_id":"levelo_inurba_marseille","lat":43.31582,"lon":5.38374,"is_reserved":false,"is_disabled":false,"rental_uris":{"android":"levelo://app?vid=c04ea6ec-c85d-4b9a-aa74-f0de2415a6d2","ios":"levelo://app?vid=c04ea6ec-c85d-4b9a-aa74-f0de2415a6d2"},"vehicle_type_id":"4","last_reported":1761937624,"current_range_meters":17200,"station_id":"","pricing_plan_id":"cebpf4jnsgd1na2vs0mg"},{"bike_id":"4fd9f5aa-a2d3-48e0-aee2-704d6db584ac","system_id":"levelo_inurba_marseille","lat":43.254997,"lon":5.376498,"is_reserved":false,"is_disabled":false,"rental_uris":{"android":"levelo://app?vid=4fd9f5aa-a2d3-48e0-aee2-704d6db584ac","ios":"levelo://app?vid=4fd9f5aa-a2d3-48e0-aee2-704d6db584ac"},"vehicle_type_id":"4","last_reported":1761937624,"current_range_meters":17200,"station_id":"ce4bhh12rcd13ifvqff0","pricing_plan_id":"cebpf4jnsgd1na2vs0mg"},{"bike_id":"a52d6c36-34c4-44d8-be2f-4926d387c817","system_id":"levelo_inurba_marseille","lat":43.29537,"lon":5.38542,"is_reserved":false,"is_disabled":false,"rental_uris":{"android":"levelo://app?vid=a52d6c36-34c4-44d8-be2f-4926d387c817","ios":"levelo://app?vid=a52d6c36-34c4-44d8-be2f-4926d387c817"},"vehicle_type_id":"4","last_reported":1761937624,"current_range_meters":17600,"station_id":"ce4bgih2rcd13ifvqba0","pricing_plan_id":"cebpf4jnsgd1na2vs0mg"},{"bike_id":"6e47d07f-a213-4ab9-be32-be9f167e419b","system_id":"levelo_inurba_marseille","lat":43.279418,"lon":5.410508,"is_reserved":false,"is_disabled":false,"rental_uris":{"android":"levelo://app?vid=6e47d07f-a213-4ab9-be32-be9f167e419b","ios":"levelo://app?vid=6e47d07f-a213-4ab9-be32-be9f167e419b"},"vehicle_type_id":"4","last_reported":1761937624,"current_range_meters":17600,"station_id":"ce4bhnp2rcd13ifvqh0g","pricing_plan_id":"cebpf4jnsgd1na2vs0mg"},{"bike_id":"f4138efc-7778-4d94-abf8-053b4cd27475","system_id":"levelo_inurba_marseille","lat":43.23199,"lon":5.35548,"is_reserved":false,"is_disabled":false,"rental_uris":{"android":"levelo://app?vid=f4138efc-7778-4d94-abf8-053b4cd27475","ios":"levelo://app?vid=f4138efc-7778-4d94-abf8-053b4cd27475"},"vehicle_type_id":"4","last_reported":1761937624,"current_range_meters":17600,"station_id":"ce4bhu92rcd13ifvqi70","pricing_plan_id":"cebpf4jnsgd1na2vs0mg"},{"bike_id":"6da830a8-111a-4fc5-a34c-ced64d9d2dc3","system_id":"levelo_inurba_marseille","lat":43.30619,"lon":5.39361,"is_reserved":false,"is_disabled":true,"rental_uris":{"android":"levelo://app?vid=6da830a8-111a-4fc5-a34c-ced64d9d2dc3","ios":"levelo://app?vid=6da830a8-111a-4fc5-a34c-ced64d9d2dc3"},"vehicle_type_id":"4","last_reported":1761937624,"current_range_meters":17600,"station_id":"ce4bh0p2rcd13ifvqd80","pricing_plan_id":"cebpf4jnsgd1na2vs0mg"},{"bike_id":"97ab2cfd-962c-4c10-9621-eed2d49b259d","system_id":"levelo_inurba_marseille","lat":43.26188,"lon":5.37469,"is_reserved":false,"is_disabled":false,"rental_uris":{"android":"levelo://app?vid=97ab2cfd-962c-4c10-9621-eed2d49b259d","ios":"levelo://app?vid=97ab2cfd-962c-4c10-9621-eed2d49b259d"},"vehicle_type_id":"4","last_reported":1761937624,"current_range_meters":17600,"station_id":"ce4bhgp2rcd13ifvqfc0","pricing_plan_id":"cebpf4jnsgd1na2vs0mg"},{"bike_id":"fbcc5886-69e3-488f-96fd-e45314a075e6","system_id":"levelo_inurba_marseille","lat":43.28871,"lon":5.42515,"is_reserved":false,"is_disabled":false,"rental_uris":{"android":"levelo://app?vid=fbcc5886-69e3-488f-96fd-e45314a075e6","ios":"levelo://app?vid=fbcc5886-69e3-488f-96fd-e45314a075e6"},"vehicle_type_id":"4","last_reported":1761937624,"current_range_meters":17600,"station_id":"st_d3b462108ojc7389ooeg","pricing_plan_id":"cebpf4jnsgd1na2vs0mg"},{"bike_id":"4e54111d-f227-41f6-8c56-6e1811feaf6c","system_id":"levelo_inurba_marseille","lat":43.29241,"lon":5.38453,"is_reserved":false,"is_disabled":false,"rental_uris":{"android":"levelo://app?vid=4e54111d-f227-41f6-8c56-6e1811feaf6c","ios":"levelo://app?vid=4e54111d-f227-41f6-8c56-6e1811feaf6c"},"vehicle_type_id":"4","last_reported":1761937624,"current_range_meters":17600,"station_id":"ce4bh692rcd13ifvqea0","pricing_plan_id":"cebpf4jnsgd1na2vs0mg"},{"bike_id":"6248c83a-e2fb-475b-bca1-f257957314d3","system_id":"levelo_inurba_marseille","lat":43.297994,"lon":5.380828,"is_reserved":false,"is_disabled":false,"rental_uris":{"android":"levelo://app?vid=6248c83a-e2fb-475b-bca1-f257957314d3","ios":"levelo://app?vid=6248c83a-e2fb-475b-bca1-f257957314d3"},"vehicle_type_id":"4","last_reported":1761937624,"current_range_meters":17600,"station_id":"","pricing_plan_id":"cebpf4jnsgd1na2vs0mg"},{"bike_id":"2dd8674b-f416-441c-b99c-92b52121bd0a","system_id":"levelo_inurba_marseille","lat":43.29758,"lon":5.36979,"is_reserved":false,"is_disabled":false,"rental_uris":{"android":"levelo://app?vid=2dd8674b-f416-441c-b99c-92b52121bd0a","ios":"levelo://app?vid=2dd8674b-f416-441c-b99c-92b52121bd0a"},"vehicle_type_id":"4","last_reported":1761937624,"current_range_meters":18000,"station_id":"","pricing_plan_id":"cebpf4jnsgd1na2vs0mg"},{"bike_id":"cdd112f3-6912-49dd-9e7f-dbb25c44d0bb","system_id":"levelo_inurba_marseille","lat":43.29761,"lon":5.42776,"is_reserved":false,"is_disabled":false,"rental_uris":{"android":"levelo://app?vid=cdd112f3-6912-49dd-9e7f-dbb25c44d0bb","ios":"levelo://app?vid=cdd112f3-6912-49dd-9e7f-dbb25c44d0bb"},"vehicle_type_id":"4","last_reported":1761937624,"current_range_meters":18000,"station_id":"st_d3md5207bmas73dh9klg","pricing_plan_id":"cebpf4jnsgd1na2vs0mg"},{"bike_id":"aacdb29d-19ac-42e4-a52f-55cdffbe66d3","system_id":"levelo_inurba_marseille","lat":43.30139,"lon":5.38062,"is_reserved":false,"is_disabled":false,"rental_uris":{"android":"levelo://app?vid=aacdb29d-19ac-42e4-a52f-55cdffbe66d3","ios":"levelo://app?vid=aacdb29d-19ac-42e4-a52f-55cdffbe66d3"},"vehicle_type_id":"4","last_reported":1761937624,"current_range_meters":18000,"station_id":"ce4bgjp2rcd13ifvqbh0","pricing_plan_id":"cebpf4jnsgd1na2vs0mg"},{"bike_id":"0089665c-d050-4f0d-8d27-e9a6af9208fc","system_id":"levelo_inurba_marseille","lat":43.30256,"lon":5.38047,"is_reserved":false,"is_disabled":false,"rental_uris":{"android":"levelo://app?vid=0089665c-d050-4f0d-8d27-e9a6af9208fc","ios":"levelo://app?vid=0089665c-d050-4f0d-8d27-e9a6af9208fc"},"vehicle_type_id":"4","last_reported":1761937624,"current_range_meters":18000,"station_id":"","pricing_plan_id":"cebpf4jnsgd1na2vs0mg"},{"bike_id":"b35896a0-ed01-46a1-9bfb-413ede6fd355","system_id":"levelo_inurba_marseille","lat":43.24662,"lon":5.38162,"is_reserved":false,"is_disabled":false,"rental_uris":{"android":"levelo://app?vid=b35896a0-ed01-46a1-9bfb-413ede6fd355","ios":"levelo://app?vid=b35896a0-ed01-46a1-9bfb-413ede6fd355"},"vehicle_type_id":"4","last_reported":1761937624,"current_range_meters":18000,"station_id":"ce4bhih2rcd13ifvqfr0","pricing_plan_id":"cebpf4jnsgd1na2vs0mg"},{"bike_id":"252ff558-e70b-4ae0-9044-acc668b445bb","system_id":"levelo_inurba_marseille","lat":43.212,"lon":5.35076,"is_reserved":false,"is_disabled":false,"rental_uris":{"android":"levelo://app?vid=252ff558-e70b-4ae0-9044-acc668b445bb","ios":"levelo://app?vid=252ff558-e70b-4ae0-9044-acc668b445bb"},"vehicle_type_id":"4","last_reported":1761937624,"current_range_meters":18000,"station_id":"st_cvj6sg6p6f1abm77japg","pricing_plan_id":"cebpf4jnsgd1na2vs0mg"},{"bike_id":"38472dd5-3884-4e27-926c-94aa986e12a3","system_id":"levelo_inurba_marseille","lat":43.29548,"lon":5.38535,"is_reserved":false,"is_disabled":false,"rental_uris":{"android":"levelo://app?vid=38472dd5-3884-4e27-926c-94aa986e12a3","ios":"levelo://app?vid=38472dd5-3884-4e27-926c-94aa986e12a3"},"vehicle_type_id":"4","last_reported":1761937624,"current_range_meters":18000,"station_id":"ce4bgih2rcd13ifvqba0","pricing_plan_id":"cebpf4jnsgd1na2vs0mg"},{"bike_id":"3708e1d2-c0c2-45b9-9650-3c749e33056e","system_id":"levelo_inurba_marseille","lat":43.25085,"lon":5.39506,"is_reserved":false,"is_disabled":false,"rental_uris":{"android":"levelo://app?vid=3708e1d2-c0c2-45b9-9650-3c749e33056e","ios":"levelo://app?vid=3708e1d2-c0c2-45b9-9650-3c749e33056e"},"vehicle_type_id":"4","last_reported":1761937624,"current_range_meters":18000,"station_id":"ce4bhm12rcd13ifvqgkg","pricing_plan_id":"cebpf4jnsgd1na2vs0mg"},{"bike_id":"7a40df5c-50cc-4a80-bd27-e690d1783ee8","system_id":"levelo_inurba_marseille","lat":43.32102,"lon":5.36781,"is_reserved":false,"is_disabled":false,"rental_uris":{"android":"levelo://app?vid=7a40df5c-50cc-4a80-bd27-e690d1783ee8","ios":"levelo://app?vid=7a40df5c-50cc-4a80-bd27-e690d1783ee8"},"vehicle_type_id":"4","last_reported":1761937624,"current_range_meters":18000,"station_id":"ce4bhrh2rcd13ifvqhug","pricing_plan_id":"cebpf4jnsgd1na2vs0mg"},{"bike_id":"d452d34c-d4bc-48b1-a676-b04c892b33ad","system_id":"levelo_inurba_marseille","lat":43.2953,"lon":5.38545,"is_reserved":false,"is_disabled":false,"rental_uris":{"android":"levelo://app?vid=d452d34c-d4bc-48b1-a676-b04c892b33ad","ios":"levelo://app?vid=d452d34c-d4bc-48b1-a676-b04c892b33ad"},"vehicle_type_id":"4","last_reported":1761937624,"current_range_meters":18000,"station_id":"ce4bgih2rcd13ifvqba0","pricing_plan_id":"cebpf4jnsgd1na2vs0mg"},{"bike_id":"8019bc24-b6f0-4979-bef8-1dc343436602","system_id":"levelo_inurba_marseille","lat":43.29257,"lon":5.3844,"is_reserved":false,"is_disabled":false,"rental_uris":{"android":"levelo://app?vid=8019bc24-b6f0-4979-bef8-1dc343436602","ios":"levelo://app?vid=8019bc24-b6f0-4979-bef8-1dc343436602"},"vehicle_type_id":"4","last_reported":1761937624,"current_range_meters":18800,"station_id":"ce4bh692rcd13ifvqea0","pricing_plan_id":"cebpf4jnsgd1na2vs0mg"},{"bike_id":"e99bbc46-f639-459e-b0f8-ebe59ffb3ad8","system_id":"levelo_inurba_marseille","lat":43.293,"lon":5.37459,"is_reserved":false,"is_disabled":false,"rental_uris":{"android":"levelo://app?vid=e99bbc46-f639-459e-b0f8-ebe59ffb3ad8","ios":"levelo://app?vid=e99bbc46-f639-459e-b0f8-ebe59ffb3ad8"},"vehicle_type_id":"4","last_reported":1761937624,"current_range_meters":18800,"station_id":"ce4bgi12rcd13ifvqb70","pricing_plan_id":"cebpf4jnsgd1na2vs0mg"},{"bike_id":"0b951a33-8ea4-4d55-9b90-e84b0ed21ff0","system_id":"levelo_inurba_marseille","lat":43.29251,"lon":5.38431,"is_reserved":false,"is_disabled":true,"rental_uris":{"android":"levelo://app?vid=0b951a33-8ea4-4d55-9b90-e84b0ed21ff0","ios":"levelo://app?vid=0b951a33-8ea4-4d55-9b90-e84b0ed21ff0"},"vehicle_type_id":"4","last_reported":1761937624,"current_range_meters":18800,"station_id":"ce4bh692rcd13ifvqea0","pricing_plan_id":"cebpf4jnsgd1na2vs0mg"},{"bike_id":"c5db70ab-1e13-4605-a511-e85b60dd06f7","system_id":"levelo_inurba_marseille","lat":43.295179,"lon":5.39034,"is_reserved":false,"is_disabled":false,"rental_uris":{"android":"levelo://app?vid=c5db70ab-1e13-4605-a511-e85b60dd06f7","ios":"levelo://app?vid=c5db70ab-1e13-4605-a511-e85b60dd06f7"},"vehicle_type_id":"4","last_reported":1761937624,"current_range_meters":18800,"station_id":"ce4bh3p2rcd13ifvqdp0","pricing_plan_id":"cebpf4jnsgd1na2vs0mg"},{"bike_id":"66f13624-e16c-422a-aa07-350c57ad6a56","system_id":"levelo_inurba_marseille","lat":43.30307,"lon":5.36912,"is_reserved":false,"is_disabled":false,"rental_uris":{"android":"levelo://app?vid=66f13624-e16c-422a-aa07-350c57ad6a56","ios":"levelo://app?vid=66f13624-e16c-422a-aa07-350c57ad6a56"},"vehicle_type_id":"4","last_reported":1761937624,"current_range_meters":18800,"station_id":"ce4bgqh2rcd13ifvqc5g","pricing_plan_id":"cebpf4jnsgd1na2vs0mg"},{"bike_id":"a62c8899-99d3-4b36-998e-f99186dfc0b8","system_id":"levelo_inurba_marseille","lat":43.27831,"lon":5.39196,"is_reserved":false,"is_disabled":false,"rental_uris":{"android":"levelo://app?vid=a62c8899-99d3-4b36-998e-f99186dfc0b8","ios":"levelo://app?vid=a62c8899-99d3-4b36-998e-f99186dfc0b8"},"vehicle_type_id":"4","last_reported":1761937624,"current_range_meters":18800,"station_id":"ce4bhjp2rcd13ifvqga0","pricing_plan_id":"cebpf4jnsgd1na2vs0mg"},{"bike_id":"0c3bfe72-1bfa-4fe4-8ec1-abc531b0b6c5","system_id":"levelo_inurba_marseille","lat":43.26546,"lon":5.37301,"is_reserved":false,"is_disabled":true,"rental_uris":{"android":"levelo://app?vid=0c3bfe72-1bfa-4fe4-8ec1-abc531b0b6c5","ios":"levelo://app?vid=0c3bfe72-1bfa-4fe4-8ec1-abc531b0b6c5"},"vehicle_type_id":"4","last_reported":1761937624,"current_range_meters":18800,"station_id":"ce4bhg12rcd13ifvqf70","pricing_plan_id":"cebpf4jnsgd1na2vs0mg"},{"bike_id":"8cd646ad-77e4-428a-a692-93a8970c245d","system_id":"levelo_inurba_marseille","lat":43.30438,"lon":5.39858,"is_reserved":false,"is_disabled":false,"rental_uris":{"android":"levelo://app?vid=8cd646ad-77e4-428a-a692-93a8970c245d","ios":"levelo://app?vid=8cd646ad-77e4-428a-a692-93a8970c245d"},"vehicle_type_id":"4","last_reported":1761937624,"current_range_meters":18800,"station_id":"ce4bhbh2rcd13ifvqeqg","pricing_plan_id":"cebpf4jnsgd1na2vs0mg"},{"bike_id":"f9a376bb-e16d-419c-884a-492ffebe4f2f","system_id":"levelo_inurba_marseille","lat":43.25338,"lon":5.42158,"is_reserved":false,"is_disabled":false,"rental_uris":{"android":"levelo://app?vid=f9a376bb-e16d-419c-884a-492ffebe4f2f","ios":"levelo://app?vid=f9a376bb-e16d-419c-884a-492ffebe4f2f"},"vehicle_type_id":"4","last_reported":1761937624,"current_range_meters":18800,"station_id":"st_d2m65c5bi1j21697t3ng","pricing_plan_id":"cebpf4jnsgd1na2vs0mg"},{"bike_id":"23e74654-c6b6-4808-9a7b-3df075e37d1c","system_id":"levelo_inurba_marseille","lat":43.309265,"lon":5.37163,"is_reserved":false,"is_disabled":false,"rental_uris":{"android":"levelo://app?vid=23e74654-c6b6-4808-9a7b-3df075e37d1c","ios":"levelo://app?vid=23e74654-c6b6-4808-9a7b-3df075e37d1c"},"vehicle_type_id":"4","last_reported":1761937624,"current_range_meters":18800,"station_id":"ce4bguh2rcd13ifvqckg","pricing_plan_id":"cebpf4jnsgd1na2vs0mg"},{"bike_id":"cd863979-95f7-4e5c-a2c4-d0799c22e8f1","system_id":"levelo_inurba_marseille","lat":43.28868,"lon":5.4252,"is_reserved":false,"is_disabled":false,"rental_uris":{"android":"levelo://app?vid=cd863979-95f7-4e5c-a2c4-d0799c22e8f1","ios":"levelo://app?vid=cd863979-95f7-4e5c-a2c4-d0799c22e8f1"},"vehicle_type_id":"4","last_reported":1761937624,"current_range_meters":18800,"station_id":"st_d3b462108ojc7389ooeg","pricing_plan_id":"cebpf4jnsgd1na2vs0mg"},