{"last_updated":1703088450,"ttl":30,"version":"2.2","data":{"bikes":[{"bike_id":"06200de9-b54a-4d19-839e-e15513ea2dc5","system_id":"levelo_inurba_marseille","lat":43.31341,"lon":5.367098,"is_reserved":false,"is_disabled":false,"rental_uris":{"android":"levelo://app?vid=06200de9-b54a-4d19-839e-e15513ea2dc5","ios":"levelo://app?vid=06200de9-b54a-4d19-839e-e15513ea2dc5"},"vehicle_type_id":"4","last_reported":1703088450,"current_range_meters":31600,"station_id":"ce4bgr92rcd13ifvqc6g","pricing_plan_id":"free"},{"bike_id":"15c7edea-86ab-4b62-9286-30eaeca9bae0","system_id":"levelo_inurba_marseille","lat":43.31341,"lon":5.367098,"is_reserved":false,"is_disabled":false,"rental_uris":{"android":"levelo://app?vid=15c7edea-86ab-4b62-9286-30eaeca9bae0","ios":"levelo://app?vid=15c7edea-86ab-4b62-9286-30eaeca9bae0"},"vehicle_type_id":"4","last_reported":1703088450,"current_range_meters":31600,"station_id":"ce4bgr92rcd13ifvqc6g","pricing_plan_id":"free"},{"bike_id":"5581df76-9eaa-4cb1-9e64-a029de783903","system_id":"levelo_inurba_marseille","lat":43.31341,"lon":5.367098,"is_reserved":false,"is_disabled":false,"rental_uris":{"android":"levelo://app?vid=5581df76-9eaa-4cb1-9e64-a029de783903","ios":"levelo://app?vid=5581df76-9eaa-4cb1-9e64-a029de783903"},"vehicle_type_id":"4","last_reported":1703088450,"current_range_meters":31200,"station_id":"ce4bgr92rcd13ifvqc6g","pricing_plan_id":"free"},{"bike_id":"385c4116-b7eb-4dc1-8ab8-4cd9cad30c5b","system_id":"levelo_inurba_marseille","lat":43.31341,"lon":5.367098,"is_reserved":false,"is_disabled":false,"rental_uris":{"android":"levelo://app?vid=385c4116-b7eb-4dc1-8ab8-4cd9cad30c5b","ios":"levelo://app?vid=385c4116-b7eb-4dc1-8ab8-4cd9cad30c5b"},"vehicle_type_id":"4","last_reported":1703088450,"current_range_meters":31600,"station_id":"ce4bgr92rcd13ifvqc6g","pricing_plan_id":"free"},{"bike_id":"dc02301a-e25b-4088-96c9-2c95bbdc42aa","system_id":"levelo_inurba_marseille","lat":43.31341,"lon":5.367098,"is_reserved":false,"is_disabled":false,"rental_uris":{"android":"levelo://app?vid=dc02301a-e25b-4088-96c9-2c95bbdc42aa","ios":"levelo://app?vid=dc02301a-e25b-4088-96c9-2c95bbdc42aa"},"vehicle_type_id":"4","last_reported":1703088450,"current_range_meters":31600,"station_id":"ce4bgr92rcd13ifvqc6g","pricing_plan_id":"free"},{"bike_id":"9d52a925-323b-4a5e-9c24-9e0718f8c66b","system_id":"levelo_inurba_marseille","lat":43.313391,"lon":5.36706,"is_reserved":false,"is_disabled":false,"rental_uris":{"android":"levelo://app?vid=9d52a925-323b-4a5e-9c24-9e0718f8c66b","ios":"levelo://app?vid=9d52a925-323b-4a5e-9c24-9e0718f8c66b"},"vehicle_type_id":"4","last_reported":1703088450,"current_range_meters":31200,"station_id":"ce4bgr92rcd13ifvqc6g","pricing_plan_id":"free"},{"bike_id":"c85993cf-56a9-4974-93ef-b2f2282f54b8","system_id":"levelo_inurba_marseille","lat":43.313391,"lon":5.36706,"is_reserved":false,"is_disabled":false,"rental_uris":{"android":"levelo://app?vid=c85993cf-56a9-4974-93ef-b2f2282f54b8","ios":"levelo://app?vid=c85993cf-56a9-4974-93ef-b2f2282f54b8"},"vehicle_type_id":"4","last_reported":1703088450,"current_range_meters":18000,"station_id":"ce4bgr92rcd13ifvqc6g","pricing_plan_id":"free"},{"bike_id":"c5e2906e-a12b-49a2-9196-ab926cf8a9a4","system_id":"levelo_inurba_marseille","lat":43.31341,"lon":5.367098,"is_reserved":false,"is_disabled":false,"rental_uris":{"android":"levelo://app?vid=c5e2906e-a12b-49a2-9196-ab926cf8a9a4","ios":"levelo://app?vid=c5e2906e-a12b-49a2-9196-ab926cf8a9a4"},"vehicle_type_id":"4","last_reported":1703088450,"current_range_meters":31600,"station_id":"ce4bgr92rcd13ifvqc6g","pricing_plan_id":"free"},{"bike_id":"86521b66-fd6f-4efd-8e38-0fbeb1b6ed02","system_id":"levelo_inurba_marseille","lat":43.313391,"lon":5.36706,"is_reserved":false,"is_disabled":false,"rental_uris":{"android":"levelo://app?vid=86521b66-fd6f-4efd-8e38-0fbeb1b6ed02","ios":"levelo://app?vid=86521b66-fd6f-4efd-8e38-0fbeb1b6ed02"},"vehicle_type_id":"4","last_reported":1703088450,"current_range_meters":22800,"station_id":"ce4bgr92rcd13ifvqc6g","pricing_plan_id":"free"},{"bike_id":"5bf53713-9015-41ac-a733-030d364b249e","system_id":"levelo_inurba_marseille","lat":43.313391,"lon":5.36706,"is_reserved":false,"is_disabled":false,"rental_uris":{"android":"levelo://app?vid=5bf53713-9015-41ac-a733-030d364b249e","ios":"levelo://app?vid=5bf53713-9015-41ac-a733-030d364b249e"},"vehicle_type_id":"4","last_reported":1703088450,"current_range_meters":29600,"station_id":"ce4bgr92rcd13ifvqc6g","pricing_plan_id":"free"},{"bike_id":"b02f8698-ab43-4514-915c-7ac2039754d7","system_id":"levelo_inurba_marseille","lat":43.313391,"lon":5.36706,"is_reserved":false,"is_disabled":false,"rental_uris":{"android":"levelo://app?vid=b02f8698-ab43-4514-915c-7ac2039754d7","ios":"levelo://app?vid=b02f8698-ab43-4514-915c-7ac2039754d7"},"vehicle_type_id":"4","last_reported":1703088450,"current_range_meters":31200,"station_id":"ce4bgr92rcd13ifvqc6g","pricing_plan_id":"free"},{"bike_id":"82e35af4-c944-4279-b6c1-893491be7416","system_id":"levelo_inurba_marseille","lat":43.31341,"lon":5.367098,"is_reserved":false,"is_disabled":false,"rental_uris":{"android":"levelo://app?vid=82e35af4-c944-4279-b6c1-893491be7416","ios":"levelo://app?vid=82e35af4-c944-4279-b6c1-893491be7416"},"vehicle_type_id":"4","last_reported":1703088450,"current_range_meters":24000,"station_id":"ce4bgr92rcd13ifvqc6g","pricing_plan_id":"free"},{"bike_id":"66f0e7f5-f8eb-41dd-9cd3-e0f5d2e2a63e","system_id":"levelo_inurba_marseille","lat":43.312239,"lon":5.368562,"is_reserved":false,"is_disabled":false,"rental_uris":{"android":"levelo://app?vid=66f0e7f5-f8eb-41dd-9cd3-e0f5d2e2a63e","ios":"levelo://app?vid=66f0e7f5-f8eb-41dd-9cd3-e0f5d2e2a63e"},"vehicle_type_id":"4","last_reported":1703088450,"current_range_meters":2800,"station_id":"ce4bgl92rcd13ifvqbq0","pricing_plan_id":"free"},{"bike_id":"cdc1f6b5-253b-459c-867e-da6142322fdc","system_id":"levelo_inurba_marseille","lat":43.312239,"lon":5.368562,"is_reserved":false,"is_disabled":false,"rental_uris":{"android":"levelo://app?vid=cdc1f6b5-253b-459c-867e-da6142322fdc","ios":"levelo://app?vid=cdc1f6b5-253b-459c-867e-da6142322fdc"},"vehicle_type_id":"4","last_reported":1703088450,"current_range_meters":24000,"station_id":"ce4bgl92rcd13ifvqbq0","pricing_plan_id":"free"},{"bike_id":"ecab8d7a-222b-49b7-bf56-4db35f6b0661","system_id":"levelo_inurba_marseille","lat":43.312239,"lon":5.368562,"is_reserved":false,"is_disabled":false,"rental_uris":{"android":"levelo://app?vid=ecab8d7a-222b-49b7-bf56-4db35f6b0661","ios":"levelo://app?vid=ecab8d7a-222b-49b7-bf56-4db35f6b0661"},"vehicle_type_id":"4","last_reported":1703088450,"current_range_meters":26400,"station_id":"ce4bgl92rcd13ifvqbq0","pricing_plan_id":"free"},{"bike_id":"4aff95af-45e2-49b1-83fe-ad7f5fa6667c","system_id":"levelo_inurba_marseille","lat":43.309076,"lon":5.368465,"is_reserved":false,"is_disabled":false,"rental_uris":{"android":"levelo://app?vid=4aff95af-45e2-49b1-83fe-ad7f5fa6667c","ios":"levelo://app?vid=4aff95af-45e2-49b1-83fe-ad7f5fa6667c"},"vehicle_type_id":"4","last_reported":1703088450,"current_range_meters":31600,"station_id":"ce4bgn92rcd13ifvqbvg","pricing_plan_id":"free"},{"bike_id":"71695d16-2724-44d4-aaec-bf4108e95c6c","system_id":"levelo_inurba_marseille","lat":43.309076,"lon":5.368465,"is_reserved":false,"is_disabled":false,"rental_uris":{"android":"levelo://app?vid=71695d16-2724-44d4-aaec-bf4108e95c6c","ios":"levelo://app?vid=71695d16-2724-44d4-aaec-bf4108e95c6c"},"vehicle_type_id":"4","last_reported":1703088450,"current_range_meters":26800,"station_id":"ce4bgn92rcd13ifvqbvg","pricing_plan_id":"free"},{"bike_id":"d5013e67-4f54-4b69-8096-5313eda02c7e","system_id":"levelo_inurba_marseille","lat":43.309076,"lon":5.368465,"is_reserved":false,"is_disabled":false,"rental_uris":{"android":"levelo://app?vid=d5013e67-4f54-4b69-8096-5313eda02c7e","ios":"levelo://app?vid=d5013e67-4f54-4b69-8096-5313eda02c7e"},"vehicle_type_id":"4","last_reported":1703088450,"current_range_meters":4000,"station_id":"ce4bgn92rcd13ifvqbvg","pricing_plan_id":"free"},{"bike_id":"1c9c2674-9e54-4819-b17d-e04022c180db","system_id":"levelo_inurba_marseille","lat":43.309076,"lon":5.368465,"is_reserved":false,"is_disabled":false,"rental_uris":{"android":"levelo://app?vid=1c9c2674-9e54-4819-b17d-e04022c180db","ios":"levelo://app?vid=1c9c2674-9e54-4819-b17d-e04022c180db"},"vehicle_type_id":"4","last_reported":1703088450,"current_range_meters":30000,"station_id":"ce4bgn92rcd13ifvqbvg","pricing_plan_id":"free"},{"bike_id":"19d7187c-8b68-43b4-a011-e2111c86d3f4","system_id":"levelo_inurba_marseille","lat":43.309076,"lon":5.368465,"is_reserved":false,"is_disabled":false,"rental_uris":{"android":"levelo://app?vid=19d7187c-8b68-43b4-a011-e2111c86d3f4","ios":"levelo://app?vid=19d7187c-8b68-43b4-a011-e2111c86d3f4"},"vehicle_type_id":"4","last_reported":1703088450,"current_range_meters":26400,"station_id":"ce4bgn92rcd13ifvqbvg","pricing_plan_id":"free"},{"bike_id":"4657fffc-ee94-4a82-ac10-6b95d387b3a3","system_id":"levelo_inurba_marseille","lat":43.309076,"lon":5.368465,"is_reserved":false,"is_disabled":false,"rental_uris":{"android":"levelo://app?vid=4657fffc-ee94-4a82-ac10-6b95d387b3a3","ios":"levelo://app?vid=4657fffc-ee94-4a82-ac10-6b95d387b3a3"},"vehicle_type_id":"4","last_reported":1703088450,"current_range_meters":31200,"station_id":"ce4bgn92rcd13ifvqbvg","pricing_plan_id":"free"},{"bike_id":"0b89114b-a6ca-45dc-9d4c-85ed82f7dc86","system_id":"levelo_inurba_marseille","lat":43.309039,"lon":5.371797,"is_reserved":false,"is_disabled":false,"rental_uris":{"android":"levelo://app?vid=0b89114b-a6ca-45dc-9d4c-85ed82f7dc86","ios":"levelo://app?vid=0b89114b-a6ca-45dc-9d4c-85ed82f7dc86"},"vehicle_type_id":"4","last_reported":1703088450,"current_range_meters":20400,"station_id":"ce4bguh2rcd13ifvqckg","pricing_plan_id":"free"},{"bike_id":"eb3fadf3-21d9-48f2-ab63-560549d6dcf2","system_id":"levelo_inurba_marseille","lat":43.30555,"lon":5.365554,"is_reserved":false,"is_disabled":false,"rental_uris":{"android":"levelo://app?vid=eb3fadf3-21d9-48f2-ab63-560549d6dcf2","ios":"levelo://app?vid=eb3fadf3-21d9-48f2-ab63-560549d6dcf2"},"vehicle_type_id":"4","last_reported":1703088450,"current_range_meters":15200,"station_id":"ce4bgs12rcd13ifvqcag","pricing_plan_id":"free"},{"bike_id":"9295717f-16be-4fcc-aeba-151f05f9458c","system_id":"levelo_inurba_marseille","lat":43.30537,"lon":5.367345,"is_reserved":false,"is_disabled":false,"rental_uris":{"android":"levelo://app?vid=9295717f-16be-4fcc-aeba-151f05f9458c","ios":"levelo://app?vid=9295717f-16be-4fcc-aeba-151f05f9458c"},"vehicle_type_id":"4","last_reported":1703088450,"current_range_meters":22400,"station_id":"ce4bgrp2rcd13ifvqc9g","pricing_plan_id":"free"},{"bike_id":"f2315ef5-ffbc-455f-a42c-3e14e585ca88","system_id":"levelo_inurba_marseille","lat":43.305368,"lon":5.367343,"is_reserved":false,"is_disabled":false,"rental_uris":{"android":"levelo://app?vid=f2315ef5-ffbc-455f-a42c-3e14e585ca88","ios":"levelo://app?vid=f2315ef5-ffbc-455f-a42c-3e14e585ca88"},"vehicle_type_id":"4","last_reported":1703088450,"current_range_meters":31200,"station_id":"ce4bgrp2rcd13ifvqc9g","pricing_plan_id":"free"},{"bike_id":"0d72f583-b998-476d-9f0c-db6900b6039b","system_id":"levelo_inurba_marseille","lat":43.305533,"lon":5.365313,"is_reserved":false,"is_disabled":false,"rental_uris":{"android":"levelo://app?vid=0d72f583-b998-476d-9f0c-db6900b6039b","ios":"levelo://app?vid=0d72f583-b998-476d-9f0c-db6900b6039b"},"vehicle_type_id":"4","last_reported":1703088450,"current_range_meters":26400,"station_id":"ce4bgs12rcd13ifvqcag","pricing_plan_id":"free"},{"bike_id":"0ec58e75-ec63-4015-afaa-18c09e380a54","system_id":"levelo_inurba_marseille","lat":43.305368,"lon":5.367343,"is_reserved":false,"is_disabled":false,"rental_uris":{"android":"levelo://app?vid=0ec58e75-ec63-4015-afaa-18c09e380a54","ios":"levelo://app?vid=0ec58e75-ec63-4015-afaa-18c09e380a54"},"vehicle_type_id":"4","last_reported":1703088450,"current_range_meters":1200,"station_id":"ce4bgrp2rcd13ifvqc9g","pricing_plan_id":"free"},{"bike_id":"bcab7031-66b5-4428-8ed5-7bbfc74d290a","system_id":"levelo_inurba_marseille","lat":43.305368,"lon":5.367343,"is_reserved":false,"is_disabled":false,"rental_uris":{"android":"levelo://app?vid=bcab7031-66b5-4428-8ed5-7bbfc74d290a","ios":"levelo://app?vid=bcab7031-66b5-4428-8ed5-7bbfc74d290a"},"vehicle_type_id":"4","last_reported":1703088450,"current_range_meters":18400,"station_id":"ce4bgrp2rcd13ifvqc9g","pricing_plan_id":"free"},{"bike_id":"8867c2d7-f6b4-4050-8448-6bae24a286c8","system_id":"levelo_inurba_marseille","lat":43.305368,"lon":5.367343,"is_reserved":false,"is_disabled":false,"rental_uris":{"android":"levelo://app?vid=8867c2d7-f6b4-4050-8448-6bae24a286c8","ios":"levelo://app?vid=8867c2d7-f6b4-4050-8448-6bae24a286c8"},"vehicle_type_id":"4","last_reported":1703088450,"current_range_meters":24400,"station_id":"ce4bgrp2rcd13ifvqc9g","pricing_plan_id":"free"},{"bike_id":"ae6d1417-7116-408c-8868-cc4d2356a98d","system_id":"levelo_inurba_marseille","lat":43.305341,"lon":5.367072,"is_reserved":false,"is_disabled":false,"rental_uris":{"android":"levelo://app?vid=ae6d1417-7116-408c-8868-cc4d2356a98d","ios":"levelo://app?vid=ae6d1417-7116-408c-8868-cc4d2356a98d"},"vehicle_type_id":"4","last_reported":1703088450,"current_range_meters":22800,"station_id":"ce4bgrp2rcd13ifvqc9g","pricing_plan_id":"free"},{"bike_id":"f1dbc513-a182-4179-92f7-d77191c441a6","system_id":"levelo_inurba_marseille","lat":43.30542,"lon":5.36536,"is_reserved":false,"is_disabled":false,"rental_uris":{"android":"levelo://app?vid=f1dbc513-a182-4179-92f7-d77191c441a6","ios":"levelo://app?vid=f1dbc513-a182-4179-92f7-d77191c441a6"},"vehicle_type_id":"4","last_reported":1703088450,"current_range_meters":12800,"station_id":"ce4bgs12rcd13ifvqcag","pricing_plan_id":"free"},{"bike_id":"c630613d-db42-4767-a38c-3ae99819361b","system_id":"levelo_inurba_marseille","lat":43.30533,"lon":5.36711,"is_reserved":false,"is_disabled":false,"rental_uris":{"android":"levelo://app?vid=c630613d-db42-4767-a38c-3ae99819361b","ios":"levelo://app?vid=c630613d-db42-4767-a38c-3ae99819361b"},"vehicle_type_id":"4","last_reported":1703088450,"current_range_meters":31200,"station_id":"ce4bgrp2rcd13ifvqc9g","pricing_plan_id":"free"},{"bike_id":"5fb70920-36c4-47c2-a9fa-dde70faef949","system_id":"levelo_inurba_marseille","lat":43.30537,"lon":5.367345,"is_reserved":false,"is_disabled":false,"rental_uris":{"android":"levelo://app?vid=5fb70920-36c4-47c2-a9fa-dde70faef949","ios":"levelo://app?vid=5fb70920-36c4-47c2-a9fa-dde70faef949"},"vehicle_type_id":"4","last_reported":1703088450,"current_range_meters":12400,"station_id":"ce4bgrp2rcd13ifvqc9g","pricing_plan_id":"free"},{"bike_id":"11c0038e-1307-4792-b523-75bb7f576412","system_id":"levelo_inurba_marseille","lat":43.30539,"lon":5.3654,"is_reserved":false,"is_disabled":false,"rental_uris":{"android":"levelo://app?vid=11c0038e-1307-4792-b523-75bb7f576412","ios":"levelo://app?vid=11c0038e-1307-4792-b523-75bb7f576412"},"vehicle_type_id":"4","last_reported":1703088450,"current_range_meters":31200,"station_id":"ce4bgs12rcd13ifvqcag","pricing_plan_id":"free"},{"bike_id":"e5323174-83cc-4b0f-95a9-80183a9c6a2f","system_id":"levelo_inurba_marseille","lat":43.30538,"lon":5.365481,"is_reserved":false,"is_disabled":false,"rental_uris":{"android":"levelo://app?vid=e5323174-83cc-4b0f-95a9-80183a9c6a2f","ios":"levelo://app?vid=e5323174-83cc-4b0f-95a9-80183a9c6a2f"},"vehicle_type_id":"4","last_reported":1703088450,"current_range_meters":30400,"station_id":"ce4bgs12rcd13ifvqcag","pricing_plan_id":"free"},{"bike_id":"9c62d9d0-e5f5-4f74-96f1-940ccd5cff89","system_id":"levelo_inurba_marseille","lat":43.3053,"lon":5.36709,"is_reserved":false,"is_disabled":false,"rental_uris":{"android":"levelo://app?vid=9c62d9d0-e5f5-4f74-96f1-940ccd5cff89","ios":"levelo://app?vid=9c62d9d0-e5f5-4f74-96f1-940ccd5cff89"},"vehicle_type_id":"4","last_reported":1703088450,"current_range_meters":27200,"station_id":"ce4bgrp2rcd13ifvqc9g","pricing_plan_id":"free"},{"bike_id":"ce91bef6-607a-4153-a30a-fc3ef01d0ec6","system_id":"levelo_inurba_marseille","lat":43.30536,"lon":5.365457,"is_reserved":false,"is_disabled":false,"rental_uris":{"android":"levelo://app?vid=ce91bef6-607a-4153-a30a-fc3ef01d0ec6","ios":"levelo://app?vid=ce91bef6-607a-4153-a30a-fc3ef01d0ec6"},"vehicle_type_id":"4","last_reported":1703088450,"current_range_meters":29600,"station_id":"ce4bgs12rcd13ifvqcag","pricing_plan_id":"free"},{"bike_id":"bbea508e-3616-441b-98d3-06c47cb809ce","system_id":"levelo_inurba_marseille","lat":43.30535,"lon":5.36549,"is_reserved":false,"is_disabled":false,"rental_uris":{"android":"levelo://app?vid=bbea508e-3616-441b-98d3-06c47cb809ce","ios":"levelo://app?vid=bbea508e-3616-441b-98d3-06c47cb809ce"},"vehicle_type_id":"4","last_reported":1703088450,"current_range_meters":18800,"station_id":"ce4bgs12rcd13ifvqcag","pricing_plan_id":"free"},{"bike_id":"9762f74a-d07e-4b3d-859b-ada4838068d4","system_id":"levelo_inurba_marseille","lat":43.30533,"lon":5.36544,"is_reserved":false,"is_disabled":false,"rental_uris":{"android":"levelo://app?vid=9762f74a-d07e-4b3d-859b-ada4838068d4","ios":"levelo://app?vid=9762f74a-d07e-4b3d-859b-ada4838068d4"},"vehicle_type_id":"4","last_reported":1703088450,"current_range_meters":18800,"station_id":"ce4bgs12rcd13ifvqcag","pricing_plan_id":"free"},{"bike_id":"13b28650-b328-4f05-b45b-c31d78685b38","system_id":"levelo_inurba_marseille","lat":43.3053,"lon":5.36533,"is_reserved":false,"is_disabled":false,"rental_uris":{"android":"levelo://app?vid=13b28650-b328-4f05-b45b-c31d78685b38","ios":"levelo://app?vid=13b28650-b328-4f05-b45b-c31d78685b38"},"vehicle_type_id":"4","last_reported":1703088450,"current_range_meters":28800,"station_id":"ce4bgs12rcd13ifvqcag","pricing_plan_id":"free"},{"bike_id":"ac366c4d-555c-4e75-a2db-fdbcbeb85edf","system_id":"levelo_inurba_marseille","lat":43.305706,"lon":5.365654,"is_reserved":false,"is_disabled":false,"rental_uris":{"android":"levelo://app?vid=ac366c4d-555c-4e75-a2db-fdbcbeb85edf","ios":"levelo://app?vid=ac366c4d-555c-4e75-a2db-fdbcbeb85edf"},"vehicle_type_id":"4","last_reported":1703088450,"current_range_meters":1600,"station_id":"ce4bgs12rcd13ifvqcag","pricing_plan_id":"free"},{"bike_id":"23415b54-81cf-4182-ae47-ba2459cf2f98","system_id":"levelo_inurba_marseille","lat":43.305949,"lon":5.372486,"is_reserved":false,"is_disabled":false,"rental_uris":{"android":"levelo://app?vid=23415b54-81cf-4182-ae47-ba2459cf2f98","ios":"levelo://app?vid=23415b54-81cf-4182-ae47-ba2459cf2f98"},"vehicle_type_id":"4","last_reported":1703088450,"current_range_meters":30400,"station_id":"ce4bgqh2rcd13ifvqc4g","pricing_plan_id":"free"},{"bike_id":"51177a7b-3a6f-4094-b234-b499e5c3b5d8","system_id":"levelo_inurba_marseille","lat":43.307945,"lon":5.376487,"is_reserved":false,"is_disabled":false,"rental_uris":{"android":"levelo://app?vid=51177a7b-3a6f-4094-b234-b499e5c3b5d8","ios":"levelo://app?vid=51177a7b-3a6f-4094-b234-b499e5c3b5d8"},"vehicle_type_id":"4","last_reported":1703088450,"current_range_meters":24800,"station_id":"ce4bgv92rcd13ifvqcq0","pricing_plan_id":"free"},{"bike_id":"3ddbc120-220d-4103-a977-aca519a666e4","system_id":"levelo_inurba_marseille","lat":43.307945,"lon":5.376487,"is_reserved":false,"is_disabled":false,"rental_uris":{"android":"levelo://app?vid=3ddbc120-220d-4103-a977-aca519a666e4","ios":"levelo://app?vid=3ddbc120-220d-4103-a977-aca519a666e4"},"vehicle_type_id":"4","last_reported":1703088450,"current_range_meters":31200,"station_id":"ce4bgv92rcd13ifvqcq0","pricing_plan_id":"free"},{"bike_id":"fee31c51-5fe2-4a04-972b-7cf27ba6ecc0","system_id":"levelo_inurba_marseille","lat":43.301939,"lon":5.366286,"is_reserved":false,"is_disabled":false,"rental_uris":{"android":"levelo://app?vid=fee31c51-5fe2-4a04-972b-7cf27ba6ecc0","ios":"levelo://app?vid=fee31c51-5fe2-4a04-972b-7cf27ba6ecc0"},"vehicle_type_id":"4","last_reported":1703088450,"current_range_meters":30000,"station_id":"ce4bgrh2rcd13ifvqc8g","pricing_plan_id":"free"},{"bike_id":"e937b2bb-1601-4988-b115-0478a006c433","system_id":"levelo_inurba_marseille","lat":43.308012,"lon":5.381511,"is_reserved":false,"is_disabled":false,"rental_uris":{"android":"levelo://app?vid=e937b2bb-1601-4988-b115-0478a006c433","ios":"levelo://app?vid=e937b2bb-1601-4988-b115-0478a006c433"},"vehicle_type_id":"4","last_reported":1703088450,"current_range_meters":24000,"station_id":"ce4bgt12rcd13ifvqce0","pricing_plan_id":"free"},{"bike_id":"93da75da-cfcc-4deb-934b-e291e2884dc6","system_id":"levelo_inurba_marseille","lat":43.308012,"lon":5.381511,"is_reserved":false,"is_disabled":false,"rental_uris":{"android":"levelo://app?vid=93da75da-cfcc-4deb-934b-e291e2884dc6","ios":"levelo://app?vid=93da75da-cfcc-4deb-934b-e291e2884dc6"},"vehicle_type_id":"4","last_reported":1703088450,"current_range_meters":4800,"station_id":"ce4bgt12rcd13ifvqce0","pricing_plan_id":"free"},{"bike_id":"d78eadf0-0d03-4814-97f0-5d3474557c81","system_id":"levelo_inurba_marseille","lat":43.308012,"lon":5.381511,"is_reserved":false,"is_disabled":false,"rental_uris":{"android":"levelo://app?vid=d78eadf0-0d03-4814-97f0-5d3474557c81","ios":"levelo://app?vid=d78eadf0-0d03-4814-97f0-5d3474557c81"},"vehicle_type_id":"4","last_reported":1703088450,"current_range_meters":14400,"station_id":"ce4bgt12rcd13ifvqce0","pricing_plan_id":"free"},{"bike_id":"e69b87cc-1626-48ef-8f08-0957f1b22c3e","system_id":"levelo_inurba_marseille","lat":43.304606,"lon":5.379026,"is_reserved":false,"is_disabled":false,"rental_uris":{"android":"levelo://app?vid=e69b87cc-1626-48ef-8f08-0957f1b22c3e","ios":"levelo://app?vid=e69b87cc-1626-48ef-8f08-0957f1b22c3e"},"vehicle_type_id":"4","last_reported":1703088450,"current_range_meters":3600,"station_id":"ce4bgup2rcd13ifvqcn0","pricing_plan_id":"free"},{"bike_id":"10a15165-c10f-4504-b2d2-c54b703a51c3","system_id":"levelo_inurba_marseille","lat":43.302784,"lon":5.377158,"is_reserved":false,"is_disabled":false,"rental_uris":{"android":"levelo://app?vid=10a15165-c10f-4504-b2d2-c54b703a51c3","ios":"levelo://app?vid=10a15165-c10f-4504-b2d2-c54b703a51c3"},"vehicle_type_id":"4","last_reported":1703088450,"current_range_meters":26000,"station_id":"ce4bguh2rcd13ifvqcj0","pricing_plan_id":"free"},{"bike_id":"6bd330e5-be91-4c6a-bd12-6b4c0748505e","system_id":"levelo_inurba_marseille","lat":43.31999,"lon":5.38156,"is_reserved":false,"is_disabled":false,"rental_uris":{"android":"levelo://app?vid=6bd330e5-be91-4c6a-bd12-6b4c0748505e","ios":"levelo://app?vid=6bd330e5-be91-4c6a-bd12-6b4c0748505e"},"vehicle_type_id":"4","last_reported":1703088450,"current_range_meters":11600,"station_id":"ce4bhr12rcd13ifvqhpg","pricing_plan_id":"free"},{"bike_id":"40519451-a731-47e9-b58a-0d4c9680837f","system_id":"levelo_inurba_marseille","lat":43.313571,"lon":5.384829,"is_reserved":false,"is_disabled":false,"rental_uris":{"android":"levelo://app?vid=40519451-a731-47e9-b58a-0d4c9680837f","ios":"levelo://app?vid=40519451-a731-47e9-b58a-0d4c9680837f"},"vehicle_type_id":"4","last_reported":1703088450,"current_range_meters":20800,"station_id":"ce4bgt92rcd13ifvqcf0","pricing_plan_id":"free"},{"bike_id":"0274d176-ce0c-4918-bb1d-1cab7c06d958","system_id":"levelo_inurba_marseille","lat":43.313571,"lon":5.384829,"is_reserved":false,"is_disabled":false,"rental_uris":{"android":"levelo://app?vid=0274d176-ce0c-4918-bb1d-1cab7c06d958","ios":"levelo://app?vid=0274d176-ce0c-4918-bb1d-1cab7c06d958"},"vehicle_type_id":"4","last_reported":1703088450,"current_range_meters":17600,"station_id":"ce4bgt92rcd13ifvqcf0","pricing_plan_id":"free"},{"bike_id":"4abe37db-12d7-48f9-ace3-acd8eccc5d15","system_id":"levelo_inurba_marseille","lat":43.313571,"lon":5.384829,"is_reserved":false,"is_disabled":false,"rental_uris":{"android":"levelo://app?vid=4abe37db-12d7-48f9-ace3-acd8eccc5d15","ios":"levelo://app?vid=4abe37db-12d7-48f9-ace3-acd8eccc5d15"},"vehicle_type_id":"4","last_reported":1703088450,"current_range_meters":19600,"station_id":"ce4bgt92rcd13ifvqcf0","pricing_plan_id":"free"},{"bike_id":"7a453b09-ce70-4fa0-9817-9be26f67b612","system_id":"levelo_inurba_marseille","lat":43.313571,"lon":5.384829,"is_reserved":false,"is_disabled":false,"rental_uris":{"android":"levelo://app?vid=7a453b09-ce70-4fa0-9817-9be26f67b612","ios":"levelo://app?vid=7a453b09-ce70-4fa0-9817-9be26f67b612"},"vehicle_type_id":"4","last_reported":1703088450,"current_range_meters":27600,"station_id":"ce4bgt92rcd13ifvqcf0","pricing_plan_id":"free"},{"bike_id":"3fde145a-09b2-4ebb-902f-d5fe68c099fc","system_id":"levelo_inurba_marseille","lat":43.299724,"lon":5.371829,"is_reserved":false,"is_disabled":false,"rental_uris":{"android":"levelo://app?vid=3fde145a-09b2-4ebb-902f-d5fe68c099fc","ios":"levelo://app?vid=3fde145a-09b2-4ebb-902f-d5fe68c099fc"},"vehicle_type_id":"4","last_reported":1703088450,"current_range_meters":18000,"station_id":"ce4bgr92rcd13ifvqc7g","pricing_plan_id":"free"},{"bike_id":"3fba1442-87d1-4ede-8d21-fa4b5b4cd0dd","system_id":"levelo_inurba_marseille","lat":43.299222,"lon":5.365554,"is_reserved":false,"is_disabled":false,"rental_uris":{"android":"levelo://app?vid=3fba1442-87d1-4ede-8d21-fa4b5b4cd0dd","ios":"levelo://app?vid=3fba1442-87d1-4ede-8d21-fa4b5b4cd0dd"},"vehicle_type_id":"4","last_reported":1703088450,"current_range_meters":26400,"station_id":"ce4bgm92rcd13ifvqbr0","pricing_plan_id":"free"},{"bike_id":"3c1206e4-f532-4126-95f2-8a897c8b3457","system_id":"levelo_inurba_marseille","lat":43.299243,"lon":5.374807,"is_reserved":false,"is_disabled":false,"rental_uris":{"android":"levelo://app?vid=3c1206e4-f532-4126-95f2-8a897c8b3457","ios":"levelo://app?vid=3c1206e4-f532-4126-95f2-8a897c8b3457"},"vehicle_type_id":"4","last_reported":1703088450,"current_range_meters":6000,"station_id":"ce4bgjh2rcd13ifvqbg0","pricing_plan_id":"free"},{"bike_id":"9a1363d6-ff3e-4cd6-8467-20bd80d1aacf","system_id":"levelo_inurba_marseille","lat":43.311722,"lon":5.387247,"is_reserved":false,"is_disabled":false,"rental_uris":{"android":"levelo://app?vid=9a1363d6-ff3e-4cd6-8467-20bd80d1aacf","ios":"levelo://app?vid=9a1363d6-ff3e-4cd6-8467-20bd80d1aacf"},"vehicle_type_id":"4","last_reported":1703088450,"current_range_meters":15600,"station_id":"ce4bgv12rcd13ifvqcp0","pricing_plan_id":"free"},{"bike_id":"25c4a789-ca1e-4c36-a536-7207147d7eab","system_id":"levelo_inurba_marseille","lat":43.311722,"lon":5.387247,"is_reserved":false,"is_disabled":false,"rental_uris":{"android":"levelo://app?vid=25c4a789-ca1e-4c36-a536-7207147d7eab","ios":"levelo://app?vid=25c4a789-ca1e-4c36-a536-7207147d7eab"},"vehicle_type_id":"4","last_reported":1703088450,"current_range_meters":2000,"station_id":"ce4bgv12rcd13ifvqcp0","pricing_plan_id":"free"},{"bike_id":"ff72ee0c-1657-4007-8d31-655fae145434","system_id":"levelo_inurba_marseille","lat":43.311722,"lon":5.387247,"is_reserved":false,"is_disabled":false,"rental_uris":{"android":"levelo://app?vid=ff72ee0c-1657-4007-8d31-655fae145434","ios":"levelo://app?vid=ff72ee0c-1657-4007-8d31-655fae145434"},"vehicle_type_id":"4","last_reported":1703088450,"current_range_meters":29600,"station_id":"ce4bgv12rcd13ifvqcp0","pricing_plan_id":"free"},{"bike_id":"2f609259-9245-42af-9bcf-220477967074","system_id":"levelo_inurba_marseille","lat":43.311722,"lon":5.387247,"is_reserved":false,"is_disabled":false,"rental_uris":{"android":"levelo://app?vid=2f609259-9245-42af-9bcf-220477967074","ios":"levelo://app?vid=2f609259-9245-42af-9bcf-220477967074"},"vehicle_type_id":"4","last_reported":1703088450,"current_range_meters":20000,"station_id":"ce4bgv12rcd13ifvqcp0","pricing_plan_id":"free"},{"bike_id":"48505f3b-ca09-46b5-a811-9c50a0ccfdb0","system_id":"levelo_inurba_marseille","lat":43.311722,"lon":5.387247,"is_reserved":false,"is_disabled":false,"rental_uris":{"android":"levelo://app?vid=48505f3b-ca09-46b5-a811-9c50a0ccfdb0","ios":"levelo://app?vid=48505f3b-ca09-46b5-a811-9c50a0ccfdb0"},"vehicle_type_id":"4","last_reported":1703088450,"current_range_meters":23600,"station_id":"ce4bgv12rcd13ifvqcp0","pricing_plan_id":"free"},{"bike_id":"302d4ef4-0989-4e55-9d06-ebcf3ee8c97f","system_id":"levelo_inurba_marseille","lat":43.311722,"lon":5.387247,"is_reserved":false,"is_disabled":false,"rental_uris":{"android":"levelo://app?vid=302d4ef4-0989-4e55-9d06-ebcf3ee8c97f","ios":"levelo://app?vid=302d4ef4-0989-4e55-9d06-ebcf3ee8c97f"},"vehicle_type_id":"4","last_reported":1703088450,"current_range_meters":400,"station_id":"ce4bgv12rcd13ifvqcp0","pricing_plan_id":"free"},{"bike_id":"b8d2d249-a3a6-4543-b1c7-6b3650de13c5","system_id":"levelo_inurba_marseille","lat":43.322872,"lon":5.382756,"is_reserved":false,"is_disabled":false,"rental_uris":{"android":"levelo://app?vid=b8d2d249-a3a6-4543-b1c7-6b3650de13c5","ios":"levelo://app?vid=b8d2d249-a3a6-4543-b1c7-6b3650de13c5"},"vehicle_type_id":"4","last_reported":1703088450,"current_range_meters":30000,"station_id":"ce4bhr12rcd13ifvqhqg","pricing_plan_id":"free"},{"bike_id":"c22e4b9f-ba20-4a7c-a7c8-fd0a73d903e0","system_id":"levelo_inurba_marseille","lat":43.328371,"lon":5.366909,"is_reserved":false,"is_disabled":false,"rental_uris":{"android":"levelo://app?vid=c22e4b9f-ba20-4a7c-a7c8-fd0a73d903e0","ios":"levelo://app?vid=c22e4b9f-ba20-4a7c-a7c8-fd0a73d903e0"},"vehicle_type_id":"4","last_reported":1703088450,"current_range_meters":22800,"station_id":"ce4bhs92rcd13ifvqi0g","pricing_plan_id":"free"},{"bike_id":"bc81749c-97ac-487a-bc93-76443e598803","system_id":"levelo_inurba_marseille","lat":43.328371,"lon":5.366909,"is_reserved":false,"is_disabled":false,"rental_uris":{"android":"levelo://app?vid=bc81749c-97ac-487a-bc93-76443e598803","ios":"levelo://app?vid=bc81749c-97ac-487a-bc93-76443e598803"},"vehicle_type_id":"4","last_reported":1703088450,"current_range_meters":4400,"station_id":"ce4bhs92rcd13ifvqi0g","pricing_plan_id":"free"},{"bike_id":"c12df297-168e-4ca3-95d9-a300ff1ffbd9","system_id":"levelo_inurba_marseille","lat":43.328371,"lon":5.366909,"is_reserved":false,"is_disabled":false,"rental_uris":{"android":"levelo://app?vid=c12df297-168e-4ca3-95d9-a300ff1ffbd9","ios":"levelo://app?vid=c12df297-168e-4ca3-95d9-a300ff1ffbd9"},"vehicle_type_id":"4","last_reported":1703088450,"current_range_meters":30000,"station_id":"ce4bhs92rcd13ifvqi0g","pricing_plan_id":"free"},{"bike_id":"2a8a59a2-86cc-48a9-8714-ae0edcb4d489","system_id":"levelo_inurba_marseille","lat":43.328371,"lon":5.366909,"is_reserved":false,"is_disabled":false,"rental_uris":{"android":"levelo://app?vid=2a8a59a2-86cc-48a9-8714-ae0edcb4d489","ios":"levelo://app?vid=2a8a59a2-86cc-48a9-8714-ae0edcb4d489"},"vehicle_type_id":"4","last_reported":1703088450,"current_range_meters":2800,"station_id":"ce4bhs92rcd13ifvqi0g","pricing_plan_id":"free"},{"bike_id":"cb97846c-9508-4ec4-82fd-1a637ef7dd90","system_id":"levelo_inurba_marseille","lat":43.328371,"lon":5.366909,"is_reserved":false,"is_disabled":false,"rental_uris":{"android":"levelo://app?vid=cb97846c-9508-4ec4-82fd-1a637ef7dd90","ios":"levelo://app?vid=cb97846c-9508-4ec4-82fd-1a637ef7dd90"},"vehicle_type_id":"4","last_reported":1703088450,"current_range_meters":400,"station_id":"ce4bhs92rcd13ifvqi0g","pricing_plan_id":"free"},{"bike_id":"59581a9c-f177-4a96-aea6-b7baaa49a6a3","system_id":"levelo_inurba_marseille","lat":43.328371,"lon":5.366909,"is_reserved":false,"is_disabled":false,"rental_uris":{"android":"levelo://app?vid=59581a9c-f177-4a96-aea6-b7baaa49a6a3","ios":"levelo://app?vid=59581a9c-f177-4a96-aea6-b7baaa49a6a3"},"vehicle_type_id":"4","last_reported":1703088450,"current_range_meters":30000,"station_id":"ce4bhs92rcd13ifvqi0g","pricing_plan_id":"free"},{"bike_id":"eb8ebe7d-6983-4780-997c-9447c3c0c6e2","system_id":"levelo_inurba_marseille","lat":43.328371,"lon":5.366909,"is_reserved":false,"is_disabled":false,"rental_uris":{"android":"levelo://app?vid=eb8ebe7d-6983-4780-997c-9447c3c0c6e2","ios":"levelo://app?vid=eb8ebe7d-6983-4780-997c-9447c3c0c6e2"},"vehicle_type_id":"4","last_reported":1703088450,"current_range_meters":28400,"station_id":"ce4bhs92rcd13ifvqi0g","pricing_plan_id":"free"},{"bike_id":"a4b945da-444a-4fae-980a-d9b23d1e5d82","system_id":"levelo_inurba_marseille","lat":43.297394,"lon":5.37645,"is_reserved":false,"is_disabled":false,"rental_uris":{"android":"levelo://app?vid=a4b945da-444a-4fae-980a-d9b23d1e5d82","ios":"levelo://app?vid=a4b945da-444a-4fae-980a-d9b23d1e5d82"},"vehicle_type_id":"4","last_reported":1703088450,"current_range_meters":18000,"station_id":"ce4bgkh2rcd13ifvqbl0","pricing_plan_id":"free"},{"bike_id":"1ecda5c9-a624-4bb0-b6f3-7884ec72c6ad","system_id":"levelo_inurba_marseille","lat":43.296131,"lon":5.370791,"is_reserved":false,"is_disabled":false,"rental_uris":{"android":"levelo://app?vid=1ecda5c9-a624-4bb0-b6f3-7884ec72c6ad","ios":"levelo://app?vid=1ecda5c9-a624-4bb0-b6f3-7884ec72c6ad"},"vehicle_type_id":"4","last_reported":1703088450,"current_range_meters":7200,"station_id":"ce4bgnh2rcd13ifvqc0g","pricing_plan_id":"free"},{"bike_id":"c66868f1-8100-4377-8f05-505414e491ea","system_id":"levelo_inurba_marseille","lat":43.29573,"lon":5.367355,"is_reserved":false,"is_disabled":false,"rental_uris":{"android":"levelo://app?vid=c66868f1-8100-4377-8f05-505414e491ea","ios":"levelo://app?vid=c66868f1-8100-4377-8f05-505414e491ea"},"vehicle_type_id":"4","last_reported":1703088450,"current_range_meters":26000,"station_id":"ce4bgph2rcd13ifvqc2g","pricing_plan_id":"free"},{"bike_id":"9df35520-231f-40cf-b59c-051707e06936","system_id":"levelo_inurba_marseille","lat":43.299028,"lon":5.381509,"is_reserved":false,"is_disabled":false,"rental_uris":{"android":"levelo://app?vid=9df35520-231f-40cf-b59c-051707e06936","ios":"levelo://app?vid=9df35520-231f-40cf-b59c-051707e06936"},"vehicle_type_id":"4","last_reported":1703088450,"current_range_meters":13600,"station_id":"ce4bgj12rcd13ifvqbc0","pricing_plan_id":"free"},{"bike_id":"876dcc2b-7cb6-47e7-9f55-ce59d678cfd6","system_id":"levelo_inurba_marseille","lat":43.296921,"lon":5.376579,"is_reserved":false,"is_disabled":false,"rental_uris":{"android":"levelo://app?vid=876dcc2b-7cb6-47e7-9f55-ce59d678cfd6","ios":"levelo://app?vid=876dcc2b-7cb6-47e7-9f55-ce59d678cfd6"},"vehicle_type_id":"4","last_reported":1703088450,"current_range_meters":0,"station_id":"ce4bgkh2rcd13ifvqbl0","pricing_plan_id":"free"},{"bike_id":"603b0b34-d3ef-42e1-83e6-beda3d64c728","system_id":"levelo_inurba_marseille","lat":43.309589,"lon":5.390258,"is_reserved":false,"is_disabled":false,"rental_uris":{"android":"levelo://app?vid=603b0b34-d3ef-42e1-83e6-beda3d64c728","ios":"levelo://app?vid=603b0b34-d3ef-42e1-83e6-beda3d64c728"},"vehicle_type_id":"4","last_reported":1703088450,"current_range_meters":0,"station_id":"ce4bgup2rcd13ifvqco0","pricing_plan_id":"free"},{"bike_id":"e250d81f-d08c-4f11-bfcb-b6856bebfd7f","system_id":"levelo_inurba_marseille","lat":43.31745,"lon":5.39011,"is_reserved":false,"is_disabled":false,"rental_uris":{"android":"levelo://app?vid=e250d81f-d08c-4f11-bfcb-b6856bebfd7f","ios":"levelo://app?vid=e250d81f-d08c-4f11-bfcb-b6856bebfd7f"},"vehicle_type_id":"4","last_reported":1703088450,"current_range_meters":23600,"station_id":"ce4bhqp2rcd13ifvqhng","pricing_plan_id":"free"},{"bike_id":"e69ac015-52d3-4c6f-b048-01b3c1354309","system_id":"levelo_inurba_marseille","lat":43.317557,"lon":5.390173,"is_reserved":false,"is_disabled":false,"rental_uris":{"android":"levelo://app?vid=e69ac015-52d3-4c6f-b048-01b3c1354309","ios":"levelo://app?vid=e69ac015-52d3-4c6f-b048-01b3c1354309"},"vehicle_type_id":"4","last_reported":1703088450,"current_range_meters":16400,"station_id":"ce4bhqp2rcd13ifvqhng","pricing_plan_id":"free"},{"bike_id":"429e6ed0-1b25-43f0-ba64-4d2227b11f71","system_id":"levelo_inurba_marseille","lat":43.295748,"lon":5.37522,"is_reserved":false,"is_disabled":false,"rental_uris":{"android":"levelo://app?vid=429e6ed0-1b25-43f0-ba64-4d2227b11f71","ios":"levelo://app?vid=429e6ed0-1b25-43f0-ba64-4d2227b11f71"},"vehicle_type_id":"4","last_reported":1703088450,"current_range_meters":23200,"station_id":"ce4bgh92rcd13ifvqb50","pricing_plan_id":"free"},{"bike_id":"b625240e-b371-4399-a42b-7041d535dac1","system_id":"levelo_inurba_marseille","lat":43.298037,"lon":5.381066,"is_reserved":false,"is_disabled":false,"rental_uris":{"android":"levelo://app?vid=b625240e-b371-4399-a42b-7041d535dac1","ios":"levelo://app?vid=b625240e-b371-4399-a42b-7041d535dac1"},"vehicle_type_id":"4","last_reported":1703088450,"current_range_meters":22800,"station_id":"ce4bgip2rcd13ifvqbb0","pricing_plan_id":"free"},{"bike_id":"81b55a01-dae0-4eeb-a211-d9d58bacbc50","system_id":"levelo_inurba_marseille","lat":43.304278,"lon":5.388868,"is_reserved":false,"is_disabled":false,"rental_uris":{"android":"levelo://app?vid=81b55a01-dae0-4eeb-a211-d9d58bacbc50","ios":"levelo://app?vid=81b55a01-dae0-4eeb-a211-d9d58bacbc50"},"vehicle_type_id":"4","last_reported":1703088450,"current_range_meters":5200,"station_id":"ce4bgk12rcd13ifvqbi0","pricing_plan_id":"free"},{"bike_id":"b8501396-fb4e-477d-b411-39a8d13437ed","system_id":"levelo_inurba_marseille","lat":43.304274,"lon":5.388873,"is_reserved":false,"is_disabled":false,"rental_uris":{"android":"levelo://app?vid=b8501396-fb4e-477d-b411-39a8d13437ed","ios":"levelo://app?vid=b8501396-fb4e-477d-b411-39a8d13437ed"},"vehicle_type_id":"4","last_reported":1703088450,"current_range_meters":17600,"station_id":"ce4bgk12rcd13ifvqbi0","pricing_plan_id":"free"},{"bike_id":"3169ed7f-7910-4c44-b62d-0431bdb23d33","system_id":"levelo_inurba_marseille","lat":43.295748,"lon":5.37522,"is_reserved":false,"is_disabled":false,"rental_uris":{"android":"levelo://app?vid=3169ed7f-7910-4c44-b62d-0431bdb23d33","ios":"levelo://app?vid=3169ed7f-7910-4c44-b62d-0431bdb23d33"},"vehicle_type_id":"4","last_reported":1703088450,"current_range_meters":25200,"station_id":"ce4bgh92rcd13ifvqb50","pricing_plan_id":"free"},{"bike_id":"00ff670c-6f4a-4faf-985c-2df286ab07f1","system_id":"levelo_inurba_marseille","lat":43.304278,"lon":5.388868,"is_reserved":false,"is_disabled":false,"rental_uris":{"android":"levelo://app?vid=00ff670c-6f4a-4faf-985c-2df286ab07f1","ios":"levelo://app?vid=00ff670c-6f4a-4faf-985c-2df286ab07f1"},"vehicle_type_id":"4","last_reported":1703088450,"current_range_meters":23200,"station_id":"ce4bgk12rcd13ifvqbi0","pricing_plan_id":"free"},{"bike_id":"1344eebc-5d18-48c9-a9ff-f8dc645199c7","system_id":"levelo_inurba_marseille","lat":43.296263,"lon":5.377094,"is_reserved":false,"is_disabled":false,"rental_uris":{"android":"levelo://app?vid=1344eebc-5d18-48c9-a9ff-f8dc645199c7","ios":"levelo://app?vid=1344eebc-5d18-48c9-a9ff-f8dc645199c7"},"vehicle_type_id":"4","last_reported":1703088450,"current_range_meters":26000,"station_id":"ce4bgi92rcd13ifvqb90","pricing_plan_id":"free"},{"bike_id":"87aa6f41-dd12-4362-abe9-b5c35e5a7a95","system_id":"levelo_inurba_marseille","lat":43.29535,"lon":5.37504,"is_reserved":false,"is_disabled":false,"rental_uris":{"android":"levelo://app?vid=87aa6f41-dd12-4362-abe9-b5c35e5a7a95","ios":"levelo://app?vid=87aa6f41-dd12-4362-abe9-b5c35e5a7a95"},"vehicle_type_id":"4","last_reported":1703088450,"current_range_meters":0,"station_id":"ce4bgkp2rcd13ifvqbmg","pricing_plan_id":"free"},{"bike_id":"a4fa627b-6efb-4d3f-9969-97ce77d267b9","system_id":"levelo_inurba_marseille","lat":43.29534,"lon":5.37505,"is_reserved":false,"is_disabled":false,"rental_uris":{"android":"levelo://app?vid=a4fa627b-6efb-4d3f-9969-97ce77d267b9","ios":"levelo://app?vid=a4fa627b-6efb-4d3f-9969-97ce77d267b9"},"vehicle_type_id":"4","last_reported":1703088450,"current_range_meters":15600,"station_id":"ce4bgkp2rcd13ifvqbmg","pricing_plan_id":"free"},{"bike_id":"0ec241a1-1800-4869-81a6-adc6f6b7e923","system_id":"levelo_inurba_marseille","lat":43.29532,"lon":5.37502,"is_reserved":false,"is_disabled":false,"rental_uris":{"android":"levelo://app?vid=0ec241a1-1800-4869-81a6-adc6f6b7e923","ios":"levelo://app?vid=0ec241a1-1800-4869-81a6-adc6f6b7e923"},"vehicle_type_id":"4","last_reported":1703088450,"current_range_meters":8800,"station_id":"ce4bgkp2rcd13ifvqbmg","pricing_plan_id":"free"},{"bike_id":"18b830b4-248e-487b-add9-a2fc03605d09","system_id":"levelo_inurba_marseille","lat":43.32367,"lon":5.388836,"is_reserved":false,"is_disabled":false,"rental_uris":{"android":"levelo://app?vid=18b830b4-248e-487b-add9-a2fc03605d09","ios":"levelo://app?vid=18b830b4-248e-487b-add9-a2fc03605d09"},"vehicle_type_id":"4","last_reported":1703088450,"current_range_meters":3600,"station_id":"ce4bhqp2rcd13ifvqhog","pricing_plan_id":"free"},{"bike_id":"3a32b32c-3449-45bb-8184-d8e636bf0b60","system_id":"levelo_inurba_marseille","lat":43.32367,"lon":5.388836,"is_reserved":false,"is_disabled":false,"rental_uris":{"android":"levelo://app?vid=3a32b32c-3449-45bb-8184-d8e636bf0b60","ios":"levelo://app?vid=3a32b32c-3449-45bb-8184-d8e636bf0b60"},"vehicle_type_id":"4","last_reported":1703088450,"current_range_meters":18400,"station_id":"ce4bhqp2rcd13ifvqhog","pricing_plan_id":"free"},{"bike_id":"39a5a7f1-613e-4ce9-85dc-bf406e7675c4","system_id":"levelo_inurba_marseille","lat":43.32367,"lon":5.388836,"is_reserved":false,"is_disabled":false,"rental_uris":{"android":"levelo://app?vid=39a5a7f1-613e-4ce9-85dc-bf406e7675c4","ios":"levelo://app?vid=39a5a7f1-613e-4ce9-85dc-bf406e7675c4"},"vehicle_type_id":"4","last_reported":1703088450,"current_range_meters":3600,"station_id":"ce4bhqp2rcd13ifvqhog","pricing_plan_id":"free"},{"bike_id":"d89a6a0f-5ebb-492a-bb7f-450b4e71a42c","system_id":"levelo_inurba_marseille","lat":43.32367,"lon":5.388836,"is_reserved":false,"is_disabled":false,"rental_uris":{"android":"levelo://app?vid=d89a6a0f-5ebb-492a-bb7f-450b4e71a42c","ios":"levelo://app?vid=d89a6a0f-5ebb-492a-bb7f-450b4e71a42c"},"vehicle_type_id":"4","last_reported":1703088450,"current_range_meters":17600,"station_id":"ce4bhqp2rcd13ifvqhog","pricing_plan_id":"free"},{"bike_id":"6cd7de01-ca8f-4f97-967b-b40cfe67c131","system_id":"levelo_inurba_marseille","lat":43.29601,"lon":5.381084,"is_reserved":false,"is_disabled":false,"rental_uris":{"android":"levelo://app?vid=6cd7de01-ca8f-4f97-967b-b40cfe67c131","ios":"levelo://app?vid=6cd7de01-ca8f-4f97-967b-b40cfe67c131"},"vehicle_type_id":"4","last_reported":1703088450,"current_range_meters":24400,"station_id":"ce4bgl12rcd13ifvqbo0","pricing_plan_id":"free"},{"bike_id":"96c89b5a-9714-4ab2-accf-65cbdd91077f","system_id":"levelo_inurba_marseille","lat":43.2936,"lon":5.37835,"is_reserved":false,"is_disabled":false,"rental_uris":{"android":"levelo://app?vid=96c89b5a-9714-4ab2-accf-65cbdd91077f","ios":"levelo://app?vid=96c89b5a-9714-4ab2-accf-65cbdd91077f"},"vehicle_type_id":"4","last_reported":1703088450,"current_range_meters":0,"station_id":"ce4bgjh2rcd13ifvqbf0","pricing_plan_id":"free"},{"bike_id":"3860127b-1700-48e2-acef-068439be7714","system_id":"levelo_inurba_marseille","lat":43.292311,"lon":5.360731,"is_reserved":false,"is_disabled":false,"rental_uris":{"android":"levelo://app?vid=3860127b-1700-48e2-acef-068439be7714","ios":"levelo://app?vid=3860127b-1700-48e2-acef-068439be7714"},"vehicle_type_id":"4","last_reported":1703088450,"current_range_meters":13600,"station_id":"ce4bhbh2rcd13ifvqeqg","pricing_plan_id":"free"},{"bike_id":"67dbc710-e248-4701-92da-b94e6f063a32","system_id":"levelo_inurba_marseille","lat":43.32297,"lon":5.39239,"is_reserved":false,"is_disabled":false,"rental_uris":{"android":"levelo://app?vid=67dbc710-e248-4701-92da-b94e6f063a32","ios":"levelo://app?vid=67dbc710-e248-4701-92da-b94e6f063a32"},"vehicle_type_id":"4","last_reported":1703088450,"current_range_meters":4000,"station_id":"","pricing_plan_id":"free"},{"bike_id":"d334c886-b6e8-48a8-b49b-94a4bc9d2b2e","system_id":"levelo_inurba_marseille","lat":43.29265,"lon":5.376193,"is_reserved":false,"is_disabled":false,"rental_uris":{"android":"levelo://app?vid=d334c886-b6e8-48a8-b49b-94a4bc9d2b2e","ios":"levelo://app?vid=d334c886-b6e8-48a8-b49b-94a4bc9d2b2e"},"vehicle_type_id":"4","last_reported":1703088450,"current_range_meters":29200,"station_id":"","pricing_plan_id":"free"},{"bike_id":"d80aacb1-1de2-4c97-bfa7-d79fbffbe39f","system_id":"levelo_inurba_marseille","lat":43.298872,"lon":5.389062,"is_reserved":false,"is_disabled":false,"rental_uris":{"android":"levelo://app?vid=d80aacb1-1de2-4c97-bfa7-d79fbffbe39f","ios":"levelo://app?vid=d80aacb1-1de2-4c97-bfa7-d79fbffbe39f"},"vehicle_type_id":"4","last_reported":1703088450,"current_range_meters":17200,"station_id":"","pricing_plan_id":"free"},{"bike_id":"9f5f1681-4586-41f5-a6b1-461842c0ffc3","system_id":"levelo_inurba_marseille","lat":43.29872,"lon":5.38908,"is_reserved":false,"is_disabled":false,"rental_uris":{"android":"levelo://app?vid=9f5f1681-4586-41f5-a6b1-461842c0ffc3","ios":"levelo://app?vid=9f5f1681-4586-41f5-a6b1-461842c0ffc3"},"vehicle_type_id":"4","last_reported":1703088450,"current_range_meters":12000,"station_id":"","pricing_plan_id":"free"},{"bike_id":"e5eca80e-f16a-41ee-b5ac-f2f5e49f023b","system_id":"levelo_inurba_marseille","lat":43.29873,"lon":5.3891,"is_reserved":false,"is_disabled":false,"rental_uris":{"android":"levelo://app?vid=e5eca80e-f16a-41ee-b5ac-f2f5e49f023b","ios":"levelo://app?vid=e5eca80e-f16a-41ee-b5ac-f2f5e49f023b"},"vehicle_type_id":"4","last_reported":1703088450,"current_range_meters":18000,"station_id":"","pricing_plan_id":"free"},{"bike_id":"df478808-8bcb-44d9-b175-88738a5453c3","system_id":"levelo_inurba_marseille","lat":43.2987,"lon":5.38909,"is_reserved":false,"is_disabled":false,"rental_uris":{"android":"levelo://app?vid=df478808-8bcb-44d9-b175-88738a5453c3","ios":"levelo://app?vid=df478808-8bcb-44d9-b175-88738a5453c3"},"vehicle_type_id":"4","last_reported":1703088450,"current_range_meters":0,"station_id":"","pricing_plan_id":"free"},{"bike_id":"517a7902-1af4-46ad-b194-63902c8352c5","system_id":"levelo_inurba_marseille","lat":43.291994,"lon":5.357886,"is_reserved":false,"is_disabled":false,"rental_uris":{"android":"levelo://app?vid=517a7902-1af4-46ad-b194-63902c8352c5","ios":"levelo://app?vid=517a7902-1af4-46ad-b194-63902c8352c5"},"vehicle_type_id":"4","last_reported":1703088450,"current_range_meters":5600,"station_id":"ce4bhb12rcd13ifvqel0","pricing_plan_id":"free"},{"bike_id":"5280989f-d162-49f9-b6e9-e320a22892d0","system_id":"levelo_inurba_marseille","lat":43.313291,"lon":5.396838,"is_reserved":false,"is_disabled":false,"rental_uris":{"android":"levelo://app?vid=5280989f-d162-49f9-b6e9-e320a22892d0","ios":"levelo://app?vid=5280989f-d162-49f9-b6e9-e320a22892d0"},"vehicle_type_id":"4","last_reported":1703088450,"current_range_meters":11200,"station_id":"ce4bgvp2rcd13ifvqcu0","pricing_plan_id":"free"},{"bike_id":"3494ea9e-0cf6-4ae7-85f6-123ed78af590","system_id":"levelo_inurba_marseille","lat":43.309038,"lon":5.396546,"is_reserved":false,"is_disabled":false,"rental_uris":{"android":"levelo://app?vid=3494ea9e-0cf6-4ae7-85f6-123ed78af590","ios":"levelo://app?vid=3494ea9e-0cf6-4ae7-85f6-123ed78af590"},"vehicle_type_id":"4","last_reported":1703088450,"current_range_meters":2400,"station_id":"ce4bh012rcd13ifvqcv0","pricing_plan_id":"free"},{"bike_id":"4afd6ee0-afb8-44f9-bb15-413d1c79aad5","system_id":"levelo_inurba_marseille","lat":43.29529,"lon":5.385581,"is_reserved":false,"is_disabled":false,"rental_uris":{"android":"levelo://app?vid=4afd6ee0-afb8-44f9-bb15-413d1c79aad5","ios":"levelo://app?vid=4afd6ee0-afb8-44f9-bb15-413d1c79aad5"},"vehicle_type_id":"4","last_reported":1703088450,"current_range_meters":25200,"station_id":"ce4bgih2rcd13ifvqba0","pricing_plan_id":"free"},{"bike_id":"30133675-8d62-479a-9ae7-ddd80f09db79","system_id":"levelo_inurba_marseille","lat":43.29529,"lon":5.385581,"is_reserved":false,"is_disabled":false,"rental_uris":{"android":"levelo://app?vid=30133675-8d62-479a-9ae7-ddd80f09db79","ios":"levelo://app?vid=30133675-8d62-479a-9ae7-ddd80f09db79"},"vehicle_type_id":"4","last_reported":1703088450,"current_range_meters":10400,"station_id":"ce4bgih2rcd13ifvqba0","pricing_plan_id":"free"},{"bike_id":"0bfa2e03-65f1-4d90-8b10-7e25415ef248","system_id":"levelo_inurba_marseille","lat":43.29529,"lon":5.385581,"is_reserved":false,"is_disabled":false,"rental_uris":{"android":"levelo://app?vid=0bfa2e03-65f1-4d90-8b10-7e25415ef248","ios":"levelo://app?vid=0bfa2e03-65f1-4d90-8b10-7e25415ef248"},"vehicle_type_id":"4","last_reported":1703088450,"current_range_meters":15600,"station_id":"ce4bgih2rcd13ifvqba0","pricing_plan_id":"free"},{"bike_id":"7be3ca53-45ef-4e80-bdfa-6aa9a55212f3","system_id":"levelo_inurba_marseille","lat":43.290631,"lon":5.359244,"is_reserved":false,"is_disabled":false,"rental_uris":{"android":"levelo://app?vid=7be3ca53-45ef-4e80-bdfa-6aa9a55212f3","ios":"levelo://app?vid=7be3ca53-45ef-4e80-bdfa-6aa9a55212f3"},"vehicle_type_id":"4","last_reported":1703088450,"current_range_meters":20800,"station_id":"ce4bha92rcd13ifvqeg0","pricing_plan_id":"free"},{"bike_id":"05cf53da-ce26-472a-a3f5-4208d564550d","system_id":"levelo_inurba_marseille","lat":43.290327,"lon":5.375711,"is_reserved":false,"is_disabled":false,"rental_uris":{"android":"levelo://app?vid=05cf53da-ce26-472a-a3f5-4208d564550d","ios":"levelo://app?vid=05cf53da-ce26-472a-a3f5-4208d564550d"},"vehicle_type_id":"4","last_reported":1703088450,"current_range_meters":0,"station_id":"ce4bh692rcd13ifvqe90","pricing_plan_id":"free"},{"bike_id":"41532b70-b575-4d20-b86a-12c3157734e7","system_id":"levelo_inurba_marseille","lat":43.304296,"lon":5.397513,"is_reserved":false,"is_disabled":false,"rental_uris":{"android":"levelo://app?vid=41532b70-b575-4d20-b86a-12c3157734e7","ios":"levelo://app?vid=41532b70-b575-4d20-b86a-12c3157734e7"},"vehicle_type_id":"4","last_reported":1703088450,"current_range_meters":21200,"station_id":"ce4bh092rcd13ifvqd20","pricing_plan_id":"free"},{"bike_id":"7e7cfa30-4f63-49ae-85ef-29234283f4ab","system_id":"levelo_inurba_marseille","lat":43.304274,"lon":5.397513,"is_reserved":false,"is_disabled":false,"rental_uris":{"android":"levelo://app?vid=7e7cfa30-4f63-49ae-85ef-29234283f4ab","ios":"levelo://app?vid=7e7cfa30-4f63-49ae-85ef-29234283f4ab"},"vehicle_type_id":"4","last_reported":1703088450,"current_range_meters":18000,"station_id":"ce4bh092rcd13ifvqd20","pricing_plan_id":"free"},{"bike_id":"39e98c13-8bf5-4359-b4b2-7b9441a1d969","system_id":"levelo_inurba_marseille","lat":43.330442,"lon":5.389148,"is_reserved":false,"is_disabled":false,"rental_uris":{"android":"levelo://app?vid=39e98c13-8bf5-4359-b4b2-7b9441a1d969","ios":"levelo://app?vid=39e98c13-8bf5-4359-b4b2-7b9441a1d969"},"vehicle_type_id":"4","last_reported":1703088450,"current_range_meters":25200,"station_id":"ce4bhr92rcd13ifvqhrg","pricing_plan_id":"free"},{"bike_id":"03792874-86d9-468e-be10-3c6851108053","system_id":"levelo_inurba_marseille","lat":43.33041,"lon":5.38924,"is_reserved":false,"is_disabled":false,"rental_uris":{"android":"levelo://app?vid=03792874-86d9-468e-be10-3c6851108053","ios":"levelo://app?vid=03792874-86d9-468e-be10-3c6851108053"},"vehicle_type_id":"4","last_reported":1703088450,"current_range_meters":18000,"station_id":"ce4bhr92rcd13ifvqhrg","pricing_plan_id":"free"},{"bike_id":"a44c4c9a-083e-42e6-8e6d-8958a860af21","system_id":"levelo_inurba_marseille","lat":43.33042,"lon":5.38925,"is_reserved":false,"is_disabled":false,"rental_uris":{"android":"levelo://app?vid=a44c4c9a-083e-42e6-8e6d-8958a860af21","ios":"levelo://app?vid=a44c4c9a-083e-42e6-8e6d-8958a860af21"},"vehicle_type_id":"4","last_reported":1703088450,"current_range_meters":19200,"station_id":"ce4bhr92rcd13ifvqhrg","pricing_plan_id":"free"},{"bike_id":"b4dcf146-4537-4117-b4a3-9d88c696d1f4","system_id":"levelo_inurba_marseille","lat":43.290104,"lon":5.356111,"is_reserved":false,"is_disabled":false,"rental_uris":{"android":"levelo://app?vid=b4dcf146-4537-4117-b4a3-9d88c696d1f4","ios":"levelo://app?vid=b4dcf146-4537-4117-b4a3-9d88c696d1f4"},"vehicle_type_id":"4","last_reported":1703088450,"current_range_meters":6000,"station_id":"ce4bhb92rcd13ifvqen0","pricing_plan_id":"free"},{"bike_id":"67396319-f656-4ed2-90cd-0b73c64de32c","system_id":"levelo_inurba_marseille","lat":43.295169,"lon":5.390426,"is_reserved":false,"is_disabled":false,"rental_uris":{"android":"levelo://app?vid=67396319-f656-4ed2-90cd-0b73c64de32c","ios":"levelo://app?vid=67396319-f656-4ed2-90cd-0b73c64de32c"},"vehicle_type_id":"4","last_reported":1703088450,"current_range_meters":23600,"station_id":"ce4bh3p2rcd13ifvqdp0","pricing_plan_id":"free"},{"bike_id":"41337793-44af-4644-813e-b796c865bbaf","system_id":"levelo_inurba_marseille","lat":43.295169,"lon":5.390426,"is_reserved":false,"is_disabled":false,"rental_uris":{"android":"levelo://app?vid=41337793-44af-4644-813e-b796c865bbaf","ios":"levelo://app?vid=41337793-44af-4644-813e-b796c865bbaf"},"vehicle_type_id":"4","last_reported":1703088450,"current_range_meters":10400,"station_id":"ce4bh3p2rcd13ifvqdp0","pricing_plan_id":"free"},{"bike_id":"16ad80b5-1bc7-4dc3-b3eb-ddcc7aac91de","system_id":"levelo_inurba_marseille","lat":43.312609,"lon":5.401662,"is_reserved":false,"is_disabled":false,"rental_uris":{"android":"levelo://app?vid=16ad80b5-1bc7-4dc3-b3eb-ddcc7aac91de","ios":"levelo://app?vid=16ad80b5-1bc7-4dc3-b3eb-ddcc7aac91de"},"vehicle_type_id":"4","last_reported":1703088450,"current_range_meters":14800,"station_id":"ce4bh092rcd13ifvqd30","pricing_plan_id":"free"},{"bike_id":"efc8b483-666b-48da-afa0-0447382868fd","system_id":"levelo_inurba_marseille","lat":43.337448,"lon":5.374743,"is_reserved":false,"is_disabled":false,"rental_uris":{"android":"levelo://app?vid=efc8b483-666b-48da-afa0-0447382868fd","ios":"levelo://app?vid=efc8b483-666b-48da-afa0-0447382868fd"},"vehicle_type_id":"4","last_reported":1703088450,"current_range_meters":26800,"station_id":"","pricing_plan_id":"free"},{"bike_id":"fd4e7f60-d5f5-47e2-a4e2-0283faae9197","system_id":"levelo_inurba_marseille","lat":43.33758,"lon":5.37456,"is_reserved":false,"is_disabled":false,"rental_uris":{"android":"levelo://app?vid=fd4e7f60-d5f5-47e2-a4e2-0283faae9197","ios":"levelo://app?vid=fd4e7f60-d5f5-47e2-a4e2-0283faae9197"},"vehicle_type_id":"4","last_reported":1703088450,"current_range_meters":26800,"station_id":"","pricing_plan_id":"free"},{"bike_id":"53b941f9-9e53-485d-8add-c6dc5ec045f3","system_id":"levelo_inurba_marseille","lat":43.28727,"lon":5.36078,"is_reserved":false,"is_disabled":false,"rental_uris":{"android":"levelo://app?vid=53b941f9-9e53-485d-8add-c6dc5ec045f3","ios":"levelo://app?vid=53b941f9-9e53-485d-8add-c6dc5ec045f3"},"vehicle_type_id":"4","last_reported":1703088450,"current_range_meters":16400,"station_id":"cki0cbj6b192h4jlfktg","pricing_plan_id":"free"},{"bike_id":"7d532933-92b5-444e-b644-474fa89d1b1b","system_id":"levelo_inurba_marseille","lat":43.286961,"lon":5.373785,"is_reserved":false,"is_disabled":false,"rental_uris":{"android":"levelo://app?vid=7d532933-92b5-444e-b644-474fa89d1b1b","ios":"levelo://app?vid=7d532933-92b5-444e-b644-474fa89d1b1b"},"vehicle_type_id":"4","last_reported":1703088450,"current_range_meters":21600,"station_id":"ce4bh3p2rcd13ifvqdq0","pricing_plan_id":"free"},{"bike_id":"adbe7a5d-a4cf-4c20-907a-af5e519edbae","system_id":"levelo_inurba_marseille","lat":43.286961,"lon":5.373785,"is_reserved":false,"is_disabled":false,"rental_uris":{"android":"levelo://app?vid=adbe7a5d-a4cf-4c20-907a-af5e519edbae","ios":"levelo://app?vid=adbe7a5d-a4cf-4c20-907a-af5e519edbae"},"vehicle_type_id":"4","last_reported":1703088450,"current_range_meters":30000,"station_id":"ce4bh3p2rcd13ifvqdq0","pricing_plan_id":"free"},{"bike_id":"82dd223b-8ce6-47c4-b9cf-585e95fb3217","system_id":"levelo_inurba_marseille","lat":43.286591,"lon":5.363346,"is_reserved":false,"is_disabled":false,"rental_uris":{"android":"levelo://app?vid=82dd223b-8ce6-47c4-b9cf-585e95fb3217","ios":"levelo://app?vid=82dd223b-8ce6-47c4-b9cf-585e95fb3217"},"vehicle_type_id":"4","last_reported":1703088450,"current_range_meters":29600,"station_id":"ce4bhah2rcd13ifvqej0","pricing_plan_id":"free"},{"bike_id":"922c3ed7-408a-4f0f-8fc4-0cd67219323f","system_id":"levelo_inurba_marseille","lat":43.286961,"lon":5.373785,"is_reserved":false,"is_disabled":false,"rental_uris":{"android":"levelo://app?vid=922c3ed7-408a-4f0f-8fc4-0cd67219323f","ios":"levelo://app?vid=922c3ed7-408a-4f0f-8fc4-0cd67219323f"},"vehicle_type_id":"4","last_reported":1703088450,"current_range_meters":400,"station_id":"ce4bh3p2rcd13ifvqdq0","pricing_plan_id":"free"},{"bike_id":"0f5da2e7-37ac-44af-a7a4-a098028ab250","system_id":"levelo_inurba_marseille","lat":43.286591,"lon":5.363346,"is_reserved":false,"is_disabled":false,"rental_uris":{"android":"levelo://app?vid=0f5da2e7-37ac-44af-a7a4-a098028ab250","ios":"levelo://app?vid=0f5da2e7-37ac-44af-a7a4-a098028ab250"},"vehicle_type_id":"4","last_reported":1703088450,"current_range_meters":15600,"station_id":"ce4bhah2rcd13ifvqej0","pricing_plan_id":"free"},{"bike_id":"ff3e8643-f548-40e5-ae01-7f28ce9c241c","system_id":"levelo_inurba_marseille","lat":43.290336,"lon":5.386425,"is_reserved":false,"is_disabled":false,"rental_uris":{"android":"levelo://app?vid=ff3e8643-f548-40e5-ae01-7f28ce9c241c","ios":"levelo://app?vid=ff3e8643-f548-40e5-ae01-7f28ce9c241c"},"vehicle_type_id":"4","last_reported":1703088450,"current_range_meters":22400,"station_id":"ce4bh4p2rcd13ifvqe0g","pricing_plan_id":"free"},{"bike_id":"f11bb89e-73f9-4f2c-b375-8f12b9b4122b","system_id":"levelo_inurba_marseille","lat":43.290345,"lon":5.38646,"is_reserved":false,"is_disabled":false,"rental_uris":{"android":"levelo://app?vid=f11bb89e-73f9-4f2c-b375-8f12b9b4122b","ios":"levelo://app?vid=f11bb89e-73f9-4f2c-b375-8f12b9b4122b"},"vehicle_type_id":"4","last_reported":1703088450,"current_range_meters":11200,"station_id":"ce4bh4p2rcd13ifvqe0g","pricing_plan_id":"free"},{"bike_id":"c3b9b49e-f2b1-40ef-87ef-4b0a802e746e","system_id":"levelo_inurba_marseille","lat":43.290336,"lon":5.386425,"is_reserved":false,"is_disabled":false,"rental_uris":{"android":"levelo://app?vid=c3b9b49e-f2b1-40ef-87ef-4b0a802e746e","ios":"levelo://app?vid=c3b9b49e-f2b1-40ef-87ef-4b0a802e746e"},"vehicle_type_id":"4","last_reported":1703088450,"current_range_meters":25200,"station_id":"ce4bh4p2rcd13ifvqe0g","pricing_plan_id":"free"},{"bike_id":"c9f5113e-8130-4d3c-902e-b80571a8f0e9","system_id":"levelo_inurba_marseille","lat":43.302759,"lon":5.400793,"is_reserved":false,"is_disabled":false,"rental_uris":{"android":"levelo://app?vid=c9f5113e-8130-4d3c-902e-b80571a8f0e9","ios":"levelo://app?vid=c9f5113e-8130-4d3c-902e-b80571a8f0e9"},"vehicle_type_id":"4","last_reported":1703088450,"current_range_meters":15200,"station_id":"ce4bgvh2rcd13ifvqcs0","pricing_plan_id":"free"},{"bike_id":"657577b9-aac4-4653-8b6b-22f49e62594d","system_id":"levelo_inurba_marseille","lat":43.286039,"lon":5.370679,"is_reserved":false,"is_disabled":false,"rental_uris":{"android":"levelo://app?vid=657577b9-aac4-4653-8b6b-22f49e62594d","ios":"levelo://app?vid=657577b9-aac4-4653-8b6b-22f49e62594d"},"vehicle_type_id":"4","last_reported":1703088450,"current_range_meters":30800,"station_id":"ce4bht12rcd13ifvqi60","pricing_plan_id":"free"},{"bike_id":"45c45b5c-3724-4e87-ba8d-805f96e2c1c4","system_id":"levelo_inurba_marseille","lat":43.287184,"lon":5.37937,"is_reserved":false,"is_disabled":false,"rental_uris":{"android":"levelo://app?vid=45c45b5c-3724-4e87-ba8d-805f96e2c1c4","ios":"levelo://app?vid=45c45b5c-3724-4e87-ba8d-805f96e2c1c4"},"vehicle_type_id":"4","last_reported":1703088450,"current_range_meters":22000,"station_id":"ce4bh9p2rcd13ifvqec0","pricing_plan_id":"free"},{"bike_id":"764040ea-fe29-4191-8310-dbf44b8e01a8","system_id":"levelo_inurba_marseille","lat":43.316828,"lon":5.404723,"is_reserved":false,"is_disabled":false,"rental_uris":{"android":"levelo://app?vid=764040ea-fe29-4191-8310-dbf44b8e01a8","ios":"levelo://app?vid=764040ea-fe29-4191-8310-dbf44b8e01a8"},"vehicle_type_id":"4","last_reported":1703088450,"current_range_meters":800,"station_id":"ce4bh012rcd13ifvqd00","pricing_plan_id":"free"},{"bike_id":"71fdf5b3-a656-4347-9a3d-9fb88591ab92","system_id":"levelo_inurba_marseille","lat":43.284538,"lon":5.358657,"is_reserved":false,"is_disabled":false,"rental_uris":{"android":"levelo://app?vid=71fdf5b3-a656-4347-9a3d-9fb88591ab92","ios":"levelo://app?vid=71fdf5b3-a656-4347-9a3d-9fb88591ab92"},"vehicle_type_id":"4","last_reported":1703088450,"current_range_meters":1600,"station_id":"ce4bhah2rcd13ifvqei0","pricing_plan_id":"free"},{"bike_id":"194be222-b466-45a0-bc26-af5babcc0061","system_id":"levelo_inurba_marseille","lat":43.28458,"lon":5.35895,"is_reserved":false,"is_disabled":false,"rental_uris":{"android":"levelo://app?vid=194be222-b466-45a0-bc26-af5babcc0061","ios":"levelo://app?vid=194be222-b466-45a0-bc26-af5babcc0061"},"vehicle_type_id":"4","last_reported":1703088450,"current_range_meters":0,"station_id":"ce4bhah2rcd13ifvqei0","pricing_plan_id":"free"},{"bike_id":"06133700-e22f-434a-a2f7-81bb89b130d4","system_id":"levelo_inurba_marseille","lat":43.294314,"lon":5.397498,"is_reserved":false,"is_disabled":false,"rental_uris":{"android":"levelo://app?vid=06133700-e22f-434a-a2f7-81bb89b130d4","ios":"levelo://app?vid=06133700-e22f-434a-a2f7-81bb89b130d4"},"vehicle_type_id":"4","last_reported":1703088450,"current_range_meters":15600,"station_id":"ce4bh3h2rcd13ifvqdo0","pricing_plan_id":"free"},{"bike_id":"d70dfdb7-a8c0-4ea3-9c21-5dbdafd9fb7b","system_id":"levelo_inurba_marseille","lat":43.294314,"lon":5.397498,"is_reserved":false,"is_disabled":false,"rental_uris":{"android":"levelo://app?vid=d70dfdb7-a8c0-4ea3-9c21-5dbdafd9fb7b","ios":"levelo://app?vid=d70dfdb7-a8c0-4ea3-9c21-5dbdafd9fb7b"},"vehicle_type_id":"4","last_reported":1703088450,"current_range_meters":10800,"station_id":"ce4bh3h2rcd13ifvqdo0","pricing_plan_id":"free"},{"bike_id":"2208196d-9111-4e22-a56f-7bad8f9fa748","system_id":"levelo_inurba_marseille","lat":43.283998,"lon":5.375062,"is_reserved":false,"is_disabled":false,"rental_uris":{"android":"levelo://app?vid=2208196d-9111-4e22-a56f-7bad8f9fa748","ios":"levelo://app?vid=2208196d-9111-4e22-a56f-7bad8f9fa748"},"vehicle_type_id":"4","last_reported":1703088450,"current_range_meters":22800,"station_id":"ce4bh412rcd13ifvqds0","pricing_plan_id":"free"},{"bike_id":"4ea381ba-f5ca-4402-a8ad-56297ca58f6f","system_id":"levelo_inurba_marseille","lat":43.285856,"lon":5.350771,"is_reserved":false,"is_disabled":false,"rental_uris":{"android":"levelo://app?vid=4ea381ba-f5ca-4402-a8ad-56297ca58f6f","ios":"levelo://app?vid=4ea381ba-f5ca-4402-a8ad-56297ca58f6f"},"vehicle_type_id":"4","last_reported":1703088450,"current_range_meters":21600,"station_id":"ce4bhch2rcd13ifvqeug","pricing_plan_id":"free"},{"bike_id":"4005d67c-e580-47a4-893b-53bd0a817d88","system_id":"levelo_inurba_marseille","lat":43.285848,"lon":5.350787,"is_reserved":false,"is_disabled":false,"rental_uris":{"android":"levelo://app?vid=4005d67c-e580-47a4-893b-53bd0a817d88","ios":"levelo://app?vid=4005d67c-e580-47a4-893b-53bd0a817d88"},"vehicle_type_id":"4","last_reported":1703088450,"current_range_meters":13600,"station_id":"ce4bhch2rcd13ifvqeug","pricing_plan_id":"free"},{"bike_id":"8538e6dd-dbef-4a5a-a119-9a857fd021ad","system_id":"levelo_inurba_marseille","lat":43.33218,"lon":5.397067,"is_reserved":false,"is_disabled":false,"rental_uris":{"android":"levelo://app?vid=8538e6dd-dbef-4a5a-a119-9a857fd021ad","ios":"levelo://app?vid=8538e6dd-dbef-4a5a-a119-9a857fd021ad"},"vehicle_type_id":"4","last_reported":1703088450,"current_range_meters":0,"station_id":"","pricing_plan_id":"free"},{"bike_id":"dfb799e0-6b52-4b93-891e-f427333dec88","system_id":"levelo_inurba_marseille","lat":43.33717,"lon":5.391857,"is_reserved":false,"is_disabled":false,"rental_uris":{"android":"levelo://app?vid=dfb799e0-6b52-4b93-891e-f427333dec88","ios":"levelo://app?vid=dfb799e0-6b52-4b93-891e-f427333dec88"},"vehicle_type_id":"4","last_reported":1703088450,"current_range_meters":25200,"station_id":"ce4bhr92rcd13ifvqhsg","pricing_plan_id":"free"},{"bike_id":"12a0cca1-2ffd-434e-8f77-a89bb49b56f4","system_id":"levelo_inurba_marseille","lat":43.33719,"lon":5.3919,"is_reserved":false,"is_disabled":false,"rental_uris":{"android":"levelo://app?vid=12a0cca1-2ffd-434e-8f77-a89bb49b56f4","ios":"levelo://app?vid=12a0cca1-2ffd-434e-8f77-a89bb49b56f4"},"vehicle_type_id":"4","last_reported":1703088450,"current_range_meters":22400,"station_id":"ce4bhr92rcd13ifvqhsg","pricing_plan_id":"free"},{"bike_id":"0e6bbc92-cec6-497f-ad89-d75d7e889db3","system_id":"levelo_inurba_marseille","lat":43.33717,"lon":5.391857,"is_reserved":false,"is_disabled":false,"rental_uris":{"android":"levelo://app?vid=0e6bbc92-cec6-497f-ad89-d75d7e889db3","ios":"levelo://app?vid=0e6bbc92-cec6-497f-ad89-d75d7e889db3"},"vehicle_type_id":"4","last_reported":1703088450,"current_range_meters":31600,"station_id":"ce4bhr92rcd13ifvqhsg","pricing_plan_id":"free"},{"bike_id":"d3b8a933-bb32-4027-8cd2-ea28e07b8fa8","system_id":"levelo_inurba_marseille","lat":43.337168,"lon":5.391825,"is_reserved":false,"is_disabled":false,"rental_uris":{"android":"levelo://app?vid=d3b8a933-bb32-4027-8cd2-ea28e07b8fa8","ios":"levelo://app?vid=d3b8a933-bb32-4027-8cd2-ea28e07b8fa8"},"vehicle_type_id":"4","last_reported":1703088450,"current_range_meters":26400,"station_id":"ce4bhr92rcd13ifvqhsg","pricing_plan_id":"free"},{"bike_id":"bca3152d-9cee-4707-add9-0d37354d795d","system_id":"levelo_inurba_marseille","lat":43.29802,"lon":5.40407,"is_reserved":false,"is_disabled":false,"rental_uris":{"android":"levelo://app?vid=bca3152d-9cee-4707-add9-0d37354d795d","ios":"levelo://app?vid=bca3152d-9cee-4707-add9-0d37354d795d"},"vehicle_type_id":"4","last_reported":1703088450,"current_range_meters":8800,"station_id":"ce4bh112rcd13ifvqd90","pricing_plan_id":"free"},{"bike_id":"d6ceaf01-26b8-4886-ac1f-d274beda68aa","system_id":"levelo_inurba_marseille","lat":43.333477,"lon":5.398309,"is_reserved":false,"is_disabled":false,"rental_uris":{"android":"levelo://app?vid=d6ceaf01-26b8-4886-ac1f-d274beda68aa","ios":"levelo://app?vid=d6ceaf01-26b8-4886-ac1f-d274beda68aa"},"vehicle_type_id":"4","last_reported":1703088450,"current_range_meters":0,"station_id":"","pricing_plan_id":"free"},{"bike_id":"99c0c118-61e8-4cea-80ff-9be3c4ac7cf7","system_id":"levelo_inurba_marseille","lat":43.284225,"lon":5.349873,"is_reserved":false,"is_disabled":false,"rental_uris":{"android":"levelo://app?vid=99c0c118-61e8-4cea-80ff-9be3c4ac7cf7","ios":"levelo://app?vid=99c0c118-61e8-4cea-80ff-9be3c4ac7cf7"},"vehicle_type_id":"4","last_reported":1703088450,"current_range_meters":2800,"station_id":"ce4bhbh2rcd13ifvqepg","pricing_plan_id":"free"},{"bike_id":"e68ad7a3-9f73-42da-8e90-59adcc6ccfbd","system_id":"levelo_inurba_marseille","lat":43.284219,"lon":5.3497,"is_reserved":false,"is_disabled":false,"rental_uris":{"android":"levelo://app?vid=e68ad7a3-9f73-42da-8e90-59adcc6ccfbd","ios":"levelo://app?vid=e68ad7a3-9f73-42da-8e90-59adcc6ccfbd"},"vehicle_type_id":"4","last_reported":1703088450,"current_range_meters":11600,"station_id":"ce4bhbh2rcd13ifvqepg","pricing_plan_id":"free"},{"bike_id":"442f3174-a786-4c59-b379-36bc680eb984","system_id":"levelo_inurba_marseille","lat":43.282744,"lon":5.350533,"is_reserved":false,"is_disabled":false,"rental_uris":{"android":"levelo://app?vid=442f3174-a786-4c59-b379-36bc680eb984","ios":"levelo://app?vid=442f3174-a786-4c59-b379-36bc680eb984"},"vehicle_type_id":"4","last_reported":1703088450,"current_range_meters":14400,"station_id":"ce4bhbp2rcd13ifvqerg","pricing_plan_id":"free"},{"bike_id":"fd9e446a-6697-4e31-92de-2e10d4557bc1","system_id":"levelo_inurba_marseille","lat":43.284462,"lon":5.392121,"is_reserved":false,"is_disabled":false,"rental_uris":{"android":"levelo://app?vid=fd9e446a-6697-4e31-92de-2e10d4557bc1","ios":"levelo://app?vid=fd9e446a-6697-4e31-92de-2e10d4557bc1"},"vehicle_type_id":"4","last_reported":1703088450,"current_range_meters":19600,"station_id":"ce4bhoh2rcd13ifvqh5g","pricing_plan_id":"free"},{"bike_id":"48b56a34-a75b-4ccf-9da9-569c23bf05ae","system_id":"levelo_inurba_marseille","lat":43.30419,"lon":5.412868,"is_reserved":false,"is_disabled":false,"rental_uris":{"android":"levelo://app?vid=48b56a34-a75b-4ccf-9da9-569c23bf05ae","ios":"levelo://app?vid=48b56a34-a75b-4ccf-9da9-569c23bf05ae"},"vehicle_type_id":"4","last_reported":1703088450,"current_range_meters":30000,"station_id":"ce4bhop2rcd13ifvqh8g","pricing_plan_id":"free"},{"bike_id":"cb0668d4-d46c-4efe-a7e0-185ebe495ab4","system_id":"levelo_inurba_marseille","lat":43.280581,"lon":5.389256,"is_reserved":false,"is_disabled":false,"rental_uris":{"android":"levelo://app?vid=cb0668d4-d46c-4efe-a7e0-185ebe495ab4","ios":"levelo://app?vid=cb0668d4-d46c-4efe-a7e0-185ebe495ab4"},"vehicle_type_id":"4","last_reported":1703088450,"current_range_meters":7200,"station_id":"","pricing_plan_id":"free"},{"bike_id":"0c59eeb2-b4b4-4f08-be3d-b2a1c4b3b00a","system_id":"levelo_inurba_marseille","lat":43.279742,"lon":5.38744,"is_reserved":false,"is_disabled":false,"rental_uris":{"android":"levelo://app?vid=0c59eeb2-b4b4-4f08-be3d-b2a1c4b3b00a","ios":"levelo://app?vid=0c59eeb2-b4b4-4f08-be3d-b2a1c4b3b00a"},"vehicle_type_id":"4","last_reported":1703088450,"current_range_meters":19200,"station_id":"ce4bhg12rcd13ifvqf80","pricing_plan_id":"free"},{"bike_id":"7434b35c-d68b-405e-a248-425b1433fa4f","system_id":"levelo_inurba_marseille","lat":43.292571,"lon":5.409107,"is_reserved":false,"is_disabled":false,"rental_uris":{"android":"levelo://app?vid=7434b35c-d68b-405e-a248-425b1433fa4f","ios":"levelo://app?vid=7434b35c-d68b-405e-a248-425b1433fa4f"},"vehicle_type_id":"4","last_reported":1703088450,"current_range_meters":10000,"station_id":"ce4bh192rcd13ifvqdc0","pricing_plan_id":"free"},{"bike_id":"18cc1fbd-1a10-403e-937c-20bc36cc1c6a","system_id":"levelo_inurba_marseille","lat":43.292569,"lon":5.409107,"is_reserved":false,"is_disabled":false,"rental_uris":{"android":"levelo://app?vid=18cc1fbd-1a10-403e-937c-20bc36cc1c6a","ios":"levelo://app?vid=18cc1fbd-1a10-403e-937c-20bc36cc1c6a"},"vehicle_type_id":"4","last_reported":1703088450,"current_range_meters":24800,"station_id":"ce4bh192rcd13ifvqdc0","pricing_plan_id":"free"},{"bike_id":"eac7812e-c936-447c-b093-88e6c8c3e076","system_id":"levelo_inurba_marseille","lat":43.29268,"lon":5.40912,"is_reserved":false,"is_disabled":false,"rental_uris":{"android":"levelo://app?vid=eac7812e-c936-447c-b093-88e6c8c3e076","ios":"levelo://app?vid=eac7812e-c936-447c-b093-88e6c8c3e076"},"vehicle_type_id":"4","last_reported":1703088450,"current_range_meters":18000,"station_id":"ce4bh192rcd13ifvqdc0","pricing_plan_id":"free"},{"bike_id":"112a34ac-aa41-41b7-aad7-76e526d7a671","system_id":"levelo_inurba_marseille","lat":43.276179,"lon":5.361009,"is_reserved":false,"is_disabled":false,"rental_uris":{"android":"levelo://app?vid=112a34ac-aa41-41b7-aad7-76e526d7a671","ios":"levelo://app?vid=112a34ac-aa41-41b7-aad7-76e526d7a671"},"vehicle_type_id":"4","last_reported":1703088450,"current_range_meters":12400,"station_id":"ce4bgj92rcd13ifvqbe0","pricing_plan_id":"free"},{"bike_id":"ae97ba37-8759-486d-94a5-f27bc8d713dd","system_id":"levelo_inurba_marseille","lat":43.27618,"lon":5.361009,"is_reserved":false,"is_disabled":false,"rental_uris":{"android":"levelo://app?vid=ae97ba37-8759-486d-94a5-f27bc8d713dd","ios":"levelo://app?vid=ae97ba37-8759-486d-94a5-f27bc8d713dd"},"vehicle_type_id":"4","last_reported":1703088450,"current_range_meters":25200,"station_id":"ce4bgj92rcd13ifvqbe0","pricing_plan_id":"free"},{"bike_id":"5f9adee1-a326-447e-8322-4bf39e2156a6","system_id":"levelo_inurba_marseille","lat":43.280784,"lon":5.396622,"is_reserved":false,"is_disabled":false,"rental_uris":{"android":"levelo://app?vid=5f9adee1-a326-447e-8322-4bf39e2156a6","ios":"levelo://app?vid=5f9adee1-a326-447e-8322-4bf39e2156a6"},"vehicle_type_id":"4","last_reported":1703088450,"current_range_meters":26000,"station_id":"ce4bho12rcd13ifvqh2g","pricing_plan_id":"free"},{"bike_id":"1b411c6b-201d-4488-8b0a-082671a3e74b","system_id":"levelo_inurba_marseille","lat":43.280784,"lon":5.396622,"is_reserved":false,"is_disabled":false,"rental_uris":{"android":"levelo://app?vid=1b411c6b-201d-4488-8b0a-082671a3e74b","ios":"levelo://app?vid=1b411c6b-201d-4488-8b0a-082671a3e74b"},"vehicle_type_id":"4","last_reported":1703088450,"current_range_meters":6400,"station_id":"ce4bho12rcd13ifvqh2g","pricing_plan_id":"free"},{"bike_id":"e2b9a110-28f1-46ce-985b-854c3fa1893b","system_id":"levelo_inurba_marseille","lat":43.280784,"lon":5.396622,"is_reserved":false,"is_disabled":false,"rental_uris":{"android":"levelo://app?vid=e2b9a110-28f1-46ce-985b-854c3fa1893b","ios":"levelo://app?vid=e2b9a110-28f1-46ce-985b-854c3fa1893b"},"vehicle_type_id":"4","last_reported":1703088450,"current_range_meters":29600,"station_id":"ce4bho12rcd13ifvqh2g","pricing_plan_id":"free"},{"bike_id":"83489523-53cc-428e-8af2-548f20585f1b","system_id":"levelo_inurba_marseille","lat":43.303837,"lon":5.418724,"is_reserved":false,"is_disabled":false,"rental_uris":{"android":"levelo://app?vid=83489523-53cc-428e-8af2-548f20585f1b","ios":"levelo://app?vid=83489523-53cc-428e-8af2-548f20585f1b"},"vehicle_type_id":"4","last_reported":1703088450,"current_range_meters":27600,"station_id":"ce4bhop2rcd13ifvqh7g","pricing_plan_id":"free"},{"bike_id":"8620807d-e7d9-49bd-a224-36b8c79adb00","system_id":"levelo_inurba_marseille","lat":43.303837,"lon":5.418724,"is_reserved":false,"is_disabled":false,"rental_uris":{"android":"levelo://app?vid=8620807d-e7d9-49bd-a224-36b8c79adb00","ios":"levelo://app?vid=8620807d-e7d9-49bd-a224-36b8c79adb00"},"vehicle_type_id":"4","last_reported":1703088450,"current_range_meters":29600,"station_id":"ce4bhop2rcd13ifvqh7g","pricing_plan_id":"free"},{"bike_id":"b1d70cd3-5b7a-48bd-8b4f-8f908a7ec8fc","system_id":"levelo_inurba_marseille","lat":43.278399,"lon":5.392139,"is_reserved":false,"is_disabled":false,"rental_uris":{"android":"levelo://app?vid=b1d70cd3-5b7a-48bd-8b4f-8f908a7ec8fc","ios":"levelo://app?vid=b1d70cd3-5b7a-48bd-8b4f-8f908a7ec8fc"},"vehicle_type_id":"4","last_reported":1703088450,"current_range_meters":19200,"station_id":"ce4bhjp2rcd13ifvqga0","pricing_plan_id":"free"},{"bike_id":"e7cfa2d0-55af-462c-a912-3a60f1f3b13f","system_id":"levelo_inurba_marseille","lat":43.278399,"lon":5.392139,"is_reserved":false,"is_disabled":false,"rental_uris":{"android":"levelo://app?vid=e7cfa2d0-55af-462c-a912-3a60f1f3b13f","ios":"levelo://app?vid=e7cfa2d0-55af-462c-a912-3a60f1f3b13f"},"vehicle_type_id":"4","last_reported":1703088450,"current_range_meters":12400,"station_id":"ce4bhjp2rcd13ifvqga0","pricing_plan_id":"free"},{"bike_id":"67d72a72-87fa-479f-a8e7-ca752b947ce5","system_id":"levelo_inurba_marseille","lat":43.273609,"lon":5.362708,"is_reserved":false,"is_disabled":false,"rental_uris":{"android":"levelo://app?vid=67d72a72-87fa-479f-a8e7-ca752b947ce5","ios":"levelo://app?vid=67d72a72-87fa-479f-a8e7-ca752b947ce5"},"vehicle_type_id":"4","last_reported":1703088450,"current_range_meters":26400,"station_id":"ce4bhbh2rcd13ifvqeo0","pricing_plan_id":"free"},{"bike_id":"5220afc1-8944-48f5-808d-90b328af6e23","system_id":"levelo_inurba_marseille","lat":43.27551,"lon":5.38426,"is_reserved":false,"is_disabled":false,"rental_uris":{"android":"levelo://app?vid=5220afc1-8944-48f5-808d-90b328af6e23","ios":"levelo://app?vid=5220afc1-8944-48f5-808d-90b328af6e23"},"vehicle_type_id":"4","last_reported":1703088450,"current_range_meters":22000,"station_id":"ce4bhh92rcd13ifvqfi0","pricing_plan_id":"free"},{"bike_id":"f5dec4ba-0e2b-4e5b-90c7-af39a697707b","system_id":"levelo_inurba_marseille","lat":43.275625,"lon":5.384392,"is_reserved":false,"is_disabled":false,"rental_uris":{"android":"levelo://app?vid=f5dec4ba-0e2b-4e5b-90c7-af39a697707b","ios":"levelo://app?vid=f5dec4ba-0e2b-4e5b-90c7-af39a697707b"},"vehicle_type_id":"4","last_reported":1703088450,"current_range_meters":22400,"station_id":"ce4bhh92rcd13ifvqfi0","pricing_plan_id":"free"},{"bike_id":"36935309-124f-4a9e-a469-5cf7edee58c8","system_id":"levelo_inurba_marseille","lat":43.275625,"lon":5.384392,"is_reserved":false,"is_disabled":false,"rental_uris":{"android":"levelo://app?vid=36935309-124f-4a9e-a469-5cf7edee58c8","ios":"levelo://app?vid=36935309-124f-4a9e-a469-5cf7edee58c8"},"vehicle_type_id":"4","last_reported":1703088450,"current_range_meters":21600,"station_id":"ce4bhh92rcd13ifvqfi0","pricing_plan_id":"free"},{"bike_id":"6b83a9e4-4f2a-4069-a8fd-20eddce5cc2c","system_id":"levelo_inurba_marseille","lat":43.276771,"lon":5.388799,"is_reserved":false,"is_disabled":false,"rental_uris":{"android":"levelo://app?vid=6b83a9e4-4f2a-4069-a8fd-20eddce5cc2c","ios":"levelo://app?vid=6b83a9e4-4f2a-4069-a8fd-20eddce5cc2c"},"vehicle_type_id":"4","last_reported":1703088450,"current_range_meters":2000,"station_id":"ce4bhi12rcd13ifvqfo0","pricing_plan_id":"free"},{"bike_id":"d22d1203-0f21-4007-9972-05249b0e3c2d","system_id":"levelo_inurba_marseille","lat":43.317121,"lon":5.423936,"is_reserved":false,"is_disabled":false,"rental_uris":{"android":"levelo://app?vid=d22d1203-0f21-4007-9972-05249b0e3c2d","ios":"levelo://app?vid=d22d1203-0f21-4007-9972-05249b0e3c2d"},"vehicle_type_id":"4","last_reported":1703088450,"current_range_meters":27200,"station_id":"ce4bhp92rcd13ifvqhbg","pricing_plan_id":"free"},{"bike_id":"6aeb72c6-7795-421e-8c99-8e89a08bfac6","system_id":"levelo_inurba_marseille","lat":43.317121,"lon":5.423936,"is_reserved":false,"is_disabled":false,"rental_uris":{"android":"levelo://app?vid=6aeb72c6-7795-421e-8c99-8e89a08bfac6","ios":"levelo://app?vid=6aeb72c6-7795-421e-8c99-8e89a08bfac6"},"vehicle_type_id":"4","last_reported":1703088450,"current_range_meters":30000,"station_id":"ce4bhp92rcd13ifvqhbg","pricing_plan_id":"free"},{"bike_id":"a5be1e0a-9870-48c1-b934-a7e079d58b9c","system_id":"levelo_inurba_marseille","lat":43.31081,"lon":5.42433,"is_reserved":false,"is_disabled":false,"rental_uris":{"android":"levelo://app?vid=a5be1e0a-9870-48c1-b934-a7e079d58b9c","ios":"levelo://app?vid=a5be1e0a-9870-48c1-b934-a7e079d58b9c"},"vehicle_type_id":"4","last_reported":1703088450,"current_range_meters":30000,"station_id":"ce4bhp92rcd13ifvqhag","pricing_plan_id":"free"},{"bike_id":"974dc7db-ff3c-4554-8964-132f9db52d9b","system_id":"levelo_inurba_marseille","lat":43.276092,"lon":5.395289,"is_reserved":false,"is_disabled":false,"rental_uris":{"android":"levelo://app?vid=974dc7db-ff3c-4554-8964-132f9db52d9b","ios":"levelo://app?vid=974dc7db-ff3c-4554-8964-132f9db52d9b"},"vehicle_type_id":"4","last_reported":1703088450,"current_range_meters":4000,"station_id":"","pricing_plan_id":"free"},{"bike_id":"75ad84fd-5727-4bd0-9764-28f6be60b39f","system_id":"levelo_inurba_marseille","lat":43.273129,"lon":5.390725,"is_reserved":false,"is_disabled":false,"rental_uris":{"android":"levelo://app?vid=75ad84fd-5727-4bd0-9764-28f6be60b39f","ios":"levelo://app?vid=75ad84fd-5727-4bd0-9764-28f6be60b39f"},"vehicle_type_id":"4","last_reported":1703088450,"current_range_meters":8400,"station_id":"ce4bhgp2rcd13ifvqfe0","pricing_plan_id":"free"},{"bike_id":"938051b1-f212-49a2-b0c9-2a7bcbf8a4aa","system_id":"levelo_inurba_marseille","lat":43.27421,"lon":5.39413,"is_reserved":false,"is_disabled":false,"rental_uris":{"android":"levelo://app?vid=938051b1-f212-49a2-b0c9-2a7bcbf8a4aa","ios":"levelo://app?vid=938051b1-f212-49a2-b0c9-2a7bcbf8a4aa"},"vehicle_type_id":"4","last_reported":1703088450,"current_range_meters":27600,"station_id":"ce4bhdp2rcd13ifvqf20","pricing_plan_id":"free"},{"bike_id":"ffe5304a-ba3a-4881-93cd-dab351ffdf3e","system_id":"levelo_inurba_marseille","lat":43.304096,"lon":5.425385,"is_reserved":false,"is_disabled":false,"rental_uris":{"android":"levelo://app?vid=ffe5304a-ba3a-4881-93cd-dab351ffdf3e","ios":"levelo://app?vid=ffe5304a-ba3a-4881-93cd-dab351ffdf3e"},"vehicle_type_id":"4","last_reported":1703088450,"current_range_meters":0,"station_id":"ce4bhoh2rcd13ifvqh6g","pricing_plan_id":"free"},{"bike_id":"1cf7a822-2196-4dcd-93b0-c8d30b6277ac","system_id":"levelo_inurba_marseille","lat":43.295523,"lon":5.422926,"is_reserved":false,"is_disabled":false,"rental_uris":{"android":"levelo://app?vid=1cf7a822-2196-4dcd-93b0-c8d30b6277ac","ios":"levelo://app?vid=1cf7a822-2196-4dcd-93b0-c8d30b6277ac"},"vehicle_type_id":"4","last_reported":1703088450,"current_range_meters":27600,"station_id":"ce4bhph2rcd13ifvqhdg","pricing_plan_id":"free"},{"bike_id":"4b024186-44c5-4e5f-802f-63528bdb82e2","system_id":"levelo_inurba_marseille","lat":43.295511,"lon":5.422926,"is_reserved":false,"is_disabled":false,"rental_uris":{"android":"levelo://app?vid=4b024186-44c5-4e5f-802f-63528bdb82e2","ios":"levelo://app?vid=4b024186-44c5-4e5f-802f-63528bdb82e2"},"vehicle_type_id":"4","last_reported":1703088450,"current_range_meters":27600,"station_id":"ce4bhph2rcd13ifvqhdg","pricing_plan_id":"free"},{"bike_id":"d3c92d44-4e26-4df4-8a1c-51617ebdf2e6","system_id":"levelo_inurba_marseille","lat":43.272124,"lon":5.391768,"is_reserved":false,"is_disabled":false,"rental_uris":{"android":"levelo://app?vid=d3c92d44-4e26-4df4-8a1c-51617ebdf2e6","ios":"levelo://app?vid=d3c92d44-4e26-4df4-8a1c-51617ebdf2e6"},"vehicle_type_id":"4","last_reported":1703088450,"current_range_meters":800,"station_id":"ce4bhhp2rcd13ifvqfm0","pricing_plan_id":"free"},{"bike_id":"cae21f28-3582-42fa-91f3-c3b9b1ea70a2","system_id":"levelo_inurba_marseille","lat":43.269467,"lon":5.386439,"is_reserved":false,"is_disabled":false,"rental_uris":{"android":"levelo://app?vid=cae21f28-3582-42fa-91f3-c3b9b1ea70a2","ios":"levelo://app?vid=cae21f28-3582-42fa-91f3-c3b9b1ea70a2"},"vehicle_type_id":"4","last_reported":1703088450,"current_range_meters":22800,"station_id":"ce4bhh92rcd13ifvqfh0","pricing_plan_id":"free"},{"bike_id":"c93a192f-8d41-43ca-ad7c-297cb9c6b428","system_id":"levelo_inurba_marseille","lat":43.269467,"lon":5.386439,"is_reserved":false,"is_disabled":false,"rental_uris":{"android":"levelo://app?vid=c93a192f-8d41-43ca-ad7c-297cb9c6b428","ios":"levelo://app?vid=c93a192f-8d41-43ca-ad7c-297cb9c6b428"},"vehicle_type_id":"4","last_reported":1703088450,"current_range_meters":14400,"station_id":"ce4bhh92rcd13ifvqfh0","pricing_plan_id":"free"},{"bike_id":"ab8845a5-9cf3-49fb-87ec-1fc371f407db","system_id":"levelo_inurba_marseille","lat":43.269467,"lon":5.386439,"is_reserved":false,"is_disabled":false,"rental_uris":{"android":"levelo://app?vid=ab8845a5-9cf3-49fb-87ec-1fc371f407db","ios":"levelo://app?vid=ab8845a5-9cf3-49fb-87ec-1fc371f407db"},"vehicle_type_id":"4","last_reported":1703088450,"current_range_meters":18800,"station_id":"ce4bhh92rcd13ifvqfh0","pricing_plan_id":"free"},{"bike_id":"ee6d7bcc-a8f4-426c-a92c-a4713b45fb5a","system_id":"levelo_inurba_marseille","lat":43.269467,"lon":5.386439,"is_reserved":false,"is_disabled":false,"rental_uris":{"android":"levelo://app?vid=ee6d7bcc-a8f4-426c-a92c-a4713b45fb5a","ios":"levelo://app?vid=ee6d7bcc-a8f4-426c-a92c-a4713b45fb5a"},"vehicle_type_id":"4","last_reported":1703088450,"current_range_meters":24400,"station_id":"ce4bhh92rcd13ifvqfh0","pricing_plan_id":"free"},{"bike_id":"e45c7cc8-3a9f-4021-8581-40cf2486d84a","system_id":"levelo_inurba_marseille","lat":43.279465,"lon":5.410561,"is_reserved":false,"is_disabled":false,"rental_uris":{"android":"levelo://app?vid=e45c7cc8-3a9f-4021-8581-40cf2486d84a","ios":"levelo://app?vid=e45c7cc8-3a9f-4021-8581-40cf2486d84a"},"vehicle_type_id":"4","last_reported":1703088450,"current_range_meters":22400,"station_id":"ce4bhnp2rcd13ifvqh0g","pricing_plan_id":"free"},{"bike_id":"395b4e9f-1ede-4ede-afa9-facf5f7da3a3","system_id":"levelo_inurba_marseille","lat":43.269319,"lon":5.389397,"is_reserved":false,"is_disabled":false,"rental_uris":{"android":"levelo://app?vid=395b4e9f-1ede-4ede-afa9-facf5f7da3a3","ios":"levelo://app?vid=395b4e9f-1ede-4ede-afa9-facf5f7da3a3"},"vehicle_type_id":"4","last_reported":1703088450,"current_range_meters":21200,"station_id":"ce4bhhh2rcd13ifvqfl0","pricing_plan_id":"free"},{"bike_id":"12623ea9-541a-48b8-b3e2-79c89481aa13","system_id":"levelo_inurba_marseille","lat":43.269319,"lon":5.389397,"is_reserved":false,"is_disabled":false,"rental_uris":{"android":"levelo://app?vid=12623ea9-541a-48b8-b3e2-79c89481aa13","ios":"levelo://app?vid=12623ea9-541a-48b8-b3e2-79c89481aa13"},"vehicle_type_id":"4","last_reported":1703088450,"current_range_meters":26800,"station_id":"ce4bhhh2rcd13ifvqfl0","pricing_plan_id":"free"},{"bike_id":"d3bdeec8-1d1f-4c67-ab71-b3a81fab050e","system_id":"levelo_inurba_marseille","lat":43.26555,"lon":5.37285,"is_reserved":false,"is_disabled":false,"rental_uris":{"android":"levelo://app?vid=d3bdeec8-1d1f-4c67-ab71-b3a81fab050e","ios":"levelo://app?vid=d3bdeec8-1d1f-4c67-ab71-b3a81fab050e"},"vehicle_type_id":"4","last_reported":1703088450,"current_range_meters":6400,"station_id":"ce4bhg12rcd13ifvqf70","pricing_plan_id":"free"},{"bike_id":"5e86d999-070e-435d-801e-c0c0d5697d84","system_id":"levelo_inurba_marseille","lat":43.27996,"lon":5.416624,"is_reserved":false,"is_disabled":false,"rental_uris":{"android":"levelo://app?vid=5e86d999-070e-435d-801e-c0c0d5697d84","ios":"levelo://app?vid=5e86d999-070e-435d-801e-c0c0d5697d84"},"vehicle_type_id":"4","last_reported":1703088450,"current_range_meters":14800,"station_id":"ce4bho12rcd13ifvqh1g","pricing_plan_id":"free"},{"bike_id":"9943fc1a-f8fe-4dc4-808e-876e89326323","system_id":"levelo_inurba_marseille","lat":43.267966,"lon":5.393976,"is_reserved":false,"is_disabled":false,"rental_uris":{"android":"levelo://app?vid=9943fc1a-f8fe-4dc4-808e-876e89326323","ios":"levelo://app?vid=9943fc1a-f8fe-4dc4-808e-876e89326323"},"vehicle_type_id":"4","last_reported":1703088450,"current_range_meters":8400,"station_id":"ce4bhh12rcd13ifvqfg0","pricing_plan_id":"free"},{"bike_id":"492cc766-ae58-43a9-bbb9-614c0efa92a6","system_id":"levelo_inurba_marseille","lat":43.267966,"lon":5.393976,"is_reserved":false,"is_disabled":false,"rental_uris":{"android":"levelo://app?vid=492cc766-ae58-43a9-bbb9-614c0efa92a6","ios":"levelo://app?vid=492cc766-ae58-43a9-bbb9-614c0efa92a6"},"vehicle_type_id":"4","last_reported":1703088450,"current_range_meters":27200,"station_id":"ce4bhh12rcd13ifvqfg0","pricing_plan_id":"free"},{"bike_id":"ea20bdc3-442c-4a2c-804b-175228fc528c","system_id":"levelo_inurba_marseille","lat":43.26783,"lon":5.39418,"is_reserved":false,"is_disabled":false,"rental_uris":{"android":"levelo://app?vid=ea20bdc3-442c-4a2c-804b-175228fc528c","ios":"levelo://app?vid=ea20bdc3-442c-4a2c-804b-175228fc528c"},"vehicle_type_id":"4","last_reported":1703088450,"current_range_meters":27200,"station_id":"ce4bhh12rcd13ifvqfg0","pricing_plan_id":"free"},{"bike_id":"b080d4c4-706a-4b6b-9d9c-483d877f0d05","system_id":"levelo_inurba_marseille","lat":43.26783,"lon":5.39422,"is_reserved":false,"is_disabled":false,"rental_uris":{"android":"levelo://app?vid=b080d4c4-706a-4b6b-9d9c-483d877f0d05","ios":"levelo://app?vid=b080d4c4-706a-4b6b-9d9c-483d877f0d05"},"vehicle_type_id":"4","last_reported":1703088450,"current_range_meters":29200,"station_id":"ce4bhh12rcd13ifvqfg0","pricing_plan_id":"free"},{"bike_id":"7c7464f9-8328-4a76-8c69-9666c6a02b79","system_id":"levelo_inurba_marseille","lat":43.267966,"lon":5.393976,"is_reserved":false,"is_disabled":false,"rental_uris":{"android":"levelo://app?vid=7c7464f9-8328-4a76-8c69-9666c6a02b79","ios":"levelo://app?vid=7c7464f9-8328-4a76-8c69-9666c6a02b79"},"vehicle_type_id":"4","last_reported":1703088450,"current_range_meters":20800,"station_id":"ce4bhh12rcd13ifvqfg0","pricing_plan_id":"free"},{"bike_id":"17893280-c0ae-4f7a-b1ec-61a0ff1c08c6","system_id":"levelo_inurba_marseille","lat":43.267966,"lon":5.393976,"is_reserved":false,"is_disabled":false,"rental_uris":{"android":"levelo://app?vid=17893280-c0ae-4f7a-b1ec-61a0ff1c08c6","ios":"levelo://app?vid=17893280-c0ae-4f7a-b1ec-61a0ff1c08c6"},"vehicle_type_id":"4","last_reported":1703088450,"current_range_meters":20800,"station_id":"ce4bhh12rcd13ifvqfg0","pricing_plan_id":"free"},{"bike_id":"39a8e910-2504-47ec-83cd-80a95abb8ea9","system_id":"levelo_inurba_marseille","lat":43.267966,"lon":5.393976,"is_reserved":false,"is_disabled":false,"rental_uris":{"android":"levelo://app?vid=39a8e910-2504-47ec-83cd-80a95abb8ea9","ios":"levelo://app?vid=39a8e910-2504-47ec-83cd-80a95abb8ea9"},"vehicle_type_id":"4","last_reported":1703088450,"current_range_meters":27200,"station_id":"ce4bhh12rcd13ifvqfg0","pricing_plan_id":"free"},{"bike_id":"78cd16df-d11a-4929-8e6a-9c3748b8fd57","system_id":"levelo_inurba_marseille","lat":43.267966,"lon":5.393976,"is_reserved":false,"is_disabled":false,"rental_uris":{"android":"levelo://app?vid=78cd16df-d11a-4929-8e6a-9c3748b8fd57","ios":"levelo://app?vid=78cd16df-d11a-4929-8e6a-9c3748b8fd57"},"vehicle_type_id":"4","last_reported":1703088450,"current_range_meters":6800,"station_id":"ce4bhh12rcd13ifvqfg0","pricing_plan_id":"free"},{"bike_id":"ad68354b-d6c3-4f16-a649-b36722f12dfb","system_id":"levelo_inurba_marseille","lat":43.308051,"lon":5.43527,"is_reserved":false,"is_disabled":false,"rental_uris":{"android":"levelo://app?vid=ad68354b-d6c3-4f16-a649-b36722f12dfb","ios":"levelo://app?vid=ad68354b-d6c3-4f16-a649-b36722f12dfb"},"vehicle_type_id":"4","last_reported":1703088450,"current_range_meters":2000,"station_id":"ce4bhph2rcd13ifvqheg","pricing_plan_id":"free"},{"bike_id":"ab84a2ee-6ac2-409c-b367-f3ddfe486214","system_id":"levelo_inurba_marseille","lat":43.265571,"lon":5.390032,"is_reserved":false,"is_disabled":false,"rental_uris":{"android":"levelo://app?vid=ab84a2ee-6ac2-409c-b367-f3ddfe486214","ios":"levelo://app?vid=ab84a2ee-6ac2-409c-b367-f3ddfe486214"},"vehicle_type_id":"4","last_reported":1703088450,"current_range_meters":21600,"station_id":"ce4bhe12rcd13ifvqf30","pricing_plan_id":"free"},{"bike_id":"aee58545-1074-462e-bac4-78e58b3851b8","system_id":"levelo_inurba_marseille","lat":43.308051,"lon":5.43527,"is_reserved":false,"is_disabled":false,"rental_uris":{"android":"levelo://app?vid=aee58545-1074-462e-bac4-78e58b3851b8","ios":"levelo://app?vid=aee58545-1074-462e-bac4-78e58b3851b8"},"vehicle_type_id":"4","last_reported":1703088450,"current_range_meters":31200,"station_id":"ce4bhph2rcd13ifvqheg","pricing_plan_id":"free"},{"bike_id":"95592f76-bb9a-43df-a1c5-ec9e34e3aeb5","system_id":"levelo_inurba_marseille","lat":43.26949,"lon":5.40262,"is_reserved":false,"is_disabled":false,"rental_uris":{"android":"levelo://app?vid=95592f76-bb9a-43df-a1c5-ec9e34e3aeb5","ios":"levelo://app?vid=95592f76-bb9a-43df-a1c5-ec9e34e3aeb5"},"vehicle_type_id":"4","last_reported":1703088450,"current_range_meters":0,"station_id":"cjm6bp8fraef2m0cb0m0","pricing_plan_id":"free"},{"bike_id":"d239963a-3284-4350-a472-4a03f9e52c1c","system_id":"levelo_inurba_marseille","lat":43.26949,"lon":5.40262,"is_reserved":false,"is_disabled":false,"rental_uris":{"android":"levelo://app?vid=d239963a-3284-4350-a472-4a03f9e52c1c","ios":"levelo://app?vid=d239963a-3284-4350-a472-4a03f9e52c1c"},"vehicle_type_id":"4","last_reported":1703088450,"current_range_meters":24400,"station_id":"cjm6bp8fraef2m0cb0m0","pricing_plan_id":"free"},{"bike_id":"7c7bda9c-0c24-4a9a-a682-69088dd9a72b","system_id":"levelo_inurba_marseille","lat":43.26949,"lon":5.40262,"is_reserved":false,"is_disabled":false,"rental_uris":{"android":"levelo://app?vid=7c7bda9c-0c24-4a9a-a682-69088dd9a72b","ios":"levelo://app?vid=7c7bda9c-0c24-4a9a-a682-69088dd9a72b"},"vehicle_type_id":"4","last_reported":1703088450,"current_range_meters":4000,"station_id":"cjm6bp8fraef2m0cb0m0","pricing_plan_id":"free"},{"bike_id":"8a0441e7-913a-4d43-a29a-814763b10cc0","system_id":"levelo_inurba_marseille","lat":43.26949,"lon":5.40262,"is_reserved":false,"is_disabled":false,"rental_uris":{"android":"levelo://app?vid=8a0441e7-913a-4d43-a29a-814763b10cc0","ios":"levelo://app?vid=8a0441e7-913a-4d43-a29a-814763b10cc0"},"vehicle_type_id":"4","last_reported":1703088450,"current_range_meters":24000,"station_id":"cjm6bp8fraef2m0cb0m0","pricing_plan_id":"free"},{"bike_id":"29880cef-967b-4edc-bc26-8af0c55f8c9f","system_id":"levelo_inurba_marseille","lat":43.26949,"lon":5.40262,"is_reserved":false,"is_disabled":false,"rental_uris":{"android":"levelo://app?vid=29880cef-967b-4edc-bc26-8af0c55f8c9f","ios":"levelo://app?vid=29880cef-967b-4edc-bc26-8af0c55f8c9f"},"vehicle_type_id":"4","last_reported":1703088450,"current_range_meters":6400,"station_id":"cjm6bp8fraef2m0cb0m0","pricing_plan_id":"free"},{"bike_id":"32160909-42d2-44c5-8594-b809a9827c50","system_id":"levelo_inurba_marseille","lat":43.261782,"lon":5.374515,"is_reserved":false,"is_disabled":false,"rental_uris":{"android":"levelo://app?vid=32160909-42d2-44c5-8594-b809a9827c50","ios":"levelo://app?vid=32160909-42d2-44c5-8594-b809a9827c50"},"vehicle_type_id":"4","last_reported":1703088450,"current_range_meters":8400,"station_id":"ce4bhgp2rcd13ifvqfc0","pricing_plan_id":"free"},{"bike_id":"280fadbc-1b08-40fb-8f35-ad725cc2a2d6","system_id":"levelo_inurba_marseille","lat":43.261782,"lon":5.374515,"is_reserved":false,"is_disabled":false,"rental_uris":{"android":"levelo://app?vid=280fadbc-1b08-40fb-8f35-ad725cc2a2d6","ios":"levelo://app?vid=280fadbc-1b08-40fb-8f35-ad725cc2a2d6"},"vehicle_type_id":"4","last_reported":1703088450,"current_range_meters":13600,"station_id":"ce4bhgp2rcd13ifvqfc0","pricing_plan_id":"free"},{"bike_id":"c153e200-9788-40d5-8e8d-065b0667a7de","system_id":"levelo_inurba_marseille","lat":43.261782,"lon":5.374515,"is_reserved":false,"is_disabled":false,"rental_uris":{"android":"levelo://app?vid=c153e200-9788-40d5-8e8d-065b0667a7de","ios":"levelo://app?vid=c153e200-9788-40d5-8e8d-065b0667a7de"},"vehicle_type_id":"4","last_reported":1703088450,"current_range_meters":24400,"station_id":"ce4bhgp2rcd13ifvqfc0","pricing_plan_id":"free"},{"bike_id":"f495db20-e14f-474a-b8d0-1a9da35e54e9","system_id":"levelo_inurba_marseille","lat":43.261782,"lon":5.374515,"is_reserved":false,"is_disabled":false,"rental_uris":{"android":"levelo://app?vid=f495db20-e14f-474a-b8d0-1a9da35e54e9","ios":"levelo://app?vid=f495db20-e14f-474a-b8d0-1a9da35e54e9"},"vehicle_type_id":"4","last_reported":1703088450,"current_range_meters":16400,"station_id":"ce4bhgp2rcd13ifvqfc0","pricing_plan_id":"free"},{"bike_id":"2935b89d-3131-47ca-bc2d-e678e39066e8","system_id":"levelo_inurba_marseille","lat":43.317104,"lon":5.436818,"is_reserved":false,"is_disabled":false,"rental_uris":{"android":"levelo://app?vid=2935b89d-3131-47ca-bc2d-e678e39066e8","ios":"levelo://app?vid=2935b89d-3131-47ca-bc2d-e678e39066e8"},"vehicle_type_id":"4","last_reported":1703088450,"current_range_meters":31200,"station_id":"ce4bhp92rcd13ifvqhcg","pricing_plan_id":"free"},{"bike_id":"88bf7071-5805-4663-bc39-b0e3aaad2f15","system_id":"levelo_inurba_marseille","lat":43.31705,"lon":5.43718,"is_reserved":false,"is_disabled":false,"rental_uris":{"android":"levelo://app?vid=88bf7071-5805-4663-bc39-b0e3aaad2f15","ios":"levelo://app?vid=88bf7071-5805-4663-bc39-b0e3aaad2f15"},"vehicle_type_id":"4","last_reported":1703088450,"current_range_meters":23200,"station_id":"ce4bhp92rcd13ifvqhcg","pricing_plan_id":"free"},{"bike_id":"ee7eea03-8880-4674-9dc1-01c5ed458f36","system_id":"levelo_inurba_marseille","lat":43.271368,"lon":5.40928,"is_reserved":false,"is_disabled":false,"rental_uris":{"android":"levelo://app?vid=ee7eea03-8880-4674-9dc1-01c5ed458f36","ios":"levelo://app?vid=ee7eea03-8880-4674-9dc1-01c5ed458f36"},"vehicle_type_id":"4","last_reported":1703088450,"current_range_meters":24800,"station_id":"ce4bhl12rcd13ifvqgf0","pricing_plan_id":"free"},{"bike_id":"a765fbf6-23b4-4ffd-a92a-200820289436","system_id":"levelo_inurba_marseille","lat":43.271368,"lon":5.40928,"is_reserved":false,"is_disabled":false,"rental_uris":{"android":"levelo://app?vid=a765fbf6-23b4-4ffd-a92a-200820289436","ios":"levelo://app?vid=a765fbf6-23b4-4ffd-a92a-200820289436"},"vehicle_type_id":"4","last_reported":1703088450,"current_range_meters":18800,"station_id":"ce4bhl12rcd13ifvqgf0","pricing_plan_id":"free"},{"bike_id":"bcf14d9c-6546-460c-8e1d-487c9c8f331b","system_id":"levelo_inurba_marseille","lat":43.26202,"lon":5.379299,"is_reserved":false,"is_disabled":false,"rental_uris":{"android":"levelo://app?vid=bcf14d9c-6546-460c-8e1d-487c9c8f331b","ios":"levelo://app?vid=bcf14d9c-6546-460c-8e1d-487c9c8f331b"},"vehicle_type_id":"4","last_reported":1703088450,"current_range_meters":30400,"station_id":"ce4bhjp2rcd13ifvqg90","pricing_plan_id":"free"},{"bike_id":"ad28e483-36d4-48ac-9e0f-b7d268ca9026","system_id":"levelo_inurba_marseille","lat":43.271388,"lon":5.409269,"is_reserved":false,"is_disabled":false,"rental_uris":{"android":"levelo://app?vid=ad28e483-36d4-48ac-9e0f-b7d268ca9026","ios":"levelo://app?vid=ad28e483-36d4-48ac-9e0f-b7d268ca9026"},"vehicle_type_id":"4","last_reported":1703088450,"current_range_meters":9200,"station_id":"ce4bhl12rcd13ifvqgf0","pricing_plan_id":"free"},{"bike_id":"eae050fe-7982-44f9-8d33-f4020627417e","system_id":"levelo_inurba_marseille","lat":43.26202,"lon":5.379299,"is_reserved":false,"is_disabled":false,"rental_uris":{"android":"levelo://app?vid=eae050fe-7982-44f9-8d33-f4020627417e","ios":"levelo://app?vid=eae050fe-7982-44f9-8d33-f4020627417e"},"vehicle_type_id":"4","last_reported":1703088450,"current_range_meters":22800,"station_id":"ce4bhjp2rcd13ifvqg90","pricing_plan_id":"free"},{"bike_id":"2be3dee2-fdb2-437d-9bd9-bad6cfd5ec69","system_id":"levelo_inurba_marseille","lat":43.26202,"lon":5.379299,"is_reserved":false,"is_disabled":false,"rental_uris":{"android":"levelo://app?vid=2be3dee2-fdb2-437d-9bd9-bad6cfd5ec69","ios":"levelo://app?vid=2be3dee2-fdb2-437d-9bd9-bad6cfd5ec69"},"vehicle_type_id":"4","last_reported":1703088450,"current_range_meters":30800,"station_id":"ce4bhjp2rcd13ifvqg90","pricing_plan_id":"free"},{"bike_id":"e0b195a2-9b60-4f57-bd9a-279d4707cc40","system_id":"levelo_inurba_marseille","lat":43.271388,"lon":5.409269,"is_reserved":false,"is_disabled":false,"rental_uris":{"android":"levelo://app?vid=e0b195a2-9b60-4f57-bd9a-279d4707cc40","ios":"levelo://app?vid=e0b195a2-9b60-4f57-bd9a-279d4707cc40"},"vehicle_type_id":"4","last_reported":1703088450,"current_range_meters":24800,"station_id":"ce4bhl12rcd13ifvqgf0","pricing_plan_id":"free"},{"bike_id":"a5c833ae-4833-4166-8e46-161850ff899b","system_id":"levelo_inurba_marseille","lat":43.267959,"lon":5.402687,"is_reserved":false,"is_disabled":false,"rental_uris":{"android":"levelo://app?vid=a5c833ae-4833-4166-8e46-161850ff899b","ios":"levelo://app?vid=a5c833ae-4833-4166-8e46-161850ff899b"},"vehicle_type_id":"4","last_reported":1703088450,"current_range_meters":14000,"station_id":"ce501612rcd8frsf0b60","pricing_plan_id":"free"},{"bike_id":"3ae22ac9-7c6b-4eb6-af5b-5b714f6d636b","system_id":"levelo_inurba_marseille","lat":43.267959,"lon":5.402687,"is_reserved":false,"is_disabled":false,"rental_uris":{"android":"levelo://app?vid=3ae22ac9-7c6b-4eb6-af5b-5b714f6d636b","ios":"levelo://app?vid=3ae22ac9-7c6b-4eb6-af5b-5b714f6d636b"},"vehicle_type_id":"4","last_reported":1703088450,"current_range_meters":17200,"station_id":"ce501612rcd8frsf0b60","pricing_plan_id":"free"},{"bike_id":"afb046c1-ebbc-4a36-b636-abfdcc762cd9","system_id":"levelo_inurba_marseille","lat":43.267959,"lon":5.402687,"is_reserved":false,"is_disabled":false,"rental_uris":{"android":"levelo://app?vid=afb046c1-ebbc-4a36-b636-abfdcc762cd9","ios":"levelo://app?vid=afb046c1-ebbc-4a36-b636-abfdcc762cd9"},"vehicle_type_id":"4","last_reported":1703088450,"current_range_meters":6400,"station_id":"ce501612rcd8frsf0b60","pricing_plan_id":"free"},{"bike_id":"6cc41b35-38e4-41b1-9a74-3bcb9dab9e2c","system_id":"levelo_inurba_marseille","lat":43.26506,"lon":5.395298,"is_reserved":false,"is_disabled":false,"rental_uris":{"android":"levelo://app?vid=6cc41b35-38e4-41b1-9a74-3bcb9dab9e2c","ios":"levelo://app?vid=6cc41b35-38e4-41b1-9a74-3bcb9dab9e2c"},"vehicle_type_id":"4","last_reported":1703088450,"current_range_meters":2000,"station_id":"ce4bhi12rcd13ifvqfq0","pricing_plan_id":"free"},{"bike_id":"fe1db1eb-ca4b-453f-8b5d-1c16af2b9569","system_id":"levelo_inurba_marseille","lat":43.26498,"lon":5.39546,"is_reserved":false,"is_disabled":false,"rental_uris":{"android":"levelo://app?vid=fe1db1eb-ca4b-453f-8b5d-1c16af2b9569","ios":"levelo://app?vid=fe1db1eb-ca4b-453f-8b5d-1c16af2b9569"},"vehicle_type_id":"4","last_reported":1703088450,"current_range_meters":19200,"station_id":"","pricing_plan_id":"free"},