{"last_updated":1702652847,"ttl":30,"version":"2.2","data":{"bikes":[{"bike_id":"c33d5dfc-3124-41d5-914f-9435464f6290","system_id":"levelo_inurba_marseille","lat":43.312239,"lon":5.368562,"is_reserved":false,"is_disabled":false,"rental_uris":{"android":"levelo://app?vid=c33d5dfc-3124-41d5-914f-9435464f6290","ios":"levelo://app?vid=c33d5dfc-3124-41d5-914f-9435464f6290"},"vehicle_type_id":"4","last_reported":1702652847,"current_range_meters":24400,"station_id":"ce4bgl92rcd13ifvqbq0","pricing_plan_id":"free"},{"bike_id":"d35143eb-b469-458e-8d9d-bf6ac1fb675e","system_id":"levelo_inurba_marseille","lat":43.31222,"lon":5.36865,"is_reserved":false,"is_disabled":false,"rental_uris":{"android":"levelo://app?vid=d35143eb-b469-458e-8d9d-bf6ac1fb675e","ios":"levelo://app?vid=d35143eb-b469-458e-8d9d-bf6ac1fb675e"},"vehicle_type_id":"4","last_reported":1702652847,"current_range_meters":23600,"station_id":"ce4bgl92rcd13ifvqbq0","pricing_plan_id":"free"},{"bike_id":"24b241d6-b892-4d6c-b910-a6fd6722b2f0","system_id":"levelo_inurba_marseille","lat":43.314811,"lon":5.373103,"is_reserved":false,"is_disabled":false,"rental_uris":{"android":"levelo://app?vid=24b241d6-b892-4d6c-b910-a6fd6722b2f0","ios":"levelo://app?vid=24b241d6-b892-4d6c-b910-a6fd6722b2f0"},"vehicle_type_id":"4","last_reported":1702652847,"current_range_meters":6400,"station_id":"ce4bgt12rcd13ifvqcd0","pricing_plan_id":"free"},{"bike_id":"8d2337fa-19ec-4c3e-a5bb-d867e89bebb5","system_id":"levelo_inurba_marseille","lat":43.309039,"lon":5.371797,"is_reserved":false,"is_disabled":false,"rental_uris":{"android":"levelo://app?vid=8d2337fa-19ec-4c3e-a5bb-d867e89bebb5","ios":"levelo://app?vid=8d2337fa-19ec-4c3e-a5bb-d867e89bebb5"},"vehicle_type_id":"4","last_reported":1702652847,"current_range_meters":7200,"station_id":"ce4bguh2rcd13ifvqckg","pricing_plan_id":"free"},{"bike_id":"fce03fef-d471-43f1-b490-42b6c1a3afed","system_id":"levelo_inurba_marseille","lat":43.309039,"lon":5.371797,"is_reserved":false,"is_disabled":false,"rental_uris":{"android":"levelo://app?vid=fce03fef-d471-43f1-b490-42b6c1a3afed","ios":"levelo://app?vid=fce03fef-d471-43f1-b490-42b6c1a3afed"},"vehicle_type_id":"4","last_reported":1702652847,"current_range_meters":24400,"station_id":"ce4bguh2rcd13ifvqckg","pricing_plan_id":"free"},{"bike_id":"85165f63-38f0-4865-a8f2-ee0ea95c7165","system_id":"levelo_inurba_marseille","lat":43.309039,"lon":5.371797,"is_reserved":false,"is_disabled":false,"rental_uris":{"android":"levelo://app?vid=85165f63-38f0-4865-a8f2-ee0ea95c7165","ios":"levelo://app?vid=85165f63-38f0-4865-a8f2-ee0ea95c7165"},"vehicle_type_id":"4","last_reported":1702652847,"current_range_meters":6400,"station_id":"ce4bguh2rcd13ifvqckg","pricing_plan_id":"free"},{"bike_id":"3f8b821f-e430-4a35-bf14-f8b6e777ea11","system_id":"levelo_inurba_marseille","lat":43.313939,"lon":5.375306,"is_reserved":false,"is_disabled":false,"rental_uris":{"android":"levelo://app?vid=3f8b821f-e430-4a35-bf14-f8b6e777ea11","ios":"levelo://app?vid=3f8b821f-e430-4a35-bf14-f8b6e777ea11"},"vehicle_type_id":"4","last_reported":1702652847,"current_range_meters":0,"station_id":"","pricing_plan_id":"free"},{"bike_id":"913a6097-9b3a-43c3-a6d6-7cb66a56a30e","system_id":"levelo_inurba_marseille","lat":43.305714,"lon":5.365633,"is_reserved":false,"is_disabled":false,"rental_uris":{"android":"levelo://app?vid=913a6097-9b3a-43c3-a6d6-7cb66a56a30e","ios":"levelo://app?vid=913a6097-9b3a-43c3-a6d6-7cb66a56a30e"},"vehicle_type_id":"4","last_reported":1702652847,"current_range_meters":17200,"station_id":"ce4bgs12rcd13ifvqcag","pricing_plan_id":"free"},{"bike_id":"a48ce71f-d383-4158-8b5c-3175d3ba9a73","system_id":"levelo_inurba_marseille","lat":43.305714,"lon":5.365633,"is_reserved":false,"is_disabled":false,"rental_uris":{"android":"levelo://app?vid=a48ce71f-d383-4158-8b5c-3175d3ba9a73","ios":"levelo://app?vid=a48ce71f-d383-4158-8b5c-3175d3ba9a73"},"vehicle_type_id":"4","last_reported":1702652847,"current_range_meters":5600,"station_id":"ce4bgs12rcd13ifvqcag","pricing_plan_id":"free"},{"bike_id":"96a98ddc-96b6-45c0-8a85-15c9938e5fd6","system_id":"levelo_inurba_marseille","lat":43.305712,"lon":5.365641,"is_reserved":false,"is_disabled":false,"rental_uris":{"android":"levelo://app?vid=96a98ddc-96b6-45c0-8a85-15c9938e5fd6","ios":"levelo://app?vid=96a98ddc-96b6-45c0-8a85-15c9938e5fd6"},"vehicle_type_id":"4","last_reported":1702652847,"current_range_meters":0,"station_id":"ce4bgs12rcd13ifvqcag","pricing_plan_id":"free"},{"bike_id":"955e4ab2-16e5-44e8-a986-a2f50ff96c06","system_id":"levelo_inurba_marseille","lat":43.305382,"lon":5.365389,"is_reserved":false,"is_disabled":false,"rental_uris":{"android":"levelo://app?vid=955e4ab2-16e5-44e8-a986-a2f50ff96c06","ios":"levelo://app?vid=955e4ab2-16e5-44e8-a986-a2f50ff96c06"},"vehicle_type_id":"4","last_reported":1702652847,"current_range_meters":19200,"station_id":"","pricing_plan_id":"free"},{"bike_id":"0f778cab-de0b-49c1-a4b5-b4931c9d3948","system_id":"levelo_inurba_marseille","lat":43.311131,"lon":5.377651,"is_reserved":false,"is_disabled":false,"rental_uris":{"android":"levelo://app?vid=0f778cab-de0b-49c1-a4b5-b4931c9d3948","ios":"levelo://app?vid=0f778cab-de0b-49c1-a4b5-b4931c9d3948"},"vehicle_type_id":"4","last_reported":1702652847,"current_range_meters":25600,"station_id":"ce4bgt92rcd13ifvqcg0","pricing_plan_id":"free"},{"bike_id":"8da8124b-57ee-4d8c-a206-8bb9b449edb7","system_id":"levelo_inurba_marseille","lat":43.31123,"lon":5.3777,"is_reserved":false,"is_disabled":false,"rental_uris":{"android":"levelo://app?vid=8da8124b-57ee-4d8c-a206-8bb9b449edb7","ios":"levelo://app?vid=8da8124b-57ee-4d8c-a206-8bb9b449edb7"},"vehicle_type_id":"4","last_reported":1702652847,"current_range_meters":24400,"station_id":"ce4bgt92rcd13ifvqcg0","pricing_plan_id":"free"},{"bike_id":"7d760813-5cff-41ea-aa81-fdc6ba8da1f6","system_id":"levelo_inurba_marseille","lat":43.311173,"lon":5.377701,"is_reserved":false,"is_disabled":false,"rental_uris":{"android":"levelo://app?vid=7d760813-5cff-41ea-aa81-fdc6ba8da1f6","ios":"levelo://app?vid=7d760813-5cff-41ea-aa81-fdc6ba8da1f6"},"vehicle_type_id":"4","last_reported":1702652847,"current_range_meters":26800,"station_id":"ce4bgt92rcd13ifvqcg0","pricing_plan_id":"free"},{"bike_id":"71c601da-0203-478c-a7c8-63f1c683fe0f","system_id":"levelo_inurba_marseille","lat":43.311125,"lon":5.377624,"is_reserved":false,"is_disabled":false,"rental_uris":{"android":"levelo://app?vid=71c601da-0203-478c-a7c8-63f1c683fe0f","ios":"levelo://app?vid=71c601da-0203-478c-a7c8-63f1c683fe0f"},"vehicle_type_id":"4","last_reported":1702652847,"current_range_meters":24400,"station_id":"ce4bgt92rcd13ifvqcg0","pricing_plan_id":"free"},{"bike_id":"181f0090-699e-48a9-ad85-054e7cbbc19e","system_id":"levelo_inurba_marseille","lat":43.311193,"lon":5.377733,"is_reserved":false,"is_disabled":false,"rental_uris":{"android":"levelo://app?vid=181f0090-699e-48a9-ad85-054e7cbbc19e","ios":"levelo://app?vid=181f0090-699e-48a9-ad85-054e7cbbc19e"},"vehicle_type_id":"4","last_reported":1702652847,"current_range_meters":24000,"station_id":"ce4bgt92rcd13ifvqcg0","pricing_plan_id":"free"},{"bike_id":"26fc07da-f5a0-4bee-86e5-88b8e61dbf2d","system_id":"levelo_inurba_marseille","lat":43.31115,"lon":5.37777,"is_reserved":false,"is_disabled":false,"rental_uris":{"android":"levelo://app?vid=26fc07da-f5a0-4bee-86e5-88b8e61dbf2d","ios":"levelo://app?vid=26fc07da-f5a0-4bee-86e5-88b8e61dbf2d"},"vehicle_type_id":"4","last_reported":1702652847,"current_range_meters":8000,"station_id":"ce4bgt92rcd13ifvqcg0","pricing_plan_id":"free"},{"bike_id":"a9fb6b41-0705-4ada-87e8-821d7c14d075","system_id":"levelo_inurba_marseille","lat":43.3112,"lon":5.3778,"is_reserved":false,"is_disabled":false,"rental_uris":{"android":"levelo://app?vid=a9fb6b41-0705-4ada-87e8-821d7c14d075","ios":"levelo://app?vid=a9fb6b41-0705-4ada-87e8-821d7c14d075"},"vehicle_type_id":"4","last_reported":1702652847,"current_range_meters":16800,"station_id":"ce4bgt92rcd13ifvqcg0","pricing_plan_id":"free"},{"bike_id":"6a50defd-b8a8-4cbe-bb75-2af89ee07e1c","system_id":"levelo_inurba_marseille","lat":43.31111,"lon":5.37778,"is_reserved":false,"is_disabled":false,"rental_uris":{"android":"levelo://app?vid=6a50defd-b8a8-4cbe-bb75-2af89ee07e1c","ios":"levelo://app?vid=6a50defd-b8a8-4cbe-bb75-2af89ee07e1c"},"vehicle_type_id":"4","last_reported":1702652847,"current_range_meters":14000,"station_id":"ce4bgt92rcd13ifvqcg0","pricing_plan_id":"free"},{"bike_id":"a797dc8c-c7fd-46ad-b2fb-46f576d89eac","system_id":"levelo_inurba_marseille","lat":43.307945,"lon":5.376487,"is_reserved":false,"is_disabled":false,"rental_uris":{"android":"levelo://app?vid=a797dc8c-c7fd-46ad-b2fb-46f576d89eac","ios":"levelo://app?vid=a797dc8c-c7fd-46ad-b2fb-46f576d89eac"},"vehicle_type_id":"4","last_reported":1702652847,"current_range_meters":18000,"station_id":"ce4bgv92rcd13ifvqcq0","pricing_plan_id":"free"},{"bike_id":"0c1969d2-5d1a-4bda-bcb2-8adf5bc8c42c","system_id":"levelo_inurba_marseille","lat":43.307945,"lon":5.376487,"is_reserved":false,"is_disabled":false,"rental_uris":{"android":"levelo://app?vid=0c1969d2-5d1a-4bda-bcb2-8adf5bc8c42c","ios":"levelo://app?vid=0c1969d2-5d1a-4bda-bcb2-8adf5bc8c42c"},"vehicle_type_id":"4","last_reported":1702652847,"current_range_meters":28800,"station_id":"ce4bgv92rcd13ifvqcq0","pricing_plan_id":"free"},{"bike_id":"a7109942-972e-4e8c-9cec-56d56c6f2ec6","system_id":"levelo_inurba_marseille","lat":43.317075,"lon":5.377367,"is_reserved":false,"is_disabled":false,"rental_uris":{"android":"levelo://app?vid=a7109942-972e-4e8c-9cec-56d56c6f2ec6","ios":"levelo://app?vid=a7109942-972e-4e8c-9cec-56d56c6f2ec6"},"vehicle_type_id":"4","last_reported":1702652847,"current_range_meters":21200,"station_id":"ce4bgth2rcd13ifvqch0","pricing_plan_id":"free"},{"bike_id":"b8769e36-dc1f-4834-bcbd-8f347dad4631","system_id":"levelo_inurba_marseille","lat":43.317075,"lon":5.377367,"is_reserved":false,"is_disabled":false,"rental_uris":{"android":"levelo://app?vid=b8769e36-dc1f-4834-bcbd-8f347dad4631","ios":"levelo://app?vid=b8769e36-dc1f-4834-bcbd-8f347dad4631"},"vehicle_type_id":"4","last_reported":1702652847,"current_range_meters":21200,"station_id":"ce4bgth2rcd13ifvqch0","pricing_plan_id":"free"},{"bike_id":"7d2e2926-95e5-4718-8e3d-021250b989f7","system_id":"levelo_inurba_marseille","lat":43.317075,"lon":5.377367,"is_reserved":false,"is_disabled":false,"rental_uris":{"android":"levelo://app?vid=7d2e2926-95e5-4718-8e3d-021250b989f7","ios":"levelo://app?vid=7d2e2926-95e5-4718-8e3d-021250b989f7"},"vehicle_type_id":"4","last_reported":1702652847,"current_range_meters":14000,"station_id":"ce4bgth2rcd13ifvqch0","pricing_plan_id":"free"},{"bike_id":"5883c1d3-71f2-4580-84bb-3f9221eaf810","system_id":"levelo_inurba_marseille","lat":43.317075,"lon":5.377367,"is_reserved":false,"is_disabled":false,"rental_uris":{"android":"levelo://app?vid=5883c1d3-71f2-4580-84bb-3f9221eaf810","ios":"levelo://app?vid=5883c1d3-71f2-4580-84bb-3f9221eaf810"},"vehicle_type_id":"4","last_reported":1702652847,"current_range_meters":16000,"station_id":"ce4bgth2rcd13ifvqch0","pricing_plan_id":"free"},{"bike_id":"b92ea576-d5b0-4943-ad41-df2b9b8cdbcf","system_id":"levelo_inurba_marseille","lat":43.317075,"lon":5.377367,"is_reserved":false,"is_disabled":false,"rental_uris":{"android":"levelo://app?vid=b92ea576-d5b0-4943-ad41-df2b9b8cdbcf","ios":"levelo://app?vid=b92ea576-d5b0-4943-ad41-df2b9b8cdbcf"},"vehicle_type_id":"4","last_reported":1702652847,"current_range_meters":28400,"station_id":"ce4bgth2rcd13ifvqch0","pricing_plan_id":"free"},{"bike_id":"1c20febf-a6f6-4984-bbed-a31ec1e68e66","system_id":"levelo_inurba_marseille","lat":43.30304,"lon":5.368987,"is_reserved":false,"is_disabled":false,"rental_uris":{"android":"levelo://app?vid=1c20febf-a6f6-4984-bbed-a31ec1e68e66","ios":"levelo://app?vid=1c20febf-a6f6-4984-bbed-a31ec1e68e66"},"vehicle_type_id":"4","last_reported":1702652847,"current_range_meters":30000,"station_id":"ce4bgqh2rcd13ifvqc5g","pricing_plan_id":"free"},{"bike_id":"112889bc-8d0f-431d-9767-314715ea602b","system_id":"levelo_inurba_marseille","lat":43.31544,"lon":5.38026,"is_reserved":false,"is_disabled":false,"rental_uris":{"android":"levelo://app?vid=112889bc-8d0f-431d-9767-314715ea602b","ios":"levelo://app?vid=112889bc-8d0f-431d-9767-314715ea602b"},"vehicle_type_id":"4","last_reported":1702652847,"current_range_meters":20000,"station_id":"ce4bhsp2rcd13ifvqi50","pricing_plan_id":"free"},{"bike_id":"0f1ec8ec-18b5-4729-8d02-3b824b3e7c12","system_id":"levelo_inurba_marseille","lat":43.31533,"lon":5.38033,"is_reserved":false,"is_disabled":false,"rental_uris":{"android":"levelo://app?vid=0f1ec8ec-18b5-4729-8d02-3b824b3e7c12","ios":"levelo://app?vid=0f1ec8ec-18b5-4729-8d02-3b824b3e7c12"},"vehicle_type_id":"4","last_reported":1702652847,"current_range_meters":28000,"station_id":"ce4bhsp2rcd13ifvqi50","pricing_plan_id":"free"},{"bike_id":"fa10ee25-a87c-4791-ba66-312b43aa7383","system_id":"levelo_inurba_marseille","lat":43.308012,"lon":5.381511,"is_reserved":false,"is_disabled":false,"rental_uris":{"android":"levelo://app?vid=fa10ee25-a87c-4791-ba66-312b43aa7383","ios":"levelo://app?vid=fa10ee25-a87c-4791-ba66-312b43aa7383"},"vehicle_type_id":"4","last_reported":1702652847,"current_range_meters":13600,"station_id":"ce4bgt12rcd13ifvqce0","pricing_plan_id":"free"},{"bike_id":"6d50d2e7-dec1-4f89-abe4-d138e6608fa7","system_id":"levelo_inurba_marseille","lat":43.308012,"lon":5.381511,"is_reserved":false,"is_disabled":false,"rental_uris":{"android":"levelo://app?vid=6d50d2e7-dec1-4f89-abe4-d138e6608fa7","ios":"levelo://app?vid=6d50d2e7-dec1-4f89-abe4-d138e6608fa7"},"vehicle_type_id":"4","last_reported":1702652847,"current_range_meters":21200,"station_id":"ce4bgt12rcd13ifvqce0","pricing_plan_id":"free"},{"bike_id":"6e86daf3-29f0-4c13-b4da-ae319aab557c","system_id":"levelo_inurba_marseille","lat":43.308012,"lon":5.381511,"is_reserved":false,"is_disabled":false,"rental_uris":{"android":"levelo://app?vid=6e86daf3-29f0-4c13-b4da-ae319aab557c","ios":"levelo://app?vid=6e86daf3-29f0-4c13-b4da-ae319aab557c"},"vehicle_type_id":"4","last_reported":1702652847,"current_range_meters":20400,"station_id":"ce4bgt12rcd13ifvqce0","pricing_plan_id":"free"},{"bike_id":"8b0818bc-04a5-4f0c-88ac-72cc11d42a68","system_id":"levelo_inurba_marseille","lat":43.304606,"lon":5.379026,"is_reserved":false,"is_disabled":false,"rental_uris":{"android":"levelo://app?vid=8b0818bc-04a5-4f0c-88ac-72cc11d42a68","ios":"levelo://app?vid=8b0818bc-04a5-4f0c-88ac-72cc11d42a68"},"vehicle_type_id":"4","last_reported":1702652847,"current_range_meters":20400,"station_id":"ce4bgup2rcd13ifvqcn0","pricing_plan_id":"free"},{"bike_id":"4265c6ff-7e79-4ea1-921d-0e654ddba6aa","system_id":"levelo_inurba_marseille","lat":43.324771,"lon":5.36557,"is_reserved":false,"is_disabled":false,"rental_uris":{"android":"levelo://app?vid=4265c6ff-7e79-4ea1-921d-0e654ddba6aa","ios":"levelo://app?vid=4265c6ff-7e79-4ea1-921d-0e654ddba6aa"},"vehicle_type_id":"4","last_reported":1702652847,"current_range_meters":19200,"station_id":"ce4bhs12rcd13ifvqhvg","pricing_plan_id":"free"},{"bike_id":"88f7ea2a-62f7-4a88-9e9d-900940b4d7e5","system_id":"levelo_inurba_marseille","lat":43.324805,"lon":5.365498,"is_reserved":false,"is_disabled":false,"rental_uris":{"android":"levelo://app?vid=88f7ea2a-62f7-4a88-9e9d-900940b4d7e5","ios":"levelo://app?vid=88f7ea2a-62f7-4a88-9e9d-900940b4d7e5"},"vehicle_type_id":"4","last_reported":1702652847,"current_range_meters":20400,"station_id":"ce4bhs12rcd13ifvqhvg","pricing_plan_id":"free"},{"bike_id":"918d470f-dd45-4287-976f-25c35e8b2913","system_id":"levelo_inurba_marseille","lat":43.30142,"lon":5.37411,"is_reserved":false,"is_disabled":false,"rental_uris":{"android":"levelo://app?vid=918d470f-dd45-4287-976f-25c35e8b2913","ios":"levelo://app?vid=918d470f-dd45-4287-976f-25c35e8b2913"},"vehicle_type_id":"4","last_reported":1702652847,"current_range_meters":0,"station_id":"ce4bgs92rcd13ifvqcc0","pricing_plan_id":"free"},{"bike_id":"db774753-4382-453e-a138-c32d538f9839","system_id":"levelo_inurba_marseille","lat":43.325435,"lon":5.36784,"is_reserved":false,"is_disabled":false,"rental_uris":{"android":"levelo://app?vid=db774753-4382-453e-a138-c32d538f9839","ios":"levelo://app?vid=db774753-4382-453e-a138-c32d538f9839"},"vehicle_type_id":"4","last_reported":1702652847,"current_range_meters":11600,"station_id":"","pricing_plan_id":"free"},{"bike_id":"d9cad044-2740-4428-9cb8-969805b3c810","system_id":"levelo_inurba_marseille","lat":43.3199,"lon":5.38168,"is_reserved":false,"is_disabled":false,"rental_uris":{"android":"levelo://app?vid=d9cad044-2740-4428-9cb8-969805b3c810","ios":"levelo://app?vid=d9cad044-2740-4428-9cb8-969805b3c810"},"vehicle_type_id":"4","last_reported":1702652847,"current_range_meters":11600,"station_id":"ce4bhr12rcd13ifvqhpg","pricing_plan_id":"free"},{"bike_id":"755ecc49-c981-4ec3-bb86-ef0024a4cc61","system_id":"levelo_inurba_marseille","lat":43.31365,"lon":5.38505,"is_reserved":false,"is_disabled":false,"rental_uris":{"android":"levelo://app?vid=755ecc49-c981-4ec3-bb86-ef0024a4cc61","ios":"levelo://app?vid=755ecc49-c981-4ec3-bb86-ef0024a4cc61"},"vehicle_type_id":"4","last_reported":1702652847,"current_range_meters":18000,"station_id":"ce4bgt92rcd13ifvqcf0","pricing_plan_id":"free"},{"bike_id":"514dade4-c499-44d8-88ea-01eec5131c91","system_id":"levelo_inurba_marseille","lat":43.317557,"lon":5.390173,"is_reserved":false,"is_disabled":false,"rental_uris":{"android":"levelo://app?vid=514dade4-c499-44d8-88ea-01eec5131c91","ios":"levelo://app?vid=514dade4-c499-44d8-88ea-01eec5131c91"},"vehicle_type_id":"4","last_reported":1702652847,"current_range_meters":12400,"station_id":"ce4bhqp2rcd13ifvqhng","pricing_plan_id":"free"},{"bike_id":"c4e77394-aef9-4077-b745-e99148625344","system_id":"levelo_inurba_marseille","lat":43.32717,"lon":5.36708,"is_reserved":false,"is_disabled":false,"rental_uris":{"android":"levelo://app?vid=c4e77394-aef9-4077-b745-e99148625344","ios":"levelo://app?vid=c4e77394-aef9-4077-b745-e99148625344"},"vehicle_type_id":"4","last_reported":1702652847,"current_range_meters":26000,"station_id":"","pricing_plan_id":"free"},{"bike_id":"97b5dbb4-931e-43ed-a143-411dba630503","system_id":"levelo_inurba_marseille","lat":43.311722,"lon":5.387247,"is_reserved":false,"is_disabled":false,"rental_uris":{"android":"levelo://app?vid=97b5dbb4-931e-43ed-a143-411dba630503","ios":"levelo://app?vid=97b5dbb4-931e-43ed-a143-411dba630503"},"vehicle_type_id":"4","last_reported":1702652847,"current_range_meters":22400,"station_id":"ce4bgv12rcd13ifvqcp0","pricing_plan_id":"free"},{"bike_id":"6638c843-bcf7-4960-bf49-f52134962a36","system_id":"levelo_inurba_marseille","lat":43.311722,"lon":5.387247,"is_reserved":false,"is_disabled":false,"rental_uris":{"android":"levelo://app?vid=6638c843-bcf7-4960-bf49-f52134962a36","ios":"levelo://app?vid=6638c843-bcf7-4960-bf49-f52134962a36"},"vehicle_type_id":"4","last_reported":1702652847,"current_range_meters":12800,"station_id":"ce4bgv12rcd13ifvqcp0","pricing_plan_id":"free"},{"bike_id":"6d603a3e-1578-406c-aa66-43e5ae053863","system_id":"levelo_inurba_marseille","lat":43.299028,"lon":5.381509,"is_reserved":false,"is_disabled":false,"rental_uris":{"android":"levelo://app?vid=6d603a3e-1578-406c-aa66-43e5ae053863","ios":"levelo://app?vid=6d603a3e-1578-406c-aa66-43e5ae053863"},"vehicle_type_id":"4","last_reported":1702652847,"current_range_meters":23200,"station_id":"ce4bgj12rcd13ifvqbc0","pricing_plan_id":"free"},{"bike_id":"f08753c3-2d19-4e93-8a01-394b5c57683e","system_id":"levelo_inurba_marseille","lat":43.299028,"lon":5.381509,"is_reserved":false,"is_disabled":false,"rental_uris":{"android":"levelo://app?vid=f08753c3-2d19-4e93-8a01-394b5c57683e","ios":"levelo://app?vid=f08753c3-2d19-4e93-8a01-394b5c57683e"},"vehicle_type_id":"4","last_reported":1702652847,"current_range_meters":12800,"station_id":"ce4bgj12rcd13ifvqbc0","pricing_plan_id":"free"},{"bike_id":"e5b37878-e13b-407c-a574-73dfad552567","system_id":"levelo_inurba_marseille","lat":43.31756,"lon":5.39017,"is_reserved":false,"is_disabled":false,"rental_uris":{"android":"levelo://app?vid=e5b37878-e13b-407c-a574-73dfad552567","ios":"levelo://app?vid=e5b37878-e13b-407c-a574-73dfad552567"},"vehicle_type_id":"4","last_reported":1702652847,"current_range_meters":3600,"station_id":"ce4bhqp2rcd13ifvqhng","pricing_plan_id":"free"},{"bike_id":"4a47b47a-7011-4472-b6dc-ec1e76982281","system_id":"levelo_inurba_marseille","lat":43.296263,"lon":5.377094,"is_reserved":false,"is_disabled":false,"rental_uris":{"android":"levelo://app?vid=4a47b47a-7011-4472-b6dc-ec1e76982281","ios":"levelo://app?vid=4a47b47a-7011-4472-b6dc-ec1e76982281"},"vehicle_type_id":"4","last_reported":1702652847,"current_range_meters":21600,"station_id":"ce4bgi92rcd13ifvqb90","pricing_plan_id":"free"},{"bike_id":"cdf1dac7-aa71-462c-8514-d69bd270f93a","system_id":"levelo_inurba_marseille","lat":43.304278,"lon":5.388868,"is_reserved":false,"is_disabled":false,"rental_uris":{"android":"levelo://app?vid=cdf1dac7-aa71-462c-8514-d69bd270f93a","ios":"levelo://app?vid=cdf1dac7-aa71-462c-8514-d69bd270f93a"},"vehicle_type_id":"4","last_reported":1702652847,"current_range_meters":10400,"station_id":"ce4bgk12rcd13ifvqbi0","pricing_plan_id":"free"},{"bike_id":"29f2b9d6-fe58-4ae5-b47d-b5f0604331b2","system_id":"levelo_inurba_marseille","lat":43.296263,"lon":5.377094,"is_reserved":false,"is_disabled":false,"rental_uris":{"android":"levelo://app?vid=29f2b9d6-fe58-4ae5-b47d-b5f0604331b2","ios":"levelo://app?vid=29f2b9d6-fe58-4ae5-b47d-b5f0604331b2"},"vehicle_type_id":"4","last_reported":1702652847,"current_range_meters":2400,"station_id":"ce4bgi92rcd13ifvqb90","pricing_plan_id":"free"},{"bike_id":"92e26362-8b62-4ac3-ae42-f24976e7801e","system_id":"levelo_inurba_marseille","lat":43.299717,"lon":5.384845,"is_reserved":false,"is_disabled":false,"rental_uris":{"android":"levelo://app?vid=92e26362-8b62-4ac3-ae42-f24976e7801e","ios":"levelo://app?vid=92e26362-8b62-4ac3-ae42-f24976e7801e"},"vehicle_type_id":"4","last_reported":1702652847,"current_range_meters":19200,"station_id":"ce4bgj92rcd13ifvqbd0","pricing_plan_id":"free"},{"bike_id":"20e372f9-8c0c-4eb3-a717-bbfa6a7adedb","system_id":"levelo_inurba_marseille","lat":43.293259,"lon":5.371586,"is_reserved":false,"is_disabled":false,"rental_uris":{"android":"levelo://app?vid=20e372f9-8c0c-4eb3-a717-bbfa6a7adedb","ios":"levelo://app?vid=20e372f9-8c0c-4eb3-a717-bbfa6a7adedb"},"vehicle_type_id":"4","last_reported":1702652847,"current_range_meters":18800,"station_id":"ce4bgh92rcd13ifvqb40","pricing_plan_id":"free"},{"bike_id":"23589dc7-2006-41b3-a6a2-93c3fb2c456f","system_id":"levelo_inurba_marseille","lat":43.2936,"lon":5.37835,"is_reserved":false,"is_disabled":false,"rental_uris":{"android":"levelo://app?vid=23589dc7-2006-41b3-a6a2-93c3fb2c456f","ios":"levelo://app?vid=23589dc7-2006-41b3-a6a2-93c3fb2c456f"},"vehicle_type_id":"4","last_reported":1702652847,"current_range_meters":30000,"station_id":"ce4bgjh2rcd13ifvqbf0","pricing_plan_id":"free"},{"bike_id":"75dd54e4-daf2-47a8-9763-49670eb9861a","system_id":"levelo_inurba_marseille","lat":43.29251,"lon":5.37601,"is_reserved":false,"is_disabled":false,"rental_uris":{"android":"levelo://app?vid=75dd54e4-daf2-47a8-9763-49670eb9861a","ios":"levelo://app?vid=75dd54e4-daf2-47a8-9763-49670eb9861a"},"vehicle_type_id":"4","last_reported":1702652847,"current_range_meters":0,"station_id":"","pricing_plan_id":"free"},{"bike_id":"cefa2ff1-3dd1-4d07-acca-0a4e3051a600","system_id":"levelo_inurba_marseille","lat":43.29868,"lon":5.38909,"is_reserved":false,"is_disabled":false,"rental_uris":{"android":"levelo://app?vid=cefa2ff1-3dd1-4d07-acca-0a4e3051a600","ios":"levelo://app?vid=cefa2ff1-3dd1-4d07-acca-0a4e3051a600"},"vehicle_type_id":"4","last_reported":1702652847,"current_range_meters":18400,"station_id":"","pricing_plan_id":"free"},{"bike_id":"0d4f27e8-aad3-4ce4-98c8-c5a8298a5d63","system_id":"levelo_inurba_marseille","lat":43.291994,"lon":5.357886,"is_reserved":false,"is_disabled":false,"rental_uris":{"android":"levelo://app?vid=0d4f27e8-aad3-4ce4-98c8-c5a8298a5d63","ios":"levelo://app?vid=0d4f27e8-aad3-4ce4-98c8-c5a8298a5d63"},"vehicle_type_id":"4","last_reported":1702652847,"current_range_meters":10400,"station_id":"ce4bhb12rcd13ifvqel0","pricing_plan_id":"free"},{"bike_id":"c46ad956-a032-4d5c-ad30-aac6303d2fd8","system_id":"levelo_inurba_marseille","lat":43.309038,"lon":5.396546,"is_reserved":false,"is_disabled":false,"rental_uris":{"android":"levelo://app?vid=c46ad956-a032-4d5c-ad30-aac6303d2fd8","ios":"levelo://app?vid=c46ad956-a032-4d5c-ad30-aac6303d2fd8"},"vehicle_type_id":"4","last_reported":1702652847,"current_range_meters":3200,"station_id":"ce4bh012rcd13ifvqcv0","pricing_plan_id":"free"},{"bike_id":"4f05f13e-7c5b-4520-a488-a14ead03a86b","system_id":"levelo_inurba_marseille","lat":43.309047,"lon":5.396551,"is_reserved":false,"is_disabled":false,"rental_uris":{"android":"levelo://app?vid=4f05f13e-7c5b-4520-a488-a14ead03a86b","ios":"levelo://app?vid=4f05f13e-7c5b-4520-a488-a14ead03a86b"},"vehicle_type_id":"4","last_reported":1702652847,"current_range_meters":2000,"station_id":"ce4bh012rcd13ifvqcv0","pricing_plan_id":"free"},{"bike_id":"920a220c-9264-4b38-aea7-f2c9fbb99d47","system_id":"levelo_inurba_marseille","lat":43.309038,"lon":5.396546,"is_reserved":false,"is_disabled":false,"rental_uris":{"android":"levelo://app?vid=920a220c-9264-4b38-aea7-f2c9fbb99d47","ios":"levelo://app?vid=920a220c-9264-4b38-aea7-f2c9fbb99d47"},"vehicle_type_id":"4","last_reported":1702652847,"current_range_meters":26800,"station_id":"ce4bh012rcd13ifvqcv0","pricing_plan_id":"free"},{"bike_id":"1996bf0c-6e06-470b-be42-f8657d8b2913","system_id":"levelo_inurba_marseille","lat":43.290631,"lon":5.359244,"is_reserved":false,"is_disabled":false,"rental_uris":{"android":"levelo://app?vid=1996bf0c-6e06-470b-be42-f8657d8b2913","ios":"levelo://app?vid=1996bf0c-6e06-470b-be42-f8657d8b2913"},"vehicle_type_id":"4","last_reported":1702652847,"current_range_meters":6800,"station_id":"ce4bha92rcd13ifvqeg0","pricing_plan_id":"free"},{"bike_id":"7e332184-f9ee-41e6-a791-2cbd295a09bb","system_id":"levelo_inurba_marseille","lat":43.290624,"lon":5.359245,"is_reserved":false,"is_disabled":false,"rental_uris":{"android":"levelo://app?vid=7e332184-f9ee-41e6-a791-2cbd295a09bb","ios":"levelo://app?vid=7e332184-f9ee-41e6-a791-2cbd295a09bb"},"vehicle_type_id":"4","last_reported":1702652847,"current_range_meters":6000,"station_id":"ce4bha92rcd13ifvqeg0","pricing_plan_id":"free"},{"bike_id":"291ab322-23aa-4269-96ba-3a52ef8ab632","system_id":"levelo_inurba_marseille","lat":43.290631,"lon":5.359244,"is_reserved":false,"is_disabled":false,"rental_uris":{"android":"levelo://app?vid=291ab322-23aa-4269-96ba-3a52ef8ab632","ios":"levelo://app?vid=291ab322-23aa-4269-96ba-3a52ef8ab632"},"vehicle_type_id":"4","last_reported":1702652847,"current_range_meters":27200,"station_id":"ce4bha92rcd13ifvqeg0","pricing_plan_id":"free"},{"bike_id":"f6caa426-1462-4f72-9545-95a6a1f7524b","system_id":"levelo_inurba_marseille","lat":43.29418,"lon":5.38631,"is_reserved":false,"is_disabled":false,"rental_uris":{"android":"levelo://app?vid=f6caa426-1462-4f72-9545-95a6a1f7524b","ios":"levelo://app?vid=f6caa426-1462-4f72-9545-95a6a1f7524b"},"vehicle_type_id":"4","last_reported":1702652847,"current_range_meters":0,"station_id":"ce4bh2h2rcd13ifvqdh0","pricing_plan_id":"free"},{"bike_id":"16f85fe1-98f0-412a-b08a-7edca5b21c2c","system_id":"levelo_inurba_marseille","lat":43.289184,"lon":5.366408,"is_reserved":false,"is_disabled":false,"rental_uris":{"android":"levelo://app?vid=16f85fe1-98f0-412a-b08a-7edca5b21c2c","ios":"levelo://app?vid=16f85fe1-98f0-412a-b08a-7edca5b21c2c"},"vehicle_type_id":"4","last_reported":1702652847,"current_range_meters":12000,"station_id":"ce4bhap2rcd13ifvqek0","pricing_plan_id":"free"},{"bike_id":"b27dbfe5-7dfc-49cc-80e9-6bd9eb425b32","system_id":"levelo_inurba_marseille","lat":43.290327,"lon":5.375711,"is_reserved":false,"is_disabled":false,"rental_uris":{"android":"levelo://app?vid=b27dbfe5-7dfc-49cc-80e9-6bd9eb425b32","ios":"levelo://app?vid=b27dbfe5-7dfc-49cc-80e9-6bd9eb425b32"},"vehicle_type_id":"4","last_reported":1702652847,"current_range_meters":28000,"station_id":"ce4bh692rcd13ifvqe90","pricing_plan_id":"free"},{"bike_id":"f2c160a8-4c8e-4357-a555-9fdd0cb55b4f","system_id":"levelo_inurba_marseille","lat":43.3304,"lon":5.38926,"is_reserved":false,"is_disabled":false,"rental_uris":{"android":"levelo://app?vid=f2c160a8-4c8e-4357-a555-9fdd0cb55b4f","ios":"levelo://app?vid=f2c160a8-4c8e-4357-a555-9fdd0cb55b4f"},"vehicle_type_id":"4","last_reported":1702652847,"current_range_meters":20400,"station_id":"ce4bhr92rcd13ifvqhrg","pricing_plan_id":"free"},{"bike_id":"735ace55-f4d3-424e-a893-676a0ed9caa9","system_id":"levelo_inurba_marseille","lat":43.33043,"lon":5.38923,"is_reserved":false,"is_disabled":false,"rental_uris":{"android":"levelo://app?vid=735ace55-f4d3-424e-a893-676a0ed9caa9","ios":"levelo://app?vid=735ace55-f4d3-424e-a893-676a0ed9caa9"},"vehicle_type_id":"4","last_reported":1702652847,"current_range_meters":24400,"station_id":"ce4bhr92rcd13ifvqhrg","pricing_plan_id":"free"},{"bike_id":"b5c8f433-de06-4212-bd25-0ee49da08720","system_id":"levelo_inurba_marseille","lat":43.290995,"lon":5.381361,"is_reserved":false,"is_disabled":false,"rental_uris":{"android":"levelo://app?vid=b5c8f433-de06-4212-bd25-0ee49da08720","ios":"levelo://app?vid=b5c8f433-de06-4212-bd25-0ee49da08720"},"vehicle_type_id":"4","last_reported":1702652847,"current_range_meters":25600,"station_id":"ce4bh512rcd13ifvqe2g","pricing_plan_id":"free"},{"bike_id":"14d55438-a99f-4dd4-ad23-72abe3cb0274","system_id":"levelo_inurba_marseille","lat":43.2978,"lon":5.39352,"is_reserved":false,"is_disabled":false,"rental_uris":{"android":"levelo://app?vid=14d55438-a99f-4dd4-ad23-72abe3cb0274","ios":"levelo://app?vid=14d55438-a99f-4dd4-ad23-72abe3cb0274"},"vehicle_type_id":"4","last_reported":1702652847,"current_range_meters":25200,"station_id":"chh1huq6cuj3fo74tm60","pricing_plan_id":"free"},{"bike_id":"48de742a-4839-4811-89d9-368531238286","system_id":"levelo_inurba_marseille","lat":43.289743,"lon":5.378304,"is_reserved":false,"is_disabled":false,"rental_uris":{"android":"levelo://app?vid=48de742a-4839-4811-89d9-368531238286","ios":"levelo://app?vid=48de742a-4839-4811-89d9-368531238286"},"vehicle_type_id":"4","last_reported":1702652847,"current_range_meters":29200,"station_id":"ce4bh9p2rcd13ifvqed0","pricing_plan_id":"free"},{"bike_id":"af52a690-d296-4db3-b5d6-a5c277ffd4c5","system_id":"levelo_inurba_marseille","lat":43.295169,"lon":5.390426,"is_reserved":false,"is_disabled":false,"rental_uris":{"android":"levelo://app?vid=af52a690-d296-4db3-b5d6-a5c277ffd4c5","ios":"levelo://app?vid=af52a690-d296-4db3-b5d6-a5c277ffd4c5"},"vehicle_type_id":"4","last_reported":1702652847,"current_range_meters":30800,"station_id":"ce4bh3p2rcd13ifvqdp0","pricing_plan_id":"free"},{"bike_id":"e6533872-bfd6-4009-bf18-4ad359d0f0f7","system_id":"levelo_inurba_marseille","lat":43.30642,"lon":5.401031,"is_reserved":false,"is_disabled":false,"rental_uris":{"android":"levelo://app?vid=e6533872-bfd6-4009-bf18-4ad359d0f0f7","ios":"levelo://app?vid=e6533872-bfd6-4009-bf18-4ad359d0f0f7"},"vehicle_type_id":"4","last_reported":1702652847,"current_range_meters":23600,"station_id":"ce4bh112rcd13ifvqda0","pricing_plan_id":"free"},{"bike_id":"776e672b-b934-4408-9adc-be65c947c4dd","system_id":"levelo_inurba_marseille","lat":43.30642,"lon":5.401031,"is_reserved":false,"is_disabled":false,"rental_uris":{"android":"levelo://app?vid=776e672b-b934-4408-9adc-be65c947c4dd","ios":"levelo://app?vid=776e672b-b934-4408-9adc-be65c947c4dd"},"vehicle_type_id":"4","last_reported":1702652847,"current_range_meters":30000,"station_id":"ce4bh112rcd13ifvqda0","pricing_plan_id":"free"},{"bike_id":"14a69ade-af37-42af-ba03-1d96289a5599","system_id":"levelo_inurba_marseille","lat":43.30642,"lon":5.401031,"is_reserved":false,"is_disabled":false,"rental_uris":{"android":"levelo://app?vid=14a69ade-af37-42af-ba03-1d96289a5599","ios":"levelo://app?vid=14a69ade-af37-42af-ba03-1d96289a5599"},"vehicle_type_id":"4","last_reported":1702652847,"current_range_meters":22000,"station_id":"ce4bh112rcd13ifvqda0","pricing_plan_id":"free"},{"bike_id":"cc72efbe-e4ab-41bc-91c0-19880824bb53","system_id":"levelo_inurba_marseille","lat":43.306412,"lon":5.401035,"is_reserved":false,"is_disabled":false,"rental_uris":{"android":"levelo://app?vid=cc72efbe-e4ab-41bc-91c0-19880824bb53","ios":"levelo://app?vid=cc72efbe-e4ab-41bc-91c0-19880824bb53"},"vehicle_type_id":"4","last_reported":1702652847,"current_range_meters":25600,"station_id":"ce4bh112rcd13ifvqda0","pricing_plan_id":"free"},{"bike_id":"3eb423de-39d7-428f-a2f6-e087a5939827","system_id":"levelo_inurba_marseille","lat":43.30642,"lon":5.401031,"is_reserved":false,"is_disabled":false,"rental_uris":{"android":"levelo://app?vid=3eb423de-39d7-428f-a2f6-e087a5939827","ios":"levelo://app?vid=3eb423de-39d7-428f-a2f6-e087a5939827"},"vehicle_type_id":"4","last_reported":1702652847,"current_range_meters":32000,"station_id":"ce4bh112rcd13ifvqda0","pricing_plan_id":"free"},{"bike_id":"930bba3a-4350-44cf-bb9b-310a6cbdb5ef","system_id":"levelo_inurba_marseille","lat":43.337568,"lon":5.374559,"is_reserved":false,"is_disabled":false,"rental_uris":{"android":"levelo://app?vid=930bba3a-4350-44cf-bb9b-310a6cbdb5ef","ios":"levelo://app?vid=930bba3a-4350-44cf-bb9b-310a6cbdb5ef"},"vehicle_type_id":"4","last_reported":1702652847,"current_range_meters":28400,"station_id":"","pricing_plan_id":"free"},{"bike_id":"20b2b192-bdc0-4ef6-9e4d-c2811a2b0b11","system_id":"levelo_inurba_marseille","lat":43.306412,"lon":5.401035,"is_reserved":false,"is_disabled":false,"rental_uris":{"android":"levelo://app?vid=20b2b192-bdc0-4ef6-9e4d-c2811a2b0b11","ios":"levelo://app?vid=20b2b192-bdc0-4ef6-9e4d-c2811a2b0b11"},"vehicle_type_id":"4","last_reported":1702652847,"current_range_meters":28400,"station_id":"ce4bh112rcd13ifvqda0","pricing_plan_id":"free"},{"bike_id":"fef9bb5c-5241-41ad-89c3-2faf134cb26d","system_id":"levelo_inurba_marseille","lat":43.306412,"lon":5.401035,"is_reserved":false,"is_disabled":false,"rental_uris":{"android":"levelo://app?vid=fef9bb5c-5241-41ad-89c3-2faf134cb26d","ios":"levelo://app?vid=fef9bb5c-5241-41ad-89c3-2faf134cb26d"},"vehicle_type_id":"4","last_reported":1702652847,"current_range_meters":29200,"station_id":"ce4bh112rcd13ifvqda0","pricing_plan_id":"free"},{"bike_id":"d7080d8d-764d-4a26-80c8-a24cb790daa2","system_id":"levelo_inurba_marseille","lat":43.28727,"lon":5.36078,"is_reserved":false,"is_disabled":false,"rental_uris":{"android":"levelo://app?vid=d7080d8d-764d-4a26-80c8-a24cb790daa2","ios":"levelo://app?vid=d7080d8d-764d-4a26-80c8-a24cb790daa2"},"vehicle_type_id":"4","last_reported":1702652847,"current_range_meters":20800,"station_id":"cki0cbj6b192h4jlfktg","pricing_plan_id":"free"},{"bike_id":"e436103c-86a7-4891-a5d5-0cd4b3adbca0","system_id":"levelo_inurba_marseille","lat":43.286593,"lon":5.363346,"is_reserved":false,"is_disabled":false,"rental_uris":{"android":"levelo://app?vid=e436103c-86a7-4891-a5d5-0cd4b3adbca0","ios":"levelo://app?vid=e436103c-86a7-4891-a5d5-0cd4b3adbca0"},"vehicle_type_id":"4","last_reported":1702652847,"current_range_meters":26400,"station_id":"ce4bhah2rcd13ifvqej0","pricing_plan_id":"free"},{"bike_id":"f5884cca-6176-45e0-9f6b-d45476423ba4","system_id":"levelo_inurba_marseille","lat":43.298681,"lon":5.397225,"is_reserved":false,"is_disabled":false,"rental_uris":{"android":"levelo://app?vid=f5884cca-6176-45e0-9f6b-d45476423ba4","ios":"levelo://app?vid=f5884cca-6176-45e0-9f6b-d45476423ba4"},"vehicle_type_id":"4","last_reported":1702652847,"current_range_meters":30000,"station_id":"ce4bh0h2rcd13ifvqd50","pricing_plan_id":"free"},{"bike_id":"b3eb77b8-4bed-4e1c-9168-bf28b6e8c298","system_id":"levelo_inurba_marseille","lat":43.286961,"lon":5.373785,"is_reserved":false,"is_disabled":false,"rental_uris":{"android":"levelo://app?vid=b3eb77b8-4bed-4e1c-9168-bf28b6e8c298","ios":"levelo://app?vid=b3eb77b8-4bed-4e1c-9168-bf28b6e8c298"},"vehicle_type_id":"4","last_reported":1702652847,"current_range_meters":27200,"station_id":"ce4bh3p2rcd13ifvqdq0","pricing_plan_id":"free"},{"bike_id":"69cc7f3d-e27d-4654-829a-e65c6b2988f3","system_id":"levelo_inurba_marseille","lat":43.286961,"lon":5.373785,"is_reserved":false,"is_disabled":false,"rental_uris":{"android":"levelo://app?vid=69cc7f3d-e27d-4654-829a-e65c6b2988f3","ios":"levelo://app?vid=69cc7f3d-e27d-4654-829a-e65c6b2988f3"},"vehicle_type_id":"4","last_reported":1702652847,"current_range_meters":18400,"station_id":"ce4bh3p2rcd13ifvqdq0","pricing_plan_id":"free"},{"bike_id":"8cd5eede-0086-41c7-a9cb-eac6a1d3f597","system_id":"levelo_inurba_marseille","lat":43.29528,"lon":5.39409,"is_reserved":false,"is_disabled":false,"rental_uris":{"android":"levelo://app?vid=8cd5eede-0086-41c7-a9cb-eac6a1d3f597","ios":"levelo://app?vid=8cd5eede-0086-41c7-a9cb-eac6a1d3f597"},"vehicle_type_id":"4","last_reported":1702652847,"current_range_meters":25200,"station_id":"ce4bh292rcd13ifvqdf0","pricing_plan_id":"free"},{"bike_id":"4557f07c-9b3e-4dfb-ac6d-955d07f28557","system_id":"levelo_inurba_marseille","lat":43.289307,"lon":5.38406,"is_reserved":false,"is_disabled":false,"rental_uris":{"android":"levelo://app?vid=4557f07c-9b3e-4dfb-ac6d-955d07f28557","ios":"levelo://app?vid=4557f07c-9b3e-4dfb-ac6d-955d07f28557"},"vehicle_type_id":"4","last_reported":1702652847,"current_range_meters":20000,"station_id":"ce4bh612rcd13ifvqe6g","pricing_plan_id":"free"},{"bike_id":"3ea2ee83-ca9d-489e-b918-0e672d9e994d","system_id":"levelo_inurba_marseille","lat":43.295194,"lon":5.39397,"is_reserved":false,"is_disabled":false,"rental_uris":{"android":"levelo://app?vid=3ea2ee83-ca9d-489e-b918-0e672d9e994d","ios":"levelo://app?vid=3ea2ee83-ca9d-489e-b918-0e672d9e994d"},"vehicle_type_id":"4","last_reported":1702652847,"current_range_meters":20800,"station_id":"ce4bh292rcd13ifvqdf0","pricing_plan_id":"free"},{"bike_id":"68d8ec16-20dc-44af-91f6-3dceda8a89b2","system_id":"levelo_inurba_marseille","lat":43.286961,"lon":5.373785,"is_reserved":false,"is_disabled":false,"rental_uris":{"android":"levelo://app?vid=68d8ec16-20dc-44af-91f6-3dceda8a89b2","ios":"levelo://app?vid=68d8ec16-20dc-44af-91f6-3dceda8a89b2"},"vehicle_type_id":"4","last_reported":1702652847,"current_range_meters":22400,"station_id":"ce4bh3p2rcd13ifvqdq0","pricing_plan_id":"free"},{"bike_id":"53a1f892-a63e-49fb-913e-6e6805301a23","system_id":"levelo_inurba_marseille","lat":43.289307,"lon":5.38406,"is_reserved":false,"is_disabled":false,"rental_uris":{"android":"levelo://app?vid=53a1f892-a63e-49fb-913e-6e6805301a23","ios":"levelo://app?vid=53a1f892-a63e-49fb-913e-6e6805301a23"},"vehicle_type_id":"4","last_reported":1702652847,"current_range_meters":30800,"station_id":"ce4bh612rcd13ifvqe6g","pricing_plan_id":"free"},{"bike_id":"a2bbea0f-6cc3-4363-8b66-69ade5e4a9be","system_id":"levelo_inurba_marseille","lat":43.286039,"lon":5.370681,"is_reserved":false,"is_disabled":false,"rental_uris":{"android":"levelo://app?vid=a2bbea0f-6cc3-4363-8b66-69ade5e4a9be","ios":"levelo://app?vid=a2bbea0f-6cc3-4363-8b66-69ade5e4a9be"},"vehicle_type_id":"4","last_reported":1702652847,"current_range_meters":18800,"station_id":"ce4bht12rcd13ifvqi60","pricing_plan_id":"free"},{"bike_id":"cffe57f8-e2bf-4029-a5ca-eac7569e060d","system_id":"levelo_inurba_marseille","lat":43.286039,"lon":5.370679,"is_reserved":false,"is_disabled":false,"rental_uris":{"android":"levelo://app?vid=cffe57f8-e2bf-4029-a5ca-eac7569e060d","ios":"levelo://app?vid=cffe57f8-e2bf-4029-a5ca-eac7569e060d"},"vehicle_type_id":"4","last_reported":1702652847,"current_range_meters":24000,"station_id":"ce4bht12rcd13ifvqi60","pricing_plan_id":"free"},{"bike_id":"ee4ae394-f750-4cbc-a9da-a3343530cfea","system_id":"levelo_inurba_marseille","lat":43.28842,"lon":5.3826,"is_reserved":false,"is_disabled":false,"rental_uris":{"android":"levelo://app?vid=ee4ae394-f750-4cbc-a9da-a3343530cfea","ios":"levelo://app?vid=ee4ae394-f750-4cbc-a9da-a3343530cfea"},"vehicle_type_id":"4","last_reported":1702652847,"current_range_meters":0,"station_id":"","pricing_plan_id":"free"},{"bike_id":"938aceaf-0ee4-4391-b140-12164535357f","system_id":"levelo_inurba_marseille","lat":43.284538,"lon":5.358657,"is_reserved":false,"is_disabled":false,"rental_uris":{"android":"levelo://app?vid=938aceaf-0ee4-4391-b140-12164535357f","ios":"levelo://app?vid=938aceaf-0ee4-4391-b140-12164535357f"},"vehicle_type_id":"4","last_reported":1702652847,"current_range_meters":12400,"station_id":"ce4bhah2rcd13ifvqei0","pricing_plan_id":"free"},{"bike_id":"762b825e-cb45-4a4f-96fb-af3f041f531b","system_id":"levelo_inurba_marseille","lat":43.284538,"lon":5.358657,"is_reserved":false,"is_disabled":false,"rental_uris":{"android":"levelo://app?vid=762b825e-cb45-4a4f-96fb-af3f041f531b","ios":"levelo://app?vid=762b825e-cb45-4a4f-96fb-af3f041f531b"},"vehicle_type_id":"4","last_reported":1702652847,"current_range_meters":20400,"station_id":"ce4bhah2rcd13ifvqei0","pricing_plan_id":"free"},{"bike_id":"599229af-3058-4fdc-b76f-1cb227a809a4","system_id":"levelo_inurba_marseille","lat":43.284538,"lon":5.358657,"is_reserved":false,"is_disabled":false,"rental_uris":{"android":"levelo://app?vid=599229af-3058-4fdc-b76f-1cb227a809a4","ios":"levelo://app?vid=599229af-3058-4fdc-b76f-1cb227a809a4"},"vehicle_type_id":"4","last_reported":1702652847,"current_range_meters":14000,"station_id":"ce4bhah2rcd13ifvqei0","pricing_plan_id":"free"},{"bike_id":"0f06feb4-7cc7-4571-bb57-5856b0e172ea","system_id":"levelo_inurba_marseille","lat":43.284534,"lon":5.358662,"is_reserved":false,"is_disabled":false,"rental_uris":{"android":"levelo://app?vid=0f06feb4-7cc7-4571-bb57-5856b0e172ea","ios":"levelo://app?vid=0f06feb4-7cc7-4571-bb57-5856b0e172ea"},"vehicle_type_id":"4","last_reported":1702652847,"current_range_meters":10400,"station_id":"ce4bhah2rcd13ifvqei0","pricing_plan_id":"free"},{"bike_id":"33b89ec2-3434-4f6c-a074-43131495c9ee","system_id":"levelo_inurba_marseille","lat":43.285856,"lon":5.350771,"is_reserved":false,"is_disabled":false,"rental_uris":{"android":"levelo://app?vid=33b89ec2-3434-4f6c-a074-43131495c9ee","ios":"levelo://app?vid=33b89ec2-3434-4f6c-a074-43131495c9ee"},"vehicle_type_id":"4","last_reported":1702652847,"current_range_meters":2400,"station_id":"ce4bhch2rcd13ifvqeug","pricing_plan_id":"free"},{"bike_id":"62af1863-3fcb-4f3f-9e33-3eaab12f5c0d","system_id":"levelo_inurba_marseille","lat":43.28407,"lon":5.37501,"is_reserved":false,"is_disabled":false,"rental_uris":{"android":"levelo://app?vid=62af1863-3fcb-4f3f-9e33-3eaab12f5c0d","ios":"levelo://app?vid=62af1863-3fcb-4f3f-9e33-3eaab12f5c0d"},"vehicle_type_id":"4","last_reported":1702652847,"current_range_meters":0,"station_id":"","pricing_plan_id":"free"},{"bike_id":"57e4a576-4e09-4df8-89b5-2681bceb45c7","system_id":"levelo_inurba_marseille","lat":43.319179,"lon":5.407725,"is_reserved":false,"is_disabled":false,"rental_uris":{"android":"levelo://app?vid=57e4a576-4e09-4df8-89b5-2681bceb45c7","ios":"levelo://app?vid=57e4a576-4e09-4df8-89b5-2681bceb45c7"},"vehicle_type_id":"4","last_reported":1702652847,"current_range_meters":26400,"station_id":"ce4bhq12rcd13ifvqhig","pricing_plan_id":"free"},{"bike_id":"7dad4481-4867-4557-8614-5bf9a8d365e1","system_id":"levelo_inurba_marseille","lat":43.337168,"lon":5.391825,"is_reserved":false,"is_disabled":false,"rental_uris":{"android":"levelo://app?vid=7dad4481-4867-4557-8614-5bf9a8d365e1","ios":"levelo://app?vid=7dad4481-4867-4557-8614-5bf9a8d365e1"},"vehicle_type_id":"4","last_reported":1702652847,"current_range_meters":20000,"station_id":"ce4bhr92rcd13ifvqhsg","pricing_plan_id":"free"},{"bike_id":"60cb716e-6890-413c-af5d-762bc7bfab6a","system_id":"levelo_inurba_marseille","lat":43.297946,"lon":5.404063,"is_reserved":false,"is_disabled":false,"rental_uris":{"android":"levelo://app?vid=60cb716e-6890-413c-af5d-762bc7bfab6a","ios":"levelo://app?vid=60cb716e-6890-413c-af5d-762bc7bfab6a"},"vehicle_type_id":"4","last_reported":1702652847,"current_range_meters":29600,"station_id":"ce4bh112rcd13ifvqd90","pricing_plan_id":"free"},{"bike_id":"d31e4a5b-a00e-4e61-a060-6d07f3084037","system_id":"levelo_inurba_marseille","lat":43.284219,"lon":5.3497,"is_reserved":false,"is_disabled":false,"rental_uris":{"android":"levelo://app?vid=d31e4a5b-a00e-4e61-a060-6d07f3084037","ios":"levelo://app?vid=d31e4a5b-a00e-4e61-a060-6d07f3084037"},"vehicle_type_id":"4","last_reported":1702652847,"current_range_meters":28000,"station_id":"ce4bhbh2rcd13ifvqepg","pricing_plan_id":"free"},{"bike_id":"7aed4395-be64-4fd1-b50f-dac49d8a70cb","system_id":"levelo_inurba_marseille","lat":43.283498,"lon":5.380948,"is_reserved":false,"is_disabled":false,"rental_uris":{"android":"levelo://app?vid=7aed4395-be64-4fd1-b50f-dac49d8a70cb","ios":"levelo://app?vid=7aed4395-be64-4fd1-b50f-dac49d8a70cb"},"vehicle_type_id":"4","last_reported":1702652847,"current_range_meters":7200,"station_id":"ce4bh412rcd13ifvqdr0","pricing_plan_id":"free"},{"bike_id":"d3d2a1bc-2791-47a3-9cd0-c01a55f40520","system_id":"levelo_inurba_marseille","lat":43.284217,"lon":5.349697,"is_reserved":false,"is_disabled":false,"rental_uris":{"android":"levelo://app?vid=d3d2a1bc-2791-47a3-9cd0-c01a55f40520","ios":"levelo://app?vid=d3d2a1bc-2791-47a3-9cd0-c01a55f40520"},"vehicle_type_id":"4","last_reported":1702652847,"current_range_meters":16800,"station_id":"ce4bhbh2rcd13ifvqepg","pricing_plan_id":"free"},{"bike_id":"95c2cc34-1ab8-465e-ba5b-64a34a523e7e","system_id":"levelo_inurba_marseille","lat":43.28273,"lon":5.35065,"is_reserved":false,"is_disabled":false,"rental_uris":{"android":"levelo://app?vid=95c2cc34-1ab8-465e-ba5b-64a34a523e7e","ios":"levelo://app?vid=95c2cc34-1ab8-465e-ba5b-64a34a523e7e"},"vehicle_type_id":"4","last_reported":1702652847,"current_range_meters":20800,"station_id":"ce4bhbp2rcd13ifvqerg","pricing_plan_id":"free"},{"bike_id":"f7a9f6a5-89eb-42a5-926e-f977a8f541da","system_id":"levelo_inurba_marseille","lat":43.282754,"lon":5.350519,"is_reserved":false,"is_disabled":false,"rental_uris":{"android":"levelo://app?vid=f7a9f6a5-89eb-42a5-926e-f977a8f541da","ios":"levelo://app?vid=f7a9f6a5-89eb-42a5-926e-f977a8f541da"},"vehicle_type_id":"4","last_reported":1702652847,"current_range_meters":21200,"station_id":"ce4bhbp2rcd13ifvqerg","pricing_plan_id":"free"},{"bike_id":"f1b81c94-2522-47fc-b22d-534de8fae010","system_id":"levelo_inurba_marseille","lat":43.282744,"lon":5.350533,"is_reserved":false,"is_disabled":false,"rental_uris":{"android":"levelo://app?vid=f1b81c94-2522-47fc-b22d-534de8fae010","ios":"levelo://app?vid=f1b81c94-2522-47fc-b22d-534de8fae010"},"vehicle_type_id":"4","last_reported":1702652847,"current_range_meters":32000,"station_id":"ce4bhbp2rcd13ifvqerg","pricing_plan_id":"free"},{"bike_id":"5ed5f410-d32f-43d3-8558-afa1c165318f","system_id":"levelo_inurba_marseille","lat":43.282754,"lon":5.350519,"is_reserved":false,"is_disabled":false,"rental_uris":{"android":"levelo://app?vid=5ed5f410-d32f-43d3-8558-afa1c165318f","ios":"levelo://app?vid=5ed5f410-d32f-43d3-8558-afa1c165318f"},"vehicle_type_id":"4","last_reported":1702652847,"current_range_meters":15600,"station_id":"ce4bhbp2rcd13ifvqerg","pricing_plan_id":"free"},{"bike_id":"32b7ff22-b8d6-4897-89ba-e8fc311c14b5","system_id":"levelo_inurba_marseille","lat":43.282744,"lon":5.350533,"is_reserved":false,"is_disabled":false,"rental_uris":{"android":"levelo://app?vid=32b7ff22-b8d6-4897-89ba-e8fc311c14b5","ios":"levelo://app?vid=32b7ff22-b8d6-4897-89ba-e8fc311c14b5"},"vehicle_type_id":"4","last_reported":1702652847,"current_range_meters":13600,"station_id":"ce4bhbp2rcd13ifvqerg","pricing_plan_id":"free"},{"bike_id":"4f52be2d-23db-460b-9309-5d50cbd09dfc","system_id":"levelo_inurba_marseille","lat":43.282754,"lon":5.350519,"is_reserved":false,"is_disabled":false,"rental_uris":{"android":"levelo://app?vid=4f52be2d-23db-460b-9309-5d50cbd09dfc","ios":"levelo://app?vid=4f52be2d-23db-460b-9309-5d50cbd09dfc"},"vehicle_type_id":"4","last_reported":1702652847,"current_range_meters":26400,"station_id":"ce4bhbp2rcd13ifvqerg","pricing_plan_id":"free"},{"bike_id":"d1e94677-31d4-44ea-8239-23f2f432050f","system_id":"levelo_inurba_marseille","lat":43.282744,"lon":5.350533,"is_reserved":false,"is_disabled":false,"rental_uris":{"android":"levelo://app?vid=d1e94677-31d4-44ea-8239-23f2f432050f","ios":"levelo://app?vid=d1e94677-31d4-44ea-8239-23f2f432050f"},"vehicle_type_id":"4","last_reported":1702652847,"current_range_meters":16800,"station_id":"ce4bhbp2rcd13ifvqerg","pricing_plan_id":"free"},{"bike_id":"60add534-ee03-40f8-8745-0401c49993b4","system_id":"levelo_inurba_marseille","lat":43.282744,"lon":5.350533,"is_reserved":false,"is_disabled":false,"rental_uris":{"android":"levelo://app?vid=60add534-ee03-40f8-8745-0401c49993b4","ios":"levelo://app?vid=60add534-ee03-40f8-8745-0401c49993b4"},"vehicle_type_id":"4","last_reported":1702652847,"current_range_meters":12400,"station_id":"ce4bhbp2rcd13ifvqerg","pricing_plan_id":"free"},{"bike_id":"bc0b1c4c-e914-4505-811a-a510fbee0de6","system_id":"levelo_inurba_marseille","lat":43.28039,"lon":5.369297,"is_reserved":false,"is_disabled":false,"rental_uris":{"android":"levelo://app?vid=bc0b1c4c-e914-4505-811a-a510fbee0de6","ios":"levelo://app?vid=bc0b1c4c-e914-4505-811a-a510fbee0de6"},"vehicle_type_id":"4","last_reported":1702652847,"current_range_meters":2000,"station_id":"ce4bha12rcd13ifvqef0","pricing_plan_id":"free"},{"bike_id":"078aaffb-b8bb-4f7a-be72-f9410dd16633","system_id":"levelo_inurba_marseille","lat":43.28035,"lon":5.36946,"is_reserved":false,"is_disabled":false,"rental_uris":{"android":"levelo://app?vid=078aaffb-b8bb-4f7a-be72-f9410dd16633","ios":"levelo://app?vid=078aaffb-b8bb-4f7a-be72-f9410dd16633"},"vehicle_type_id":"4","last_reported":1702652847,"current_range_meters":16000,"station_id":"ce4bha12rcd13ifvqef0","pricing_plan_id":"free"},{"bike_id":"8fb47eb9-d1de-47c3-9a4f-063d68d00739","system_id":"levelo_inurba_marseille","lat":43.280382,"lon":5.369291,"is_reserved":false,"is_disabled":false,"rental_uris":{"android":"levelo://app?vid=8fb47eb9-d1de-47c3-9a4f-063d68d00739","ios":"levelo://app?vid=8fb47eb9-d1de-47c3-9a4f-063d68d00739"},"vehicle_type_id":"4","last_reported":1702652847,"current_range_meters":30400,"station_id":"ce4bha12rcd13ifvqef0","pricing_plan_id":"free"},{"bike_id":"62c32a41-5c85-445e-a62d-27f8a6e615c9","system_id":"levelo_inurba_marseille","lat":43.280382,"lon":5.369291,"is_reserved":false,"is_disabled":false,"rental_uris":{"android":"levelo://app?vid=62c32a41-5c85-445e-a62d-27f8a6e615c9","ios":"levelo://app?vid=62c32a41-5c85-445e-a62d-27f8a6e615c9"},"vehicle_type_id":"4","last_reported":1702652847,"current_range_meters":25600,"station_id":"ce4bha12rcd13ifvqef0","pricing_plan_id":"free"},{"bike_id":"329bd0ce-cd8f-4268-a0f9-c5304fb1f856","system_id":"levelo_inurba_marseille","lat":43.280382,"lon":5.369291,"is_reserved":false,"is_disabled":false,"rental_uris":{"android":"levelo://app?vid=329bd0ce-cd8f-4268-a0f9-c5304fb1f856","ios":"levelo://app?vid=329bd0ce-cd8f-4268-a0f9-c5304fb1f856"},"vehicle_type_id":"4","last_reported":1702652847,"current_range_meters":28400,"station_id":"ce4bha12rcd13ifvqef0","pricing_plan_id":"free"},{"bike_id":"8fd319bc-7b48-46e6-8646-aa676a210461","system_id":"levelo_inurba_marseille","lat":43.29048,"lon":5.39961,"is_reserved":false,"is_disabled":false,"rental_uris":{"android":"levelo://app?vid=8fd319bc-7b48-46e6-8646-aa676a210461","ios":"levelo://app?vid=8fd319bc-7b48-46e6-8646-aa676a210461"},"vehicle_type_id":"4","last_reported":1702652847,"current_range_meters":0,"station_id":"ce4bh392rcd13ifvqdm0","pricing_plan_id":"free"},{"bike_id":"1feaba0b-8b66-41c1-a403-afb17701bd3c","system_id":"levelo_inurba_marseille","lat":43.29041,"lon":5.399634,"is_reserved":false,"is_disabled":false,"rental_uris":{"android":"levelo://app?vid=1feaba0b-8b66-41c1-a403-afb17701bd3c","ios":"levelo://app?vid=1feaba0b-8b66-41c1-a403-afb17701bd3c"},"vehicle_type_id":"4","last_reported":1702652847,"current_range_meters":24400,"station_id":"ce4bh392rcd13ifvqdm0","pricing_plan_id":"free"},{"bike_id":"3d00414f-cc0f-4fa4-b21b-15565e6741a0","system_id":"levelo_inurba_marseille","lat":43.281044,"lon":5.378308,"is_reserved":false,"is_disabled":false,"rental_uris":{"android":"levelo://app?vid=3d00414f-cc0f-4fa4-b21b-15565e6741a0","ios":"levelo://app?vid=3d00414f-cc0f-4fa4-b21b-15565e6741a0"},"vehicle_type_id":"4","last_reported":1702652847,"current_range_meters":5200,"station_id":"ce4bha12rcd13ifvqee0","pricing_plan_id":"free"},{"bike_id":"2eca8cd1-abb6-41e6-b87e-3a2ded74509f","system_id":"levelo_inurba_marseille","lat":43.284462,"lon":5.392121,"is_reserved":false,"is_disabled":false,"rental_uris":{"android":"levelo://app?vid=2eca8cd1-abb6-41e6-b87e-3a2ded74509f","ios":"levelo://app?vid=2eca8cd1-abb6-41e6-b87e-3a2ded74509f"},"vehicle_type_id":"4","last_reported":1702652847,"current_range_meters":0,"station_id":"ce4bhoh2rcd13ifvqh5g","pricing_plan_id":"free"},{"bike_id":"0a2cc16b-b8ff-4778-9eab-00dbc50218b5","system_id":"levelo_inurba_marseille","lat":43.304188,"lon":5.412904,"is_reserved":false,"is_disabled":false,"rental_uris":{"android":"levelo://app?vid=0a2cc16b-b8ff-4778-9eab-00dbc50218b5","ios":"levelo://app?vid=0a2cc16b-b8ff-4778-9eab-00dbc50218b5"},"vehicle_type_id":"4","last_reported":1702652847,"current_range_meters":12400,"station_id":"ce4bhop2rcd13ifvqh8g","pricing_plan_id":"free"},{"bike_id":"535c4edf-4023-4098-aab4-fbbd1e9ea37d","system_id":"levelo_inurba_marseille","lat":43.304188,"lon":5.412904,"is_reserved":false,"is_disabled":false,"rental_uris":{"android":"levelo://app?vid=535c4edf-4023-4098-aab4-fbbd1e9ea37d","ios":"levelo://app?vid=535c4edf-4023-4098-aab4-fbbd1e9ea37d"},"vehicle_type_id":"4","last_reported":1702652847,"current_range_meters":26400,"station_id":"ce4bhop2rcd13ifvqh8g","pricing_plan_id":"free"},{"bike_id":"da2a5cb9-b297-482f-858c-8c68c645541e","system_id":"levelo_inurba_marseille","lat":43.304188,"lon":5.412904,"is_reserved":false,"is_disabled":false,"rental_uris":{"android":"levelo://app?vid=da2a5cb9-b297-482f-858c-8c68c645541e","ios":"levelo://app?vid=da2a5cb9-b297-482f-858c-8c68c645541e"},"vehicle_type_id":"4","last_reported":1702652847,"current_range_meters":29600,"station_id":"ce4bhop2rcd13ifvqh8g","pricing_plan_id":"free"},{"bike_id":"fb1d32f1-ba7f-4884-8e87-c32aea1959a8","system_id":"levelo_inurba_marseille","lat":43.279087,"lon":5.380114,"is_reserved":false,"is_disabled":false,"rental_uris":{"android":"levelo://app?vid=fb1d32f1-ba7f-4884-8e87-c32aea1959a8","ios":"levelo://app?vid=fb1d32f1-ba7f-4884-8e87-c32aea1959a8"},"vehicle_type_id":"4","last_reported":1702652847,"current_range_meters":16400,"station_id":"ce4bhf92rcd13ifvqf50","pricing_plan_id":"free"},{"bike_id":"b949e1a6-1cac-4d84-930c-859a579dd843","system_id":"levelo_inurba_marseille","lat":43.299579,"lon":5.413255,"is_reserved":false,"is_disabled":false,"rental_uris":{"android":"levelo://app?vid=b949e1a6-1cac-4d84-930c-859a579dd843","ios":"levelo://app?vid=b949e1a6-1cac-4d84-930c-859a579dd843"},"vehicle_type_id":"4","last_reported":1702652847,"current_range_meters":20400,"station_id":"ce4bhp12rcd13ifvqh9g","pricing_plan_id":"free"},{"bike_id":"168afdce-aa62-443e-b72d-025e698cfa33","system_id":"levelo_inurba_marseille","lat":43.292571,"lon":5.409107,"is_reserved":false,"is_disabled":false,"rental_uris":{"android":"levelo://app?vid=168afdce-aa62-443e-b72d-025e698cfa33","ios":"levelo://app?vid=168afdce-aa62-443e-b72d-025e698cfa33"},"vehicle_type_id":"4","last_reported":1702652847,"current_range_meters":20000,"station_id":"ce4bh192rcd13ifvqdc0","pricing_plan_id":"free"},{"bike_id":"39a7cc63-b62a-46c3-8cd3-bd91097c3d1a","system_id":"levelo_inurba_marseille","lat":43.292571,"lon":5.409107,"is_reserved":false,"is_disabled":false,"rental_uris":{"android":"levelo://app?vid=39a7cc63-b62a-46c3-8cd3-bd91097c3d1a","ios":"levelo://app?vid=39a7cc63-b62a-46c3-8cd3-bd91097c3d1a"},"vehicle_type_id":"4","last_reported":1702652847,"current_range_meters":24400,"station_id":"ce4bh192rcd13ifvqdc0","pricing_plan_id":"free"},{"bike_id":"82a25455-9d2e-4ca1-b054-45a242a5c041","system_id":"levelo_inurba_marseille","lat":43.292569,"lon":5.409107,"is_reserved":false,"is_disabled":false,"rental_uris":{"android":"levelo://app?vid=82a25455-9d2e-4ca1-b054-45a242a5c041","ios":"levelo://app?vid=82a25455-9d2e-4ca1-b054-45a242a5c041"},"vehicle_type_id":"4","last_reported":1702652847,"current_range_meters":4400,"station_id":"ce4bh192rcd13ifvqdc0","pricing_plan_id":"free"},{"bike_id":"ab3544c6-b5e4-4474-b68e-2d5686065610","system_id":"levelo_inurba_marseille","lat":43.292569,"lon":5.409107,"is_reserved":false,"is_disabled":false,"rental_uris":{"android":"levelo://app?vid=ab3544c6-b5e4-4474-b68e-2d5686065610","ios":"levelo://app?vid=ab3544c6-b5e4-4474-b68e-2d5686065610"},"vehicle_type_id":"4","last_reported":1702652847,"current_range_meters":27600,"station_id":"ce4bh192rcd13ifvqdc0","pricing_plan_id":"free"},{"bike_id":"a0e5530a-758c-4ecb-8b05-a0bb237d1404","system_id":"levelo_inurba_marseille","lat":43.276222,"lon":5.361025,"is_reserved":false,"is_disabled":false,"rental_uris":{"android":"levelo://app?vid=a0e5530a-758c-4ecb-8b05-a0bb237d1404","ios":"levelo://app?vid=a0e5530a-758c-4ecb-8b05-a0bb237d1404"},"vehicle_type_id":"4","last_reported":1702652847,"current_range_meters":15600,"station_id":"ce4bgj92rcd13ifvqbe0","pricing_plan_id":"free"},{"bike_id":"a5cbaf04-a340-4ffe-9ea4-8e1797af7aad","system_id":"levelo_inurba_marseille","lat":43.276184,"lon":5.361147,"is_reserved":false,"is_disabled":false,"rental_uris":{"android":"levelo://app?vid=a5cbaf04-a340-4ffe-9ea4-8e1797af7aad","ios":"levelo://app?vid=a5cbaf04-a340-4ffe-9ea4-8e1797af7aad"},"vehicle_type_id":"4","last_reported":1702652847,"current_range_meters":22400,"station_id":"ce4bgj92rcd13ifvqbe0","pricing_plan_id":"free"},{"bike_id":"eb38936c-02f3-470b-8b58-806f919c6349","system_id":"levelo_inurba_marseille","lat":43.27618,"lon":5.361009,"is_reserved":false,"is_disabled":false,"rental_uris":{"android":"levelo://app?vid=eb38936c-02f3-470b-8b58-806f919c6349","ios":"levelo://app?vid=eb38936c-02f3-470b-8b58-806f919c6349"},"vehicle_type_id":"4","last_reported":1702652847,"current_range_meters":14800,"station_id":"ce4bgj92rcd13ifvqbe0","pricing_plan_id":"free"},{"bike_id":"c40aebd4-c148-4d4d-9243-dcfaa5c4b14c","system_id":"levelo_inurba_marseille","lat":43.276179,"lon":5.361009,"is_reserved":false,"is_disabled":false,"rental_uris":{"android":"levelo://app?vid=c40aebd4-c148-4d4d-9243-dcfaa5c4b14c","ios":"levelo://app?vid=c40aebd4-c148-4d4d-9243-dcfaa5c4b14c"},"vehicle_type_id":"4","last_reported":1702652847,"current_range_meters":14000,"station_id":"ce4bgj92rcd13ifvqbe0","pricing_plan_id":"free"},{"bike_id":"85967ac3-c8bf-4c4d-9f65-8f46db69571a","system_id":"levelo_inurba_marseille","lat":43.27601,"lon":5.3612,"is_reserved":false,"is_disabled":false,"rental_uris":{"android":"levelo://app?vid=85967ac3-c8bf-4c4d-9f65-8f46db69571a","ios":"levelo://app?vid=85967ac3-c8bf-4c4d-9f65-8f46db69571a"},"vehicle_type_id":"4","last_reported":1702652847,"current_range_meters":12400,"station_id":"ce4bgj92rcd13ifvqbe0","pricing_plan_id":"free"},{"bike_id":"b45fcc83-f567-467f-8883-5b06d887fc0c","system_id":"levelo_inurba_marseille","lat":43.280784,"lon":5.396622,"is_reserved":false,"is_disabled":false,"rental_uris":{"android":"levelo://app?vid=b45fcc83-f567-467f-8883-5b06d887fc0c","ios":"levelo://app?vid=b45fcc83-f567-467f-8883-5b06d887fc0c"},"vehicle_type_id":"4","last_reported":1702652847,"current_range_meters":28800,"station_id":"ce4bho12rcd13ifvqh2g","pricing_plan_id":"free"},{"bike_id":"ade7dd85-8196-46fd-be36-f48503721d04","system_id":"levelo_inurba_marseille","lat":43.303837,"lon":5.418724,"is_reserved":false,"is_disabled":false,"rental_uris":{"android":"levelo://app?vid=ade7dd85-8196-46fd-be36-f48503721d04","ios":"levelo://app?vid=ade7dd85-8196-46fd-be36-f48503721d04"},"vehicle_type_id":"4","last_reported":1702652847,"current_range_meters":25600,"station_id":"ce4bhop2rcd13ifvqh7g","pricing_plan_id":"free"},{"bike_id":"d14d66b3-6cb9-46f7-82d5-6456b10c6e81","system_id":"levelo_inurba_marseille","lat":43.30357,"lon":5.41884,"is_reserved":false,"is_disabled":false,"rental_uris":{"android":"levelo://app?vid=d14d66b3-6cb9-46f7-82d5-6456b10c6e81","ios":"levelo://app?vid=d14d66b3-6cb9-46f7-82d5-6456b10c6e81"},"vehicle_type_id":"4","last_reported":1702652847,"current_range_meters":24400,"station_id":"","pricing_plan_id":"free"},{"bike_id":"8e1e848d-d96b-4302-ada5-5df8b44d4656","system_id":"levelo_inurba_marseille","lat":43.303583,"lon":5.419037,"is_reserved":false,"is_disabled":false,"rental_uris":{"android":"levelo://app?vid=8e1e848d-d96b-4302-ada5-5df8b44d4656","ios":"levelo://app?vid=8e1e848d-d96b-4302-ada5-5df8b44d4656"},"vehicle_type_id":"4","last_reported":1702652847,"current_range_meters":17600,"station_id":"","pricing_plan_id":"free"},{"bike_id":"f9e97150-6414-4d92-b117-ccc779f1ef38","system_id":"levelo_inurba_marseille","lat":43.273613,"lon":5.362705,"is_reserved":false,"is_disabled":false,"rental_uris":{"android":"levelo://app?vid=f9e97150-6414-4d92-b117-ccc779f1ef38","ios":"levelo://app?vid=f9e97150-6414-4d92-b117-ccc779f1ef38"},"vehicle_type_id":"4","last_reported":1702652847,"current_range_meters":14000,"station_id":"ce4bhbh2rcd13ifvqeo0","pricing_plan_id":"free"},{"bike_id":"3bce963e-4ff0-44ae-911c-664b1b6677df","system_id":"levelo_inurba_marseille","lat":43.27376,"lon":5.36253,"is_reserved":false,"is_disabled":false,"rental_uris":{"android":"levelo://app?vid=3bce963e-4ff0-44ae-911c-664b1b6677df","ios":"levelo://app?vid=3bce963e-4ff0-44ae-911c-664b1b6677df"},"vehicle_type_id":"4","last_reported":1702652847,"current_range_meters":20000,"station_id":"ce4bhbh2rcd13ifvqeo0","pricing_plan_id":"free"},{"bike_id":"f46b8131-d934-4d08-8783-3a4977f7a16d","system_id":"levelo_inurba_marseille","lat":43.273613,"lon":5.362705,"is_reserved":false,"is_disabled":false,"rental_uris":{"android":"levelo://app?vid=f46b8131-d934-4d08-8783-3a4977f7a16d","ios":"levelo://app?vid=f46b8131-d934-4d08-8783-3a4977f7a16d"},"vehicle_type_id":"4","last_reported":1702652847,"current_range_meters":31600,"station_id":"ce4bhbh2rcd13ifvqeo0","pricing_plan_id":"free"},{"bike_id":"221d63e7-23e0-465d-b284-e6263b22e20a","system_id":"levelo_inurba_marseille","lat":43.273609,"lon":5.362708,"is_reserved":false,"is_disabled":false,"rental_uris":{"android":"levelo://app?vid=221d63e7-23e0-465d-b284-e6263b22e20a","ios":"levelo://app?vid=221d63e7-23e0-465d-b284-e6263b22e20a"},"vehicle_type_id":"4","last_reported":1702652847,"current_range_meters":28400,"station_id":"ce4bhbh2rcd13ifvqeo0","pricing_plan_id":"free"},{"bike_id":"b25177ac-81a6-45c0-a28b-c266aff52ab7","system_id":"levelo_inurba_marseille","lat":43.275625,"lon":5.384392,"is_reserved":false,"is_disabled":false,"rental_uris":{"android":"levelo://app?vid=b25177ac-81a6-45c0-a28b-c266aff52ab7","ios":"levelo://app?vid=b25177ac-81a6-45c0-a28b-c266aff52ab7"},"vehicle_type_id":"4","last_reported":1702652847,"current_range_meters":26400,"station_id":"ce4bhh92rcd13ifvqfi0","pricing_plan_id":"free"},{"bike_id":"6470a7a2-1349-4ea5-b7c9-64e4a4a46249","system_id":"levelo_inurba_marseille","lat":43.273609,"lon":5.362708,"is_reserved":false,"is_disabled":false,"rental_uris":{"android":"levelo://app?vid=6470a7a2-1349-4ea5-b7c9-64e4a4a46249","ios":"levelo://app?vid=6470a7a2-1349-4ea5-b7c9-64e4a4a46249"},"vehicle_type_id":"4","last_reported":1702652847,"current_range_meters":29600,"station_id":"ce4bhbh2rcd13ifvqeo0","pricing_plan_id":"free"},{"bike_id":"77e650ba-5d4c-4844-b984-a2666b2ff38f","system_id":"levelo_inurba_marseille","lat":43.273609,"lon":5.362708,"is_reserved":false,"is_disabled":false,"rental_uris":{"android":"levelo://app?vid=77e650ba-5d4c-4844-b984-a2666b2ff38f","ios":"levelo://app?vid=77e650ba-5d4c-4844-b984-a2666b2ff38f"},"vehicle_type_id":"4","last_reported":1702652847,"current_range_meters":12800,"station_id":"ce4bhbh2rcd13ifvqeo0","pricing_plan_id":"free"},{"bike_id":"d1d17a65-03ce-4489-acd4-06452176afb5","system_id":"levelo_inurba_marseille","lat":43.273613,"lon":5.362705,"is_reserved":false,"is_disabled":false,"rental_uris":{"android":"levelo://app?vid=d1d17a65-03ce-4489-acd4-06452176afb5","ios":"levelo://app?vid=d1d17a65-03ce-4489-acd4-06452176afb5"},"vehicle_type_id":"4","last_reported":1702652847,"current_range_meters":28800,"station_id":"ce4bhbh2rcd13ifvqeo0","pricing_plan_id":"free"},{"bike_id":"0b75a2a5-1c57-4107-a48c-2b4b7020d95f","system_id":"levelo_inurba_marseille","lat":43.275625,"lon":5.384392,"is_reserved":false,"is_disabled":false,"rental_uris":{"android":"levelo://app?vid=0b75a2a5-1c57-4107-a48c-2b4b7020d95f","ios":"levelo://app?vid=0b75a2a5-1c57-4107-a48c-2b4b7020d95f"},"vehicle_type_id":"4","last_reported":1702652847,"current_range_meters":17200,"station_id":"ce4bhh92rcd13ifvqfi0","pricing_plan_id":"free"},{"bike_id":"e925b3d1-1a08-4c4b-beb4-4c15019c4a47","system_id":"levelo_inurba_marseille","lat":43.310785,"lon":5.424305,"is_reserved":false,"is_disabled":false,"rental_uris":{"android":"levelo://app?vid=e925b3d1-1a08-4c4b-beb4-4c15019c4a47","ios":"levelo://app?vid=e925b3d1-1a08-4c4b-beb4-4c15019c4a47"},"vehicle_type_id":"4","last_reported":1702652847,"current_range_meters":28000,"station_id":"ce4bhp92rcd13ifvqhag","pricing_plan_id":"free"},{"bike_id":"cdc69067-dad5-415d-b4f3-0a438e350196","system_id":"levelo_inurba_marseille","lat":43.317121,"lon":5.423936,"is_reserved":false,"is_disabled":false,"rental_uris":{"android":"levelo://app?vid=cdc69067-dad5-415d-b4f3-0a438e350196","ios":"levelo://app?vid=cdc69067-dad5-415d-b4f3-0a438e350196"},"vehicle_type_id":"4","last_reported":1702652847,"current_range_meters":4800,"station_id":"ce4bhp92rcd13ifvqhbg","pricing_plan_id":"free"},{"bike_id":"3ca2c2d2-99b0-4aa6-a05d-e30f02e6a7fb","system_id":"levelo_inurba_marseille","lat":43.276092,"lon":5.395289,"is_reserved":false,"is_disabled":false,"rental_uris":{"android":"levelo://app?vid=3ca2c2d2-99b0-4aa6-a05d-e30f02e6a7fb","ios":"levelo://app?vid=3ca2c2d2-99b0-4aa6-a05d-e30f02e6a7fb"},"vehicle_type_id":"4","last_reported":1702652847,"current_range_meters":27600,"station_id":"","pricing_plan_id":"free"},{"bike_id":"de9feb39-3844-4206-aa16-9fe6fe1926e0","system_id":"levelo_inurba_marseille","lat":43.29553,"lon":5.422713,"is_reserved":false,"is_disabled":false,"rental_uris":{"android":"levelo://app?vid=de9feb39-3844-4206-aa16-9fe6fe1926e0","ios":"levelo://app?vid=de9feb39-3844-4206-aa16-9fe6fe1926e0"},"vehicle_type_id":"4","last_reported":1702652847,"current_range_meters":19200,"station_id":"ce4bhph2rcd13ifvqhdg","pricing_plan_id":"free"},{"bike_id":"69f8ad0f-2459-47c5-93c3-15dea485ac8b","system_id":"levelo_inurba_marseille","lat":43.295511,"lon":5.422926,"is_reserved":false,"is_disabled":false,"rental_uris":{"android":"levelo://app?vid=69f8ad0f-2459-47c5-93c3-15dea485ac8b","ios":"levelo://app?vid=69f8ad0f-2459-47c5-93c3-15dea485ac8b"},"vehicle_type_id":"4","last_reported":1702652847,"current_range_meters":25200,"station_id":"ce4bhph2rcd13ifvqhdg","pricing_plan_id":"free"},{"bike_id":"0fdd36e0-a97d-4931-83bd-dc41afbd80cb","system_id":"levelo_inurba_marseille","lat":43.295511,"lon":5.422926,"is_reserved":false,"is_disabled":false,"rental_uris":{"android":"levelo://app?vid=0fdd36e0-a97d-4931-83bd-dc41afbd80cb","ios":"levelo://app?vid=0fdd36e0-a97d-4931-83bd-dc41afbd80cb"},"vehicle_type_id":"4","last_reported":1702652847,"current_range_meters":25200,"station_id":"ce4bhph2rcd13ifvqhdg","pricing_plan_id":"free"},{"bike_id":"1d2472e2-350f-44fa-a627-38e6bb5829da","system_id":"levelo_inurba_marseille","lat":43.295511,"lon":5.422926,"is_reserved":false,"is_disabled":false,"rental_uris":{"android":"levelo://app?vid=1d2472e2-350f-44fa-a627-38e6bb5829da","ios":"levelo://app?vid=1d2472e2-350f-44fa-a627-38e6bb5829da"},"vehicle_type_id":"4","last_reported":1702652847,"current_range_meters":32000,"station_id":"ce4bhph2rcd13ifvqhdg","pricing_plan_id":"free"},{"bike_id":"071b16aa-0110-4e2f-8e53-c0a33f9ce55a","system_id":"levelo_inurba_marseille","lat":43.2722,"lon":5.392323,"is_reserved":false,"is_disabled":false,"rental_uris":{"android":"levelo://app?vid=071b16aa-0110-4e2f-8e53-c0a33f9ce55a","ios":"levelo://app?vid=071b16aa-0110-4e2f-8e53-c0a33f9ce55a"},"vehicle_type_id":"4","last_reported":1702652847,"current_range_meters":20800,"station_id":"ce4bhhp2rcd13ifvqfm0","pricing_plan_id":"free"},{"bike_id":"b75f1109-2276-421a-bef7-1f07e23c8b17","system_id":"levelo_inurba_marseille","lat":43.269467,"lon":5.386439,"is_reserved":false,"is_disabled":false,"rental_uris":{"android":"levelo://app?vid=b75f1109-2276-421a-bef7-1f07e23c8b17","ios":"levelo://app?vid=b75f1109-2276-421a-bef7-1f07e23c8b17"},"vehicle_type_id":"4","last_reported":1702652847,"current_range_meters":1200,"station_id":"ce4bhh92rcd13ifvqfh0","pricing_plan_id":"free"},{"bike_id":"473f7503-0cad-4e57-acf1-e315684eddec","system_id":"levelo_inurba_marseille","lat":43.27932,"lon":5.41048,"is_reserved":false,"is_disabled":false,"rental_uris":{"android":"levelo://app?vid=473f7503-0cad-4e57-acf1-e315684eddec","ios":"levelo://app?vid=473f7503-0cad-4e57-acf1-e315684eddec"},"vehicle_type_id":"4","last_reported":1702652847,"current_range_meters":23200,"station_id":"ce4bhnp2rcd13ifvqh0g","pricing_plan_id":"free"},{"bike_id":"5d3f594c-9b0e-418e-807f-31b01190d134","system_id":"levelo_inurba_marseille","lat":43.29145,"lon":5.42669,"is_reserved":false,"is_disabled":false,"rental_uris":{"android":"levelo://app?vid=5d3f594c-9b0e-418e-807f-31b01190d134","ios":"levelo://app?vid=5d3f594c-9b0e-418e-807f-31b01190d134"},"vehicle_type_id":"4","last_reported":1702652847,"current_range_meters":12000,"station_id":"","pricing_plan_id":"free"},{"bike_id":"c441f3f9-49b3-4a25-9fe5-0be4dd0bf9f4","system_id":"levelo_inurba_marseille","lat":43.26949,"lon":5.40262,"is_reserved":false,"is_disabled":false,"rental_uris":{"android":"levelo://app?vid=c441f3f9-49b3-4a25-9fe5-0be4dd0bf9f4","ios":"levelo://app?vid=c441f3f9-49b3-4a25-9fe5-0be4dd0bf9f4"},"vehicle_type_id":"4","last_reported":1702652847,"current_range_meters":30400,"station_id":"cjm6bp8fraef2m0cb0m0","pricing_plan_id":"free"},{"bike_id":"41255572-0c19-4043-8c38-14c49d543eb7","system_id":"levelo_inurba_marseille","lat":43.26938,"lon":5.40261,"is_reserved":false,"is_disabled":false,"rental_uris":{"android":"levelo://app?vid=41255572-0c19-4043-8c38-14c49d543eb7","ios":"levelo://app?vid=41255572-0c19-4043-8c38-14c49d543eb7"},"vehicle_type_id":"4","last_reported":1702652847,"current_range_meters":3200,"station_id":"cjm6bp8fraef2m0cb0m0","pricing_plan_id":"free"},{"bike_id":"4e9c9f03-d803-443d-96d0-563cf02449ee","system_id":"levelo_inurba_marseille","lat":43.261782,"lon":5.374515,"is_reserved":false,"is_disabled":false,"rental_uris":{"android":"levelo://app?vid=4e9c9f03-d803-443d-96d0-563cf02449ee","ios":"levelo://app?vid=4e9c9f03-d803-443d-96d0-563cf02449ee"},"vehicle_type_id":"4","last_reported":1702652847,"current_range_meters":23200,"station_id":"ce4bhgp2rcd13ifvqfc0","pricing_plan_id":"free"},{"bike_id":"458b6ceb-e0e8-449e-9d54-718ca1726bcf","system_id":"levelo_inurba_marseille","lat":43.271388,"lon":5.409269,"is_reserved":false,"is_disabled":false,"rental_uris":{"android":"levelo://app?vid=458b6ceb-e0e8-449e-9d54-718ca1726bcf","ios":"levelo://app?vid=458b6ceb-e0e8-449e-9d54-718ca1726bcf"},"vehicle_type_id":"4","last_reported":1702652847,"current_range_meters":30000,"station_id":"ce4bhl12rcd13ifvqgf0","pricing_plan_id":"free"},{"bike_id":"4f5e81de-99fa-45dd-8c6f-518136894451","system_id":"levelo_inurba_marseille","lat":43.267959,"lon":5.402687,"is_reserved":false,"is_disabled":false,"rental_uris":{"android":"levelo://app?vid=4f5e81de-99fa-45dd-8c6f-518136894451","ios":"levelo://app?vid=4f5e81de-99fa-45dd-8c6f-518136894451"},"vehicle_type_id":"4","last_reported":1702652847,"current_range_meters":30400,"station_id":"ce501612rcd8frsf0b60","pricing_plan_id":"free"},{"bike_id":"4510633c-6100-41ad-9855-e4f0def2a04e","system_id":"levelo_inurba_marseille","lat":43.29901,"lon":5.43665,"is_reserved":false,"is_disabled":false,"rental_uris":{"android":"levelo://app?vid=4510633c-6100-41ad-9855-e4f0def2a04e","ios":"levelo://app?vid=4510633c-6100-41ad-9855-e4f0def2a04e"},"vehicle_type_id":"4","last_reported":1702652847,"current_range_meters":19600,"station_id":"ce4bhpp2rcd13ifvqhfg","pricing_plan_id":"free"},{"bike_id":"630427f7-e730-4e0f-8688-7218f3a79974","system_id":"levelo_inurba_marseille","lat":43.260219,"lon":5.37546,"is_reserved":false,"is_disabled":false,"rental_uris":{"android":"levelo://app?vid=630427f7-e730-4e0f-8688-7218f3a79974","ios":"levelo://app?vid=630427f7-e730-4e0f-8688-7218f3a79974"},"vehicle_type_id":"4","last_reported":1702652847,"current_range_meters":25200,"station_id":"ce4bhgh2rcd13ifvqfa0","pricing_plan_id":"free"},{"bike_id":"155dc068-b7a3-42b5-862f-e69819090beb","system_id":"levelo_inurba_marseille","lat":43.281548,"lon":5.42643,"is_reserved":false,"is_disabled":false,"rental_uris":{"android":"levelo://app?vid=155dc068-b7a3-42b5-862f-e69819090beb","ios":"levelo://app?vid=155dc068-b7a3-42b5-862f-e69819090beb"},"vehicle_type_id":"4","last_reported":1702652847,"current_range_meters":10400,"station_id":"ce4bhnh2rcd13ifvqgug","pricing_plan_id":"free"},{"bike_id":"c3e51b56-5b98-4a4e-a5c7-205fbe4af898","system_id":"levelo_inurba_marseille","lat":43.281548,"lon":5.42643,"is_reserved":false,"is_disabled":false,"rental_uris":{"android":"levelo://app?vid=c3e51b56-5b98-4a4e-a5c7-205fbe4af898","ios":"levelo://app?vid=c3e51b56-5b98-4a4e-a5c7-205fbe4af898"},"vehicle_type_id":"4","last_reported":1702652847,"current_range_meters":1600,"station_id":"ce4bhnh2rcd13ifvqgug","pricing_plan_id":"free"},{"bike_id":"5e6b6c9d-7382-43f8-bc4e-addb82167ad9","system_id":"levelo_inurba_marseille","lat":43.281548,"lon":5.42643,"is_reserved":false,"is_disabled":false,"rental_uris":{"android":"levelo://app?vid=5e6b6c9d-7382-43f8-bc4e-addb82167ad9","ios":"levelo://app?vid=5e6b6c9d-7382-43f8-bc4e-addb82167ad9"},"vehicle_type_id":"4","last_reported":1702652847,"current_range_meters":31200,"station_id":"ce4bhnh2rcd13ifvqgug","pricing_plan_id":"free"},{"bike_id":"4aa78966-3d76-4600-b8eb-de302916698d","system_id":"levelo_inurba_marseille","lat":43.2607,"lon":5.393983,"is_reserved":false,"is_disabled":false,"rental_uris":{"android":"levelo://app?vid=4aa78966-3d76-4600-b8eb-de302916698d","ios":"levelo://app?vid=4aa78966-3d76-4600-b8eb-de302916698d"},"vehicle_type_id":"4","last_reported":1702652847,"current_range_meters":30400,"station_id":"ce4bhh92rcd13ifvqfj0","pricing_plan_id":"free"},{"bike_id":"3e9893f6-bcd3-44dd-b9e0-46416d471117","system_id":"levelo_inurba_marseille","lat":43.27489,"lon":5.42455,"is_reserved":false,"is_disabled":false,"rental_uris":{"android":"levelo://app?vid=3e9893f6-bcd3-44dd-b9e0-46416d471117","ios":"levelo://app?vid=3e9893f6-bcd3-44dd-b9e0-46416d471117"},"vehicle_type_id":"4","last_reported":1702652847,"current_range_meters":10800,"station_id":"ce4bhn92rcd13ifvqgrg","pricing_plan_id":"free"},{"bike_id":"22326314-1576-4ce9-a862-c0a999d57c0c","system_id":"levelo_inurba_marseille","lat":43.25588,"lon":5.3823,"is_reserved":false,"is_disabled":false,"rental_uris":{"android":"levelo://app?vid=22326314-1576-4ce9-a862-c0a999d57c0c","ios":"levelo://app?vid=22326314-1576-4ce9-a862-c0a999d57c0c"},"vehicle_type_id":"4","last_reported":1702652847,"current_range_meters":1600,"station_id":"ce4bhih2rcd13ifvqfs0","pricing_plan_id":"free"},{"bike_id":"d47a0487-f634-4331-86e1-6aec6de0c00b","system_id":"levelo_inurba_marseille","lat":43.255756,"lon":5.382303,"is_reserved":false,"is_disabled":false,"rental_uris":{"android":"levelo://app?vid=d47a0487-f634-4331-86e1-6aec6de0c00b","ios":"levelo://app?vid=d47a0487-f634-4331-86e1-6aec6de0c00b"},"vehicle_type_id":"4","last_reported":1702652847,"current_range_meters":14000,"station_id":"ce4bhih2rcd13ifvqfs0","pricing_plan_id":"free"},{"bike_id":"51fbc073-d4b5-4fad-b3f5-538567d17cc0","system_id":"levelo_inurba_marseille","lat":43.254947,"lon":5.376454,"is_reserved":false,"is_disabled":false,"rental_uris":{"android":"levelo://app?vid=51fbc073-d4b5-4fad-b3f5-538567d17cc0","ios":"levelo://app?vid=51fbc073-d4b5-4fad-b3f5-538567d17cc0"},"vehicle_type_id":"4","last_reported":1702652847,"current_range_meters":29200,"station_id":"ce4bhh12rcd13ifvqff0","pricing_plan_id":"free"},{"bike_id":"6ac9f128-ddfa-4e31-a487-dd14c456b374","system_id":"levelo_inurba_marseille","lat":43.25944,"lon":5.40896,"is_reserved":false,"is_disabled":false,"rental_uris":{"android":"levelo://app?vid=6ac9f128-ddfa-4e31-a487-dd14c456b374","ios":"levelo://app?vid=6ac9f128-ddfa-4e31-a487-dd14c456b374"},"vehicle_type_id":"4","last_reported":1702652847,"current_range_meters":30400,"station_id":"ce4bhm92rcd13ifvqglg","pricing_plan_id":"free"},{"bike_id":"646d4a70-24e5-4079-b287-00ffefd6ba84","system_id":"levelo_inurba_marseille","lat":43.25923,"lon":5.40911,"is_reserved":false,"is_disabled":false,"rental_uris":{"android":"levelo://app?vid=646d4a70-24e5-4079-b287-00ffefd6ba84","ios":"levelo://app?vid=646d4a70-24e5-4079-b287-00ffefd6ba84"},"vehicle_type_id":"4","last_reported":1702652847,"current_range_meters":30800,"station_id":"ce4bhm92rcd13ifvqglg","pricing_plan_id":"free"},{"bike_id":"5af7e9e5-19dd-4920-bfb9-56233240b6eb","system_id":"levelo_inurba_marseille","lat":43.25922,"lon":5.40912,"is_reserved":false,"is_disabled":false,"rental_uris":{"android":"levelo://app?vid=5af7e9e5-19dd-4920-bfb9-56233240b6eb","ios":"levelo://app?vid=5af7e9e5-19dd-4920-bfb9-56233240b6eb"},"vehicle_type_id":"4","last_reported":1702652847,"current_range_meters":30000,"station_id":"ce4bhm92rcd13ifvqglg","pricing_plan_id":"free"},{"bike_id":"1d91b4e8-9c1c-4f14-a3ad-72e16ff6a6fa","system_id":"levelo_inurba_marseille","lat":43.257079,"lon":5.411051,"is_reserved":false,"is_disabled":false,"rental_uris":{"android":"levelo://app?vid=1d91b4e8-9c1c-4f14-a3ad-72e16ff6a6fa","ios":"levelo://app?vid=1d91b4e8-9c1c-4f14-a3ad-72e16ff6a6fa"},"vehicle_type_id":"4","last_reported":1702652847,"current_range_meters":9600,"station_id":"ce4bhkp2rcd13ifvqgd0","pricing_plan_id":"free"},{"bike_id":"30f27992-ba7e-43f7-aa91-a4e7136a79eb","system_id":"levelo_inurba_marseille","lat":43.257079,"lon":5.411051,"is_reserved":false,"is_disabled":false,"rental_uris":{"android":"levelo://app?vid=30f27992-ba7e-43f7-aa91-a4e7136a79eb","ios":"levelo://app?vid=30f27992-ba7e-43f7-aa91-a4e7136a79eb"},"vehicle_type_id":"4","last_reported":1702652847,"current_range_meters":26400,"station_id":"ce4bhkp2rcd13ifvqgd0","pricing_plan_id":"free"},{"bike_id":"36055a51-5a34-47f1-96fe-daf072616fe9","system_id":"levelo_inurba_marseille","lat":43.257079,"lon":5.411051,"is_reserved":false,"is_disabled":false,"rental_uris":{"android":"levelo://app?vid=36055a51-5a34-47f1-96fe-daf072616fe9","ios":"levelo://app?vid=36055a51-5a34-47f1-96fe-daf072616fe9"},"vehicle_type_id":"4","last_reported":1702652847,"current_range_meters":22800,"station_id":"ce4bhkp2rcd13ifvqgd0","pricing_plan_id":"free"},{"bike_id":"d7b4da0d-42ba-4247-92f8-4fe76fbf5e40","system_id":"levelo_inurba_marseille","lat":43.257079,"lon":5.411051,"is_reserved":false,"is_disabled":false,"rental_uris":{"android":"levelo://app?vid=d7b4da0d-42ba-4247-92f8-4fe76fbf5e40","ios":"levelo://app?vid=d7b4da0d-42ba-4247-92f8-4fe76fbf5e40"},"vehicle_type_id":"4","last_reported":1702652847,"current_range_meters":24400,"station_id":"ce4bhkp2rcd13ifvqgd0","pricing_plan_id":"free"},{"bike_id":"dc341b8e-737c-4924-855e-6d29bbaa2287","system_id":"levelo_inurba_marseille","lat":43.257079,"lon":5.411051,"is_reserved":false,"is_disabled":false,"rental_uris":{"android":"levelo://app?vid=dc341b8e-737c-4924-855e-6d29bbaa2287","ios":"levelo://app?vid=dc341b8e-737c-4924-855e-6d29bbaa2287"},"vehicle_type_id":"4","last_reported":1702652847,"current_range_meters":14400,"station_id":"ce4bhkp2rcd13ifvqgd0","pricing_plan_id":"free"},{"bike_id":"6a61895d-6119-4fc3-aa4b-af25069e1cd3","system_id":"levelo_inurba_marseille","lat":43.250023,"lon":5.38919,"is_reserved":false,"is_disabled":false,"rental_uris":{"android":"levelo://app?vid=6a61895d-6119-4fc3-aa4b-af25069e1cd3","ios":"levelo://app?vid=6a61895d-6119-4fc3-aa4b-af25069e1cd3"},"vehicle_type_id":"4","last_reported":1702652847,"current_range_meters":14400,"station_id":"ce4bhgp2rcd13ifvqfd0","pricing_plan_id":"free"},{"bike_id":"92b9024b-efe5-4e59-9dbb-59204271c5d2","system_id":"levelo_inurba_marseille","lat":43.2479,"lon":5.374457,"is_reserved":false,"is_disabled":false,"rental_uris":{"android":"levelo://app?vid=92b9024b-efe5-4e59-9dbb-59204271c5d2","ios":"levelo://app?vid=92b9024b-efe5-4e59-9dbb-59204271c5d2"},"vehicle_type_id":"4","last_reported":1702652847,"current_range_meters":4800,"station_id":"ce4bhgh2rcd13ifvqfb0","pricing_plan_id":"free"},{"bike_id":"6c601732-6810-4c4f-9610-611c0b5bf6ea","system_id":"levelo_inurba_marseille","lat":43.25119,"lon":5.40327,"is_reserved":false,"is_disabled":false,"rental_uris":{"android":"levelo://app?vid=6c601732-6810-4c4f-9610-611c0b5bf6ea","ios":"levelo://app?vid=6c601732-6810-4c4f-9610-611c0b5bf6ea"},"vehicle_type_id":"4","last_reported":1702652847,"current_range_meters":31200,"station_id":"ce4bhlh2rcd13ifvqgig","pricing_plan_id":"free"},{"bike_id":"025431aa-c2d1-4aec-ae6e-5ca0a0ca1d1f","system_id":"levelo_inurba_marseille","lat":43.25111,"lon":5.4033,"is_reserved":false,"is_disabled":false,"rental_uris":{"android":"levelo://app?vid=025431aa-c2d1-4aec-ae6e-5ca0a0ca1d1f","ios":"levelo://app?vid=025431aa-c2d1-4aec-ae6e-5ca0a0ca1d1f"},"vehicle_type_id":"4","last_reported":1702652847,"current_range_meters":0,"station_id":"ce4bhlh2rcd13ifvqgig","pricing_plan_id":"free"},{"bike_id":"910bc9e7-41fa-49f9-8534-8f080d08d06c","system_id":"levelo_inurba_marseille","lat":43.243884,"lon":5.370736,"is_reserved":false,"is_disabled":false,"rental_uris":{"android":"levelo://app?vid=910bc9e7-41fa-49f9-8534-8f080d08d06c","ios":"levelo://app?vid=910bc9e7-41fa-49f9-8534-8f080d08d06c"},"vehicle_type_id":"4","last_reported":1702652847,"current_range_meters":10400,"station_id":"ce4bhhh2rcd13ifvqfk0","pricing_plan_id":"free"},{"bike_id":"5db7eaef-d74e-4c74-a52d-637e375a84a9","system_id":"levelo_inurba_marseille","lat":43.240623,"lon":5.377642,"is_reserved":false,"is_disabled":false,"rental_uris":{"android":"levelo://app?vid=5db7eaef-d74e-4c74-a52d-637e375a84a9","ios":"levelo://app?vid=5db7eaef-d74e-4c74-a52d-637e375a84a9"},"vehicle_type_id":"4","last_reported":1702652847,"current_range_meters":12800,"station_id":"ce4bhnp2rcd13ifvqgvg","pricing_plan_id":"free"},{"bike_id":"8c112bac-5f5a-407d-8532-bc3c79605cd8","system_id":"levelo_inurba_marseille","lat":43.239588,"lon":5.366238,"is_reserved":false,"is_disabled":false,"rental_uris":{"android":"levelo://app?vid=8c112bac-5f5a-407d-8532-bc3c79605cd8","ios":"levelo://app?vid=8c112bac-5f5a-407d-8532-bc3c79605cd8"},"vehicle_type_id":"4","last_reported":1702652847,"current_range_meters":30000,"station_id":"ce4bhi12rcd13ifvqfp0","pricing_plan_id":"free"},{"bike_id":"95c8a932-e26c-4c1a-9e1d-6067881604d9","system_id":"levelo_inurba_marseille","lat":43.239588,"lon":5.366238,"is_reserved":false,"is_disabled":false,"rental_uris":{"android":"levelo://app?vid=95c8a932-e26c-4c1a-9e1d-6067881604d9","ios":"levelo://app?vid=95c8a932-e26c-4c1a-9e1d-6067881604d9"},"vehicle_type_id":"4","last_reported":1702652847,"current_range_meters":31600,"station_id":"ce4bhi12rcd13ifvqfp0","pricing_plan_id":"free"},{"bike_id":"c48ea454-a24a-4afe-a818-744ca7d241da","system_id":"levelo_inurba_marseille","lat":43.239588,"lon":5.366238,"is_reserved":false,"is_disabled":false,"rental_uris":{"android":"levelo://app?vid=c48ea454-a24a-4afe-a818-744ca7d241da","ios":"levelo://app?vid=c48ea454-a24a-4afe-a818-744ca7d241da"},"vehicle_type_id":"4","last_reported":1702652847,"current_range_meters":2800,"station_id":"ce4bhi12rcd13ifvqfp0","pricing_plan_id":"free"},{"bike_id":"1acf1e69-1e14-413c-89a4-bf7be40f6212","system_id":"levelo_inurba_marseille","lat":43.24184,"lon":5.39731,"is_reserved":false,"is_disabled":false,"rental_uris":{"android":"levelo://app?vid=1acf1e69-1e14-413c-89a4-bf7be40f6212","ios":"levelo://app?vid=1acf1e69-1e14-413c-89a4-bf7be40f6212"},"vehicle_type_id":"4","last_reported":1702652847,"current_range_meters":19600,"station_id":"ce4bhn12rcd13ifvqgpg","pricing_plan_id":"free"},{"bike_id":"c1429ef9-64a4-4967-b791-1805b200879e","system_id":"levelo_inurba_marseille","lat":43.23202,"lon":5.3555,"is_reserved":false,"is_disabled":false,"rental_uris":{"android":"levelo://app?vid=c1429ef9-64a4-4967-b791-1805b200879e","ios":"levelo://app?vid=c1429ef9-64a4-4967-b791-1805b200879e"},"vehicle_type_id":"4","last_reported":1702652847,"current_range_meters":21200,"station_id":"ce4bhu92rcd13ifvqi70","pricing_plan_id":"free"},{"bike_id":"9117ba78-efb0-4f4b-992f-bae6baeaec6c","system_id":"levelo_inurba_marseille","lat":43.23202,"lon":5.35548,"is_reserved":false,"is_disabled":false,"rental_uris":{"android":"levelo://app?vid=9117ba78-efb0-4f4b-992f-bae6baeaec6c","ios":"levelo://app?vid=9117ba78-efb0-4f4b-992f-bae6baeaec6c"},"vehicle_type_id":"4","last_reported":1702652847,"current_range_meters":13600,"station_id":"ce4bhu92rcd13ifvqi70","pricing_plan_id":"free"},{"bike_id":"160d3fcc-bd25-4280-b137-d9379b2a4d30","system_id":"levelo_inurba_marseille","lat":43.23201,"lon":5.35553,"is_reserved":false,"is_disabled":false,"rental_uris":{"android":"levelo://app?vid=160d3fcc-bd25-4280-b137-d9379b2a4d30","ios":"levelo://app?vid=160d3fcc-bd25-4280-b137-d9379b2a4d30"},"vehicle_type_id":"4","last_reported":1702652847,"current_range_meters":18800,"station_id":"ce4bhu92rcd13ifvqi70","pricing_plan_id":"free"},{"bike_id":"6159a088-b370-48df-b5da-9c5aafd142ff","system_id":"levelo_inurba_marseille","lat":43.23201,"lon":5.35547,"is_reserved":false,"is_disabled":false,"rental_uris":{"android":"levelo://app?vid=6159a088-b370-48df-b5da-9c5aafd142ff","ios":"levelo://app?vid=6159a088-b370-48df-b5da-9c5aafd142ff"},"vehicle_type_id":"4","last_reported":1702652847,"current_range_meters":7600,"station_id":"ce4bhu92rcd13ifvqi70","pricing_plan_id":"free"},{"bike_id":"51cd9008-d973-46af-9424-f4374e5b6b05","system_id":"levelo_inurba_marseille","lat":43.232,"lon":5.35554,"is_reserved":false,"is_disabled":false,"rental_uris":{"android":"levelo://app?vid=51cd9008-d973-46af-9424-f4374e5b6b05","ios":"levelo://app?vid=51cd9008-d973-46af-9424-f4374e5b6b05"},"vehicle_type_id":"4","last_reported":1702652847,"current_range_meters":7200,"station_id":"ce4bhu92rcd13ifvqi70","pricing_plan_id":"free"},{"bike_id":"5c56cc11-c1ca-430f-b898-95a1151d8a21","system_id":"levelo_inurba_marseille","lat":43.232,"lon":5.355495,"is_reserved":false,"is_disabled":false,"rental_uris":{"android":"levelo://app?vid=5c56cc11-c1ca-430f-b898-95a1151d8a21","ios":"levelo://app?vid=5c56cc11-c1ca-430f-b898-95a1151d8a21"},"vehicle_type_id":"4","last_reported":1702652847,"current_range_meters":26800,"station_id":"ce4bhu92rcd13ifvqi70","pricing_plan_id":"free"},{"bike_id":"547672b1-18af-4711-b9a3-86e73cab70b4","system_id":"levelo_inurba_marseille","lat":43.23197,"lon":5.3555,"is_reserved":false,"is_disabled":false,"rental_uris":{"android":"levelo://app?vid=547672b1-18af-4711-b9a3-86e73cab70b4","ios":"levelo://app?vid=547672b1-18af-4711-b9a3-86e73cab70b4"},"vehicle_type_id":"4","last_reported":1702652847,"current_range_meters":20800,"station_id":"ce4bhu92rcd13ifvqi70","pricing_plan_id":"free"},{"bike_id":"f500303a-8ac6-445d-adc7-107959ea5aff","system_id":"levelo_inurba_marseille","lat":43.23196,"lon":5.35555,"is_reserved":false,"is_disabled":false,"rental_uris":{"android":"levelo://app?vid=f500303a-8ac6-445d-adc7-107959ea5aff","ios":"levelo://app?vid=f500303a-8ac6-445d-adc7-107959ea5aff"},"vehicle_type_id":"4","last_reported":1702652847,"current_range_meters":29600,"station_id":"ce4bhu92rcd13ifvqi70","pricing_plan_id":"free"},{"bike_id":"0e924b74-307d-4e15-a720-7d8a2aa09be1","system_id":"levelo_inurba_marseille","lat":43.231919,"lon":5.355532,"is_reserved":false,"is_disabled":false,"rental_uris":{"android":"levelo://app?vid=0e924b74-307d-4e15-a720-7d8a2aa09be1","ios":"levelo://app?vid=0e924b74-307d-4e15-a720-7d8a2aa09be1"},"vehicle_type_id":"4","last_reported":1702652847,"current_range_meters":28000,"station_id":"ce4bhu92rcd13ifvqi70","pricing_plan_id":"free"},{"bike_id":"1c152701-4b2a-4bae-9910-af52ecb96d7d","system_id":"levelo_inurba_marseille","lat":43.23192,"lon":5.35543,"is_reserved":false,"is_disabled":false,"rental_uris":{"android":"levelo://app?vid=1c152701-4b2a-4bae-9910-af52ecb96d7d","ios":"levelo://app?vid=1c152701-4b2a-4bae-9910-af52ecb96d7d"},"vehicle_type_id":"4","last_reported":1702652847,"current_range_meters":14800,"station_id":"ce4bhu92rcd13ifvqi70","pricing_plan_id":"free"},{"bike_id":"81e904a9-3da5-429d-9d59-11820eabd019","system_id":"levelo_inurba_marseille","lat":43.231919,"lon":5.355532,"is_reserved":false,"is_disabled":false,"rental_uris":{"android":"levelo://app?vid=81e904a9-3da5-429d-9d59-11820eabd019","ios":"levelo://app?vid=81e904a9-3da5-429d-9d59-11820eabd019"},"vehicle_type_id":"4","last_reported":1702652847,"current_range_meters":30400,"station_id":"ce4bhu92rcd13ifvqi70","pricing_plan_id":"free"},{"bike_id":"44b630dd-55a9-482e-af76-6839df09d8fe","system_id":"levelo_inurba_marseille","lat":43.231794,"lon":5.400052,"is_reserved":false,"is_disabled":false,"rental_uris":{"android":"levelo://app?vid=44b630dd-55a9-482e-af76-6839df09d8fe","ios":"levelo://app?vid=44b630dd-55a9-482e-af76-6839df09d8fe"},"vehicle_type_id":"4","last_reported":1702652847,"current_range_meters":4400,"station_id":"ce4bhn12rcd13ifvqgqg","pricing_plan_id":"free"},{"bike_id":"cab54a8b-8c2b-4907-9642-4192bb0aa817","system_id":"levelo_inurba_marseille","lat":43.231793,"lon":5.400044,"is_reserved":false,"is_disabled":false,"rental_uris":{"android":"levelo://app?vid=cab54a8b-8c2b-4907-9642-4192bb0aa817","ios":"levelo://app?vid=cab54a8b-8c2b-4907-9642-4192bb0aa817"},"vehicle_type_id":"4","last_reported":1702652847,"current_range_meters":28800,"station_id":"ce4bhn12rcd13ifvqgqg","pricing_plan_id":"free"},{"bike_id":"d657bd16-ddba-486a-8e03-61a1863435fa","system_id":"levelo_inurba_marseille","lat":43.231794,"lon":5.400052,"is_reserved":false,"is_disabled":false,"rental_uris":{"android":"levelo://app?vid=d657bd16-ddba-486a-8e03-61a1863435fa","ios":"levelo://app?vid=d657bd16-ddba-486a-8e03-61a1863435fa"},"vehicle_type_id":"4","last_reported":1702652847,"current_range_meters":31200,"station_id":"ce4bhn12rcd13ifvqgqg","pricing_plan_id":"free"},{"bike_id":"0f65b9f4-f241-435f-87c9-d09d1486d59b","system_id":"levelo_inurba_marseille","lat":43.231794,"lon":5.400052,"is_reserved":false,"is_disabled":false,"rental_uris":{"android":"levelo://app?vid=0f65b9f4-f241-435f-87c9-d09d1486d59b","ios":"levelo://app?vid=0f65b9f4-f241-435f-87c9-d09d1486d59b"},"vehicle_type_id":"4","last_reported":1702652847,"current_range_meters":2400,"station_id":"ce4bhn12rcd13ifvqgqg","pricing_plan_id":"free"},{"bike_id":"b8b48029-def8-48ec-9f65-2a27a9921902","system_id":"levelo_inurba_marseille","lat":43.231562,"lon":5.436933,"is_reserved":false,"is_disabled":false,"rental_uris":{"android":"levelo://app?vid=b8b48029-def8-48ec-9f65-2a27a9921902","ios":"levelo://app?vid=b8b48029-def8-48ec-9f65-2a27a9921902"},"vehicle_type_id":"4","last_reported":1702652847,"current_range_meters":0,"station_id":"ce4bhmp2rcd13ifvqgog","pricing_plan_id":"free"}]}}