{"last_updated":1740406148,"ttl":60,"version":"2.2","data":{"bikes":[{"bike_id":"ce1daa5b-f9ab-451b-9115-5608728b9322","system_id":"levelo_inurba_marseille","lat":43.27814,"lon":5.40713,"is_reserved":false,"is_disabled":false,"rental_uris":{"android":"levelo://app?vid=ce1daa5b-f9ab-451b-9115-5608728b9322","ios":"levelo://app?vid=ce1daa5b-f9ab-451b-9115-5608728b9322"},"vehicle_type_id":"4","last_reported":1740406148,"current_range_meters":3200,"station_id":"ce4bhnh2rcd13ifvqgtg","pricing_plan_id":"cebpf4jnsgd1na2vs0mg"},{"bike_id":"35869aae-4b92-4cbc-bb5e-06461eee823f","system_id":"levelo_inurba_marseille","lat":43.25694,"lon":5.39146,"is_reserved":false,"is_disabled":true,"rental_uris":{"android":"levelo://app?vid=35869aae-4b92-4cbc-bb5e-06461eee823f","ios":"levelo://app?vid=35869aae-4b92-4cbc-bb5e-06461eee823f"},"vehicle_type_id":"4","last_reported":1740406148,"current_range_meters":3200,"station_id":"ce4bhip2rcd13ifvqft0","pricing_plan_id":"cebpf4jnsgd1na2vs0mg"},{"bike_id":"5e6765fc-d6a2-4e72-bc9e-31293dc03e61","system_id":"levelo_inurba_marseille","lat":43.2996,"lon":5.37181,"is_reserved":false,"is_disabled":false,"rental_uris":{"android":"levelo://app?vid=5e6765fc-d6a2-4e72-bc9e-31293dc03e61","ios":"levelo://app?vid=5e6765fc-d6a2-4e72-bc9e-31293dc03e61"},"vehicle_type_id":"4","last_reported":1740406148,"current_range_meters":4400,"station_id":"ce4bgr92rcd13ifvqc7g","pricing_plan_id":"cebpf4jnsgd1na2vs0mg"},{"bike_id":"8209a535-7396-4aed-bfdb-353b0fcc8c2a","system_id":"levelo_inurba_marseille","lat":43.31071,"lon":5.38361,"is_reserved":false,"is_disabled":false,"rental_uris":{"android":"levelo://app?vid=8209a535-7396-4aed-bfdb-353b0fcc8c2a","ios":"levelo://app?vid=8209a535-7396-4aed-bfdb-353b0fcc8c2a"},"vehicle_type_id":"4","last_reported":1740406148,"current_range_meters":4000,"station_id":"ce4bgv92rcd13ifvqcr0","pricing_plan_id":"cebpf4jnsgd1na2vs0mg"},{"bike_id":"f1075aed-0c1f-4362-b184-4e5bc77fa624","system_id":"levelo_inurba_marseille","lat":43.31243,"lon":5.36827,"is_reserved":false,"is_disabled":false,"rental_uris":{"android":"levelo://app?vid=f1075aed-0c1f-4362-b184-4e5bc77fa624","ios":"levelo://app?vid=f1075aed-0c1f-4362-b184-4e5bc77fa624"},"vehicle_type_id":"4","last_reported":1740406148,"current_range_meters":4800,"station_id":"ce4bgl92rcd13ifvqbq0","pricing_plan_id":"cebpf4jnsgd1na2vs0mg"},{"bike_id":"74b3057a-fe57-4acf-bafc-f0b12187bc48","system_id":"levelo_inurba_marseille","lat":43.23654,"lon":5.3939,"is_reserved":false,"is_disabled":false,"rental_uris":{"android":"levelo://app?vid=74b3057a-fe57-4acf-bafc-f0b12187bc48","ios":"levelo://app?vid=74b3057a-fe57-4acf-bafc-f0b12187bc48"},"vehicle_type_id":"4","last_reported":1740406148,"current_range_meters":5600,"station_id":"ce4bhn12rcd13ifvqgqg","pricing_plan_id":"cebpf4jnsgd1na2vs0mg"},{"bike_id":"a82c5c92-5ae1-4ec4-91ff-8e2c8638791f","system_id":"levelo_inurba_marseille","lat":43.295632,"lon":5.37818,"is_reserved":false,"is_disabled":false,"rental_uris":{"android":"levelo://app?vid=a82c5c92-5ae1-4ec4-91ff-8e2c8638791f","ios":"levelo://app?vid=a82c5c92-5ae1-4ec4-91ff-8e2c8638791f"},"vehicle_type_id":"4","last_reported":1740406148,"current_range_meters":5600,"station_id":"ce4bgi92rcd13ifvqb90","pricing_plan_id":"cebpf4jnsgd1na2vs0mg"},{"bike_id":"50a03b29-b76f-4fb2-91d7-00d2a75d785c","system_id":"levelo_inurba_marseille","lat":43.29262,"lon":5.37623,"is_reserved":false,"is_disabled":true,"rental_uris":{"android":"levelo://app?vid=50a03b29-b76f-4fb2-91d7-00d2a75d785c","ios":"levelo://app?vid=50a03b29-b76f-4fb2-91d7-00d2a75d785c"},"vehicle_type_id":"4","last_reported":1740406148,"current_range_meters":5600,"station_id":"ce4bgi12rcd13ifvqb80","pricing_plan_id":"cebpf4jnsgd1na2vs0mg"},{"bike_id":"78539bdb-bf67-4748-a95b-e095f1ce2cf6","system_id":"levelo_inurba_marseille","lat":43.28443,"lon":5.35907,"is_reserved":false,"is_disabled":false,"rental_uris":{"android":"levelo://app?vid=78539bdb-bf67-4748-a95b-e095f1ce2cf6","ios":"levelo://app?vid=78539bdb-bf67-4748-a95b-e095f1ce2cf6"},"vehicle_type_id":"4","last_reported":1740406148,"current_range_meters":5600,"station_id":"ce4bhah2rcd13ifvqei0","pricing_plan_id":"cebpf4jnsgd1na2vs0mg"},{"bike_id":"b8d9a314-6701-45c1-bb82-3b1b66aae81c","system_id":"levelo_inurba_marseille","lat":43.309444,"lon":5.40138,"is_reserved":false,"is_disabled":false,"rental_uris":{"android":"levelo://app?vid=b8d9a314-6701-45c1-bb82-3b1b66aae81c","ios":"levelo://app?vid=b8d9a314-6701-45c1-bb82-3b1b66aae81c"},"vehicle_type_id":"4","last_reported":1740406148,"current_range_meters":5600,"station_id":"ce4bgvp2rcd13ifvqct0","pricing_plan_id":"cebpf4jnsgd1na2vs0mg"},{"bike_id":"20706f49-707e-4dc7-bdfd-5eebc60f358c","system_id":"levelo_inurba_marseille","lat":43.24166,"lon":5.36392,"is_reserved":false,"is_disabled":false,"rental_uris":{"android":"levelo://app?vid=20706f49-707e-4dc7-bdfd-5eebc60f358c","ios":"levelo://app?vid=20706f49-707e-4dc7-bdfd-5eebc60f358c"},"vehicle_type_id":"4","last_reported":1740406148,"current_range_meters":6400,"station_id":"cpo36qri1sfpv3e86is0","pricing_plan_id":"cebpf4jnsgd1na2vs0mg"},{"bike_id":"413dc171-4546-4050-9354-c607ae4433bf","system_id":"levelo_inurba_marseille","lat":43.30126,"lon":5.39578,"is_reserved":false,"is_disabled":true,"rental_uris":{"android":"levelo://app?vid=413dc171-4546-4050-9354-c607ae4433bf","ios":"levelo://app?vid=413dc171-4546-4050-9354-c607ae4433bf"},"vehicle_type_id":"4","last_reported":1740406148,"current_range_meters":6400,"station_id":"","pricing_plan_id":"cebpf4jnsgd1na2vs0mg"},{"bike_id":"438488c4-ca66-4425-b017-dd7b516f7f15","system_id":"levelo_inurba_marseille","lat":43.27069,"lon":5.40249,"is_reserved":false,"is_disabled":false,"rental_uris":{"android":"levelo://app?vid=438488c4-ca66-4425-b017-dd7b516f7f15","ios":"levelo://app?vid=438488c4-ca66-4425-b017-dd7b516f7f15"},"vehicle_type_id":"4","last_reported":1740406148,"current_range_meters":6400,"station_id":"ce4bhk92rcd13ifvqgc0","pricing_plan_id":"cebpf4jnsgd1na2vs0mg"},{"bike_id":"90df2f38-669c-48e4-aa95-258b0a030130","system_id":"levelo_inurba_marseille","lat":43.3125,"lon":5.368886,"is_reserved":false,"is_disabled":false,"rental_uris":{"android":"levelo://app?vid=90df2f38-669c-48e4-aa95-258b0a030130","ios":"levelo://app?vid=90df2f38-669c-48e4-aa95-258b0a030130"},"vehicle_type_id":"4","last_reported":1740406148,"current_range_meters":6400,"station_id":"ce4bgl92rcd13ifvqbq0","pricing_plan_id":"cebpf4jnsgd1na2vs0mg"},{"bike_id":"39228e71-e322-4459-b828-d84a825a576f","system_id":"levelo_inurba_marseille","lat":43.24998,"lon":5.38924,"is_reserved":false,"is_disabled":false,"rental_uris":{"android":"levelo://app?vid=39228e71-e322-4459-b828-d84a825a576f","ios":"levelo://app?vid=39228e71-e322-4459-b828-d84a825a576f"},"vehicle_type_id":"4","last_reported":1740406148,"current_range_meters":6800,"station_id":"ce4bhgp2rcd13ifvqfd0","pricing_plan_id":"cebpf4jnsgd1na2vs0mg"},{"bike_id":"2f27be1b-5998-425e-bfe3-7c34ec43118e","system_id":"levelo_inurba_marseille","lat":43.30538,"lon":5.36557,"is_reserved":false,"is_disabled":false,"rental_uris":{"android":"levelo://app?vid=2f27be1b-5998-425e-bfe3-7c34ec43118e","ios":"levelo://app?vid=2f27be1b-5998-425e-bfe3-7c34ec43118e"},"vehicle_type_id":"4","last_reported":1740406148,"current_range_meters":10800,"station_id":"ce4bgs12rcd13ifvqcag","pricing_plan_id":"cebpf4jnsgd1na2vs0mg"},{"bike_id":"c18ab9a2-402b-4acb-a251-847f87a73955","system_id":"levelo_inurba_marseille","lat":43.26205,"lon":5.37929,"is_reserved":false,"is_disabled":false,"rental_uris":{"android":"levelo://app?vid=c18ab9a2-402b-4acb-a251-847f87a73955","ios":"levelo://app?vid=c18ab9a2-402b-4acb-a251-847f87a73955"},"vehicle_type_id":"4","last_reported":1740406148,"current_range_meters":6800,"station_id":"ce4bhjp2rcd13ifvqg90","pricing_plan_id":"cebpf4jnsgd1na2vs0mg"},{"bike_id":"c552a86f-68c6-47f8-88dd-91de8f2f2c22","system_id":"levelo_inurba_marseille","lat":43.23912,"lon":5.37463,"is_reserved":false,"is_disabled":false,"rental_uris":{"android":"levelo://app?vid=c552a86f-68c6-47f8-88dd-91de8f2f2c22","ios":"levelo://app?vid=c552a86f-68c6-47f8-88dd-91de8f2f2c22"},"vehicle_type_id":"4","last_reported":1740406148,"current_range_meters":7200,"station_id":"","pricing_plan_id":"cebpf4jnsgd1na2vs0mg"},{"bike_id":"3095385b-d4a0-4cfe-b50e-c3aacbb0c915","system_id":"levelo_inurba_marseille","lat":43.2604,"lon":5.37536,"is_reserved":false,"is_disabled":false,"rental_uris":{"android":"levelo://app?vid=3095385b-d4a0-4cfe-b50e-c3aacbb0c915","ios":"levelo://app?vid=3095385b-d4a0-4cfe-b50e-c3aacbb0c915"},"vehicle_type_id":"4","last_reported":1740406148,"current_range_meters":7200,"station_id":"ce4bhgh2rcd13ifvqfa0","pricing_plan_id":"cebpf4jnsgd1na2vs0mg"},{"bike_id":"6c3a88c0-e0e1-410d-b361-46c660cc98ca","system_id":"levelo_inurba_marseille","lat":43.337444,"lon":5.374475,"is_reserved":false,"is_disabled":false,"rental_uris":{"android":"levelo://app?vid=6c3a88c0-e0e1-410d-b361-46c660cc98ca","ios":"levelo://app?vid=6c3a88c0-e0e1-410d-b361-46c660cc98ca"},"vehicle_type_id":"4","last_reported":1740406148,"current_range_meters":8400,"station_id":"ce4bhip2rcd13ifvqft0","pricing_plan_id":"cebpf4jnsgd1na2vs0mg"},{"bike_id":"c1a7b9fc-f9d9-43fe-a6d2-2df1526ca53b","system_id":"levelo_inurba_marseille","lat":43.25565,"lon":5.38227,"is_reserved":false,"is_disabled":false,"rental_uris":{"android":"levelo://app?vid=c1a7b9fc-f9d9-43fe-a6d2-2df1526ca53b","ios":"levelo://app?vid=c1a7b9fc-f9d9-43fe-a6d2-2df1526ca53b"},"vehicle_type_id":"4","last_reported":1740406148,"current_range_meters":8000,"station_id":"ce4bhih2rcd13ifvqfs0","pricing_plan_id":"cebpf4jnsgd1na2vs0mg"},{"bike_id":"80db1b4f-c760-4c08-9e24-fb96115d5e2c","system_id":"levelo_inurba_marseille","lat":43.32091,"lon":5.36786,"is_reserved":false,"is_disabled":false,"rental_uris":{"android":"levelo://app?vid=80db1b4f-c760-4c08-9e24-fb96115d5e2c","ios":"levelo://app?vid=80db1b4f-c760-4c08-9e24-fb96115d5e2c"},"vehicle_type_id":"4","last_reported":1740406148,"current_range_meters":8000,"station_id":"ce4bhrh2rcd13ifvqhug","pricing_plan_id":"cebpf4jnsgd1na2vs0mg"},{"bike_id":"14687c58-ddd7-4a83-9004-77919a344842","system_id":"levelo_inurba_marseille","lat":43.3245,"lon":5.3659,"is_reserved":false,"is_disabled":false,"rental_uris":{"android":"levelo://app?vid=14687c58-ddd7-4a83-9004-77919a344842","ios":"levelo://app?vid=14687c58-ddd7-4a83-9004-77919a344842"},"vehicle_type_id":"4","last_reported":1740406148,"current_range_meters":8000,"station_id":"ce4bhs12rcd13ifvqhvg","pricing_plan_id":"cebpf4jnsgd1na2vs0mg"},{"bike_id":"f824cb01-8026-4b65-b32f-b9b53c92d523","system_id":"levelo_inurba_marseille","lat":43.25029,"lon":5.38906,"is_reserved":false,"is_disabled":false,"rental_uris":{"android":"levelo://app?vid=f824cb01-8026-4b65-b32f-b9b53c92d523","ios":"levelo://app?vid=f824cb01-8026-4b65-b32f-b9b53c92d523"},"vehicle_type_id":"4","last_reported":1740406148,"current_range_meters":8000,"station_id":"ce4bhgp2rcd13ifvqfd0","pricing_plan_id":"cebpf4jnsgd1na2vs0mg"},{"bike_id":"5de23fb7-3eae-42bf-9301-f28b9a95bd5e","system_id":"levelo_inurba_marseille","lat":43.2407,"lon":5.37764,"is_reserved":false,"is_disabled":false,"rental_uris":{"android":"levelo://app?vid=5de23fb7-3eae-42bf-9301-f28b9a95bd5e","ios":"levelo://app?vid=5de23fb7-3eae-42bf-9301-f28b9a95bd5e"},"vehicle_type_id":"4","last_reported":1740406148,"current_range_meters":8400,"station_id":"ce4bhnp2rcd13ifvqgvg","pricing_plan_id":"cebpf4jnsgd1na2vs0mg"},{"bike_id":"711a717e-9c95-4c64-81d0-e760796e5462","system_id":"levelo_inurba_marseille","lat":43.31353,"lon":5.36718,"is_reserved":false,"is_disabled":false,"rental_uris":{"android":"levelo://app?vid=711a717e-9c95-4c64-81d0-e760796e5462","ios":"levelo://app?vid=711a717e-9c95-4c64-81d0-e760796e5462"},"vehicle_type_id":"4","last_reported":1740406148,"current_range_meters":8400,"station_id":"ce4bgr92rcd13ifvqc6g","pricing_plan_id":"cebpf4jnsgd1na2vs0mg"},{"bike_id":"c2cb75d2-1cc0-4bb8-8462-295d51cf471c","system_id":"levelo_inurba_marseille","lat":43.2503,"lon":5.38924,"is_reserved":false,"is_disabled":false,"rental_uris":{"android":"levelo://app?vid=c2cb75d2-1cc0-4bb8-8462-295d51cf471c","ios":"levelo://app?vid=c2cb75d2-1cc0-4bb8-8462-295d51cf471c"},"vehicle_type_id":"4","last_reported":1740406148,"current_range_meters":8800,"station_id":"ce4bhgp2rcd13ifvqfd0","pricing_plan_id":"cebpf4jnsgd1na2vs0mg"},{"bike_id":"e1e622b7-94b9-4227-9056-d889e47df6c3","system_id":"levelo_inurba_marseille","lat":43.23194,"lon":5.39983,"is_reserved":false,"is_disabled":false,"rental_uris":{"android":"levelo://app?vid=e1e622b7-94b9-4227-9056-d889e47df6c3","ios":"levelo://app?vid=e1e622b7-94b9-4227-9056-d889e47df6c3"},"vehicle_type_id":"4","last_reported":1740406148,"current_range_meters":8400,"station_id":"ce4bhn12rcd13ifvqgqg","pricing_plan_id":"cebpf4jnsgd1na2vs0mg"},{"bike_id":"4949cbbd-196e-4a86-b925-857e3d2c2733","system_id":"levelo_inurba_marseille","lat":43.26687,"lon":5.38274,"is_reserved":false,"is_disabled":false,"rental_uris":{"android":"levelo://app?vid=4949cbbd-196e-4a86-b925-857e3d2c2733","ios":"levelo://app?vid=4949cbbd-196e-4a86-b925-857e3d2c2733"},"vehicle_type_id":"4","last_reported":1740406148,"current_range_meters":8400,"station_id":"ce4bhg92rcd13ifvqf90","pricing_plan_id":"cebpf4jnsgd1na2vs0mg"},{"bike_id":"ffba8bd4-eb80-4105-aab6-1298c935b86e","system_id":"levelo_inurba_marseille","lat":43.266113,"lon":5.381471,"is_reserved":false,"is_disabled":false,"rental_uris":{"android":"levelo://app?vid=ffba8bd4-eb80-4105-aab6-1298c935b86e","ios":"levelo://app?vid=ffba8bd4-eb80-4105-aab6-1298c935b86e"},"vehicle_type_id":"4","last_reported":1740406148,"current_range_meters":8400,"station_id":"ce4bhhp2rcd13ifvqfm0","pricing_plan_id":"cebpf4jnsgd1na2vs0mg"},{"bike_id":"3a6447e8-64d4-4b42-9d54-cf2aacfc1924","system_id":"levelo_inurba_marseille","lat":43.30136,"lon":5.37415,"is_reserved":false,"is_disabled":false,"rental_uris":{"android":"levelo://app?vid=3a6447e8-64d4-4b42-9d54-cf2aacfc1924","ios":"levelo://app?vid=3a6447e8-64d4-4b42-9d54-cf2aacfc1924"},"vehicle_type_id":"4","last_reported":1740406148,"current_range_meters":8000,"station_id":"ce4bgs92rcd13ifvqcc0","pricing_plan_id":"cebpf4jnsgd1na2vs0mg"},{"bike_id":"81a6860f-a8bc-41e4-a65f-dd8e8c40b55a","system_id":"levelo_inurba_marseille","lat":43.2998,"lon":5.38501,"is_reserved":false,"is_disabled":false,"rental_uris":{"android":"levelo://app?vid=81a6860f-a8bc-41e4-a65f-dd8e8c40b55a","ios":"levelo://app?vid=81a6860f-a8bc-41e4-a65f-dd8e8c40b55a"},"vehicle_type_id":"4","last_reported":1740406148,"current_range_meters":8400,"station_id":"ce4bgj92rcd13ifvqbd0","pricing_plan_id":"cebpf4jnsgd1na2vs0mg"},{"bike_id":"690100a0-8b8a-45e7-a5f3-4d82e8681b5d","system_id":"levelo_inurba_marseille","lat":43.27312,"lon":5.39081,"is_reserved":false,"is_disabled":false,"rental_uris":{"android":"levelo://app?vid=690100a0-8b8a-45e7-a5f3-4d82e8681b5d","ios":"levelo://app?vid=690100a0-8b8a-45e7-a5f3-4d82e8681b5d"},"vehicle_type_id":"4","last_reported":1740406148,"current_range_meters":8000,"station_id":"ce4bhgp2rcd13ifvqfe0","pricing_plan_id":"cebpf4jnsgd1na2vs0mg"},{"bike_id":"9428e67b-2eae-4fe6-92e0-e6b538c4f9f5","system_id":"levelo_inurba_marseille","lat":43.33605,"lon":5.4101,"is_reserved":false,"is_disabled":false,"rental_uris":{"android":"levelo://app?vid=9428e67b-2eae-4fe6-92e0-e6b538c4f9f5","ios":"levelo://app?vid=9428e67b-2eae-4fe6-92e0-e6b538c4f9f5"},"vehicle_type_id":"4","last_reported":1740406148,"current_range_meters":8800,"station_id":"ce4bhqh2rcd13ifvqhmg","pricing_plan_id":"cebpf4jnsgd1na2vs0mg"},{"bike_id":"5e44e8fe-2dc4-4414-96d2-a5037ac00219","system_id":"levelo_inurba_marseille","lat":43.24397,"lon":5.37061,"is_reserved":false,"is_disabled":false,"rental_uris":{"android":"levelo://app?vid=5e44e8fe-2dc4-4414-96d2-a5037ac00219","ios":"levelo://app?vid=5e44e8fe-2dc4-4414-96d2-a5037ac00219"},"vehicle_type_id":"4","last_reported":1740406148,"current_range_meters":8800,"station_id":"ce4bhhh2rcd13ifvqfk0","pricing_plan_id":"cebpf4jnsgd1na2vs0mg"},{"bike_id":"0b75563f-820d-45fd-96e4-3dad106229a2","system_id":"levelo_inurba_marseille","lat":43.29256,"lon":5.37618,"is_reserved":false,"is_disabled":false,"rental_uris":{"android":"levelo://app?vid=0b75563f-820d-45fd-96e4-3dad106229a2","ios":"levelo://app?vid=0b75563f-820d-45fd-96e4-3dad106229a2"},"vehicle_type_id":"4","last_reported":1740406148,"current_range_meters":8400,"station_id":"ce4bgi12rcd13ifvqb80","pricing_plan_id":"cebpf4jnsgd1na2vs0mg"},{"bike_id":"bd1c9204-109d-453d-a655-cc2878aad0c5","system_id":"levelo_inurba_marseille","lat":43.29905,"lon":5.43668,"is_reserved":false,"is_disabled":false,"rental_uris":{"android":"levelo://app?vid=bd1c9204-109d-453d-a655-cc2878aad0c5","ios":"levelo://app?vid=bd1c9204-109d-453d-a655-cc2878aad0c5"},"vehicle_type_id":"4","last_reported":1740406148,"current_range_meters":8800,"station_id":"ce4bhpp2rcd13ifvqhfg","pricing_plan_id":"cebpf4jnsgd1na2vs0mg"},{"bike_id":"6d0f173c-44de-433f-bc7c-15663f711133","system_id":"levelo_inurba_marseille","lat":43.31107,"lon":5.37769,"is_reserved":false,"is_disabled":true,"rental_uris":{"android":"levelo://app?vid=6d0f173c-44de-433f-bc7c-15663f711133","ios":"levelo://app?vid=6d0f173c-44de-433f-bc7c-15663f711133"},"vehicle_type_id":"4","last_reported":1740406148,"current_range_meters":8800,"station_id":"ce4bgt92rcd13ifvqcg0","pricing_plan_id":"cebpf4jnsgd1na2vs0mg"},{"bike_id":"5a5b7371-3c52-4d01-a7b6-2013c324e4fe","system_id":"levelo_inurba_marseille","lat":43.29791,"lon":5.38124,"is_reserved":false,"is_disabled":false,"rental_uris":{"android":"levelo://app?vid=5a5b7371-3c52-4d01-a7b6-2013c324e4fe","ios":"levelo://app?vid=5a5b7371-3c52-4d01-a7b6-2013c324e4fe"},"vehicle_type_id":"4","last_reported":1740406148,"current_range_meters":8800,"station_id":"ce4bgip2rcd13ifvqbb0","pricing_plan_id":"cebpf4jnsgd1na2vs0mg"},{"bike_id":"3a4aa467-b6a5-4b10-b4a7-74e2dd1570df","system_id":"levelo_inurba_marseille","lat":43.30198,"lon":5.37387,"is_reserved":false,"is_disabled":false,"rental_uris":{"android":"levelo://app?vid=3a4aa467-b6a5-4b10-b4a7-74e2dd1570df","ios":"levelo://app?vid=3a4aa467-b6a5-4b10-b4a7-74e2dd1570df"},"vehicle_type_id":"4","last_reported":1740406148,"current_range_meters":20400,"station_id":"","pricing_plan_id":"cebpf4jnsgd1na2vs0mg"},{"bike_id":"fba67a4b-4853-423a-8e1f-13d393dc26a3","system_id":"levelo_inurba_marseille","lat":43.29917,"lon":5.38167,"is_reserved":false,"is_disabled":false,"rental_uris":{"android":"levelo://app?vid=fba67a4b-4853-423a-8e1f-13d393dc26a3","ios":"levelo://app?vid=fba67a4b-4853-423a-8e1f-13d393dc26a3"},"vehicle_type_id":"4","last_reported":1740406148,"current_range_meters":8800,"station_id":"ce4bgj12rcd13ifvqbc0","pricing_plan_id":"cebpf4jnsgd1na2vs0mg"},{"bike_id":"99aaabf2-e8f7-4a5d-af6d-abaefe06477f","system_id":"levelo_inurba_marseille","lat":43.26694,"lon":5.38257,"is_reserved":false,"is_disabled":false,"rental_uris":{"android":"levelo://app?vid=99aaabf2-e8f7-4a5d-af6d-abaefe06477f","ios":"levelo://app?vid=99aaabf2-e8f7-4a5d-af6d-abaefe06477f"},"vehicle_type_id":"4","last_reported":1740406148,"current_range_meters":8800,"station_id":"ce4bhg92rcd13ifvqf90","pricing_plan_id":"cebpf4jnsgd1na2vs0mg"},{"bike_id":"87bbda1f-0db0-4d79-a046-a87b5e94995a","system_id":"levelo_inurba_marseille","lat":43.24179,"lon":5.36369,"is_reserved":false,"is_disabled":false,"rental_uris":{"android":"levelo://app?vid=87bbda1f-0db0-4d79-a046-a87b5e94995a","ios":"levelo://app?vid=87bbda1f-0db0-4d79-a046-a87b5e94995a"},"vehicle_type_id":"4","last_reported":1740406148,"current_range_meters":9200,"station_id":"cpo36qri1sfpv3e86is0","pricing_plan_id":"cebpf4jnsgd1na2vs0mg"},{"bike_id":"1e02fef8-5fd4-407c-af05-3bfb83b6bd78","system_id":"levelo_inurba_marseille","lat":43.32128,"lon":5.36739,"is_reserved":false,"is_disabled":false,"rental_uris":{"android":"levelo://app?vid=1e02fef8-5fd4-407c-af05-3bfb83b6bd78","ios":"levelo://app?vid=1e02fef8-5fd4-407c-af05-3bfb83b6bd78"},"vehicle_type_id":"4","last_reported":1740406148,"current_range_meters":9200,"station_id":"ce4bhrh2rcd13ifvqhug","pricing_plan_id":"cebpf4jnsgd1na2vs0mg"},{"bike_id":"3437f868-4313-4959-9701-44244b0bd81b","system_id":"levelo_inurba_marseille","lat":43.2749,"lon":5.42451,"is_reserved":false,"is_disabled":false,"rental_uris":{"android":"levelo://app?vid=3437f868-4313-4959-9701-44244b0bd81b","ios":"levelo://app?vid=3437f868-4313-4959-9701-44244b0bd81b"},"vehicle_type_id":"4","last_reported":1740406148,"current_range_meters":9200,"station_id":"ce4bhn92rcd13ifvqgrg","pricing_plan_id":"cebpf4jnsgd1na2vs0mg"},{"bike_id":"92612a50-ca9d-4f20-9e47-88f08b7e6808","system_id":"levelo_inurba_marseille","lat":43.28154,"lon":5.42636,"is_reserved":false,"is_disabled":false,"rental_uris":{"android":"levelo://app?vid=92612a50-ca9d-4f20-9e47-88f08b7e6808","ios":"levelo://app?vid=92612a50-ca9d-4f20-9e47-88f08b7e6808"},"vehicle_type_id":"4","last_reported":1740406148,"current_range_meters":9200,"station_id":"ce4bhnh2rcd13ifvqgug","pricing_plan_id":"cebpf4jnsgd1na2vs0mg"},{"bike_id":"b21c77a5-e540-4cda-8ea5-f87eb6cea310","system_id":"levelo_inurba_marseille","lat":43.29298,"lon":5.37448,"is_reserved":false,"is_disabled":true,"rental_uris":{"android":"levelo://app?vid=b21c77a5-e540-4cda-8ea5-f87eb6cea310","ios":"levelo://app?vid=b21c77a5-e540-4cda-8ea5-f87eb6cea310"},"vehicle_type_id":"4","last_reported":1740406148,"current_range_meters":9200,"station_id":"ce4bgi12rcd13ifvqb70","pricing_plan_id":"cebpf4jnsgd1na2vs0mg"},{"bike_id":"7e26a3e9-4c57-4918-aa17-698a0ce4ac78","system_id":"levelo_inurba_marseille","lat":43.30669,"lon":5.37428,"is_reserved":false,"is_disabled":false,"rental_uris":{"android":"levelo://app?vid=7e26a3e9-4c57-4918-aa17-698a0ce4ac78","ios":"levelo://app?vid=7e26a3e9-4c57-4918-aa17-698a0ce4ac78"},"vehicle_type_id":"4","last_reported":1740406148,"current_range_meters":9200,"station_id":"","pricing_plan_id":"cebpf4jnsgd1na2vs0mg"},{"bike_id":"d205081a-fefd-4fe8-8999-fd8844057bca","system_id":"levelo_inurba_marseille","lat":43.29844,"lon":5.36276,"is_reserved":false,"is_disabled":false,"rental_uris":{"android":"levelo://app?vid=d205081a-fefd-4fe8-8999-fd8844057bca","ios":"levelo://app?vid=d205081a-fefd-4fe8-8999-fd8844057bca"},"vehicle_type_id":"4","last_reported":1740406148,"current_range_meters":9200,"station_id":"ce4bgpp2rcd13ifvqc3g","pricing_plan_id":"cebpf4jnsgd1na2vs0mg"},{"bike_id":"0b8c8027-3885-496e-93cc-f6bfee45fe44","system_id":"levelo_inurba_marseille","lat":43.29845,"lon":5.36278,"is_reserved":false,"is_disabled":false,"rental_uris":{"android":"levelo://app?vid=0b8c8027-3885-496e-93cc-f6bfee45fe44","ios":"levelo://app?vid=0b8c8027-3885-496e-93cc-f6bfee45fe44"},"vehicle_type_id":"4","last_reported":1740406148,"current_range_meters":9600,"station_id":"ce4bgpp2rcd13ifvqc3g","pricing_plan_id":"cebpf4jnsgd1na2vs0mg"},{"bike_id":"7764cb33-5426-4b94-909c-ac480986db17","system_id":"levelo_inurba_marseille","lat":43.29332,"lon":5.37246,"is_reserved":false,"is_disabled":false,"rental_uris":{"android":"levelo://app?vid=7764cb33-5426-4b94-909c-ac480986db17","ios":"levelo://app?vid=7764cb33-5426-4b94-909c-ac480986db17"},"vehicle_type_id":"4","last_reported":1740406148,"current_range_meters":9600,"station_id":"","pricing_plan_id":"cebpf4jnsgd1na2vs0mg"},{"bike_id":"b86048c4-f305-4d68-ad78-087443649aaa","system_id":"levelo_inurba_marseille","lat":43.23169,"lon":5.43704,"is_reserved":false,"is_disabled":false,"rental_uris":{"android":"levelo://app?vid=b86048c4-f305-4d68-ad78-087443649aaa","ios":"levelo://app?vid=b86048c4-f305-4d68-ad78-087443649aaa"},"vehicle_type_id":"4","last_reported":1740406148,"current_range_meters":9600,"station_id":"ce4bhmp2rcd13ifvqgog","pricing_plan_id":"cebpf4jnsgd1na2vs0mg"},{"bike_id":"d6cfea07-588d-4d31-85e4-466ce4e56257","system_id":"levelo_inurba_marseille","lat":43.28666,"lon":5.38675,"is_reserved":false,"is_disabled":false,"rental_uris":{"android":"levelo://app?vid=d6cfea07-588d-4d31-85e4-466ce4e56257","ios":"levelo://app?vid=d6cfea07-588d-4d31-85e4-466ce4e56257"},"vehicle_type_id":"4","last_reported":1740406148,"current_range_meters":10000,"station_id":"ce4bh492rcd13ifvqdug","pricing_plan_id":"cebpf4jnsgd1na2vs0mg"},{"bike_id":"216bb77f-c769-4011-8970-e66d63254aa2","system_id":"levelo_inurba_marseille","lat":43.29925,"lon":5.37865,"is_reserved":false,"is_disabled":false,"rental_uris":{"android":"levelo://app?vid=216bb77f-c769-4011-8970-e66d63254aa2","ios":"levelo://app?vid=216bb77f-c769-4011-8970-e66d63254aa2"},"vehicle_type_id":"4","last_reported":1740406148,"current_range_meters":10000,"station_id":"","pricing_plan_id":"cebpf4jnsgd1na2vs0mg"},{"bike_id":"2b81dbdc-5915-4d05-a663-ccc0a4b7a833","system_id":"levelo_inurba_marseille","lat":43.28704,"lon":5.39971,"is_reserved":false,"is_disabled":false,"rental_uris":{"android":"levelo://app?vid=2b81dbdc-5915-4d05-a663-ccc0a4b7a833","ios":"levelo://app?vid=2b81dbdc-5915-4d05-a663-ccc0a4b7a833"},"vehicle_type_id":"4","last_reported":1740406148,"current_range_meters":10000,"station_id":"ce4bho92rcd13ifvqh3g","pricing_plan_id":"cebpf4jnsgd1na2vs0mg"},{"bike_id":"180ed742-846b-4789-9aef-813213957466","system_id":"levelo_inurba_marseille","lat":43.30419,"lon":5.41283,"is_reserved":false,"is_disabled":false,"rental_uris":{"android":"levelo://app?vid=180ed742-846b-4789-9aef-813213957466","ios":"levelo://app?vid=180ed742-846b-4789-9aef-813213957466"},"vehicle_type_id":"4","last_reported":1740406148,"current_range_meters":9600,"station_id":"ce4bhop2rcd13ifvqh8g","pricing_plan_id":"cebpf4jnsgd1na2vs0mg"},{"bike_id":"91bee1ab-e5ca-4a52-9614-45c157756eb7","system_id":"levelo_inurba_marseille","lat":43.23156,"lon":5.43716,"is_reserved":false,"is_disabled":false,"rental_uris":{"android":"levelo://app?vid=91bee1ab-e5ca-4a52-9614-45c157756eb7","ios":"levelo://app?vid=91bee1ab-e5ca-4a52-9614-45c157756eb7"},"vehicle_type_id":"4","last_reported":1740406148,"current_range_meters":10000,"station_id":"ce4bhmp2rcd13ifvqgog","pricing_plan_id":"cebpf4jnsgd1na2vs0mg"},{"bike_id":"a8c1ac6e-4fe0-4484-9bf9-ba50ac4d6956","system_id":"levelo_inurba_marseille","lat":43.26564,"lon":5.39017,"is_reserved":false,"is_disabled":false,"rental_uris":{"android":"levelo://app?vid=a8c1ac6e-4fe0-4484-9bf9-ba50ac4d6956","ios":"levelo://app?vid=a8c1ac6e-4fe0-4484-9bf9-ba50ac4d6956"},"vehicle_type_id":"4","last_reported":1740406148,"current_range_meters":10000,"station_id":"ce4bhe12rcd13ifvqf30","pricing_plan_id":"cebpf4jnsgd1na2vs0mg"},{"bike_id":"731b24b6-bdad-4dce-a3d0-378478be454b","system_id":"levelo_inurba_marseille","lat":43.290043,"lon":5.356215,"is_reserved":false,"is_disabled":false,"rental_uris":{"android":"levelo://app?vid=731b24b6-bdad-4dce-a3d0-378478be454b","ios":"levelo://app?vid=731b24b6-bdad-4dce-a3d0-378478be454b"},"vehicle_type_id":"4","last_reported":1740406148,"current_range_meters":9600,"station_id":"ce4bh392rcd13ifvqdl0","pricing_plan_id":"cebpf4jnsgd1na2vs0mg"},{"bike_id":"b3daf4f4-b605-42a7-bd4b-531ddf848fbd","system_id":"levelo_inurba_marseille","lat":43.30801,"lon":5.38194,"is_reserved":false,"is_disabled":false,"rental_uris":{"android":"levelo://app?vid=b3daf4f4-b605-42a7-bd4b-531ddf848fbd","ios":"levelo://app?vid=b3daf4f4-b605-42a7-bd4b-531ddf848fbd"},"vehicle_type_id":"4","last_reported":1740406148,"current_range_meters":10000,"station_id":"ce4bgt12rcd13ifvqce0","pricing_plan_id":"cebpf4jnsgd1na2vs0mg"},{"bike_id":"18ef55be-849b-4d56-a344-234d88ed46b1","system_id":"levelo_inurba_marseille","lat":43.30091,"lon":5.39081,"is_reserved":false,"is_disabled":false,"rental_uris":{"android":"levelo://app?vid=18ef55be-849b-4d56-a344-234d88ed46b1","ios":"levelo://app?vid=18ef55be-849b-4d56-a344-234d88ed46b1"},"vehicle_type_id":"4","last_reported":1740406148,"current_range_meters":10800,"station_id":"ce4bh192rcd13ifvqdb0","pricing_plan_id":"cebpf4jnsgd1na2vs0mg"},{"bike_id":"b5a1b57d-a26e-4060-b2ae-24f084b6a93f","system_id":"levelo_inurba_marseille","lat":43.3008,"lon":5.39078,"is_reserved":false,"is_disabled":false,"rental_uris":{"android":"levelo://app?vid=b5a1b57d-a26e-4060-b2ae-24f084b6a93f","ios":"levelo://app?vid=b5a1b57d-a26e-4060-b2ae-24f084b6a93f"},"vehicle_type_id":"4","last_reported":1740406148,"current_range_meters":10800,"station_id":"ce4bh192rcd13ifvqdb0","pricing_plan_id":"cebpf4jnsgd1na2vs0mg"},{"bike_id":"6cd9e29c-750c-43f0-bd5a-a0573ca6f52d","system_id":"levelo_inurba_marseille","lat":43.25557,"lon":5.38223,"is_reserved":false,"is_disabled":false,"rental_uris":{"android":"levelo://app?vid=6cd9e29c-750c-43f0-bd5a-a0573ca6f52d","ios":"levelo://app?vid=6cd9e29c-750c-43f0-bd5a-a0573ca6f52d"},"vehicle_type_id":"4","last_reported":1740406148,"current_range_meters":10800,"station_id":"ce4bhih2rcd13ifvqfs0","pricing_plan_id":"cebpf4jnsgd1na2vs0mg"},{"bike_id":"8ff551a1-229e-4006-801e-19ea1c094368","system_id":"levelo_inurba_marseille","lat":43.23162,"lon":5.4372,"is_reserved":false,"is_disabled":false,"rental_uris":{"android":"levelo://app?vid=8ff551a1-229e-4006-801e-19ea1c094368","ios":"levelo://app?vid=8ff551a1-229e-4006-801e-19ea1c094368"},"vehicle_type_id":"4","last_reported":1740406148,"current_range_meters":10800,"station_id":"ce4bhmp2rcd13ifvqgog","pricing_plan_id":"cebpf4jnsgd1na2vs0mg"},{"bike_id":"c7693090-b4fe-4984-8bdb-13b662f820df","system_id":"levelo_inurba_marseille","lat":43.27571,"lon":5.38409,"is_reserved":false,"is_disabled":false,"rental_uris":{"android":"levelo://app?vid=c7693090-b4fe-4984-8bdb-13b662f820df","ios":"levelo://app?vid=c7693090-b4fe-4984-8bdb-13b662f820df"},"vehicle_type_id":"4","last_reported":1740406148,"current_range_meters":10800,"station_id":"ce4bhh92rcd13ifvqfi0","pricing_plan_id":"cebpf4jnsgd1na2vs0mg"},{"bike_id":"cb398a6c-bb66-4c6f-82db-8a9b1baf3cd6","system_id":"levelo_inurba_marseille","lat":43.30911,"lon":5.36857,"is_reserved":false,"is_disabled":false,"rental_uris":{"android":"levelo://app?vid=cb398a6c-bb66-4c6f-82db-8a9b1baf3cd6","ios":"levelo://app?vid=cb398a6c-bb66-4c6f-82db-8a9b1baf3cd6"},"vehicle_type_id":"4","last_reported":1740406148,"current_range_meters":10800,"station_id":"ce4bgn92rcd13ifvqbvg","pricing_plan_id":"cebpf4jnsgd1na2vs0mg"},{"bike_id":"af3b6082-e1d5-40a6-a684-cde66d4be0b0","system_id":"levelo_inurba_marseille","lat":43.2315,"lon":5.43723,"is_reserved":false,"is_disabled":false,"rental_uris":{"android":"levelo://app?vid=af3b6082-e1d5-40a6-a684-cde66d4be0b0","ios":"levelo://app?vid=af3b6082-e1d5-40a6-a684-cde66d4be0b0"},"vehicle_type_id":"4","last_reported":1740406148,"current_range_meters":11200,"station_id":"ce4bhmp2rcd13ifvqgog","pricing_plan_id":"cebpf4jnsgd1na2vs0mg"},{"bike_id":"7fb5d024-4133-43a8-b964-b49693fe423e","system_id":"levelo_inurba_marseille","lat":43.25503,"lon":5.37651,"is_reserved":false,"is_disabled":false,"rental_uris":{"android":"levelo://app?vid=7fb5d024-4133-43a8-b964-b49693fe423e","ios":"levelo://app?vid=7fb5d024-4133-43a8-b964-b49693fe423e"},"vehicle_type_id":"4","last_reported":1740406148,"current_range_meters":11200,"station_id":"ce4bhh12rcd13ifvqff0","pricing_plan_id":"cebpf4jnsgd1na2vs0mg"},{"bike_id":"6a3112f7-34bf-4b42-849d-216f33de370e","system_id":"levelo_inurba_marseille","lat":43.24081,"lon":5.37749,"is_reserved":false,"is_disabled":false,"rental_uris":{"android":"levelo://app?vid=6a3112f7-34bf-4b42-849d-216f33de370e","ios":"levelo://app?vid=6a3112f7-34bf-4b42-849d-216f33de370e"},"vehicle_type_id":"4","last_reported":1740406148,"current_range_meters":11200,"station_id":"ce4bhnp2rcd13ifvqgvg","pricing_plan_id":"cebpf4jnsgd1na2vs0mg"},{"bike_id":"491564c0-ab43-40cb-879e-cda85f925e7b","system_id":"levelo_inurba_marseille","lat":43.28152,"lon":5.42635,"is_reserved":false,"is_disabled":false,"rental_uris":{"android":"levelo://app?vid=491564c0-ab43-40cb-879e-cda85f925e7b","ios":"levelo://app?vid=491564c0-ab43-40cb-879e-cda85f925e7b"},"vehicle_type_id":"4","last_reported":1740406148,"current_range_meters":10800,"station_id":"ce4bhnh2rcd13ifvqgug","pricing_plan_id":"cebpf4jnsgd1na2vs0mg"},{"bike_id":"fb6a8be3-dc0e-4d4f-a97c-8ba1e88733e2","system_id":"levelo_inurba_marseille","lat":43.24074,"lon":5.37761,"is_reserved":false,"is_disabled":false,"rental_uris":{"android":"levelo://app?vid=fb6a8be3-dc0e-4d4f-a97c-8ba1e88733e2","ios":"levelo://app?vid=fb6a8be3-dc0e-4d4f-a97c-8ba1e88733e2"},"vehicle_type_id":"4","last_reported":1740406148,"current_range_meters":11200,"station_id":"ce4bhnp2rcd13ifvqgvg","pricing_plan_id":"cebpf4jnsgd1na2vs0mg"},{"bike_id":"2744ead7-a27a-4002-bfa0-f5e939b593df","system_id":"levelo_inurba_marseille","lat":43.26685,"lon":5.38276,"is_reserved":false,"is_disabled":false,"rental_uris":{"android":"levelo://app?vid=2744ead7-a27a-4002-bfa0-f5e939b593df","ios":"levelo://app?vid=2744ead7-a27a-4002-bfa0-f5e939b593df"},"vehicle_type_id":"4","last_reported":1740406148,"current_range_meters":11200,"station_id":"ce4bhg92rcd13ifvqf90","pricing_plan_id":"cebpf4jnsgd1na2vs0mg"},{"bike_id":"734f28fb-4a9a-40a3-9d66-f28f686ab40d","system_id":"levelo_inurba_marseille","lat":43.27953,"lon":5.41041,"is_reserved":false,"is_disabled":false,"rental_uris":{"android":"levelo://app?vid=734f28fb-4a9a-40a3-9d66-f28f686ab40d","ios":"levelo://app?vid=734f28fb-4a9a-40a3-9d66-f28f686ab40d"},"vehicle_type_id":"4","last_reported":1740406148,"current_range_meters":11200,"station_id":"ce4bhnp2rcd13ifvqh0g","pricing_plan_id":"cebpf4jnsgd1na2vs0mg"},{"bike_id":"615e212e-047c-4187-9b0f-7a3031a5adda","system_id":"levelo_inurba_marseille","lat":43.275,"lon":5.42488,"is_reserved":false,"is_disabled":false,"rental_uris":{"android":"levelo://app?vid=615e212e-047c-4187-9b0f-7a3031a5adda","ios":"levelo://app?vid=615e212e-047c-4187-9b0f-7a3031a5adda"},"vehicle_type_id":"4","last_reported":1740406148,"current_range_meters":11200,"station_id":"ce4bhn92rcd13ifvqgrg","pricing_plan_id":"cebpf4jnsgd1na2vs0mg"},{"bike_id":"29337d22-1a09-4901-a9a5-65a64cb4e2dc","system_id":"levelo_inurba_marseille","lat":43.28692,"lon":5.37393,"is_reserved":false,"is_disabled":false,"rental_uris":{"android":"levelo://app?vid=29337d22-1a09-4901-a9a5-65a64cb4e2dc","ios":"levelo://app?vid=29337d22-1a09-4901-a9a5-65a64cb4e2dc"},"vehicle_type_id":"4","last_reported":1740406148,"current_range_meters":11200,"station_id":"ce4bh3p2rcd13ifvqdq0","pricing_plan_id":"cebpf4jnsgd1na2vs0mg"},{"bike_id":"637c03a1-26ef-4ad9-8296-45aa0bbd605f","system_id":"levelo_inurba_marseille","lat":43.30955,"lon":5.39065,"is_reserved":false,"is_disabled":false,"rental_uris":{"android":"levelo://app?vid=637c03a1-26ef-4ad9-8296-45aa0bbd605f","ios":"levelo://app?vid=637c03a1-26ef-4ad9-8296-45aa0bbd605f"},"vehicle_type_id":"4","last_reported":1740406148,"current_range_meters":11600,"station_id":"ce4bgup2rcd13ifvqco0","pricing_plan_id":"cebpf4jnsgd1na2vs0mg"},{"bike_id":"243758a6-c08c-4f05-a708-338a05b43e7c","system_id":"levelo_inurba_marseille","lat":43.29591,"lon":5.36724,"is_reserved":false,"is_disabled":false,"rental_uris":{"android":"levelo://app?vid=243758a6-c08c-4f05-a708-338a05b43e7c","ios":"levelo://app?vid=243758a6-c08c-4f05-a708-338a05b43e7c"},"vehicle_type_id":"4","last_reported":1740406148,"current_range_meters":11600,"station_id":"ce4bgph2rcd13ifvqc2g","pricing_plan_id":"cebpf4jnsgd1na2vs0mg"},{"bike_id":"7d462d73-4828-42de-9728-af386b3d6d1f","system_id":"levelo_inurba_marseille","lat":43.30534,"lon":5.36691,"is_reserved":false,"is_disabled":false,"rental_uris":{"android":"levelo://app?vid=7d462d73-4828-42de-9728-af386b3d6d1f","ios":"levelo://app?vid=7d462d73-4828-42de-9728-af386b3d6d1f"},"vehicle_type_id":"4","last_reported":1740406148,"current_range_meters":11600,"station_id":"ce4bgrp2rcd13ifvqc9g","pricing_plan_id":"cebpf4jnsgd1na2vs0mg"},{"bike_id":"1d2d6b89-17d4-4ff3-a072-0d0a18b6df5c","system_id":"levelo_inurba_marseille","lat":43.32743,"lon":5.39284,"is_reserved":false,"is_disabled":false,"rental_uris":{"android":"levelo://app?vid=1d2d6b89-17d4-4ff3-a072-0d0a18b6df5c","ios":"levelo://app?vid=1d2d6b89-17d4-4ff3-a072-0d0a18b6df5c"},"vehicle_type_id":"4","last_reported":1740406148,"current_range_meters":12400,"station_id":"","pricing_plan_id":"cebpf4jnsgd1na2vs0mg"},{"bike_id":"aba4b0ca-bd7e-473e-a7a5-13d43db8a4b2","system_id":"levelo_inurba_marseille","lat":43.32363,"lon":5.36778,"is_reserved":false,"is_disabled":false,"rental_uris":{"android":"levelo://app?vid=aba4b0ca-bd7e-473e-a7a5-13d43db8a4b2","ios":"levelo://app?vid=aba4b0ca-bd7e-473e-a7a5-13d43db8a4b2"},"vehicle_type_id":"4","last_reported":1740406148,"current_range_meters":12400,"station_id":"ce4bhsh2rcd13ifvqi2g","pricing_plan_id":"cebpf4jnsgd1na2vs0mg"},{"bike_id":"e5deb594-c1a2-4437-84f4-04984020f537","system_id":"levelo_inurba_marseille","lat":43.299299,"lon":5.365547,"is_reserved":false,"is_disabled":false,"rental_uris":{"android":"levelo://app?vid=e5deb594-c1a2-4437-84f4-04984020f537","ios":"levelo://app?vid=e5deb594-c1a2-4437-84f4-04984020f537"},"vehicle_type_id":"4","last_reported":1740406148,"current_range_meters":12400,"station_id":"ce4bgm92rcd13ifvqbr0","pricing_plan_id":"cebpf4jnsgd1na2vs0mg"},{"bike_id":"548175b3-050a-474b-b94e-2d5f0d777576","system_id":"levelo_inurba_marseille","lat":43.275,"lon":5.4245,"is_reserved":false,"is_disabled":false,"rental_uris":{"android":"levelo://app?vid=548175b3-050a-474b-b94e-2d5f0d777576","ios":"levelo://app?vid=548175b3-050a-474b-b94e-2d5f0d777576"},"vehicle_type_id":"4","last_reported":1740406148,"current_range_meters":12400,"station_id":"ce4bhn92rcd13ifvqgrg","pricing_plan_id":"cebpf4jnsgd1na2vs0mg"},{"bike_id":"6c49b11b-c994-436b-a78f-8bf002878d9b","system_id":"levelo_inurba_marseille","lat":43.29608,"lon":5.3811,"is_reserved":false,"is_disabled":false,"rental_uris":{"android":"levelo://app?vid=6c49b11b-c994-436b-a78f-8bf002878d9b","ios":"levelo://app?vid=6c49b11b-c994-436b-a78f-8bf002878d9b"},"vehicle_type_id":"4","last_reported":1740406148,"current_range_meters":12800,"station_id":"ce4bgl12rcd13ifvqbo0","pricing_plan_id":"cebpf4jnsgd1na2vs0mg"},{"bike_id":"643fc280-ca54-48e7-a137-f1a059dd085c","system_id":"levelo_inurba_marseille","lat":43.24162,"lon":5.39729,"is_reserved":false,"is_disabled":false,"rental_uris":{"android":"levelo://app?vid=643fc280-ca54-48e7-a137-f1a059dd085c","ios":"levelo://app?vid=643fc280-ca54-48e7-a137-f1a059dd085c"},"vehicle_type_id":"4","last_reported":1740406148,"current_range_meters":12800,"station_id":"ce4bhn12rcd13ifvqgpg","pricing_plan_id":"cebpf4jnsgd1na2vs0mg"},{"bike_id":"b32b2208-421b-42ed-9379-1b1cf20aa27f","system_id":"levelo_inurba_marseille","lat":43.31388,"lon":5.38476,"is_reserved":false,"is_disabled":false,"rental_uris":{"android":"levelo://app?vid=b32b2208-421b-42ed-9379-1b1cf20aa27f","ios":"levelo://app?vid=b32b2208-421b-42ed-9379-1b1cf20aa27f"},"vehicle_type_id":"4","last_reported":1740406148,"current_range_meters":13600,"station_id":"ce4bgt92rcd13ifvqcf0","pricing_plan_id":"cebpf4jnsgd1na2vs0mg"},{"bike_id":"674cb057-5d42-4512-ae8c-448c1f63016b","system_id":"levelo_inurba_marseille","lat":43.30362,"lon":5.39443,"is_reserved":false,"is_disabled":false,"rental_uris":{"android":"levelo://app?vid=674cb057-5d42-4512-ae8c-448c1f63016b","ios":"levelo://app?vid=674cb057-5d42-4512-ae8c-448c1f63016b"},"vehicle_type_id":"4","last_reported":1740406148,"current_range_meters":13600,"station_id":"","pricing_plan_id":"cebpf4jnsgd1na2vs0mg"},{"bike_id":"a2d983fa-b1df-4cf2-a15e-7a22d4131e2d","system_id":"levelo_inurba_marseille","lat":43.24061,"lon":5.37773,"is_reserved":false,"is_disabled":false,"rental_uris":{"android":"levelo://app?vid=a2d983fa-b1df-4cf2-a15e-7a22d4131e2d","ios":"levelo://app?vid=a2d983fa-b1df-4cf2-a15e-7a22d4131e2d"},"vehicle_type_id":"4","last_reported":1740406148,"current_range_meters":14000,"station_id":"ce4bhnp2rcd13ifvqgvg","pricing_plan_id":"cebpf4jnsgd1na2vs0mg"},{"bike_id":"597a7ba4-2f49-4e56-ba9e-bb234c60ccc2","system_id":"levelo_inurba_marseille","lat":43.30362,"lon":5.37668,"is_reserved":false,"is_disabled":false,"rental_uris":{"android":"levelo://app?vid=597a7ba4-2f49-4e56-ba9e-bb234c60ccc2","ios":"levelo://app?vid=597a7ba4-2f49-4e56-ba9e-bb234c60ccc2"},"vehicle_type_id":"4","last_reported":1740406148,"current_range_meters":12800,"station_id":"ce4bgt92rcd13ifvqcf0","pricing_plan_id":"cebpf4jnsgd1na2vs0mg"},{"bike_id":"bcb471e8-02f0-45da-b361-47d407247297","system_id":"levelo_inurba_marseille","lat":43.301411,"lon":5.380809,"is_reserved":false,"is_disabled":false,"rental_uris":{"android":"levelo://app?vid=bcb471e8-02f0-45da-b361-47d407247297","ios":"levelo://app?vid=bcb471e8-02f0-45da-b361-47d407247297"},"vehicle_type_id":"4","last_reported":1740406148,"current_range_meters":16400,"station_id":"ce4bh692rcd13ifvqea0","pricing_plan_id":"cebpf4jnsgd1na2vs0mg"},{"bike_id":"dcfaf5c6-be3a-42e9-9c96-99d4a05b5ac2","system_id":"levelo_inurba_marseille","lat":43.25924,"lon":5.40884,"is_reserved":false,"is_disabled":false,"rental_uris":{"android":"levelo://app?vid=dcfaf5c6-be3a-42e9-9c96-99d4a05b5ac2","ios":"levelo://app?vid=dcfaf5c6-be3a-42e9-9c96-99d4a05b5ac2"},"vehicle_type_id":"4","last_reported":1740406148,"current_range_meters":14000,"station_id":"ce4bhm92rcd13ifvqglg","pricing_plan_id":"cebpf4jnsgd1na2vs0mg"},{"bike_id":"c3253750-123a-486b-91df-e97ba5045558","system_id":"levelo_inurba_marseille","lat":43.29782,"lon":5.39354,"is_reserved":false,"is_disabled":false,"rental_uris":{"android":"levelo://app?vid=c3253750-123a-486b-91df-e97ba5045558","ios":"levelo://app?vid=c3253750-123a-486b-91df-e97ba5045558"},"vehicle_type_id":"4","last_reported":1740406148,"current_range_meters":14000,"station_id":"chh1huq6cuj3fo74tm60","pricing_plan_id":"cebpf4jnsgd1na2vs0mg"},{"bike_id":"0c88cdb7-c678-47aa-b89d-6687f21f6b90","system_id":"levelo_inurba_marseille","lat":43.29032,"lon":5.37578,"is_reserved":false,"is_disabled":false,"rental_uris":{"android":"levelo://app?vid=0c88cdb7-c678-47aa-b89d-6687f21f6b90","ios":"levelo://app?vid=0c88cdb7-c678-47aa-b89d-6687f21f6b90"},"vehicle_type_id":"4","last_reported":1740406148,"current_range_meters":14000,"station_id":"ce4bh692rcd13ifvqe90","pricing_plan_id":"cebpf4jnsgd1na2vs0mg"},{"bike_id":"2faea67b-00b9-44f4-86a5-ccca349622da","system_id":"levelo_inurba_marseille","lat":43.25927,"lon":5.40885,"is_reserved":false,"is_disabled":false,"rental_uris":{"android":"levelo://app?vid=2faea67b-00b9-44f4-86a5-ccca349622da","ios":"levelo://app?vid=2faea67b-00b9-44f4-86a5-ccca349622da"},"vehicle_type_id":"4","last_reported":1740406148,"current_range_meters":14000,"station_id":"ce4bhm92rcd13ifvqglg","pricing_plan_id":"cebpf4jnsgd1na2vs0mg"},{"bike_id":"33640d7d-e00d-4d87-a51a-fb7f269154c7","system_id":"levelo_inurba_marseille","lat":43.27245,"lon":5.39087,"is_reserved":false,"is_disabled":false,"rental_uris":{"android":"levelo://app?vid=33640d7d-e00d-4d87-a51a-fb7f269154c7","ios":"levelo://app?vid=33640d7d-e00d-4d87-a51a-fb7f269154c7"},"vehicle_type_id":"4","last_reported":1740406148,"current_range_meters":14000,"station_id":"","pricing_plan_id":"cebpf4jnsgd1na2vs0mg"},{"bike_id":"2c79d0e9-b47c-4e9e-90d0-9d0bb000588f","system_id":"levelo_inurba_marseille","lat":43.295227,"lon":5.394063,"is_reserved":false,"is_disabled":false,"rental_uris":{"android":"levelo://app?vid=2c79d0e9-b47c-4e9e-90d0-9d0bb000588f","ios":"levelo://app?vid=2c79d0e9-b47c-4e9e-90d0-9d0bb000588f"},"vehicle_type_id":"4","last_reported":1740406148,"current_range_meters":14000,"station_id":"ce4bh3p2rcd13ifvqdq0","pricing_plan_id":"cebpf4jnsgd1na2vs0mg"},{"bike_id":"51bffffd-b5c9-47a5-b13d-6a2437e7bb7b","system_id":"levelo_inurba_marseille","lat":43.296,"lon":5.38092,"is_reserved":false,"is_disabled":false,"rental_uris":{"android":"levelo://app?vid=51bffffd-b5c9-47a5-b13d-6a2437e7bb7b","ios":"levelo://app?vid=51bffffd-b5c9-47a5-b13d-6a2437e7bb7b"},"vehicle_type_id":"4","last_reported":1740406148,"current_range_meters":14000,"station_id":"ce4bgl12rcd13ifvqbo0","pricing_plan_id":"cebpf4jnsgd1na2vs0mg"},{"bike_id":"7aefbfc4-5f49-4894-b981-02afda4d51a5","system_id":"levelo_inurba_marseille","lat":43.30309,"lon":5.36903,"is_reserved":false,"is_disabled":false,"rental_uris":{"android":"levelo://app?vid=7aefbfc4-5f49-4894-b981-02afda4d51a5","ios":"levelo://app?vid=7aefbfc4-5f49-4894-b981-02afda4d51a5"},"vehicle_type_id":"4","last_reported":1740406148,"current_range_meters":14000,"station_id":"ce4bgqh2rcd13ifvqc5g","pricing_plan_id":"cebpf4jnsgd1na2vs0mg"},{"bike_id":"8e6a8add-5cc7-474e-af4a-9151094e8109","system_id":"levelo_inurba_marseille","lat":43.29851,"lon":5.36287,"is_reserved":false,"is_disabled":false,"rental_uris":{"android":"levelo://app?vid=8e6a8add-5cc7-474e-af4a-9151094e8109","ios":"levelo://app?vid=8e6a8add-5cc7-474e-af4a-9151094e8109"},"vehicle_type_id":"4","last_reported":1740406148,"current_range_meters":14400,"station_id":"ce4bgpp2rcd13ifvqc3g","pricing_plan_id":"cebpf4jnsgd1na2vs0mg"},{"bike_id":"b5862bc0-79eb-4fb4-ae2c-11b8561d5bac","system_id":"levelo_inurba_marseille","lat":43.337444,"lon":5.374475,"is_reserved":false,"is_disabled":false,"rental_uris":{"android":"levelo://app?vid=b5862bc0-79eb-4fb4-ae2c-11b8561d5bac","ios":"levelo://app?vid=b5862bc0-79eb-4fb4-ae2c-11b8561d5bac"},"vehicle_type_id":"4","last_reported":1740406148,"current_range_meters":14400,"station_id":"ce4bhip2rcd13ifvqft0","pricing_plan_id":"cebpf4jnsgd1na2vs0mg"},{"bike_id":"cde2e6ae-f610-4209-b292-1183ab73619b","system_id":"levelo_inurba_marseille","lat":43.29209,"lon":5.39326,"is_reserved":false,"is_disabled":false,"rental_uris":{"android":"levelo://app?vid=cde2e6ae-f610-4209-b292-1183ab73619b","ios":"levelo://app?vid=cde2e6ae-f610-4209-b292-1183ab73619b"},"vehicle_type_id":"4","last_reported":1740406148,"current_range_meters":14800,"station_id":"ce4bh192rcd13ifvqdd0","pricing_plan_id":"cebpf4jnsgd1na2vs0mg"},{"bike_id":"27a3e911-3015-4fe1-95db-9084e087a055","system_id":"levelo_inurba_marseille","lat":43.2749,"lon":5.4246,"is_reserved":false,"is_disabled":false,"rental_uris":{"android":"levelo://app?vid=27a3e911-3015-4fe1-95db-9084e087a055","ios":"levelo://app?vid=27a3e911-3015-4fe1-95db-9084e087a055"},"vehicle_type_id":"4","last_reported":1740406148,"current_range_meters":14800,"station_id":"ce4bhn92rcd13ifvqgrg","pricing_plan_id":"cebpf4jnsgd1na2vs0mg"},{"bike_id":"130ab319-f673-4e36-9717-343d196c6cce","system_id":"levelo_inurba_marseille","lat":43.23185,"lon":5.39994,"is_reserved":false,"is_disabled":false,"rental_uris":{"android":"levelo://app?vid=130ab319-f673-4e36-9717-343d196c6cce","ios":"levelo://app?vid=130ab319-f673-4e36-9717-343d196c6cce"},"vehicle_type_id":"4","last_reported":1740406148,"current_range_meters":14800,"station_id":"ce4bhn12rcd13ifvqgqg","pricing_plan_id":"cebpf4jnsgd1na2vs0mg"},{"bike_id":"80547eda-9f52-473b-a253-13926c495e05","system_id":"levelo_inurba_marseille","lat":43.28272,"lon":5.35068,"is_reserved":false,"is_disabled":false,"rental_uris":{"android":"levelo://app?vid=80547eda-9f52-473b-a253-13926c495e05","ios":"levelo://app?vid=80547eda-9f52-473b-a253-13926c495e05"},"vehicle_type_id":"4","last_reported":1740406148,"current_range_meters":14800,"station_id":"ce4bhbp2rcd13ifvqerg","pricing_plan_id":"cebpf4jnsgd1na2vs0mg"},{"bike_id":"7e834e56-69da-4330-9d30-71b5abffe901","system_id":"levelo_inurba_marseille","lat":43.28845,"lon":5.39304,"is_reserved":false,"is_disabled":false,"rental_uris":{"android":"levelo://app?vid=7e834e56-69da-4330-9d30-71b5abffe901","ios":"levelo://app?vid=7e834e56-69da-4330-9d30-71b5abffe901"},"vehicle_type_id":"4","last_reported":1740406148,"current_range_meters":15200,"station_id":"ce4bh2p2rcd13ifvqdi0","pricing_plan_id":"cebpf4jnsgd1na2vs0mg"},{"bike_id":"dc86b0d3-3360-49b4-9f3f-5c2f2e8eb085","system_id":"levelo_inurba_marseille","lat":43.23969,"lon":5.36634,"is_reserved":false,"is_disabled":false,"rental_uris":{"android":"levelo://app?vid=dc86b0d3-3360-49b4-9f3f-5c2f2e8eb085","ios":"levelo://app?vid=dc86b0d3-3360-49b4-9f3f-5c2f2e8eb085"},"vehicle_type_id":"4","last_reported":1740406148,"current_range_meters":14800,"station_id":"ce4bhi12rcd13ifvqfp0","pricing_plan_id":"cebpf4jnsgd1na2vs0mg"},{"bike_id":"2675431b-bcdf-4508-b8eb-eea4be9250f7","system_id":"levelo_inurba_marseille","lat":43.26495,"lon":5.39547,"is_reserved":false,"is_disabled":false,"rental_uris":{"android":"levelo://app?vid=2675431b-bcdf-4508-b8eb-eea4be9250f7","ios":"levelo://app?vid=2675431b-bcdf-4508-b8eb-eea4be9250f7"},"vehicle_type_id":"4","last_reported":1740406148,"current_range_meters":15200,"station_id":"ce4bhi12rcd13ifvqfq0","pricing_plan_id":"cebpf4jnsgd1na2vs0mg"},{"bike_id":"be168372-c29f-4ff6-8493-f05a81595a51","system_id":"levelo_inurba_marseille","lat":43.33602,"lon":5.41034,"is_reserved":false,"is_disabled":false,"rental_uris":{"android":"levelo://app?vid=be168372-c29f-4ff6-8493-f05a81595a51","ios":"levelo://app?vid=be168372-c29f-4ff6-8493-f05a81595a51"},"vehicle_type_id":"4","last_reported":1740406148,"current_range_meters":11200,"station_id":"ce4bhqh2rcd13ifvqhmg","pricing_plan_id":"cebpf4jnsgd1na2vs0mg"},{"bike_id":"ea32427d-25b6-47e4-ae19-2d1e8b487891","system_id":"levelo_inurba_marseille","lat":43.2705,"lon":5.40266,"is_reserved":false,"is_disabled":false,"rental_uris":{"android":"levelo://app?vid=ea32427d-25b6-47e4-ae19-2d1e8b487891","ios":"levelo://app?vid=ea32427d-25b6-47e4-ae19-2d1e8b487891"},"vehicle_type_id":"4","last_reported":1740406148,"current_range_meters":15200,"station_id":"ce4bhk92rcd13ifvqgc0","pricing_plan_id":"cebpf4jnsgd1na2vs0mg"},{"bike_id":"c010e87c-21ab-488e-a5e6-3639b3df3e60","system_id":"levelo_inurba_marseille","lat":43.26577,"lon":5.37303,"is_reserved":false,"is_disabled":false,"rental_uris":{"android":"levelo://app?vid=c010e87c-21ab-488e-a5e6-3639b3df3e60","ios":"levelo://app?vid=c010e87c-21ab-488e-a5e6-3639b3df3e60"},"vehicle_type_id":"4","last_reported":1740406148,"current_range_meters":16000,"station_id":"ce4bhg12rcd13ifvqf70","pricing_plan_id":"cebpf4jnsgd1na2vs0mg"},{"bike_id":"8f44dda1-9d79-448e-8863-709f19de9a07","system_id":"levelo_inurba_marseille","lat":43.31222,"lon":5.37226,"is_reserved":false,"is_disabled":false,"rental_uris":{"android":"levelo://app?vid=8f44dda1-9d79-448e-8863-709f19de9a07","ios":"levelo://app?vid=8f44dda1-9d79-448e-8863-709f19de9a07"},"vehicle_type_id":"4","last_reported":1740406148,"current_range_meters":16000,"station_id":"","pricing_plan_id":"cebpf4jnsgd1na2vs0mg"},{"bike_id":"6f9eb619-ce1a-440a-9085-673242f78425","system_id":"levelo_inurba_marseille","lat":43.29496,"lon":5.37529,"is_reserved":false,"is_disabled":true,"rental_uris":{"android":"levelo://app?vid=6f9eb619-ce1a-440a-9085-673242f78425","ios":"levelo://app?vid=6f9eb619-ce1a-440a-9085-673242f78425"},"vehicle_type_id":"4","last_reported":1740406148,"current_range_meters":16000,"station_id":"","pricing_plan_id":"cebpf4jnsgd1na2vs0mg"},{"bike_id":"fd880d6c-2406-4655-9519-fcef16eff44e","system_id":"levelo_inurba_marseille","lat":43.30648,"lon":5.40086,"is_reserved":false,"is_disabled":true,"rental_uris":{"android":"levelo://app?vid=fd880d6c-2406-4655-9519-fcef16eff44e","ios":"levelo://app?vid=fd880d6c-2406-4655-9519-fcef16eff44e"},"vehicle_type_id":"4","last_reported":1740406148,"current_range_meters":16000,"station_id":"ce4bh112rcd13ifvqda0","pricing_plan_id":"cebpf4jnsgd1na2vs0mg"},{"bike_id":"d2610799-3b25-4010-8a8a-a9ba4108f5fb","system_id":"levelo_inurba_marseille","lat":43.25015,"lon":5.38917,"is_reserved":false,"is_disabled":false,"rental_uris":{"android":"levelo://app?vid=d2610799-3b25-4010-8a8a-a9ba4108f5fb","ios":"levelo://app?vid=d2610799-3b25-4010-8a8a-a9ba4108f5fb"},"vehicle_type_id":"4","last_reported":1740406148,"current_range_meters":16000,"station_id":"ce4bhgp2rcd13ifvqfd0","pricing_plan_id":"cebpf4jnsgd1na2vs0mg"},{"bike_id":"8e3e6f13-2d9f-4b9c-9895-8df836891ed8","system_id":"levelo_inurba_marseille","lat":43.30521,"lon":5.36729,"is_reserved":false,"is_disabled":false,"rental_uris":{"android":"levelo://app?vid=8e3e6f13-2d9f-4b9c-9895-8df836891ed8","ios":"levelo://app?vid=8e3e6f13-2d9f-4b9c-9895-8df836891ed8"},"vehicle_type_id":"4","last_reported":1740406148,"current_range_meters":16000,"station_id":"ce4bgrp2rcd13ifvqc9g","pricing_plan_id":"cebpf4jnsgd1na2vs0mg"},{"bike_id":"acf29cec-0128-4551-be51-01bf8f9c3de2","system_id":"levelo_inurba_marseille","lat":43.29612,"lon":5.37729,"is_reserved":false,"is_disabled":false,"rental_uris":{"android":"levelo://app?vid=acf29cec-0128-4551-be51-01bf8f9c3de2","ios":"levelo://app?vid=acf29cec-0128-4551-be51-01bf8f9c3de2"},"vehicle_type_id":"4","last_reported":1740406148,"current_range_meters":16800,"station_id":"ce4bgi92rcd13ifvqb90","pricing_plan_id":"cebpf4jnsgd1na2vs0mg"},{"bike_id":"46b6aad1-7138-4a90-8d09-f178f7c99367","system_id":"levelo_inurba_marseille","lat":43.28928,"lon":5.36395,"is_reserved":false,"is_disabled":false,"rental_uris":{"android":"levelo://app?vid=46b6aad1-7138-4a90-8d09-f178f7c99367","ios":"levelo://app?vid=46b6aad1-7138-4a90-8d09-f178f7c99367"},"vehicle_type_id":"4","last_reported":1740406148,"current_range_meters":15200,"station_id":"ce4bhc92rcd13ifvqetg","pricing_plan_id":"cebpf4jnsgd1na2vs0mg"},{"bike_id":"e37489bc-03d1-4632-a37c-332b03559c35","system_id":"levelo_inurba_marseille","lat":43.30527,"lon":5.36561,"is_reserved":false,"is_disabled":false,"rental_uris":{"android":"levelo://app?vid=e37489bc-03d1-4632-a37c-332b03559c35","ios":"levelo://app?vid=e37489bc-03d1-4632-a37c-332b03559c35"},"vehicle_type_id":"4","last_reported":1740406148,"current_range_meters":16400,"station_id":"ce4bgs12rcd13ifvqcag","pricing_plan_id":"cebpf4jnsgd1na2vs0mg"},{"bike_id":"abef7188-d18a-451c-9be1-a5cb1a90671b","system_id":"levelo_inurba_marseille","lat":43.23059,"lon":5.35492,"is_reserved":false,"is_disabled":false,"rental_uris":{"android":"levelo://app?vid=abef7188-d18a-451c-9be1-a5cb1a90671b","ios":"levelo://app?vid=abef7188-d18a-451c-9be1-a5cb1a90671b"},"vehicle_type_id":"4","last_reported":1740406148,"current_range_meters":16400,"station_id":"","pricing_plan_id":"cebpf4jnsgd1na2vs0mg"},{"bike_id":"adf71cb7-141e-4eea-9e73-ee5445bdc10b","system_id":"levelo_inurba_marseille","lat":43.27669,"lon":5.38926,"is_reserved":false,"is_disabled":false,"rental_uris":{"android":"levelo://app?vid=adf71cb7-141e-4eea-9e73-ee5445bdc10b","ios":"levelo://app?vid=adf71cb7-141e-4eea-9e73-ee5445bdc10b"},"vehicle_type_id":"4","last_reported":1740406148,"current_range_meters":16000,"station_id":"ce4bhi12rcd13ifvqfo0","pricing_plan_id":"cebpf4jnsgd1na2vs0mg"},{"bike_id":"cdc801a2-0170-4e98-8b54-fe3e2a8c9ba8","system_id":"levelo_inurba_marseille","lat":43.30466,"lon":5.37915,"is_reserved":false,"is_disabled":false,"rental_uris":{"android":"levelo://app?vid=cdc801a2-0170-4e98-8b54-fe3e2a8c9ba8","ios":"levelo://app?vid=cdc801a2-0170-4e98-8b54-fe3e2a8c9ba8"},"vehicle_type_id":"4","last_reported":1740406148,"current_range_meters":16400,"station_id":"ce4bgup2rcd13ifvqcn0","pricing_plan_id":"cebpf4jnsgd1na2vs0mg"},{"bike_id":"490e0b2f-1cb1-49dd-90c6-d8ed026aeda8","system_id":"levelo_inurba_marseille","lat":43.30528,"lon":5.36697,"is_reserved":false,"is_disabled":false,"rental_uris":{"android":"levelo://app?vid=490e0b2f-1cb1-49dd-90c6-d8ed026aeda8","ios":"levelo://app?vid=490e0b2f-1cb1-49dd-90c6-d8ed026aeda8"},"vehicle_type_id":"4","last_reported":1740406148,"current_range_meters":16400,"station_id":"ce4bgrp2rcd13ifvqc9g","pricing_plan_id":"cebpf4jnsgd1na2vs0mg"},{"bike_id":"45a19c8e-2d94-4018-8646-3507003fa4a6","system_id":"levelo_inurba_marseille","lat":43.27502,"lon":5.42449,"is_reserved":false,"is_disabled":false,"rental_uris":{"android":"levelo://app?vid=45a19c8e-2d94-4018-8646-3507003fa4a6","ios":"levelo://app?vid=45a19c8e-2d94-4018-8646-3507003fa4a6"},"vehicle_type_id":"4","last_reported":1740406148,"current_range_meters":16800,"station_id":"ce4bhn92rcd13ifvqgrg","pricing_plan_id":"cebpf4jnsgd1na2vs0mg"},{"bike_id":"8a0b1c74-0182-4a4a-bb2e-fc624cd3a83f","system_id":"levelo_inurba_marseille","lat":43.30462,"lon":5.37913,"is_reserved":false,"is_disabled":false,"rental_uris":{"android":"levelo://app?vid=8a0b1c74-0182-4a4a-bb2e-fc624cd3a83f","ios":"levelo://app?vid=8a0b1c74-0182-4a4a-bb2e-fc624cd3a83f"},"vehicle_type_id":"4","last_reported":1740406148,"current_range_meters":17200,"station_id":"ce4bgup2rcd13ifvqcn0","pricing_plan_id":"cebpf4jnsgd1na2vs0mg"},{"bike_id":"05f51bd6-bf8c-4b6c-ba2f-d7bf7cec3006","system_id":"levelo_inurba_marseille","lat":43.23189,"lon":5.35571,"is_reserved":false,"is_disabled":false,"rental_uris":{"android":"levelo://app?vid=05f51bd6-bf8c-4b6c-ba2f-d7bf7cec3006","ios":"levelo://app?vid=05f51bd6-bf8c-4b6c-ba2f-d7bf7cec3006"},"vehicle_type_id":"4","last_reported":1740406148,"current_range_meters":17200,"station_id":"ce4bhu92rcd13ifvqi70","pricing_plan_id":"cebpf4jnsgd1na2vs0mg"},{"bike_id":"be1807f1-3ff8-4d68-bfa3-1bcc169ac2a8","system_id":"levelo_inurba_marseille","lat":43.23146,"lon":5.43734,"is_reserved":false,"is_disabled":false,"rental_uris":{"android":"levelo://app?vid=be1807f1-3ff8-4d68-bfa3-1bcc169ac2a8","ios":"levelo://app?vid=be1807f1-3ff8-4d68-bfa3-1bcc169ac2a8"},"vehicle_type_id":"4","last_reported":1740406148,"current_range_meters":17200,"station_id":"ce4bhmp2rcd13ifvqgog","pricing_plan_id":"cebpf4jnsgd1na2vs0mg"},{"bike_id":"55d7d4f9-2951-4921-8c51-7fed6a26871d","system_id":"levelo_inurba_marseille","lat":43.29849,"lon":5.36287,"is_reserved":false,"is_disabled":false,"rental_uris":{"android":"levelo://app?vid=55d7d4f9-2951-4921-8c51-7fed6a26871d","ios":"levelo://app?vid=55d7d4f9-2951-4921-8c51-7fed6a26871d"},"vehicle_type_id":"4","last_reported":1740406148,"current_range_meters":17200,"station_id":"ce4bgpp2rcd13ifvqc3g","pricing_plan_id":"cebpf4jnsgd1na2vs0mg"},{"bike_id":"1c2f3bdc-68fa-40a8-b99e-fcf41f32f9e4","system_id":"levelo_inurba_marseille","lat":43.292158,"lon":5.405118,"is_reserved":false,"is_disabled":false,"rental_uris":{"android":"levelo://app?vid=1c2f3bdc-68fa-40a8-b99e-fcf41f32f9e4","ios":"levelo://app?vid=1c2f3bdc-68fa-40a8-b99e-fcf41f32f9e4"},"vehicle_type_id":"4","last_reported":1740406148,"current_range_meters":17200,"station_id":"","pricing_plan_id":"cebpf4jnsgd1na2vs0mg"},{"bike_id":"ad8eea45-7b42-45fc-9b86-ab13f1f9e6ab","system_id":"levelo_inurba_marseille","lat":43.27323,"lon":5.3909,"is_reserved":false,"is_disabled":false,"rental_uris":{"android":"levelo://app?vid=ad8eea45-7b42-45fc-9b86-ab13f1f9e6ab","ios":"levelo://app?vid=ad8eea45-7b42-45fc-9b86-ab13f1f9e6ab"},"vehicle_type_id":"4","last_reported":1740406148,"current_range_meters":17200,"station_id":"ce4bhgp2rcd13ifvqfe0","pricing_plan_id":"cebpf4jnsgd1na2vs0mg"},{"bike_id":"a9afe926-b99e-40c4-8f4d-f067936df36b","system_id":"levelo_inurba_marseille","lat":43.32117,"lon":5.36779,"is_reserved":false,"is_disabled":false,"rental_uris":{"android":"levelo://app?vid=a9afe926-b99e-40c4-8f4d-f067936df36b","ios":"levelo://app?vid=a9afe926-b99e-40c4-8f4d-f067936df36b"},"vehicle_type_id":"4","last_reported":1740406148,"current_range_meters":17200,"station_id":"ce4bhrh2rcd13ifvqhug","pricing_plan_id":"cebpf4jnsgd1na2vs0mg"},{"bike_id":"ee83707b-16c2-4154-8c55-dd06ab591e73","system_id":"levelo_inurba_marseille","lat":43.32374,"lon":5.3676,"is_reserved":false,"is_disabled":false,"rental_uris":{"android":"levelo://app?vid=ee83707b-16c2-4154-8c55-dd06ab591e73","ios":"levelo://app?vid=ee83707b-16c2-4154-8c55-dd06ab591e73"},"vehicle_type_id":"4","last_reported":1740406148,"current_range_meters":17200,"station_id":"ce4bhsh2rcd13ifvqi2g","pricing_plan_id":"cebpf4jnsgd1na2vs0mg"},{"bike_id":"1cc7d386-c0f4-4ead-b949-abf7e37f87fb","system_id":"levelo_inurba_marseille","lat":43.30186,"lon":5.36629,"is_reserved":false,"is_disabled":false,"rental_uris":{"android":"levelo://app?vid=1cc7d386-c0f4-4ead-b949-abf7e37f87fb","ios":"levelo://app?vid=1cc7d386-c0f4-4ead-b949-abf7e37f87fb"},"vehicle_type_id":"4","last_reported":1740406148,"current_range_meters":17200,"station_id":"ce4bgrh2rcd13ifvqc8g","pricing_plan_id":"cebpf4jnsgd1na2vs0mg"},{"bike_id":"f6f8c3a5-484e-4733-89b4-8125aa6e5bb6","system_id":"levelo_inurba_marseille","lat":43.26206,"lon":5.37936,"is_reserved":false,"is_disabled":false,"rental_uris":{"android":"levelo://app?vid=f6f8c3a5-484e-4733-89b4-8125aa6e5bb6","ios":"levelo://app?vid=f6f8c3a5-484e-4733-89b4-8125aa6e5bb6"},"vehicle_type_id":"4","last_reported":1740406148,"current_range_meters":17200,"station_id":"ce4bhjp2rcd13ifvqg90","pricing_plan_id":"cebpf4jnsgd1na2vs0mg"},{"bike_id":"254b67b1-580a-4ebb-b883-ef27f702d657","system_id":"levelo_inurba_marseille","lat":43.28157,"lon":5.426464,"is_reserved":false,"is_disabled":false,"rental_uris":{"android":"levelo://app?vid=254b67b1-580a-4ebb-b883-ef27f702d657","ios":"levelo://app?vid=254b67b1-580a-4ebb-b883-ef27f702d657"},"vehicle_type_id":"4","last_reported":1740406148,"current_range_meters":17600,"station_id":"ce4bhnh2rcd13ifvqgug","pricing_plan_id":"cebpf4jnsgd1na2vs0mg"},{"bike_id":"6f20dd05-a602-49b3-9fbf-ad37e307aa3c","system_id":"levelo_inurba_marseille","lat":43.27653,"lon":5.38958,"is_reserved":false,"is_disabled":false,"rental_uris":{"android":"levelo://app?vid=6f20dd05-a602-49b3-9fbf-ad37e307aa3c","ios":"levelo://app?vid=6f20dd05-a602-49b3-9fbf-ad37e307aa3c"},"vehicle_type_id":"4","last_reported":1740406148,"current_range_meters":17600,"station_id":"ce4bhi12rcd13ifvqfo0","pricing_plan_id":"cebpf4jnsgd1na2vs0mg"},{"bike_id":"263c52ec-2251-4f08-89ee-de2fc0f9d7e2","system_id":"levelo_inurba_marseille","lat":43.30419,"lon":5.41281,"is_reserved":false,"is_disabled":false,"rental_uris":{"android":"levelo://app?vid=263c52ec-2251-4f08-89ee-de2fc0f9d7e2","ios":"levelo://app?vid=263c52ec-2251-4f08-89ee-de2fc0f9d7e2"},"vehicle_type_id":"4","last_reported":1740406148,"current_range_meters":17600,"station_id":"ce4bhop2rcd13ifvqh8g","pricing_plan_id":"cebpf4jnsgd1na2vs0mg"},{"bike_id":"6d671fa3-b1ce-4470-905e-4421960aae20","system_id":"levelo_inurba_marseille","lat":43.25924,"lon":5.40905,"is_reserved":false,"is_disabled":false,"rental_uris":{"android":"levelo://app?vid=6d671fa3-b1ce-4470-905e-4421960aae20","ios":"levelo://app?vid=6d671fa3-b1ce-4470-905e-4421960aae20"},"vehicle_type_id":"4","last_reported":1740406148,"current_range_meters":18000,"station_id":"ce4bhm92rcd13ifvqglg","pricing_plan_id":"cebpf4jnsgd1na2vs0mg"},{"bike_id":"2036f24d-841d-4656-8ff6-76ae435303b7","system_id":"levelo_inurba_marseille","lat":43.29629,"lon":5.37151,"is_reserved":false,"is_disabled":false,"rental_uris":{"android":"levelo://app?vid=2036f24d-841d-4656-8ff6-76ae435303b7","ios":"levelo://app?vid=2036f24d-841d-4656-8ff6-76ae435303b7"},"vehicle_type_id":"4","last_reported":1740406148,"current_range_meters":17600,"station_id":"ce4bgnh2rcd13ifvqc0g","pricing_plan_id":"cebpf4jnsgd1na2vs0mg"},{"bike_id":"d2241545-a394-449b-8224-bf4eafbeda95","system_id":"levelo_inurba_marseille","lat":43.29296,"lon":5.37651,"is_reserved":false,"is_disabled":false,"rental_uris":{"android":"levelo://app?vid=d2241545-a394-449b-8224-bf4eafbeda95","ios":"levelo://app?vid=d2241545-a394-449b-8224-bf4eafbeda95"},"vehicle_type_id":"4","last_reported":1740406148,"current_range_meters":17600,"station_id":"ce4bgi12rcd13ifvqb80","pricing_plan_id":"cebpf4jnsgd1na2vs0mg"},{"bike_id":"120752d8-bcaa-492c-90ec-a5cdda0d91b0","system_id":"levelo_inurba_marseille","lat":43.30114,"lon":5.39846,"is_reserved":false,"is_disabled":false,"rental_uris":{"android":"levelo://app?vid=120752d8-bcaa-492c-90ec-a5cdda0d91b0","ios":"levelo://app?vid=120752d8-bcaa-492c-90ec-a5cdda0d91b0"},"vehicle_type_id":"4","last_reported":1740406148,"current_range_meters":17200,"station_id":"ce4bh0h2rcd13ifvqd40","pricing_plan_id":"cebpf4jnsgd1na2vs0mg"},{"bike_id":"db61d5ff-f584-4fa1-aedd-6bbf4e5e52f9","system_id":"levelo_inurba_marseille","lat":43.30308,"lon":5.36907,"is_reserved":false,"is_disabled":false,"rental_uris":{"android":"levelo://app?vid=db61d5ff-f584-4fa1-aedd-6bbf4e5e52f9","ios":"levelo://app?vid=db61d5ff-f584-4fa1-aedd-6bbf4e5e52f9"},"vehicle_type_id":"4","last_reported":1740406148,"current_range_meters":18000,"station_id":"ce4bgqh2rcd13ifvqc5g","pricing_plan_id":"cebpf4jnsgd1na2vs0mg"},{"bike_id":"dd5d5bf7-e3f2-4105-8f7c-d35f0f384e0e","system_id":"levelo_inurba_marseille","lat":43.23176,"lon":5.40013,"is_reserved":false,"is_disabled":false,"rental_uris":{"android":"levelo://app?vid=dd5d5bf7-e3f2-4105-8f7c-d35f0f384e0e","ios":"levelo://app?vid=dd5d5bf7-e3f2-4105-8f7c-d35f0f384e0e"},"vehicle_type_id":"4","last_reported":1740406148,"current_range_meters":18000,"station_id":"ce4bhn12rcd13ifvqgqg","pricing_plan_id":"cebpf4jnsgd1na2vs0mg"},{"bike_id":"e9450d61-7e12-49ac-9e64-6fdcd904c3ba","system_id":"levelo_inurba_marseille","lat":43.30317,"lon":5.36913,"is_reserved":false,"is_disabled":false,"rental_uris":{"android":"levelo://app?vid=e9450d61-7e12-49ac-9e64-6fdcd904c3ba","ios":"levelo://app?vid=e9450d61-7e12-49ac-9e64-6fdcd904c3ba"},"vehicle_type_id":"4","last_reported":1740406148,"current_range_meters":18000,"station_id":"ce4bgqh2rcd13ifvqc5g","pricing_plan_id":"cebpf4jnsgd1na2vs0mg"},{"bike_id":"9062f7b6-9c81-49b8-a1bd-5df58202afcd","system_id":"levelo_inurba_marseille","lat":43.3171,"lon":5.4371,"is_reserved":false,"is_disabled":false,"rental_uris":{"android":"levelo://app?vid=9062f7b6-9c81-49b8-a1bd-5df58202afcd","ios":"levelo://app?vid=9062f7b6-9c81-49b8-a1bd-5df58202afcd"},"vehicle_type_id":"4","last_reported":1740406148,"current_range_meters":18000,"station_id":"ce4bhp92rcd13ifvqhcg","pricing_plan_id":"cebpf4jnsgd1na2vs0mg"},{"bike_id":"a1f423f9-dad5-4e4f-8b5c-48069a32f8bb","system_id":"levelo_inurba_marseille","lat":43.31246,"lon":5.36892,"is_reserved":false,"is_disabled":false,"rental_uris":{"android":"levelo://app?vid=a1f423f9-dad5-4e4f-8b5c-48069a32f8bb","ios":"levelo://app?vid=a1f423f9-dad5-4e4f-8b5c-48069a32f8bb"},"vehicle_type_id":"4","last_reported":1740406148,"current_range_meters":18000,"station_id":"ce4bgl92rcd13ifvqbq0","pricing_plan_id":"cebpf4jnsgd1na2vs0mg"},{"bike_id":"3ec9d146-322b-464f-895f-a5e22543f1fd","system_id":"levelo_inurba_marseille","lat":43.30316,"lon":5.40451,"is_reserved":false,"is_disabled":false,"rental_uris":{"android":"levelo://app?vid=3ec9d146-322b-464f-895f-a5e22543f1fd","ios":"levelo://app?vid=3ec9d146-322b-464f-895f-a5e22543f1fd"},"vehicle_type_id":"4","last_reported":1740406148,"current_range_meters":12800,"station_id":"ce4bh012rcd13ifvqd10","pricing_plan_id":"cebpf4jnsgd1na2vs0mg"},{"bike_id":"e1bc21e3-f669-48b9-a7e6-f99b385ad1ba","system_id":"levelo_inurba_marseille","lat":43.3019,"lon":5.36603,"is_reserved":false,"is_disabled":false,"rental_uris":{"android":"levelo://app?vid=e1bc21e3-f669-48b9-a7e6-f99b385ad1ba","ios":"levelo://app?vid=e1bc21e3-f669-48b9-a7e6-f99b385ad1ba"},"vehicle_type_id":"4","last_reported":1740406148,"current_range_meters":18000,"station_id":"ce4bgrh2rcd13ifvqc8g","pricing_plan_id":"cebpf4jnsgd1na2vs0mg"},{"bike_id":"846e1578-1f04-4c98-bc6c-9950f2a1d347","system_id":"levelo_inurba_marseille","lat":43.27068,"lon":5.42281,"is_reserved":false,"is_disabled":false,"rental_uris":{"android":"levelo://app?vid=846e1578-1f04-4c98-bc6c-9950f2a1d347","ios":"levelo://app?vid=846e1578-1f04-4c98-bc6c-9950f2a1d347"},"vehicle_type_id":"4","last_reported":1740406148,"current_range_meters":20000,"station_id":"ce4bhk92rcd13ifvqgb0","pricing_plan_id":"cebpf4jnsgd1na2vs0mg"},{"bike_id":"bf2e7b2f-0e01-4436-bd59-b0be5af18ec5","system_id":"levelo_inurba_marseille","lat":43.285796,"lon":5.395059,"is_reserved":false,"is_disabled":false,"rental_uris":{"android":"levelo://app?vid=bf2e7b2f-0e01-4436-bd59-b0be5af18ec5","ios":"levelo://app?vid=bf2e7b2f-0e01-4436-bd59-b0be5af18ec5"},"vehicle_type_id":"4","last_reported":1740406148,"current_range_meters":18000,"station_id":"ce4bh192rcd13ifvqdd0","pricing_plan_id":"cebpf4jnsgd1na2vs0mg"},{"bike_id":"48c9d238-ef44-4ccb-9d08-e828ced5223d","system_id":"levelo_inurba_marseille","lat":43.29031,"lon":5.37557,"is_reserved":false,"is_disabled":false,"rental_uris":{"android":"levelo://app?vid=48c9d238-ef44-4ccb-9d08-e828ced5223d","ios":"levelo://app?vid=48c9d238-ef44-4ccb-9d08-e828ced5223d"},"vehicle_type_id":"4","last_reported":1740406148,"current_range_meters":18000,"station_id":"ce4bh692rcd13ifvqe90","pricing_plan_id":"cebpf4jnsgd1na2vs0mg"},{"bike_id":"38fa9d4b-0a92-4f37-8f79-16dee37e2ee8","system_id":"levelo_inurba_marseille","lat":43.33599,"lon":5.4101,"is_reserved":false,"is_disabled":false,"rental_uris":{"android":"levelo://app?vid=38fa9d4b-0a92-4f37-8f79-16dee37e2ee8","ios":"levelo://app?vid=38fa9d4b-0a92-4f37-8f79-16dee37e2ee8"},"vehicle_type_id":"4","last_reported":1740406148,"current_range_meters":18800,"station_id":"ce4bhqh2rcd13ifvqhmg","pricing_plan_id":"cebpf4jnsgd1na2vs0mg"},{"bike_id":"6eabb191-b855-458a-bf1c-5a36ceb5b338","system_id":"levelo_inurba_marseille","lat":43.24387,"lon":5.37066,"is_reserved":false,"is_disabled":false,"rental_uris":{"android":"levelo://app?vid=6eabb191-b855-458a-bf1c-5a36ceb5b338","ios":"levelo://app?vid=6eabb191-b855-458a-bf1c-5a36ceb5b338"},"vehicle_type_id":"4","last_reported":1740406148,"current_range_meters":18800,"station_id":"ce4bhhh2rcd13ifvqfk0","pricing_plan_id":"cebpf4jnsgd1na2vs0mg"},{"bike_id":"8e150a5e-01e8-4a68-ae8c-cd2dbdd95ca4","system_id":"levelo_inurba_marseille","lat":43.23152,"lon":5.43735,"is_reserved":false,"is_disabled":false,"rental_uris":{"android":"levelo://app?vid=8e150a5e-01e8-4a68-ae8c-cd2dbdd95ca4","ios":"levelo://app?vid=8e150a5e-01e8-4a68-ae8c-cd2dbdd95ca4"},"vehicle_type_id":"4","last_reported":1740406148,"current_range_meters":18800,"station_id":"ce4bhmp2rcd13ifvqgog","pricing_plan_id":"cebpf4jnsgd1na2vs0mg"},{"bike_id":"f0baf3cd-f5f4-4aa9-9be8-6a00869df268","system_id":"levelo_inurba_marseille","lat":43.23151,"lon":5.43724,"is_reserved":false,"is_disabled":false,"rental_uris":{"android":"levelo://app?vid=f0baf3cd-f5f4-4aa9-9be8-6a00869df268","ios":"levelo://app?vid=f0baf3cd-f5f4-4aa9-9be8-6a00869df268"},"vehicle_type_id":"4","last_reported":1740406148,"current_range_meters":18800,"station_id":"ce4bhmp2rcd13ifvqgog","pricing_plan_id":"cebpf4jnsgd1na2vs0mg"},{"bike_id":"c4365b6d-8c9c-4ef9-8b9c-18bc18f4f126","system_id":"levelo_inurba_marseille","lat":43.302185,"lon":5.394671,"is_reserved":false,"is_disabled":false,"rental_uris":{"android":"levelo://app?vid=c4365b6d-8c9c-4ef9-8b9c-18bc18f4f126","ios":"levelo://app?vid=c4365b6d-8c9c-4ef9-8b9c-18bc18f4f126"},"vehicle_type_id":"4","last_reported":1740406148,"current_range_meters":18000,"station_id":"ce4bh012rcd13ifvqcv0","pricing_plan_id":"cebpf4jnsgd1na2vs0mg"},{"bike_id":"6020a2a9-1128-4dce-a02f-1ce369e89d9a","system_id":"levelo_inurba_marseille","lat":43.28447,"lon":5.35904,"is_reserved":false,"is_disabled":false,"rental_uris":{"android":"levelo://app?vid=6020a2a9-1128-4dce-a02f-1ce369e89d9a","ios":"levelo://app?vid=6020a2a9-1128-4dce-a02f-1ce369e89d9a"},"vehicle_type_id":"4","last_reported":1740406148,"current_range_meters":18800,"station_id":"ce4bhah2rcd13ifvqei0","pricing_plan_id":"cebpf4jnsgd1na2vs0mg"},{"bike_id":"e846bee0-353c-4486-bf7b-9b27ab021862","system_id":"levelo_inurba_marseille","lat":43.27813,"lon":5.4071,"is_reserved":false,"is_disabled":false,"rental_uris":{"android":"levelo://app?vid=e846bee0-353c-4486-bf7b-9b27ab021862","ios":"levelo://app?vid=e846bee0-353c-4486-bf7b-9b27ab021862"},"vehicle_type_id":"4","last_reported":1740406148,"current_range_meters":18800,"station_id":"ce4bhnh2rcd13ifvqgtg","pricing_plan_id":"cebpf4jnsgd1na2vs0mg"},{"bike_id":"a9bd64db-ceaf-418c-ae3a-b423f32e3bfe","system_id":"levelo_inurba_marseille","lat":43.26957,"lon":5.38625,"is_reserved":false,"is_disabled":false,"rental_uris":{"android":"levelo://app?vid=a9bd64db-ceaf-418c-ae3a-b423f32e3bfe","ios":"levelo://app?vid=a9bd64db-ceaf-418c-ae3a-b423f32e3bfe"},"vehicle_type_id":"4","last_reported":1740406148,"current_range_meters":19200,"station_id":"ce4bhh92rcd13ifvqfh0","pricing_plan_id":"cebpf4jnsgd1na2vs0mg"},{"bike_id":"abbdc6de-b083-4f4b-814e-b34c4a31179f","system_id":"levelo_inurba_marseille","lat":43.26788,"lon":5.39423,"is_reserved":false,"is_disabled":false,"rental_uris":{"android":"levelo://app?vid=abbdc6de-b083-4f4b-814e-b34c4a31179f","ios":"levelo://app?vid=abbdc6de-b083-4f4b-814e-b34c4a31179f"},"vehicle_type_id":"4","last_reported":1740406148,"current_range_meters":18800,"station_id":"ce4bhh12rcd13ifvqfg0","pricing_plan_id":"cebpf4jnsgd1na2vs0mg"},{"bike_id":"7c45866a-bd99-4c12-9747-66203f12a96e","system_id":"levelo_inurba_marseille","lat":43.23129,"lon":5.35495,"is_reserved":false,"is_disabled":false,"rental_uris":{"android":"levelo://app?vid=7c45866a-bd99-4c12-9747-66203f12a96e","ios":"levelo://app?vid=7c45866a-bd99-4c12-9747-66203f12a96e"},"vehicle_type_id":"4","last_reported":1740406148,"current_range_meters":19200,"station_id":"","pricing_plan_id":"cebpf4jnsgd1na2vs0mg"},{"bike_id":"cb9be10d-df8d-4083-8713-dee630fbf9e9","system_id":"levelo_inurba_marseille","lat":43.24101,"lon":5.37738,"is_reserved":false,"is_disabled":false,"rental_uris":{"android":"levelo://app?vid=cb9be10d-df8d-4083-8713-dee630fbf9e9","ios":"levelo://app?vid=cb9be10d-df8d-4083-8713-dee630fbf9e9"},"vehicle_type_id":"4","last_reported":1740406148,"current_range_meters":19200,"station_id":"ce4bhnp2rcd13ifvqgvg","pricing_plan_id":"cebpf4jnsgd1na2vs0mg"},{"bike_id":"9c8787fc-0f50-420b-aafe-3faf832e130b","system_id":"levelo_inurba_marseille","lat":43.27499,"lon":5.42454,"is_reserved":false,"is_disabled":false,"rental_uris":{"android":"levelo://app?vid=9c8787fc-0f50-420b-aafe-3faf832e130b","ios":"levelo://app?vid=9c8787fc-0f50-420b-aafe-3faf832e130b"},"vehicle_type_id":"4","last_reported":1740406148,"current_range_meters":19600,"station_id":"ce4bhn92rcd13ifvqgrg","pricing_plan_id":"cebpf4jnsgd1na2vs0mg"},{"bike_id":"05b9f403-f224-47e0-887c-862d2dce55e3","system_id":"levelo_inurba_marseille","lat":43.32468,"lon":5.36586,"is_reserved":false,"is_disabled":false,"rental_uris":{"android":"levelo://app?vid=05b9f403-f224-47e0-887c-862d2dce55e3","ios":"levelo://app?vid=05b9f403-f224-47e0-887c-862d2dce55e3"},"vehicle_type_id":"4","last_reported":1740406148,"current_range_meters":19600,"station_id":"ce4bhs12rcd13ifvqhvg","pricing_plan_id":"cebpf4jnsgd1na2vs0mg"},{"bike_id":"3b39d8ac-c140-48e7-aaa7-82bed1353112","system_id":"levelo_inurba_marseille","lat":43.25011,"lon":5.38925,"is_reserved":false,"is_disabled":false,"rental_uris":{"android":"levelo://app?vid=3b39d8ac-c140-48e7-aaa7-82bed1353112","ios":"levelo://app?vid=3b39d8ac-c140-48e7-aaa7-82bed1353112"},"vehicle_type_id":"4","last_reported":1740406148,"current_range_meters":19600,"station_id":"ce4bhgp2rcd13ifvqfd0","pricing_plan_id":"cebpf4jnsgd1na2vs0mg"},{"bike_id":"43027549-2013-4416-9be7-a75c294028f6","system_id":"levelo_inurba_marseille","lat":43.23125,"lon":5.43742,"is_reserved":false,"is_disabled":false,"rental_uris":{"android":"levelo://app?vid=43027549-2013-4416-9be7-a75c294028f6","ios":"levelo://app?vid=43027549-2013-4416-9be7-a75c294028f6"},"vehicle_type_id":"4","last_reported":1740406148,"current_range_meters":19600,"station_id":"ce4bhmp2rcd13ifvqgog","pricing_plan_id":"cebpf4jnsgd1na2vs0mg"},{"bike_id":"f89f27f9-d18f-4888-b147-5f0109eeb79d","system_id":"levelo_inurba_marseille","lat":43.24073,"lon":5.37765,"is_reserved":false,"is_disabled":false,"rental_uris":{"android":"levelo://app?vid=f89f27f9-d18f-4888-b147-5f0109eeb79d","ios":"levelo://app?vid=f89f27f9-d18f-4888-b147-5f0109eeb79d"},"vehicle_type_id":"4","last_reported":1740406148,"current_range_meters":19600,"station_id":"ce4bhnp2rcd13ifvqgvg","pricing_plan_id":"cebpf4jnsgd1na2vs0mg"},{"bike_id":"d39fa3c7-b4d2-4b54-a1ff-d67057b264a1","system_id":"levelo_inurba_marseille","lat":43.26802,"lon":5.39476,"is_reserved":false,"is_disabled":false,"rental_uris":{"android":"levelo://app?vid=d39fa3c7-b4d2-4b54-a1ff-d67057b264a1","ios":"levelo://app?vid=d39fa3c7-b4d2-4b54-a1ff-d67057b264a1"},"vehicle_type_id":"4","last_reported":1740406148,"current_range_meters":20000,"station_id":"","pricing_plan_id":"cebpf4jnsgd1na2vs0mg"},{"bike_id":"f9da9abe-e6c6-4031-992d-baa0b568b64a","system_id":"levelo_inurba_marseille","lat":43.24179,"lon":5.39732,"is_reserved":false,"is_disabled":false,"rental_uris":{"android":"levelo://app?vid=f9da9abe-e6c6-4031-992d-baa0b568b64a","ios":"levelo://app?vid=f9da9abe-e6c6-4031-992d-baa0b568b64a"},"vehicle_type_id":"4","last_reported":1740406148,"current_range_meters":20000,"station_id":"ce4bhn12rcd13ifvqgpg","pricing_plan_id":"cebpf4jnsgd1na2vs0mg"},{"bike_id":"05388da8-9671-4cce-a9c6-be5a5bec9026","system_id":"levelo_inurba_marseille","lat":43.32363,"lon":5.36763,"is_reserved":false,"is_disabled":false,"rental_uris":{"android":"levelo://app?vid=05388da8-9671-4cce-a9c6-be5a5bec9026","ios":"levelo://app?vid=05388da8-9671-4cce-a9c6-be5a5bec9026"},"vehicle_type_id":"4","last_reported":1740406148,"current_range_meters":20400,"station_id":"ce4bhsh2rcd13ifvqi2g","pricing_plan_id":"cebpf4jnsgd1na2vs0mg"},{"bike_id":"7ffb6d41-e0b3-455c-9e71-56128f670693","system_id":"levelo_inurba_marseille","lat":43.29194,"lon":5.39322,"is_reserved":false,"is_disabled":false,"rental_uris":{"android":"levelo://app?vid=7ffb6d41-e0b3-455c-9e71-56128f670693","ios":"levelo://app?vid=7ffb6d41-e0b3-455c-9e71-56128f670693"},"vehicle_type_id":"4","last_reported":1740406148,"current_range_meters":20000,"station_id":"ce4bh192rcd13ifvqdd0","pricing_plan_id":"cebpf4jnsgd1na2vs0mg"},{"bike_id":"39c4d6f8-f10a-45ca-b694-73724e1e0daf","system_id":"levelo_inurba_marseille","lat":43.26594,"lon":5.39041,"is_reserved":false,"is_disabled":false,"rental_uris":{"android":"levelo://app?vid=39c4d6f8-f10a-45ca-b694-73724e1e0daf","ios":"levelo://app?vid=39c4d6f8-f10a-45ca-b694-73724e1e0daf"},"vehicle_type_id":"4","last_reported":1740406148,"current_range_meters":20000,"station_id":"ce4bhe12rcd13ifvqf30","pricing_plan_id":"cebpf4jnsgd1na2vs0mg"},{"bike_id":"a192f163-f084-4831-ba13-8c67ab3fde9d","system_id":"levelo_inurba_marseille","lat":43.28931,"lon":5.38397,"is_reserved":false,"is_disabled":false,"rental_uris":{"android":"levelo://app?vid=a192f163-f084-4831-ba13-8c67ab3fde9d","ios":"levelo://app?vid=a192f163-f084-4831-ba13-8c67ab3fde9d"},"vehicle_type_id":"4","last_reported":1740406148,"current_range_meters":19600,"station_id":"ce4bh612rcd13ifvqe6g","pricing_plan_id":"cebpf4jnsgd1na2vs0mg"},{"bike_id":"f9263461-3709-4f2b-be15-741c52b41394","system_id":"levelo_inurba_marseille","lat":43.27484,"lon":5.42463,"is_reserved":false,"is_disabled":false,"rental_uris":{"android":"levelo://app?vid=f9263461-3709-4f2b-be15-741c52b41394","ios":"levelo://app?vid=f9263461-3709-4f2b-be15-741c52b41394"},"vehicle_type_id":"4","last_reported":1740406148,"current_range_meters":20000,"station_id":"ce4bhn92rcd13ifvqgrg","pricing_plan_id":"cebpf4jnsgd1na2vs0mg"},{"bike_id":"0ab6615e-a910-4815-a705-f66a1611c63f","system_id":"levelo_inurba_marseille","lat":43.27489,"lon":5.42458,"is_reserved":false,"is_disabled":false,"rental_uris":{"android":"levelo://app?vid=0ab6615e-a910-4815-a705-f66a1611c63f","ios":"levelo://app?vid=0ab6615e-a910-4815-a705-f66a1611c63f"},"vehicle_type_id":"4","last_reported":1740406148,"current_range_meters":20000,"station_id":"ce4bhn92rcd13ifvqgrg","pricing_plan_id":"cebpf4jnsgd1na2vs0mg"},{"bike_id":"8fccf334-1747-4377-a99e-b83af6f87386","system_id":"levelo_inurba_marseille","lat":43.29259,"lon":5.40911,"is_reserved":false,"is_disabled":false,"rental_uris":{"android":"levelo://app?vid=8fccf334-1747-4377-a99e-b83af6f87386","ios":"levelo://app?vid=8fccf334-1747-4377-a99e-b83af6f87386"},"vehicle_type_id":"4","last_reported":1740406148,"current_range_meters":19600,"station_id":"ce4bh192rcd13ifvqdc0","pricing_plan_id":"cebpf4jnsgd1na2vs0mg"},{"bike_id":"19eb3738-1d23-4126-bd32-48c1a132784d","system_id":"levelo_inurba_marseille","lat":43.24059,"lon":5.37768,"is_reserved":false,"is_disabled":false,"rental_uris":{"android":"levelo://app?vid=19eb3738-1d23-4126-bd32-48c1a132784d","ios":"levelo://app?vid=19eb3738-1d23-4126-bd32-48c1a132784d"},"vehicle_type_id":"4","last_reported":1740406148,"current_range_meters":20000,"station_id":"ce4bhnp2rcd13ifvqgvg","pricing_plan_id":"cebpf4jnsgd1na2vs0mg"},{"bike_id":"94e9b21b-0257-4827-9857-65bd9f97615d","system_id":"levelo_inurba_marseille","lat":43.25875,"lon":5.39901,"is_reserved":false,"is_disabled":false,"rental_uris":{"android":"levelo://app?vid=94e9b21b-0257-4827-9857-65bd9f97615d","ios":"levelo://app?vid=94e9b21b-0257-4827-9857-65bd9f97615d"},"vehicle_type_id":"4","last_reported":1740406148,"current_range_meters":19600,"station_id":"ce4bhl92rcd13ifvqghg","pricing_plan_id":"cebpf4jnsgd1na2vs0mg"},{"bike_id":"dd3fda8a-2e8a-426a-94a4-053389588f20","system_id":"levelo_inurba_marseille","lat":43.29792,"lon":5.38097,"is_reserved":false,"is_disabled":false,"rental_uris":{"android":"levelo://app?vid=dd3fda8a-2e8a-426a-94a4-053389588f20","ios":"levelo://app?vid=dd3fda8a-2e8a-426a-94a4-053389588f20"},"vehicle_type_id":"4","last_reported":1740406148,"current_range_meters":20400,"station_id":"ce4bgip2rcd13ifvqbb0","pricing_plan_id":"cebpf4jnsgd1na2vs0mg"},{"bike_id":"2c5b41d8-2247-4fb1-8662-067a63dc29af","system_id":"levelo_inurba_marseille","lat":43.29933,"lon":5.36526,"is_reserved":false,"is_disabled":false,"rental_uris":{"android":"levelo://app?vid=2c5b41d8-2247-4fb1-8662-067a63dc29af","ios":"levelo://app?vid=2c5b41d8-2247-4fb1-8662-067a63dc29af"},"vehicle_type_id":"4","last_reported":1740406148,"current_range_meters":20800,"station_id":"ce4bgm92rcd13ifvqbr0","pricing_plan_id":"cebpf4jnsgd1na2vs0mg"},{"bike_id":"97f04c5a-7acb-49a0-90f5-8cb7871b7af0","system_id":"levelo_inurba_marseille","lat":43.25942,"lon":5.40904,"is_reserved":false,"is_disabled":false,"rental_uris":{"android":"levelo://app?vid=97f04c5a-7acb-49a0-90f5-8cb7871b7af0","ios":"levelo://app?vid=97f04c5a-7acb-49a0-90f5-8cb7871b7af0"},"vehicle_type_id":"4","last_reported":1740406148,"current_range_meters":20400,"station_id":"ce4bhm92rcd13ifvqglg","pricing_plan_id":"cebpf4jnsgd1na2vs0mg"},{"bike_id":"1587c1e6-4f0b-4ebd-a4fe-499c7b17ae6c","system_id":"levelo_inurba_marseille","lat":43.28673,"lon":5.38664,"is_reserved":false,"is_disabled":false,"rental_uris":{"android":"levelo://app?vid=1587c1e6-4f0b-4ebd-a4fe-499c7b17ae6c","ios":"levelo://app?vid=1587c1e6-4f0b-4ebd-a4fe-499c7b17ae6c"},"vehicle_type_id":"4","last_reported":1740406148,"current_range_meters":20400,"station_id":"ce4bh492rcd13ifvqdug","pricing_plan_id":"cebpf4jnsgd1na2vs0mg"},{"bike_id":"99a6215f-6506-4f6e-9c5e-ddad7f4be2a5","system_id":"levelo_inurba_marseille","lat":43.29902,"lon":5.4366,"is_reserved":false,"is_disabled":false,"rental_uris":{"android":"levelo://app?vid=99a6215f-6506-4f6e-9c5e-ddad7f4be2a5","ios":"levelo://app?vid=99a6215f-6506-4f6e-9c5e-ddad7f4be2a5"},"vehicle_type_id":"4","last_reported":1740406148,"current_range_meters":20400,"station_id":"ce4bhpp2rcd13ifvqhfg","pricing_plan_id":"cebpf4jnsgd1na2vs0mg"},{"bike_id":"9aa269af-2751-4dae-8191-90f8bf362ff7","system_id":"levelo_inurba_marseille","lat":43.27497,"lon":5.42454,"is_reserved":false,"is_disabled":false,"rental_uris":{"android":"levelo://app?vid=9aa269af-2751-4dae-8191-90f8bf362ff7","ios":"levelo://app?vid=9aa269af-2751-4dae-8191-90f8bf362ff7"},"vehicle_type_id":"4","last_reported":1740406148,"current_range_meters":20400,"station_id":"ce4bhn92rcd13ifvqgrg","pricing_plan_id":"cebpf4jnsgd1na2vs0mg"},{"bike_id":"b725d3c9-2151-4cbe-bc15-ce4956c910ed","system_id":"levelo_inurba_marseille","lat":43.29533,"lon":5.37503,"is_reserved":false,"is_disabled":false,"rental_uris":{"android":"levelo://app?vid=b725d3c9-2151-4cbe-bc15-ce4956c910ed","ios":"levelo://app?vid=b725d3c9-2151-4cbe-bc15-ce4956c910ed"},"vehicle_type_id":"4","last_reported":1740406148,"current_range_meters":20800,"station_id":"ce4bgkp2rcd13ifvqbmg","pricing_plan_id":"cebpf4jnsgd1na2vs0mg"},{"bike_id":"e00d4716-81ba-4b42-a393-48e7217fbbdf","system_id":"levelo_inurba_marseille","lat":43.23216,"lon":5.40026,"is_reserved":false,"is_disabled":false,"rental_uris":{"android":"levelo://app?vid=e00d4716-81ba-4b42-a393-48e7217fbbdf","ios":"levelo://app?vid=e00d4716-81ba-4b42-a393-48e7217fbbdf"},"vehicle_type_id":"4","last_reported":1740406148,"current_range_meters":20800,"station_id":"ce4bhn12rcd13ifvqgqg","pricing_plan_id":"cebpf4jnsgd1na2vs0mg"},{"bike_id":"1c4f7bb5-f20f-4c96-944b-5c2d9766257f","system_id":"levelo_inurba_marseille","lat":43.30133,"lon":5.39873,"is_reserved":false,"is_disabled":false,"rental_uris":{"android":"levelo://app?vid=1c4f7bb5-f20f-4c96-944b-5c2d9766257f","ios":"levelo://app?vid=1c4f7bb5-f20f-4c96-944b-5c2d9766257f"},"vehicle_type_id":"4","last_reported":1740406148,"current_range_meters":20800,"station_id":"","pricing_plan_id":"cebpf4jnsgd1na2vs0mg"},{"bike_id":"7353184b-9332-474c-9963-7212010f3380","system_id":"levelo_inurba_marseille","lat":43.2846,"lon":5.35896,"is_reserved":false,"is_disabled":false,"rental_uris":{"android":"levelo://app?vid=7353184b-9332-474c-9963-7212010f3380","ios":"levelo://app?vid=7353184b-9332-474c-9963-7212010f3380"},"vehicle_type_id":"4","last_reported":1740406148,"current_range_meters":20800,"station_id":"ce4bhah2rcd13ifvqei0","pricing_plan_id":"cebpf4jnsgd1na2vs0mg"},{"bike_id":"e93d3d42-6fe5-4b06-aa1c-c9eef8ad87e5","system_id":"levelo_inurba_marseille","lat":43.30545,"lon":5.36509,"is_reserved":false,"is_disabled":false,"rental_uris":{"android":"levelo://app?vid=e93d3d42-6fe5-4b06-aa1c-c9eef8ad87e5","ios":"levelo://app?vid=e93d3d42-6fe5-4b06-aa1c-c9eef8ad87e5"},"vehicle_type_id":"4","last_reported":1740406148,"current_range_meters":22000,"station_id":"ce4bgs12rcd13ifvqcag","pricing_plan_id":"cebpf4jnsgd1na2vs0mg"},{"bike_id":"46814d2f-dec0-460c-883a-bfd2811fc0e2","system_id":"levelo_inurba_marseille","lat":43.295837,"lon":5.367364,"is_reserved":false,"is_disabled":false,"rental_uris":{"android":"levelo://app?vid=46814d2f-dec0-460c-883a-bfd2811fc0e2","ios":"levelo://app?vid=46814d2f-dec0-460c-883a-bfd2811fc0e2"},"vehicle_type_id":"4","last_reported":1740406148,"current_range_meters":21600,"station_id":"ce4bgph2rcd13ifvqc2g","pricing_plan_id":"cebpf4jnsgd1na2vs0mg"},{"bike_id":"a5877d4b-d97f-41c6-b18f-c6036ebd6644","system_id":"levelo_inurba_marseille","lat":43.32466,"lon":5.3657,"is_reserved":false,"is_disabled":false,"rental_uris":{"android":"levelo://app?vid=a5877d4b-d97f-41c6-b18f-c6036ebd6644","ios":"levelo://app?vid=a5877d4b-d97f-41c6-b18f-c6036ebd6644"},"vehicle_type_id":"4","last_reported":1740406148,"current_range_meters":21600,"station_id":"ce4bhs12rcd13ifvqhvg","pricing_plan_id":"cebpf4jnsgd1na2vs0mg"},{"bike_id":"3b8f6814-f3f4-400d-87a5-47a615cab967","system_id":"levelo_inurba_marseille","lat":43.24547,"lon":5.39524,"is_reserved":false,"is_disabled":false,"rental_uris":{"android":"levelo://app?vid=3b8f6814-f3f4-400d-87a5-47a615cab967","ios":"levelo://app?vid=3b8f6814-f3f4-400d-87a5-47a615cab967"},"vehicle_type_id":"4","last_reported":1740406148,"current_range_meters":21600,"station_id":"ce4bhlp2rcd13ifvqgjg","pricing_plan_id":"cebpf4jnsgd1na2vs0mg"},{"bike_id":"c61fdb28-8f5a-42bf-8c6d-2bda33a2e55e","system_id":"levelo_inurba_marseille","lat":43.26196,"lon":5.37925,"is_reserved":false,"is_disabled":false,"rental_uris":{"android":"levelo://app?vid=c61fdb28-8f5a-42bf-8c6d-2bda33a2e55e","ios":"levelo://app?vid=c61fdb28-8f5a-42bf-8c6d-2bda33a2e55e"},"vehicle_type_id":"4","last_reported":1740406148,"current_range_meters":21600,"station_id":"ce4bhjp2rcd13ifvqg90","pricing_plan_id":"cebpf4jnsgd1na2vs0mg"},{"bike_id":"c3eaf577-384f-49be-90a6-7d88e2904d90","system_id":"levelo_inurba_marseille","lat":43.3361,"lon":5.40998,"is_reserved":false,"is_disabled":true,"rental_uris":{"android":"levelo://app?vid=c3eaf577-384f-49be-90a6-7d88e2904d90","ios":"levelo://app?vid=c3eaf577-384f-49be-90a6-7d88e2904d90"},"vehicle_type_id":"4","last_reported":1740406148,"current_range_meters":21600,"station_id":"ce4bhqh2rcd13ifvqhmg","pricing_plan_id":"cebpf4jnsgd1na2vs0mg"},{"bike_id":"b0956cd4-a0d3-4419-85b7-205c3d19c002","system_id":"levelo_inurba_marseille","lat":43.31341,"lon":5.39696,"is_reserved":false,"is_disabled":false,"rental_uris":{"android":"levelo://app?vid=b0956cd4-a0d3-4419-85b7-205c3d19c002","ios":"levelo://app?vid=b0956cd4-a0d3-4419-85b7-205c3d19c002"},"vehicle_type_id":"4","last_reported":1740406148,"current_range_meters":21600,"station_id":"ce4bgvp2rcd13ifvqcu0","pricing_plan_id":"cebpf4jnsgd1na2vs0mg"},{"bike_id":"4c7f9784-a0df-416c-8083-daf481a7f498","system_id":"levelo_inurba_marseille","lat":43.2999,"lon":5.36604,"is_reserved":false,"is_disabled":false,"rental_uris":{"android":"levelo://app?vid=4c7f9784-a0df-416c-8083-daf481a7f498","ios":"levelo://app?vid=4c7f9784-a0df-416c-8083-daf481a7f498"},"vehicle_type_id":"4","last_reported":1740406148,"current_range_meters":21600,"station_id":"ce4bgm92rcd13ifvqbr0","pricing_plan_id":"cebpf4jnsgd1na2vs0mg"},{"bike_id":"3ae2f647-6be0-4bcb-9db8-3008ebf46ae3","system_id":"levelo_inurba_marseille","lat":43.31208,"lon":5.387,"is_reserved":false,"is_disabled":false,"rental_uris":{"android":"levelo://app?vid=3ae2f647-6be0-4bcb-9db8-3008ebf46ae3","ios":"levelo://app?vid=3ae2f647-6be0-4bcb-9db8-3008ebf46ae3"},"vehicle_type_id":"4","last_reported":1740406148,"current_range_meters":22000,"station_id":"ce4bgv12rcd13ifvqcp0","pricing_plan_id":"cebpf4jnsgd1na2vs0mg"},{"bike_id":"6352883d-22df-4527-8747-f204e9db2f6f","system_id":"levelo_inurba_marseille","lat":43.27543,"lon":5.36017,"is_reserved":false,"is_disabled":false,"rental_uris":{"android":"levelo://app?vid=6352883d-22df-4527-8747-f204e9db2f6f","ios":"levelo://app?vid=6352883d-22df-4527-8747-f204e9db2f6f"},"vehicle_type_id":"4","last_reported":1740406148,"current_range_meters":22400,"station_id":"ce4bgj92rcd13ifvqbe0","pricing_plan_id":"cebpf4jnsgd1na2vs0mg"},{"bike_id":"2faae750-dda8-417d-97af-6e8757dc7501","system_id":"levelo_inurba_marseille","lat":43.2418,"lon":5.39727,"is_reserved":false,"is_disabled":false,"rental_uris":{"android":"levelo://app?vid=2faae750-dda8-417d-97af-6e8757dc7501","ios":"levelo://app?vid=2faae750-dda8-417d-97af-6e8757dc7501"},"vehicle_type_id":"4","last_reported":1740406148,"current_range_meters":22400,"station_id":"ce4bhn12rcd13ifvqgpg","pricing_plan_id":"cebpf4jnsgd1na2vs0mg"},{"bike_id":"d7b9e101-0dc4-419a-918c-9d39728c7b8b","system_id":"levelo_inurba_marseille","lat":43.28095,"lon":5.42689,"is_reserved":false,"is_disabled":false,"rental_uris":{"android":"levelo://app?vid=d7b9e101-0dc4-419a-918c-9d39728c7b8b","ios":"levelo://app?vid=d7b9e101-0dc4-419a-918c-9d39728c7b8b"},"vehicle_type_id":"4","last_reported":1740406148,"current_range_meters":22800,"station_id":"ce4bhnh2rcd13ifvqgug","pricing_plan_id":"cebpf4jnsgd1na2vs0mg"},{"bike_id":"c1778e32-eaa8-4671-a805-fd3ab9c8561a","system_id":"levelo_inurba_marseille","lat":43.32359,"lon":5.36757,"is_reserved":false,"is_disabled":false,"rental_uris":{"android":"levelo://app?vid=c1778e32-eaa8-4671-a805-fd3ab9c8561a","ios":"levelo://app?vid=c1778e32-eaa8-4671-a805-fd3ab9c8561a"},"vehicle_type_id":"4","last_reported":1740406148,"current_range_meters":22800,"station_id":"ce4bhsh2rcd13ifvqi2g","pricing_plan_id":"cebpf4jnsgd1na2vs0mg"},{"bike_id":"ace071e9-a9ae-4b51-bd6f-ea076f2167fc","system_id":"levelo_inurba_marseille","lat":43.2293,"lon":5.35379,"is_reserved":false,"is_disabled":false,"rental_uris":{"android":"levelo://app?vid=ace071e9-a9ae-4b51-bd6f-ea076f2167fc","ios":"levelo://app?vid=ace071e9-a9ae-4b51-bd6f-ea076f2167fc"},"vehicle_type_id":"4","last_reported":1740406148,"current_range_meters":22400,"station_id":"cpo3532slgdg3j2ikp40","pricing_plan_id":"cebpf4jnsgd1na2vs0mg"},{"bike_id":"9bcb6e74-9384-4520-a191-6ca3da24e600","system_id":"levelo_inurba_marseille","lat":43.24168,"lon":5.36391,"is_reserved":false,"is_disabled":false,"rental_uris":{"android":"levelo://app?vid=9bcb6e74-9384-4520-a191-6ca3da24e600","ios":"levelo://app?vid=9bcb6e74-9384-4520-a191-6ca3da24e600"},"vehicle_type_id":"4","last_reported":1740406148,"current_range_meters":22800,"station_id":"cpo36qri1sfpv3e86is0","pricing_plan_id":"cebpf4jnsgd1na2vs0mg"},{"bike_id":"08b558ae-f5c2-4f30-808a-f8a57fad3fc7","system_id":"levelo_inurba_marseille","lat":43.25087,"lon":5.395,"is_reserved":false,"is_disabled":false,"rental_uris":{"android":"levelo://app?vid=08b558ae-f5c2-4f30-808a-f8a57fad3fc7","ios":"levelo://app?vid=08b558ae-f5c2-4f30-808a-f8a57fad3fc7"},"vehicle_type_id":"4","last_reported":1740406148,"current_range_meters":22800,"station_id":"ce4bhm12rcd13ifvqgkg","pricing_plan_id":"cebpf4jnsgd1na2vs0mg"},{"bike_id":"d9193939-1515-4246-99ac-a771a18b2d5d","system_id":"levelo_inurba_marseille","lat":43.2745,"lon":5.39382,"is_reserved":false,"is_disabled":false,"rental_uris":{"android":"levelo://app?vid=d9193939-1515-4246-99ac-a771a18b2d5d","ios":"levelo://app?vid=d9193939-1515-4246-99ac-a771a18b2d5d"},"vehicle_type_id":"4","last_reported":1740406148,"current_range_meters":22800,"station_id":"ce4bhdp2rcd13ifvqf20","pricing_plan_id":"cebpf4jnsgd1na2vs0mg"},{"bike_id":"cdc44c5c-f305-4eb5-adc1-529efef4da42","system_id":"levelo_inurba_marseille","lat":43.259,"lon":5.40905,"is_reserved":false,"is_disabled":false,"rental_uris":{"android":"levelo://app?vid=cdc44c5c-f305-4eb5-adc1-529efef4da42","ios":"levelo://app?vid=cdc44c5c-f305-4eb5-adc1-529efef4da42"},"vehicle_type_id":"4","last_reported":1740406148,"current_range_meters":22800,"station_id":"ce4bhm92rcd13ifvqglg","pricing_plan_id":"cebpf4jnsgd1na2vs0mg"},{"bike_id":"8593fc0d-57d6-4ffa-92d4-85b9f00ea638","system_id":"levelo_inurba_marseille","lat":43.29192,"lon":5.39328,"is_reserved":false,"is_disabled":false,"rental_uris":{"android":"levelo://app?vid=8593fc0d-57d6-4ffa-92d4-85b9f00ea638","ios":"levelo://app?vid=8593fc0d-57d6-4ffa-92d4-85b9f00ea638"},"vehicle_type_id":"4","last_reported":1740406148,"current_range_meters":20400,"station_id":"ce4bh192rcd13ifvqdd0","pricing_plan_id":"cebpf4jnsgd1na2vs0mg"},{"bike_id":"bac0a805-ce16-4521-ba9e-0b4ce002aa86","system_id":"levelo_inurba_marseille","lat":43.30985,"lon":5.37779,"is_reserved":false,"is_disabled":true,"rental_uris":{"android":"levelo://app?vid=bac0a805-ce16-4521-ba9e-0b4ce002aa86","ios":"levelo://app?vid=bac0a805-ce16-4521-ba9e-0b4ce002aa86"},"vehicle_type_id":"4","last_reported":1740406148,"current_range_meters":22800,"station_id":"ce4bgt92rcd13ifvqcg0","pricing_plan_id":"cebpf4jnsgd1na2vs0mg"},{"bike_id":"f28d4bbd-cd53-4203-91ac-78724cd26adf","system_id":"levelo_inurba_marseille","lat":43.25938,"lon":5.40911,"is_reserved":false,"is_disabled":false,"rental_uris":{"android":"levelo://app?vid=f28d4bbd-cd53-4203-91ac-78724cd26adf","ios":"levelo://app?vid=f28d4bbd-cd53-4203-91ac-78724cd26adf"},"vehicle_type_id":"4","last_reported":1740406148,"current_range_meters":22800,"station_id":"ce4bhm92rcd13ifvqglg","pricing_plan_id":"cebpf4jnsgd1na2vs0mg"},{"bike_id":"aa6eb337-cce2-4186-a2d2-8fa816c72e22","system_id":"levelo_inurba_marseille","lat":43.29037,"lon":5.37552,"is_reserved":false,"is_disabled":false,"rental_uris":{"android":"levelo://app?vid=aa6eb337-cce2-4186-a2d2-8fa816c72e22","ios":"levelo://app?vid=aa6eb337-cce2-4186-a2d2-8fa816c72e22"},"vehicle_type_id":"4","last_reported":1740406148,"current_range_meters":23200,"station_id":"ce4bh692rcd13ifvqe90","pricing_plan_id":"cebpf4jnsgd1na2vs0mg"},{"bike_id":"f927bf33-ad17-45a9-9a35-27dcaa22146f","system_id":"levelo_inurba_marseille","lat":43.24083,"lon":5.37753,"is_reserved":false,"is_disabled":false,"rental_uris":{"android":"levelo://app?vid=f927bf33-ad17-45a9-9a35-27dcaa22146f","ios":"levelo://app?vid=f927bf33-ad17-45a9-9a35-27dcaa22146f"},"vehicle_type_id":"4","last_reported":1740406148,"current_range_meters":23200,"station_id":"ce4bhnp2rcd13ifvqgvg","pricing_plan_id":"cebpf4jnsgd1na2vs0mg"},{"bike_id":"451ee27c-3053-4dad-97f9-30aa721d9def","system_id":"levelo_inurba_marseille","lat":43.27995,"lon":5.40015,"is_reserved":false,"is_disabled":false,"rental_uris":{"android":"levelo://app?vid=451ee27c-3053-4dad-97f9-30aa721d9def","ios":"levelo://app?vid=451ee27c-3053-4dad-97f9-30aa721d9def"},"vehicle_type_id":"4","last_reported":1740406148,"current_range_meters":23200,"station_id":"ce4bho92rcd13ifvqh4g","pricing_plan_id":"cebpf4jnsgd1na2vs0mg"},{"bike_id":"157a2b8a-e087-40e0-b7cf-61c2cae2f494","system_id":"levelo_inurba_marseille","lat":43.2979,"lon":5.38077,"is_reserved":false,"is_disabled":false,"rental_uris":{"android":"levelo://app?vid=157a2b8a-e087-40e0-b7cf-61c2cae2f494","ios":"levelo://app?vid=157a2b8a-e087-40e0-b7cf-61c2cae2f494"},"vehicle_type_id":"4","last_reported":1740406148,"current_range_meters":23200,"station_id":"ce4bgip2rcd13ifvqbb0","pricing_plan_id":"cebpf4jnsgd1na2vs0mg"},{"bike_id":"d0964cbe-648b-4243-8f99-bdcc1fc16b9d","system_id":"levelo_inurba_marseille","lat":43.28838,"lon":5.35826,"is_reserved":false,"is_disabled":false,"rental_uris":{"android":"levelo://app?vid=d0964cbe-648b-4243-8f99-bdcc1fc16b9d","ios":"levelo://app?vid=d0964cbe-648b-4243-8f99-bdcc1fc16b9d"},"vehicle_type_id":"4","last_reported":1740406148,"current_range_meters":23200,"station_id":"ce4bhb12rcd13ifvqem0","pricing_plan_id":"cebpf4jnsgd1na2vs0mg"},{"bike_id":"f34d7bca-6213-42da-94cc-81c7720e2504","system_id":"levelo_inurba_marseille","lat":43.25503,"lon":5.37654,"is_reserved":false,"is_disabled":false,"rental_uris":{"android":"levelo://app?vid=f34d7bca-6213-42da-94cc-81c7720e2504","ios":"levelo://app?vid=f34d7bca-6213-42da-94cc-81c7720e2504"},"vehicle_type_id":"4","last_reported":1740406148,"current_range_meters":22800,"station_id":"ce4bhh12rcd13ifvqff0","pricing_plan_id":"cebpf4jnsgd1na2vs0mg"},{"bike_id":"5f59e386-4d68-474b-8c55-e0c5b5b16bde","system_id":"levelo_inurba_marseille","lat":43.28031,"lon":5.36951,"is_reserved":false,"is_disabled":false,"rental_uris":{"android":"levelo://app?vid=5f59e386-4d68-474b-8c55-e0c5b5b16bde","ios":"levelo://app?vid=5f59e386-4d68-474b-8c55-e0c5b5b16bde"},"vehicle_type_id":"4","last_reported":1740406148,"current_range_meters":23200,"station_id":"ce4bha12rcd13ifvqef0","pricing_plan_id":"cebpf4jnsgd1na2vs0mg"},{"bike_id":"39ba84c2-b88b-4daf-af04-baa6da9af397","system_id":"levelo_inurba_marseille","lat":43.31264,"lon":5.36881,"is_reserved":false,"is_disabled":false,"rental_uris":{"android":"levelo://app?vid=39ba84c2-b88b-4daf-af04-baa6da9af397","ios":"levelo://app?vid=39ba84c2-b88b-4daf-af04-baa6da9af397"},"vehicle_type_id":"4","last_reported":1740406148,"current_range_meters":23200,"station_id":"ce4bgl92rcd13ifvqbq0","pricing_plan_id":"cebpf4jnsgd1na2vs0mg"},{"bike_id":"c35286e3-d8b2-4256-8c8d-fe8abb9ba557","system_id":"levelo_inurba_marseille","lat":43.29569,"lon":5.38887,"is_reserved":false,"is_disabled":true,"rental_uris":{"android":"levelo://app?vid=c35286e3-d8b2-4256-8c8d-fe8abb9ba557","ios":"levelo://app?vid=c35286e3-d8b2-4256-8c8d-fe8abb9ba557"},"vehicle_type_id":"4","last_reported":1740406148,"current_range_meters":23200,"station_id":"","pricing_plan_id":"cebpf4jnsgd1na2vs0mg"},{"bike_id":"283c0380-2697-4699-9da8-ce47c18073bc","system_id":"levelo_inurba_marseille","lat":43.25947,"lon":5.40878,"is_reserved":false,"is_disabled":false,"rental_uris":{"android":"levelo://app?vid=283c0380-2697-4699-9da8-ce47c18073bc","ios":"levelo://app?vid=283c0380-2697-4699-9da8-ce47c18073bc"},"vehicle_type_id":"4","last_reported":1740406148,"current_range_meters":24000,"station_id":"ce4bhm92rcd13ifvqglg","pricing_plan_id":"cebpf4jnsgd1na2vs0mg"},{"bike_id":"220837e6-44d1-411a-aaca-6e3d59340904","system_id":"levelo_inurba_marseille","lat":43.301318,"lon":5.387765,"is_reserved":false,"is_disabled":true,"rental_uris":{"android":"levelo://app?vid=220837e6-44d1-411a-aaca-6e3d59340904","ios":"levelo://app?vid=220837e6-44d1-411a-aaca-6e3d59340904"},"vehicle_type_id":"4","last_reported":1740406148,"current_range_meters":24000,"station_id":"","pricing_plan_id":"cebpf4jnsgd1na2vs0mg"},{"bike_id":"435ea8c6-3b73-47d7-975c-ad22ec720a53","system_id":"levelo_inurba_marseille","lat":43.29853,"lon":5.36287,"is_reserved":false,"is_disabled":false,"rental_uris":{"android":"levelo://app?vid=435ea8c6-3b73-47d7-975c-ad22ec720a53","ios":"levelo://app?vid=435ea8c6-3b73-47d7-975c-ad22ec720a53"},"vehicle_type_id":"4","last_reported":1740406148,"current_range_meters":24000,"station_id":"ce4bgpp2rcd13ifvqc3g","pricing_plan_id":"cebpf4jnsgd1na2vs0mg"},