{"last_updated":1767118666,"ttl":60,"version":"2.2","data":{"bikes":[{"bike_id":"328fd89e-cb30-4fb0-ad09-ed32c9681548","system_id":"levelo_inurba_marseille","lat":43.3044,"lon":5.38887,"is_reserved":false,"is_disabled":false,"rental_uris":{"android":"levelo://app?vid=328fd89e-cb30-4fb0-ad09-ed32c9681548","ios":"levelo://app?vid=328fd89e-cb30-4fb0-ad09-ed32c9681548"},"vehicle_type_id":"4","last_reported":1767118667,"current_range_meters":2800,"station_id":"ce4bgk12rcd13ifvqbi0","pricing_plan_id":"cebpf4jnsgd1na2vs0mg"},{"bike_id":"b6da04bf-34b2-4be0-9b66-2daccb1137f3","system_id":"levelo_inurba_marseille","lat":43.240565,"lon":5.377873,"is_reserved":false,"is_disabled":false,"rental_uris":{"android":"levelo://app?vid=b6da04bf-34b2-4be0-9b66-2daccb1137f3","ios":"levelo://app?vid=b6da04bf-34b2-4be0-9b66-2daccb1137f3"},"vehicle_type_id":"4","last_reported":1767118667,"current_range_meters":2800,"station_id":"ce4bhih2rcd13ifvqfr0","pricing_plan_id":"cebpf4jnsgd1na2vs0mg"},{"bike_id":"724a9f40-99f5-4383-9bdf-06898f47d2ff","system_id":"levelo_inurba_marseille","lat":43.27363,"lon":5.424,"is_reserved":false,"is_disabled":false,"rental_uris":{"android":"levelo://app?vid=724a9f40-99f5-4383-9bdf-06898f47d2ff","ios":"levelo://app?vid=724a9f40-99f5-4383-9bdf-06898f47d2ff"},"vehicle_type_id":"4","last_reported":1767118667,"current_range_meters":2800,"station_id":"","pricing_plan_id":"cebpf4jnsgd1na2vs0mg"},{"bike_id":"9dfb46a8-3117-46a7-bce5-3060adfd8929","system_id":"levelo_inurba_marseille","lat":43.30298,"lon":5.3922,"is_reserved":false,"is_disabled":false,"rental_uris":{"android":"levelo://app?vid=9dfb46a8-3117-46a7-bce5-3060adfd8929","ios":"levelo://app?vid=9dfb46a8-3117-46a7-bce5-3060adfd8929"},"vehicle_type_id":"4","last_reported":1767118667,"current_range_meters":2800,"station_id":"ce4bgkh2rcd13ifvqbk0","pricing_plan_id":"cebpf4jnsgd1na2vs0mg"},{"bike_id":"1c818977-717b-41f2-8fae-ce6b0c328c89","system_id":"levelo_inurba_marseille","lat":43.31228,"lon":5.36866,"is_reserved":false,"is_disabled":false,"rental_uris":{"android":"levelo://app?vid=1c818977-717b-41f2-8fae-ce6b0c328c89","ios":"levelo://app?vid=1c818977-717b-41f2-8fae-ce6b0c328c89"},"vehicle_type_id":"4","last_reported":1767118667,"current_range_meters":2800,"station_id":"ce4bgl92rcd13ifvqbq0","pricing_plan_id":"cebpf4jnsgd1na2vs0mg"},{"bike_id":"9f630e87-fb1c-4102-9909-8293ef886f83","system_id":"levelo_inurba_marseille","lat":43.27316,"lon":5.39091,"is_reserved":false,"is_disabled":false,"rental_uris":{"android":"levelo://app?vid=9f630e87-fb1c-4102-9909-8293ef886f83","ios":"levelo://app?vid=9f630e87-fb1c-4102-9909-8293ef886f83"},"vehicle_type_id":"4","last_reported":1767118667,"current_range_meters":3200,"station_id":"ce4bhgp2rcd13ifvqfe0","pricing_plan_id":"cebpf4jnsgd1na2vs0mg"},{"bike_id":"54c8f443-d67f-4946-a776-419f325e3b53","system_id":"levelo_inurba_marseille","lat":43.28562,"lon":5.38375,"is_reserved":false,"is_disabled":false,"rental_uris":{"android":"levelo://app?vid=54c8f443-d67f-4946-a776-419f325e3b53","ios":"levelo://app?vid=54c8f443-d67f-4946-a776-419f325e3b53"},"vehicle_type_id":"4","last_reported":1767118667,"current_range_meters":3200,"station_id":"","pricing_plan_id":"cebpf4jnsgd1na2vs0mg"},{"bike_id":"54a4bb89-c8f8-45d8-9bda-a5226247d554","system_id":"levelo_inurba_marseille","lat":43.304256,"lon":5.397502,"is_reserved":false,"is_disabled":false,"rental_uris":{"android":"levelo://app?vid=54a4bb89-c8f8-45d8-9bda-a5226247d554","ios":"levelo://app?vid=54a4bb89-c8f8-45d8-9bda-a5226247d554"},"vehicle_type_id":"4","last_reported":1767118667,"current_range_meters":3200,"station_id":"ce4bh092rcd13ifvqd20","pricing_plan_id":"cebpf4jnsgd1na2vs0mg"},{"bike_id":"da99c518-92b7-4daa-b9ba-621c439e69de","system_id":"levelo_inurba_marseille","lat":43.275649,"lon":5.38439,"is_reserved":false,"is_disabled":false,"rental_uris":{"android":"levelo://app?vid=da99c518-92b7-4daa-b9ba-621c439e69de","ios":"levelo://app?vid=da99c518-92b7-4daa-b9ba-621c439e69de"},"vehicle_type_id":"4","last_reported":1767118667,"current_range_meters":3600,"station_id":"ce4bhh92rcd13ifvqfi0","pricing_plan_id":"cebpf4jnsgd1na2vs0mg"},{"bike_id":"1ec30fdb-e337-4052-9938-0f04a5ead179","system_id":"levelo_inurba_marseille","lat":43.28613,"lon":5.35097,"is_reserved":false,"is_disabled":false,"rental_uris":{"android":"levelo://app?vid=1ec30fdb-e337-4052-9938-0f04a5ead179","ios":"levelo://app?vid=1ec30fdb-e337-4052-9938-0f04a5ead179"},"vehicle_type_id":"4","last_reported":1767118667,"current_range_meters":3600,"station_id":"ce4bhch2rcd13ifvqeug","pricing_plan_id":"cebpf4jnsgd1na2vs0mg"},{"bike_id":"18e8949e-9a33-4e68-afc4-7e4c80ccde70","system_id":"levelo_inurba_marseille","lat":43.266941,"lon":5.395363,"is_reserved":false,"is_disabled":false,"rental_uris":{"android":"levelo://app?vid=18e8949e-9a33-4e68-afc4-7e4c80ccde70","ios":"levelo://app?vid=18e8949e-9a33-4e68-afc4-7e4c80ccde70"},"vehicle_type_id":"4","last_reported":1767118667,"current_range_meters":3600,"station_id":"ce4bhi12rcd13ifvqfq0","pricing_plan_id":"cebpf4jnsgd1na2vs0mg"},{"bike_id":"e3dcc33f-49c1-4a94-8e61-b80c5b48b6f3","system_id":"levelo_inurba_marseille","lat":43.29009,"lon":5.35619,"is_reserved":false,"is_disabled":true,"rental_uris":{"android":"levelo://app?vid=e3dcc33f-49c1-4a94-8e61-b80c5b48b6f3","ios":"levelo://app?vid=e3dcc33f-49c1-4a94-8e61-b80c5b48b6f3"},"vehicle_type_id":"4","last_reported":1767118667,"current_range_meters":3600,"station_id":"ce4bhb92rcd13ifvqen0","pricing_plan_id":"cebpf4jnsgd1na2vs0mg"},{"bike_id":"93238dbe-7e18-4ff9-acc5-cf08ef47ac5a","system_id":"levelo_inurba_marseille","lat":43.27396,"lon":5.41539,"is_reserved":false,"is_disabled":false,"rental_uris":{"android":"levelo://app?vid=93238dbe-7e18-4ff9-acc5-cf08ef47ac5a","ios":"levelo://app?vid=93238dbe-7e18-4ff9-acc5-cf08ef47ac5a"},"vehicle_type_id":"4","last_reported":1767118667,"current_range_meters":4000,"station_id":"","pricing_plan_id":"cebpf4jnsgd1na2vs0mg"},{"bike_id":"581a7404-b430-424c-9d97-a569543049aa","system_id":"levelo_inurba_marseille","lat":43.284105,"lon":5.374971,"is_reserved":false,"is_disabled":false,"rental_uris":{"android":"levelo://app?vid=581a7404-b430-424c-9d97-a569543049aa","ios":"levelo://app?vid=581a7404-b430-424c-9d97-a569543049aa"},"vehicle_type_id":"4","last_reported":1767118667,"current_range_meters":4000,"station_id":"ce4bh412rcd13ifvqds0","pricing_plan_id":"cebpf4jnsgd1na2vs0mg"},{"bike_id":"c7f2e718-38b8-44a7-a0b2-c8eaa34f58b5","system_id":"levelo_inurba_marseille","lat":43.323675,"lon":5.38883,"is_reserved":false,"is_disabled":false,"rental_uris":{"android":"levelo://app?vid=c7f2e718-38b8-44a7-a0b2-c8eaa34f58b5","ios":"levelo://app?vid=c7f2e718-38b8-44a7-a0b2-c8eaa34f58b5"},"vehicle_type_id":"4","last_reported":1767118667,"current_range_meters":4000,"station_id":"ce4bhqp2rcd13ifvqhog","pricing_plan_id":"cebpf4jnsgd1na2vs0mg"},{"bike_id":"577c2f32-35dd-4eab-a65e-64a657815ae2","system_id":"levelo_inurba_marseille","lat":43.298218,"lon":5.403847,"is_reserved":false,"is_disabled":false,"rental_uris":{"android":"levelo://app?vid=577c2f32-35dd-4eab-a65e-64a657815ae2","ios":"levelo://app?vid=577c2f32-35dd-4eab-a65e-64a657815ae2"},"vehicle_type_id":"4","last_reported":1767118667,"current_range_meters":4000,"station_id":"ce4bh112rcd13ifvqd90","pricing_plan_id":"cebpf4jnsgd1na2vs0mg"},{"bike_id":"5766aee7-e26e-494b-957d-dab3e11fa74a","system_id":"levelo_inurba_marseille","lat":43.29023,"lon":5.38634,"is_reserved":false,"is_disabled":false,"rental_uris":{"android":"levelo://app?vid=5766aee7-e26e-494b-957d-dab3e11fa74a","ios":"levelo://app?vid=5766aee7-e26e-494b-957d-dab3e11fa74a"},"vehicle_type_id":"4","last_reported":1767118667,"current_range_meters":4000,"station_id":"","pricing_plan_id":"cebpf4jnsgd1na2vs0mg"},{"bike_id":"38ea5a3f-793a-4f99-8ae1-a4b1fe09cf4a","system_id":"levelo_inurba_marseille","lat":43.30298,"lon":5.39215,"is_reserved":false,"is_disabled":false,"rental_uris":{"android":"levelo://app?vid=38ea5a3f-793a-4f99-8ae1-a4b1fe09cf4a","ios":"levelo://app?vid=38ea5a3f-793a-4f99-8ae1-a4b1fe09cf4a"},"vehicle_type_id":"4","last_reported":1767118667,"current_range_meters":4000,"station_id":"ce4bgkh2rcd13ifvqbk0","pricing_plan_id":"cebpf4jnsgd1na2vs0mg"},{"bike_id":"08f4624a-a23d-4738-b794-a8bd53bfd7e8","system_id":"levelo_inurba_marseille","lat":43.299547,"lon":5.378726,"is_reserved":false,"is_disabled":false,"rental_uris":{"android":"levelo://app?vid=08f4624a-a23d-4738-b794-a8bd53bfd7e8","ios":"levelo://app?vid=08f4624a-a23d-4738-b794-a8bd53bfd7e8"},"vehicle_type_id":"4","last_reported":1767118667,"current_range_meters":4400,"station_id":"","pricing_plan_id":"cebpf4jnsgd1na2vs0mg"},{"bike_id":"49166d3a-7d57-41ae-b5e6-9a6cbabce031","system_id":"levelo_inurba_marseille","lat":43.29686,"lon":5.36771,"is_reserved":false,"is_disabled":false,"rental_uris":{"android":"levelo://app?vid=49166d3a-7d57-41ae-b5e6-9a6cbabce031","ios":"levelo://app?vid=49166d3a-7d57-41ae-b5e6-9a6cbabce031"},"vehicle_type_id":"4","last_reported":1767118667,"current_range_meters":4400,"station_id":"","pricing_plan_id":"cebpf4jnsgd1na2vs0mg"},{"bike_id":"b042021c-9ced-457b-8a11-dc9ac3802903","system_id":"levelo_inurba_marseille","lat":43.3042,"lon":5.39739,"is_reserved":false,"is_disabled":true,"rental_uris":{"android":"levelo://app?vid=b042021c-9ced-457b-8a11-dc9ac3802903","ios":"levelo://app?vid=b042021c-9ced-457b-8a11-dc9ac3802903"},"vehicle_type_id":"4","last_reported":1767118667,"current_range_meters":4400,"station_id":"ce4bh092rcd13ifvqd20","pricing_plan_id":"cebpf4jnsgd1na2vs0mg"},{"bike_id":"1c5d4b25-3eea-4066-b717-487f9503b7f3","system_id":"levelo_inurba_marseille","lat":43.28567,"lon":5.39497,"is_reserved":false,"is_disabled":false,"rental_uris":{"android":"levelo://app?vid=1c5d4b25-3eea-4066-b717-487f9503b7f3","ios":"levelo://app?vid=1c5d4b25-3eea-4066-b717-487f9503b7f3"},"vehicle_type_id":"4","last_reported":1767118667,"current_range_meters":4400,"station_id":"ce4bh292rcd13ifvqdg0","pricing_plan_id":"cebpf4jnsgd1na2vs0mg"},{"bike_id":"45bccabc-2f43-4a32-9e4e-996183b9cbf8","system_id":"levelo_inurba_marseille","lat":43.28698,"lon":5.39982,"is_reserved":false,"is_disabled":false,"rental_uris":{"android":"levelo://app?vid=45bccabc-2f43-4a32-9e4e-996183b9cbf8","ios":"levelo://app?vid=45bccabc-2f43-4a32-9e4e-996183b9cbf8"},"vehicle_type_id":"4","last_reported":1767118667,"current_range_meters":4400,"station_id":"ce4bho92rcd13ifvqh3g","pricing_plan_id":"cebpf4jnsgd1na2vs0mg"},{"bike_id":"5b7a718e-4672-478b-b98b-e13cd30767eb","system_id":"levelo_inurba_marseille","lat":43.27062,"lon":5.42278,"is_reserved":false,"is_disabled":false,"rental_uris":{"android":"levelo://app?vid=5b7a718e-4672-478b-b98b-e13cd30767eb","ios":"levelo://app?vid=5b7a718e-4672-478b-b98b-e13cd30767eb"},"vehicle_type_id":"4","last_reported":1767118667,"current_range_meters":4400,"station_id":"ce4bhk92rcd13ifvqgb0","pricing_plan_id":"cebpf4jnsgd1na2vs0mg"},{"bike_id":"57d65db9-2056-46c6-bfc7-0a8517ec2108","system_id":"levelo_inurba_marseille","lat":43.25089,"lon":5.39528,"is_reserved":false,"is_disabled":false,"rental_uris":{"android":"levelo://app?vid=57d65db9-2056-46c6-bfc7-0a8517ec2108","ios":"levelo://app?vid=57d65db9-2056-46c6-bfc7-0a8517ec2108"},"vehicle_type_id":"4","last_reported":1767118667,"current_range_meters":4800,"station_id":"ce4bhm12rcd13ifvqgkg","pricing_plan_id":"cebpf4jnsgd1na2vs0mg"},{"bike_id":"b0fecc2b-ec8f-4434-ba08-eaae921361a2","system_id":"levelo_inurba_marseille","lat":43.24165,"lon":5.40905,"is_reserved":false,"is_disabled":false,"rental_uris":{"android":"levelo://app?vid=b0fecc2b-ec8f-4434-ba08-eaae921361a2","ios":"levelo://app?vid=b0fecc2b-ec8f-4434-ba08-eaae921361a2"},"vehicle_type_id":"4","last_reported":1767118667,"current_range_meters":4800,"station_id":"","pricing_plan_id":"cebpf4jnsgd1na2vs0mg"},{"bike_id":"f4fda414-725c-4557-a86d-15cbe314a6a8","system_id":"levelo_inurba_marseille","lat":43.273262,"lon":5.390651,"is_reserved":false,"is_disabled":false,"rental_uris":{"android":"levelo://app?vid=f4fda414-725c-4557-a86d-15cbe314a6a8","ios":"levelo://app?vid=f4fda414-725c-4557-a86d-15cbe314a6a8"},"vehicle_type_id":"4","last_reported":1767118667,"current_range_meters":4800,"station_id":"","pricing_plan_id":"cebpf4jnsgd1na2vs0mg"},{"bike_id":"e8af233b-5708-4703-843e-5a0976da3853","system_id":"levelo_inurba_marseille","lat":43.289398,"lon":5.383945,"is_reserved":false,"is_disabled":false,"rental_uris":{"android":"levelo://app?vid=e8af233b-5708-4703-843e-5a0976da3853","ios":"levelo://app?vid=e8af233b-5708-4703-843e-5a0976da3853"},"vehicle_type_id":"4","last_reported":1767118667,"current_range_meters":4800,"station_id":"ce4bh612rcd13ifvqe6g","pricing_plan_id":"cebpf4jnsgd1na2vs0mg"},{"bike_id":"056109e4-7d33-4f55-bed7-22f13c21b637","system_id":"levelo_inurba_marseille","lat":43.337444,"lon":5.374475,"is_reserved":false,"is_disabled":true,"rental_uris":{"android":"levelo://app?vid=056109e4-7d33-4f55-bed7-22f13c21b637","ios":"levelo://app?vid=056109e4-7d33-4f55-bed7-22f13c21b637"},"vehicle_type_id":"4","last_reported":1767118667,"current_range_meters":4800,"station_id":"","pricing_plan_id":"cebpf4jnsgd1na2vs0mg"},{"bike_id":"b0692fe3-3737-4622-a569-035464cbc63a","system_id":"levelo_inurba_marseille","lat":43.29533,"lon":5.3854,"is_reserved":false,"is_disabled":false,"rental_uris":{"android":"levelo://app?vid=b0692fe3-3737-4622-a569-035464cbc63a","ios":"levelo://app?vid=b0692fe3-3737-4622-a569-035464cbc63a"},"vehicle_type_id":"4","last_reported":1767118667,"current_range_meters":4800,"station_id":"ce4bgih2rcd13ifvqba0","pricing_plan_id":"cebpf4jnsgd1na2vs0mg"},{"bike_id":"fd3ef554-d521-46e5-9b5b-e4920fea09bb","system_id":"levelo_inurba_marseille","lat":43.261896,"lon":5.374494,"is_reserved":false,"is_disabled":true,"rental_uris":{"android":"levelo://app?vid=fd3ef554-d521-46e5-9b5b-e4920fea09bb","ios":"levelo://app?vid=fd3ef554-d521-46e5-9b5b-e4920fea09bb"},"vehicle_type_id":"4","last_reported":1767118667,"current_range_meters":4800,"station_id":"ce4bhgp2rcd13ifvqfc0","pricing_plan_id":"cebpf4jnsgd1na2vs0mg"},{"bike_id":"40ec8865-2f7f-4485-9abf-11916ef1be1b","system_id":"levelo_inurba_marseille","lat":43.26563,"lon":5.40328,"is_reserved":false,"is_disabled":false,"rental_uris":{"android":"levelo://app?vid=40ec8865-2f7f-4485-9abf-11916ef1be1b","ios":"levelo://app?vid=40ec8865-2f7f-4485-9abf-11916ef1be1b"},"vehicle_type_id":"4","last_reported":1767118667,"current_range_meters":5600,"station_id":"ce4bhmp2rcd13ifvqgng","pricing_plan_id":"cebpf4jnsgd1na2vs0mg"},{"bike_id":"5062f5e2-db9a-4e67-8289-6c40f415ca14","system_id":"levelo_inurba_marseille","lat":43.31891,"lon":5.40737,"is_reserved":false,"is_disabled":false,"rental_uris":{"android":"levelo://app?vid=5062f5e2-db9a-4e67-8289-6c40f415ca14","ios":"levelo://app?vid=5062f5e2-db9a-4e67-8289-6c40f415ca14"},"vehicle_type_id":"4","last_reported":1767118667,"current_range_meters":5600,"station_id":"ce4bhq12rcd13ifvqhig","pricing_plan_id":"cebpf4jnsgd1na2vs0mg"},{"bike_id":"21f47a56-e429-40b9-a271-c08dddfab5f9","system_id":"levelo_inurba_marseille","lat":43.29885,"lon":5.38901,"is_reserved":false,"is_disabled":false,"rental_uris":{"android":"levelo://app?vid=21f47a56-e429-40b9-a271-c08dddfab5f9","ios":"levelo://app?vid=21f47a56-e429-40b9-a271-c08dddfab5f9"},"vehicle_type_id":"4","last_reported":1767118667,"current_range_meters":6000,"station_id":"ce4bh392rcd13ifvqdl0","pricing_plan_id":"cebpf4jnsgd1na2vs0mg"},{"bike_id":"42fe52e6-ef53-48ea-b959-0edcd8fbe3f3","system_id":"levelo_inurba_marseille","lat":43.29257,"lon":5.37887,"is_reserved":false,"is_disabled":false,"rental_uris":{"android":"levelo://app?vid=42fe52e6-ef53-48ea-b959-0edcd8fbe3f3","ios":"levelo://app?vid=42fe52e6-ef53-48ea-b959-0edcd8fbe3f3"},"vehicle_type_id":"4","last_reported":1767118667,"current_range_meters":6000,"station_id":"","pricing_plan_id":"cebpf4jnsgd1na2vs0mg"},{"bike_id":"ad306d0c-1a48-471b-8a10-55b1befe9745","system_id":"levelo_inurba_marseille","lat":43.31102,"lon":5.36743,"is_reserved":false,"is_disabled":false,"rental_uris":{"android":"levelo://app?vid=ad306d0c-1a48-471b-8a10-55b1befe9745","ios":"levelo://app?vid=ad306d0c-1a48-471b-8a10-55b1befe9745"},"vehicle_type_id":"4","last_reported":1767118667,"current_range_meters":6000,"station_id":"","pricing_plan_id":"cebpf4jnsgd1na2vs0mg"},{"bike_id":"3606b848-c1a6-441c-b3ed-f4bfb2b2d28f","system_id":"levelo_inurba_marseille","lat":43.28097,"lon":5.39646,"is_reserved":false,"is_disabled":false,"rental_uris":{"android":"levelo://app?vid=3606b848-c1a6-441c-b3ed-f4bfb2b2d28f","ios":"levelo://app?vid=3606b848-c1a6-441c-b3ed-f4bfb2b2d28f"},"vehicle_type_id":"4","last_reported":1767118667,"current_range_meters":6000,"station_id":"ce4bho12rcd13ifvqh2g","pricing_plan_id":"cebpf4jnsgd1na2vs0mg"},{"bike_id":"7a88ce10-60bc-400e-beb4-546427e000bd","system_id":"levelo_inurba_marseille","lat":43.28079,"lon":5.39653,"is_reserved":false,"is_disabled":false,"rental_uris":{"android":"levelo://app?vid=7a88ce10-60bc-400e-beb4-546427e000bd","ios":"levelo://app?vid=7a88ce10-60bc-400e-beb4-546427e000bd"},"vehicle_type_id":"4","last_reported":1767118667,"current_range_meters":6000,"station_id":"ce4bho12rcd13ifvqh2g","pricing_plan_id":"cebpf4jnsgd1na2vs0mg"},{"bike_id":"1b98c6d3-988a-40e8-a138-836b264a962b","system_id":"levelo_inurba_marseille","lat":43.32331,"lon":5.36678,"is_reserved":false,"is_disabled":false,"rental_uris":{"android":"levelo://app?vid=1b98c6d3-988a-40e8-a138-836b264a962b","ios":"levelo://app?vid=1b98c6d3-988a-40e8-a138-836b264a962b"},"vehicle_type_id":"4","last_reported":1767118667,"current_range_meters":6000,"station_id":"","pricing_plan_id":"cebpf4jnsgd1na2vs0mg"},{"bike_id":"4636d9ce-8e32-4274-87be-4604acb6099f","system_id":"levelo_inurba_marseille","lat":43.2846,"lon":5.35896,"is_reserved":false,"is_disabled":false,"rental_uris":{"android":"levelo://app?vid=4636d9ce-8e32-4274-87be-4604acb6099f","ios":"levelo://app?vid=4636d9ce-8e32-4274-87be-4604acb6099f"},"vehicle_type_id":"4","last_reported":1767118667,"current_range_meters":6000,"station_id":"ce4bhah2rcd13ifvqei0","pricing_plan_id":"cebpf4jnsgd1na2vs0mg"},{"bike_id":"85f80c36-b01d-4148-8a0f-5ed00798dda8","system_id":"levelo_inurba_marseille","lat":43.301122,"lon":5.364805,"is_reserved":false,"is_disabled":false,"rental_uris":{"android":"levelo://app?vid=85f80c36-b01d-4148-8a0f-5ed00798dda8","ios":"levelo://app?vid=85f80c36-b01d-4148-8a0f-5ed00798dda8"},"vehicle_type_id":"4","last_reported":1767118667,"current_range_meters":6000,"station_id":"","pricing_plan_id":"cebpf4jnsgd1na2vs0mg"},{"bike_id":"32541f6a-1d2c-44c2-a392-06055eaf1598","system_id":"levelo_inurba_marseille","lat":43.26238,"lon":5.4162,"is_reserved":false,"is_disabled":false,"rental_uris":{"android":"levelo://app?vid=32541f6a-1d2c-44c2-a392-06055eaf1598","ios":"levelo://app?vid=32541f6a-1d2c-44c2-a392-06055eaf1598"},"vehicle_type_id":"4","last_reported":1767118667,"current_range_meters":6000,"station_id":"","pricing_plan_id":"cebpf4jnsgd1na2vs0mg"},{"bike_id":"ef683908-4b7b-4a2a-a87f-c521c259d322","system_id":"levelo_inurba_marseille","lat":43.27663,"lon":5.38907,"is_reserved":false,"is_disabled":false,"rental_uris":{"android":"levelo://app?vid=ef683908-4b7b-4a2a-a87f-c521c259d322","ios":"levelo://app?vid=ef683908-4b7b-4a2a-a87f-c521c259d322"},"vehicle_type_id":"4","last_reported":1767118667,"current_range_meters":6400,"station_id":"ce4bhi12rcd13ifvqfo0","pricing_plan_id":"cebpf4jnsgd1na2vs0mg"},{"bike_id":"03d19238-9efc-4e97-befa-8c5655100686","system_id":"levelo_inurba_marseille","lat":43.28413,"lon":5.34985,"is_reserved":false,"is_disabled":false,"rental_uris":{"android":"levelo://app?vid=03d19238-9efc-4e97-befa-8c5655100686","ios":"levelo://app?vid=03d19238-9efc-4e97-befa-8c5655100686"},"vehicle_type_id":"4","last_reported":1767118667,"current_range_meters":6400,"station_id":"ce4bhbh2rcd13ifvqepg","pricing_plan_id":"cebpf4jnsgd1na2vs0mg"},{"bike_id":"64b34d26-aa37-4813-970c-928f51a94668","system_id":"levelo_inurba_marseille","lat":43.28967,"lon":5.35523,"is_reserved":false,"is_disabled":false,"rental_uris":{"android":"levelo://app?vid=64b34d26-aa37-4813-970c-928f51a94668","ios":"levelo://app?vid=64b34d26-aa37-4813-970c-928f51a94668"},"vehicle_type_id":"4","last_reported":1767118667,"current_range_meters":6400,"station_id":"","pricing_plan_id":"cebpf4jnsgd1na2vs0mg"},{"bike_id":"baa2c88e-3863-47b2-9b99-79915ceaf68f","system_id":"levelo_inurba_marseille","lat":43.27365,"lon":5.3901,"is_reserved":false,"is_disabled":false,"rental_uris":{"android":"levelo://app?vid=baa2c88e-3863-47b2-9b99-79915ceaf68f","ios":"levelo://app?vid=baa2c88e-3863-47b2-9b99-79915ceaf68f"},"vehicle_type_id":"4","last_reported":1767118667,"current_range_meters":6400,"station_id":"ce4bhgp2rcd13ifvqfe0","pricing_plan_id":"cebpf4jnsgd1na2vs0mg"},{"bike_id":"25afbc81-8f0b-478e-ae4d-57380691138c","system_id":"levelo_inurba_marseille","lat":43.31223,"lon":5.36859,"is_reserved":false,"is_disabled":false,"rental_uris":{"android":"levelo://app?vid=25afbc81-8f0b-478e-ae4d-57380691138c","ios":"levelo://app?vid=25afbc81-8f0b-478e-ae4d-57380691138c"},"vehicle_type_id":"4","last_reported":1767118667,"current_range_meters":6400,"station_id":"ce4bgl92rcd13ifvqbq0","pricing_plan_id":"cebpf4jnsgd1na2vs0mg"},{"bike_id":"27ddd247-3c81-400c-a4ee-50b262cdc530","system_id":"levelo_inurba_marseille","lat":43.279373,"lon":5.410368,"is_reserved":false,"is_disabled":false,"rental_uris":{"android":"levelo://app?vid=27ddd247-3c81-400c-a4ee-50b262cdc530","ios":"levelo://app?vid=27ddd247-3c81-400c-a4ee-50b262cdc530"},"vehicle_type_id":"4","last_reported":1767118667,"current_range_meters":6800,"station_id":"ce4bhnp2rcd13ifvqh0g","pricing_plan_id":"cebpf4jnsgd1na2vs0mg"},{"bike_id":"2d7a0ed0-372a-4cd3-9a27-e9d1f9e72325","system_id":"levelo_inurba_marseille","lat":43.28884,"lon":5.35956,"is_reserved":false,"is_disabled":false,"rental_uris":{"android":"levelo://app?vid=2d7a0ed0-372a-4cd3-9a27-e9d1f9e72325","ios":"levelo://app?vid=2d7a0ed0-372a-4cd3-9a27-e9d1f9e72325"},"vehicle_type_id":"4","last_reported":1767118667,"current_range_meters":6800,"station_id":"","pricing_plan_id":"cebpf4jnsgd1na2vs0mg"},{"bike_id":"c144adb8-946d-4a60-9739-bd28e99b9f29","system_id":"levelo_inurba_marseille","lat":43.28532,"lon":5.44088,"is_reserved":false,"is_disabled":false,"rental_uris":{"android":"levelo://app?vid=c144adb8-946d-4a60-9739-bd28e99b9f29","ios":"levelo://app?vid=c144adb8-946d-4a60-9739-bd28e99b9f29"},"vehicle_type_id":"4","last_reported":1767118667,"current_range_meters":6800,"station_id":"st_d3j3df2ikq2c7380ej80","pricing_plan_id":"cebpf4jnsgd1na2vs0mg"},{"bike_id":"59aab69d-aa14-4a71-8d9b-0aa143ba58f2","system_id":"levelo_inurba_marseille","lat":43.28543,"lon":5.44081,"is_reserved":false,"is_disabled":true,"rental_uris":{"android":"levelo://app?vid=59aab69d-aa14-4a71-8d9b-0aa143ba58f2","ios":"levelo://app?vid=59aab69d-aa14-4a71-8d9b-0aa143ba58f2"},"vehicle_type_id":"4","last_reported":1767118667,"current_range_meters":6800,"station_id":"st_d3j3df2ikq2c7380ej80","pricing_plan_id":"cebpf4jnsgd1na2vs0mg"},{"bike_id":"c7ff5822-07ca-4ad0-9951-7d8f3bcffcd7","system_id":"levelo_inurba_marseille","lat":43.286151,"lon":5.351035,"is_reserved":false,"is_disabled":false,"rental_uris":{"android":"levelo://app?vid=c7ff5822-07ca-4ad0-9951-7d8f3bcffcd7","ios":"levelo://app?vid=c7ff5822-07ca-4ad0-9951-7d8f3bcffcd7"},"vehicle_type_id":"4","last_reported":1767118667,"current_range_meters":6800,"station_id":"ce4bhch2rcd13ifvqeug","pricing_plan_id":"cebpf4jnsgd1na2vs0mg"},{"bike_id":"0a62435e-a1a1-4faf-b848-03bd53df937d","system_id":"levelo_inurba_marseille","lat":43.29838,"lon":5.37902,"is_reserved":false,"is_disabled":false,"rental_uris":{"android":"levelo://app?vid=0a62435e-a1a1-4faf-b848-03bd53df937d","ios":"levelo://app?vid=0a62435e-a1a1-4faf-b848-03bd53df937d"},"vehicle_type_id":"4","last_reported":1767118667,"current_range_meters":6800,"station_id":"","pricing_plan_id":"cebpf4jnsgd1na2vs0mg"},{"bike_id":"633e093e-7aba-4e4b-a5fe-b1e5d042f33b","system_id":"levelo_inurba_marseille","lat":43.28478,"lon":5.48403,"is_reserved":false,"is_disabled":false,"rental_uris":{"android":"levelo://app?vid=633e093e-7aba-4e4b-a5fe-b1e5d042f33b","ios":"levelo://app?vid=633e093e-7aba-4e4b-a5fe-b1e5d042f33b"},"vehicle_type_id":"4","last_reported":1767118667,"current_range_meters":6800,"station_id":"st_d3svhcjqgbts73a3dn0g","pricing_plan_id":"cebpf4jnsgd1na2vs0mg"},{"bike_id":"8cd8286c-2dd8-41ad-b181-1afd615d6e0d","system_id":"levelo_inurba_marseille","lat":43.28588,"lon":5.38356,"is_reserved":false,"is_disabled":false,"rental_uris":{"android":"levelo://app?vid=8cd8286c-2dd8-41ad-b181-1afd615d6e0d","ios":"levelo://app?vid=8cd8286c-2dd8-41ad-b181-1afd615d6e0d"},"vehicle_type_id":"4","last_reported":1767118667,"current_range_meters":7200,"station_id":"","pricing_plan_id":"cebpf4jnsgd1na2vs0mg"},{"bike_id":"d9762eb4-80c1-45bf-addd-29d70c13a5b0","system_id":"levelo_inurba_marseille","lat":43.26961,"lon":5.38625,"is_reserved":false,"is_disabled":false,"rental_uris":{"android":"levelo://app?vid=d9762eb4-80c1-45bf-addd-29d70c13a5b0","ios":"levelo://app?vid=d9762eb4-80c1-45bf-addd-29d70c13a5b0"},"vehicle_type_id":"4","last_reported":1767118667,"current_range_meters":7200,"station_id":"ce4bhh92rcd13ifvqfh0","pricing_plan_id":"cebpf4jnsgd1na2vs0mg"},{"bike_id":"57ee8138-edb1-4fff-b204-8be50a83ac57","system_id":"levelo_inurba_marseille","lat":43.298657,"lon":5.397439,"is_reserved":false,"is_disabled":false,"rental_uris":{"android":"levelo://app?vid=57ee8138-edb1-4fff-b204-8be50a83ac57","ios":"levelo://app?vid=57ee8138-edb1-4fff-b204-8be50a83ac57"},"vehicle_type_id":"4","last_reported":1767118667,"current_range_meters":7200,"station_id":"ce4bh0h2rcd13ifvqd50","pricing_plan_id":"cebpf4jnsgd1na2vs0mg"},{"bike_id":"464569fc-a43a-48ef-b591-1e6b480fbfde","system_id":"levelo_inurba_marseille","lat":43.2448,"lon":5.42535,"is_reserved":false,"is_disabled":true,"rental_uris":{"android":"levelo://app?vid=464569fc-a43a-48ef-b591-1e6b480fbfde","ios":"levelo://app?vid=464569fc-a43a-48ef-b591-1e6b480fbfde"},"vehicle_type_id":"4","last_reported":1767118667,"current_range_meters":7200,"station_id":"st_d4a3vfp97mjs738cd8kg","pricing_plan_id":"cebpf4jnsgd1na2vs0mg"},{"bike_id":"12c38b32-5974-4311-910a-572392b8079a","system_id":"levelo_inurba_marseille","lat":43.280422,"lon":5.350876,"is_reserved":false,"is_disabled":false,"rental_uris":{"android":"levelo://app?vid=12c38b32-5974-4311-910a-572392b8079a","ios":"levelo://app?vid=12c38b32-5974-4311-910a-572392b8079a"},"vehicle_type_id":"4","last_reported":1767118667,"current_range_meters":7200,"station_id":"","pricing_plan_id":"cebpf4jnsgd1na2vs0mg"},{"bike_id":"105bdca2-bccc-4b5d-90f1-489dd3e83567","system_id":"levelo_inurba_marseille","lat":43.29981,"lon":5.37162,"is_reserved":false,"is_disabled":false,"rental_uris":{"android":"levelo://app?vid=105bdca2-bccc-4b5d-90f1-489dd3e83567","ios":"levelo://app?vid=105bdca2-bccc-4b5d-90f1-489dd3e83567"},"vehicle_type_id":"4","last_reported":1767118667,"current_range_meters":7200,"station_id":"ce4bgr92rcd13ifvqc7g","pricing_plan_id":"cebpf4jnsgd1na2vs0mg"},{"bike_id":"5fa42dee-f724-4a24-b424-96092c9301f3","system_id":"levelo_inurba_marseille","lat":43.270663,"lon":5.422754,"is_reserved":false,"is_disabled":false,"rental_uris":{"android":"levelo://app?vid=5fa42dee-f724-4a24-b424-96092c9301f3","ios":"levelo://app?vid=5fa42dee-f724-4a24-b424-96092c9301f3"},"vehicle_type_id":"4","last_reported":1767118667,"current_range_meters":8000,"station_id":"ce4bhk92rcd13ifvqgb0","pricing_plan_id":"cebpf4jnsgd1na2vs0mg"},{"bike_id":"7451e2f1-97cc-4a6a-824e-1c725c74e9d6","system_id":"levelo_inurba_marseille","lat":43.29366,"lon":5.38104,"is_reserved":false,"is_disabled":false,"rental_uris":{"android":"levelo://app?vid=7451e2f1-97cc-4a6a-824e-1c725c74e9d6","ios":"levelo://app?vid=7451e2f1-97cc-4a6a-824e-1c725c74e9d6"},"vehicle_type_id":"4","last_reported":1767118667,"current_range_meters":8000,"station_id":"","pricing_plan_id":"cebpf4jnsgd1na2vs0mg"},{"bike_id":"1dd2c077-d7fa-43b2-a55d-f6335f7bc478","system_id":"levelo_inurba_marseille","lat":43.29686,"lon":5.37288,"is_reserved":false,"is_disabled":false,"rental_uris":{"android":"levelo://app?vid=1dd2c077-d7fa-43b2-a55d-f6335f7bc478","ios":"levelo://app?vid=1dd2c077-d7fa-43b2-a55d-f6335f7bc478"},"vehicle_type_id":"4","last_reported":1767118667,"current_range_meters":8000,"station_id":"ce4bgk12rcd13ifvqbj0","pricing_plan_id":"cebpf4jnsgd1na2vs0mg"},{"bike_id":"3617ef61-dee5-46ae-9d04-e610d6935583","system_id":"levelo_inurba_marseille","lat":43.27942,"lon":5.41044,"is_reserved":false,"is_disabled":false,"rental_uris":{"android":"levelo://app?vid=3617ef61-dee5-46ae-9d04-e610d6935583","ios":"levelo://app?vid=3617ef61-dee5-46ae-9d04-e610d6935583"},"vehicle_type_id":"4","last_reported":1767118667,"current_range_meters":8000,"station_id":"ce4bhnp2rcd13ifvqh0g","pricing_plan_id":"cebpf4jnsgd1na2vs0mg"},{"bike_id":"57a0f5fc-1cad-4b1e-becd-33c70354e491","system_id":"levelo_inurba_marseille","lat":43.27965,"lon":5.38749,"is_reserved":false,"is_disabled":false,"rental_uris":{"android":"levelo://app?vid=57a0f5fc-1cad-4b1e-becd-33c70354e491","ios":"levelo://app?vid=57a0f5fc-1cad-4b1e-becd-33c70354e491"},"vehicle_type_id":"4","last_reported":1767118667,"current_range_meters":8000,"station_id":"ce4bhg12rcd13ifvqf80","pricing_plan_id":"cebpf4jnsgd1na2vs0mg"},{"bike_id":"ba3e3684-a8ca-491d-88c6-cd077d50e519","system_id":"levelo_inurba_marseille","lat":43.281523,"lon":5.426467,"is_reserved":false,"is_disabled":false,"rental_uris":{"android":"levelo://app?vid=ba3e3684-a8ca-491d-88c6-cd077d50e519","ios":"levelo://app?vid=ba3e3684-a8ca-491d-88c6-cd077d50e519"},"vehicle_type_id":"4","last_reported":1767118667,"current_range_meters":8400,"station_id":"ce4bhnh2rcd13ifvqgug","pricing_plan_id":"cebpf4jnsgd1na2vs0mg"},{"bike_id":"1b6f668e-8a35-42f6-ad7f-89dd43d77cea","system_id":"levelo_inurba_marseille","lat":43.335426,"lon":5.374704,"is_reserved":false,"is_disabled":false,"rental_uris":{"android":"levelo://app?vid=1b6f668e-8a35-42f6-ad7f-89dd43d77cea","ios":"levelo://app?vid=1b6f668e-8a35-42f6-ad7f-89dd43d77cea"},"vehicle_type_id":"4","last_reported":1767118667,"current_range_meters":8400,"station_id":"st_d46tts09ee8s73dlu43g","pricing_plan_id":"cebpf4jnsgd1na2vs0mg"},{"bike_id":"2c9af7b8-94f1-444b-a231-bbc441000bb5","system_id":"levelo_inurba_marseille","lat":43.3022,"lon":5.39464,"is_reserved":false,"is_disabled":false,"rental_uris":{"android":"levelo://app?vid=2c9af7b8-94f1-444b-a231-bbc441000bb5","ios":"levelo://app?vid=2c9af7b8-94f1-444b-a231-bbc441000bb5"},"vehicle_type_id":"4","last_reported":1767118667,"current_range_meters":8400,"station_id":"ce4bh0p2rcd13ifvqd70","pricing_plan_id":"cebpf4jnsgd1na2vs0mg"},{"bike_id":"4f2570b4-ee87-4db5-9f70-0f32de7b52f4","system_id":"levelo_inurba_marseille","lat":43.293069,"lon":5.371783,"is_reserved":false,"is_disabled":false,"rental_uris":{"android":"levelo://app?vid=4f2570b4-ee87-4db5-9f70-0f32de7b52f4","ios":"levelo://app?vid=4f2570b4-ee87-4db5-9f70-0f32de7b52f4"},"vehicle_type_id":"4","last_reported":1767118667,"current_range_meters":8400,"station_id":"ce4bgh92rcd13ifvqb40","pricing_plan_id":"cebpf4jnsgd1na2vs0mg"},{"bike_id":"c6b1c510-158d-4d20-b54a-8ee57e5a8ed3","system_id":"levelo_inurba_marseille","lat":43.2944,"lon":5.44251,"is_reserved":false,"is_disabled":false,"rental_uris":{"android":"levelo://app?vid=c6b1c510-158d-4d20-b54a-8ee57e5a8ed3","ios":"levelo://app?vid=c6b1c510-158d-4d20-b54a-8ee57e5a8ed3"},"vehicle_type_id":"4","last_reported":1767118667,"current_range_meters":8400,"station_id":"","pricing_plan_id":"cebpf4jnsgd1na2vs0mg"},{"bike_id":"3129393a-6661-4dee-9f01-623c94670254","system_id":"levelo_inurba_marseille","lat":43.282696,"lon":5.350746,"is_reserved":false,"is_disabled":false,"rental_uris":{"android":"levelo://app?vid=3129393a-6661-4dee-9f01-623c94670254","ios":"levelo://app?vid=3129393a-6661-4dee-9f01-623c94670254"},"vehicle_type_id":"4","last_reported":1767118667,"current_range_meters":8800,"station_id":"ce4bhbp2rcd13ifvqerg","pricing_plan_id":"cebpf4jnsgd1na2vs0mg"},{"bike_id":"7daeda9f-7c61-43ef-b766-198f8e3c22b7","system_id":"levelo_inurba_marseille","lat":43.27208,"lon":5.39184,"is_reserved":false,"is_disabled":false,"rental_uris":{"android":"levelo://app?vid=7daeda9f-7c61-43ef-b766-198f8e3c22b7","ios":"levelo://app?vid=7daeda9f-7c61-43ef-b766-198f8e3c22b7"},"vehicle_type_id":"4","last_reported":1767118667,"current_range_meters":8800,"station_id":"ce4bhhp2rcd13ifvqfm0","pricing_plan_id":"cebpf4jnsgd1na2vs0mg"},{"bike_id":"1f986bde-e823-4547-a8eb-43be952db802","system_id":"levelo_inurba_marseille","lat":43.29442,"lon":5.37288,"is_reserved":false,"is_disabled":false,"rental_uris":{"android":"levelo://app?vid=1f986bde-e823-4547-a8eb-43be952db802","ios":"levelo://app?vid=1f986bde-e823-4547-a8eb-43be952db802"},"vehicle_type_id":"4","last_reported":1767118667,"current_range_meters":8800,"station_id":"","pricing_plan_id":"cebpf4jnsgd1na2vs0mg"},{"bike_id":"0651b2a0-79c7-4ad3-b318-22262f447801","system_id":"levelo_inurba_marseille","lat":43.30549,"lon":5.36707,"is_reserved":false,"is_disabled":false,"rental_uris":{"android":"levelo://app?vid=0651b2a0-79c7-4ad3-b318-22262f447801","ios":"levelo://app?vid=0651b2a0-79c7-4ad3-b318-22262f447801"},"vehicle_type_id":"4","last_reported":1767118667,"current_range_meters":8800,"station_id":"ce4bgrp2rcd13ifvqc9g","pricing_plan_id":"cebpf4jnsgd1na2vs0mg"},{"bike_id":"661e89b3-434d-43f3-a296-81a2270e7071","system_id":"levelo_inurba_marseille","lat":43.28939,"lon":5.39628,"is_reserved":false,"is_disabled":false,"rental_uris":{"android":"levelo://app?vid=661e89b3-434d-43f3-a296-81a2270e7071","ios":"levelo://app?vid=661e89b3-434d-43f3-a296-81a2270e7071"},"vehicle_type_id":"4","last_reported":1767118667,"current_range_meters":8800,"station_id":"ce4bh3h2rcd13ifvqdn0","pricing_plan_id":"cebpf4jnsgd1na2vs0mg"},{"bike_id":"ca602a15-f758-4526-adca-7aea2d9f4b29","system_id":"levelo_inurba_marseille","lat":43.2656,"lon":5.39042,"is_reserved":false,"is_disabled":false,"rental_uris":{"android":"levelo://app?vid=ca602a15-f758-4526-adca-7aea2d9f4b29","ios":"levelo://app?vid=ca602a15-f758-4526-adca-7aea2d9f4b29"},"vehicle_type_id":"4","last_reported":1767118667,"current_range_meters":8800,"station_id":"ce4bhe12rcd13ifvqf30","pricing_plan_id":"cebpf4jnsgd1na2vs0mg"},{"bike_id":"e54d4104-9e89-4bb8-b60e-d3755b992e4f","system_id":"levelo_inurba_marseille","lat":43.285292,"lon":5.440959,"is_reserved":false,"is_disabled":false,"rental_uris":{"android":"levelo://app?vid=e54d4104-9e89-4bb8-b60e-d3755b992e4f","ios":"levelo://app?vid=e54d4104-9e89-4bb8-b60e-d3755b992e4f"},"vehicle_type_id":"4","last_reported":1767118667,"current_range_meters":8800,"station_id":"st_d3j3df2ikq2c7380ej80","pricing_plan_id":"cebpf4jnsgd1na2vs0mg"},{"bike_id":"94ea736e-a900-4ce9-9962-f9bb87ce8e62","system_id":"levelo_inurba_marseille","lat":43.260575,"lon":5.39401,"is_reserved":false,"is_disabled":false,"rental_uris":{"android":"levelo://app?vid=94ea736e-a900-4ce9-9962-f9bb87ce8e62","ios":"levelo://app?vid=94ea736e-a900-4ce9-9962-f9bb87ce8e62"},"vehicle_type_id":"4","last_reported":1767118667,"current_range_meters":9200,"station_id":"ce4bhh92rcd13ifvqfj0","pricing_plan_id":"cebpf4jnsgd1na2vs0mg"},{"bike_id":"2703b803-944c-4f90-b5fc-f9ddd565456b","system_id":"levelo_inurba_marseille","lat":43.27922,"lon":5.39577,"is_reserved":false,"is_disabled":true,"rental_uris":{"android":"levelo://app?vid=2703b803-944c-4f90-b5fc-f9ddd565456b","ios":"levelo://app?vid=2703b803-944c-4f90-b5fc-f9ddd565456b"},"vehicle_type_id":"4","last_reported":1767118667,"current_range_meters":9200,"station_id":"ce4bhf92rcd13ifvqf40","pricing_plan_id":"cebpf4jnsgd1na2vs0mg"},{"bike_id":"b05640fc-cf78-4e6b-bafb-c8aa2abc6f80","system_id":"levelo_inurba_marseille","lat":43.273975,"lon":5.390468,"is_reserved":false,"is_disabled":false,"rental_uris":{"android":"levelo://app?vid=b05640fc-cf78-4e6b-bafb-c8aa2abc6f80","ios":"levelo://app?vid=b05640fc-cf78-4e6b-bafb-c8aa2abc6f80"},"vehicle_type_id":"4","last_reported":1767118667,"current_range_meters":9200,"station_id":"","pricing_plan_id":"cebpf4jnsgd1na2vs0mg"},{"bike_id":"a8c4b968-b36a-4d56-bd52-ea832edb54b4","system_id":"levelo_inurba_marseille","lat":43.292003,"lon":5.357951,"is_reserved":false,"is_disabled":false,"rental_uris":{"android":"levelo://app?vid=a8c4b968-b36a-4d56-bd52-ea832edb54b4","ios":"levelo://app?vid=a8c4b968-b36a-4d56-bd52-ea832edb54b4"},"vehicle_type_id":"4","last_reported":1767118667,"current_range_meters":9200,"station_id":"ce4bhb12rcd13ifvqel0","pricing_plan_id":"cebpf4jnsgd1na2vs0mg"},{"bike_id":"69ec8259-3a99-47f1-898a-67e4d88b4fff","system_id":"levelo_inurba_marseille","lat":43.29882,"lon":5.38899,"is_reserved":false,"is_disabled":false,"rental_uris":{"android":"levelo://app?vid=69ec8259-3a99-47f1-898a-67e4d88b4fff","ios":"levelo://app?vid=69ec8259-3a99-47f1-898a-67e4d88b4fff"},"vehicle_type_id":"4","last_reported":1767118667,"current_range_meters":9200,"station_id":"ce4bh392rcd13ifvqdl0","pricing_plan_id":"cebpf4jnsgd1na2vs0mg"},{"bike_id":"1e1ede53-a142-4b2c-87d9-c1cf1fd66ff4","system_id":"levelo_inurba_marseille","lat":43.3129,"lon":5.38196,"is_reserved":false,"is_disabled":false,"rental_uris":{"android":"levelo://app?vid=1e1ede53-a142-4b2c-87d9-c1cf1fd66ff4","ios":"levelo://app?vid=1e1ede53-a142-4b2c-87d9-c1cf1fd66ff4"},"vehicle_type_id":"4","last_reported":1767118667,"current_range_meters":9200,"station_id":"","pricing_plan_id":"cebpf4jnsgd1na2vs0mg"},{"bike_id":"93f8d8ae-160c-4f40-be3d-f5f587afab30","system_id":"levelo_inurba_marseille","lat":43.30441,"lon":5.38882,"is_reserved":false,"is_disabled":false,"rental_uris":{"android":"levelo://app?vid=93f8d8ae-160c-4f40-be3d-f5f587afab30","ios":"levelo://app?vid=93f8d8ae-160c-4f40-be3d-f5f587afab30"},"vehicle_type_id":"4","last_reported":1767118667,"current_range_meters":9200,"station_id":"ce4bgk12rcd13ifvqbi0","pricing_plan_id":"cebpf4jnsgd1na2vs0mg"},{"bike_id":"a75757bb-b4ad-41f1-9d6d-9a657c8d7c92","system_id":"levelo_inurba_marseille","lat":43.25093,"lon":5.39522,"is_reserved":false,"is_disabled":false,"rental_uris":{"android":"levelo://app?vid=a75757bb-b4ad-41f1-9d6d-9a657c8d7c92","ios":"levelo://app?vid=a75757bb-b4ad-41f1-9d6d-9a657c8d7c92"},"vehicle_type_id":"4","last_reported":1767118667,"current_range_meters":9200,"station_id":"ce4bhm12rcd13ifvqgkg","pricing_plan_id":"cebpf4jnsgd1na2vs0mg"},{"bike_id":"7eb782b3-3bee-42ac-bf4e-6e5356a376eb","system_id":"levelo_inurba_marseille","lat":43.2862,"lon":5.351,"is_reserved":false,"is_disabled":false,"rental_uris":{"android":"levelo://app?vid=7eb782b3-3bee-42ac-bf4e-6e5356a376eb","ios":"levelo://app?vid=7eb782b3-3bee-42ac-bf4e-6e5356a376eb"},"vehicle_type_id":"4","last_reported":1767118667,"current_range_meters":9600,"station_id":"ce4bhch2rcd13ifvqeug","pricing_plan_id":"cebpf4jnsgd1na2vs0mg"},{"bike_id":"ead416e4-7a96-4d00-8992-cdf1d0154b3d","system_id":"levelo_inurba_marseille","lat":43.31711,"lon":5.43705,"is_reserved":false,"is_disabled":false,"rental_uris":{"android":"levelo://app?vid=ead416e4-7a96-4d00-8992-cdf1d0154b3d","ios":"levelo://app?vid=ead416e4-7a96-4d00-8992-cdf1d0154b3d"},"vehicle_type_id":"4","last_reported":1767118667,"current_range_meters":9600,"station_id":"ce4bhp92rcd13ifvqhcg","pricing_plan_id":"cebpf4jnsgd1na2vs0mg"},{"bike_id":"23904288-d8db-496e-ac4f-fe2e23c85d61","system_id":"levelo_inurba_marseille","lat":43.299484,"lon":5.376076,"is_reserved":false,"is_disabled":false,"rental_uris":{"android":"levelo://app?vid=23904288-d8db-496e-ac4f-fe2e23c85d61","ios":"levelo://app?vid=23904288-d8db-496e-ac4f-fe2e23c85d61"},"vehicle_type_id":"4","last_reported":1767118667,"current_range_meters":9600,"station_id":"","pricing_plan_id":"cebpf4jnsgd1na2vs0mg"},{"bike_id":"bbc605db-44fb-4b4e-8234-b94b2d58f09f","system_id":"levelo_inurba_marseille","lat":43.29502,"lon":5.43297,"is_reserved":false,"is_disabled":false,"rental_uris":{"android":"levelo://app?vid=bbc605db-44fb-4b4e-8234-b94b2d58f09f","ios":"levelo://app?vid=bbc605db-44fb-4b4e-8234-b94b2d58f09f"},"vehicle_type_id":"4","last_reported":1767118667,"current_range_meters":9600,"station_id":"st_d3j5ugp08ojc73fj9d10","pricing_plan_id":"cebpf4jnsgd1na2vs0mg"},{"bike_id":"a0bf0471-4956-40cb-809b-9570fd9ecd6e","system_id":"levelo_inurba_marseille","lat":43.24463,"lon":5.42547,"is_reserved":false,"is_disabled":false,"rental_uris":{"android":"levelo://app?vid=a0bf0471-4956-40cb-809b-9570fd9ecd6e","ios":"levelo://app?vid=a0bf0471-4956-40cb-809b-9570fd9ecd6e"},"vehicle_type_id":"4","last_reported":1767118667,"current_range_meters":9600,"station_id":"st_d4a3vfp97mjs738cd8kg","pricing_plan_id":"cebpf4jnsgd1na2vs0mg"},{"bike_id":"3400d737-a32e-4dca-a00a-47ca201c9735","system_id":"levelo_inurba_marseille","lat":43.29547,"lon":5.42275,"is_reserved":false,"is_disabled":true,"rental_uris":{"android":"levelo://app?vid=3400d737-a32e-4dca-a00a-47ca201c9735","ios":"levelo://app?vid=3400d737-a32e-4dca-a00a-47ca201c9735"},"vehicle_type_id":"4","last_reported":1767118667,"current_range_meters":9600,"station_id":"ce4bhph2rcd13ifvqhdg","pricing_plan_id":"cebpf4jnsgd1na2vs0mg"},{"bike_id":"df59638d-d2ce-46c9-8792-19c18967ee40","system_id":"levelo_inurba_marseille","lat":43.23787,"lon":5.36624,"is_reserved":false,"is_disabled":false,"rental_uris":{"android":"levelo://app?vid=df59638d-d2ce-46c9-8792-19c18967ee40","ios":"levelo://app?vid=df59638d-d2ce-46c9-8792-19c18967ee40"},"vehicle_type_id":"4","last_reported":1767118667,"current_range_meters":10000,"station_id":"st_d3nk18o9ro0c73en2l3g","pricing_plan_id":"cebpf4jnsgd1na2vs0mg"},{"bike_id":"cef1e9ff-729e-4e8c-99e8-f31f55abe064","system_id":"levelo_inurba_marseille","lat":43.28845,"lon":5.3585,"is_reserved":false,"is_disabled":false,"rental_uris":{"android":"levelo://app?vid=cef1e9ff-729e-4e8c-99e8-f31f55abe064","ios":"levelo://app?vid=cef1e9ff-729e-4e8c-99e8-f31f55abe064"},"vehicle_type_id":"4","last_reported":1767118667,"current_range_meters":10000,"station_id":"ce4bhb12rcd13ifvqem0","pricing_plan_id":"cebpf4jnsgd1na2vs0mg"},{"bike_id":"99845526-4044-4e14-9d82-95d6704a08b7","system_id":"levelo_inurba_marseille","lat":43.293181,"lon":5.371769,"is_reserved":false,"is_disabled":false,"rental_uris":{"android":"levelo://app?vid=99845526-4044-4e14-9d82-95d6704a08b7","ios":"levelo://app?vid=99845526-4044-4e14-9d82-95d6704a08b7"},"vehicle_type_id":"4","last_reported":1767118667,"current_range_meters":10000,"station_id":"ce4bgh92rcd13ifvqb40","pricing_plan_id":"cebpf4jnsgd1na2vs0mg"},{"bike_id":"69d122c0-65d8-4eb9-848a-b1ed4f596d76","system_id":"levelo_inurba_marseille","lat":43.27179,"lon":5.40993,"is_reserved":false,"is_disabled":false,"rental_uris":{"android":"levelo://app?vid=69d122c0-65d8-4eb9-848a-b1ed4f596d76","ios":"levelo://app?vid=69d122c0-65d8-4eb9-848a-b1ed4f596d76"},"vehicle_type_id":"4","last_reported":1767118667,"current_range_meters":10000,"station_id":"ce4bhl12rcd13ifvqgf0","pricing_plan_id":"cebpf4jnsgd1na2vs0mg"},{"bike_id":"c91ac6fb-8af2-4c76-bc7b-f9b59038cbbd","system_id":"levelo_inurba_marseille","lat":43.29854,"lon":5.36261,"is_reserved":false,"is_disabled":false,"rental_uris":{"android":"levelo://app?vid=c91ac6fb-8af2-4c76-bc7b-f9b59038cbbd","ios":"levelo://app?vid=c91ac6fb-8af2-4c76-bc7b-f9b59038cbbd"},"vehicle_type_id":"4","last_reported":1767118667,"current_range_meters":10000,"station_id":"ce4bgpp2rcd13ifvqc3g","pricing_plan_id":"cebpf4jnsgd1na2vs0mg"},{"bike_id":"d3b9e379-e0f1-4e3a-a03f-5f89a403ad58","system_id":"levelo_inurba_marseille","lat":43.32342,"lon":5.36737,"is_reserved":false,"is_disabled":false,"rental_uris":{"android":"levelo://app?vid=d3b9e379-e0f1-4e3a-a03f-5f89a403ad58","ios":"levelo://app?vid=d3b9e379-e0f1-4e3a-a03f-5f89a403ad58"},"vehicle_type_id":"4","last_reported":1767118667,"current_range_meters":10000,"station_id":"ce4bhsh2rcd13ifvqi2g","pricing_plan_id":"cebpf4jnsgd1na2vs0mg"},{"bike_id":"fb4550ef-33c5-449f-98de-f6a4c30f06d5","system_id":"levelo_inurba_marseille","lat":43.29576,"lon":5.37509,"is_reserved":false,"is_disabled":false,"rental_uris":{"android":"levelo://app?vid=fb4550ef-33c5-449f-98de-f6a4c30f06d5","ios":"levelo://app?vid=fb4550ef-33c5-449f-98de-f6a4c30f06d5"},"vehicle_type_id":"4","last_reported":1767118667,"current_range_meters":10000,"station_id":"ce4bgh92rcd13ifvqb50","pricing_plan_id":"cebpf4jnsgd1na2vs0mg"},{"bike_id":"43d1b94c-9009-4ba5-9921-9ac51da1b977","system_id":"levelo_inurba_marseille","lat":43.28063,"lon":5.396067,"is_reserved":false,"is_disabled":false,"rental_uris":{"android":"levelo://app?vid=43d1b94c-9009-4ba5-9921-9ac51da1b977","ios":"levelo://app?vid=43d1b94c-9009-4ba5-9921-9ac51da1b977"},"vehicle_type_id":"4","last_reported":1767118667,"current_range_meters":10000,"station_id":"ce4bho12rcd13ifvqh2g","pricing_plan_id":"cebpf4jnsgd1na2vs0mg"},{"bike_id":"72440ca5-59c8-46a3-b913-8b5d8a857de3","system_id":"levelo_inurba_marseille","lat":43.28711,"lon":5.37943,"is_reserved":false,"is_disabled":false,"rental_uris":{"android":"levelo://app?vid=72440ca5-59c8-46a3-b913-8b5d8a857de3","ios":"levelo://app?vid=72440ca5-59c8-46a3-b913-8b5d8a857de3"},"vehicle_type_id":"4","last_reported":1767118667,"current_range_meters":10800,"station_id":"ce4bh9p2rcd13ifvqec0","pricing_plan_id":"cebpf4jnsgd1na2vs0mg"},{"bike_id":"5dde099c-1129-4744-a8f1-032225d655e9","system_id":"levelo_inurba_marseille","lat":43.30133,"lon":5.38783,"is_reserved":false,"is_disabled":false,"rental_uris":{"android":"levelo://app?vid=5dde099c-1129-4744-a8f1-032225d655e9","ios":"levelo://app?vid=5dde099c-1129-4744-a8f1-032225d655e9"},"vehicle_type_id":"4","last_reported":1767118667,"current_range_meters":10800,"station_id":"ce4bghh2rcd13ifvqb60","pricing_plan_id":"cebpf4jnsgd1na2vs0mg"},{"bike_id":"e9238d50-28e4-459e-b248-dc46bccd3e6d","system_id":"levelo_inurba_marseille","lat":43.31238,"lon":5.36892,"is_reserved":false,"is_disabled":false,"rental_uris":{"android":"levelo://app?vid=e9238d50-28e4-459e-b248-dc46bccd3e6d","ios":"levelo://app?vid=e9238d50-28e4-459e-b248-dc46bccd3e6d"},"vehicle_type_id":"4","last_reported":1767118667,"current_range_meters":10800,"station_id":"ce4bgl92rcd13ifvqbq0","pricing_plan_id":"cebpf4jnsgd1na2vs0mg"},{"bike_id":"68f0d86a-8e17-46b1-9c4f-94728196fa18","system_id":"levelo_inurba_marseille","lat":43.3171,"lon":5.40425,"is_reserved":false,"is_disabled":false,"rental_uris":{"android":"levelo://app?vid=68f0d86a-8e17-46b1-9c4f-94728196fa18","ios":"levelo://app?vid=68f0d86a-8e17-46b1-9c4f-94728196fa18"},"vehicle_type_id":"4","last_reported":1767118667,"current_range_meters":10800,"station_id":"ce4bh012rcd13ifvqd00","pricing_plan_id":"cebpf4jnsgd1na2vs0mg"},{"bike_id":"1143eabc-e91b-41a6-8eaf-ee9abccf572b","system_id":"levelo_inurba_marseille","lat":43.31418,"lon":5.37496,"is_reserved":false,"is_disabled":false,"rental_uris":{"android":"levelo://app?vid=1143eabc-e91b-41a6-8eaf-ee9abccf572b","ios":"levelo://app?vid=1143eabc-e91b-41a6-8eaf-ee9abccf572b"},"vehicle_type_id":"4","last_reported":1767118667,"current_range_meters":10800,"station_id":"","pricing_plan_id":"cebpf4jnsgd1na2vs0mg"},{"bike_id":"fd730288-95bc-4682-8dc4-a5ea5fa11f2b","system_id":"levelo_inurba_marseille","lat":43.325478,"lon":5.414383,"is_reserved":false,"is_disabled":false,"rental_uris":{"android":"levelo://app?vid=fd730288-95bc-4682-8dc4-a5ea5fa11f2b","ios":"levelo://app?vid=fd730288-95bc-4682-8dc4-a5ea5fa11f2b"},"vehicle_type_id":"4","last_reported":1767118667,"current_range_meters":10800,"station_id":"ce4bhq12rcd13ifvqhhg","pricing_plan_id":"cebpf4jnsgd1na2vs0mg"},{"bike_id":"37d20260-50bb-4984-9bc1-61b8e1b060fe","system_id":"levelo_inurba_marseille","lat":43.302144,"lon":5.394607,"is_reserved":false,"is_disabled":false,"rental_uris":{"android":"levelo://app?vid=37d20260-50bb-4984-9bc1-61b8e1b060fe","ios":"levelo://app?vid=37d20260-50bb-4984-9bc1-61b8e1b060fe"},"vehicle_type_id":"4","last_reported":1767118667,"current_range_meters":10800,"station_id":"","pricing_plan_id":"cebpf4jnsgd1na2vs0mg"},{"bike_id":"742f1e99-972a-4415-9c07-2696da1383a1","system_id":"levelo_inurba_marseille","lat":43.29646,"lon":5.40587,"is_reserved":false,"is_disabled":false,"rental_uris":{"android":"levelo://app?vid=742f1e99-972a-4415-9c07-2696da1383a1","ios":"levelo://app?vid=742f1e99-972a-4415-9c07-2696da1383a1"},"vehicle_type_id":"4","last_reported":1767118667,"current_range_meters":11200,"station_id":"","pricing_plan_id":"cebpf4jnsgd1na2vs0mg"},{"bike_id":"dce28840-1b59-4930-917a-12d88071d00f","system_id":"levelo_inurba_marseille","lat":43.28551,"lon":5.44103,"is_reserved":false,"is_disabled":false,"rental_uris":{"android":"levelo://app?vid=dce28840-1b59-4930-917a-12d88071d00f","ios":"levelo://app?vid=dce28840-1b59-4930-917a-12d88071d00f"},"vehicle_type_id":"4","last_reported":1767118667,"current_range_meters":11200,"station_id":"st_d3j3df2ikq2c7380ej80","pricing_plan_id":"cebpf4jnsgd1na2vs0mg"},{"bike_id":"d4834f7c-8cec-4643-b38e-33ed31e9b71c","system_id":"levelo_inurba_marseille","lat":43.29563,"lon":5.37867,"is_reserved":false,"is_disabled":false,"rental_uris":{"android":"levelo://app?vid=d4834f7c-8cec-4643-b38e-33ed31e9b71c","ios":"levelo://app?vid=d4834f7c-8cec-4643-b38e-33ed31e9b71c"},"vehicle_type_id":"4","last_reported":1767118667,"current_range_meters":11200,"station_id":"","pricing_plan_id":"cebpf4jnsgd1na2vs0mg"},{"bike_id":"246e84fb-1afd-498f-b855-009b4b2e82cd","system_id":"levelo_inurba_marseille","lat":43.304425,"lon":5.412591,"is_reserved":false,"is_disabled":false,"rental_uris":{"android":"levelo://app?vid=246e84fb-1afd-498f-b855-009b4b2e82cd","ios":"levelo://app?vid=246e84fb-1afd-498f-b855-009b4b2e82cd"},"vehicle_type_id":"4","last_reported":1767118667,"current_range_meters":11200,"station_id":"ce4bhop2rcd13ifvqh8g","pricing_plan_id":"cebpf4jnsgd1na2vs0mg"},{"bike_id":"ed1c37f2-0911-4828-9196-04fcbe35f622","system_id":"levelo_inurba_marseille","lat":43.29569,"lon":5.37515,"is_reserved":false,"is_disabled":false,"rental_uris":{"android":"levelo://app?vid=ed1c37f2-0911-4828-9196-04fcbe35f622","ios":"levelo://app?vid=ed1c37f2-0911-4828-9196-04fcbe35f622"},"vehicle_type_id":"4","last_reported":1767118667,"current_range_meters":11200,"station_id":"ce4bgh92rcd13ifvqb50","pricing_plan_id":"cebpf4jnsgd1na2vs0mg"},{"bike_id":"13c6f779-0fa7-435d-8f91-e79ded009d19","system_id":"levelo_inurba_marseille","lat":43.29292,"lon":5.36844,"is_reserved":false,"is_disabled":false,"rental_uris":{"android":"levelo://app?vid=13c6f779-0fa7-435d-8f91-e79ded009d19","ios":"levelo://app?vid=13c6f779-0fa7-435d-8f91-e79ded009d19"},"vehicle_type_id":"4","last_reported":1767118667,"current_range_meters":11200,"station_id":"ce4bhbp2rcd13ifvqesg","pricing_plan_id":"cebpf4jnsgd1na2vs0mg"},{"bike_id":"ec5fae6d-47b5-4030-bf64-4af050af9ecb","system_id":"levelo_inurba_marseille","lat":43.30927,"lon":5.37787,"is_reserved":false,"is_disabled":false,"rental_uris":{"android":"levelo://app?vid=ec5fae6d-47b5-4030-bf64-4af050af9ecb","ios":"levelo://app?vid=ec5fae6d-47b5-4030-bf64-4af050af9ecb"},"vehicle_type_id":"4","last_reported":1767118667,"current_range_meters":11200,"station_id":"","pricing_plan_id":"cebpf4jnsgd1na2vs0mg"},{"bike_id":"ef7c300f-026c-4b02-8b75-5e5de9a9946e","system_id":"levelo_inurba_marseille","lat":43.29921,"lon":5.37467,"is_reserved":false,"is_disabled":false,"rental_uris":{"android":"levelo://app?vid=ef7c300f-026c-4b02-8b75-5e5de9a9946e","ios":"levelo://app?vid=ef7c300f-026c-4b02-8b75-5e5de9a9946e"},"vehicle_type_id":"4","last_reported":1767118667,"current_range_meters":11200,"station_id":"ce4bgjh2rcd13ifvqbg0","pricing_plan_id":"cebpf4jnsgd1na2vs0mg"},{"bike_id":"3454ec3c-f1d0-4cd8-b3c8-a40b430cdf61","system_id":"levelo_inurba_marseille","lat":43.29531,"lon":5.37488,"is_reserved":false,"is_disabled":false,"rental_uris":{"android":"levelo://app?vid=3454ec3c-f1d0-4cd8-b3c8-a40b430cdf61","ios":"levelo://app?vid=3454ec3c-f1d0-4cd8-b3c8-a40b430cdf61"},"vehicle_type_id":"4","last_reported":1767118667,"current_range_meters":11200,"station_id":"ce4bgkp2rcd13ifvqbmg","pricing_plan_id":"cebpf4jnsgd1na2vs0mg"},{"bike_id":"4eb0e532-1f33-4eb8-b26f-08fcc0323f18","system_id":"levelo_inurba_marseille","lat":43.28,"lon":5.41668,"is_reserved":false,"is_disabled":false,"rental_uris":{"android":"levelo://app?vid=4eb0e532-1f33-4eb8-b26f-08fcc0323f18","ios":"levelo://app?vid=4eb0e532-1f33-4eb8-b26f-08fcc0323f18"},"vehicle_type_id":"4","last_reported":1767118667,"current_range_meters":11200,"station_id":"ce4bho12rcd13ifvqh1g","pricing_plan_id":"cebpf4jnsgd1na2vs0mg"},{"bike_id":"c91e75dd-4b7b-466f-b093-9f0730704849","system_id":"levelo_inurba_marseille","lat":43.2996,"lon":5.38524,"is_reserved":false,"is_disabled":false,"rental_uris":{"android":"levelo://app?vid=c91e75dd-4b7b-466f-b093-9f0730704849","ios":"levelo://app?vid=c91e75dd-4b7b-466f-b093-9f0730704849"},"vehicle_type_id":"4","last_reported":1767118667,"current_range_meters":11200,"station_id":"ce4bgj92rcd13ifvqbd0","pricing_plan_id":"cebpf4jnsgd1na2vs0mg"},{"bike_id":"ccec8baf-8de3-4f76-b969-55b0b35b8975","system_id":"levelo_inurba_marseille","lat":43.29622,"lon":5.37153,"is_reserved":false,"is_disabled":false,"rental_uris":{"android":"levelo://app?vid=ccec8baf-8de3-4f76-b969-55b0b35b8975","ios":"levelo://app?vid=ccec8baf-8de3-4f76-b969-55b0b35b8975"},"vehicle_type_id":"4","last_reported":1767118667,"current_range_meters":11200,"station_id":"ce4bgnh2rcd13ifvqc0g","pricing_plan_id":"cebpf4jnsgd1na2vs0mg"},{"bike_id":"dacc1bc0-eec9-4219-9225-c37f13cfc222","system_id":"levelo_inurba_marseille","lat":43.285283,"lon":5.441029,"is_reserved":false,"is_disabled":false,"rental_uris":{"android":"levelo://app?vid=dacc1bc0-eec9-4219-9225-c37f13cfc222","ios":"levelo://app?vid=dacc1bc0-eec9-4219-9225-c37f13cfc222"},"vehicle_type_id":"4","last_reported":1767118667,"current_range_meters":11200,"station_id":"st_d3j3df2ikq2c7380ej80","pricing_plan_id":"cebpf4jnsgd1na2vs0mg"},{"bike_id":"42cb129a-fab6-4abc-bef3-23a2b710dec9","system_id":"levelo_inurba_marseille","lat":43.28851,"lon":5.3586,"is_reserved":false,"is_disabled":false,"rental_uris":{"android":"levelo://app?vid=42cb129a-fab6-4abc-bef3-23a2b710dec9","ios":"levelo://app?vid=42cb129a-fab6-4abc-bef3-23a2b710dec9"},"vehicle_type_id":"4","last_reported":1767118667,"current_range_meters":11600,"station_id":"ce4bhb12rcd13ifvqem0","pricing_plan_id":"cebpf4jnsgd1na2vs0mg"},{"bike_id":"8f5173a3-6812-4fbe-a360-e211ba049ead","system_id":"levelo_inurba_marseille","lat":43.29573,"lon":5.39968,"is_reserved":false,"is_disabled":false,"rental_uris":{"android":"levelo://app?vid=8f5173a3-6812-4fbe-a360-e211ba049ead","ios":"levelo://app?vid=8f5173a3-6812-4fbe-a360-e211ba049ead"},"vehicle_type_id":"4","last_reported":1767118667,"current_range_meters":11600,"station_id":"ce4bh312rcd13ifvqdj0","pricing_plan_id":"cebpf4jnsgd1na2vs0mg"},{"bike_id":"0f0fc6ed-82de-439d-993e-666cb650fe34","system_id":"levelo_inurba_marseille","lat":43.2378,"lon":5.36628,"is_reserved":false,"is_disabled":false,"rental_uris":{"android":"levelo://app?vid=0f0fc6ed-82de-439d-993e-666cb650fe34","ios":"levelo://app?vid=0f0fc6ed-82de-439d-993e-666cb650fe34"},"vehicle_type_id":"4","last_reported":1767118667,"current_range_meters":11600,"station_id":"st_d3nk18o9ro0c73en2l3g","pricing_plan_id":"cebpf4jnsgd1na2vs0mg"},{"bike_id":"6dd6d7de-0746-4ddc-be8f-e1ab3378009e","system_id":"levelo_inurba_marseille","lat":43.2417,"lon":5.36391,"is_reserved":false,"is_disabled":false,"rental_uris":{"android":"levelo://app?vid=6dd6d7de-0746-4ddc-be8f-e1ab3378009e","ios":"levelo://app?vid=6dd6d7de-0746-4ddc-be8f-e1ab3378009e"},"vehicle_type_id":"4","last_reported":1767118667,"current_range_meters":11600,"station_id":"cpo36qri1sfpv3e86is0","pricing_plan_id":"cebpf4jnsgd1na2vs0mg"},{"bike_id":"3ae180a1-ad81-4fbd-8d8e-5122c1af76f4","system_id":"levelo_inurba_marseille","lat":43.337444,"lon":5.374475,"is_reserved":false,"is_disabled":false,"rental_uris":{"android":"levelo://app?vid=3ae180a1-ad81-4fbd-8d8e-5122c1af76f4","ios":"levelo://app?vid=3ae180a1-ad81-4fbd-8d8e-5122c1af76f4"},"vehicle_type_id":"4","last_reported":1767118667,"current_range_meters":11600,"station_id":"","pricing_plan_id":"cebpf4jnsgd1na2vs0mg"},{"bike_id":"0035a49f-c924-43b0-93d3-43f42dc9e160","system_id":"levelo_inurba_marseille","lat":43.28481,"lon":5.38396,"is_reserved":false,"is_disabled":false,"rental_uris":{"android":"levelo://app?vid=0035a49f-c924-43b0-93d3-43f42dc9e160","ios":"levelo://app?vid=0035a49f-c924-43b0-93d3-43f42dc9e160"},"vehicle_type_id":"4","last_reported":1767118667,"current_range_meters":11600,"station_id":"ce4bh512rcd13ifvqe3g","pricing_plan_id":"cebpf4jnsgd1na2vs0mg"},{"bike_id":"2dff8587-48e0-4416-89ff-81e5782bfef7","system_id":"levelo_inurba_marseille","lat":43.23063,"lon":5.3549,"is_reserved":false,"is_disabled":false,"rental_uris":{"android":"levelo://app?vid=2dff8587-48e0-4416-89ff-81e5782bfef7","ios":"levelo://app?vid=2dff8587-48e0-4416-89ff-81e5782bfef7"},"vehicle_type_id":"4","last_reported":1767118667,"current_range_meters":11600,"station_id":"cpo3342slgdg3j2ifvpg","pricing_plan_id":"cebpf4jnsgd1na2vs0mg"},{"bike_id":"a9454464-be4c-4602-9f5f-8ed9bc336d4d","system_id":"levelo_inurba_marseille","lat":43.308816,"lon":5.396471,"is_reserved":false,"is_disabled":false,"rental_uris":{"android":"levelo://app?vid=a9454464-be4c-4602-9f5f-8ed9bc336d4d","ios":"levelo://app?vid=a9454464-be4c-4602-9f5f-8ed9bc336d4d"},"vehicle_type_id":"4","last_reported":1767118667,"current_range_meters":11600,"station_id":"ce4bh012rcd13ifvqcv0","pricing_plan_id":"cebpf4jnsgd1na2vs0mg"},{"bike_id":"3c30c244-586b-43b8-9083-e99efc295565","system_id":"levelo_inurba_marseille","lat":43.30645,"lon":5.40088,"is_reserved":false,"is_disabled":false,"rental_uris":{"android":"levelo://app?vid=3c30c244-586b-43b8-9083-e99efc295565","ios":"levelo://app?vid=3c30c244-586b-43b8-9083-e99efc295565"},"vehicle_type_id":"4","last_reported":1767118667,"current_range_meters":11600,"station_id":"ce4bh112rcd13ifvqda0","pricing_plan_id":"cebpf4jnsgd1na2vs0mg"},{"bike_id":"5408588f-d4fc-4d62-a635-9d0edfd602ca","system_id":"levelo_inurba_marseille","lat":43.2951,"lon":5.42482,"is_reserved":false,"is_disabled":false,"rental_uris":{"android":"levelo://app?vid=5408588f-d4fc-4d62-a635-9d0edfd602ca","ios":"levelo://app?vid=5408588f-d4fc-4d62-a635-9d0edfd602ca"},"vehicle_type_id":"4","last_reported":1767118667,"current_range_meters":11600,"station_id":"","pricing_plan_id":"cebpf4jnsgd1na2vs0mg"},{"bike_id":"26aaa4c3-ca27-43bc-a11f-345371d00b8a","system_id":"levelo_inurba_marseille","lat":43.28693,"lon":5.37386,"is_reserved":false,"is_disabled":true,"rental_uris":{"android":"levelo://app?vid=26aaa4c3-ca27-43bc-a11f-345371d00b8a","ios":"levelo://app?vid=26aaa4c3-ca27-43bc-a11f-345371d00b8a"},"vehicle_type_id":"4","last_reported":1767118667,"current_range_meters":11600,"station_id":"ce4bh3p2rcd13ifvqdq0","pricing_plan_id":"cebpf4jnsgd1na2vs0mg"},{"bike_id":"02d231a8-a3d9-4983-bf6f-2028522460c3","system_id":"levelo_inurba_marseille","lat":43.29533,"lon":5.38551,"is_reserved":false,"is_disabled":false,"rental_uris":{"android":"levelo://app?vid=02d231a8-a3d9-4983-bf6f-2028522460c3","ios":"levelo://app?vid=02d231a8-a3d9-4983-bf6f-2028522460c3"},"vehicle_type_id":"4","last_reported":1767118667,"current_range_meters":11600,"station_id":"ce4bgih2rcd13ifvqba0","pricing_plan_id":"cebpf4jnsgd1na2vs0mg"},{"bike_id":"fb08e76d-b247-46f4-b590-62b2a27f82ce","system_id":"levelo_inurba_marseille","lat":43.29295,"lon":5.36812,"is_reserved":false,"is_disabled":false,"rental_uris":{"android":"levelo://app?vid=fb08e76d-b247-46f4-b590-62b2a27f82ce","ios":"levelo://app?vid=fb08e76d-b247-46f4-b590-62b2a27f82ce"},"vehicle_type_id":"4","last_reported":1767118667,"current_range_meters":11600,"station_id":"ce4bhbp2rcd13ifvqesg","pricing_plan_id":"cebpf4jnsgd1na2vs0mg"},{"bike_id":"477118ee-31ca-4451-be63-a38d90de2019","system_id":"levelo_inurba_marseille","lat":43.29976,"lon":5.37199,"is_reserved":false,"is_disabled":false,"rental_uris":{"android":"levelo://app?vid=477118ee-31ca-4451-be63-a38d90de2019","ios":"levelo://app?vid=477118ee-31ca-4451-be63-a38d90de2019"},"vehicle_type_id":"4","last_reported":1767118667,"current_range_meters":12000,"station_id":"ce4bgr92rcd13ifvqc7g","pricing_plan_id":"cebpf4jnsgd1na2vs0mg"},{"bike_id":"970f6c1d-f464-4249-baad-9d8636c41627","system_id":"levelo_inurba_marseille","lat":43.29182,"lon":5.37504,"is_reserved":false,"is_disabled":false,"rental_uris":{"android":"levelo://app?vid=970f6c1d-f464-4249-baad-9d8636c41627","ios":"levelo://app?vid=970f6c1d-f464-4249-baad-9d8636c41627"},"vehicle_type_id":"4","last_reported":1767118667,"current_range_meters":12000,"station_id":"","pricing_plan_id":"cebpf4jnsgd1na2vs0mg"},{"bike_id":"f79561d9-a9e3-4480-bd30-e533c5f19aef","system_id":"levelo_inurba_marseille","lat":43.30782,"lon":5.37647,"is_reserved":false,"is_disabled":false,"rental_uris":{"android":"levelo://app?vid=f79561d9-a9e3-4480-bd30-e533c5f19aef","ios":"levelo://app?vid=f79561d9-a9e3-4480-bd30-e533c5f19aef"},"vehicle_type_id":"4","last_reported":1767118667,"current_range_meters":12000,"station_id":"ce4bgv92rcd13ifvqcq0","pricing_plan_id":"cebpf4jnsgd1na2vs0mg"},{"bike_id":"cc131a80-9b37-4987-b05d-c10c063fc64a","system_id":"levelo_inurba_marseille","lat":43.29489,"lon":5.4331,"is_reserved":false,"is_disabled":false,"rental_uris":{"android":"levelo://app?vid=cc131a80-9b37-4987-b05d-c10c063fc64a","ios":"levelo://app?vid=cc131a80-9b37-4987-b05d-c10c063fc64a"},"vehicle_type_id":"4","last_reported":1767118667,"current_range_meters":12000,"station_id":"st_d3j5ugp08ojc73fj9d10","pricing_plan_id":"cebpf4jnsgd1na2vs0mg"},{"bike_id":"078e302f-16bb-4bbb-876d-2f82cfb35608","system_id":"levelo_inurba_marseille","lat":43.28741,"lon":5.37963,"is_reserved":false,"is_disabled":false,"rental_uris":{"android":"levelo://app?vid=078e302f-16bb-4bbb-876d-2f82cfb35608","ios":"levelo://app?vid=078e302f-16bb-4bbb-876d-2f82cfb35608"},"vehicle_type_id":"4","last_reported":1767118667,"current_range_meters":12000,"station_id":"ce4bh9p2rcd13ifvqec0","pricing_plan_id":"cebpf4jnsgd1na2vs0mg"},{"bike_id":"7c20e148-2a07-439c-8007-95ff3dd732b8","system_id":"levelo_inurba_marseille","lat":43.211948,"lon":5.350721,"is_reserved":false,"is_disabled":false,"rental_uris":{"android":"levelo://app?vid=7c20e148-2a07-439c-8007-95ff3dd732b8","ios":"levelo://app?vid=7c20e148-2a07-439c-8007-95ff3dd732b8"},"vehicle_type_id":"4","last_reported":1767118667,"current_range_meters":12000,"station_id":"st_cvj6sg6p6f1abm77japg","pricing_plan_id":"cebpf4jnsgd1na2vs0mg"},{"bike_id":"2ee947da-a9a7-48e2-befd-175fbfa8b6cb","system_id":"levelo_inurba_marseille","lat":43.33019,"lon":5.39015,"is_reserved":false,"is_disabled":false,"rental_uris":{"android":"levelo://app?vid=2ee947da-a9a7-48e2-befd-175fbfa8b6cb","ios":"levelo://app?vid=2ee947da-a9a7-48e2-befd-175fbfa8b6cb"},"vehicle_type_id":"4","last_reported":1767118667,"current_range_meters":12000,"station_id":"ce4bhr92rcd13ifvqhrg","pricing_plan_id":"cebpf4jnsgd1na2vs0mg"},{"bike_id":"7b9cc5e2-c8c2-42ba-8743-c6c87a727103","system_id":"levelo_inurba_marseille","lat":43.26222,"lon":5.40444,"is_reserved":false,"is_disabled":false,"rental_uris":{"android":"levelo://app?vid=7b9cc5e2-c8c2-42ba-8743-c6c87a727103","ios":"levelo://app?vid=7b9cc5e2-c8c2-42ba-8743-c6c87a727103"},"vehicle_type_id":"4","last_reported":1767118667,"current_range_meters":12000,"station_id":"ce4bhmh2rcd13ifvqgmg","pricing_plan_id":"cebpf4jnsgd1na2vs0mg"},{"bike_id":"7b25e2fa-8d38-4290-b465-6167e32e63ae","system_id":"levelo_inurba_marseille","lat":43.30557,"lon":5.38411,"is_reserved":false,"is_disabled":false,"rental_uris":{"android":"levelo://app?vid=7b25e2fa-8d38-4290-b465-6167e32e63ae","ios":"levelo://app?vid=7b25e2fa-8d38-4290-b465-6167e32e63ae"},"vehicle_type_id":"4","last_reported":1767118667,"current_range_meters":12000,"station_id":"ce4bgg92rcd13ifvqb30","pricing_plan_id":"cebpf4jnsgd1na2vs0mg"},{"bike_id":"ca012f14-82a3-4060-8da0-098244b0df8d","system_id":"levelo_inurba_marseille","lat":43.30032,"lon":5.38902,"is_reserved":false,"is_disabled":false,"rental_uris":{"android":"levelo://app?vid=ca012f14-82a3-4060-8da0-098244b0df8d","ios":"levelo://app?vid=ca012f14-82a3-4060-8da0-098244b0df8d"},"vehicle_type_id":"4","last_reported":1767118667,"current_range_meters":12000,"station_id":"","pricing_plan_id":"cebpf4jnsgd1na2vs0mg"},{"bike_id":"f9defe05-4ff2-4d1f-b650-c0894d9ee537","system_id":"levelo_inurba_marseille","lat":43.28525,"lon":5.44112,"is_reserved":false,"is_disabled":false,"rental_uris":{"android":"levelo://app?vid=f9defe05-4ff2-4d1f-b650-c0894d9ee537","ios":"levelo://app?vid=f9defe05-4ff2-4d1f-b650-c0894d9ee537"},"vehicle_type_id":"4","last_reported":1767118667,"current_range_meters":12400,"station_id":"st_d3j3df2ikq2c7380ej80","pricing_plan_id":"cebpf4jnsgd1na2vs0mg"},{"bike_id":"fc01654f-2593-4295-8309-447493a7010a","system_id":"levelo_inurba_marseille","lat":43.27181,"lon":5.390489,"is_reserved":false,"is_disabled":false,"rental_uris":{"android":"levelo://app?vid=fc01654f-2593-4295-8309-447493a7010a","ios":"levelo://app?vid=fc01654f-2593-4295-8309-447493a7010a"},"vehicle_type_id":"4","last_reported":1767118667,"current_range_meters":12400,"station_id":"","pricing_plan_id":"cebpf4jnsgd1na2vs0mg"},{"bike_id":"a9ca0334-3198-48d6-b1ea-de3a6c9cf163","system_id":"levelo_inurba_marseille","lat":43.24543,"lon":5.39525,"is_reserved":false,"is_disabled":false,"rental_uris":{"android":"levelo://app?vid=a9ca0334-3198-48d6-b1ea-de3a6c9cf163","ios":"levelo://app?vid=a9ca0334-3198-48d6-b1ea-de3a6c9cf163"},"vehicle_type_id":"4","last_reported":1767118667,"current_range_meters":12400,"station_id":"ce4bhlp2rcd13ifvqgjg","pricing_plan_id":"cebpf4jnsgd1na2vs0mg"},{"bike_id":"b6bb0504-7fba-4e3c-b400-2a1d155bf674","system_id":"levelo_inurba_marseille","lat":43.24161,"lon":5.36419,"is_reserved":false,"is_disabled":false,"rental_uris":{"android":"levelo://app?vid=b6bb0504-7fba-4e3c-b400-2a1d155bf674","ios":"levelo://app?vid=b6bb0504-7fba-4e3c-b400-2a1d155bf674"},"vehicle_type_id":"4","last_reported":1767118667,"current_range_meters":12400,"station_id":"cpo36qri1sfpv3e86is0","pricing_plan_id":"cebpf4jnsgd1na2vs0mg"},{"bike_id":"0fa76090-b264-4d7f-a0bc-7de1e50f19da","system_id":"levelo_inurba_marseille","lat":43.28001,"lon":5.40412,"is_reserved":false,"is_disabled":false,"rental_uris":{"android":"levelo://app?vid=0fa76090-b264-4d7f-a0bc-7de1e50f19da","ios":"levelo://app?vid=0fa76090-b264-4d7f-a0bc-7de1e50f19da"},"vehicle_type_id":"4","last_reported":1767118667,"current_range_meters":12400,"station_id":"","pricing_plan_id":"cebpf4jnsgd1na2vs0mg"},{"bike_id":"ff2a9260-98fd-4327-a921-2b433595e5d8","system_id":"levelo_inurba_marseille","lat":43.26942,"lon":5.40249,"is_reserved":false,"is_disabled":false,"rental_uris":{"android":"levelo://app?vid=ff2a9260-98fd-4327-a921-2b433595e5d8","ios":"levelo://app?vid=ff2a9260-98fd-4327-a921-2b433595e5d8"},"vehicle_type_id":"4","last_reported":1767118667,"current_range_meters":12400,"station_id":"cjm6bp8fraef2m0cb0m0","pricing_plan_id":"cebpf4jnsgd1na2vs0mg"},{"bike_id":"f8454e07-5b19-4a16-bdb5-ba46f59bdc3d","system_id":"levelo_inurba_marseille","lat":43.26033,"lon":5.37558,"is_reserved":false,"is_disabled":false,"rental_uris":{"android":"levelo://app?vid=f8454e07-5b19-4a16-bdb5-ba46f59bdc3d","ios":"levelo://app?vid=f8454e07-5b19-4a16-bdb5-ba46f59bdc3d"},"vehicle_type_id":"4","last_reported":1767118667,"current_range_meters":12400,"station_id":"ce4bhgh2rcd13ifvqfa0","pricing_plan_id":"cebpf4jnsgd1na2vs0mg"},{"bike_id":"d42dc83b-904b-44af-a1ba-a6078c346d7e","system_id":"levelo_inurba_marseille","lat":43.24665,"lon":5.38167,"is_reserved":false,"is_disabled":false,"rental_uris":{"android":"levelo://app?vid=d42dc83b-904b-44af-a1ba-a6078c346d7e","ios":"levelo://app?vid=d42dc83b-904b-44af-a1ba-a6078c346d7e"},"vehicle_type_id":"4","last_reported":1767118667,"current_range_meters":12400,"station_id":"ce4bhih2rcd13ifvqfr0","pricing_plan_id":"cebpf4jnsgd1na2vs0mg"},{"bike_id":"c6125501-7c69-4634-bcf6-b44e2dc1bb9a","system_id":"levelo_inurba_marseille","lat":43.29197,"lon":5.3581,"is_reserved":false,"is_disabled":false,"rental_uris":{"android":"levelo://app?vid=c6125501-7c69-4634-bcf6-b44e2dc1bb9a","ios":"levelo://app?vid=c6125501-7c69-4634-bcf6-b44e2dc1bb9a"},"vehicle_type_id":"4","last_reported":1767118667,"current_range_meters":12400,"station_id":"ce4bhb12rcd13ifvqel0","pricing_plan_id":"cebpf4jnsgd1na2vs0mg"},{"bike_id":"035b755c-d128-4d54-964d-61cc15d383fd","system_id":"levelo_inurba_marseille","lat":43.30099,"lon":5.39077,"is_reserved":false,"is_disabled":false,"rental_uris":{"android":"levelo://app?vid=035b755c-d128-4d54-964d-61cc15d383fd","ios":"levelo://app?vid=035b755c-d128-4d54-964d-61cc15d383fd"},"vehicle_type_id":"4","last_reported":1767118667,"current_range_meters":12400,"station_id":"ce4bh192rcd13ifvqdb0","pricing_plan_id":"cebpf4jnsgd1na2vs0mg"},{"bike_id":"799aa7ed-c67f-46a8-8fe8-f4024084bd20","system_id":"levelo_inurba_marseille","lat":43.31221,"lon":5.36869,"is_reserved":false,"is_disabled":false,"rental_uris":{"android":"levelo://app?vid=799aa7ed-c67f-46a8-8fe8-f4024084bd20","ios":"levelo://app?vid=799aa7ed-c67f-46a8-8fe8-f4024084bd20"},"vehicle_type_id":"4","last_reported":1767118667,"current_range_meters":12800,"station_id":"ce4bgl92rcd13ifvqbq0","pricing_plan_id":"cebpf4jnsgd1na2vs0mg"},{"bike_id":"b3b8c28f-a4a2-4a54-a0d7-bca6b407c06b","system_id":"levelo_inurba_marseille","lat":43.28486,"lon":5.38392,"is_reserved":false,"is_disabled":false,"rental_uris":{"android":"levelo://app?vid=b3b8c28f-a4a2-4a54-a0d7-bca6b407c06b","ios":"levelo://app?vid=b3b8c28f-a4a2-4a54-a0d7-bca6b407c06b"},"vehicle_type_id":"4","last_reported":1767118667,"current_range_meters":12800,"station_id":"ce4bh512rcd13ifvqe3g","pricing_plan_id":"cebpf4jnsgd1na2vs0mg"},{"bike_id":"d5e358bc-fd53-4827-aa15-091f6e3e8985","system_id":"levelo_inurba_marseille","lat":43.26209,"lon":5.3744,"is_reserved":false,"is_disabled":false,"rental_uris":{"android":"levelo://app?vid=d5e358bc-fd53-4827-aa15-091f6e3e8985","ios":"levelo://app?vid=d5e358bc-fd53-4827-aa15-091f6e3e8985"},"vehicle_type_id":"4","last_reported":1767118667,"current_range_meters":12800,"station_id":"ce4bhgp2rcd13ifvqfc0","pricing_plan_id":"cebpf4jnsgd1na2vs0mg"},{"bike_id":"78ed77cb-47f0-4c82-bf8a-f958576ec953","system_id":"levelo_inurba_marseille","lat":43.2817,"lon":5.42644,"is_reserved":false,"is_disabled":false,"rental_uris":{"android":"levelo://app?vid=78ed77cb-47f0-4c82-bf8a-f958576ec953","ios":"levelo://app?vid=78ed77cb-47f0-4c82-bf8a-f958576ec953"},"vehicle_type_id":"4","last_reported":1767118667,"current_range_meters":12800,"station_id":"ce4bhnh2rcd13ifvqgug","pricing_plan_id":"cebpf4jnsgd1na2vs0mg"},{"bike_id":"2736b34b-98dd-4ca9-b701-f4278e5f6e64","system_id":"levelo_inurba_marseille","lat":43.32353,"lon":5.36759,"is_reserved":false,"is_disabled":false,"rental_uris":{"android":"levelo://app?vid=2736b34b-98dd-4ca9-b701-f4278e5f6e64","ios":"levelo://app?vid=2736b34b-98dd-4ca9-b701-f4278e5f6e64"},"vehicle_type_id":"4","last_reported":1767118667,"current_range_meters":12800,"station_id":"ce4bhsh2rcd13ifvqi2g","pricing_plan_id":"cebpf4jnsgd1na2vs0mg"},{"bike_id":"78d9a49b-78ff-45a1-8a13-5fe067cf99e3","system_id":"levelo_inurba_marseille","lat":43.29535,"lon":5.38541,"is_reserved":false,"is_disabled":false,"rental_uris":{"android":"levelo://app?vid=78d9a49b-78ff-45a1-8a13-5fe067cf99e3","ios":"levelo://app?vid=78d9a49b-78ff-45a1-8a13-5fe067cf99e3"},"vehicle_type_id":"4","last_reported":1767118667,"current_range_meters":12800,"station_id":"ce4bgih2rcd13ifvqba0","pricing_plan_id":"cebpf4jnsgd1na2vs0mg"},{"bike_id":"5b7b9627-7763-4fa8-83b2-cad94b4f3bda","system_id":"levelo_inurba_marseille","lat":43.29578,"lon":5.37495,"is_reserved":false,"is_disabled":false,"rental_uris":{"android":"levelo://app?vid=5b7b9627-7763-4fa8-83b2-cad94b4f3bda","ios":"levelo://app?vid=5b7b9627-7763-4fa8-83b2-cad94b4f3bda"},"vehicle_type_id":"4","last_reported":1767118667,"current_range_meters":12800,"station_id":"ce4bgh92rcd13ifvqb50","pricing_plan_id":"cebpf4jnsgd1na2vs0mg"},{"bike_id":"062a0235-2d89-4fc1-b10d-ee79c97b2c64","system_id":"levelo_inurba_marseille","lat":43.3182,"lon":5.36903,"is_reserved":false,"is_disabled":false,"rental_uris":{"android":"levelo://app?vid=062a0235-2d89-4fc1-b10d-ee79c97b2c64","ios":"levelo://app?vid=062a0235-2d89-4fc1-b10d-ee79c97b2c64"},"vehicle_type_id":"4","last_reported":1767118667,"current_range_meters":12800,"station_id":"","pricing_plan_id":"cebpf4jnsgd1na2vs0mg"},{"bike_id":"755bf6cc-bb18-41b8-9223-a84ca4092288","system_id":"levelo_inurba_marseille","lat":43.28213,"lon":5.39056,"is_reserved":false,"is_disabled":false,"rental_uris":{"android":"levelo://app?vid=755bf6cc-bb18-41b8-9223-a84ca4092288","ios":"levelo://app?vid=755bf6cc-bb18-41b8-9223-a84ca4092288"},"vehicle_type_id":"4","last_reported":1767118667,"current_range_meters":12800,"station_id":"ce4bhn92rcd13ifvqgsg","pricing_plan_id":"cebpf4jnsgd1na2vs0mg"},{"bike_id":"149a94e7-8065-4440-a1ab-1ba416a8f181","system_id":"levelo_inurba_marseille","lat":43.28481,"lon":5.484,"is_reserved":false,"is_disabled":false,"rental_uris":{"android":"levelo://app?vid=149a94e7-8065-4440-a1ab-1ba416a8f181","ios":"levelo://app?vid=149a94e7-8065-4440-a1ab-1ba416a8f181"},"vehicle_type_id":"4","last_reported":1767118667,"current_range_meters":12800,"station_id":"","pricing_plan_id":"cebpf4jnsgd1na2vs0mg"},{"bike_id":"574b516f-cfa1-48d8-81a0-36f592b48b86","system_id":"levelo_inurba_marseille","lat":43.27496,"lon":5.42437,"is_reserved":false,"is_disabled":false,"rental_uris":{"android":"levelo://app?vid=574b516f-cfa1-48d8-81a0-36f592b48b86","ios":"levelo://app?vid=574b516f-cfa1-48d8-81a0-36f592b48b86"},"vehicle_type_id":"4","last_reported":1767118667,"current_range_meters":12800,"station_id":"ce4bhn92rcd13ifvqgrg","pricing_plan_id":"cebpf4jnsgd1na2vs0mg"},{"bike_id":"b30c6014-a175-4bb9-ad78-49f058f742ef","system_id":"levelo_inurba_marseille","lat":43.26515,"lon":5.39538,"is_reserved":false,"is_disabled":false,"rental_uris":{"android":"levelo://app?vid=b30c6014-a175-4bb9-ad78-49f058f742ef","ios":"levelo://app?vid=b30c6014-a175-4bb9-ad78-49f058f742ef"},"vehicle_type_id":"4","last_reported":1767118667,"current_range_meters":12800,"station_id":"ce4bhi12rcd13ifvqfq0","pricing_plan_id":"cebpf4jnsgd1na2vs0mg"},{"bike_id":"5731e8e0-ba7f-4e80-9648-a32ddf726464","system_id":"levelo_inurba_marseille","lat":43.28154,"lon":5.42657,"is_reserved":false,"is_disabled":false,"rental_uris":{"android":"levelo://app?vid=5731e8e0-ba7f-4e80-9648-a32ddf726464","ios":"levelo://app?vid=5731e8e0-ba7f-4e80-9648-a32ddf726464"},"vehicle_type_id":"4","last_reported":1767118667,"current_range_meters":12800,"station_id":"ce4bhnh2rcd13ifvqgug","pricing_plan_id":"cebpf4jnsgd1na2vs0mg"},{"bike_id":"22eef0a3-17fe-44b8-b64f-6f944c8af2a7","system_id":"levelo_inurba_marseille","lat":43.24645,"lon":5.38907,"is_reserved":false,"is_disabled":false,"rental_uris":{"android":"levelo://app?vid=22eef0a3-17fe-44b8-b64f-6f944c8af2a7","ios":"levelo://app?vid=22eef0a3-17fe-44b8-b64f-6f944c8af2a7"},"vehicle_type_id":"4","last_reported":1767118667,"current_range_meters":12800,"station_id":"ce4bhg12rcd13ifvqf60","pricing_plan_id":"cebpf4jnsgd1na2vs0mg"},{"bike_id":"24e831dd-096f-4eae-b956-c4594fc1753c","system_id":"levelo_inurba_marseille","lat":43.306487,"lon":5.400905,"is_reserved":false,"is_disabled":false,"rental_uris":{"android":"levelo://app?vid=24e831dd-096f-4eae-b956-c4594fc1753c","ios":"levelo://app?vid=24e831dd-096f-4eae-b956-c4594fc1753c"},"vehicle_type_id":"4","last_reported":1767118667,"current_range_meters":12800,"station_id":"ce4bh112rcd13ifvqda0","pricing_plan_id":"cebpf4jnsgd1na2vs0mg"},{"bike_id":"9a2077a2-cebc-468c-82f9-fecda68a9ec3","system_id":"levelo_inurba_marseille","lat":43.29482,"lon":5.4089,"is_reserved":false,"is_disabled":false,"rental_uris":{"android":"levelo://app?vid=9a2077a2-cebc-468c-82f9-fecda68a9ec3","ios":"levelo://app?vid=9a2077a2-cebc-468c-82f9-fecda68a9ec3"},"vehicle_type_id":"4","last_reported":1767118667,"current_range_meters":12800,"station_id":"","pricing_plan_id":"cebpf4jnsgd1na2vs0mg"},{"bike_id":"f0b2c508-397d-4f28-be22-ee2cb2f9d342","system_id":"levelo_inurba_marseille","lat":43.301388,"lon":5.374226,"is_reserved":false,"is_disabled":false,"rental_uris":{"android":"levelo://app?vid=f0b2c508-397d-4f28-be22-ee2cb2f9d342","ios":"levelo://app?vid=f0b2c508-397d-4f28-be22-ee2cb2f9d342"},"vehicle_type_id":"4","last_reported":1767118667,"current_range_meters":13600,"station_id":"ce4bgs92rcd13ifvqcc0","pricing_plan_id":"cebpf4jnsgd1na2vs0mg"},{"bike_id":"e488201e-0a77-4b92-9c62-435c3feae8fc","system_id":"levelo_inurba_marseille","lat":43.28456,"lon":5.35901,"is_reserved":false,"is_disabled":false,"rental_uris":{"android":"levelo://app?vid=e488201e-0a77-4b92-9c62-435c3feae8fc","ios":"levelo://app?vid=e488201e-0a77-4b92-9c62-435c3feae8fc"},"vehicle_type_id":"4","last_reported":1767118667,"current_range_meters":13600,"station_id":"ce4bhah2rcd13ifvqei0","pricing_plan_id":"cebpf4jnsgd1na2vs0mg"},{"bike_id":"e925a0dc-e1d9-4cea-afb3-e1809cd17c3c","system_id":"levelo_inurba_marseille","lat":43.28729,"lon":5.36075,"is_reserved":false,"is_disabled":false,"rental_uris":{"android":"levelo://app?vid=e925a0dc-e1d9-4cea-afb3-e1809cd17c3c","ios":"levelo://app?vid=e925a0dc-e1d9-4cea-afb3-e1809cd17c3c"},"vehicle_type_id":"4","last_reported":1767118667,"current_range_meters":13600,"station_id":"cki0cbj6b192h4jlfktg","pricing_plan_id":"cebpf4jnsgd1na2vs0mg"},{"bike_id":"21a27d68-c627-474d-9080-e06ba81259e5","system_id":"levelo_inurba_marseille","lat":43.29532,"lon":5.38541,"is_reserved":false,"is_disabled":false,"rental_uris":{"android":"levelo://app?vid=21a27d68-c627-474d-9080-e06ba81259e5","ios":"levelo://app?vid=21a27d68-c627-474d-9080-e06ba81259e5"},"vehicle_type_id":"4","last_reported":1767118667,"current_range_meters":13600,"station_id":"ce4bgih2rcd13ifvqba0","pricing_plan_id":"cebpf4jnsgd1na2vs0mg"},{"bike_id":"9f6044aa-9e0a-4415-9278-85df5233b201","system_id":"levelo_inurba_marseille","lat":43.28431,"lon":5.34977,"is_reserved":false,"is_disabled":false,"rental_uris":{"android":"levelo://app?vid=9f6044aa-9e0a-4415-9278-85df5233b201","ios":"levelo://app?vid=9f6044aa-9e0a-4415-9278-85df5233b201"},"vehicle_type_id":"4","last_reported":1767118667,"current_range_meters":13600,"station_id":"ce4bhbh2rcd13ifvqepg","pricing_plan_id":"cebpf4jnsgd1na2vs0mg"},{"bike_id":"3486b79f-5d37-4ced-ac26-f2e90a6034f3","system_id":"levelo_inurba_marseille","lat":43.23202,"lon":5.35538,"is_reserved":false,"is_disabled":false,"rental_uris":{"android":"levelo://app?vid=3486b79f-5d37-4ced-ac26-f2e90a6034f3","ios":"levelo://app?vid=3486b79f-5d37-4ced-ac26-f2e90a6034f3"},"vehicle_type_id":"4","last_reported":1767118667,"current_range_meters":13600,"station_id":"ce4bhu92rcd13ifvqi70","pricing_plan_id":"cebpf4jnsgd1na2vs0mg"},{"bike_id":"05483eb6-cf82-481b-bd1b-bac2e3bdcdb5","system_id":"levelo_inurba_marseille","lat":43.25115,"lon":5.40336,"is_reserved":false,"is_disabled":false,"rental_uris":{"android":"levelo://app?vid=05483eb6-cf82-481b-bd1b-bac2e3bdcdb5","ios":"levelo://app?vid=05483eb6-cf82-481b-bd1b-bac2e3bdcdb5"},"vehicle_type_id":"4","last_reported":1767118667,"current_range_meters":13600,"station_id":"ce4bhlh2rcd13ifvqgig","pricing_plan_id":"cebpf4jnsgd1na2vs0mg"},{"bike_id":"dff60c80-82b7-4729-acef-c465d4a7836a","system_id":"levelo_inurba_marseille","lat":43.28271,"lon":5.35057,"is_reserved":false,"is_disabled":false,"rental_uris":{"android":"levelo://app?vid=dff60c80-82b7-4729-acef-c465d4a7836a","ios":"levelo://app?vid=dff60c80-82b7-4729-acef-c465d4a7836a"},"vehicle_type_id":"4","last_reported":1767118667,"current_range_meters":13600,"station_id":"ce4bhbp2rcd13ifvqerg","pricing_plan_id":"cebpf4jnsgd1na2vs0mg"},{"bike_id":"c6990927-f112-43dc-993b-cc97e862332f","system_id":"levelo_inurba_marseille","lat":43.275714,"lon":5.384313,"is_reserved":false,"is_disabled":false,"rental_uris":{"android":"levelo://app?vid=c6990927-f112-43dc-993b-cc97e862332f","ios":"levelo://app?vid=c6990927-f112-43dc-993b-cc97e862332f"},"vehicle_type_id":"4","last_reported":1767118667,"current_range_meters":13600,"station_id":"ce4bhh92rcd13ifvqfi0","pricing_plan_id":"cebpf4jnsgd1na2vs0mg"},{"bike_id":"4b0a2573-2db3-4da5-afa6-61fc508fa9b5","system_id":"levelo_inurba_marseille","lat":43.29872,"lon":5.43672,"is_reserved":false,"is_disabled":false,"rental_uris":{"android":"levelo://app?vid=4b0a2573-2db3-4da5-afa6-61fc508fa9b5","ios":"levelo://app?vid=4b0a2573-2db3-4da5-afa6-61fc508fa9b5"},"vehicle_type_id":"4","last_reported":1767118667,"current_range_meters":14000,"station_id":"ce4bhpp2rcd13ifvqhfg","pricing_plan_id":"cebpf4jnsgd1na2vs0mg"},{"bike_id":"d250a799-5d35-48b4-8052-313c992efcb5","system_id":"levelo_inurba_marseille","lat":43.285688,"lon":5.395033,"is_reserved":false,"is_disabled":false,"rental_uris":{"android":"levelo://app?vid=d250a799-5d35-48b4-8052-313c992efcb5","ios":"levelo://app?vid=d250a799-5d35-48b4-8052-313c992efcb5"},"vehicle_type_id":"4","last_reported":1767118667,"current_range_meters":14000,"station_id":"ce4bh292rcd13ifvqdg0","pricing_plan_id":"cebpf4jnsgd1na2vs0mg"},{"bike_id":"581a6ab3-180f-44bd-a4a1-a92ae04d5d4e","system_id":"levelo_inurba_marseille","lat":43.217481,"lon":5.345945,"is_reserved":false,"is_disabled":false,"rental_uris":{"android":"levelo://app?vid=581a6ab3-180f-44bd-a4a1-a92ae04d5d4e","ios":"levelo://app?vid=581a6ab3-180f-44bd-a4a1-a92ae04d5d4e"},"vehicle_type_id":"4","last_reported":1767118667,"current_range_meters":14000,"station_id":"st_cvj6r9ubvosntc0bgbag","pricing_plan_id":"cebpf4jnsgd1na2vs0mg"},{"bike_id":"4cf8c2c1-78ee-47e7-9637-07180f58b843","system_id":"levelo_inurba_marseille","lat":43.30612,"lon":5.37225,"is_reserved":false,"is_disabled":false,"rental_uris":{"android":"levelo://app?vid=4cf8c2c1-78ee-47e7-9637-07180f58b843","ios":"levelo://app?vid=4cf8c2c1-78ee-47e7-9637-07180f58b843"},"vehicle_type_id":"4","last_reported":1767118667,"current_range_meters":14000,"station_id":"ce4bgqh2rcd13ifvqc4g","pricing_plan_id":"cebpf4jnsgd1na2vs0mg"},{"bike_id":"ab54bdbe-c52b-4d99-8988-d52f89dfd53b","system_id":"levelo_inurba_marseille","lat":43.26569,"lon":5.390125,"is_reserved":false,"is_disabled":false,"rental_uris":{"android":"levelo://app?vid=ab54bdbe-c52b-4d99-8988-d52f89dfd53b","ios":"levelo://app?vid=ab54bdbe-c52b-4d99-8988-d52f89dfd53b"},"vehicle_type_id":"4","last_reported":1767118667,"current_range_meters":14000,"station_id":"ce4bhe12rcd13ifvqf30","pricing_plan_id":"cebpf4jnsgd1na2vs0mg"},{"bike_id":"34abb72c-cebc-488b-92ab-8c95dfbf7fdd","system_id":"levelo_inurba_marseille","lat":43.23816,"lon":5.36577,"is_reserved":false,"is_disabled":false,"rental_uris":{"android":"levelo://app?vid=34abb72c-cebc-488b-92ab-8c95dfbf7fdd","ios":"levelo://app?vid=34abb72c-cebc-488b-92ab-8c95dfbf7fdd"},"vehicle_type_id":"4","last_reported":1767118667,"current_range_meters":14000,"station_id":"","pricing_plan_id":"cebpf4jnsgd1na2vs0mg"},{"bike_id":"b5f0bb58-9f36-4506-a15b-41e5a33eaac0","system_id":"levelo_inurba_marseille","lat":43.28366,"lon":5.38641,"is_reserved":false,"is_disabled":false,"rental_uris":{"android":"levelo://app?vid=b5f0bb58-9f36-4506-a15b-41e5a33eaac0","ios":"levelo://app?vid=b5f0bb58-9f36-4506-a15b-41e5a33eaac0"},"vehicle_type_id":"4","last_reported":1767118667,"current_range_meters":14000,"station_id":"ce4bh492rcd13ifvqdvg","pricing_plan_id":"cebpf4jnsgd1na2vs0mg"},{"bike_id":"ef4d8662-1154-4710-8bf5-ed7e73ba85b1","system_id":"levelo_inurba_marseille","lat":43.279474,"lon":5.410457,"is_reserved":false,"is_disabled":false,"rental_uris":{"android":"levelo://app?vid=ef4d8662-1154-4710-8bf5-ed7e73ba85b1","ios":"levelo://app?vid=ef4d8662-1154-4710-8bf5-ed7e73ba85b1"},"vehicle_type_id":"4","last_reported":1767118667,"current_range_meters":14000,"station_id":"ce4bhnp2rcd13ifvqh0g","pricing_plan_id":"cebpf4jnsgd1na2vs0mg"},{"bike_id":"9cb5ae99-5884-40a4-9c3b-7a9c989d5f03","system_id":"levelo_inurba_marseille","lat":43.28474,"lon":5.38411,"is_reserved":false,"is_disabled":false,"rental_uris":{"android":"levelo://app?vid=9cb5ae99-5884-40a4-9c3b-7a9c989d5f03","ios":"levelo://app?vid=9cb5ae99-5884-40a4-9c3b-7a9c989d5f03"},"vehicle_type_id":"4","last_reported":1767118667,"current_range_meters":14000,"station_id":"ce4bh512rcd13ifvqe3g","pricing_plan_id":"cebpf4jnsgd1na2vs0mg"},{"bike_id":"db4f7615-d42e-4249-8e23-3bf400446540","system_id":"levelo_inurba_marseille","lat":43.26743,"lon":5.39416,"is_reserved":false,"is_disabled":false,"rental_uris":{"android":"levelo://app?vid=db4f7615-d42e-4249-8e23-3bf400446540","ios":"levelo://app?vid=db4f7615-d42e-4249-8e23-3bf400446540"},"vehicle_type_id":"4","last_reported":1767118667,"current_range_meters":14000,"station_id":"ce4bhh12rcd13ifvqfg0","pricing_plan_id":"cebpf4jnsgd1na2vs0mg"},{"bike_id":"7be19a66-044f-4223-8a5e-aa464921726b","system_id":"levelo_inurba_marseille","lat":43.23963,"lon":5.36623,"is_reserved":false,"is_disabled":false,"rental_uris":{"android":"levelo://app?vid=7be19a66-044f-4223-8a5e-aa464921726b","ios":"levelo://app?vid=7be19a66-044f-4223-8a5e-aa464921726b"},"vehicle_type_id":"4","last_reported":1767118667,"current_range_meters":14000,"station_id":"ce4bhi12rcd13ifvqfp0","pricing_plan_id":"cebpf4jnsgd1na2vs0mg"},{"bike_id":"c0519a7c-79f0-40b1-8b8d-d6dee36b6298","system_id":"levelo_inurba_marseille","lat":43.30142,"lon":5.38784,"is_reserved":false,"is_disabled":false,"rental_uris":{"android":"levelo://app?vid=c0519a7c-79f0-40b1-8b8d-d6dee36b6298","ios":"levelo://app?vid=c0519a7c-79f0-40b1-8b8d-d6dee36b6298"},"vehicle_type_id":"4","last_reported":1767118667,"current_range_meters":14000,"station_id":"ce4bghh2rcd13ifvqb60","pricing_plan_id":"cebpf4jnsgd1na2vs0mg"},{"bike_id":"5bdd84a1-17d5-4bbd-86b1-b2f015f89d54","system_id":"levelo_inurba_marseille","lat":43.26807,"lon":5.40254,"is_reserved":false,"is_disabled":false,"rental_uris":{"android":"levelo://app?vid=5bdd84a1-17d5-4bbd-86b1-b2f015f89d54","ios":"levelo://app?vid=5bdd84a1-17d5-4bbd-86b1-b2f015f89d54"},"vehicle_type_id":"4","last_reported":1767118667,"current_range_meters":14000,"station_id":"ce501612rcd8frsf0b60","pricing_plan_id":"cebpf4jnsgd1na2vs0mg"},{"bike_id":"d35a0a07-7b46-4a3c-b11f-a8140d2ba22d","system_id":"levelo_inurba_marseille","lat":43.29813,"lon":5.4406,"is_reserved":false,"is_disabled":false,"rental_uris":{"android":"levelo://app?vid=d35a0a07-7b46-4a3c-b11f-a8140d2ba22d","ios":"levelo://app?vid=d35a0a07-7b46-4a3c-b11f-a8140d2ba22d"},"vehicle_type_id":"4","last_reported":1767118667,"current_range_meters":14000,"station_id":"st_d3jp68qikq2c7381ktn0","pricing_plan_id":"cebpf4jnsgd1na2vs0mg"},{"bike_id":"08ebf82a-127d-430d-b4f1-e685d0a3b6ba","system_id":"levelo_inurba_marseille","lat":43.29015,"lon":5.38635,"is_reserved":false,"is_disabled":false,"rental_uris":{"android":"levelo://app?vid=08ebf82a-127d-430d-b4f1-e685d0a3b6ba","ios":"levelo://app?vid=08ebf82a-127d-430d-b4f1-e685d0a3b6ba"},"vehicle_type_id":"4","last_reported":1767118667,"current_range_meters":14000,"station_id":"ce4bh4p2rcd13ifvqe0g","pricing_plan_id":"cebpf4jnsgd1na2vs0mg"},{"bike_id":"a7df6d51-aeb4-4f6e-a38b-46dae1f38f36","system_id":"levelo_inurba_marseille","lat":43.217438,"lon":5.346037,"is_reserved":false,"is_disabled":false,"rental_uris":{"android":"levelo://app?vid=a7df6d51-aeb4-4f6e-a38b-46dae1f38f36","ios":"levelo://app?vid=a7df6d51-aeb4-4f6e-a38b-46dae1f38f36"},"vehicle_type_id":"4","last_reported":1767118667,"current_range_meters":14000,"station_id":"","pricing_plan_id":"cebpf4jnsgd1na2vs0mg"},{"bike_id":"02d20062-9731-4cd9-8290-c33eba21eec4","system_id":"levelo_inurba_marseille","lat":43.28152,"lon":5.42643,"is_reserved":false,"is_disabled":false,"rental_uris":{"android":"levelo://app?vid=02d20062-9731-4cd9-8290-c33eba21eec4","ios":"levelo://app?vid=02d20062-9731-4cd9-8290-c33eba21eec4"},"vehicle_type_id":"4","last_reported":1767118667,"current_range_meters":14000,"station_id":"ce4bhnh2rcd13ifvqgug","pricing_plan_id":"cebpf4jnsgd1na2vs0mg"},{"bike_id":"a4c8def6-58cb-40d8-ab6d-626b627ad64c","system_id":"levelo_inurba_marseille","lat":43.27565,"lon":5.38425,"is_reserved":false,"is_disabled":false,"rental_uris":{"android":"levelo://app?vid=a4c8def6-58cb-40d8-ab6d-626b627ad64c","ios":"levelo://app?vid=a4c8def6-58cb-40d8-ab6d-626b627ad64c"},"vehicle_type_id":"4","last_reported":1767118667,"current_range_meters":14000,"station_id":"ce4bhh92rcd13ifvqfi0","pricing_plan_id":"cebpf4jnsgd1na2vs0mg"},{"bike_id":"efd33062-2cef-445f-af98-648f578e9c2a","system_id":"levelo_inurba_marseille","lat":43.32042,"lon":5.41557,"is_reserved":false,"is_disabled":false,"rental_uris":{"android":"levelo://app?vid=efd33062-2cef-445f-af98-648f578e9c2a","ios":"levelo://app?vid=efd33062-2cef-445f-af98-648f578e9c2a"},"vehicle_type_id":"4","last_reported":1767118667,"current_range_meters":14400,"station_id":"ce4bhq92rcd13ifvqhkg","pricing_plan_id":"cebpf4jnsgd1na2vs0mg"},{"bike_id":"5265762e-9468-4f8e-963d-e1d647f4d72d","system_id":"levelo_inurba_marseille","lat":43.337444,"lon":5.374475,"is_reserved":false,"is_disabled":false,"rental_uris":{"android":"levelo://app?vid=5265762e-9468-4f8e-963d-e1d647f4d72d","ios":"levelo://app?vid=5265762e-9468-4f8e-963d-e1d647f4d72d"},"vehicle_type_id":"4","last_reported":1767118667,"current_range_meters":14400,"station_id":"","pricing_plan_id":"cebpf4jnsgd1na2vs0mg"},{"bike_id":"e93c83d5-bafc-41ab-b80f-422d8d8d6d2a","system_id":"levelo_inurba_marseille","lat":43.26848,"lon":5.40078,"is_reserved":false,"is_disabled":false,"rental_uris":{"android":"levelo://app?vid=e93c83d5-bafc-41ab-b80f-422d8d8d6d2a","ios":"levelo://app?vid=e93c83d5-bafc-41ab-b80f-422d8d8d6d2a"},"vehicle_type_id":"4","last_reported":1767118667,"current_range_meters":14400,"station_id":"","pricing_plan_id":"cebpf4jnsgd1na2vs0mg"},{"bike_id":"17a28c46-0cb5-46be-8f2f-bebf874033a5","system_id":"levelo_inurba_marseille","lat":43.29778,"lon":5.38092,"is_reserved":false,"is_disabled":false,"rental_uris":{"android":"levelo://app?vid=17a28c46-0cb5-46be-8f2f-bebf874033a5","ios":"levelo://app?vid=17a28c46-0cb5-46be-8f2f-bebf874033a5"},"vehicle_type_id":"4","last_reported":1767118667,"current_range_meters":14400,"station_id":"ce4bgip2rcd13ifvqbb0","pricing_plan_id":"cebpf4jnsgd1na2vs0mg"},{"bike_id":"e6dbe591-2fd4-4b2d-aa25-179a088493ea","system_id":"levelo_inurba_marseille","lat":43.225353,"lon":5.348308,"is_reserved":false,"is_disabled":false,"rental_uris":{"android":"levelo://app?vid=e6dbe591-2fd4-4b2d-aa25-179a088493ea","ios":"levelo://app?vid=e6dbe591-2fd4-4b2d-aa25-179a088493ea"},"vehicle_type_id":"4","last_reported":1767118667,"current_range_meters":14400,"station_id":"","pricing_plan_id":"cebpf4jnsgd1na2vs0mg"},{"bike_id":"c78b7752-9cb7-4b06-a8ef-1f65d9ce20cf","system_id":"levelo_inurba_marseille","lat":43.31639,"lon":5.38816,"is_reserved":false,"is_disabled":false,"rental_uris":{"android":"levelo://app?vid=c78b7752-9cb7-4b06-a8ef-1f65d9ce20cf","ios":"levelo://app?vid=c78b7752-9cb7-4b06-a8ef-1f65d9ce20cf"},"vehicle_type_id":"4","last_reported":1767118667,"current_range_meters":14400,"station_id":"","pricing_plan_id":"cebpf4jnsgd1na2vs0mg"},{"bike_id":"d1028c8d-4c1a-4ce3-bb87-06b106258967","system_id":"levelo_inurba_marseille","lat":43.30091,"lon":5.37134,"is_reserved":false,"is_disabled":false,"rental_uris":{"android":"levelo://app?vid=d1028c8d-4c1a-4ce3-bb87-06b106258967","ios":"levelo://app?vid=d1028c8d-4c1a-4ce3-bb87-06b106258967"},"vehicle_type_id":"4","last_reported":1767118667,"current_range_meters":14400,"station_id":"","pricing_plan_id":"cebpf4jnsgd1na2vs0mg"},{"bike_id":"518272f7-3e73-4db3-92cd-481d148d7361","system_id":"levelo_inurba_marseille","lat":43.24165,"lon":5.36429,"is_reserved":false,"is_disabled":false,"rental_uris":{"android":"levelo://app?vid=518272f7-3e73-4db3-92cd-481d148d7361","ios":"levelo://app?vid=518272f7-3e73-4db3-92cd-481d148d7361"},"vehicle_type_id":"4","last_reported":1767118667,"current_range_meters":14400,"station_id":"cpo36qri1sfpv3e86is0","pricing_plan_id":"cebpf4jnsgd1na2vs0mg"},{"bike_id":"019754b7-d22d-487b-aa37-0e61c1f00485","system_id":"levelo_inurba_marseille","lat":43.26936,"lon":5.40254,"is_reserved":false,"is_disabled":false,"rental_uris":{"android":"levelo://app?vid=019754b7-d22d-487b-aa37-0e61c1f00485","ios":"levelo://app?vid=019754b7-d22d-487b-aa37-0e61c1f00485"},"vehicle_type_id":"4","last_reported":1767118667,"current_range_meters":14400,"station_id":"cjm6bp8fraef2m0cb0m0","pricing_plan_id":"cebpf4jnsgd1na2vs0mg"},{"bike_id":"7cd9d7b6-2c4b-484a-92df-676b04b13e27","system_id":"levelo_inurba_marseille","lat":43.311945,"lon":5.396122,"is_reserved":false,"is_disabled":false,"rental_uris":{"android":"levelo://app?vid=7cd9d7b6-2c4b-484a-92df-676b04b13e27","ios":"levelo://app?vid=7cd9d7b6-2c4b-484a-92df-676b04b13e27"},"vehicle_type_id":"4","last_reported":1767118667,"current_range_meters":14400,"station_id":"ce4bgvp2rcd13ifvqcu0","pricing_plan_id":"cebpf4jnsgd1na2vs0mg"},{"bike_id":"79fda2c3-d85a-402b-9c3b-0dceb91a8171","system_id":"levelo_inurba_marseille","lat":43.29778,"lon":5.37102,"is_reserved":false,"is_disabled":false,"rental_uris":{"android":"levelo://app?vid=79fda2c3-d85a-402b-9c3b-0dceb91a8171","ios":"levelo://app?vid=79fda2c3-d85a-402b-9c3b-0dceb91a8171"},"vehicle_type_id":"4","last_reported":1767118667,"current_range_meters":14400,"station_id":"","pricing_plan_id":"cebpf4jnsgd1na2vs0mg"},{"bike_id":"83f2ee75-d6e7-4ff4-a51e-2f515ab5871a","system_id":"levelo_inurba_marseille","lat":43.29194,"lon":5.35796,"is_reserved":false,"is_disabled":false,"rental_uris":{"android":"levelo://app?vid=83f2ee75-d6e7-4ff4-a51e-2f515ab5871a","ios":"levelo://app?vid=83f2ee75-d6e7-4ff4-a51e-2f515ab5871a"},"vehicle_type_id":"4","last_reported":1767118667,"current_range_meters":14400,"station_id":"ce4bhb12rcd13ifvqel0","pricing_plan_id":"cebpf4jnsgd1na2vs0mg"},{"bike_id":"6b144ba1-b338-4534-8e6b-b544b21a5420","system_id":"levelo_inurba_marseille","lat":43.299,"lon":5.4367,"is_reserved":false,"is_disabled":false,"rental_uris":{"android":"levelo://app?vid=6b144ba1-b338-4534-8e6b-b544b21a5420","ios":"levelo://app?vid=6b144ba1-b338-4534-8e6b-b544b21a5420"},"vehicle_type_id":"4","last_reported":1767118667,"current_range_meters":14400,"station_id":"ce4bhpp2rcd13ifvqhfg","pricing_plan_id":"cebpf4jnsgd1na2vs0mg"},{"bike_id":"94e16f28-7dcf-4273-940d-294336091110","system_id":"levelo_inurba_marseille","lat":43.29528,"lon":5.38139,"is_reserved":false,"is_disabled":false,"rental_uris":{"android":"levelo://app?vid=94e16f28-7dcf-4273-940d-294336091110","ios":"levelo://app?vid=94e16f28-7dcf-4273-940d-294336091110"},"vehicle_type_id":"4","last_reported":1767118667,"current_range_meters":14400,"station_id":"","pricing_plan_id":"cebpf4jnsgd1na2vs0mg"},{"bike_id":"80b4c8c0-0829-4b50-8fbd-96fa9cf0fc30","system_id":"levelo_inurba_marseille","lat":43.2953,"lon":5.38539,"is_reserved":false,"is_disabled":false,"rental_uris":{"android":"levelo://app?vid=80b4c8c0-0829-4b50-8fbd-96fa9cf0fc30","ios":"levelo://app?vid=80b4c8c0-0829-4b50-8fbd-96fa9cf0fc30"},"vehicle_type_id":"4","last_reported":1767118667,"current_range_meters":14400,"station_id":"ce4bgih2rcd13ifvqba0","pricing_plan_id":"cebpf4jnsgd1na2vs0mg"},{"bike_id":"47f8b765-1d56-41b4-8df2-e3c9cbe6c356","system_id":"levelo_inurba_marseille","lat":43.29703,"lon":5.37697,"is_reserved":false,"is_disabled":false,"rental_uris":{"android":"levelo://app?vid=47f8b765-1d56-41b4-8df2-e3c9cbe6c356","ios":"levelo://app?vid=47f8b765-1d56-41b4-8df2-e3c9cbe6c356"},"vehicle_type_id":"4","last_reported":1767118667,"current_range_meters":14400,"station_id":"ce4bgkh2rcd13ifvqbl0","pricing_plan_id":"cebpf4jnsgd1na2vs0mg"},{"bike_id":"98cfcb6c-38cd-4083-bfae-b9c6a54fbe45","system_id":"levelo_inurba_marseille","lat":43.306195,"lon":5.372016,"is_reserved":false,"is_disabled":false,"rental_uris":{"android":"levelo://app?vid=98cfcb6c-38cd-4083-bfae-b9c6a54fbe45","ios":"levelo://app?vid=98cfcb6c-38cd-4083-bfae-b9c6a54fbe45"},"vehicle_type_id":"4","last_reported":1767118667,"current_range_meters":14400,"station_id":"ce4bgqh2rcd13ifvqc4g","pricing_plan_id":"cebpf4jnsgd1na2vs0mg"},{"bike_id":"dfa46a88-3194-4f8c-b3cb-49d3b86c230b","system_id":"levelo_inurba_marseille","lat":43.2467,"lon":5.3817,"is_reserved":false,"is_disabled":false,"rental_uris":{"android":"levelo://app?vid=dfa46a88-3194-4f8c-b3cb-49d3b86c230b","ios":"levelo://app?vid=dfa46a88-3194-4f8c-b3cb-49d3b86c230b"},"vehicle_type_id":"4","last_reported":1767118667,"current_range_meters":14400,"station_id":"ce4bhih2rcd13ifvqfr0","pricing_plan_id":"cebpf4jnsgd1na2vs0mg"},{"bike_id":"327d4f41-6547-4f60-817f-dce8f7739b45","system_id":"levelo_inurba_marseille","lat":43.2439,"lon":5.37022,"is_reserved":false,"is_disabled":false,"rental_uris":{"android":"levelo://app?vid=327d4f41-6547-4f60-817f-dce8f7739b45","ios":"levelo://app?vid=327d4f41-6547-4f60-817f-dce8f7739b45"},"vehicle_type_id":"4","last_reported":1767118667,"current_range_meters":14400,"station_id":"ce4bhhh2rcd13ifvqfk0","pricing_plan_id":"cebpf4jnsgd1na2vs0mg"},{"bike_id":"00d1c9aa-7767-4d73-aa04-cf5c70409c1a","system_id":"levelo_inurba_marseille","lat":43.28851,"lon":5.35854,"is_reserved":false,"is_disabled":false,"rental_uris":{"android":"levelo://app?vid=00d1c9aa-7767-4d73-aa04-cf5c70409c1a","ios":"levelo://app?vid=00d1c9aa-7767-4d73-aa04-cf5c70409c1a"},"vehicle_type_id":"4","last_reported":1767118667,"current_range_meters":14400,"station_id":"ce4bhb12rcd13ifvqem0","pricing_plan_id":"cebpf4jnsgd1na2vs0mg"},{"bike_id":"332c58eb-eed1-487e-afe2-b65da9208ee9","system_id":"levelo_inurba_marseille","lat":43.231991,"lon":5.35556,"is_reserved":false,"is_disabled":false,"rental_uris":{"android":"levelo://app?vid=332c58eb-eed1-487e-afe2-b65da9208ee9","ios":"levelo://app?vid=332c58eb-eed1-487e-afe2-b65da9208ee9"},"vehicle_type_id":"4","last_reported":1767118667,"current_range_meters":14800,"station_id":"ce4bhu92rcd13ifvqi70","pricing_plan_id":"cebpf4jnsgd1na2vs0mg"},{"bike_id":"a8bf7206-098c-478f-955b-acfde0129a73","system_id":"levelo_inurba_marseille","lat":43.29998,"lon":5.37156,"is_reserved":false,"is_disabled":false,"rental_uris":{"android":"levelo://app?vid=a8bf7206-098c-478f-955b-acfde0129a73","ios":"levelo://app?vid=a8bf7206-098c-478f-955b-acfde0129a73"},"vehicle_type_id":"4","last_reported":1767118667,"current_range_meters":14800,"station_id":"ce4bgr92rcd13ifvqc7g","pricing_plan_id":"cebpf4jnsgd1na2vs0mg"},{"bike_id":"5a79cd8c-12bb-435a-802e-3c1311d4fd05","system_id":"levelo_inurba_marseille","lat":43.29847,"lon":5.36279,"is_reserved":false,"is_disabled":false,"rental_uris":{"android":"levelo://app?vid=5a79cd8c-12bb-435a-802e-3c1311d4fd05","ios":"levelo://app?vid=5a79cd8c-12bb-435a-802e-3c1311d4fd05"},"vehicle_type_id":"4","last_reported":1767118667,"current_range_meters":14800,"station_id":"ce4bgpp2rcd13ifvqc3g","pricing_plan_id":"cebpf4jnsgd1na2vs0mg"},{"bike_id":"97ff4056-c02b-487e-a92e-e65288becb53","system_id":"levelo_inurba_marseille","lat":43.29611,"lon":5.37728,"is_reserved":false,"is_disabled":false,"rental_uris":{"android":"levelo://app?vid=97ff4056-c02b-487e-a92e-e65288becb53","ios":"levelo://app?vid=97ff4056-c02b-487e-a92e-e65288becb53"},"vehicle_type_id":"4","last_reported":1767118667,"current_range_meters":14800,"station_id":"ce4bgi92rcd13ifvqb90","pricing_plan_id":"cebpf4jnsgd1na2vs0mg"},{"bike_id":"8c27f8dd-49de-48cb-b4c0-2c146ce86148","system_id":"levelo_inurba_marseille","lat":43.29877,"lon":5.38057,"is_reserved":false,"is_disabled":false,"rental_uris":{"android":"levelo://app?vid=8c27f8dd-49de-48cb-b4c0-2c146ce86148","ios":"levelo://app?vid=8c27f8dd-49de-48cb-b4c0-2c146ce86148"},"vehicle_type_id":"4","last_reported":1767118667,"current_range_meters":14800,"station_id":"","pricing_plan_id":"cebpf4jnsgd1na2vs0mg"},{"bike_id":"4e6fb213-9124-4b2c-bc72-0f2f931004c8","system_id":"levelo_inurba_marseille","lat":43.32351,"lon":5.36738,"is_reserved":false,"is_disabled":true,"rental_uris":{"android":"levelo://app?vid=4e6fb213-9124-4b2c-bc72-0f2f931004c8","ios":"levelo://app?vid=4e6fb213-9124-4b2c-bc72-0f2f931004c8"},