{"last_updated":1738242912,"ttl":60,"version":"2.2","data":{"bikes":[{"bike_id":"f2c1f467-7b88-482f-9f6b-981783c270d7","system_id":"levelo_inurba_marseille","lat":43.29053,"lon":5.37158,"is_reserved":false,"is_disabled":false,"rental_uris":{"android":"levelo://app?vid=f2c1f467-7b88-482f-9f6b-981783c270d7","ios":"levelo://app?vid=f2c1f467-7b88-482f-9f6b-981783c270d7"},"vehicle_type_id":"4","last_reported":1738242913,"current_range_meters":33600,"station_id":"ce4bh5p2rcd13ifvqe4g","pricing_plan_id":"cebpf4jnsgd1na2vs0mg"},{"bike_id":"0d72069c-12f4-4000-a8ca-84be6d2ccbcd","system_id":"levelo_inurba_marseille","lat":43.29853,"lon":5.36271,"is_reserved":false,"is_disabled":false,"rental_uris":{"android":"levelo://app?vid=0d72069c-12f4-4000-a8ca-84be6d2ccbcd","ios":"levelo://app?vid=0d72069c-12f4-4000-a8ca-84be6d2ccbcd"},"vehicle_type_id":"4","last_reported":1738242913,"current_range_meters":38400,"station_id":"ce4bgpp2rcd13ifvqc3g","pricing_plan_id":"cebpf4jnsgd1na2vs0mg"},{"bike_id":"2a814825-5d2f-4409-83f7-0bfed0cb49c1","system_id":"levelo_inurba_marseille","lat":43.28412,"lon":5.3497,"is_reserved":false,"is_disabled":false,"rental_uris":{"android":"levelo://app?vid=2a814825-5d2f-4409-83f7-0bfed0cb49c1","ios":"levelo://app?vid=2a814825-5d2f-4409-83f7-0bfed0cb49c1"},"vehicle_type_id":"4","last_reported":1738242913,"current_range_meters":24800,"station_id":"ce4bhbh2rcd13ifvqepg","pricing_plan_id":"cebpf4jnsgd1na2vs0mg"},{"bike_id":"88f9db99-0526-496c-8402-9aa74821f04e","system_id":"levelo_inurba_marseille","lat":43.29784,"lon":5.3936,"is_reserved":false,"is_disabled":false,"rental_uris":{"android":"levelo://app?vid=88f9db99-0526-496c-8402-9aa74821f04e","ios":"levelo://app?vid=88f9db99-0526-496c-8402-9aa74821f04e"},"vehicle_type_id":"4","last_reported":1738242913,"current_range_meters":34000,"station_id":"chh1huq6cuj3fo74tm60","pricing_plan_id":"cebpf4jnsgd1na2vs0mg"},{"bike_id":"2d4740cb-6a71-4b1b-b8cc-957d982cc81f","system_id":"levelo_inurba_marseille","lat":43.27992,"lon":5.4166,"is_reserved":false,"is_disabled":false,"rental_uris":{"android":"levelo://app?vid=2d4740cb-6a71-4b1b-b8cc-957d982cc81f","ios":"levelo://app?vid=2d4740cb-6a71-4b1b-b8cc-957d982cc81f"},"vehicle_type_id":"4","last_reported":1738242913,"current_range_meters":8800,"station_id":"ce4bho12rcd13ifvqh1g","pricing_plan_id":"cebpf4jnsgd1na2vs0mg"},{"bike_id":"3cda397d-8701-45d8-a98c-154e352bab34","system_id":"levelo_inurba_marseille","lat":43.30159,"lon":5.38092,"is_reserved":false,"is_disabled":false,"rental_uris":{"android":"levelo://app?vid=3cda397d-8701-45d8-a98c-154e352bab34","ios":"levelo://app?vid=3cda397d-8701-45d8-a98c-154e352bab34"},"vehicle_type_id":"4","last_reported":1738242913,"current_range_meters":36400,"station_id":"ce4bgjp2rcd13ifvqbh0","pricing_plan_id":"cebpf4jnsgd1na2vs0mg"},{"bike_id":"f7f8117f-03ef-415e-85c6-2eeaf165e4f2","system_id":"levelo_inurba_marseille","lat":43.26215,"lon":5.40403,"is_reserved":false,"is_disabled":true,"rental_uris":{"android":"levelo://app?vid=f7f8117f-03ef-415e-85c6-2eeaf165e4f2","ios":"levelo://app?vid=f7f8117f-03ef-415e-85c6-2eeaf165e4f2"},"vehicle_type_id":"4","last_reported":1738242913,"current_range_meters":25600,"station_id":"ce4bhmh2rcd13ifvqgmg","pricing_plan_id":"cebpf4jnsgd1na2vs0mg"},{"bike_id":"76b57816-ff84-4ecb-88e6-16904dfc9a1a","system_id":"levelo_inurba_marseille","lat":43.29874,"lon":5.39735,"is_reserved":false,"is_disabled":false,"rental_uris":{"android":"levelo://app?vid=76b57816-ff84-4ecb-88e6-16904dfc9a1a","ios":"levelo://app?vid=76b57816-ff84-4ecb-88e6-16904dfc9a1a"},"vehicle_type_id":"4","last_reported":1738242913,"current_range_meters":6800,"station_id":"ce4bh0h2rcd13ifvqd50","pricing_plan_id":"cebpf4jnsgd1na2vs0mg"},{"bike_id":"c638a1eb-b4d3-4a47-88f5-4ffd2e894e36","system_id":"levelo_inurba_marseille","lat":43.281058,"lon":5.378482,"is_reserved":false,"is_disabled":false,"rental_uris":{"android":"levelo://app?vid=c638a1eb-b4d3-4a47-88f5-4ffd2e894e36","ios":"levelo://app?vid=c638a1eb-b4d3-4a47-88f5-4ffd2e894e36"},"vehicle_type_id":"4","last_reported":1738242913,"current_range_meters":36800,"station_id":"ce4bha12rcd13ifvqee0","pricing_plan_id":"cebpf4jnsgd1na2vs0mg"},{"bike_id":"0baa1483-1bd9-4e02-ab05-61cbf4d9e6e6","system_id":"levelo_inurba_marseille","lat":43.29068,"lon":5.37174,"is_reserved":false,"is_disabled":true,"rental_uris":{"android":"levelo://app?vid=0baa1483-1bd9-4e02-ab05-61cbf4d9e6e6","ios":"levelo://app?vid=0baa1483-1bd9-4e02-ab05-61cbf4d9e6e6"},"vehicle_type_id":"4","last_reported":1738242913,"current_range_meters":18800,"station_id":"ce4bh5p2rcd13ifvqe4g","pricing_plan_id":"cebpf4jnsgd1na2vs0mg"},{"bike_id":"3c65803e-44da-4ff4-b24e-f04b06eddea5","system_id":"levelo_inurba_marseille","lat":43.29255,"lon":5.40919,"is_reserved":false,"is_disabled":false,"rental_uris":{"android":"levelo://app?vid=3c65803e-44da-4ff4-b24e-f04b06eddea5","ios":"levelo://app?vid=3c65803e-44da-4ff4-b24e-f04b06eddea5"},"vehicle_type_id":"4","last_reported":1738242913,"current_range_meters":36800,"station_id":"ce4bh192rcd13ifvqdc0","pricing_plan_id":"cebpf4jnsgd1na2vs0mg"},{"bike_id":"9ebdc35e-1568-45ff-aa52-2363402d7b82","system_id":"levelo_inurba_marseille","lat":43.2933,"lon":5.37177,"is_reserved":false,"is_disabled":false,"rental_uris":{"android":"levelo://app?vid=9ebdc35e-1568-45ff-aa52-2363402d7b82","ios":"levelo://app?vid=9ebdc35e-1568-45ff-aa52-2363402d7b82"},"vehicle_type_id":"4","last_reported":1738242913,"current_range_meters":33200,"station_id":"ce4bgh92rcd13ifvqb40","pricing_plan_id":"cebpf4jnsgd1na2vs0mg"},{"bike_id":"d390589f-7e65-430b-90a3-5522b74a2cd9","system_id":"levelo_inurba_marseille","lat":43.27998,"lon":5.41663,"is_reserved":false,"is_disabled":false,"rental_uris":{"android":"levelo://app?vid=d390589f-7e65-430b-90a3-5522b74a2cd9","ios":"levelo://app?vid=d390589f-7e65-430b-90a3-5522b74a2cd9"},"vehicle_type_id":"4","last_reported":1738242913,"current_range_meters":4400,"station_id":"ce4bho12rcd13ifvqh1g","pricing_plan_id":"cebpf4jnsgd1na2vs0mg"},{"bike_id":"42f94e8e-5705-4e60-b41a-33529ea101d4","system_id":"levelo_inurba_marseille","lat":43.26947,"lon":5.38644,"is_reserved":false,"is_disabled":false,"rental_uris":{"android":"levelo://app?vid=42f94e8e-5705-4e60-b41a-33529ea101d4","ios":"levelo://app?vid=42f94e8e-5705-4e60-b41a-33529ea101d4"},"vehicle_type_id":"4","last_reported":1738242913,"current_range_meters":26800,"station_id":"ce4bhh92rcd13ifvqfh0","pricing_plan_id":"cebpf4jnsgd1na2vs0mg"},{"bike_id":"8a26d072-0e7b-46ee-a0e8-40cdaf993f22","system_id":"levelo_inurba_marseille","lat":43.25106,"lon":5.40326,"is_reserved":false,"is_disabled":false,"rental_uris":{"android":"levelo://app?vid=8a26d072-0e7b-46ee-a0e8-40cdaf993f22","ios":"levelo://app?vid=8a26d072-0e7b-46ee-a0e8-40cdaf993f22"},"vehicle_type_id":"4","last_reported":1738242913,"current_range_meters":29600,"station_id":"ce4bhlh2rcd13ifvqgig","pricing_plan_id":"cebpf4jnsgd1na2vs0mg"},{"bike_id":"655120d6-7e65-4be9-b754-88ac410ebf22","system_id":"levelo_inurba_marseille","lat":43.30277,"lon":5.37692,"is_reserved":false,"is_disabled":false,"rental_uris":{"android":"levelo://app?vid=655120d6-7e65-4be9-b754-88ac410ebf22","ios":"levelo://app?vid=655120d6-7e65-4be9-b754-88ac410ebf22"},"vehicle_type_id":"4","last_reported":1738242913,"current_range_meters":36000,"station_id":"ce4bguh2rcd13ifvqcj0","pricing_plan_id":"cebpf4jnsgd1na2vs0mg"},{"bike_id":"2414cde6-40b1-43a8-8f48-5d57ea55d3d2","system_id":"levelo_inurba_marseille","lat":43.2679,"lon":5.39411,"is_reserved":false,"is_disabled":false,"rental_uris":{"android":"levelo://app?vid=2414cde6-40b1-43a8-8f48-5d57ea55d3d2","ios":"levelo://app?vid=2414cde6-40b1-43a8-8f48-5d57ea55d3d2"},"vehicle_type_id":"4","last_reported":1738242913,"current_range_meters":39200,"station_id":"ce4bhh12rcd13ifvqfg0","pricing_plan_id":"cebpf4jnsgd1na2vs0mg"},{"bike_id":"dc71ee2b-bb7e-4248-aad2-5a4617bf84fd","system_id":"levelo_inurba_marseille","lat":43.28583,"lon":5.39517,"is_reserved":false,"is_disabled":false,"rental_uris":{"android":"levelo://app?vid=dc71ee2b-bb7e-4248-aad2-5a4617bf84fd","ios":"levelo://app?vid=dc71ee2b-bb7e-4248-aad2-5a4617bf84fd"},"vehicle_type_id":"4","last_reported":1738242913,"current_range_meters":38000,"station_id":"ce4bh292rcd13ifvqdg0","pricing_plan_id":"cebpf4jnsgd1na2vs0mg"},{"bike_id":"a9a12b57-7eb7-49fb-ba95-6c00f1b23d00","system_id":"levelo_inurba_marseille","lat":43.28108,"lon":5.37842,"is_reserved":false,"is_disabled":false,"rental_uris":{"android":"levelo://app?vid=a9a12b57-7eb7-49fb-ba95-6c00f1b23d00","ios":"levelo://app?vid=a9a12b57-7eb7-49fb-ba95-6c00f1b23d00"},"vehicle_type_id":"4","last_reported":1738242913,"current_range_meters":21600,"station_id":"ce4bha12rcd13ifvqee0","pricing_plan_id":"cebpf4jnsgd1na2vs0mg"},{"bike_id":"79b7a714-6899-43f0-a0e6-1e9b5234e282","system_id":"levelo_inurba_marseille","lat":43.2954,"lon":5.42286,"is_reserved":false,"is_disabled":false,"rental_uris":{"android":"levelo://app?vid=79b7a714-6899-43f0-a0e6-1e9b5234e282","ios":"levelo://app?vid=79b7a714-6899-43f0-a0e6-1e9b5234e282"},"vehicle_type_id":"4","last_reported":1738242913,"current_range_meters":36800,"station_id":"ce4bhph2rcd13ifvqhdg","pricing_plan_id":"cebpf4jnsgd1na2vs0mg"},{"bike_id":"de289e16-4738-4bbc-892a-6fb55ade8656","system_id":"levelo_inurba_marseille","lat":43.27838,"lon":5.4071,"is_reserved":false,"is_disabled":false,"rental_uris":{"android":"levelo://app?vid=de289e16-4738-4bbc-892a-6fb55ade8656","ios":"levelo://app?vid=de289e16-4738-4bbc-892a-6fb55ade8656"},"vehicle_type_id":"4","last_reported":1738242913,"current_range_meters":30000,"station_id":"ce4bhnh2rcd13ifvqgtg","pricing_plan_id":"cebpf4jnsgd1na2vs0mg"},{"bike_id":"4ef314d0-7db1-45d3-922b-9a5237f9612d","system_id":"levelo_inurba_marseille","lat":43.28347,"lon":5.38102,"is_reserved":false,"is_disabled":false,"rental_uris":{"android":"levelo://app?vid=4ef314d0-7db1-45d3-922b-9a5237f9612d","ios":"levelo://app?vid=4ef314d0-7db1-45d3-922b-9a5237f9612d"},"vehicle_type_id":"4","last_reported":1738242913,"current_range_meters":28400,"station_id":"ce4bh412rcd13ifvqdr0","pricing_plan_id":"cebpf4jnsgd1na2vs0mg"},{"bike_id":"4990a50c-5986-46cf-a0a6-0ea5573eed49","system_id":"levelo_inurba_marseille","lat":43.30252,"lon":5.40056,"is_reserved":false,"is_disabled":false,"rental_uris":{"android":"levelo://app?vid=4990a50c-5986-46cf-a0a6-0ea5573eed49","ios":"levelo://app?vid=4990a50c-5986-46cf-a0a6-0ea5573eed49"},"vehicle_type_id":"4","last_reported":1738242913,"current_range_meters":29600,"station_id":"ce4bgvh2rcd13ifvqcs0","pricing_plan_id":"cebpf4jnsgd1na2vs0mg"},{"bike_id":"15d0d989-ae97-422d-ab9e-c8056bb959f7","system_id":"levelo_inurba_marseille","lat":43.278414,"lon":5.392269,"is_reserved":false,"is_disabled":false,"rental_uris":{"android":"levelo://app?vid=15d0d989-ae97-422d-ab9e-c8056bb959f7","ios":"levelo://app?vid=15d0d989-ae97-422d-ab9e-c8056bb959f7"},"vehicle_type_id":"4","last_reported":1738242913,"current_range_meters":36400,"station_id":"ce4bhjp2rcd13ifvqga0","pricing_plan_id":"cebpf4jnsgd1na2vs0mg"},{"bike_id":"41c6b4de-b076-4435-9f49-8aad4e64ad81","system_id":"levelo_inurba_marseille","lat":43.28472,"lon":5.38552,"is_reserved":false,"is_disabled":false,"rental_uris":{"android":"levelo://app?vid=41c6b4de-b076-4435-9f49-8aad4e64ad81","ios":"levelo://app?vid=41c6b4de-b076-4435-9f49-8aad4e64ad81"},"vehicle_type_id":"4","last_reported":1738242913,"current_range_meters":28000,"station_id":"ce4bh8p2rcd13ifvqeb0","pricing_plan_id":"cebpf4jnsgd1na2vs0mg"},{"bike_id":"76c2febc-0eb9-4f83-8334-5c6af9958ba0","system_id":"levelo_inurba_marseille","lat":43.2904,"lon":5.39988,"is_reserved":false,"is_disabled":false,"rental_uris":{"android":"levelo://app?vid=76c2febc-0eb9-4f83-8334-5c6af9958ba0","ios":"levelo://app?vid=76c2febc-0eb9-4f83-8334-5c6af9958ba0"},"vehicle_type_id":"4","last_reported":1738242913,"current_range_meters":34000,"station_id":"ce4bh392rcd13ifvqdm0","pricing_plan_id":"cebpf4jnsgd1na2vs0mg"},{"bike_id":"a4996102-f702-4d1e-923d-c8b14152160a","system_id":"levelo_inurba_marseille","lat":43.26961,"lon":5.38633,"is_reserved":false,"is_disabled":false,"rental_uris":{"android":"levelo://app?vid=a4996102-f702-4d1e-923d-c8b14152160a","ios":"levelo://app?vid=a4996102-f702-4d1e-923d-c8b14152160a"},"vehicle_type_id":"4","last_reported":1738242913,"current_range_meters":38800,"station_id":"ce4bhh92rcd13ifvqfh0","pricing_plan_id":"cebpf4jnsgd1na2vs0mg"},{"bike_id":"1c63fa7b-8bb3-4da5-8267-9c40ab75cc0b","system_id":"levelo_inurba_marseille","lat":43.3375,"lon":5.39175,"is_reserved":false,"is_disabled":false,"rental_uris":{"android":"levelo://app?vid=1c63fa7b-8bb3-4da5-8267-9c40ab75cc0b","ios":"levelo://app?vid=1c63fa7b-8bb3-4da5-8267-9c40ab75cc0b"},"vehicle_type_id":"4","last_reported":1738242913,"current_range_meters":39200,"station_id":"ce4bhr92rcd13ifvqhsg","pricing_plan_id":"cebpf4jnsgd1na2vs0mg"},{"bike_id":"e99c90aa-e079-42e2-a963-1534829ba9c7","system_id":"levelo_inurba_marseille","lat":43.26214,"lon":5.37441,"is_reserved":false,"is_disabled":false,"rental_uris":{"android":"levelo://app?vid=e99c90aa-e079-42e2-a963-1534829ba9c7","ios":"levelo://app?vid=e99c90aa-e079-42e2-a963-1534829ba9c7"},"vehicle_type_id":"4","last_reported":1738242913,"current_range_meters":35600,"station_id":"ce4bhgp2rcd13ifvqfc0","pricing_plan_id":"cebpf4jnsgd1na2vs0mg"},{"bike_id":"5ab5d72b-c74c-49ef-9e11-0bce1933dab3","system_id":"levelo_inurba_marseille","lat":43.28344,"lon":5.381,"is_reserved":false,"is_disabled":false,"rental_uris":{"android":"levelo://app?vid=5ab5d72b-c74c-49ef-9e11-0bce1933dab3","ios":"levelo://app?vid=5ab5d72b-c74c-49ef-9e11-0bce1933dab3"},"vehicle_type_id":"4","last_reported":1738242913,"current_range_meters":36800,"station_id":"ce4bh412rcd13ifvqdr0","pricing_plan_id":"cebpf4jnsgd1na2vs0mg"},{"bike_id":"537a974f-6aa4-4446-8d01-3c9314a0b685","system_id":"levelo_inurba_marseille","lat":43.29871,"lon":5.39731,"is_reserved":false,"is_disabled":false,"rental_uris":{"android":"levelo://app?vid=537a974f-6aa4-4446-8d01-3c9314a0b685","ios":"levelo://app?vid=537a974f-6aa4-4446-8d01-3c9314a0b685"},"vehicle_type_id":"4","last_reported":1738242913,"current_range_meters":20400,"station_id":"ce4bh0h2rcd13ifvqd50","pricing_plan_id":"cebpf4jnsgd1na2vs0mg"},{"bike_id":"cc47836a-b908-432f-8e0e-2f793407f141","system_id":"levelo_inurba_marseille","lat":43.2292,"lon":5.35375,"is_reserved":false,"is_disabled":false,"rental_uris":{"android":"levelo://app?vid=cc47836a-b908-432f-8e0e-2f793407f141","ios":"levelo://app?vid=cc47836a-b908-432f-8e0e-2f793407f141"},"vehicle_type_id":"4","last_reported":1738242913,"current_range_meters":16400,"station_id":"cpo3532slgdg3j2ikp40","pricing_plan_id":"cebpf4jnsgd1na2vs0mg"},{"bike_id":"983606c9-a33d-4f5d-a971-8c403ad0c9b7","system_id":"levelo_inurba_marseille","lat":43.3032,"lon":5.40427,"is_reserved":false,"is_disabled":false,"rental_uris":{"android":"levelo://app?vid=983606c9-a33d-4f5d-a971-8c403ad0c9b7","ios":"levelo://app?vid=983606c9-a33d-4f5d-a971-8c403ad0c9b7"},"vehicle_type_id":"4","last_reported":1738242913,"current_range_meters":24000,"station_id":"ce4bh012rcd13ifvqd10","pricing_plan_id":"cebpf4jnsgd1na2vs0mg"},{"bike_id":"7c3bf8f7-ea08-4399-9011-4efb98054e18","system_id":"levelo_inurba_marseille","lat":43.30479,"lon":5.37907,"is_reserved":false,"is_disabled":false,"rental_uris":{"android":"levelo://app?vid=7c3bf8f7-ea08-4399-9011-4efb98054e18","ios":"levelo://app?vid=7c3bf8f7-ea08-4399-9011-4efb98054e18"},"vehicle_type_id":"4","last_reported":1738242913,"current_range_meters":20800,"station_id":"ce4bgup2rcd13ifvqcn0","pricing_plan_id":"cebpf4jnsgd1na2vs0mg"},{"bike_id":"72e3f5db-3724-48cd-9368-0a99fb62d116","system_id":"levelo_inurba_marseille","lat":43.28665,"lon":5.36353,"is_reserved":false,"is_disabled":false,"rental_uris":{"android":"levelo://app?vid=72e3f5db-3724-48cd-9368-0a99fb62d116","ios":"levelo://app?vid=72e3f5db-3724-48cd-9368-0a99fb62d116"},"vehicle_type_id":"4","last_reported":1738242913,"current_range_meters":38000,"station_id":"ce4bhah2rcd13ifvqej0","pricing_plan_id":"cebpf4jnsgd1na2vs0mg"},{"bike_id":"ddb32047-44a3-4f83-8011-904b3cd64d9e","system_id":"levelo_inurba_marseille","lat":43.321,"lon":5.36791,"is_reserved":false,"is_disabled":false,"rental_uris":{"android":"levelo://app?vid=ddb32047-44a3-4f83-8011-904b3cd64d9e","ios":"levelo://app?vid=ddb32047-44a3-4f83-8011-904b3cd64d9e"},"vehicle_type_id":"4","last_reported":1738242913,"current_range_meters":26800,"station_id":"ce4bhrh2rcd13ifvqhug","pricing_plan_id":"cebpf4jnsgd1na2vs0mg"},{"bike_id":"5dfc1fb4-b806-4c30-8465-898234bffdb9","system_id":"levelo_inurba_marseille","lat":43.29312,"lon":5.37167,"is_reserved":false,"is_disabled":false,"rental_uris":{"android":"levelo://app?vid=5dfc1fb4-b806-4c30-8465-898234bffdb9","ios":"levelo://app?vid=5dfc1fb4-b806-4c30-8465-898234bffdb9"},"vehicle_type_id":"4","last_reported":1738242913,"current_range_meters":32000,"station_id":"ce4bgh92rcd13ifvqb40","pricing_plan_id":"cebpf4jnsgd1na2vs0mg"},{"bike_id":"7fbc607b-e12b-47bd-a53f-1c18ac62adfd","system_id":"levelo_inurba_marseille","lat":43.27833,"lon":5.40717,"is_reserved":false,"is_disabled":false,"rental_uris":{"android":"levelo://app?vid=7fbc607b-e12b-47bd-a53f-1c18ac62adfd","ios":"levelo://app?vid=7fbc607b-e12b-47bd-a53f-1c18ac62adfd"},"vehicle_type_id":"4","last_reported":1738242913,"current_range_meters":32800,"station_id":"ce4bhnh2rcd13ifvqgtg","pricing_plan_id":"cebpf4jnsgd1na2vs0mg"},{"bike_id":"21b52f6a-4d72-4210-8710-c5cde09123c4","system_id":"levelo_inurba_marseille","lat":43.27373,"lon":5.39109,"is_reserved":false,"is_disabled":false,"rental_uris":{"android":"levelo://app?vid=21b52f6a-4d72-4210-8710-c5cde09123c4","ios":"levelo://app?vid=21b52f6a-4d72-4210-8710-c5cde09123c4"},"vehicle_type_id":"4","last_reported":1738242913,"current_range_meters":39200,"station_id":"ce4bhgp2rcd13ifvqfe0","pricing_plan_id":"cebpf4jnsgd1na2vs0mg"},{"bike_id":"f34fcd93-0f66-400a-8f07-aa08bfa23861","system_id":"levelo_inurba_marseille","lat":43.25928,"lon":5.40903,"is_reserved":false,"is_disabled":false,"rental_uris":{"android":"levelo://app?vid=f34fcd93-0f66-400a-8f07-aa08bfa23861","ios":"levelo://app?vid=f34fcd93-0f66-400a-8f07-aa08bfa23861"},"vehicle_type_id":"4","last_reported":1738242913,"current_range_meters":2800,"station_id":"ce4bhm92rcd13ifvqglg","pricing_plan_id":"cebpf4jnsgd1na2vs0mg"},{"bike_id":"606053f9-3da2-4594-b4df-8e24b5fa812c","system_id":"levelo_inurba_marseille","lat":43.26931,"lon":5.40264,"is_reserved":false,"is_disabled":false,"rental_uris":{"android":"levelo://app?vid=606053f9-3da2-4594-b4df-8e24b5fa812c","ios":"levelo://app?vid=606053f9-3da2-4594-b4df-8e24b5fa812c"},"vehicle_type_id":"4","last_reported":1738242913,"current_range_meters":38800,"station_id":"cjm6bp8fraef2m0cb0m0","pricing_plan_id":"cebpf4jnsgd1na2vs0mg"},{"bike_id":"c5f64e1a-eac8-422f-96c0-6a19bf461b5c","system_id":"levelo_inurba_marseille","lat":43.28079,"lon":5.39664,"is_reserved":false,"is_disabled":false,"rental_uris":{"android":"levelo://app?vid=c5f64e1a-eac8-422f-96c0-6a19bf461b5c","ios":"levelo://app?vid=c5f64e1a-eac8-422f-96c0-6a19bf461b5c"},"vehicle_type_id":"4","last_reported":1738242913,"current_range_meters":26000,"station_id":"ce4bho12rcd13ifvqh2g","pricing_plan_id":"cebpf4jnsgd1na2vs0mg"},{"bike_id":"3d3c6ff7-47f8-4b3f-8686-144915168253","system_id":"levelo_inurba_marseille","lat":43.30539,"lon":5.36534,"is_reserved":false,"is_disabled":false,"rental_uris":{"android":"levelo://app?vid=3d3c6ff7-47f8-4b3f-8686-144915168253","ios":"levelo://app?vid=3d3c6ff7-47f8-4b3f-8686-144915168253"},"vehicle_type_id":"4","last_reported":1738242913,"current_range_meters":26000,"station_id":"ce4bgs12rcd13ifvqcag","pricing_plan_id":"cebpf4jnsgd1na2vs0mg"},{"bike_id":"52715efc-f2dd-4bb6-8ec0-9f849ed036bf","system_id":"levelo_inurba_marseille","lat":43.26573,"lon":5.39032,"is_reserved":false,"is_disabled":false,"rental_uris":{"android":"levelo://app?vid=52715efc-f2dd-4bb6-8ec0-9f849ed036bf","ios":"levelo://app?vid=52715efc-f2dd-4bb6-8ec0-9f849ed036bf"},"vehicle_type_id":"4","last_reported":1738242913,"current_range_meters":27600,"station_id":"ce4bhe12rcd13ifvqf30","pricing_plan_id":"cebpf4jnsgd1na2vs0mg"},{"bike_id":"c52ee0d8-fc14-4a91-ad24-eeec1e8e0625","system_id":"levelo_inurba_marseille","lat":43.26195,"lon":5.37449,"is_reserved":false,"is_disabled":false,"rental_uris":{"android":"levelo://app?vid=c52ee0d8-fc14-4a91-ad24-eeec1e8e0625","ios":"levelo://app?vid=c52ee0d8-fc14-4a91-ad24-eeec1e8e0625"},"vehicle_type_id":"4","last_reported":1738242913,"current_range_meters":38800,"station_id":"ce4bhgp2rcd13ifvqfc0","pricing_plan_id":"cebpf4jnsgd1na2vs0mg"},{"bike_id":"d8f7a0d6-00fd-4a0a-9943-e9526f3d22f6","system_id":"levelo_inurba_marseille","lat":43.29534,"lon":5.37491,"is_reserved":false,"is_disabled":false,"rental_uris":{"android":"levelo://app?vid=d8f7a0d6-00fd-4a0a-9943-e9526f3d22f6","ios":"levelo://app?vid=d8f7a0d6-00fd-4a0a-9943-e9526f3d22f6"},"vehicle_type_id":"4","last_reported":1738242913,"current_range_meters":38400,"station_id":"ce4bgkp2rcd13ifvqbmg","pricing_plan_id":"cebpf4jnsgd1na2vs0mg"},{"bike_id":"970ebb06-ca9e-4f28-b8ba-dc0f942d608c","system_id":"levelo_inurba_marseille","lat":43.29706,"lon":5.37691,"is_reserved":false,"is_disabled":false,"rental_uris":{"android":"levelo://app?vid=970ebb06-ca9e-4f28-b8ba-dc0f942d608c","ios":"levelo://app?vid=970ebb06-ca9e-4f28-b8ba-dc0f942d608c"},"vehicle_type_id":"4","last_reported":1738242913,"current_range_meters":39200,"station_id":"ce4bgkh2rcd13ifvqbl0","pricing_plan_id":"cebpf4jnsgd1na2vs0mg"},{"bike_id":"720742d2-419d-457a-ab4d-f4f9f5327356","system_id":"levelo_inurba_marseille","lat":43.2792,"lon":5.39581,"is_reserved":false,"is_disabled":false,"rental_uris":{"android":"levelo://app?vid=720742d2-419d-457a-ab4d-f4f9f5327356","ios":"levelo://app?vid=720742d2-419d-457a-ab4d-f4f9f5327356"},"vehicle_type_id":"4","last_reported":1738242913,"current_range_meters":38400,"station_id":"ce4bhf92rcd13ifvqf40","pricing_plan_id":"cebpf4jnsgd1na2vs0mg"},{"bike_id":"ec1ca40e-791f-4792-befe-7898ee1de422","system_id":"levelo_inurba_marseille","lat":43.27491,"lon":5.42442,"is_reserved":false,"is_disabled":false,"rental_uris":{"android":"levelo://app?vid=ec1ca40e-791f-4792-befe-7898ee1de422","ios":"levelo://app?vid=ec1ca40e-791f-4792-befe-7898ee1de422"},"vehicle_type_id":"4","last_reported":1738242913,"current_range_meters":4800,"station_id":"ce4bhn92rcd13ifvqgrg","pricing_plan_id":"cebpf4jnsgd1na2vs0mg"},{"bike_id":"63dab48d-6bd1-4b4f-88f7-b4fea737e488","system_id":"levelo_inurba_marseille","lat":43.32486,"lon":5.3662,"is_reserved":false,"is_disabled":false,"rental_uris":{"android":"levelo://app?vid=63dab48d-6bd1-4b4f-88f7-b4fea737e488","ios":"levelo://app?vid=63dab48d-6bd1-4b4f-88f7-b4fea737e488"},"vehicle_type_id":"4","last_reported":1738242913,"current_range_meters":32800,"station_id":"","pricing_plan_id":"cebpf4jnsgd1na2vs0mg"},{"bike_id":"9f7cbc3c-6e0b-4442-8c70-64c0b2a1452e","system_id":"levelo_inurba_marseille","lat":43.23058,"lon":5.35507,"is_reserved":false,"is_disabled":false,"rental_uris":{"android":"levelo://app?vid=9f7cbc3c-6e0b-4442-8c70-64c0b2a1452e","ios":"levelo://app?vid=9f7cbc3c-6e0b-4442-8c70-64c0b2a1452e"},"vehicle_type_id":"4","last_reported":1738242913,"current_range_meters":12000,"station_id":"cpo3342slgdg3j2ifvpg","pricing_plan_id":"cebpf4jnsgd1na2vs0mg"},{"bike_id":"c8a3a0ed-dff2-4f3c-87dc-2e6b47b1ad28","system_id":"levelo_inurba_marseille","lat":43.337444,"lon":5.374475,"is_reserved":false,"is_disabled":true,"rental_uris":{"android":"levelo://app?vid=c8a3a0ed-dff2-4f3c-87dc-2e6b47b1ad28","ios":"levelo://app?vid=c8a3a0ed-dff2-4f3c-87dc-2e6b47b1ad28"},"vehicle_type_id":"4","last_reported":1738242913,"current_range_meters":0,"station_id":"","pricing_plan_id":"cebpf4jnsgd1na2vs0mg"},{"bike_id":"73d27c3c-11dc-47c5-b1dd-3371431fd91e","system_id":"levelo_inurba_marseille","lat":43.30091,"lon":5.36397,"is_reserved":false,"is_disabled":false,"rental_uris":{"android":"levelo://app?vid=73d27c3c-11dc-47c5-b1dd-3371431fd91e","ios":"levelo://app?vid=73d27c3c-11dc-47c5-b1dd-3371431fd91e"},"vehicle_type_id":"4","last_reported":1738242913,"current_range_meters":30000,"station_id":"","pricing_plan_id":"cebpf4jnsgd1na2vs0mg"},{"bike_id":"02ad5e65-8e2d-4089-98e9-5d190adb7054","system_id":"levelo_inurba_marseille","lat":43.28353,"lon":5.38099,"is_reserved":false,"is_disabled":false,"rental_uris":{"android":"levelo://app?vid=02ad5e65-8e2d-4089-98e9-5d190adb7054","ios":"levelo://app?vid=02ad5e65-8e2d-4089-98e9-5d190adb7054"},"vehicle_type_id":"4","last_reported":1738242913,"current_range_meters":30400,"station_id":"ce4bh412rcd13ifvqdr0","pricing_plan_id":"cebpf4jnsgd1na2vs0mg"},{"bike_id":"7247902a-635d-4f06-9cf7-f11e089c2d38","system_id":"levelo_inurba_marseille","lat":43.26946,"lon":5.40253,"is_reserved":false,"is_disabled":false,"rental_uris":{"android":"levelo://app?vid=7247902a-635d-4f06-9cf7-f11e089c2d38","ios":"levelo://app?vid=7247902a-635d-4f06-9cf7-f11e089c2d38"},"vehicle_type_id":"4","last_reported":1738242913,"current_range_meters":38800,"station_id":"cjm6bp8fraef2m0cb0m0","pricing_plan_id":"cebpf4jnsgd1na2vs0mg"},{"bike_id":"b55d5c87-d733-4603-88ce-2f908f24af92","system_id":"levelo_inurba_marseille","lat":43.28935,"lon":5.38399,"is_reserved":false,"is_disabled":false,"rental_uris":{"android":"levelo://app?vid=b55d5c87-d733-4603-88ce-2f908f24af92","ios":"levelo://app?vid=b55d5c87-d733-4603-88ce-2f908f24af92"},"vehicle_type_id":"4","last_reported":1738242913,"current_range_meters":38800,"station_id":"ce4bh612rcd13ifvqe6g","pricing_plan_id":"cebpf4jnsgd1na2vs0mg"},{"bike_id":"6a3cab35-4e4c-4228-9090-2389d829f024","system_id":"levelo_inurba_marseille","lat":43.31371,"lon":5.38495,"is_reserved":false,"is_disabled":false,"rental_uris":{"android":"levelo://app?vid=6a3cab35-4e4c-4228-9090-2389d829f024","ios":"levelo://app?vid=6a3cab35-4e4c-4228-9090-2389d829f024"},"vehicle_type_id":"4","last_reported":1738242913,"current_range_meters":18000,"station_id":"ce4bgt92rcd13ifvqcf0","pricing_plan_id":"cebpf4jnsgd1na2vs0mg"},{"bike_id":"2e1db198-f2d0-495d-a181-e940c0bb8367","system_id":"levelo_inurba_marseille","lat":43.2979,"lon":5.39349,"is_reserved":false,"is_disabled":false,"rental_uris":{"android":"levelo://app?vid=2e1db198-f2d0-495d-a181-e940c0bb8367","ios":"levelo://app?vid=2e1db198-f2d0-495d-a181-e940c0bb8367"},"vehicle_type_id":"4","last_reported":1738242913,"current_range_meters":38800,"station_id":"chh1huq6cuj3fo74tm60","pricing_plan_id":"cebpf4jnsgd1na2vs0mg"},{"bike_id":"ecc7d736-8dcc-4521-8ca5-10a9af95cf48","system_id":"levelo_inurba_marseille","lat":43.25932,"lon":5.40902,"is_reserved":false,"is_disabled":false,"rental_uris":{"android":"levelo://app?vid=ecc7d736-8dcc-4521-8ca5-10a9af95cf48","ios":"levelo://app?vid=ecc7d736-8dcc-4521-8ca5-10a9af95cf48"},"vehicle_type_id":"4","last_reported":1738242913,"current_range_meters":26000,"station_id":"ce4bhm92rcd13ifvqglg","pricing_plan_id":"cebpf4jnsgd1na2vs0mg"},{"bike_id":"05e57a95-2c98-4ceb-9388-74d754669e55","system_id":"levelo_inurba_marseille","lat":43.25887,"lon":5.399,"is_reserved":false,"is_disabled":false,"rental_uris":{"android":"levelo://app?vid=05e57a95-2c98-4ceb-9388-74d754669e55","ios":"levelo://app?vid=05e57a95-2c98-4ceb-9388-74d754669e55"},"vehicle_type_id":"4","last_reported":1738242913,"current_range_meters":22000,"station_id":"ce4bhl92rcd13ifvqghg","pricing_plan_id":"cebpf4jnsgd1na2vs0mg"},{"bike_id":"32802d31-82e5-49aa-928e-45336ddb5e58","system_id":"levelo_inurba_marseille","lat":43.24996,"lon":5.38929,"is_reserved":false,"is_disabled":false,"rental_uris":{"android":"levelo://app?vid=32802d31-82e5-49aa-928e-45336ddb5e58","ios":"levelo://app?vid=32802d31-82e5-49aa-928e-45336ddb5e58"},"vehicle_type_id":"4","last_reported":1738242913,"current_range_meters":39200,"station_id":"ce4bhgp2rcd13ifvqfd0","pricing_plan_id":"cebpf4jnsgd1na2vs0mg"},{"bike_id":"d06240a3-8895-42e8-9212-5c068d44e9d2","system_id":"levelo_inurba_marseille","lat":43.2862,"lon":5.35093,"is_reserved":false,"is_disabled":false,"rental_uris":{"android":"levelo://app?vid=d06240a3-8895-42e8-9212-5c068d44e9d2","ios":"levelo://app?vid=d06240a3-8895-42e8-9212-5c068d44e9d2"},"vehicle_type_id":"4","last_reported":1738242913,"current_range_meters":30000,"station_id":"ce4bhch2rcd13ifvqeug","pricing_plan_id":"cebpf4jnsgd1na2vs0mg"},{"bike_id":"119a0ace-2413-496b-84f3-db8a6a6c260c","system_id":"levelo_inurba_marseille","lat":43.29851,"lon":5.36273,"is_reserved":false,"is_disabled":false,"rental_uris":{"android":"levelo://app?vid=119a0ace-2413-496b-84f3-db8a6a6c260c","ios":"levelo://app?vid=119a0ace-2413-496b-84f3-db8a6a6c260c"},"vehicle_type_id":"4","last_reported":1738242913,"current_range_meters":38000,"station_id":"ce4bgpp2rcd13ifvqc3g","pricing_plan_id":"cebpf4jnsgd1na2vs0mg"},{"bike_id":"4ba3b19f-1b1a-4673-8b8c-2619676f90bd","system_id":"levelo_inurba_marseille","lat":43.25945,"lon":5.409,"is_reserved":false,"is_disabled":false,"rental_uris":{"android":"levelo://app?vid=4ba3b19f-1b1a-4673-8b8c-2619676f90bd","ios":"levelo://app?vid=4ba3b19f-1b1a-4673-8b8c-2619676f90bd"},"vehicle_type_id":"4","last_reported":1738242913,"current_range_meters":6000,"station_id":"ce4bhm92rcd13ifvqglg","pricing_plan_id":"cebpf4jnsgd1na2vs0mg"},{"bike_id":"ab82d8aa-253d-4958-9348-5279da82b25d","system_id":"levelo_inurba_marseille","lat":43.29608,"lon":5.37724,"is_reserved":false,"is_disabled":false,"rental_uris":{"android":"levelo://app?vid=ab82d8aa-253d-4958-9348-5279da82b25d","ios":"levelo://app?vid=ab82d8aa-253d-4958-9348-5279da82b25d"},"vehicle_type_id":"4","last_reported":1738242913,"current_range_meters":37600,"station_id":"ce4bgi92rcd13ifvqb90","pricing_plan_id":"cebpf4jnsgd1na2vs0mg"},{"bike_id":"b732fc12-6f55-4b85-a4de-6da9edd179c9","system_id":"levelo_inurba_marseille","lat":43.31125,"lon":5.36777,"is_reserved":false,"is_disabled":false,"rental_uris":{"android":"levelo://app?vid=b732fc12-6f55-4b85-a4de-6da9edd179c9","ios":"levelo://app?vid=b732fc12-6f55-4b85-a4de-6da9edd179c9"},"vehicle_type_id":"4","last_reported":1738242913,"current_range_meters":28000,"station_id":"","pricing_plan_id":"cebpf4jnsgd1na2vs0mg"},{"bike_id":"21c696e0-c5f2-4276-9699-40ae57d8aaab","system_id":"levelo_inurba_marseille","lat":43.28427,"lon":5.3826,"is_reserved":false,"is_disabled":false,"rental_uris":{"android":"levelo://app?vid=21c696e0-c5f2-4276-9699-40ae57d8aaab","ios":"levelo://app?vid=21c696e0-c5f2-4276-9699-40ae57d8aaab"},"vehicle_type_id":"4","last_reported":1738242913,"current_range_meters":38400,"station_id":"ce4bh512rcd13ifvqe3g","pricing_plan_id":"cebpf4jnsgd1na2vs0mg"},{"bike_id":"a36de8bd-2e3e-4fb2-8780-295adcb078f0","system_id":"levelo_inurba_marseille","lat":43.26571,"lon":5.37283,"is_reserved":false,"is_disabled":false,"rental_uris":{"android":"levelo://app?vid=a36de8bd-2e3e-4fb2-8780-295adcb078f0","ios":"levelo://app?vid=a36de8bd-2e3e-4fb2-8780-295adcb078f0"},"vehicle_type_id":"4","last_reported":1738242913,"current_range_meters":36800,"station_id":"ce4bhg12rcd13ifvqf70","pricing_plan_id":"cebpf4jnsgd1na2vs0mg"},{"bike_id":"9838cc78-2b53-49d3-ae13-82df62c4fd64","system_id":"levelo_inurba_marseille","lat":43.28412,"lon":5.40934,"is_reserved":false,"is_disabled":true,"rental_uris":{"android":"levelo://app?vid=9838cc78-2b53-49d3-ae13-82df62c4fd64","ios":"levelo://app?vid=9838cc78-2b53-49d3-ae13-82df62c4fd64"},"vehicle_type_id":"4","last_reported":1738242913,"current_range_meters":0,"station_id":"","pricing_plan_id":"cebpf4jnsgd1na2vs0mg"},{"bike_id":"048860aa-be71-4929-84ff-ea59f6149e62","system_id":"levelo_inurba_marseille","lat":43.28366,"lon":5.38145,"is_reserved":false,"is_disabled":false,"rental_uris":{"android":"levelo://app?vid=048860aa-be71-4929-84ff-ea59f6149e62","ios":"levelo://app?vid=048860aa-be71-4929-84ff-ea59f6149e62"},"vehicle_type_id":"4","last_reported":1738242913,"current_range_meters":19600,"station_id":"ce4bh412rcd13ifvqdr0","pricing_plan_id":"cebpf4jnsgd1na2vs0mg"},{"bike_id":"714b534d-33c4-4c70-8f93-7716b45f2173","system_id":"levelo_inurba_marseille","lat":43.29982,"lon":5.38479,"is_reserved":false,"is_disabled":false,"rental_uris":{"android":"levelo://app?vid=714b534d-33c4-4c70-8f93-7716b45f2173","ios":"levelo://app?vid=714b534d-33c4-4c70-8f93-7716b45f2173"},"vehicle_type_id":"4","last_reported":1738242913,"current_range_meters":37600,"station_id":"ce4bgj92rcd13ifvqbd0","pricing_plan_id":"cebpf4jnsgd1na2vs0mg"},{"bike_id":"0b1f4817-4c30-44b7-9201-5f8be66aeb19","system_id":"levelo_inurba_marseille","lat":43.28038,"lon":5.3695,"is_reserved":false,"is_disabled":false,"rental_uris":{"android":"levelo://app?vid=0b1f4817-4c30-44b7-9201-5f8be66aeb19","ios":"levelo://app?vid=0b1f4817-4c30-44b7-9201-5f8be66aeb19"},"vehicle_type_id":"4","last_reported":1738242913,"current_range_meters":38800,"station_id":"ce4bha12rcd13ifvqef0","pricing_plan_id":"cebpf4jnsgd1na2vs0mg"},{"bike_id":"49794471-5160-42ca-830e-63a870ddea70","system_id":"levelo_inurba_marseille","lat":43.27326,"lon":5.39059,"is_reserved":false,"is_disabled":false,"rental_uris":{"android":"levelo://app?vid=49794471-5160-42ca-830e-63a870ddea70","ios":"levelo://app?vid=49794471-5160-42ca-830e-63a870ddea70"},"vehicle_type_id":"4","last_reported":1738242913,"current_range_meters":19600,"station_id":"ce4bhgp2rcd13ifvqfe0","pricing_plan_id":"cebpf4jnsgd1na2vs0mg"},{"bike_id":"a6b336c6-34d6-4b26-bccf-abefa3771ff1","system_id":"levelo_inurba_marseille","lat":43.23146,"lon":5.43719,"is_reserved":false,"is_disabled":false,"rental_uris":{"android":"levelo://app?vid=a6b336c6-34d6-4b26-bccf-abefa3771ff1","ios":"levelo://app?vid=a6b336c6-34d6-4b26-bccf-abefa3771ff1"},"vehicle_type_id":"4","last_reported":1738242913,"current_range_meters":38800,"station_id":"ce4bhmp2rcd13ifvqgog","pricing_plan_id":"cebpf4jnsgd1na2vs0mg"},{"bike_id":"d03c0451-5cb0-4245-9dc7-74d9721a7958","system_id":"levelo_inurba_marseille","lat":43.25117,"lon":5.40317,"is_reserved":false,"is_disabled":false,"rental_uris":{"android":"levelo://app?vid=d03c0451-5cb0-4245-9dc7-74d9721a7958","ios":"levelo://app?vid=d03c0451-5cb0-4245-9dc7-74d9721a7958"},"vehicle_type_id":"4","last_reported":1738242913,"current_range_meters":28000,"station_id":"ce4bhlh2rcd13ifvqgig","pricing_plan_id":"cebpf4jnsgd1na2vs0mg"},{"bike_id":"b2b108bd-713b-4183-9c13-9c3b798e57f3","system_id":"levelo_inurba_marseille","lat":43.31073,"lon":5.38362,"is_reserved":false,"is_disabled":false,"rental_uris":{"android":"levelo://app?vid=b2b108bd-713b-4183-9c13-9c3b798e57f3","ios":"levelo://app?vid=b2b108bd-713b-4183-9c13-9c3b798e57f3"},"vehicle_type_id":"4","last_reported":1738242913,"current_range_meters":24800,"station_id":"ce4bgv92rcd13ifvqcr0","pricing_plan_id":"cebpf4jnsgd1na2vs0mg"},{"bike_id":"bde4000e-3bfe-415e-b990-93fcc3a5a8ad","system_id":"levelo_inurba_marseille","lat":43.28697,"lon":5.3738,"is_reserved":false,"is_disabled":false,"rental_uris":{"android":"levelo://app?vid=bde4000e-3bfe-415e-b990-93fcc3a5a8ad","ios":"levelo://app?vid=bde4000e-3bfe-415e-b990-93fcc3a5a8ad"},"vehicle_type_id":"4","last_reported":1738242913,"current_range_meters":36000,"station_id":"ce4bh3p2rcd13ifvqdq0","pricing_plan_id":"cebpf4jnsgd1na2vs0mg"},{"bike_id":"3d3683d0-6fa2-4625-8b79-882bbb185c30","system_id":"levelo_inurba_marseille","lat":43.32274,"lon":5.38256,"is_reserved":false,"is_disabled":false,"rental_uris":{"android":"levelo://app?vid=3d3683d0-6fa2-4625-8b79-882bbb185c30","ios":"levelo://app?vid=3d3683d0-6fa2-4625-8b79-882bbb185c30"},"vehicle_type_id":"4","last_reported":1738242913,"current_range_meters":31200,"station_id":"ce4bhr12rcd13ifvqhqg","pricing_plan_id":"cebpf4jnsgd1na2vs0mg"},{"bike_id":"4487981e-35de-45fa-89dc-c9471979b027","system_id":"levelo_inurba_marseille","lat":43.24649,"lon":5.38891,"is_reserved":false,"is_disabled":false,"rental_uris":{"android":"levelo://app?vid=4487981e-35de-45fa-89dc-c9471979b027","ios":"levelo://app?vid=4487981e-35de-45fa-89dc-c9471979b027"},"vehicle_type_id":"4","last_reported":1738242913,"current_range_meters":38800,"station_id":"ce4bhg12rcd13ifvqf60","pricing_plan_id":"cebpf4jnsgd1na2vs0mg"},{"bike_id":"8316cb10-023d-4bec-a7d1-c688e60191c8","system_id":"levelo_inurba_marseille","lat":43.28166,"lon":5.42645,"is_reserved":false,"is_disabled":false,"rental_uris":{"android":"levelo://app?vid=8316cb10-023d-4bec-a7d1-c688e60191c8","ios":"levelo://app?vid=8316cb10-023d-4bec-a7d1-c688e60191c8"},"vehicle_type_id":"4","last_reported":1738242913,"current_range_meters":10000,"station_id":"ce4bhnh2rcd13ifvqgug","pricing_plan_id":"cebpf4jnsgd1na2vs0mg"},{"bike_id":"33e6fd4a-27d7-4212-babb-f1fdc13abd7e","system_id":"levelo_inurba_marseille","lat":43.24423,"lon":5.37027,"is_reserved":false,"is_disabled":false,"rental_uris":{"android":"levelo://app?vid=33e6fd4a-27d7-4212-babb-f1fdc13abd7e","ios":"levelo://app?vid=33e6fd4a-27d7-4212-babb-f1fdc13abd7e"},"vehicle_type_id":"4","last_reported":1738242913,"current_range_meters":35200,"station_id":"ce4bhhh2rcd13ifvqfk0","pricing_plan_id":"cebpf4jnsgd1na2vs0mg"},{"bike_id":"43cda217-14ed-4801-819f-f1965303a677","system_id":"levelo_inurba_marseille","lat":43.29551,"lon":5.42273,"is_reserved":false,"is_disabled":false,"rental_uris":{"android":"levelo://app?vid=43cda217-14ed-4801-819f-f1965303a677","ios":"levelo://app?vid=43cda217-14ed-4801-819f-f1965303a677"},"vehicle_type_id":"4","last_reported":1738242913,"current_range_meters":14800,"station_id":"ce4bhph2rcd13ifvqhdg","pricing_plan_id":"cebpf4jnsgd1na2vs0mg"},{"bike_id":"2a180ede-2df6-4234-81d1-0820a74e8b66","system_id":"levelo_inurba_marseille","lat":43.29899,"lon":5.37459,"is_reserved":false,"is_disabled":false,"rental_uris":{"android":"levelo://app?vid=2a180ede-2df6-4234-81d1-0820a74e8b66","ios":"levelo://app?vid=2a180ede-2df6-4234-81d1-0820a74e8b66"},"vehicle_type_id":"4","last_reported":1738242913,"current_range_meters":38400,"station_id":"ce4bgjh2rcd13ifvqbg0","pricing_plan_id":"cebpf4jnsgd1na2vs0mg"},{"bike_id":"a0e9467e-a6ce-485e-a39f-0e7292f7d41f","system_id":"levelo_inurba_marseille","lat":43.31711,"lon":5.4371,"is_reserved":false,"is_disabled":false,"rental_uris":{"android":"levelo://app?vid=a0e9467e-a6ce-485e-a39f-0e7292f7d41f","ios":"levelo://app?vid=a0e9467e-a6ce-485e-a39f-0e7292f7d41f"},"vehicle_type_id":"4","last_reported":1738242913,"current_range_meters":12400,"station_id":"ce4bhp92rcd13ifvqhcg","pricing_plan_id":"cebpf4jnsgd1na2vs0mg"},{"bike_id":"d979d8d2-ec65-47af-9229-e4270aab279a","system_id":"levelo_inurba_marseille","lat":43.23064,"lon":5.35493,"is_reserved":false,"is_disabled":false,"rental_uris":{"android":"levelo://app?vid=d979d8d2-ec65-47af-9229-e4270aab279a","ios":"levelo://app?vid=d979d8d2-ec65-47af-9229-e4270aab279a"},"vehicle_type_id":"4","last_reported":1738242913,"current_range_meters":14400,"station_id":"cpo3342slgdg3j2ifvpg","pricing_plan_id":"cebpf4jnsgd1na2vs0mg"},{"bike_id":"6d794ab4-8a41-420e-9684-1f49d9f4dedb","system_id":"levelo_inurba_marseille","lat":43.26218,"lon":5.37447,"is_reserved":false,"is_disabled":false,"rental_uris":{"android":"levelo://app?vid=6d794ab4-8a41-420e-9684-1f49d9f4dedb","ios":"levelo://app?vid=6d794ab4-8a41-420e-9684-1f49d9f4dedb"},"vehicle_type_id":"4","last_reported":1738242913,"current_range_meters":38800,"station_id":"ce4bhgp2rcd13ifvqfc0","pricing_plan_id":"cebpf4jnsgd1na2vs0mg"},{"bike_id":"f10d9b40-8520-41ee-b039-cd6e7d066065","system_id":"levelo_inurba_marseille","lat":43.26214,"lon":5.37443,"is_reserved":false,"is_disabled":false,"rental_uris":{"android":"levelo://app?vid=f10d9b40-8520-41ee-b039-cd6e7d066065","ios":"levelo://app?vid=f10d9b40-8520-41ee-b039-cd6e7d066065"},"vehicle_type_id":"4","last_reported":1738242913,"current_range_meters":36800,"station_id":"ce4bhgp2rcd13ifvqfc0","pricing_plan_id":"cebpf4jnsgd1na2vs0mg"},{"bike_id":"4a06f9c3-32a0-4c6f-86c7-ad99d0332fe6","system_id":"levelo_inurba_marseille","lat":43.32365,"lon":5.38883,"is_reserved":false,"is_disabled":false,"rental_uris":{"android":"levelo://app?vid=4a06f9c3-32a0-4c6f-86c7-ad99d0332fe6","ios":"levelo://app?vid=4a06f9c3-32a0-4c6f-86c7-ad99d0332fe6"},"vehicle_type_id":"4","last_reported":1738242913,"current_range_meters":19200,"station_id":"ce4bhqp2rcd13ifvqhog","pricing_plan_id":"cebpf4jnsgd1na2vs0mg"},{"bike_id":"efa3b269-1ce7-4216-a455-a1a22b13d3d5","system_id":"levelo_inurba_marseille","lat":43.31498,"lon":5.37296,"is_reserved":false,"is_disabled":false,"rental_uris":{"android":"levelo://app?vid=efa3b269-1ce7-4216-a455-a1a22b13d3d5","ios":"levelo://app?vid=efa3b269-1ce7-4216-a455-a1a22b13d3d5"},"vehicle_type_id":"4","last_reported":1738242913,"current_range_meters":38000,"station_id":"ce4bgt12rcd13ifvqcd0","pricing_plan_id":"cebpf4jnsgd1na2vs0mg"},{"bike_id":"85f41ed4-1115-4ff7-8fe6-cc524b74f533","system_id":"levelo_inurba_marseille","lat":43.309,"lon":5.36864,"is_reserved":false,"is_disabled":false,"rental_uris":{"android":"levelo://app?vid=85f41ed4-1115-4ff7-8fe6-cc524b74f533","ios":"levelo://app?vid=85f41ed4-1115-4ff7-8fe6-cc524b74f533"},"vehicle_type_id":"4","last_reported":1738242913,"current_range_meters":32400,"station_id":"ce4bgn92rcd13ifvqbvg","pricing_plan_id":"cebpf4jnsgd1na2vs0mg"},{"bike_id":"4103f9ea-dc49-40ff-a855-96e33d24e922","system_id":"levelo_inurba_marseille","lat":43.26942,"lon":5.40252,"is_reserved":false,"is_disabled":false,"rental_uris":{"android":"levelo://app?vid=4103f9ea-dc49-40ff-a855-96e33d24e922","ios":"levelo://app?vid=4103f9ea-dc49-40ff-a855-96e33d24e922"},"vehicle_type_id":"4","last_reported":1738242913,"current_range_meters":39200,"station_id":"cjm6bp8fraef2m0cb0m0","pricing_plan_id":"cebpf4jnsgd1na2vs0mg"},{"bike_id":"28fe63c8-8f1f-4ef0-b5b6-e46078c21448","system_id":"levelo_inurba_marseille","lat":43.25837,"lon":5.39415,"is_reserved":false,"is_disabled":false,"rental_uris":{"android":"levelo://app?vid=28fe63c8-8f1f-4ef0-b5b6-e46078c21448","ios":"levelo://app?vid=28fe63c8-8f1f-4ef0-b5b6-e46078c21448"},"vehicle_type_id":"4","last_reported":1738242913,"current_range_meters":38800,"station_id":"ce4bhip2rcd13ifvqft0","pricing_plan_id":"cebpf4jnsgd1na2vs0mg"},{"bike_id":"7d6260ec-6d8c-4d5b-8950-1a493871014c","system_id":"levelo_inurba_marseille","lat":43.299,"lon":5.43703,"is_reserved":false,"is_disabled":false,"rental_uris":{"android":"levelo://app?vid=7d6260ec-6d8c-4d5b-8950-1a493871014c","ios":"levelo://app?vid=7d6260ec-6d8c-4d5b-8950-1a493871014c"},"vehicle_type_id":"4","last_reported":1738242913,"current_range_meters":34000,"station_id":"","pricing_plan_id":"cebpf4jnsgd1na2vs0mg"},{"bike_id":"4b9caf7c-f87f-4a67-87ec-7ed626a6b8df","system_id":"levelo_inurba_marseille","lat":43.27211,"lon":5.3922,"is_reserved":false,"is_disabled":false,"rental_uris":{"android":"levelo://app?vid=4b9caf7c-f87f-4a67-87ec-7ed626a6b8df","ios":"levelo://app?vid=4b9caf7c-f87f-4a67-87ec-7ed626a6b8df"},"vehicle_type_id":"4","last_reported":1738242913,"current_range_meters":30000,"station_id":"ce4bhhp2rcd13ifvqfm0","pricing_plan_id":"cebpf4jnsgd1na2vs0mg"},{"bike_id":"10bad993-1632-492b-9fa0-56b1e562c7eb","system_id":"levelo_inurba_marseille","lat":43.25736,"lon":5.41108,"is_reserved":false,"is_disabled":false,"rental_uris":{"android":"levelo://app?vid=10bad993-1632-492b-9fa0-56b1e562c7eb","ios":"levelo://app?vid=10bad993-1632-492b-9fa0-56b1e562c7eb"},"vehicle_type_id":"4","last_reported":1738242913,"current_range_meters":38000,"station_id":"ce4bhkp2rcd13ifvqgd0","pricing_plan_id":"cebpf4jnsgd1na2vs0mg"},{"bike_id":"d8b1c3f9-ff6e-4179-8423-4ba0d2a2af0e","system_id":"levelo_inurba_marseille","lat":43.33729,"lon":5.39183,"is_reserved":false,"is_disabled":false,"rental_uris":{"android":"levelo://app?vid=d8b1c3f9-ff6e-4179-8423-4ba0d2a2af0e","ios":"levelo://app?vid=d8b1c3f9-ff6e-4179-8423-4ba0d2a2af0e"},"vehicle_type_id":"4","last_reported":1738242913,"current_range_meters":38800,"station_id":"ce4bhr92rcd13ifvqhsg","pricing_plan_id":"cebpf4jnsgd1na2vs0mg"},{"bike_id":"8fbfaa87-4997-43f3-8d71-b30fc64a490f","system_id":"levelo_inurba_marseille","lat":43.33738,"lon":5.39193,"is_reserved":false,"is_disabled":false,"rental_uris":{"android":"levelo://app?vid=8fbfaa87-4997-43f3-8d71-b30fc64a490f","ios":"levelo://app?vid=8fbfaa87-4997-43f3-8d71-b30fc64a490f"},"vehicle_type_id":"4","last_reported":1738242913,"current_range_meters":39200,"station_id":"ce4bhr92rcd13ifvqhsg","pricing_plan_id":"cebpf4jnsgd1na2vs0mg"},{"bike_id":"ac26e541-f98b-4f3d-800c-f26e14e999bb","system_id":"levelo_inurba_marseille","lat":43.29955,"lon":5.36558,"is_reserved":false,"is_disabled":false,"rental_uris":{"android":"levelo://app?vid=ac26e541-f98b-4f3d-800c-f26e14e999bb","ios":"levelo://app?vid=ac26e541-f98b-4f3d-800c-f26e14e999bb"},"vehicle_type_id":"4","last_reported":1738242913,"current_range_meters":38800,"station_id":"ce4bgm92rcd13ifvqbr0","pricing_plan_id":"cebpf4jnsgd1na2vs0mg"},{"bike_id":"7cd6617d-ef37-4b9a-9114-490e143ce3ab","system_id":"levelo_inurba_marseille","lat":43.31889,"lon":5.40731,"is_reserved":false,"is_disabled":false,"rental_uris":{"android":"levelo://app?vid=7cd6617d-ef37-4b9a-9114-490e143ce3ab","ios":"levelo://app?vid=7cd6617d-ef37-4b9a-9114-490e143ce3ab"},"vehicle_type_id":"4","last_reported":1738242913,"current_range_meters":39200,"station_id":"ce4bhq12rcd13ifvqhig","pricing_plan_id":"cebpf4jnsgd1na2vs0mg"},{"bike_id":"ccb6318c-6994-46f1-b382-d420e97e4a87","system_id":"levelo_inurba_marseille","lat":43.27216,"lon":5.39213,"is_reserved":false,"is_disabled":false,"rental_uris":{"android":"levelo://app?vid=ccb6318c-6994-46f1-b382-d420e97e4a87","ios":"levelo://app?vid=ccb6318c-6994-46f1-b382-d420e97e4a87"},"vehicle_type_id":"4","last_reported":1738242913,"current_range_meters":34000,"station_id":"ce4bhhp2rcd13ifvqfm0","pricing_plan_id":"cebpf4jnsgd1na2vs0mg"},{"bike_id":"f46bb6d5-cca8-4a87-b3fd-9e47555382a7","system_id":"levelo_inurba_marseille","lat":43.24663,"lon":5.38169,"is_reserved":false,"is_disabled":false,"rental_uris":{"android":"levelo://app?vid=f46bb6d5-cca8-4a87-b3fd-9e47555382a7","ios":"levelo://app?vid=f46bb6d5-cca8-4a87-b3fd-9e47555382a7"},"vehicle_type_id":"4","last_reported":1738242913,"current_range_meters":21600,"station_id":"ce4bhih2rcd13ifvqfr0","pricing_plan_id":"cebpf4jnsgd1na2vs0mg"},{"bike_id":"d1bb3823-8fd2-43be-a3ac-b31c12a2a249","system_id":"levelo_inurba_marseille","lat":43.33601,"lon":5.41029,"is_reserved":false,"is_disabled":false,"rental_uris":{"android":"levelo://app?vid=d1bb3823-8fd2-43be-a3ac-b31c12a2a249","ios":"levelo://app?vid=d1bb3823-8fd2-43be-a3ac-b31c12a2a249"},"vehicle_type_id":"4","last_reported":1738242913,"current_range_meters":28000,"station_id":"ce4bhqh2rcd13ifvqhmg","pricing_plan_id":"cebpf4jnsgd1na2vs0mg"},{"bike_id":"b56534f8-577f-4250-914f-e0db70a64414","system_id":"levelo_inurba_marseille","lat":43.32453,"lon":5.36596,"is_reserved":false,"is_disabled":false,"rental_uris":{"android":"levelo://app?vid=b56534f8-577f-4250-914f-e0db70a64414","ios":"levelo://app?vid=b56534f8-577f-4250-914f-e0db70a64414"},"vehicle_type_id":"4","last_reported":1738242913,"current_range_meters":11600,"station_id":"ce4bhs12rcd13ifvqhvg","pricing_plan_id":"cebpf4jnsgd1na2vs0mg"},{"bike_id":"5b9dcc5d-6c59-495e-b2f6-f8d55d55a751","system_id":"levelo_inurba_marseille","lat":43.28078,"lon":5.39665,"is_reserved":false,"is_disabled":false,"rental_uris":{"android":"levelo://app?vid=5b9dcc5d-6c59-495e-b2f6-f8d55d55a751","ios":"levelo://app?vid=5b9dcc5d-6c59-495e-b2f6-f8d55d55a751"},"vehicle_type_id":"4","last_reported":1738242913,"current_range_meters":38800,"station_id":"ce4bho12rcd13ifvqh2g","pricing_plan_id":"cebpf4jnsgd1na2vs0mg"},{"bike_id":"0d116ef0-9222-4965-aa1b-b15ebcda15ad","system_id":"levelo_inurba_marseille","lat":43.24075,"lon":5.37753,"is_reserved":false,"is_disabled":false,"rental_uris":{"android":"levelo://app?vid=0d116ef0-9222-4965-aa1b-b15ebcda15ad","ios":"levelo://app?vid=0d116ef0-9222-4965-aa1b-b15ebcda15ad"},"vehicle_type_id":"4","last_reported":1738242913,"current_range_meters":35200,"station_id":"ce4bhnp2rcd13ifvqgvg","pricing_plan_id":"cebpf4jnsgd1na2vs0mg"},{"bike_id":"94f0f4ac-77b1-4120-af30-8bc25df8b6a4","system_id":"levelo_inurba_marseille","lat":43.28936,"lon":5.39633,"is_reserved":false,"is_disabled":false,"rental_uris":{"android":"levelo://app?vid=94f0f4ac-77b1-4120-af30-8bc25df8b6a4","ios":"levelo://app?vid=94f0f4ac-77b1-4120-af30-8bc25df8b6a4"},"vehicle_type_id":"4","last_reported":1738242913,"current_range_meters":9600,"station_id":"ce4bh3h2rcd13ifvqdn0","pricing_plan_id":"cebpf4jnsgd1na2vs0mg"},{"bike_id":"9a6334c1-2529-46f5-9be3-482365ba227d","system_id":"levelo_inurba_marseille","lat":43.301536,"lon":5.380857,"is_reserved":false,"is_disabled":false,"rental_uris":{"android":"levelo://app?vid=9a6334c1-2529-46f5-9be3-482365ba227d","ios":"levelo://app?vid=9a6334c1-2529-46f5-9be3-482365ba227d"},"vehicle_type_id":"4","last_reported":1738242913,"current_range_meters":30000,"station_id":"ce4bgjp2rcd13ifvqbh0","pricing_plan_id":"cebpf4jnsgd1na2vs0mg"},{"bike_id":"fa2f1c21-3bfc-46ef-bcba-588774df180a","system_id":"levelo_inurba_marseille","lat":43.25873,"lon":5.39899,"is_reserved":false,"is_disabled":false,"rental_uris":{"android":"levelo://app?vid=fa2f1c21-3bfc-46ef-bcba-588774df180a","ios":"levelo://app?vid=fa2f1c21-3bfc-46ef-bcba-588774df180a"},"vehicle_type_id":"4","last_reported":1738242913,"current_range_meters":39200,"station_id":"ce4bhl92rcd13ifvqghg","pricing_plan_id":"cebpf4jnsgd1na2vs0mg"},{"bike_id":"f0f16a0a-9ada-4b40-8b05-8689a3b127be","system_id":"levelo_inurba_marseille","lat":43.30016,"lon":5.37364,"is_reserved":false,"is_disabled":true,"rental_uris":{"android":"levelo://app?vid=f0f16a0a-9ada-4b40-8b05-8689a3b127be","ios":"levelo://app?vid=f0f16a0a-9ada-4b40-8b05-8689a3b127be"},"vehicle_type_id":"4","last_reported":1738242913,"current_range_meters":2000,"station_id":"","pricing_plan_id":"cebpf4jnsgd1na2vs0mg"},{"bike_id":"f61a45f6-360d-4d79-b8e9-175955af4525","system_id":"levelo_inurba_marseille","lat":43.27209,"lon":5.39181,"is_reserved":false,"is_disabled":false,"rental_uris":{"android":"levelo://app?vid=f61a45f6-360d-4d79-b8e9-175955af4525","ios":"levelo://app?vid=f61a45f6-360d-4d79-b8e9-175955af4525"},"vehicle_type_id":"4","last_reported":1738242913,"current_range_meters":28400,"station_id":"ce4bhhp2rcd13ifvqfm0","pricing_plan_id":"cebpf4jnsgd1na2vs0mg"},{"bike_id":"2782808b-b55f-4413-bf65-ac26ddd93213","system_id":"levelo_inurba_marseille","lat":43.30466,"lon":5.37908,"is_reserved":false,"is_disabled":false,"rental_uris":{"android":"levelo://app?vid=2782808b-b55f-4413-bf65-ac26ddd93213","ios":"levelo://app?vid=2782808b-b55f-4413-bf65-ac26ddd93213"},"vehicle_type_id":"4","last_reported":1738242913,"current_range_meters":38800,"station_id":"ce4bgup2rcd13ifvqcn0","pricing_plan_id":"cebpf4jnsgd1na2vs0mg"},{"bike_id":"e74f24e1-add2-4635-a51d-5692fff267ad","system_id":"levelo_inurba_marseille","lat":43.30311,"lon":5.37707,"is_reserved":false,"is_disabled":false,"rental_uris":{"android":"levelo://app?vid=e74f24e1-add2-4635-a51d-5692fff267ad","ios":"levelo://app?vid=e74f24e1-add2-4635-a51d-5692fff267ad"},"vehicle_type_id":"4","last_reported":1738242913,"current_range_meters":32400,"station_id":"ce4bguh2rcd13ifvqcj0","pricing_plan_id":"cebpf4jnsgd1na2vs0mg"},{"bike_id":"0028c9a1-5997-48c9-bdd6-d2672fb1d0e7","system_id":"levelo_inurba_marseille","lat":43.29593,"lon":5.38108,"is_reserved":false,"is_disabled":false,"rental_uris":{"android":"levelo://app?vid=0028c9a1-5997-48c9-bdd6-d2672fb1d0e7","ios":"levelo://app?vid=0028c9a1-5997-48c9-bdd6-d2672fb1d0e7"},"vehicle_type_id":"4","last_reported":1738242913,"current_range_meters":38800,"station_id":"ce4bgl12rcd13ifvqbo0","pricing_plan_id":"cebpf4jnsgd1na2vs0mg"},{"bike_id":"6ab142fe-9a4c-4e57-a5de-1e1e6100679e","system_id":"levelo_inurba_marseille","lat":43.28106,"lon":5.37855,"is_reserved":false,"is_disabled":false,"rental_uris":{"android":"levelo://app?vid=6ab142fe-9a4c-4e57-a5de-1e1e6100679e","ios":"levelo://app?vid=6ab142fe-9a4c-4e57-a5de-1e1e6100679e"},"vehicle_type_id":"4","last_reported":1738242913,"current_range_meters":8800,"station_id":"ce4bha12rcd13ifvqee0","pricing_plan_id":"cebpf4jnsgd1na2vs0mg"},{"bike_id":"e80fac75-0703-438b-9cb4-cf7aa615d978","system_id":"levelo_inurba_marseille","lat":43.28158,"lon":5.42645,"is_reserved":false,"is_disabled":true,"rental_uris":{"android":"levelo://app?vid=e80fac75-0703-438b-9cb4-cf7aa615d978","ios":"levelo://app?vid=e80fac75-0703-438b-9cb4-cf7aa615d978"},"vehicle_type_id":"4","last_reported":1738242913,"current_range_meters":0,"station_id":"ce4bhnh2rcd13ifvqgug","pricing_plan_id":"cebpf4jnsgd1na2vs0mg"},{"bike_id":"ed2de8b2-bceb-4115-9fd4-6f4cd5bdef1c","system_id":"levelo_inurba_marseille","lat":43.292737,"lon":5.368523,"is_reserved":false,"is_disabled":false,"rental_uris":{"android":"levelo://app?vid=ed2de8b2-bceb-4115-9fd4-6f4cd5bdef1c","ios":"levelo://app?vid=ed2de8b2-bceb-4115-9fd4-6f4cd5bdef1c"},"vehicle_type_id":"4","last_reported":1738242913,"current_range_meters":38800,"station_id":"ce4bhbp2rcd13ifvqesg","pricing_plan_id":"cebpf4jnsgd1na2vs0mg"},{"bike_id":"146e1d2a-a85d-41e8-b665-fe6ede9dc7fc","system_id":"levelo_inurba_marseille","lat":43.30152,"lon":5.38093,"is_reserved":false,"is_disabled":false,"rental_uris":{"android":"levelo://app?vid=146e1d2a-a85d-41e8-b665-fe6ede9dc7fc","ios":"levelo://app?vid=146e1d2a-a85d-41e8-b665-fe6ede9dc7fc"},"vehicle_type_id":"4","last_reported":1738242913,"current_range_meters":38800,"station_id":"ce4bgjp2rcd13ifvqbh0","pricing_plan_id":"cebpf4jnsgd1na2vs0mg"},{"bike_id":"5e995bf7-c9ed-4dac-99cc-dd1f81921bd9","system_id":"levelo_inurba_marseille","lat":43.26938,"lon":5.40253,"is_reserved":false,"is_disabled":false,"rental_uris":{"android":"levelo://app?vid=5e995bf7-c9ed-4dac-99cc-dd1f81921bd9","ios":"levelo://app?vid=5e995bf7-c9ed-4dac-99cc-dd1f81921bd9"},"vehicle_type_id":"4","last_reported":1738242913,"current_range_meters":38800,"station_id":"cjm6bp8fraef2m0cb0m0","pricing_plan_id":"cebpf4jnsgd1na2vs0mg"},{"bike_id":"cd6b353a-d9ae-47b8-9eb1-cf960e9a39fe","system_id":"levelo_inurba_marseille","lat":43.292677,"lon":5.36842,"is_reserved":false,"is_disabled":false,"rental_uris":{"android":"levelo://app?vid=cd6b353a-d9ae-47b8-9eb1-cf960e9a39fe","ios":"levelo://app?vid=cd6b353a-d9ae-47b8-9eb1-cf960e9a39fe"},"vehicle_type_id":"4","last_reported":1738242913,"current_range_meters":14800,"station_id":"ce4bhbp2rcd13ifvqesg","pricing_plan_id":"cebpf4jnsgd1na2vs0mg"},{"bike_id":"9061c30b-f0f7-46e3-8477-d3c2c36b1f53","system_id":"levelo_inurba_marseille","lat":43.28019,"lon":5.3696,"is_reserved":false,"is_disabled":true,"rental_uris":{"android":"levelo://app?vid=9061c30b-f0f7-46e3-8477-d3c2c36b1f53","ios":"levelo://app?vid=9061c30b-f0f7-46e3-8477-d3c2c36b1f53"},"vehicle_type_id":"4","last_reported":1738242913,"current_range_meters":36800,"station_id":"ce4bha12rcd13ifvqef0","pricing_plan_id":"cebpf4jnsgd1na2vs0mg"},{"bike_id":"66104688-7e12-4b89-be1c-430951069891","system_id":"levelo_inurba_marseille","lat":43.24086,"lon":5.3775,"is_reserved":false,"is_disabled":true,"rental_uris":{"android":"levelo://app?vid=66104688-7e12-4b89-be1c-430951069891","ios":"levelo://app?vid=66104688-7e12-4b89-be1c-430951069891"},"vehicle_type_id":"4","last_reported":1738242913,"current_range_meters":800,"station_id":"ce4bhnp2rcd13ifvqgvg","pricing_plan_id":"cebpf4jnsgd1na2vs0mg"},{"bike_id":"fba05ad0-85c5-4e7a-a917-4b9c8e256fa2","system_id":"levelo_inurba_marseille","lat":43.3126,"lon":5.36863,"is_reserved":false,"is_disabled":false,"rental_uris":{"android":"levelo://app?vid=fba05ad0-85c5-4e7a-a917-4b9c8e256fa2","ios":"levelo://app?vid=fba05ad0-85c5-4e7a-a917-4b9c8e256fa2"},"vehicle_type_id":"4","last_reported":1738242913,"current_range_meters":37600,"station_id":"ce4bgl92rcd13ifvqbq0","pricing_plan_id":"cebpf4jnsgd1na2vs0mg"},{"bike_id":"fb33688a-5a97-4fea-8144-a4bf6b0cf308","system_id":"levelo_inurba_marseille","lat":43.30147,"lon":5.37421,"is_reserved":false,"is_disabled":false,"rental_uris":{"android":"levelo://app?vid=fb33688a-5a97-4fea-8144-a4bf6b0cf308","ios":"levelo://app?vid=fb33688a-5a97-4fea-8144-a4bf6b0cf308"},"vehicle_type_id":"4","last_reported":1738242913,"current_range_meters":38000,"station_id":"ce4bgs92rcd13ifvqcc0","pricing_plan_id":"cebpf4jnsgd1na2vs0mg"},{"bike_id":"ab2c796a-c23b-4a3a-9534-777b873d6a05","system_id":"levelo_inurba_marseille","lat":43.24176,"lon":5.36412,"is_reserved":false,"is_disabled":false,"rental_uris":{"android":"levelo://app?vid=ab2c796a-c23b-4a3a-9534-777b873d6a05","ios":"levelo://app?vid=ab2c796a-c23b-4a3a-9534-777b873d6a05"},"vehicle_type_id":"4","last_reported":1738242913,"current_range_meters":38800,"station_id":"cpo36qri1sfpv3e86is0","pricing_plan_id":"cebpf4jnsgd1na2vs0mg"},{"bike_id":"c4bcf1c2-52c5-45f4-b171-53228acf62c0","system_id":"levelo_inurba_marseille","lat":43.28488,"lon":5.38567,"is_reserved":false,"is_disabled":false,"rental_uris":{"android":"levelo://app?vid=c4bcf1c2-52c5-45f4-b171-53228acf62c0","ios":"levelo://app?vid=c4bcf1c2-52c5-45f4-b171-53228acf62c0"},"vehicle_type_id":"4","last_reported":1738242913,"current_range_meters":28800,"station_id":"ce4bh8p2rcd13ifvqeb0","pricing_plan_id":"cebpf4jnsgd1na2vs0mg"},{"bike_id":"7c8c1958-cb52-4d71-8e09-0431a5d07dd8","system_id":"levelo_inurba_marseille","lat":43.28718,"lon":5.37936,"is_reserved":false,"is_disabled":false,"rental_uris":{"android":"levelo://app?vid=7c8c1958-cb52-4d71-8e09-0431a5d07dd8","ios":"levelo://app?vid=7c8c1958-cb52-4d71-8e09-0431a5d07dd8"},"vehicle_type_id":"4","last_reported":1738242913,"current_range_meters":30000,"station_id":"ce4bh9p2rcd13ifvqec0","pricing_plan_id":"cebpf4jnsgd1na2vs0mg"},{"bike_id":"3441e8db-3853-4f3e-baf2-d7fc68ee345c","system_id":"levelo_inurba_marseille","lat":43.30166,"lon":5.38081,"is_reserved":false,"is_disabled":false,"rental_uris":{"android":"levelo://app?vid=3441e8db-3853-4f3e-baf2-d7fc68ee345c","ios":"levelo://app?vid=3441e8db-3853-4f3e-baf2-d7fc68ee345c"},"vehicle_type_id":"4","last_reported":1738242913,"current_range_meters":11600,"station_id":"ce4bgjp2rcd13ifvqbh0","pricing_plan_id":"cebpf4jnsgd1na2vs0mg"},{"bike_id":"d641d60f-a90b-4a04-a59a-490177d733f1","system_id":"levelo_inurba_marseille","lat":43.30295,"lon":5.37708,"is_reserved":false,"is_disabled":true,"rental_uris":{"android":"levelo://app?vid=d641d60f-a90b-4a04-a59a-490177d733f1","ios":"levelo://app?vid=d641d60f-a90b-4a04-a59a-490177d733f1"},"vehicle_type_id":"4","last_reported":1738242913,"current_range_meters":0,"station_id":"ce4bguh2rcd13ifvqcj0","pricing_plan_id":"cebpf4jnsgd1na2vs0mg"},{"bike_id":"3f3de0e8-ee30-4340-ad16-97c288bf4a8f","system_id":"levelo_inurba_marseille","lat":43.3112,"lon":5.37778,"is_reserved":false,"is_disabled":false,"rental_uris":{"android":"levelo://app?vid=3f3de0e8-ee30-4340-ad16-97c288bf4a8f","ios":"levelo://app?vid=3f3de0e8-ee30-4340-ad16-97c288bf4a8f"},"vehicle_type_id":"4","last_reported":1738242913,"current_range_meters":36800,"station_id":"ce4bgt92rcd13ifvqcg0","pricing_plan_id":"cebpf4jnsgd1na2vs0mg"},{"bike_id":"05a5cf5c-515b-4fa1-979d-1bd1d8b088e3","system_id":"levelo_inurba_marseille","lat":43.24388,"lon":5.37055,"is_reserved":false,"is_disabled":false,"rental_uris":{"android":"levelo://app?vid=05a5cf5c-515b-4fa1-979d-1bd1d8b088e3","ios":"levelo://app?vid=05a5cf5c-515b-4fa1-979d-1bd1d8b088e3"},"vehicle_type_id":"4","last_reported":1738242913,"current_range_meters":27200,"station_id":"ce4bhhh2rcd13ifvqfk0","pricing_plan_id":"cebpf4jnsgd1na2vs0mg"},{"bike_id":"2e639590-75fd-4f8e-8c55-41fab274d1bb","system_id":"levelo_inurba_marseille","lat":43.28842,"lon":5.39326,"is_reserved":false,"is_disabled":false,"rental_uris":{"android":"levelo://app?vid=2e639590-75fd-4f8e-8c55-41fab274d1bb","ios":"levelo://app?vid=2e639590-75fd-4f8e-8c55-41fab274d1bb"},"vehicle_type_id":"4","last_reported":1738242913,"current_range_meters":18800,"station_id":"ce4bh2p2rcd13ifvqdi0","pricing_plan_id":"cebpf4jnsgd1na2vs0mg"},{"bike_id":"b3f9d40e-c6c3-4e70-a1cf-be32056d433c","system_id":"levelo_inurba_marseille","lat":43.24393,"lon":5.37061,"is_reserved":false,"is_disabled":true,"rental_uris":{"android":"levelo://app?vid=b3f9d40e-c6c3-4e70-a1cf-be32056d433c","ios":"levelo://app?vid=b3f9d40e-c6c3-4e70-a1cf-be32056d433c"},"vehicle_type_id":"4","last_reported":1738242913,"current_range_meters":0,"station_id":"ce4bhhh2rcd13ifvqfk0","pricing_plan_id":"cebpf4jnsgd1na2vs0mg"},{"bike_id":"c2cf120a-c6eb-4fdd-a373-943473eea38d","system_id":"levelo_inurba_marseille","lat":43.24536,"lon":5.39536,"is_reserved":false,"is_disabled":false,"rental_uris":{"android":"levelo://app?vid=c2cf120a-c6eb-4fdd-a373-943473eea38d","ios":"levelo://app?vid=c2cf120a-c6eb-4fdd-a373-943473eea38d"},"vehicle_type_id":"4","last_reported":1738242913,"current_range_meters":38800,"station_id":"ce4bhlp2rcd13ifvqgjg","pricing_plan_id":"cebpf4jnsgd1na2vs0mg"},{"bike_id":"fc2dee61-6a5e-41ce-a75c-e2029dcb39bc","system_id":"levelo_inurba_marseille","lat":43.26572,"lon":5.37329,"is_reserved":false,"is_disabled":false,"rental_uris":{"android":"levelo://app?vid=fc2dee61-6a5e-41ce-a75c-e2029dcb39bc","ios":"levelo://app?vid=fc2dee61-6a5e-41ce-a75c-e2029dcb39bc"},"vehicle_type_id":"4","last_reported":1738242913,"current_range_meters":18800,"station_id":"ce4bhg12rcd13ifvqf70","pricing_plan_id":"cebpf4jnsgd1na2vs0mg"},{"bike_id":"615a0747-8d06-4fbf-b735-2ce44cc12594","system_id":"levelo_inurba_marseille","lat":43.32381,"lon":5.38876,"is_reserved":false,"is_disabled":false,"rental_uris":{"android":"levelo://app?vid=615a0747-8d06-4fbf-b735-2ce44cc12594","ios":"levelo://app?vid=615a0747-8d06-4fbf-b735-2ce44cc12594"},"vehicle_type_id":"4","last_reported":1738242913,"current_range_meters":16000,"station_id":"ce4bhqp2rcd13ifvqhog","pricing_plan_id":"cebpf4jnsgd1na2vs0mg"},{"bike_id":"940d189d-6721-4f82-bae1-5a9e9e8ab03b","system_id":"levelo_inurba_marseille","lat":43.30948,"lon":5.375077,"is_reserved":false,"is_disabled":false,"rental_uris":{"android":"levelo://app?vid=940d189d-6721-4f82-bae1-5a9e9e8ab03b","ios":"levelo://app?vid=940d189d-6721-4f82-bae1-5a9e9e8ab03b"},"vehicle_type_id":"4","last_reported":1738242913,"current_range_meters":18800,"station_id":"","pricing_plan_id":"cebpf4jnsgd1na2vs0mg"},{"bike_id":"96041a84-b237-4f2c-945d-18315cf40136","system_id":"levelo_inurba_marseille","lat":43.26954,"lon":5.38632,"is_reserved":false,"is_disabled":false,"rental_uris":{"android":"levelo://app?vid=96041a84-b237-4f2c-945d-18315cf40136","ios":"levelo://app?vid=96041a84-b237-4f2c-945d-18315cf40136"},"vehicle_type_id":"4","last_reported":1738242913,"current_range_meters":4000,"station_id":"ce4bhh92rcd13ifvqfh0","pricing_plan_id":"cebpf4jnsgd1na2vs0mg"},{"bike_id":"3afe2907-14fe-40b0-8ce8-247215ed16c8","system_id":"levelo_inurba_marseille","lat":43.26925,"lon":5.389,"is_reserved":false,"is_disabled":true,"rental_uris":{"android":"levelo://app?vid=3afe2907-14fe-40b0-8ce8-247215ed16c8","ios":"levelo://app?vid=3afe2907-14fe-40b0-8ce8-247215ed16c8"},"vehicle_type_id":"4","last_reported":1738242913,"current_range_meters":0,"station_id":"ce4bhhh2rcd13ifvqfl0","pricing_plan_id":"cebpf4jnsgd1na2vs0mg"},{"bike_id":"e8e1f7c6-d773-4c38-bfcc-4a6d773355ce","system_id":"levelo_inurba_marseille","lat":43.22935,"lon":5.35387,"is_reserved":false,"is_disabled":false,"rental_uris":{"android":"levelo://app?vid=e8e1f7c6-d773-4c38-bfcc-4a6d773355ce","ios":"levelo://app?vid=e8e1f7c6-d773-4c38-bfcc-4a6d773355ce"},"vehicle_type_id":"4","last_reported":1738242913,"current_range_meters":38800,"station_id":"cpo3532slgdg3j2ikp40","pricing_plan_id":"cebpf4jnsgd1na2vs0mg"},{"bike_id":"bfc7dd4f-4579-4845-8ff4-f290c5d5779b","system_id":"levelo_inurba_marseille","lat":43.32279,"lon":5.38242,"is_reserved":false,"is_disabled":false,"rental_uris":{"android":"levelo://app?vid=bfc7dd4f-4579-4845-8ff4-f290c5d5779b","ios":"levelo://app?vid=bfc7dd4f-4579-4845-8ff4-f290c5d5779b"},"vehicle_type_id":"4","last_reported":1738242913,"current_range_meters":38000,"station_id":"ce4bhr12rcd13ifvqhqg","pricing_plan_id":"cebpf4jnsgd1na2vs0mg"},{"bike_id":"53437eb2-94d6-4366-99aa-c458a391e6a5","system_id":"levelo_inurba_marseille","lat":43.29593,"lon":5.36736,"is_reserved":false,"is_disabled":false,"rental_uris":{"android":"levelo://app?vid=53437eb2-94d6-4366-99aa-c458a391e6a5","ios":"levelo://app?vid=53437eb2-94d6-4366-99aa-c458a391e6a5"},"vehicle_type_id":"4","last_reported":1738242913,"current_range_meters":33600,"station_id":"ce4bgph2rcd13ifvqc2g","pricing_plan_id":"cebpf4jnsgd1na2vs0mg"},{"bike_id":"1d1bc79e-5a7a-435e-91f3-73234fa7b584","system_id":"levelo_inurba_marseille","lat":43.29281,"lon":5.37451,"is_reserved":false,"is_disabled":false,"rental_uris":{"android":"levelo://app?vid=1d1bc79e-5a7a-435e-91f3-73234fa7b584","ios":"levelo://app?vid=1d1bc79e-5a7a-435e-91f3-73234fa7b584"},"vehicle_type_id":"4","last_reported":1738242913,"current_range_meters":31200,"station_id":"ce4bgi12rcd13ifvqb70","pricing_plan_id":"cebpf4jnsgd1na2vs0mg"},{"bike_id":"7b6d01c3-b9c6-4cae-b2e7-64fcc0baeeaa","system_id":"levelo_inurba_marseille","lat":43.25581,"lon":5.38243,"is_reserved":false,"is_disabled":false,"rental_uris":{"android":"levelo://app?vid=7b6d01c3-b9c6-4cae-b2e7-64fcc0baeeaa","ios":"levelo://app?vid=7b6d01c3-b9c6-4cae-b2e7-64fcc0baeeaa"},"vehicle_type_id":"4","last_reported":1738242913,"current_range_meters":16800,"station_id":"ce4bhih2rcd13ifvqfs0","pricing_plan_id":"cebpf4jnsgd1na2vs0mg"},{"bike_id":"260c3224-c3e5-4a9a-a5e4-8a6ee28f69e2","system_id":"levelo_inurba_marseille","lat":43.28101,"lon":5.37841,"is_reserved":false,"is_disabled":false,"rental_uris":{"android":"levelo://app?vid=260c3224-c3e5-4a9a-a5e4-8a6ee28f69e2","ios":"levelo://app?vid=260c3224-c3e5-4a9a-a5e4-8a6ee28f69e2"},"vehicle_type_id":"4","last_reported":1738242913,"current_range_meters":29600,"station_id":"ce4bha12rcd13ifvqee0","pricing_plan_id":"cebpf4jnsgd1na2vs0mg"},{"bike_id":"56bc0d53-42f7-43f0-947b-78b397d1687c","system_id":"levelo_inurba_marseille","lat":43.29293,"lon":5.37414,"is_reserved":false,"is_disabled":false,"rental_uris":{"android":"levelo://app?vid=56bc0d53-42f7-43f0-947b-78b397d1687c","ios":"levelo://app?vid=56bc0d53-42f7-43f0-947b-78b397d1687c"},"vehicle_type_id":"4","last_reported":1738242913,"current_range_meters":20800,"station_id":"ce4bgi12rcd13ifvqb70","pricing_plan_id":"cebpf4jnsgd1na2vs0mg"},{"bike_id":"8ccf8982-826a-4a66-ae2f-a581997827d9","system_id":"levelo_inurba_marseille","lat":43.31888,"lon":5.40747,"is_reserved":false,"is_disabled":false,"rental_uris":{"android":"levelo://app?vid=8ccf8982-826a-4a66-ae2f-a581997827d9","ios":"levelo://app?vid=8ccf8982-826a-4a66-ae2f-a581997827d9"},"vehicle_type_id":"4","last_reported":1738242913,"current_range_meters":31200,"station_id":"ce4bhq12rcd13ifvqhig","pricing_plan_id":"cebpf4jnsgd1na2vs0mg"},{"bike_id":"974ccacd-4b23-4bc1-ab88-6f4c69694270","system_id":"levelo_inurba_marseille","lat":43.31085,"lon":5.42437,"is_reserved":false,"is_disabled":false,"rental_uris":{"android":"levelo://app?vid=974ccacd-4b23-4bc1-ab88-6f4c69694270","ios":"levelo://app?vid=974ccacd-4b23-4bc1-ab88-6f4c69694270"},"vehicle_type_id":"4","last_reported":1738242913,"current_range_meters":9600,"station_id":"ce4bhp92rcd13ifvqhag","pricing_plan_id":"cebpf4jnsgd1na2vs0mg"},{"bike_id":"f16a9ab9-f9da-417b-8cce-a05121ff6587","system_id":"levelo_inurba_marseille","lat":43.30917,"lon":5.36841,"is_reserved":false,"is_disabled":false,"rental_uris":{"android":"levelo://app?vid=f16a9ab9-f9da-417b-8cce-a05121ff6587","ios":"levelo://app?vid=f16a9ab9-f9da-417b-8cce-a05121ff6587"},"vehicle_type_id":"4","last_reported":1738242913,"current_range_meters":30000,"station_id":"ce4bgn92rcd13ifvqbvg","pricing_plan_id":"cebpf4jnsgd1na2vs0mg"},{"bike_id":"45940ced-19e0-4ced-9363-787d82261412","system_id":"levelo_inurba_marseille","lat":43.28935,"lon":5.3663,"is_reserved":false,"is_disabled":false,"rental_uris":{"android":"levelo://app?vid=45940ced-19e0-4ced-9363-787d82261412","ios":"levelo://app?vid=45940ced-19e0-4ced-9363-787d82261412"},"vehicle_type_id":"4","last_reported":1738242913,"current_range_meters":26000,"station_id":"ce4bhap2rcd13ifvqek0","pricing_plan_id":"cebpf4jnsgd1na2vs0mg"},{"bike_id":"ad872279-fd22-44ec-8d52-80184c65bc1d","system_id":"levelo_inurba_marseille","lat":43.2903,"lon":5.37563,"is_reserved":false,"is_disabled":false,"rental_uris":{"android":"levelo://app?vid=ad872279-fd22-44ec-8d52-80184c65bc1d","ios":"levelo://app?vid=ad872279-fd22-44ec-8d52-80184c65bc1d"},"vehicle_type_id":"4","last_reported":1738242913,"current_range_meters":37600,"station_id":"ce4bh692rcd13ifvqe90","pricing_plan_id":"cebpf4jnsgd1na2vs0mg"},{"bike_id":"e9ec24da-025a-4dfc-8c71-776f8271cad7","system_id":"levelo_inurba_marseille","lat":43.29576,"lon":5.3675,"is_reserved":false,"is_disabled":false,"rental_uris":{"android":"levelo://app?vid=e9ec24da-025a-4dfc-8c71-776f8271cad7","ios":"levelo://app?vid=e9ec24da-025a-4dfc-8c71-776f8271cad7"},"vehicle_type_id":"4","last_reported":1738242913,"current_range_meters":2800,"station_id":"ce4bgph2rcd13ifvqc2g","pricing_plan_id":"cebpf4jnsgd1na2vs0mg"},{"bike_id":"1c7a384f-10e8-4fbc-9897-df5823efdac1","system_id":"levelo_inurba_marseille","lat":43.26963,"lon":5.38638,"is_reserved":false,"is_disabled":false,"rental_uris":{"android":"levelo://app?vid=1c7a384f-10e8-4fbc-9897-df5823efdac1","ios":"levelo://app?vid=1c7a384f-10e8-4fbc-9897-df5823efdac1"},"vehicle_type_id":"4","last_reported":1738242913,"current_range_meters":22400,"station_id":"ce4bhh92rcd13ifvqfh0","pricing_plan_id":"cebpf4jnsgd1na2vs0mg"},{"bike_id":"c1d1ce73-8f8f-42c4-8303-66858ad4f592","system_id":"levelo_inurba_marseille","lat":43.27487,"lon":5.42457,"is_reserved":false,"is_disabled":true,"rental_uris":{"android":"levelo://app?vid=c1d1ce73-8f8f-42c4-8303-66858ad4f592","ios":"levelo://app?vid=c1d1ce73-8f8f-42c4-8303-66858ad4f592"},"vehicle_type_id":"4","last_reported":1738242913,"current_range_meters":24400,"station_id":"ce4bhn92rcd13ifvqgrg","pricing_plan_id":"cebpf4jnsgd1na2vs0mg"},{"bike_id":"e82e1fea-52f4-40a7-b5e2-a85856d5e1ee","system_id":"levelo_inurba_marseille","lat":43.23154,"lon":5.43706,"is_reserved":false,"is_disabled":false,"rental_uris":{"android":"levelo://app?vid=e82e1fea-52f4-40a7-b5e2-a85856d5e1ee","ios":"levelo://app?vid=e82e1fea-52f4-40a7-b5e2-a85856d5e1ee"},"vehicle_type_id":"4","last_reported":1738242913,"current_range_meters":12400,"station_id":"ce4bhmp2rcd13ifvqgog","pricing_plan_id":"cebpf4jnsgd1na2vs0mg"},{"bike_id":"71f34f72-d3b7-46a5-9bd4-1fe057b3152f","system_id":"levelo_inurba_marseille","lat":43.22926,"lon":5.35381,"is_reserved":false,"is_disabled":false,"rental_uris":{"android":"levelo://app?vid=71f34f72-d3b7-46a5-9bd4-1fe057b3152f","ios":"levelo://app?vid=71f34f72-d3b7-46a5-9bd4-1fe057b3152f"},"vehicle_type_id":"4","last_reported":1738242913,"current_range_meters":38800,"station_id":"cpo3532slgdg3j2ikp40","pricing_plan_id":"cebpf4jnsgd1na2vs0mg"},{"bike_id":"66c12baa-9477-443c-ad62-ceeda86c1e58","system_id":"levelo_inurba_marseille","lat":43.25884,"lon":5.39914,"is_reserved":false,"is_disabled":false,"rental_uris":{"android":"levelo://app?vid=66c12baa-9477-443c-ad62-ceeda86c1e58","ios":"levelo://app?vid=66c12baa-9477-443c-ad62-ceeda86c1e58"},"vehicle_type_id":"4","last_reported":1738242913,"current_range_meters":38800,"station_id":"ce4bhl92rcd13ifvqghg","pricing_plan_id":"cebpf4jnsgd1na2vs0mg"},{"bike_id":"20029bdd-9f9c-4ff9-86e4-5ba6ed30f46a","system_id":"levelo_inurba_marseille","lat":43.23148,"lon":5.43705,"is_reserved":false,"is_disabled":true,"rental_uris":{"android":"levelo://app?vid=20029bdd-9f9c-4ff9-86e4-5ba6ed30f46a","ios":"levelo://app?vid=20029bdd-9f9c-4ff9-86e4-5ba6ed30f46a"},"vehicle_type_id":"4","last_reported":1738242913,"current_range_meters":0,"station_id":"ce4bhmp2rcd13ifvqgog","pricing_plan_id":"cebpf4jnsgd1na2vs0mg"},{"bike_id":"bed6ef6e-8b96-4e18-8b3f-d3b3f6c98556","system_id":"levelo_inurba_marseille","lat":43.24085,"lon":5.37756,"is_reserved":false,"is_disabled":false,"rental_uris":{"android":"levelo://app?vid=bed6ef6e-8b96-4e18-8b3f-d3b3f6c98556","ios":"levelo://app?vid=bed6ef6e-8b96-4e18-8b3f-d3b3f6c98556"},"vehicle_type_id":"4","last_reported":1738242913,"current_range_meters":32800,"station_id":"ce4bhnp2rcd13ifvqgvg","pricing_plan_id":"cebpf4jnsgd1na2vs0mg"},{"bike_id":"a335131c-b12c-433f-9f2c-1edb5549eb18","system_id":"levelo_inurba_marseille","lat":43.30166,"lon":5.38074,"is_reserved":false,"is_disabled":false,"rental_uris":{"android":"levelo://app?vid=a335131c-b12c-433f-9f2c-1edb5549eb18","ios":"levelo://app?vid=a335131c-b12c-433f-9f2c-1edb5549eb18"},"vehicle_type_id":"4","last_reported":1738242913,"current_range_meters":22800,"station_id":"ce4bgjp2rcd13ifvqbh0","pricing_plan_id":"cebpf4jnsgd1na2vs0mg"},{"bike_id":"c6f604a9-cc74-4819-a2f2-6c80c9bed708","system_id":"levelo_inurba_marseille","lat":43.2695,"lon":5.38636,"is_reserved":false,"is_disabled":false,"rental_uris":{"android":"levelo://app?vid=c6f604a9-cc74-4819-a2f2-6c80c9bed708","ios":"levelo://app?vid=c6f604a9-cc74-4819-a2f2-6c80c9bed708"},"vehicle_type_id":"4","last_reported":1738242913,"current_range_meters":10000,"station_id":"ce4bhh92rcd13ifvqfh0","pricing_plan_id":"cebpf4jnsgd1na2vs0mg"},{"bike_id":"8ea2773f-53e7-443e-b3d6-dc8c2e0abe7a","system_id":"levelo_inurba_marseille","lat":43.28741,"lon":5.37927,"is_reserved":false,"is_disabled":false,"rental_uris":{"android":"levelo://app?vid=8ea2773f-53e7-443e-b3d6-dc8c2e0abe7a","ios":"levelo://app?vid=8ea2773f-53e7-443e-b3d6-dc8c2e0abe7a"},"vehicle_type_id":"4","last_reported":1738242913,"current_range_meters":39200,"station_id":"ce4bh9p2rcd13ifvqec0","pricing_plan_id":"cebpf4jnsgd1na2vs0mg"},{"bike_id":"d1c78d49-9061-4efb-9ad8-bae8586e9f36","system_id":"levelo_inurba_marseille","lat":43.30595,"lon":5.36684,"is_reserved":false,"is_disabled":false,"rental_uris":{"android":"levelo://app?vid=d1c78d49-9061-4efb-9ad8-bae8586e9f36","ios":"levelo://app?vid=d1c78d49-9061-4efb-9ad8-bae8586e9f36"},"vehicle_type_id":"4","last_reported":1738242913,"current_range_meters":7200,"station_id":"","pricing_plan_id":"cebpf4jnsgd1na2vs0mg"},{"bike_id":"6296e8be-394f-4f7d-b2c2-a93deb90ea08","system_id":"levelo_inurba_marseille","lat":43.28339,"lon":5.38101,"is_reserved":false,"is_disabled":false,"rental_uris":{"android":"levelo://app?vid=6296e8be-394f-4f7d-b2c2-a93deb90ea08","ios":"levelo://app?vid=6296e8be-394f-4f7d-b2c2-a93deb90ea08"},"vehicle_type_id":"4","last_reported":1738242913,"current_range_meters":26800,"station_id":"ce4bh412rcd13ifvqdr0","pricing_plan_id":"cebpf4jnsgd1na2vs0mg"},{"bike_id":"45fd4a2a-a5dc-4b7e-962f-4641aedb60dd","system_id":"levelo_inurba_marseille","lat":43.27993,"lon":5.41659,"is_reserved":false,"is_disabled":false,"rental_uris":{"android":"levelo://app?vid=45fd4a2a-a5dc-4b7e-962f-4641aedb60dd","ios":"levelo://app?vid=45fd4a2a-a5dc-4b7e-962f-4641aedb60dd"},"vehicle_type_id":"4","last_reported":1738242913,"current_range_meters":36000,"station_id":"ce4bho12rcd13ifvqh1g","pricing_plan_id":"cebpf4jnsgd1na2vs0mg"},{"bike_id":"bbd37f25-b511-4ba3-9ad8-9c3bb19bb776","system_id":"levelo_inurba_marseille","lat":43.30318,"lon":5.36906,"is_reserved":false,"is_disabled":false,"rental_uris":{"android":"levelo://app?vid=bbd37f25-b511-4ba3-9ad8-9c3bb19bb776","ios":"levelo://app?vid=bbd37f25-b511-4ba3-9ad8-9c3bb19bb776"},"vehicle_type_id":"4","last_reported":1738242913,"current_range_meters":24000,"station_id":"ce4bgqh2rcd13ifvqc5g","pricing_plan_id":"cebpf4jnsgd1na2vs0mg"},{"bike_id":"32865afa-f4c8-47fc-8db7-f02f6e4aa1cf","system_id":"levelo_inurba_marseille","lat":43.31689,"lon":5.40469,"is_reserved":false,"is_disabled":false,"rental_uris":{"android":"levelo://app?vid=32865afa-f4c8-47fc-8db7-f02f6e4aa1cf","ios":"levelo://app?vid=32865afa-f4c8-47fc-8db7-f02f6e4aa1cf"},"vehicle_type_id":"4","last_reported":1738242913,"current_range_meters":7200,"station_id":"ce4bh012rcd13ifvqd00","pricing_plan_id":"cebpf4jnsgd1na2vs0mg"},{"bike_id":"8d6f866c-b36b-4bc1-bd19-72682fac4efa","system_id":"levelo_inurba_marseille","lat":43.28698,"lon":5.37381,"is_reserved":false,"is_disabled":false,"rental_uris":{"android":"levelo://app?vid=8d6f866c-b36b-4bc1-bd19-72682fac4efa","ios":"levelo://app?vid=8d6f866c-b36b-4bc1-bd19-72682fac4efa"},"vehicle_type_id":"4","last_reported":1738242913,"current_range_meters":37600,"station_id":"ce4bh3p2rcd13ifvqdq0","pricing_plan_id":"cebpf4jnsgd1na2vs0mg"},{"bike_id":"595cf55f-af34-4fbb-bd2d-b511b20cb2ef","system_id":"levelo_inurba_marseille","lat":43.27618,"lon":5.36127,"is_reserved":false,"is_disabled":false,"rental_uris":{"android":"levelo://app?vid=595cf55f-af34-4fbb-bd2d-b511b20cb2ef","ios":"levelo://app?vid=595cf55f-af34-4fbb-bd2d-b511b20cb2ef"},"vehicle_type_id":"4","last_reported":1738242913,"current_range_meters":8000,"station_id":"ce4bgj92rcd13ifvqbe0","pricing_plan_id":"cebpf4jnsgd1na2vs0mg"},{"bike_id":"ec184c8f-729e-40bc-b163-773aef833942","system_id":"levelo_inurba_marseille","lat":43.30546,"lon":5.36541,"is_reserved":false,"is_disabled":false,"rental_uris":{"android":"levelo://app?vid=ec184c8f-729e-40bc-b163-773aef833942","ios":"levelo://app?vid=ec184c8f-729e-40bc-b163-773aef833942"},"vehicle_type_id":"4","last_reported":1738242913,"current_range_meters":38800,"station_id":"ce4bgs12rcd13ifvqcag","pricing_plan_id":"cebpf4jnsgd1na2vs0mg"},{"bike_id":"01ec46d8-93d3-4495-8c47-385093de8227","system_id":"levelo_inurba_marseille","lat":43.29299,"lon":5.37452,"is_reserved":false,"is_disabled":false,"rental_uris":{"android":"levelo://app?vid=01ec46d8-93d3-4495-8c47-385093de8227","ios":"levelo://app?vid=01ec46d8-93d3-4495-8c47-385093de8227"},"vehicle_type_id":"4","last_reported":1738242913,"current_range_meters":39200,"station_id":"ce4bgi12rcd13ifvqb70","pricing_plan_id":"cebpf4jnsgd1na2vs0mg"},{"bike_id":"69311afe-3d11-4d33-bd7f-5a46e643a98b","system_id":"levelo_inurba_marseille","lat":43.27053,"lon":5.40268,"is_reserved":false,"is_disabled":false,"rental_uris":{"android":"levelo://app?vid=69311afe-3d11-4d33-bd7f-5a46e643a98b","ios":"levelo://app?vid=69311afe-3d11-4d33-bd7f-5a46e643a98b"},"vehicle_type_id":"4","last_reported":1738242913,"current_range_meters":16400,"station_id":"ce4bhk92rcd13ifvqgc0","pricing_plan_id":"cebpf4jnsgd1na2vs0mg"},{"bike_id":"0883b683-1c58-4a5a-b73f-ff864686958e","system_id":"levelo_inurba_marseille","lat":43.26063,"lon":5.39397,"is_reserved":false,"is_disabled":false,"rental_uris":{"android":"levelo://app?vid=0883b683-1c58-4a5a-b73f-ff864686958e","ios":"levelo://app?vid=0883b683-1c58-4a5a-b73f-ff864686958e"},"vehicle_type_id":"4","last_reported":1738242913,"current_range_meters":36800,"station_id":"ce4bhh92rcd13ifvqfj0","pricing_plan_id":"cebpf4jnsgd1na2vs0mg"},{"bike_id":"30396820-7f9b-4b6b-b147-5049f986d97d","system_id":"levelo_inurba_marseille","lat":43.30949,"lon":5.39034,"is_reserved":false,"is_disabled":false,"rental_uris":{"android":"levelo://app?vid=30396820-7f9b-4b6b-b147-5049f986d97d","ios":"levelo://app?vid=30396820-7f9b-4b6b-b147-5049f986d97d"},"vehicle_type_id":"4","last_reported":1738242913,"current_range_meters":26000,"station_id":"ce4bgup2rcd13ifvqco0","pricing_plan_id":"cebpf4jnsgd1na2vs0mg"},{"bike_id":"88e70110-2177-4775-bb67-b77045f0580f","system_id":"levelo_inurba_marseille","lat":43.317,"lon":5.37749,"is_reserved":false,"is_disabled":false,"rental_uris":{"android":"levelo://app?vid=88e70110-2177-4775-bb67-b77045f0580f","ios":"levelo://app?vid=88e70110-2177-4775-bb67-b77045f0580f"},"vehicle_type_id":"4","last_reported":1738242913,"current_range_meters":18800,"station_id":"ce4bgth2rcd13ifvqch0","pricing_plan_id":"cebpf4jnsgd1na2vs0mg"},{"bike_id":"1af203ab-771e-4433-8937-d15f0f9964af","system_id":"levelo_inurba_marseille","lat":43.287,"lon":5.39983,"is_reserved":false,"is_disabled":false,"rental_uris":{"android":"levelo://app?vid=1af203ab-771e-4433-8937-d15f0f9964af","ios":"levelo://app?vid=1af203ab-771e-4433-8937-d15f0f9964af"},"vehicle_type_id":"4","last_reported":1738242913,"current_range_meters":30800,"station_id":"ce4bho92rcd13ifvqh3g","pricing_plan_id":"cebpf4jnsgd1na2vs0mg"},{"bike_id":"9b92c2cd-060a-4063-b0ec-3d020bff624f","system_id":"levelo_inurba_marseille","lat":43.26687,"lon":5.3827,"is_reserved":false,"is_disabled":false,"rental_uris":{"android":"levelo://app?vid=9b92c2cd-060a-4063-b0ec-3d020bff624f","ios":"levelo://app?vid=9b92c2cd-060a-4063-b0ec-3d020bff624f"},"vehicle_type_id":"4","last_reported":1738242913,"current_range_meters":34000,"station_id":"ce4bhg92rcd13ifvqf90","pricing_plan_id":"cebpf4jnsgd1na2vs0mg"},{"bike_id":"213e7cf3-34ce-48ae-82dc-54b9cd36cadf","system_id":"levelo_inurba_marseille","lat":43.30594,"lon":5.37217,"is_reserved":false,"is_disabled":false,"rental_uris":{"android":"levelo://app?vid=213e7cf3-34ce-48ae-82dc-54b9cd36cadf","ios":"levelo://app?vid=213e7cf3-34ce-48ae-82dc-54b9cd36cadf"},"vehicle_type_id":"4","last_reported":1738242913,"current_range_meters":38000,"station_id":"ce4bgqh2rcd13ifvqc4g","pricing_plan_id":"cebpf4jnsgd1na2vs0mg"},{"bike_id":"b85acd52-7afe-42a6-a0c7-8f8819191a5a","system_id":"levelo_inurba_marseille","lat":43.25869,"lon":5.39901,"is_reserved":false,"is_disabled":false,"rental_uris":{"android":"levelo://app?vid=b85acd52-7afe-42a6-a0c7-8f8819191a5a","ios":"levelo://app?vid=b85acd52-7afe-42a6-a0c7-8f8819191a5a"},"vehicle_type_id":"4","last_reported":1738242913,"current_range_meters":35600,"station_id":"ce4bhl92rcd13ifvqghg","pricing_plan_id":"cebpf4jnsgd1na2vs0mg"},{"bike_id":"52819258-21da-4689-8bb9-f8055bea0c1d","system_id":"levelo_inurba_marseille","lat":43.25725,"lon":5.41108,"is_reserved":false,"is_disabled":false,"rental_uris":{"android":"levelo://app?vid=52819258-21da-4689-8bb9-f8055bea0c1d","ios":"levelo://app?vid=52819258-21da-4689-8bb9-f8055bea0c1d"},"vehicle_type_id":"4","last_reported":1738242913,"current_range_meters":35600,"station_id":"ce4bhkp2rcd13ifvqgd0","pricing_plan_id":"cebpf4jnsgd1na2vs0mg"},{"bike_id":"f9d35a32-65b2-4842-bd83-8cbe10324274","system_id":"levelo_inurba_marseille","lat":43.28643,"lon":5.35119,"is_reserved":false,"is_disabled":false,"rental_uris":{"android":"levelo://app?vid=f9d35a32-65b2-4842-bd83-8cbe10324274","ios":"levelo://app?vid=f9d35a32-65b2-4842-bd83-8cbe10324274"},"vehicle_type_id":"4","last_reported":1738242913,"current_range_meters":17600,"station_id":"ce4bhch2rcd13ifvqeug","pricing_plan_id":"cebpf4jnsgd1na2vs0mg"},{"bike_id":"57ea5f77-abf9-41ff-8ffe-e281a2630bfe","system_id":"levelo_inurba_marseille","lat":43.28107,"lon":5.39657,"is_reserved":false,"is_disabled":true,"rental_uris":{"android":"levelo://app?vid=57ea5f77-abf9-41ff-8ffe-e281a2630bfe","ios":"levelo://app?vid=57ea5f77-abf9-41ff-8ffe-e281a2630bfe"},"vehicle_type_id":"4","last_reported":1738242913,"current_range_meters":38800,"station_id":"ce4bho12rcd13ifvqh2g","pricing_plan_id":"cebpf4jnsgd1na2vs0mg"},{"bike_id":"520bc3b8-9430-4df6-a092-483238bde66f","system_id":"levelo_inurba_marseille","lat":43.24537,"lon":5.39456,"is_reserved":false,"is_disabled":true,"rental_uris":{"android":"levelo://app?vid=520bc3b8-9430-4df6-a092-483238bde66f","ios":"levelo://app?vid=520bc3b8-9430-4df6-a092-483238bde66f"},"vehicle_type_id":"4","last_reported":1738242913,"current_range_meters":0,"station_id":"ce4bhlp2rcd13ifvqgjg","pricing_plan_id":"cebpf4jnsgd1na2vs0mg"},{"bike_id":"ad17d39f-96f5-4377-82df-a7dfb5d9457c","system_id":"levelo_inurba_marseille","lat":43.25503,"lon":5.37651,"is_reserved":false,"is_disabled":false,"rental_uris":{"android":"levelo://app?vid=ad17d39f-96f5-4377-82df-a7dfb5d9457c","ios":"levelo://app?vid=ad17d39f-96f5-4377-82df-a7dfb5d9457c"},"vehicle_type_id":"4","last_reported":1738242913,"current_range_meters":38400,"station_id":"ce4bhh12rcd13ifvqff0","pricing_plan_id":"cebpf4jnsgd1na2vs0mg"},{"bike_id":"5f072b5e-2042-44c7-8c08-bdce171ff866","system_id":"levelo_inurba_marseille","lat":43.30134,"lon":5.38786,"is_reserved":false,"is_disabled":false,"rental_uris":{"android":"levelo://app?vid=5f072b5e-2042-44c7-8c08-bdce171ff866","ios":"levelo://app?vid=5f072b5e-2042-44c7-8c08-bdce171ff866"},"vehicle_type_id":"4","last_reported":1738242913,"current_range_meters":38000,"station_id":"ce4bhoh2rcd13ifvqh6g","pricing_plan_id":"cebpf4jnsgd1na2vs0mg"},{"bike_id":"b01e16bd-0858-4955-a12e-17c4d777e330","system_id":"levelo_inurba_marseille","lat":43.29415,"lon":5.38624,"is_reserved":false,"is_disabled":false,"rental_uris":{"android":"levelo://app?vid=b01e16bd-0858-4955-a12e-17c4d777e330","ios":"levelo://app?vid=b01e16bd-0858-4955-a12e-17c4d777e330"},"vehicle_type_id":"4","last_reported":1738242913,"current_range_meters":32400,"station_id":"ce4bh2h2rcd13ifvqdh0","pricing_plan_id":"cebpf4jnsgd1na2vs0mg"},{"bike_id":"0d619d4e-f0bb-40ae-8623-a78689e0f632","system_id":"levelo_inurba_marseille","lat":43.30934,"lon":5.40141,"is_reserved":false,"is_disabled":false,"rental_uris":{"android":"levelo://app?vid=0d619d4e-f0bb-40ae-8623-a78689e0f632","ios":"levelo://app?vid=0d619d4e-f0bb-40ae-8623-a78689e0f632"},"vehicle_type_id":"4","last_reported":1738242913,"current_range_meters":37600,"station_id":"ce4bgvp2rcd13ifvqct0","pricing_plan_id":"cebpf4jnsgd1na2vs0mg"},{"bike_id":"56d6b97f-30a2-4c2a-8be6-a12a9fc19507","system_id":"levelo_inurba_marseille","lat":43.31759,"lon":5.39019,"is_reserved":false,"is_disabled":false,"rental_uris":{"android":"levelo://app?vid=56d6b97f-30a2-4c2a-8be6-a12a9fc19507","ios":"levelo://app?vid=56d6b97f-30a2-4c2a-8be6-a12a9fc19507"},"vehicle_type_id":"4","last_reported":1738242913,"current_range_meters":18000,"station_id":"ce4bhqp2rcd13ifvqhng","pricing_plan_id":"cebpf4jnsgd1na2vs0mg"},{"bike_id":"6846f891-acdd-4a03-acd1-ab269a658fd8","system_id":"levelo_inurba_marseille","lat":43.29794,"lon":5.38087,"is_reserved":false,"is_disabled":false,"rental_uris":{"android":"levelo://app?vid=6846f891-acdd-4a03-acd1-ab269a658fd8","ios":"levelo://app?vid=6846f891-acdd-4a03-acd1-ab269a658fd8"},"vehicle_type_id":"4","last_reported":1738242913,"current_range_meters":35600,"station_id":"ce4bgip2rcd13ifvqbb0","pricing_plan_id":"cebpf4jnsgd1na2vs0mg"},{"bike_id":"ea6c0ce2-7b8c-4536-b944-0ca1a95ad160","system_id":"levelo_inurba_marseille","lat":43.29027,"lon":5.38128,"is_reserved":false,"is_disabled":false,"rental_uris":{"android":"levelo://app?vid=ea6c0ce2-7b8c-4536-b944-0ca1a95ad160","ios":"levelo://app?vid=ea6c0ce2-7b8c-4536-b944-0ca1a95ad160"},"vehicle_type_id":"4","last_reported":1738242913,"current_range_meters":16400,"station_id":"ce4bh4p2rcd13ifvqe1g","pricing_plan_id":"cebpf4jnsgd1na2vs0mg"},{"bike_id":"e65197ba-8b5c-497e-9df1-a9727c5c7ce0","system_id":"levelo_inurba_marseille","lat":43.249985,"lon":5.389342,"is_reserved":false,"is_disabled":false,"rental_uris":{"android":"levelo://app?vid=e65197ba-8b5c-497e-9df1-a9727c5c7ce0","ios":"levelo://app?vid=e65197ba-8b5c-497e-9df1-a9727c5c7ce0"},"vehicle_type_id":"4","last_reported":1738242913,"current_range_meters":23200,"station_id":"ce4bhgp2rcd13ifvqfd0","pricing_plan_id":"cebpf4jnsgd1na2vs0mg"},{"bike_id":"88e6f0ef-88ea-4713-9523-b839cdc40d4f","system_id":"levelo_inurba_marseille","lat":43.29728,"lon":5.37692,"is_reserved":false,"is_disabled":false,"rental_uris":{"android":"levelo://app?vid=88e6f0ef-88ea-4713-9523-b839cdc40d4f","ios":"levelo://app?vid=88e6f0ef-88ea-4713-9523-b839cdc40d4f"},"vehicle_type_id":"4","last_reported":1738242913,"current_range_meters":30400,"station_id":"ce4bgkh2rcd13ifvqbl0","pricing_plan_id":"cebpf4jnsgd1na2vs0mg"},{"bike_id":"e17848b0-f3c1-4ee5-ab17-291796faf114","system_id":"levelo_inurba_marseille","lat":43.29606,"lon":5.36302,"is_reserved":false,"is_disabled":false,"rental_uris":{"android":"levelo://app?vid=e17848b0-f3c1-4ee5-ab17-291796faf114","ios":"levelo://app?vid=e17848b0-f3c1-4ee5-ab17-291796faf114"},"vehicle_type_id":"4","last_reported":1738242913,"current_range_meters":38800,"station_id":"","pricing_plan_id":"cebpf4jnsgd1na2vs0mg"},{"bike_id":"fd5223bc-952e-4512-8abe-c003f9d50fc2","system_id":"levelo_inurba_marseille","lat":43.29795,"lon":5.38098,"is_reserved":false,"is_disabled":false,"rental_uris":{"android":"levelo://app?vid=fd5223bc-952e-4512-8abe-c003f9d50fc2","ios":"levelo://app?vid=fd5223bc-952e-4512-8abe-c003f9d50fc2"},"vehicle_type_id":"4","last_reported":1738242913,"current_range_meters":36800,"station_id":"ce4bgip2rcd13ifvqbb0","pricing_plan_id":"cebpf4jnsgd1na2vs0mg"},{"bike_id":"0e203b51-79e5-4572-98e9-903e63feafc3","system_id":"levelo_inurba_marseille","lat":43.28003,"lon":5.41658,"is_reserved":false,"is_disabled":false,"rental_uris":{"android":"levelo://app?vid=0e203b51-79e5-4572-98e9-903e63feafc3","ios":"levelo://app?vid=0e203b51-79e5-4572-98e9-903e63feafc3"},"vehicle_type_id":"4","last_reported":1738242913,"current_range_meters":14000,"station_id":"ce4bho12rcd13ifvqh1g","pricing_plan_id":"cebpf4jnsgd1na2vs0mg"},{"bike_id":"c2beb6c7-b602-4824-b9c6-ecc029890712","system_id":"levelo_inurba_marseille","lat":43.29798,"lon":5.38119,"is_reserved":false,"is_disabled":false,"rental_uris":{"android":"levelo://app?vid=c2beb6c7-b602-4824-b9c6-ecc029890712","ios":"levelo://app?vid=c2beb6c7-b602-4824-b9c6-ecc029890712"},"vehicle_type_id":"4","last_reported":1738242913,"current_range_meters":36400,"station_id":"ce4bgip2rcd13ifvqbb0","pricing_plan_id":"cebpf4jnsgd1na2vs0mg"},{"bike_id":"8382186f-0d25-40e6-beca-2632cc8590f2","system_id":"levelo_inurba_marseille","lat":43.29559,"lon":5.42275,"is_reserved":false,"is_disabled":true,"rental_uris":{"android":"levelo://app?vid=8382186f-0d25-40e6-beca-2632cc8590f2","ios":"levelo://app?vid=8382186f-0d25-40e6-beca-2632cc8590f2"},"vehicle_type_id":"4","last_reported":1738242913,"current_range_meters":8800,"station_id":"ce4bhph2rcd13ifvqhdg","pricing_plan_id":"cebpf4jnsgd1na2vs0mg"},{"bike_id":"983f36c8-c77d-41f5-913a-1c3638437530","system_id":"levelo_inurba_marseille","lat":43.29876,"lon":5.38897,"is_reserved":false,"is_disabled":false,"rental_uris":{"android":"levelo://app?vid=983f36c8-c77d-41f5-913a-1c3638437530","ios":"levelo://app?vid=983f36c8-c77d-41f5-913a-1c3638437530"},"vehicle_type_id":"4","last_reported":1738242913,"current_range_meters":32400,"station_id":"ce4bh392rcd13ifvqdl0","pricing_plan_id":"cebpf4jnsgd1na2vs0mg"},{"bike_id":"748210c8-b014-4bb9-bf28-ece938344327","system_id":"levelo_inurba_marseille","lat":43.33003,"lon":5.39036,"is_reserved":false,"is_disabled":false,"rental_uris":{"android":"levelo://app?vid=748210c8-b014-4bb9-bf28-ece938344327","ios":"levelo://app?vid=748210c8-b014-4bb9-bf28-ece938344327"},"vehicle_type_id":"4","last_reported":1738242913,"current_range_meters":24400,"station_id":"ce4bhr92rcd13ifvqhrg","pricing_plan_id":"cebpf4jnsgd1na2vs0mg"},{"bike_id":"5d26a815-ceee-41c1-a765-2937bb6d97e1","system_id":"levelo_inurba_marseille","lat":43.30532,"lon":5.36552,"is_reserved":false,"is_disabled":false,"rental_uris":{"android":"levelo://app?vid=5d26a815-ceee-41c1-a765-2937bb6d97e1","ios":"levelo://app?vid=5d26a815-ceee-41c1-a765-2937bb6d97e1"},"vehicle_type_id":"4","last_reported":1738242913,"current_range_meters":17600,"station_id":"ce4bgs12rcd13ifvqcag","pricing_plan_id":"cebpf4jnsgd1na2vs0mg"},{"bike_id":"ccfbd024-ae69-4c2e-848c-a8428e5be0c6","system_id":"levelo_inurba_marseille","lat":43.29321,"lon":5.37147,"is_reserved":false,"is_disabled":false,"rental_uris":{"android":"levelo://app?vid=ccfbd024-ae69-4c2e-848c-a8428e5be0c6","ios":"levelo://app?vid=ccfbd024-ae69-4c2e-848c-a8428e5be0c6"},"vehicle_type_id":"4","last_reported":1738242913,"current_range_meters":39200,"station_id":"ce4bgh92rcd13ifvqb40","pricing_plan_id":"cebpf4jnsgd1na2vs0mg"},{"bike_id":"c4804f52-68b7-4a7f-b819-d50d9b5d1ef9","system_id":"levelo_inurba_marseille","lat":43.27204,"lon":5.39186,"is_reserved":false,"is_disabled":true,"rental_uris":{"android":"levelo://app?vid=c4804f52-68b7-4a7f-b819-d50d9b5d1ef9","ios":"levelo://app?vid=c4804f52-68b7-4a7f-b819-d50d9b5d1ef9"},"vehicle_type_id":"4","last_reported":1738242913,"current_range_meters":1600,"station_id":"ce4bhhp2rcd13ifvqfm0","pricing_plan_id":"cebpf4jnsgd1na2vs0mg"},{"bike_id":"bda855eb-f306-4766-b531-a26a641533cf","system_id":"levelo_inurba_marseille","lat":43.23959,"lon":5.3664,"is_reserved":false,"is_disabled":false,"rental_uris":{"android":"levelo://app?vid=bda855eb-f306-4766-b531-a26a641533cf","ios":"levelo://app?vid=bda855eb-f306-4766-b531-a26a641533cf"},"vehicle_type_id":"4","last_reported":1738242913,"current_range_meters":12000,"station_id":"ce4bhi12rcd13ifvqfp0","pricing_plan_id":"cebpf4jnsgd1na2vs0mg"},{"bike_id":"32d9a329-7366-4eb8-8d55-73b5c99c70c3","system_id":"levelo_inurba_marseille","lat":43.23196,"lon":5.35539,"is_reserved":false,"is_disabled":false,"rental_uris":{"android":"levelo://app?vid=32d9a329-7366-4eb8-8d55-73b5c99c70c3","ios":"levelo://app?vid=32d9a329-7366-4eb8-8d55-73b5c99c70c3"},"vehicle_type_id":"4","last_reported":1738242913,"current_range_meters":39200,"station_id":"ce4bhu92rcd13ifvqi70","pricing_plan_id":"cebpf4jnsgd1na2vs0mg"},{"bike_id":"e9e12897-6b7d-4c9d-b500-907d28471123","system_id":"levelo_inurba_marseille","lat":43.30555,"lon":5.36689,"is_reserved":false,"is_disabled":false,"rental_uris":{"android":"levelo://app?vid=e9e12897-6b7d-4c9d-b500-907d28471123","ios":"levelo://app?vid=e9e12897-6b7d-4c9d-b500-907d28471123"},"vehicle_type_id":"4","last_reported":1738242913,"current_range_meters":11200,"station_id":"ce4bgrp2rcd13ifvqc9g","pricing_plan_id":"cebpf4jnsgd1na2vs0mg"},{"bike_id":"f2cd1694-cbcf-4b6f-9463-8b28ee8d6f4b","system_id":"levelo_inurba_marseille","lat":43.23056,"lon":5.35497,"is_reserved":false,"is_disabled":false,"rental_uris":{"android":"levelo://app?vid=f2cd1694-cbcf-4b6f-9463-8b28ee8d6f4b","ios":"levelo://app?vid=f2cd1694-cbcf-4b6f-9463-8b28ee8d6f4b"},"vehicle_type_id":"4","last_reported":1738242913,"current_range_meters":17600,"station_id":"cpo3342slgdg3j2ifvpg","pricing_plan_id":"cebpf4jnsgd1na2vs0mg"},{"bike_id":"0a2fd205-d616-4064-aa75-d4d529957d90","system_id":"levelo_inurba_marseille","lat":43.23069,"lon":5.3549,"is_reserved":false,"is_disabled":false,"rental_uris":{"android":"levelo://app?vid=0a2fd205-d616-4064-aa75-d4d529957d90","ios":"levelo://app?vid=0a2fd205-d616-4064-aa75-d4d529957d90"},"vehicle_type_id":"4","last_reported":1738242913,"current_range_meters":24800,"station_id":"cpo3342slgdg3j2ifvpg","pricing_plan_id":"cebpf4jnsgd1na2vs0mg"},{"bike_id":"18b4d051-f832-4f4b-83f2-06168894e13c","system_id":"levelo_inurba_marseille","lat":43.2903,"lon":5.39964,"is_reserved":false,"is_disabled":false,"rental_uris":{"android":"levelo://app?vid=18b4d051-f832-4f4b-83f2-06168894e13c","ios":"levelo://app?vid=18b4d051-f832-4f4b-83f2-06168894e13c"},"vehicle_type_id":"4","last_reported":1738242913,"current_range_meters":34000,"station_id":"ce4bh392rcd13ifvqdm0","pricing_plan_id":"cebpf4jnsgd1na2vs0mg"},{"bike_id":"cdc2a678-4903-4402-a2ac-d185c88b6b9d","system_id":"levelo_inurba_marseille","lat":43.30141,"lon":5.38789,"is_reserved":false,"is_disabled":false,"rental_uris":{"android":"levelo://app?vid=cdc2a678-4903-4402-a2ac-d185c88b6b9d","ios":"levelo://app?vid=cdc2a678-4903-4402-a2ac-d185c88b6b9d"},"vehicle_type_id":"4","last_reported":1738242913,"current_range_meters":19200,"station_id":"ce4bghh2rcd13ifvqb60","pricing_plan_id":"cebpf4jnsgd1na2vs0mg"},{"bike_id":"851692c4-6ece-4a71-ba19-f442921d2278","system_id":"levelo_inurba_marseille","lat":43.29898,"lon":5.43649,"is_reserved":false,"is_disabled":false,"rental_uris":{"android":"levelo://app?vid=851692c4-6ece-4a71-ba19-f442921d2278","ios":"levelo://app?vid=851692c4-6ece-4a71-ba19-f442921d2278"},"vehicle_type_id":"4","last_reported":1738242913,"current_range_meters":39200,"station_id":"ce4bhpp2rcd13ifvqhfg","pricing_plan_id":"cebpf4jnsgd1na2vs0mg"},{"bike_id":"478bb8c8-b920-41b2-9b13-22266349dac7","system_id":"levelo_inurba_marseille","lat":43.27059,"lon":5.40266,"is_reserved":false,"is_disabled":false,"rental_uris":{"android":"levelo://app?vid=478bb8c8-b920-41b2-9b13-22266349dac7","ios":"levelo://app?vid=478bb8c8-b920-41b2-9b13-22266349dac7"},"vehicle_type_id":"4","last_reported":1738242913,"current_range_meters":32400,"station_id":"ce4bhk92rcd13ifvqgc0","pricing_plan_id":"cebpf4jnsgd1na2vs0mg"},{"bike_id":"e5f3ff7c-37f7-4994-9de9-70e4101a66f2","system_id":"levelo_inurba_marseille","lat":43.280957,"lon":5.378402,"is_reserved":false,"is_disabled":false,"rental_uris":{"android":"levelo://app?vid=e5f3ff7c-37f7-4994-9de9-70e4101a66f2","ios":"levelo://app?vid=e5f3ff7c-37f7-4994-9de9-70e4101a66f2"},"vehicle_type_id":"4","last_reported":1738242913,"current_range_meters":36400,"station_id":"ce4bha12rcd13ifvqee0","pricing_plan_id":"cebpf4jnsgd1na2vs0mg"},{"bike_id":"da356978-beb5-48b9-8dff-1c9f1529e01a","system_id":"levelo_inurba_marseille","lat":43.25738,"lon":5.41094,"is_reserved":false,"is_disabled":false,"rental_uris":{"android":"levelo://app?vid=da356978-beb5-48b9-8dff-1c9f1529e01a","ios":"levelo://app?vid=da356978-beb5-48b9-8dff-1c9f1529e01a"},"vehicle_type_id":"4","last_reported":1738242913,"current_range_meters":14800,"station_id":"ce4bhkp2rcd13ifvqgd0","pricing_plan_id":"cebpf4jnsgd1na2vs0mg"},{"bike_id":"803e03d8-7d2e-4feb-ac46-774902d16dee","system_id":"levelo_inurba_marseille","lat":43.33731,"lon":5.37442,"is_reserved":false,"is_disabled":true,"rental_uris":{"android":"levelo://app?vid=803e03d8-7d2e-4feb-ac46-774902d16dee","ios":"levelo://app?vid=803e03d8-7d2e-4feb-ac46-774902d16dee"},"vehicle_type_id":"4","last_reported":1738242913,"current_range_meters":28800,"station_id":"","pricing_plan_id":"cebpf4jnsgd1na2vs0mg"},{"bike_id":"baa29b07-c929-4791-93f4-403cf3c9ae74","system_id":"levelo_inurba_marseille","lat":43.29906,"lon":5.37474,"is_reserved":false,"is_disabled":false,"rental_uris":{"android":"levelo://app?vid=baa29b07-c929-4791-93f4-403cf3c9ae74","ios":"levelo://app?vid=baa29b07-c929-4791-93f4-403cf3c9ae74"},"vehicle_type_id":"4","last_reported":1738242913,"current_range_meters":23200,"station_id":"ce4bgjh2rcd13ifvqbg0","pricing_plan_id":"cebpf4jnsgd1na2vs0mg"},{"bike_id":"20543d14-58f5-456e-bc1a-75ed9ef151a6","system_id":"levelo_inurba_marseille","lat":43.30135,"lon":5.38773,"is_reserved":false,"is_disabled":false,"rental_uris":{"android":"levelo://app?vid=20543d14-58f5-456e-bc1a-75ed9ef151a6","ios":"levelo://app?vid=20543d14-58f5-456e-bc1a-75ed9ef151a6"},"vehicle_type_id":"4","last_reported":1738242913,"current_range_meters":28400,"station_id":"ce4bhoh2rcd13ifvqh6g","pricing_plan_id":"cebpf4jnsgd1na2vs0mg"},{"bike_id":"69c9a884-6e0f-46fc-b791-2eb1c1d5b269","system_id":"levelo_inurba_marseille","lat":43.30131,"lon":5.38789,"is_reserved":false,"is_disabled":false,"rental_uris":{"android":"levelo://app?vid=69c9a884-6e0f-46fc-b791-2eb1c1d5b269","ios":"levelo://app?vid=69c9a884-6e0f-46fc-b791-2eb1c1d5b269"},"vehicle_type_id":"4","last_reported":1738242913,"current_range_meters":28000,"station_id":"ce4bghh2rcd13ifvqb60","pricing_plan_id":"cebpf4jnsgd1na2vs0mg"},{"bike_id":"bc6caab0-381b-4cff-85cc-4b280eaeec74","system_id":"levelo_inurba_marseille","lat":43.28101,"lon":5.3785,"is_reserved":false,"is_disabled":false,"rental_uris":{"android":"levelo://app?vid=bc6caab0-381b-4cff-85cc-4b280eaeec74","ios":"levelo://app?vid=bc6caab0-381b-4cff-85cc-4b280eaeec74"},"vehicle_type_id":"4","last_reported":1738242913,"current_range_meters":28800,"station_id":"ce4bha12rcd13ifvqee0","pricing_plan_id":"cebpf4jnsgd1na2vs0mg"},{"bike_id":"d44ec3ae-170b-4589-adf2-df31fe1e86b7","system_id":"levelo_inurba_marseille","lat":43.2972,"lon":5.37695,"is_reserved":false,"is_disabled":false,"rental_uris":{"android":"levelo://app?vid=d44ec3ae-170b-4589-adf2-df31fe1e86b7","ios":"levelo://app?vid=d44ec3ae-170b-4589-adf2-df31fe1e86b7"},"vehicle_type_id":"4","last_reported":1738242913,"current_range_meters":22000,"station_id":"ce4bgkh2rcd13ifvqbl0","pricing_plan_id":"cebpf4jnsgd1na2vs0mg"},{"bike_id":"614229ca-06b5-4831-ab98-448d6ef259c5","system_id":"levelo_inurba_marseille","lat":43.31166,"lon":5.38712,"is_reserved":false,"is_disabled":false,"rental_uris":{"android":"levelo://app?vid=614229ca-06b5-4831-ab98-448d6ef259c5","ios":"levelo://app?vid=614229ca-06b5-4831-ab98-448d6ef259c5"},"vehicle_type_id":"4","last_reported":1738242913,"current_range_meters":38800,"station_id":"ce4bgv12rcd13ifvqcp0","pricing_plan_id":"cebpf4jnsgd1na2vs0mg"},