{"last_updated":1742443957,"ttl":60,"version":"2.2","data":{"bikes":[{"bike_id":"72fa9928-6f34-4e20-a699-21c02d9b6490","system_id":"levelo_inurba_marseille","lat":43.27902,"lon":5.41251,"is_reserved":false,"is_disabled":false,"rental_uris":{"android":"levelo://app?vid=72fa9928-6f34-4e20-a699-21c02d9b6490","ios":"levelo://app?vid=72fa9928-6f34-4e20-a699-21c02d9b6490"},"vehicle_type_id":"4","last_reported":1742443957,"current_range_meters":2800,"station_id":"","pricing_plan_id":"cebpf4jnsgd1na2vs0mg"},{"bike_id":"4ab60c3c-0e31-4a02-9d5f-acb594ff22ad","system_id":"levelo_inurba_marseille","lat":43.299093,"lon":5.374628,"is_reserved":false,"is_disabled":true,"rental_uris":{"android":"levelo://app?vid=4ab60c3c-0e31-4a02-9d5f-acb594ff22ad","ios":"levelo://app?vid=4ab60c3c-0e31-4a02-9d5f-acb594ff22ad"},"vehicle_type_id":"4","last_reported":1742443957,"current_range_meters":3200,"station_id":"ce4bgjh2rcd13ifvqbg0","pricing_plan_id":"cebpf4jnsgd1na2vs0mg"},{"bike_id":"85352492-aac2-47d3-8972-889068910fb1","system_id":"levelo_inurba_marseille","lat":43.33091,"lon":5.40761,"is_reserved":false,"is_disabled":false,"rental_uris":{"android":"levelo://app?vid=85352492-aac2-47d3-8972-889068910fb1","ios":"levelo://app?vid=85352492-aac2-47d3-8972-889068910fb1"},"vehicle_type_id":"4","last_reported":1742443957,"current_range_meters":3200,"station_id":"","pricing_plan_id":"cebpf4jnsgd1na2vs0mg"},{"bike_id":"ed167cf2-fcca-45d3-a06f-d2b9c6a361e0","system_id":"levelo_inurba_marseille","lat":43.27981,"lon":5.40018,"is_reserved":false,"is_disabled":false,"rental_uris":{"android":"levelo://app?vid=ed167cf2-fcca-45d3-a06f-d2b9c6a361e0","ios":"levelo://app?vid=ed167cf2-fcca-45d3-a06f-d2b9c6a361e0"},"vehicle_type_id":"4","last_reported":1742443957,"current_range_meters":3200,"station_id":"ce4bho92rcd13ifvqh4g","pricing_plan_id":"cebpf4jnsgd1na2vs0mg"},{"bike_id":"6ae6f76c-6a01-4d75-9d3f-dfa610803a78","system_id":"levelo_inurba_marseille","lat":43.230668,"lon":5.354891,"is_reserved":false,"is_disabled":false,"rental_uris":{"android":"levelo://app?vid=6ae6f76c-6a01-4d75-9d3f-dfa610803a78","ios":"levelo://app?vid=6ae6f76c-6a01-4d75-9d3f-dfa610803a78"},"vehicle_type_id":"4","last_reported":1742443957,"current_range_meters":3600,"station_id":"cpo3342slgdg3j2ifvpg","pricing_plan_id":"cebpf4jnsgd1na2vs0mg"},{"bike_id":"c849e512-8241-40ea-82b7-ef1c1b5cdc02","system_id":"levelo_inurba_marseille","lat":43.26006,"lon":5.39412,"is_reserved":false,"is_disabled":false,"rental_uris":{"android":"levelo://app?vid=c849e512-8241-40ea-82b7-ef1c1b5cdc02","ios":"levelo://app?vid=c849e512-8241-40ea-82b7-ef1c1b5cdc02"},"vehicle_type_id":"4","last_reported":1742443957,"current_range_meters":3600,"station_id":"ce4bhh92rcd13ifvqfj0","pricing_plan_id":"cebpf4jnsgd1na2vs0mg"},{"bike_id":"41ccd72c-504a-4b33-907d-e3b6bd114bcb","system_id":"levelo_inurba_marseille","lat":43.23189,"lon":5.35569,"is_reserved":false,"is_disabled":false,"rental_uris":{"android":"levelo://app?vid=41ccd72c-504a-4b33-907d-e3b6bd114bcb","ios":"levelo://app?vid=41ccd72c-504a-4b33-907d-e3b6bd114bcb"},"vehicle_type_id":"4","last_reported":1742443957,"current_range_meters":3600,"station_id":"ce4bhu92rcd13ifvqi70","pricing_plan_id":"cebpf4jnsgd1na2vs0mg"},{"bike_id":"dd2ed7bd-b7fd-4968-a45f-8f49550d4b0d","system_id":"levelo_inurba_marseille","lat":43.28429,"lon":5.392007,"is_reserved":false,"is_disabled":false,"rental_uris":{"android":"levelo://app?vid=dd2ed7bd-b7fd-4968-a45f-8f49550d4b0d","ios":"levelo://app?vid=dd2ed7bd-b7fd-4968-a45f-8f49550d4b0d"},"vehicle_type_id":"4","last_reported":1742443957,"current_range_meters":3600,"station_id":"ce4bhoh2rcd13ifvqh5g","pricing_plan_id":"cebpf4jnsgd1na2vs0mg"},{"bike_id":"0b60e72b-d8b1-4266-9b63-b94b87c1ad4b","system_id":"levelo_inurba_marseille","lat":43.231948,"lon":5.399809,"is_reserved":false,"is_disabled":false,"rental_uris":{"android":"levelo://app?vid=0b60e72b-d8b1-4266-9b63-b94b87c1ad4b","ios":"levelo://app?vid=0b60e72b-d8b1-4266-9b63-b94b87c1ad4b"},"vehicle_type_id":"4","last_reported":1742443957,"current_range_meters":4000,"station_id":"ce4bhn12rcd13ifvqgqg","pricing_plan_id":"cebpf4jnsgd1na2vs0mg"},{"bike_id":"50052a34-cd4d-455e-89a2-d030d8c6c1ad","system_id":"levelo_inurba_marseille","lat":43.24126,"lon":5.38951,"is_reserved":false,"is_disabled":false,"rental_uris":{"android":"levelo://app?vid=50052a34-cd4d-455e-89a2-d030d8c6c1ad","ios":"levelo://app?vid=50052a34-cd4d-455e-89a2-d030d8c6c1ad"},"vehicle_type_id":"4","last_reported":1742443957,"current_range_meters":4000,"station_id":"","pricing_plan_id":"cebpf4jnsgd1na2vs0mg"},{"bike_id":"ca1c0a28-8faf-435f-9d8b-370c3a07ff34","system_id":"levelo_inurba_marseille","lat":43.241662,"lon":5.364005,"is_reserved":false,"is_disabled":false,"rental_uris":{"android":"levelo://app?vid=ca1c0a28-8faf-435f-9d8b-370c3a07ff34","ios":"levelo://app?vid=ca1c0a28-8faf-435f-9d8b-370c3a07ff34"},"vehicle_type_id":"4","last_reported":1742443957,"current_range_meters":4000,"station_id":"cpo36qri1sfpv3e86is0","pricing_plan_id":"cebpf4jnsgd1na2vs0mg"},{"bike_id":"f26f3d5a-4028-424d-9faf-78c43bb5f4de","system_id":"levelo_inurba_marseille","lat":43.279065,"lon":5.395917,"is_reserved":false,"is_disabled":false,"rental_uris":{"android":"levelo://app?vid=f26f3d5a-4028-424d-9faf-78c43bb5f4de","ios":"levelo://app?vid=f26f3d5a-4028-424d-9faf-78c43bb5f4de"},"vehicle_type_id":"4","last_reported":1742443957,"current_range_meters":4000,"station_id":"ce4bhf92rcd13ifvqf40","pricing_plan_id":"cebpf4jnsgd1na2vs0mg"},{"bike_id":"c1ccf0a5-89fe-4d49-a5d7-808fb720c652","system_id":"levelo_inurba_marseille","lat":43.260276,"lon":5.417409,"is_reserved":false,"is_disabled":false,"rental_uris":{"android":"levelo://app?vid=c1ccf0a5-89fe-4d49-a5d7-808fb720c652","ios":"levelo://app?vid=c1ccf0a5-89fe-4d49-a5d7-808fb720c652"},"vehicle_type_id":"4","last_reported":1742443957,"current_range_meters":4400,"station_id":"","pricing_plan_id":"cebpf4jnsgd1na2vs0mg"},{"bike_id":"4382fcbb-ab3a-4082-a593-40cf743c03e0","system_id":"levelo_inurba_marseille","lat":43.25097,"lon":5.40337,"is_reserved":false,"is_disabled":false,"rental_uris":{"android":"levelo://app?vid=4382fcbb-ab3a-4082-a593-40cf743c03e0","ios":"levelo://app?vid=4382fcbb-ab3a-4082-a593-40cf743c03e0"},"vehicle_type_id":"4","last_reported":1742443957,"current_range_meters":4400,"station_id":"ce4bhlh2rcd13ifvqgig","pricing_plan_id":"cebpf4jnsgd1na2vs0mg"},{"bike_id":"3971f77a-b88d-4f35-bb02-cd0729f773be","system_id":"levelo_inurba_marseille","lat":43.258273,"lon":5.39433,"is_reserved":false,"is_disabled":false,"rental_uris":{"android":"levelo://app?vid=3971f77a-b88d-4f35-bb02-cd0729f773be","ios":"levelo://app?vid=3971f77a-b88d-4f35-bb02-cd0729f773be"},"vehicle_type_id":"4","last_reported":1742443957,"current_range_meters":4400,"station_id":"ce4bhip2rcd13ifvqft0","pricing_plan_id":"cebpf4jnsgd1na2vs0mg"},{"bike_id":"8d83e8cb-bc34-4c17-ad29-fbe2d4a7c5e7","system_id":"levelo_inurba_marseille","lat":43.27899,"lon":5.38751,"is_reserved":false,"is_disabled":false,"rental_uris":{"android":"levelo://app?vid=8d83e8cb-bc34-4c17-ad29-fbe2d4a7c5e7","ios":"levelo://app?vid=8d83e8cb-bc34-4c17-ad29-fbe2d4a7c5e7"},"vehicle_type_id":"4","last_reported":1742443957,"current_range_meters":4800,"station_id":"","pricing_plan_id":"cebpf4jnsgd1na2vs0mg"},{"bike_id":"6c1383c4-ce25-49bd-9e8f-5404db35746c","system_id":"levelo_inurba_marseille","lat":43.23623,"lon":5.39182,"is_reserved":false,"is_disabled":false,"rental_uris":{"android":"levelo://app?vid=6c1383c4-ce25-49bd-9e8f-5404db35746c","ios":"levelo://app?vid=6c1383c4-ce25-49bd-9e8f-5404db35746c"},"vehicle_type_id":"4","last_reported":1742443957,"current_range_meters":4800,"station_id":"","pricing_plan_id":"cebpf4jnsgd1na2vs0mg"},{"bike_id":"a342afa1-fe1b-4de5-8f98-f3f81167fac6","system_id":"levelo_inurba_marseille","lat":43.229323,"lon":5.353736,"is_reserved":false,"is_disabled":false,"rental_uris":{"android":"levelo://app?vid=a342afa1-fe1b-4de5-8f98-f3f81167fac6","ios":"levelo://app?vid=a342afa1-fe1b-4de5-8f98-f3f81167fac6"},"vehicle_type_id":"4","last_reported":1742443957,"current_range_meters":5600,"station_id":"cpo3532slgdg3j2ikp40","pricing_plan_id":"cebpf4jnsgd1na2vs0mg"},{"bike_id":"66ebd736-d0e1-4909-b91a-8b8e170e1ed9","system_id":"levelo_inurba_marseille","lat":43.24075,"lon":5.37763,"is_reserved":false,"is_disabled":false,"rental_uris":{"android":"levelo://app?vid=66ebd736-d0e1-4909-b91a-8b8e170e1ed9","ios":"levelo://app?vid=66ebd736-d0e1-4909-b91a-8b8e170e1ed9"},"vehicle_type_id":"4","last_reported":1742443957,"current_range_meters":5600,"station_id":"ce4bhnp2rcd13ifvqgvg","pricing_plan_id":"cebpf4jnsgd1na2vs0mg"},{"bike_id":"4156866b-a0ed-4dcf-b9d2-e7765ca102e2","system_id":"levelo_inurba_marseille","lat":43.305457,"lon":5.36691,"is_reserved":false,"is_disabled":true,"rental_uris":{"android":"levelo://app?vid=4156866b-a0ed-4dcf-b9d2-e7765ca102e2","ios":"levelo://app?vid=4156866b-a0ed-4dcf-b9d2-e7765ca102e2"},"vehicle_type_id":"4","last_reported":1742443957,"current_range_meters":5600,"station_id":"ce4bgrp2rcd13ifvqc9g","pricing_plan_id":"cebpf4jnsgd1na2vs0mg"},{"bike_id":"07a84210-640a-4451-abeb-0f9d302f1d58","system_id":"levelo_inurba_marseille","lat":43.26559,"lon":5.39043,"is_reserved":false,"is_disabled":false,"rental_uris":{"android":"levelo://app?vid=07a84210-640a-4451-abeb-0f9d302f1d58","ios":"levelo://app?vid=07a84210-640a-4451-abeb-0f9d302f1d58"},"vehicle_type_id":"4","last_reported":1742443957,"current_range_meters":5600,"station_id":"ce4bhe12rcd13ifvqf30","pricing_plan_id":"cebpf4jnsgd1na2vs0mg"},{"bike_id":"36398751-62bc-42f9-97fc-ed7aa66a199a","system_id":"levelo_inurba_marseille","lat":43.24806,"lon":5.37467,"is_reserved":false,"is_disabled":false,"rental_uris":{"android":"levelo://app?vid=36398751-62bc-42f9-97fc-ed7aa66a199a","ios":"levelo://app?vid=36398751-62bc-42f9-97fc-ed7aa66a199a"},"vehicle_type_id":"4","last_reported":1742443957,"current_range_meters":5600,"station_id":"ce4bhgh2rcd13ifvqfb0","pricing_plan_id":"cebpf4jnsgd1na2vs0mg"},{"bike_id":"13c50ce8-ac37-403c-9a91-fd3d918d2a4f","system_id":"levelo_inurba_marseille","lat":43.27818,"lon":5.4071,"is_reserved":false,"is_disabled":false,"rental_uris":{"android":"levelo://app?vid=13c50ce8-ac37-403c-9a91-fd3d918d2a4f","ios":"levelo://app?vid=13c50ce8-ac37-403c-9a91-fd3d918d2a4f"},"vehicle_type_id":"4","last_reported":1742443957,"current_range_meters":5600,"station_id":"ce4bhnh2rcd13ifvqgtg","pricing_plan_id":"cebpf4jnsgd1na2vs0mg"},{"bike_id":"93c8459b-99b3-44b8-ba99-136ecf8bee55","system_id":"levelo_inurba_marseille","lat":43.248036,"lon":5.374584,"is_reserved":false,"is_disabled":false,"rental_uris":{"android":"levelo://app?vid=93c8459b-99b3-44b8-ba99-136ecf8bee55","ios":"levelo://app?vid=93c8459b-99b3-44b8-ba99-136ecf8bee55"},"vehicle_type_id":"4","last_reported":1742443957,"current_range_meters":6000,"station_id":"ce4bhgh2rcd13ifvqfb0","pricing_plan_id":"cebpf4jnsgd1na2vs0mg"},{"bike_id":"4f70ebff-4208-422e-8c95-09d5bebf9c84","system_id":"levelo_inurba_marseille","lat":43.279095,"lon":5.395855,"is_reserved":false,"is_disabled":false,"rental_uris":{"android":"levelo://app?vid=4f70ebff-4208-422e-8c95-09d5bebf9c84","ios":"levelo://app?vid=4f70ebff-4208-422e-8c95-09d5bebf9c84"},"vehicle_type_id":"4","last_reported":1742443957,"current_range_meters":6000,"station_id":"ce4bhf92rcd13ifvqf40","pricing_plan_id":"cebpf4jnsgd1na2vs0mg"},{"bike_id":"865b135a-b505-4801-b213-2527312db79d","system_id":"levelo_inurba_marseille","lat":43.239025,"lon":5.370948,"is_reserved":false,"is_disabled":false,"rental_uris":{"android":"levelo://app?vid=865b135a-b505-4801-b213-2527312db79d","ios":"levelo://app?vid=865b135a-b505-4801-b213-2527312db79d"},"vehicle_type_id":"4","last_reported":1742443957,"current_range_meters":6400,"station_id":"","pricing_plan_id":"cebpf4jnsgd1na2vs0mg"},{"bike_id":"d0f8fd34-84ff-4859-8903-7aee9c800007","system_id":"levelo_inurba_marseille","lat":43.283564,"lon":5.386449,"is_reserved":false,"is_disabled":false,"rental_uris":{"android":"levelo://app?vid=d0f8fd34-84ff-4859-8903-7aee9c800007","ios":"levelo://app?vid=d0f8fd34-84ff-4859-8903-7aee9c800007"},"vehicle_type_id":"4","last_reported":1742443957,"current_range_meters":6400,"station_id":"ce4bh492rcd13ifvqdvg","pricing_plan_id":"cebpf4jnsgd1na2vs0mg"},{"bike_id":"d3aee935-e07d-4388-bbdb-0f36c5d2addd","system_id":"levelo_inurba_marseille","lat":43.28704,"lon":5.37395,"is_reserved":false,"is_disabled":false,"rental_uris":{"android":"levelo://app?vid=d3aee935-e07d-4388-bbdb-0f36c5d2addd","ios":"levelo://app?vid=d3aee935-e07d-4388-bbdb-0f36c5d2addd"},"vehicle_type_id":"4","last_reported":1742443957,"current_range_meters":6400,"station_id":"ce4bh3p2rcd13ifvqdq0","pricing_plan_id":"cebpf4jnsgd1na2vs0mg"},{"bike_id":"361822fa-663c-449d-9c8f-b3dec5b6d89a","system_id":"levelo_inurba_marseille","lat":43.27492,"lon":5.4247,"is_reserved":false,"is_disabled":false,"rental_uris":{"android":"levelo://app?vid=361822fa-663c-449d-9c8f-b3dec5b6d89a","ios":"levelo://app?vid=361822fa-663c-449d-9c8f-b3dec5b6d89a"},"vehicle_type_id":"4","last_reported":1742443957,"current_range_meters":6400,"station_id":"ce4bhn92rcd13ifvqgrg","pricing_plan_id":"cebpf4jnsgd1na2vs0mg"},{"bike_id":"ed32af05-a93a-40af-b3e3-3171404acc80","system_id":"levelo_inurba_marseille","lat":43.27345,"lon":5.36233,"is_reserved":false,"is_disabled":false,"rental_uris":{"android":"levelo://app?vid=ed32af05-a93a-40af-b3e3-3171404acc80","ios":"levelo://app?vid=ed32af05-a93a-40af-b3e3-3171404acc80"},"vehicle_type_id":"4","last_reported":1742443957,"current_range_meters":6400,"station_id":"ce4bhbh2rcd13ifvqeo0","pricing_plan_id":"cebpf4jnsgd1na2vs0mg"},{"bike_id":"693926d2-fd1b-4d98-a528-fed8b223a2c0","system_id":"levelo_inurba_marseille","lat":43.28022,"lon":5.36938,"is_reserved":false,"is_disabled":false,"rental_uris":{"android":"levelo://app?vid=693926d2-fd1b-4d98-a528-fed8b223a2c0","ios":"levelo://app?vid=693926d2-fd1b-4d98-a528-fed8b223a2c0"},"vehicle_type_id":"4","last_reported":1742443957,"current_range_meters":6400,"station_id":"ce4bha12rcd13ifvqef0","pricing_plan_id":"cebpf4jnsgd1na2vs0mg"},{"bike_id":"cd3f6418-d471-43bd-a8af-c4289f0429a3","system_id":"levelo_inurba_marseille","lat":43.2417,"lon":5.39749,"is_reserved":false,"is_disabled":false,"rental_uris":{"android":"levelo://app?vid=cd3f6418-d471-43bd-a8af-c4289f0429a3","ios":"levelo://app?vid=cd3f6418-d471-43bd-a8af-c4289f0429a3"},"vehicle_type_id":"4","last_reported":1742443957,"current_range_meters":6800,"station_id":"ce4bhn12rcd13ifvqgpg","pricing_plan_id":"cebpf4jnsgd1na2vs0mg"},{"bike_id":"1fe8cbb2-e61f-4748-8f3f-eff906305549","system_id":"levelo_inurba_marseille","lat":43.230623,"lon":5.354943,"is_reserved":false,"is_disabled":false,"rental_uris":{"android":"levelo://app?vid=1fe8cbb2-e61f-4748-8f3f-eff906305549","ios":"levelo://app?vid=1fe8cbb2-e61f-4748-8f3f-eff906305549"},"vehicle_type_id":"4","last_reported":1742443957,"current_range_meters":6800,"station_id":"cpo3342slgdg3j2ifvpg","pricing_plan_id":"cebpf4jnsgd1na2vs0mg"},{"bike_id":"9c21dfd3-8ccb-4a06-a518-559ac48b828f","system_id":"levelo_inurba_marseille","lat":43.28456,"lon":5.35872,"is_reserved":false,"is_disabled":false,"rental_uris":{"android":"levelo://app?vid=9c21dfd3-8ccb-4a06-a518-559ac48b828f","ios":"levelo://app?vid=9c21dfd3-8ccb-4a06-a518-559ac48b828f"},"vehicle_type_id":"4","last_reported":1742443957,"current_range_meters":6800,"station_id":"ce4bhah2rcd13ifvqei0","pricing_plan_id":"cebpf4jnsgd1na2vs0mg"},{"bike_id":"3c0f86bf-2134-4462-a7ab-79aaede557c9","system_id":"levelo_inurba_marseille","lat":43.31681,"lon":5.4372,"is_reserved":false,"is_disabled":false,"rental_uris":{"android":"levelo://app?vid=3c0f86bf-2134-4462-a7ab-79aaede557c9","ios":"levelo://app?vid=3c0f86bf-2134-4462-a7ab-79aaede557c9"},"vehicle_type_id":"4","last_reported":1742443957,"current_range_meters":6800,"station_id":"ce4bhp92rcd13ifvqhcg","pricing_plan_id":"cebpf4jnsgd1na2vs0mg"},{"bike_id":"d36999e5-1ec8-4299-a4fc-068061d2f0c7","system_id":"levelo_inurba_marseille","lat":43.31275,"lon":5.40166,"is_reserved":false,"is_disabled":false,"rental_uris":{"android":"levelo://app?vid=d36999e5-1ec8-4299-a4fc-068061d2f0c7","ios":"levelo://app?vid=d36999e5-1ec8-4299-a4fc-068061d2f0c7"},"vehicle_type_id":"4","last_reported":1742443957,"current_range_meters":6800,"station_id":"ce4bh092rcd13ifvqd30","pricing_plan_id":"cebpf4jnsgd1na2vs0mg"},{"bike_id":"4858167e-edc8-4792-9d1c-05670cc1275f","system_id":"levelo_inurba_marseille","lat":43.29298,"lon":5.427499,"is_reserved":false,"is_disabled":false,"rental_uris":{"android":"levelo://app?vid=4858167e-edc8-4792-9d1c-05670cc1275f","ios":"levelo://app?vid=4858167e-edc8-4792-9d1c-05670cc1275f"},"vehicle_type_id":"4","last_reported":1742443957,"current_range_meters":6800,"station_id":"","pricing_plan_id":"cebpf4jnsgd1na2vs0mg"},{"bike_id":"c632951f-97ff-4417-a231-2f19dfc211bb","system_id":"levelo_inurba_marseille","lat":43.278176,"lon":5.407138,"is_reserved":false,"is_disabled":false,"rental_uris":{"android":"levelo://app?vid=c632951f-97ff-4417-a231-2f19dfc211bb","ios":"levelo://app?vid=c632951f-97ff-4417-a231-2f19dfc211bb"},"vehicle_type_id":"4","last_reported":1742443957,"current_range_meters":6800,"station_id":"ce4bhnh2rcd13ifvqgtg","pricing_plan_id":"cebpf4jnsgd1na2vs0mg"},{"bike_id":"4fa0322d-b201-409d-9218-57726b4a4ca2","system_id":"levelo_inurba_marseille","lat":43.3063,"lon":5.40074,"is_reserved":false,"is_disabled":false,"rental_uris":{"android":"levelo://app?vid=4fa0322d-b201-409d-9218-57726b4a4ca2","ios":"levelo://app?vid=4fa0322d-b201-409d-9218-57726b4a4ca2"},"vehicle_type_id":"4","last_reported":1742443957,"current_range_meters":6800,"station_id":"ce4bh112rcd13ifvqda0","pricing_plan_id":"cebpf4jnsgd1na2vs0mg"},{"bike_id":"704bac85-0999-494b-ab70-f77e05470586","system_id":"levelo_inurba_marseille","lat":43.279495,"lon":5.410466,"is_reserved":false,"is_disabled":false,"rental_uris":{"android":"levelo://app?vid=704bac85-0999-494b-ab70-f77e05470586","ios":"levelo://app?vid=704bac85-0999-494b-ab70-f77e05470586"},"vehicle_type_id":"4","last_reported":1742443957,"current_range_meters":6800,"station_id":"ce4bhnp2rcd13ifvqh0g","pricing_plan_id":"cebpf4jnsgd1na2vs0mg"},{"bike_id":"b4de28f4-8a25-4498-9ea9-5ae001331785","system_id":"levelo_inurba_marseille","lat":43.24675,"lon":5.38168,"is_reserved":false,"is_disabled":false,"rental_uris":{"android":"levelo://app?vid=b4de28f4-8a25-4498-9ea9-5ae001331785","ios":"levelo://app?vid=b4de28f4-8a25-4498-9ea9-5ae001331785"},"vehicle_type_id":"4","last_reported":1742443957,"current_range_meters":6800,"station_id":"ce4bhih2rcd13ifvqfr0","pricing_plan_id":"cebpf4jnsgd1na2vs0mg"},{"bike_id":"5da21120-765c-493a-addc-469da6f3f383","system_id":"levelo_inurba_marseille","lat":43.308358,"lon":5.37499,"is_reserved":false,"is_disabled":false,"rental_uris":{"android":"levelo://app?vid=5da21120-765c-493a-addc-469da6f3f383","ios":"levelo://app?vid=5da21120-765c-493a-addc-469da6f3f383"},"vehicle_type_id":"4","last_reported":1742443957,"current_range_meters":7200,"station_id":"","pricing_plan_id":"cebpf4jnsgd1na2vs0mg"},{"bike_id":"287397f1-301a-46cd-a566-760697ced275","system_id":"levelo_inurba_marseille","lat":43.2815,"lon":5.42652,"is_reserved":false,"is_disabled":false,"rental_uris":{"android":"levelo://app?vid=287397f1-301a-46cd-a566-760697ced275","ios":"levelo://app?vid=287397f1-301a-46cd-a566-760697ced275"},"vehicle_type_id":"4","last_reported":1742443957,"current_range_meters":7200,"station_id":"ce4bhnh2rcd13ifvqgug","pricing_plan_id":"cebpf4jnsgd1na2vs0mg"},{"bike_id":"55f7f0e8-1ace-4422-af16-175203d92caf","system_id":"levelo_inurba_marseille","lat":43.24539,"lon":5.39536,"is_reserved":false,"is_disabled":false,"rental_uris":{"android":"levelo://app?vid=55f7f0e8-1ace-4422-af16-175203d92caf","ios":"levelo://app?vid=55f7f0e8-1ace-4422-af16-175203d92caf"},"vehicle_type_id":"4","last_reported":1742443957,"current_range_meters":7200,"station_id":"ce4bhlp2rcd13ifvqgjg","pricing_plan_id":"cebpf4jnsgd1na2vs0mg"},{"bike_id":"478ecfc4-5241-4dbc-9c90-9e831269f219","system_id":"levelo_inurba_marseille","lat":43.29026,"lon":5.38639,"is_reserved":false,"is_disabled":true,"rental_uris":{"android":"levelo://app?vid=478ecfc4-5241-4dbc-9c90-9e831269f219","ios":"levelo://app?vid=478ecfc4-5241-4dbc-9c90-9e831269f219"},"vehicle_type_id":"4","last_reported":1742443957,"current_range_meters":7200,"station_id":"ce4bh4p2rcd13ifvqe0g","pricing_plan_id":"cebpf4jnsgd1na2vs0mg"},{"bike_id":"87dbed1b-ca5f-4559-b4e0-6657c214f315","system_id":"levelo_inurba_marseille","lat":43.2396,"lon":5.36636,"is_reserved":false,"is_disabled":false,"rental_uris":{"android":"levelo://app?vid=87dbed1b-ca5f-4559-b4e0-6657c214f315","ios":"levelo://app?vid=87dbed1b-ca5f-4559-b4e0-6657c214f315"},"vehicle_type_id":"4","last_reported":1742443957,"current_range_meters":7200,"station_id":"ce4bhi12rcd13ifvqfp0","pricing_plan_id":"cebpf4jnsgd1na2vs0mg"},{"bike_id":"4383040d-fbd2-4d09-b966-c2b15978917e","system_id":"levelo_inurba_marseille","lat":43.24176,"lon":5.39721,"is_reserved":false,"is_disabled":false,"rental_uris":{"android":"levelo://app?vid=4383040d-fbd2-4d09-b966-c2b15978917e","ios":"levelo://app?vid=4383040d-fbd2-4d09-b966-c2b15978917e"},"vehicle_type_id":"4","last_reported":1742443957,"current_range_meters":7200,"station_id":"ce4bhn12rcd13ifvqgpg","pricing_plan_id":"cebpf4jnsgd1na2vs0mg"},{"bike_id":"f900da6c-7e5c-4ec1-bb80-501e71312a52","system_id":"levelo_inurba_marseille","lat":43.27387,"lon":5.36253,"is_reserved":false,"is_disabled":false,"rental_uris":{"android":"levelo://app?vid=f900da6c-7e5c-4ec1-bb80-501e71312a52","ios":"levelo://app?vid=f900da6c-7e5c-4ec1-bb80-501e71312a52"},"vehicle_type_id":"4","last_reported":1742443957,"current_range_meters":7200,"station_id":"ce4bhbh2rcd13ifvqeo0","pricing_plan_id":"cebpf4jnsgd1na2vs0mg"},{"bike_id":"dfcc8bbb-6cc0-487f-9f53-6c4f09735ec3","system_id":"levelo_inurba_marseille","lat":43.27487,"lon":5.42508,"is_reserved":false,"is_disabled":true,"rental_uris":{"android":"levelo://app?vid=dfcc8bbb-6cc0-487f-9f53-6c4f09735ec3","ios":"levelo://app?vid=dfcc8bbb-6cc0-487f-9f53-6c4f09735ec3"},"vehicle_type_id":"4","last_reported":1742443957,"current_range_meters":7200,"station_id":"ce4bhn92rcd13ifvqgrg","pricing_plan_id":"cebpf4jnsgd1na2vs0mg"},{"bike_id":"227ea19f-289e-4a92-895e-218ec5d5c552","system_id":"levelo_inurba_marseille","lat":43.27499,"lon":5.42446,"is_reserved":false,"is_disabled":false,"rental_uris":{"android":"levelo://app?vid=227ea19f-289e-4a92-895e-218ec5d5c552","ios":"levelo://app?vid=227ea19f-289e-4a92-895e-218ec5d5c552"},"vehicle_type_id":"4","last_reported":1742443957,"current_range_meters":7200,"station_id":"ce4bhn92rcd13ifvqgrg","pricing_plan_id":"cebpf4jnsgd1na2vs0mg"},{"bike_id":"2e8de5c8-bc6b-4860-80fb-b3264ca3f282","system_id":"levelo_inurba_marseille","lat":43.308824,"lon":5.396394,"is_reserved":false,"is_disabled":false,"rental_uris":{"android":"levelo://app?vid=2e8de5c8-bc6b-4860-80fb-b3264ca3f282","ios":"levelo://app?vid=2e8de5c8-bc6b-4860-80fb-b3264ca3f282"},"vehicle_type_id":"4","last_reported":1742443957,"current_range_meters":7200,"station_id":"ce4bh012rcd13ifvqcv0","pricing_plan_id":"cebpf4jnsgd1na2vs0mg"},{"bike_id":"ebd45e7b-1c45-4b94-a31a-e5fdc9535d41","system_id":"levelo_inurba_marseille","lat":43.23962,"lon":5.36646,"is_reserved":false,"is_disabled":false,"rental_uris":{"android":"levelo://app?vid=ebd45e7b-1c45-4b94-a31a-e5fdc9535d41","ios":"levelo://app?vid=ebd45e7b-1c45-4b94-a31a-e5fdc9535d41"},"vehicle_type_id":"4","last_reported":1742443957,"current_range_meters":8000,"station_id":"ce4bhi12rcd13ifvqfp0","pricing_plan_id":"cebpf4jnsgd1na2vs0mg"},{"bike_id":"034cbda5-a269-406e-ac7d-9962861bb824","system_id":"levelo_inurba_marseille","lat":43.31767,"lon":5.39033,"is_reserved":false,"is_disabled":false,"rental_uris":{"android":"levelo://app?vid=034cbda5-a269-406e-ac7d-9962861bb824","ios":"levelo://app?vid=034cbda5-a269-406e-ac7d-9962861bb824"},"vehicle_type_id":"4","last_reported":1742443957,"current_range_meters":8000,"station_id":"ce4bhqp2rcd13ifvqhng","pricing_plan_id":"cebpf4jnsgd1na2vs0mg"},{"bike_id":"3058eb37-35b9-4277-898b-f9025638e045","system_id":"levelo_inurba_marseille","lat":43.25932,"lon":5.4092,"is_reserved":false,"is_disabled":false,"rental_uris":{"android":"levelo://app?vid=3058eb37-35b9-4277-898b-f9025638e045","ios":"levelo://app?vid=3058eb37-35b9-4277-898b-f9025638e045"},"vehicle_type_id":"4","last_reported":1742443957,"current_range_meters":8000,"station_id":"ce4bhm92rcd13ifvqglg","pricing_plan_id":"cebpf4jnsgd1na2vs0mg"},{"bike_id":"49bedc22-a45a-435f-a8a8-e80d086cef58","system_id":"levelo_inurba_marseille","lat":43.311748,"lon":5.387118,"is_reserved":false,"is_disabled":false,"rental_uris":{"android":"levelo://app?vid=49bedc22-a45a-435f-a8a8-e80d086cef58","ios":"levelo://app?vid=49bedc22-a45a-435f-a8a8-e80d086cef58"},"vehicle_type_id":"4","last_reported":1742443957,"current_range_meters":8000,"station_id":"ce4bgv12rcd13ifvqcp0","pricing_plan_id":"cebpf4jnsgd1na2vs0mg"},{"bike_id":"d45aa902-4bcb-471b-8a0f-8cdc3416ec8c","system_id":"levelo_inurba_marseille","lat":43.276056,"lon":5.36118,"is_reserved":false,"is_disabled":false,"rental_uris":{"android":"levelo://app?vid=d45aa902-4bcb-471b-8a0f-8cdc3416ec8c","ios":"levelo://app?vid=d45aa902-4bcb-471b-8a0f-8cdc3416ec8c"},"vehicle_type_id":"4","last_reported":1742443957,"current_range_meters":8000,"station_id":"ce4bgj92rcd13ifvqbe0","pricing_plan_id":"cebpf4jnsgd1na2vs0mg"},{"bike_id":"3455258b-4135-46b9-9a26-10bf95160e40","system_id":"levelo_inurba_marseille","lat":43.23191,"lon":5.35553,"is_reserved":false,"is_disabled":false,"rental_uris":{"android":"levelo://app?vid=3455258b-4135-46b9-9a26-10bf95160e40","ios":"levelo://app?vid=3455258b-4135-46b9-9a26-10bf95160e40"},"vehicle_type_id":"4","last_reported":1742443957,"current_range_meters":8000,"station_id":"ce4bhu92rcd13ifvqi70","pricing_plan_id":"cebpf4jnsgd1na2vs0mg"},{"bike_id":"d36dd5c9-f023-4afa-aa74-4c7e9499d0cd","system_id":"levelo_inurba_marseille","lat":43.27342,"lon":5.36238,"is_reserved":false,"is_disabled":false,"rental_uris":{"android":"levelo://app?vid=d36dd5c9-f023-4afa-aa74-4c7e9499d0cd","ios":"levelo://app?vid=d36dd5c9-f023-4afa-aa74-4c7e9499d0cd"},"vehicle_type_id":"4","last_reported":1742443957,"current_range_meters":8000,"station_id":"ce4bhbh2rcd13ifvqeo0","pricing_plan_id":"cebpf4jnsgd1na2vs0mg"},{"bike_id":"ba8b0ac1-1aa1-4839-85f3-f90c1cdb4258","system_id":"levelo_inurba_marseille","lat":43.290384,"lon":5.359071,"is_reserved":false,"is_disabled":false,"rental_uris":{"android":"levelo://app?vid=ba8b0ac1-1aa1-4839-85f3-f90c1cdb4258","ios":"levelo://app?vid=ba8b0ac1-1aa1-4839-85f3-f90c1cdb4258"},"vehicle_type_id":"4","last_reported":1742443957,"current_range_meters":8000,"station_id":"ce4bha92rcd13ifvqeg0","pricing_plan_id":"cebpf4jnsgd1na2vs0mg"},{"bike_id":"dff22bde-84fd-490a-8837-d6c39b979395","system_id":"levelo_inurba_marseille","lat":43.286097,"lon":5.370623,"is_reserved":false,"is_disabled":false,"rental_uris":{"android":"levelo://app?vid=dff22bde-84fd-490a-8837-d6c39b979395","ios":"levelo://app?vid=dff22bde-84fd-490a-8837-d6c39b979395"},"vehicle_type_id":"4","last_reported":1742443957,"current_range_meters":8000,"station_id":"ce4bht12rcd13ifvqi60","pricing_plan_id":"cebpf4jnsgd1na2vs0mg"},{"bike_id":"a2ad3ef3-40b0-40fc-8ad0-893f4e20ab03","system_id":"levelo_inurba_marseille","lat":43.24806,"lon":5.37458,"is_reserved":false,"is_disabled":false,"rental_uris":{"android":"levelo://app?vid=a2ad3ef3-40b0-40fc-8ad0-893f4e20ab03","ios":"levelo://app?vid=a2ad3ef3-40b0-40fc-8ad0-893f4e20ab03"},"vehicle_type_id":"4","last_reported":1742443957,"current_range_meters":8000,"station_id":"ce4bhgh2rcd13ifvqfb0","pricing_plan_id":"cebpf4jnsgd1na2vs0mg"},{"bike_id":"71f2cd9d-ef15-44a1-a9cf-33002d842832","system_id":"levelo_inurba_marseille","lat":43.24666,"lon":5.38142,"is_reserved":false,"is_disabled":false,"rental_uris":{"android":"levelo://app?vid=71f2cd9d-ef15-44a1-a9cf-33002d842832","ios":"levelo://app?vid=71f2cd9d-ef15-44a1-a9cf-33002d842832"},"vehicle_type_id":"4","last_reported":1742443957,"current_range_meters":8400,"station_id":"ce4bhih2rcd13ifvqfr0","pricing_plan_id":"cebpf4jnsgd1na2vs0mg"},{"bike_id":"86618eeb-713f-4456-85a3-39e216841099","system_id":"levelo_inurba_marseille","lat":43.3063,"lon":5.40084,"is_reserved":false,"is_disabled":false,"rental_uris":{"android":"levelo://app?vid=86618eeb-713f-4456-85a3-39e216841099","ios":"levelo://app?vid=86618eeb-713f-4456-85a3-39e216841099"},"vehicle_type_id":"4","last_reported":1742443957,"current_range_meters":8400,"station_id":"ce4bh112rcd13ifvqda0","pricing_plan_id":"cebpf4jnsgd1na2vs0mg"},{"bike_id":"0cf839ab-e587-4ab8-b08d-84e42ef6ef98","system_id":"levelo_inurba_marseille","lat":43.239603,"lon":5.366328,"is_reserved":false,"is_disabled":false,"rental_uris":{"android":"levelo://app?vid=0cf839ab-e587-4ab8-b08d-84e42ef6ef98","ios":"levelo://app?vid=0cf839ab-e587-4ab8-b08d-84e42ef6ef98"},"vehicle_type_id":"4","last_reported":1742443957,"current_range_meters":8400,"station_id":"ce4bhi12rcd13ifvqfp0","pricing_plan_id":"cebpf4jnsgd1na2vs0mg"},{"bike_id":"3da64548-8b6a-42d6-898f-dc427d7ab309","system_id":"levelo_inurba_marseille","lat":43.279532,"lon":5.410518,"is_reserved":false,"is_disabled":false,"rental_uris":{"android":"levelo://app?vid=3da64548-8b6a-42d6-898f-dc427d7ab309","ios":"levelo://app?vid=3da64548-8b6a-42d6-898f-dc427d7ab309"},"vehicle_type_id":"4","last_reported":1742443957,"current_range_meters":8400,"station_id":"ce4bhnp2rcd13ifvqh0g","pricing_plan_id":"cebpf4jnsgd1na2vs0mg"},{"bike_id":"9d32c503-5f1f-4b14-8d26-4a233bb720e6","system_id":"levelo_inurba_marseille","lat":43.30707,"lon":5.3773,"is_reserved":false,"is_disabled":false,"rental_uris":{"android":"levelo://app?vid=9d32c503-5f1f-4b14-8d26-4a233bb720e6","ios":"levelo://app?vid=9d32c503-5f1f-4b14-8d26-4a233bb720e6"},"vehicle_type_id":"4","last_reported":1742443957,"current_range_meters":8400,"station_id":"","pricing_plan_id":"cebpf4jnsgd1na2vs0mg"},{"bike_id":"ff40212a-8f7d-43a8-822c-31c34c2bf0d5","system_id":"levelo_inurba_marseille","lat":43.250099,"lon":5.389264,"is_reserved":false,"is_disabled":false,"rental_uris":{"android":"levelo://app?vid=ff40212a-8f7d-43a8-822c-31c34c2bf0d5","ios":"levelo://app?vid=ff40212a-8f7d-43a8-822c-31c34c2bf0d5"},"vehicle_type_id":"4","last_reported":1742443957,"current_range_meters":8400,"station_id":"ce4bhgp2rcd13ifvqfd0","pricing_plan_id":"cebpf4jnsgd1na2vs0mg"},{"bike_id":"f1fcaa64-8777-41b7-8701-8233132e1bca","system_id":"levelo_inurba_marseille","lat":43.279466,"lon":5.410504,"is_reserved":false,"is_disabled":false,"rental_uris":{"android":"levelo://app?vid=f1fcaa64-8777-41b7-8701-8233132e1bca","ios":"levelo://app?vid=f1fcaa64-8777-41b7-8701-8233132e1bca"},"vehicle_type_id":"4","last_reported":1742443957,"current_range_meters":8400,"station_id":"ce4bhnp2rcd13ifvqh0g","pricing_plan_id":"cebpf4jnsgd1na2vs0mg"},{"bike_id":"a2a6db60-0906-4bdf-872c-8533f7fe0239","system_id":"levelo_inurba_marseille","lat":43.262244,"lon":5.404505,"is_reserved":false,"is_disabled":false,"rental_uris":{"android":"levelo://app?vid=a2a6db60-0906-4bdf-872c-8533f7fe0239","ios":"levelo://app?vid=a2a6db60-0906-4bdf-872c-8533f7fe0239"},"vehicle_type_id":"4","last_reported":1742443957,"current_range_meters":8400,"station_id":"ce4bhmh2rcd13ifvqgmg","pricing_plan_id":"cebpf4jnsgd1na2vs0mg"},{"bike_id":"c6a6652d-c1ab-49c1-bd7a-91b0b5d600b1","system_id":"levelo_inurba_marseille","lat":43.28096,"lon":5.37851,"is_reserved":false,"is_disabled":false,"rental_uris":{"android":"levelo://app?vid=c6a6652d-c1ab-49c1-bd7a-91b0b5d600b1","ios":"levelo://app?vid=c6a6652d-c1ab-49c1-bd7a-91b0b5d600b1"},"vehicle_type_id":"4","last_reported":1742443957,"current_range_meters":8400,"station_id":"ce4bha12rcd13ifvqee0","pricing_plan_id":"cebpf4jnsgd1na2vs0mg"},{"bike_id":"1fea0b3c-94ab-41af-b18e-d9bbaa7dda49","system_id":"levelo_inurba_marseille","lat":43.31698,"lon":5.43703,"is_reserved":false,"is_disabled":false,"rental_uris":{"android":"levelo://app?vid=1fea0b3c-94ab-41af-b18e-d9bbaa7dda49","ios":"levelo://app?vid=1fea0b3c-94ab-41af-b18e-d9bbaa7dda49"},"vehicle_type_id":"4","last_reported":1742443957,"current_range_meters":8400,"station_id":"ce4bhp92rcd13ifvqhcg","pricing_plan_id":"cebpf4jnsgd1na2vs0mg"},{"bike_id":"963a17fa-4222-4f93-b414-09c4cce8d25a","system_id":"levelo_inurba_marseille","lat":43.28408,"lon":5.38464,"is_reserved":false,"is_disabled":false,"rental_uris":{"android":"levelo://app?vid=963a17fa-4222-4f93-b414-09c4cce8d25a","ios":"levelo://app?vid=963a17fa-4222-4f93-b414-09c4cce8d25a"},"vehicle_type_id":"4","last_reported":1742443957,"current_range_meters":8400,"station_id":"","pricing_plan_id":"cebpf4jnsgd1na2vs0mg"},{"bike_id":"a3175949-f9d6-40da-9481-3578df78d3a4","system_id":"levelo_inurba_marseille","lat":43.24997,"lon":5.38943,"is_reserved":false,"is_disabled":false,"rental_uris":{"android":"levelo://app?vid=a3175949-f9d6-40da-9481-3578df78d3a4","ios":"levelo://app?vid=a3175949-f9d6-40da-9481-3578df78d3a4"},"vehicle_type_id":"4","last_reported":1742443957,"current_range_meters":8800,"station_id":"ce4bhgp2rcd13ifvqfd0","pricing_plan_id":"cebpf4jnsgd1na2vs0mg"},{"bike_id":"53c52c3d-ed26-42c7-8d0d-8214d01bc438","system_id":"levelo_inurba_marseille","lat":43.314223,"lon":5.39364,"is_reserved":false,"is_disabled":false,"rental_uris":{"android":"levelo://app?vid=53c52c3d-ed26-42c7-8d0d-8214d01bc438","ios":"levelo://app?vid=53c52c3d-ed26-42c7-8d0d-8214d01bc438"},"vehicle_type_id":"4","last_reported":1742443957,"current_range_meters":8800,"station_id":"","pricing_plan_id":"cebpf4jnsgd1na2vs0mg"},{"bike_id":"a043f14d-7bfe-4e58-bb46-3233f50b724e","system_id":"levelo_inurba_marseille","lat":43.3116,"lon":5.38727,"is_reserved":false,"is_disabled":false,"rental_uris":{"android":"levelo://app?vid=a043f14d-7bfe-4e58-bb46-3233f50b724e","ios":"levelo://app?vid=a043f14d-7bfe-4e58-bb46-3233f50b724e"},"vehicle_type_id":"4","last_reported":1742443957,"current_range_meters":8800,"station_id":"ce4bgv12rcd13ifvqcp0","pricing_plan_id":"cebpf4jnsgd1na2vs0mg"},{"bike_id":"ee8d6f4b-4b26-4c80-8519-4880c1c3fefc","system_id":"levelo_inurba_marseille","lat":43.33587,"lon":5.41025,"is_reserved":false,"is_disabled":false,"rental_uris":{"android":"levelo://app?vid=ee8d6f4b-4b26-4c80-8519-4880c1c3fefc","ios":"levelo://app?vid=ee8d6f4b-4b26-4c80-8519-4880c1c3fefc"},"vehicle_type_id":"4","last_reported":1742443957,"current_range_meters":8800,"station_id":"ce4bhqh2rcd13ifvqhmg","pricing_plan_id":"cebpf4jnsgd1na2vs0mg"},{"bike_id":"4ad231a2-6656-4750-b2aa-69ad2e40651e","system_id":"levelo_inurba_marseille","lat":43.31154,"lon":5.38715,"is_reserved":false,"is_disabled":false,"rental_uris":{"android":"levelo://app?vid=4ad231a2-6656-4750-b2aa-69ad2e40651e","ios":"levelo://app?vid=4ad231a2-6656-4750-b2aa-69ad2e40651e"},"vehicle_type_id":"4","last_reported":1742443957,"current_range_meters":8800,"station_id":"ce4bgv12rcd13ifvqcp0","pricing_plan_id":"cebpf4jnsgd1na2vs0mg"},{"bike_id":"8168e555-e617-42c3-b56a-13243fda4113","system_id":"levelo_inurba_marseille","lat":43.27934,"lon":5.41053,"is_reserved":false,"is_disabled":false,"rental_uris":{"android":"levelo://app?vid=8168e555-e617-42c3-b56a-13243fda4113","ios":"levelo://app?vid=8168e555-e617-42c3-b56a-13243fda4113"},"vehicle_type_id":"4","last_reported":1742443957,"current_range_meters":8800,"station_id":"ce4bhnp2rcd13ifvqh0g","pricing_plan_id":"cebpf4jnsgd1na2vs0mg"},{"bike_id":"bfd67b10-fd7c-4b25-bc6e-0830b23c1f4b","system_id":"levelo_inurba_marseille","lat":43.25843,"lon":5.39403,"is_reserved":false,"is_disabled":false,"rental_uris":{"android":"levelo://app?vid=bfd67b10-fd7c-4b25-bc6e-0830b23c1f4b","ios":"levelo://app?vid=bfd67b10-fd7c-4b25-bc6e-0830b23c1f4b"},"vehicle_type_id":"4","last_reported":1742443957,"current_range_meters":8800,"station_id":"ce4bhip2rcd13ifvqft0","pricing_plan_id":"cebpf4jnsgd1na2vs0mg"},{"bike_id":"78b95c41-f57f-46b7-8807-c311e5a77278","system_id":"levelo_inurba_marseille","lat":43.23957,"lon":5.36627,"is_reserved":false,"is_disabled":false,"rental_uris":{"android":"levelo://app?vid=78b95c41-f57f-46b7-8807-c311e5a77278","ios":"levelo://app?vid=78b95c41-f57f-46b7-8807-c311e5a77278"},"vehicle_type_id":"4","last_reported":1742443957,"current_range_meters":8800,"station_id":"ce4bhi12rcd13ifvqfp0","pricing_plan_id":"cebpf4jnsgd1na2vs0mg"},{"bike_id":"11a593f9-e28a-4d60-9990-7d92ced3ba47","system_id":"levelo_inurba_marseille","lat":43.28865,"lon":5.35836,"is_reserved":false,"is_disabled":false,"rental_uris":{"android":"levelo://app?vid=11a593f9-e28a-4d60-9990-7d92ced3ba47","ios":"levelo://app?vid=11a593f9-e28a-4d60-9990-7d92ced3ba47"},"vehicle_type_id":"4","last_reported":1742443957,"current_range_meters":8800,"station_id":"ce4bhb12rcd13ifvqem0","pricing_plan_id":"cebpf4jnsgd1na2vs0mg"},{"bike_id":"3c0ed465-5498-4af3-894c-44dfb820db1d","system_id":"levelo_inurba_marseille","lat":43.283639,"lon":5.380992,"is_reserved":false,"is_disabled":false,"rental_uris":{"android":"levelo://app?vid=3c0ed465-5498-4af3-894c-44dfb820db1d","ios":"levelo://app?vid=3c0ed465-5498-4af3-894c-44dfb820db1d"},"vehicle_type_id":"4","last_reported":1742443957,"current_range_meters":8800,"station_id":"ce4bh412rcd13ifvqdr0","pricing_plan_id":"cebpf4jnsgd1na2vs0mg"},{"bike_id":"5edb3c9d-ffdb-4b2a-b674-17f6a28418bf","system_id":"levelo_inurba_marseille","lat":43.32285,"lon":5.38275,"is_reserved":false,"is_disabled":false,"rental_uris":{"android":"levelo://app?vid=5edb3c9d-ffdb-4b2a-b674-17f6a28418bf","ios":"levelo://app?vid=5edb3c9d-ffdb-4b2a-b674-17f6a28418bf"},"vehicle_type_id":"4","last_reported":1742443957,"current_range_meters":8800,"station_id":"ce4bhr12rcd13ifvqhqg","pricing_plan_id":"cebpf4jnsgd1na2vs0mg"},{"bike_id":"02f43b01-3b74-45fa-a40e-2df823c84cda","system_id":"levelo_inurba_marseille","lat":43.241821,"lon":5.397153,"is_reserved":false,"is_disabled":false,"rental_uris":{"android":"levelo://app?vid=02f43b01-3b74-45fa-a40e-2df823c84cda","ios":"levelo://app?vid=02f43b01-3b74-45fa-a40e-2df823c84cda"},"vehicle_type_id":"4","last_reported":1742443957,"current_range_meters":8800,"station_id":"ce4bhn12rcd13ifvqgpg","pricing_plan_id":"cebpf4jnsgd1na2vs0mg"},{"bike_id":"149a7237-4b0c-4c09-b5e1-e29dc8e198e1","system_id":"levelo_inurba_marseille","lat":43.31248,"lon":5.40192,"is_reserved":false,"is_disabled":false,"rental_uris":{"android":"levelo://app?vid=149a7237-4b0c-4c09-b5e1-e29dc8e198e1","ios":"levelo://app?vid=149a7237-4b0c-4c09-b5e1-e29dc8e198e1"},"vehicle_type_id":"4","last_reported":1742443957,"current_range_meters":8800,"station_id":"ce4bh092rcd13ifvqd30","pricing_plan_id":"cebpf4jnsgd1na2vs0mg"},{"bike_id":"e11dfbbb-3eaa-484f-b7fb-28865ddb305e","system_id":"levelo_inurba_marseille","lat":43.31484,"lon":5.37307,"is_reserved":false,"is_disabled":false,"rental_uris":{"android":"levelo://app?vid=e11dfbbb-3eaa-484f-b7fb-28865ddb305e","ios":"levelo://app?vid=e11dfbbb-3eaa-484f-b7fb-28865ddb305e"},"vehicle_type_id":"4","last_reported":1742443957,"current_range_meters":8800,"station_id":"ce4bgt12rcd13ifvqcd0","pricing_plan_id":"cebpf4jnsgd1na2vs0mg"},{"bike_id":"d05e5468-eb7b-4568-b909-8890d3a6af2b","system_id":"levelo_inurba_marseille","lat":43.31667,"lon":5.4048,"is_reserved":false,"is_disabled":false,"rental_uris":{"android":"levelo://app?vid=d05e5468-eb7b-4568-b909-8890d3a6af2b","ios":"levelo://app?vid=d05e5468-eb7b-4568-b909-8890d3a6af2b"},"vehicle_type_id":"4","last_reported":1742443957,"current_range_meters":8800,"station_id":"ce4bh012rcd13ifvqd00","pricing_plan_id":"cebpf4jnsgd1na2vs0mg"},{"bike_id":"4190958f-3dab-482a-94a8-57626ebcdefa","system_id":"levelo_inurba_marseille","lat":43.26568,"lon":5.37291,"is_reserved":false,"is_disabled":false,"rental_uris":{"android":"levelo://app?vid=4190958f-3dab-482a-94a8-57626ebcdefa","ios":"levelo://app?vid=4190958f-3dab-482a-94a8-57626ebcdefa"},"vehicle_type_id":"4","last_reported":1742443957,"current_range_meters":9200,"station_id":"ce4bhg12rcd13ifvqf70","pricing_plan_id":"cebpf4jnsgd1na2vs0mg"},{"bike_id":"c8a5c5c1-331e-4477-bcc8-5f636ea1891c","system_id":"levelo_inurba_marseille","lat":43.31174,"lon":5.3871,"is_reserved":false,"is_disabled":false,"rental_uris":{"android":"levelo://app?vid=c8a5c5c1-331e-4477-bcc8-5f636ea1891c","ios":"levelo://app?vid=c8a5c5c1-331e-4477-bcc8-5f636ea1891c"},"vehicle_type_id":"4","last_reported":1742443957,"current_range_meters":9200,"station_id":"ce4bgv12rcd13ifvqcp0","pricing_plan_id":"cebpf4jnsgd1na2vs0mg"},{"bike_id":"4de03db8-98f0-4442-9f47-5d0a4ef807b1","system_id":"levelo_inurba_marseille","lat":43.28729,"lon":5.36093,"is_reserved":false,"is_disabled":false,"rental_uris":{"android":"levelo://app?vid=4de03db8-98f0-4442-9f47-5d0a4ef807b1","ios":"levelo://app?vid=4de03db8-98f0-4442-9f47-5d0a4ef807b1"},"vehicle_type_id":"4","last_reported":1742443957,"current_range_meters":9200,"station_id":"cki0cbj6b192h4jlfktg","pricing_plan_id":"cebpf4jnsgd1na2vs0mg"},{"bike_id":"a8b8dae1-87ef-4f8a-a2c8-fe9fd9bf0f77","system_id":"levelo_inurba_marseille","lat":43.235316,"lon":5.37747,"is_reserved":false,"is_disabled":false,"rental_uris":{"android":"levelo://app?vid=a8b8dae1-87ef-4f8a-a2c8-fe9fd9bf0f77","ios":"levelo://app?vid=a8b8dae1-87ef-4f8a-a2c8-fe9fd9bf0f77"},"vehicle_type_id":"4","last_reported":1742443957,"current_range_meters":9200,"station_id":"","pricing_plan_id":"cebpf4jnsgd1na2vs0mg"},{"bike_id":"d666a6ad-a0a4-4127-8c39-8ef5817c6721","system_id":"levelo_inurba_marseille","lat":43.246695,"lon":5.381465,"is_reserved":false,"is_disabled":false,"rental_uris":{"android":"levelo://app?vid=d666a6ad-a0a4-4127-8c39-8ef5817c6721","ios":"levelo://app?vid=d666a6ad-a0a4-4127-8c39-8ef5817c6721"},"vehicle_type_id":"4","last_reported":1742443957,"current_range_meters":9200,"station_id":"ce4bhih2rcd13ifvqfr0","pricing_plan_id":"cebpf4jnsgd1na2vs0mg"},{"bike_id":"35c29046-1d03-462d-9c91-5813a4d5a08e","system_id":"levelo_inurba_marseille","lat":43.2844,"lon":5.39183,"is_reserved":false,"is_disabled":false,"rental_uris":{"android":"levelo://app?vid=35c29046-1d03-462d-9c91-5813a4d5a08e","ios":"levelo://app?vid=35c29046-1d03-462d-9c91-5813a4d5a08e"},"vehicle_type_id":"4","last_reported":1742443957,"current_range_meters":9200,"station_id":"ce4bhoh2rcd13ifvqh5g","pricing_plan_id":"cebpf4jnsgd1na2vs0mg"},{"bike_id":"3341571f-bd27-401c-8b47-8fe3403f266a","system_id":"levelo_inurba_marseille","lat":43.28711,"lon":5.374,"is_reserved":false,"is_disabled":false,"rental_uris":{"android":"levelo://app?vid=3341571f-bd27-401c-8b47-8fe3403f266a","ios":"levelo://app?vid=3341571f-bd27-401c-8b47-8fe3403f266a"},"vehicle_type_id":"4","last_reported":1742443957,"current_range_meters":9200,"station_id":"ce4bh3p2rcd13ifvqdq0","pricing_plan_id":"cebpf4jnsgd1na2vs0mg"},{"bike_id":"f182cefc-27ad-47f5-9c3b-19932b6dd685","system_id":"levelo_inurba_marseille","lat":43.31157,"lon":5.38708,"is_reserved":false,"is_disabled":false,"rental_uris":{"android":"levelo://app?vid=f182cefc-27ad-47f5-9c3b-19932b6dd685","ios":"levelo://app?vid=f182cefc-27ad-47f5-9c3b-19932b6dd685"},"vehicle_type_id":"4","last_reported":1742443957,"current_range_meters":9200,"station_id":"ce4bgv12rcd13ifvqcp0","pricing_plan_id":"cebpf4jnsgd1na2vs0mg"},{"bike_id":"8008e9d1-08eb-4649-b985-79c87ba276a8","system_id":"levelo_inurba_marseille","lat":43.31123,"lon":5.37773,"is_reserved":false,"is_disabled":false,"rental_uris":{"android":"levelo://app?vid=8008e9d1-08eb-4649-b985-79c87ba276a8","ios":"levelo://app?vid=8008e9d1-08eb-4649-b985-79c87ba276a8"},"vehicle_type_id":"4","last_reported":1742443957,"current_range_meters":9200,"station_id":"ce4bgt92rcd13ifvqcg0","pricing_plan_id":"cebpf4jnsgd1na2vs0mg"},{"bike_id":"9d26c008-8ec1-4269-9cd2-f45774f03ccb","system_id":"levelo_inurba_marseille","lat":43.27953,"lon":5.37936,"is_reserved":false,"is_disabled":false,"rental_uris":{"android":"levelo://app?vid=9d26c008-8ec1-4269-9cd2-f45774f03ccb","ios":"levelo://app?vid=9d26c008-8ec1-4269-9cd2-f45774f03ccb"},"vehicle_type_id":"4","last_reported":1742443957,"current_range_meters":9200,"station_id":"","pricing_plan_id":"cebpf4jnsgd1na2vs0mg"},{"bike_id":"46b20647-836c-445e-bcb6-3a202a1d52db","system_id":"levelo_inurba_marseille","lat":43.28416,"lon":5.37583,"is_reserved":false,"is_disabled":false,"rental_uris":{"android":"levelo://app?vid=46b20647-836c-445e-bcb6-3a202a1d52db","ios":"levelo://app?vid=46b20647-836c-445e-bcb6-3a202a1d52db"},"vehicle_type_id":"4","last_reported":1742443957,"current_range_meters":9200,"station_id":"","pricing_plan_id":"cebpf4jnsgd1na2vs0mg"},{"bike_id":"6b467574-69f1-40a2-a88f-6859ed54971d","system_id":"levelo_inurba_marseille","lat":43.33439,"lon":5.40052,"is_reserved":false,"is_disabled":false,"rental_uris":{"android":"levelo://app?vid=6b467574-69f1-40a2-a88f-6859ed54971d","ios":"levelo://app?vid=6b467574-69f1-40a2-a88f-6859ed54971d"},"vehicle_type_id":"4","last_reported":1742443957,"current_range_meters":9200,"station_id":"","pricing_plan_id":"cebpf4jnsgd1na2vs0mg"},{"bike_id":"6eb98e18-92f8-411c-92c0-82d5569fb85c","system_id":"levelo_inurba_marseille","lat":43.32343,"lon":5.36739,"is_reserved":false,"is_disabled":false,"rental_uris":{"android":"levelo://app?vid=6eb98e18-92f8-411c-92c0-82d5569fb85c","ios":"levelo://app?vid=6eb98e18-92f8-411c-92c0-82d5569fb85c"},"vehicle_type_id":"4","last_reported":1742443957,"current_range_meters":9600,"station_id":"ce4bhsh2rcd13ifvqi2g","pricing_plan_id":"cebpf4jnsgd1na2vs0mg"},{"bike_id":"86da5b62-d19c-41eb-9417-15eac028c300","system_id":"levelo_inurba_marseille","lat":43.297886,"lon":5.393479,"is_reserved":false,"is_disabled":false,"rental_uris":{"android":"levelo://app?vid=86da5b62-d19c-41eb-9417-15eac028c300","ios":"levelo://app?vid=86da5b62-d19c-41eb-9417-15eac028c300"},"vehicle_type_id":"4","last_reported":1742443957,"current_range_meters":9600,"station_id":"chh1huq6cuj3fo74tm60","pricing_plan_id":"cebpf4jnsgd1na2vs0mg"},{"bike_id":"683213a7-0f9e-46be-97e8-93e86eafa13d","system_id":"levelo_inurba_marseille","lat":43.311105,"lon":5.377697,"is_reserved":false,"is_disabled":false,"rental_uris":{"android":"levelo://app?vid=683213a7-0f9e-46be-97e8-93e86eafa13d","ios":"levelo://app?vid=683213a7-0f9e-46be-97e8-93e86eafa13d"},"vehicle_type_id":"4","last_reported":1742443957,"current_range_meters":9600,"station_id":"ce4bgt92rcd13ifvqcg0","pricing_plan_id":"cebpf4jnsgd1na2vs0mg"},{"bike_id":"1641e73c-b1a0-405f-933f-1fce35939c96","system_id":"levelo_inurba_marseille","lat":43.30883,"lon":5.39659,"is_reserved":false,"is_disabled":false,"rental_uris":{"android":"levelo://app?vid=1641e73c-b1a0-405f-933f-1fce35939c96","ios":"levelo://app?vid=1641e73c-b1a0-405f-933f-1fce35939c96"},"vehicle_type_id":"4","last_reported":1742443957,"current_range_meters":9600,"station_id":"ce4bh012rcd13ifvqcv0","pricing_plan_id":"cebpf4jnsgd1na2vs0mg"},{"bike_id":"f4c4bf6d-48a4-4198-942b-eda89b945e41","system_id":"levelo_inurba_marseille","lat":43.2737,"lon":5.362572,"is_reserved":false,"is_disabled":false,"rental_uris":{"android":"levelo://app?vid=f4c4bf6d-48a4-4198-942b-eda89b945e41","ios":"levelo://app?vid=f4c4bf6d-48a4-4198-942b-eda89b945e41"},"vehicle_type_id":"4","last_reported":1742443957,"current_range_meters":9600,"station_id":"ce4bhbh2rcd13ifvqeo0","pricing_plan_id":"cebpf4jnsgd1na2vs0mg"},{"bike_id":"ee0f687c-08bb-4e36-98a2-e3de6b954481","system_id":"levelo_inurba_marseille","lat":43.24171,"lon":5.39733,"is_reserved":false,"is_disabled":false,"rental_uris":{"android":"levelo://app?vid=ee0f687c-08bb-4e36-98a2-e3de6b954481","ios":"levelo://app?vid=ee0f687c-08bb-4e36-98a2-e3de6b954481"},"vehicle_type_id":"4","last_reported":1742443957,"current_range_meters":9600,"station_id":"ce4bhn12rcd13ifvqgpg","pricing_plan_id":"cebpf4jnsgd1na2vs0mg"},{"bike_id":"359790fe-af19-42bd-b48f-814e624dc846","system_id":"levelo_inurba_marseille","lat":43.27824,"lon":5.39201,"is_reserved":false,"is_disabled":false,"rental_uris":{"android":"levelo://app?vid=359790fe-af19-42bd-b48f-814e624dc846","ios":"levelo://app?vid=359790fe-af19-42bd-b48f-814e624dc846"},"vehicle_type_id":"4","last_reported":1742443957,"current_range_meters":9600,"station_id":"ce4bhjp2rcd13ifvqga0","pricing_plan_id":"cebpf4jnsgd1na2vs0mg"},{"bike_id":"e6c8473b-6f16-40c7-9d09-903e0bcd4e87","system_id":"levelo_inurba_marseille","lat":43.32557,"lon":5.41943,"is_reserved":false,"is_disabled":false,"rental_uris":{"android":"levelo://app?vid=e6c8473b-6f16-40c7-9d09-903e0bcd4e87","ios":"levelo://app?vid=e6c8473b-6f16-40c7-9d09-903e0bcd4e87"},"vehicle_type_id":"4","last_reported":1742443957,"current_range_meters":9600,"station_id":"","pricing_plan_id":"cebpf4jnsgd1na2vs0mg"},{"bike_id":"a74bf8ef-9a67-48b0-83b7-af79b30b454c","system_id":"levelo_inurba_marseille","lat":43.308861,"lon":5.396251,"is_reserved":false,"is_disabled":false,"rental_uris":{"android":"levelo://app?vid=a74bf8ef-9a67-48b0-83b7-af79b30b454c","ios":"levelo://app?vid=a74bf8ef-9a67-48b0-83b7-af79b30b454c"},"vehicle_type_id":"4","last_reported":1742443957,"current_range_meters":9600,"station_id":"ce4bh012rcd13ifvqcv0","pricing_plan_id":"cebpf4jnsgd1na2vs0mg"},{"bike_id":"cf6bafc1-9b50-49fe-a0d0-5b7f33be3ca1","system_id":"levelo_inurba_marseille","lat":43.286612,"lon":5.363461,"is_reserved":false,"is_disabled":false,"rental_uris":{"android":"levelo://app?vid=cf6bafc1-9b50-49fe-a0d0-5b7f33be3ca1","ios":"levelo://app?vid=cf6bafc1-9b50-49fe-a0d0-5b7f33be3ca1"},"vehicle_type_id":"4","last_reported":1742443957,"current_range_meters":9600,"station_id":"ce4bhah2rcd13ifvqej0","pricing_plan_id":"cebpf4jnsgd1na2vs0mg"},{"bike_id":"86eccc93-4fd8-4ef6-aed2-86921ac3f9c9","system_id":"levelo_inurba_marseille","lat":43.26675,"lon":5.38276,"is_reserved":false,"is_disabled":false,"rental_uris":{"android":"levelo://app?vid=86eccc93-4fd8-4ef6-aed2-86921ac3f9c9","ios":"levelo://app?vid=86eccc93-4fd8-4ef6-aed2-86921ac3f9c9"},"vehicle_type_id":"4","last_reported":1742443957,"current_range_meters":9600,"station_id":"ce4bhg92rcd13ifvqf90","pricing_plan_id":"cebpf4jnsgd1na2vs0mg"},{"bike_id":"7c62291a-b09b-4907-af3f-97c7035e40d0","system_id":"levelo_inurba_marseille","lat":43.2835,"lon":5.38103,"is_reserved":false,"is_disabled":false,"rental_uris":{"android":"levelo://app?vid=7c62291a-b09b-4907-af3f-97c7035e40d0","ios":"levelo://app?vid=7c62291a-b09b-4907-af3f-97c7035e40d0"},"vehicle_type_id":"4","last_reported":1742443957,"current_range_meters":9600,"station_id":"ce4bh412rcd13ifvqdr0","pricing_plan_id":"cebpf4jnsgd1na2vs0mg"},{"bike_id":"d0319f7d-1e4e-4987-9ebf-a6b766baebff","system_id":"levelo_inurba_marseille","lat":43.298785,"lon":5.397267,"is_reserved":false,"is_disabled":false,"rental_uris":{"android":"levelo://app?vid=d0319f7d-1e4e-4987-9ebf-a6b766baebff","ios":"levelo://app?vid=d0319f7d-1e4e-4987-9ebf-a6b766baebff"},"vehicle_type_id":"4","last_reported":1742443957,"current_range_meters":9600,"station_id":"ce4bh0h2rcd13ifvqd50","pricing_plan_id":"cebpf4jnsgd1na2vs0mg"},{"bike_id":"38700e88-0eed-4189-a7cd-49878612c994","system_id":"levelo_inurba_marseille","lat":43.315699,"lon":5.389218,"is_reserved":false,"is_disabled":false,"rental_uris":{"android":"levelo://app?vid=38700e88-0eed-4189-a7cd-49878612c994","ios":"levelo://app?vid=38700e88-0eed-4189-a7cd-49878612c994"},"vehicle_type_id":"4","last_reported":1742443957,"current_range_meters":9600,"station_id":"","pricing_plan_id":"cebpf4jnsgd1na2vs0mg"},{"bike_id":"96ee9b6a-93d1-44f4-a827-40cf0b688b55","system_id":"levelo_inurba_marseille","lat":43.313733,"lon":5.384967,"is_reserved":false,"is_disabled":false,"rental_uris":{"android":"levelo://app?vid=96ee9b6a-93d1-44f4-a827-40cf0b688b55","ios":"levelo://app?vid=96ee9b6a-93d1-44f4-a827-40cf0b688b55"},"vehicle_type_id":"4","last_reported":1742443957,"current_range_meters":9600,"station_id":"ce4bgt92rcd13ifvqcf0","pricing_plan_id":"cebpf4jnsgd1na2vs0mg"},{"bike_id":"7c23dcb0-31a4-457d-8cd5-05a913c017d4","system_id":"levelo_inurba_marseille","lat":43.33046,"lon":5.39024,"is_reserved":false,"is_disabled":false,"rental_uris":{"android":"levelo://app?vid=7c23dcb0-31a4-457d-8cd5-05a913c017d4","ios":"levelo://app?vid=7c23dcb0-31a4-457d-8cd5-05a913c017d4"},"vehicle_type_id":"4","last_reported":1742443957,"current_range_meters":9600,"station_id":"ce4bhr92rcd13ifvqhrg","pricing_plan_id":"cebpf4jnsgd1na2vs0mg"},{"bike_id":"c6c8dd2d-5b6e-4c3a-8293-f6b60960b982","system_id":"levelo_inurba_marseille","lat":43.30893,"lon":5.37438,"is_reserved":false,"is_disabled":false,"rental_uris":{"android":"levelo://app?vid=c6c8dd2d-5b6e-4c3a-8293-f6b60960b982","ios":"levelo://app?vid=c6c8dd2d-5b6e-4c3a-8293-f6b60960b982"},"vehicle_type_id":"4","last_reported":1742443957,"current_range_meters":9600,"station_id":"","pricing_plan_id":"cebpf4jnsgd1na2vs0mg"},{"bike_id":"9a407e55-d314-42fc-8c32-c5b5dcba6239","system_id":"levelo_inurba_marseille","lat":43.26229,"lon":5.40455,"is_reserved":false,"is_disabled":false,"rental_uris":{"android":"levelo://app?vid=9a407e55-d314-42fc-8c32-c5b5dcba6239","ios":"levelo://app?vid=9a407e55-d314-42fc-8c32-c5b5dcba6239"},"vehicle_type_id":"4","last_reported":1742443957,"current_range_meters":10000,"station_id":"ce4bhmh2rcd13ifvqgmg","pricing_plan_id":"cebpf4jnsgd1na2vs0mg"},{"bike_id":"3814871c-e444-4b86-8623-d81856e5c86c","system_id":"levelo_inurba_marseille","lat":43.302528,"lon":5.400534,"is_reserved":false,"is_disabled":false,"rental_uris":{"android":"levelo://app?vid=3814871c-e444-4b86-8623-d81856e5c86c","ios":"levelo://app?vid=3814871c-e444-4b86-8623-d81856e5c86c"},"vehicle_type_id":"4","last_reported":1742443957,"current_range_meters":10000,"station_id":"ce4bgvh2rcd13ifvqcs0","pricing_plan_id":"cebpf4jnsgd1na2vs0mg"},{"bike_id":"fedf69d6-ece1-4270-9c88-3e82bb1ab634","system_id":"levelo_inurba_marseille","lat":43.31159,"lon":5.38718,"is_reserved":false,"is_disabled":false,"rental_uris":{"android":"levelo://app?vid=fedf69d6-ece1-4270-9c88-3e82bb1ab634","ios":"levelo://app?vid=fedf69d6-ece1-4270-9c88-3e82bb1ab634"},"vehicle_type_id":"4","last_reported":1742443957,"current_range_meters":10000,"station_id":"ce4bgv12rcd13ifvqcp0","pricing_plan_id":"cebpf4jnsgd1na2vs0mg"},{"bike_id":"471b8c1a-1a85-4080-b533-fb41f3dbfd81","system_id":"levelo_inurba_marseille","lat":43.231919,"lon":5.355593,"is_reserved":false,"is_disabled":false,"rental_uris":{"android":"levelo://app?vid=471b8c1a-1a85-4080-b533-fb41f3dbfd81","ios":"levelo://app?vid=471b8c1a-1a85-4080-b533-fb41f3dbfd81"},"vehicle_type_id":"4","last_reported":1742443957,"current_range_meters":10000,"station_id":"ce4bhu92rcd13ifvqi70","pricing_plan_id":"cebpf4jnsgd1na2vs0mg"},{"bike_id":"671210b1-9e8f-4893-953f-985ab8b97e34","system_id":"levelo_inurba_marseille","lat":43.321159,"lon":5.367648,"is_reserved":false,"is_disabled":false,"rental_uris":{"android":"levelo://app?vid=671210b1-9e8f-4893-953f-985ab8b97e34","ios":"levelo://app?vid=671210b1-9e8f-4893-953f-985ab8b97e34"},"vehicle_type_id":"4","last_reported":1742443957,"current_range_meters":10000,"station_id":"ce4bhrh2rcd13ifvqhug","pricing_plan_id":"cebpf4jnsgd1na2vs0mg"},{"bike_id":"477b3b7f-28c2-49ea-8f4e-2b4d1861b94d","system_id":"levelo_inurba_marseille","lat":43.255852,"lon":5.382228,"is_reserved":false,"is_disabled":false,"rental_uris":{"android":"levelo://app?vid=477b3b7f-28c2-49ea-8f4e-2b4d1861b94d","ios":"levelo://app?vid=477b3b7f-28c2-49ea-8f4e-2b4d1861b94d"},"vehicle_type_id":"4","last_reported":1742443957,"current_range_meters":10000,"station_id":"ce4bhih2rcd13ifvqfs0","pricing_plan_id":"cebpf4jnsgd1na2vs0mg"},{"bike_id":"815d7014-c6fe-4564-82ce-d8b51f90d2f6","system_id":"levelo_inurba_marseille","lat":43.33704,"lon":5.39196,"is_reserved":false,"is_disabled":false,"rental_uris":{"android":"levelo://app?vid=815d7014-c6fe-4564-82ce-d8b51f90d2f6","ios":"levelo://app?vid=815d7014-c6fe-4564-82ce-d8b51f90d2f6"},"vehicle_type_id":"4","last_reported":1742443957,"current_range_meters":10000,"station_id":"ce4bhr92rcd13ifvqhsg","pricing_plan_id":"cebpf4jnsgd1na2vs0mg"},{"bike_id":"94ffa62a-c0a8-48b0-83e4-7237e17e0e07","system_id":"levelo_inurba_marseille","lat":43.279478,"lon":5.410569,"is_reserved":false,"is_disabled":false,"rental_uris":{"android":"levelo://app?vid=94ffa62a-c0a8-48b0-83e4-7237e17e0e07","ios":"levelo://app?vid=94ffa62a-c0a8-48b0-83e4-7237e17e0e07"},"vehicle_type_id":"4","last_reported":1742443957,"current_range_meters":10000,"station_id":"ce4bhnp2rcd13ifvqh0g","pricing_plan_id":"cebpf4jnsgd1na2vs0mg"},{"bike_id":"4cb6b837-43dc-40de-9cea-cfcec3746b95","system_id":"levelo_inurba_marseille","lat":43.308871,"lon":5.396329,"is_reserved":false,"is_disabled":false,"rental_uris":{"android":"levelo://app?vid=4cb6b837-43dc-40de-9cea-cfcec3746b95","ios":"levelo://app?vid=4cb6b837-43dc-40de-9cea-cfcec3746b95"},"vehicle_type_id":"4","last_reported":1742443957,"current_range_meters":10000,"station_id":"ce4bh012rcd13ifvqcv0","pricing_plan_id":"cebpf4jnsgd1na2vs0mg"},{"bike_id":"1689fa84-13f6-46a5-be92-d2be23b25286","system_id":"levelo_inurba_marseille","lat":43.31439,"lon":5.37587,"is_reserved":false,"is_disabled":false,"rental_uris":{"android":"levelo://app?vid=1689fa84-13f6-46a5-be92-d2be23b25286","ios":"levelo://app?vid=1689fa84-13f6-46a5-be92-d2be23b25286"},"vehicle_type_id":"4","last_reported":1742443957,"current_range_meters":10000,"station_id":"","pricing_plan_id":"cebpf4jnsgd1na2vs0mg"},{"bike_id":"7f0f1461-453e-41a8-ab84-5bec6473e280","system_id":"levelo_inurba_marseille","lat":43.26189,"lon":5.37484,"is_reserved":false,"is_disabled":false,"rental_uris":{"android":"levelo://app?vid=7f0f1461-453e-41a8-ab84-5bec6473e280","ios":"levelo://app?vid=7f0f1461-453e-41a8-ab84-5bec6473e280"},"vehicle_type_id":"4","last_reported":1742443957,"current_range_meters":10000,"station_id":"ce4bhgp2rcd13ifvqfc0","pricing_plan_id":"cebpf4jnsgd1na2vs0mg"},{"bike_id":"1983241e-dcf4-412a-b965-b9e661a9d6d5","system_id":"levelo_inurba_marseille","lat":43.298294,"lon":5.401604,"is_reserved":false,"is_disabled":false,"rental_uris":{"android":"levelo://app?vid=1983241e-dcf4-412a-b965-b9e661a9d6d5","ios":"levelo://app?vid=1983241e-dcf4-412a-b965-b9e661a9d6d5"},"vehicle_type_id":"4","last_reported":1742443957,"current_range_meters":10000,"station_id":"","pricing_plan_id":"cebpf4jnsgd1na2vs0mg"},{"bike_id":"176d2e0b-da43-4b98-b92e-b45d4ab12b2f","system_id":"levelo_inurba_marseille","lat":43.302156,"lon":5.384646,"is_reserved":false,"is_disabled":false,"rental_uris":{"android":"levelo://app?vid=176d2e0b-da43-4b98-b92e-b45d4ab12b2f","ios":"levelo://app?vid=176d2e0b-da43-4b98-b92e-b45d4ab12b2f"},"vehicle_type_id":"4","last_reported":1742443957,"current_range_meters":10000,"station_id":"","pricing_plan_id":"cebpf4jnsgd1na2vs0mg"},{"bike_id":"e7dbe58e-3430-4987-9856-2919080989e3","system_id":"levelo_inurba_marseille","lat":43.302946,"lon":5.392101,"is_reserved":false,"is_disabled":false,"rental_uris":{"android":"levelo://app?vid=e7dbe58e-3430-4987-9856-2919080989e3","ios":"levelo://app?vid=e7dbe58e-3430-4987-9856-2919080989e3"},"vehicle_type_id":"4","last_reported":1742443957,"current_range_meters":10800,"station_id":"ce4bgkh2rcd13ifvqbk0","pricing_plan_id":"cebpf4jnsgd1na2vs0mg"},{"bike_id":"6c7e51d2-e2f9-4032-b4ac-95afc513e72e","system_id":"levelo_inurba_marseille","lat":43.27371,"lon":5.36249,"is_reserved":false,"is_disabled":false,"rental_uris":{"android":"levelo://app?vid=6c7e51d2-e2f9-4032-b4ac-95afc513e72e","ios":"levelo://app?vid=6c7e51d2-e2f9-4032-b4ac-95afc513e72e"},"vehicle_type_id":"4","last_reported":1742443957,"current_range_meters":10800,"station_id":"ce4bhbh2rcd13ifvqeo0","pricing_plan_id":"cebpf4jnsgd1na2vs0mg"},{"bike_id":"11bd8d6d-27dc-4740-9c7d-3b5375e8c83b","system_id":"levelo_inurba_marseille","lat":43.31655,"lon":5.39571,"is_reserved":false,"is_disabled":false,"rental_uris":{"android":"levelo://app?vid=11bd8d6d-27dc-4740-9c7d-3b5375e8c83b","ios":"levelo://app?vid=11bd8d6d-27dc-4740-9c7d-3b5375e8c83b"},"vehicle_type_id":"4","last_reported":1742443957,"current_range_meters":10800,"station_id":"","pricing_plan_id":"cebpf4jnsgd1na2vs0mg"},{"bike_id":"cb6062cd-3cfa-4917-b79b-5707b99e3c03","system_id":"levelo_inurba_marseille","lat":43.321185,"lon":5.367534,"is_reserved":false,"is_disabled":false,"rental_uris":{"android":"levelo://app?vid=cb6062cd-3cfa-4917-b79b-5707b99e3c03","ios":"levelo://app?vid=cb6062cd-3cfa-4917-b79b-5707b99e3c03"},"vehicle_type_id":"4","last_reported":1742443957,"current_range_meters":10800,"station_id":"ce4bho92rcd13ifvqh3g","pricing_plan_id":"cebpf4jnsgd1na2vs0mg"},{"bike_id":"0f24aefc-d663-46e0-8ed0-25ba01ead319","system_id":"levelo_inurba_marseille","lat":43.29721,"lon":5.37694,"is_reserved":false,"is_disabled":false,"rental_uris":{"android":"levelo://app?vid=0f24aefc-d663-46e0-8ed0-25ba01ead319","ios":"levelo://app?vid=0f24aefc-d663-46e0-8ed0-25ba01ead319"},"vehicle_type_id":"4","last_reported":1742443957,"current_range_meters":10000,"station_id":"ce4bgkh2rcd13ifvqbl0","pricing_plan_id":"cebpf4jnsgd1na2vs0mg"},{"bike_id":"3d6e5bb2-49a5-4ae9-ac7c-7c3250491a49","system_id":"levelo_inurba_marseille","lat":43.28852,"lon":5.35939,"is_reserved":false,"is_disabled":false,"rental_uris":{"android":"levelo://app?vid=3d6e5bb2-49a5-4ae9-ac7c-7c3250491a49","ios":"levelo://app?vid=3d6e5bb2-49a5-4ae9-ac7c-7c3250491a49"},"vehicle_type_id":"4","last_reported":1742443957,"current_range_meters":10800,"station_id":"","pricing_plan_id":"cebpf4jnsgd1na2vs0mg"},{"bike_id":"0af285be-0294-4c23-9728-cedd0c1ca6b2","system_id":"levelo_inurba_marseille","lat":43.231843,"lon":5.39987,"is_reserved":false,"is_disabled":false,"rental_uris":{"android":"levelo://app?vid=0af285be-0294-4c23-9728-cedd0c1ca6b2","ios":"levelo://app?vid=0af285be-0294-4c23-9728-cedd0c1ca6b2"},"vehicle_type_id":"4","last_reported":1742443957,"current_range_meters":10800,"station_id":"ce4bhn12rcd13ifvqgqg","pricing_plan_id":"cebpf4jnsgd1na2vs0mg"},{"bike_id":"a6c26f49-f3e7-46f4-ac2a-6068f61eda81","system_id":"levelo_inurba_marseille","lat":43.29385,"lon":5.37854,"is_reserved":false,"is_disabled":true,"rental_uris":{"android":"levelo://app?vid=a6c26f49-f3e7-46f4-ac2a-6068f61eda81","ios":"levelo://app?vid=a6c26f49-f3e7-46f4-ac2a-6068f61eda81"},"vehicle_type_id":"4","last_reported":1742443957,"current_range_meters":10800,"station_id":"ce4bgjh2rcd13ifvqbf0","pricing_plan_id":"cebpf4jnsgd1na2vs0mg"},{"bike_id":"0d9c7956-02c5-470e-a030-b258442b95b5","system_id":"levelo_inurba_marseille","lat":43.311792,"lon":5.387118,"is_reserved":false,"is_disabled":false,"rental_uris":{"android":"levelo://app?vid=0d9c7956-02c5-470e-a030-b258442b95b5","ios":"levelo://app?vid=0d9c7956-02c5-470e-a030-b258442b95b5"},"vehicle_type_id":"4","last_reported":1742443957,"current_range_meters":10800,"station_id":"ce4bgv12rcd13ifvqcp0","pricing_plan_id":"cebpf4jnsgd1na2vs0mg"},{"bike_id":"09202724-fb16-47b4-8abc-ddba2c95ece7","system_id":"levelo_inurba_marseille","lat":43.2406,"lon":5.37762,"is_reserved":false,"is_disabled":false,"rental_uris":{"android":"levelo://app?vid=09202724-fb16-47b4-8abc-ddba2c95ece7","ios":"levelo://app?vid=09202724-fb16-47b4-8abc-ddba2c95ece7"},"vehicle_type_id":"4","last_reported":1742443957,"current_range_meters":10800,"station_id":"ce4bhnp2rcd13ifvqgvg","pricing_plan_id":"cebpf4jnsgd1na2vs0mg"},{"bike_id":"d7645557-54c5-44ed-8c44-41e433a350da","system_id":"levelo_inurba_marseille","lat":43.29473,"lon":5.35562,"is_reserved":false,"is_disabled":false,"rental_uris":{"android":"levelo://app?vid=d7645557-54c5-44ed-8c44-41e433a350da","ios":"levelo://app?vid=d7645557-54c5-44ed-8c44-41e433a350da"},"vehicle_type_id":"4","last_reported":1742443957,"current_range_meters":10800,"station_id":"","pricing_plan_id":"cebpf4jnsgd1na2vs0mg"},{"bike_id":"0d90e074-2d4e-4ecb-86ba-820d133e1b46","system_id":"levelo_inurba_marseille","lat":43.2803,"lon":5.36938,"is_reserved":false,"is_disabled":false,"rental_uris":{"android":"levelo://app?vid=0d90e074-2d4e-4ecb-86ba-820d133e1b46","ios":"levelo://app?vid=0d90e074-2d4e-4ecb-86ba-820d133e1b46"},"vehicle_type_id":"4","last_reported":1742443957,"current_range_meters":11200,"station_id":"ce4bha12rcd13ifvqef0","pricing_plan_id":"cebpf4jnsgd1na2vs0mg"},{"bike_id":"a0deeb6c-62a7-4efb-834c-1bec837aaba6","system_id":"levelo_inurba_marseille","lat":43.33688,"lon":5.37841,"is_reserved":false,"is_disabled":false,"rental_uris":{"android":"levelo://app?vid=a0deeb6c-62a7-4efb-834c-1bec837aaba6","ios":"levelo://app?vid=a0deeb6c-62a7-4efb-834c-1bec837aaba6"},"vehicle_type_id":"4","last_reported":1742443957,"current_range_meters":11200,"station_id":"","pricing_plan_id":"cebpf4jnsgd1na2vs0mg"},{"bike_id":"09f0ff59-b06b-4a79-9895-423889bb7cd4","system_id":"levelo_inurba_marseille","lat":43.310721,"lon":5.383485,"is_reserved":false,"is_disabled":false,"rental_uris":{"android":"levelo://app?vid=09f0ff59-b06b-4a79-9895-423889bb7cd4","ios":"levelo://app?vid=09f0ff59-b06b-4a79-9895-423889bb7cd4"},"vehicle_type_id":"4","last_reported":1742443957,"current_range_meters":11200,"station_id":"ce4bgv92rcd13ifvqcr0","pricing_plan_id":"cebpf4jnsgd1na2vs0mg"},{"bike_id":"fe43f2e2-68ef-4fcd-bb23-84fd515f2ed0","system_id":"levelo_inurba_marseille","lat":43.31273,"lon":5.40161,"is_reserved":false,"is_disabled":false,"rental_uris":{"android":"levelo://app?vid=fe43f2e2-68ef-4fcd-bb23-84fd515f2ed0","ios":"levelo://app?vid=fe43f2e2-68ef-4fcd-bb23-84fd515f2ed0"},"vehicle_type_id":"4","last_reported":1742443957,"current_range_meters":11200,"station_id":"ce4bh092rcd13ifvqd30","pricing_plan_id":"cebpf4jnsgd1na2vs0mg"},{"bike_id":"dfaf61e6-4f78-41b0-9958-891f3775e1ea","system_id":"levelo_inurba_marseille","lat":43.28825,"lon":5.35832,"is_reserved":false,"is_disabled":false,"rental_uris":{"android":"levelo://app?vid=dfaf61e6-4f78-41b0-9958-891f3775e1ea","ios":"levelo://app?vid=dfaf61e6-4f78-41b0-9958-891f3775e1ea"},"vehicle_type_id":"4","last_reported":1742443957,"current_range_meters":11200,"station_id":"ce4bhb12rcd13ifvqem0","pricing_plan_id":"cebpf4jnsgd1na2vs0mg"},{"bike_id":"13cc78a0-eee8-44bf-ba66-2bb5c4a0d700","system_id":"levelo_inurba_marseille","lat":43.31892,"lon":5.40726,"is_reserved":false,"is_disabled":false,"rental_uris":{"android":"levelo://app?vid=13cc78a0-eee8-44bf-ba66-2bb5c4a0d700","ios":"levelo://app?vid=13cc78a0-eee8-44bf-ba66-2bb5c4a0d700"},"vehicle_type_id":"4","last_reported":1742443957,"current_range_meters":11600,"station_id":"ce4bhq12rcd13ifvqhig","pricing_plan_id":"cebpf4jnsgd1na2vs0mg"},{"bike_id":"34db7e21-3f60-4f35-b9ba-80ac0871aea1","system_id":"levelo_inurba_marseille","lat":43.28417,"lon":5.39194,"is_reserved":false,"is_disabled":false,"rental_uris":{"android":"levelo://app?vid=34db7e21-3f60-4f35-b9ba-80ac0871aea1","ios":"levelo://app?vid=34db7e21-3f60-4f35-b9ba-80ac0871aea1"},"vehicle_type_id":"4","last_reported":1742443957,"current_range_meters":11600,"station_id":"ce4bhoh2rcd13ifvqh5g","pricing_plan_id":"cebpf4jnsgd1na2vs0mg"},{"bike_id":"c3171a6d-07dd-4c33-a5ee-bcaedbbad7d7","system_id":"levelo_inurba_marseille","lat":43.30804,"lon":5.43517,"is_reserved":false,"is_disabled":false,"rental_uris":{"android":"levelo://app?vid=c3171a6d-07dd-4c33-a5ee-bcaedbbad7d7","ios":"levelo://app?vid=c3171a6d-07dd-4c33-a5ee-bcaedbbad7d7"},"vehicle_type_id":"4","last_reported":1742443957,"current_range_meters":11600,"station_id":"ce4bhph2rcd13ifvqheg","pricing_plan_id":"cebpf4jnsgd1na2vs0mg"},{"bike_id":"f7629e3d-4aa5-4911-a5a4-b65ca5ee571a","system_id":"levelo_inurba_marseille","lat":43.28338,"lon":5.38108,"is_reserved":false,"is_disabled":false,"rental_uris":{"android":"levelo://app?vid=f7629e3d-4aa5-4911-a5a4-b65ca5ee571a","ios":"levelo://app?vid=f7629e3d-4aa5-4911-a5a4-b65ca5ee571a"},"vehicle_type_id":"4","last_reported":1742443957,"current_range_meters":12000,"station_id":"ce4bh412rcd13ifvqdr0","pricing_plan_id":"cebpf4jnsgd1na2vs0mg"},{"bike_id":"b6c30d9d-2400-4d71-b65f-ecfd70be0394","system_id":"levelo_inurba_marseille","lat":43.280401,"lon":5.369409,"is_reserved":false,"is_disabled":false,"rental_uris":{"android":"levelo://app?vid=b6c30d9d-2400-4d71-b65f-ecfd70be0394","ios":"levelo://app?vid=b6c30d9d-2400-4d71-b65f-ecfd70be0394"},"vehicle_type_id":"4","last_reported":1742443957,"current_range_meters":12000,"station_id":"ce4bha12rcd13ifvqef0","pricing_plan_id":"cebpf4jnsgd1na2vs0mg"},{"bike_id":"7721c1d1-8e22-4af6-b461-42e564891d17","system_id":"levelo_inurba_marseille","lat":43.30138,"lon":5.39895,"is_reserved":false,"is_disabled":true,"rental_uris":{"android":"levelo://app?vid=7721c1d1-8e22-4af6-b461-42e564891d17","ios":"levelo://app?vid=7721c1d1-8e22-4af6-b461-42e564891d17"},"vehicle_type_id":"4","last_reported":1742443957,"current_range_meters":12000,"station_id":"ce4bh0h2rcd13ifvqd40","pricing_plan_id":"cebpf4jnsgd1na2vs0mg"},{"bike_id":"62017ead-54b7-4d9d-9f69-633d537fcbef","system_id":"levelo_inurba_marseille","lat":43.28458,"lon":5.35878,"is_reserved":false,"is_disabled":false,"rental_uris":{"android":"levelo://app?vid=62017ead-54b7-4d9d-9f69-633d537fcbef","ios":"levelo://app?vid=62017ead-54b7-4d9d-9f69-633d537fcbef"},"vehicle_type_id":"4","last_reported":1742443957,"current_range_meters":12000,"station_id":"ce4bhah2rcd13ifvqei0","pricing_plan_id":"cebpf4jnsgd1na2vs0mg"},{"bike_id":"d7fb3117-8b22-47f2-81e8-30ae0a3c4279","system_id":"levelo_inurba_marseille","lat":43.31489,"lon":5.37253,"is_reserved":false,"is_disabled":false,"rental_uris":{"android":"levelo://app?vid=d7fb3117-8b22-47f2-81e8-30ae0a3c4279","ios":"levelo://app?vid=d7fb3117-8b22-47f2-81e8-30ae0a3c4279"},"vehicle_type_id":"4","last_reported":1742443957,"current_range_meters":12000,"station_id":"ce4bgt12rcd13ifvqcd0","pricing_plan_id":"cebpf4jnsgd1na2vs0mg"},{"bike_id":"28f31a98-b093-4bfb-b417-89bd198a1de0","system_id":"levelo_inurba_marseille","lat":43.249208,"lon":5.396705,"is_reserved":false,"is_disabled":false,"rental_uris":{"android":"levelo://app?vid=28f31a98-b093-4bfb-b417-89bd198a1de0","ios":"levelo://app?vid=28f31a98-b093-4bfb-b417-89bd198a1de0"},"vehicle_type_id":"4","last_reported":1742443957,"current_range_meters":12000,"station_id":"ce4bhn12rcd13ifvqgpg","pricing_plan_id":"cebpf4jnsgd1na2vs0mg"},{"bike_id":"5f474075-5c97-4d14-b6ed-363bf61d51c6","system_id":"levelo_inurba_marseille","lat":43.30224,"lon":5.40039,"is_reserved":false,"is_disabled":false,"rental_uris":{"android":"levelo://app?vid=5f474075-5c97-4d14-b6ed-363bf61d51c6","ios":"levelo://app?vid=5f474075-5c97-4d14-b6ed-363bf61d51c6"},"vehicle_type_id":"4","last_reported":1742443957,"current_range_meters":12000,"station_id":"","pricing_plan_id":"cebpf4jnsgd1na2vs0mg"},{"bike_id":"181b1742-09ee-46ab-8712-67d8396af664","system_id":"levelo_inurba_marseille","lat":43.24158,"lon":5.39749,"is_reserved":false,"is_disabled":false,"rental_uris":{"android":"levelo://app?vid=181b1742-09ee-46ab-8712-67d8396af664","ios":"levelo://app?vid=181b1742-09ee-46ab-8712-67d8396af664"},"vehicle_type_id":"4","last_reported":1742443957,"current_range_meters":12000,"station_id":"ce4bhn12rcd13ifvqgpg","pricing_plan_id":"cebpf4jnsgd1na2vs0mg"},{"bike_id":"34fad177-51bc-4f2d-998a-8b36fcd2da8e","system_id":"levelo_inurba_marseille","lat":43.287107,"lon":5.373891,"is_reserved":false,"is_disabled":false,"rental_uris":{"android":"levelo://app?vid=34fad177-51bc-4f2d-998a-8b36fcd2da8e","ios":"levelo://app?vid=34fad177-51bc-4f2d-998a-8b36fcd2da8e"},"vehicle_type_id":"4","last_reported":1742443957,"current_range_meters":12000,"station_id":"ce4bh3p2rcd13ifvqdq0","pricing_plan_id":"cebpf4jnsgd1na2vs0mg"},{"bike_id":"ec5e2ef2-c1eb-48b0-a19d-521e6460b8d2","system_id":"levelo_inurba_marseille","lat":43.29802,"lon":5.39353,"is_reserved":false,"is_disabled":false,"rental_uris":{"android":"levelo://app?vid=ec5e2ef2-c1eb-48b0-a19d-521e6460b8d2","ios":"levelo://app?vid=ec5e2ef2-c1eb-48b0-a19d-521e6460b8d2"},"vehicle_type_id":"4","last_reported":1742443957,"current_range_meters":12000,"station_id":"chh1huq6cuj3fo74tm60","pricing_plan_id":"cebpf4jnsgd1na2vs0mg"},{"bike_id":"f43a1c44-6a62-4987-8c19-349574f83478","system_id":"levelo_inurba_marseille","lat":43.251165,"lon":5.403298,"is_reserved":false,"is_disabled":false,"rental_uris":{"android":"levelo://app?vid=f43a1c44-6a62-4987-8c19-349574f83478","ios":"levelo://app?vid=f43a1c44-6a62-4987-8c19-349574f83478"},"vehicle_type_id":"4","last_reported":1742443957,"current_range_meters":12400,"station_id":"ce4bhlh2rcd13ifvqgig","pricing_plan_id":"cebpf4jnsgd1na2vs0mg"},{"bike_id":"bc1594f0-f23b-46fa-bccc-f3ff1c68a71d","system_id":"levelo_inurba_marseille","lat":43.25815,"lon":5.39443,"is_reserved":false,"is_disabled":false,"rental_uris":{"android":"levelo://app?vid=bc1594f0-f23b-46fa-bccc-f3ff1c68a71d","ios":"levelo://app?vid=bc1594f0-f23b-46fa-bccc-f3ff1c68a71d"},"vehicle_type_id":"4","last_reported":1742443957,"current_range_meters":12400,"station_id":"ce4bhip2rcd13ifvqft0","pricing_plan_id":"cebpf4jnsgd1na2vs0mg"},{"bike_id":"4f768683-98ef-4058-a6fa-4682623e24f5","system_id":"levelo_inurba_marseille","lat":43.308856,"lon":5.396322,"is_reserved":false,"is_disabled":false,"rental_uris":{"android":"levelo://app?vid=4f768683-98ef-4058-a6fa-4682623e24f5","ios":"levelo://app?vid=4f768683-98ef-4058-a6fa-4682623e24f5"},"vehicle_type_id":"4","last_reported":1742443957,"current_range_meters":12400,"station_id":"ce4bh012rcd13ifvqcv0","pricing_plan_id":"cebpf4jnsgd1na2vs0mg"},{"bike_id":"ffbee1c9-ab8d-45ee-b606-c546ab78c5f2","system_id":"levelo_inurba_marseille","lat":43.297268,"lon":5.377831,"is_reserved":false,"is_disabled":false,"rental_uris":{"android":"levelo://app?vid=ffbee1c9-ab8d-45ee-b606-c546ab78c5f2","ios":"levelo://app?vid=ffbee1c9-ab8d-45ee-b606-c546ab78c5f2"},"vehicle_type_id":"4","last_reported":1742443957,"current_range_meters":12400,"station_id":"","pricing_plan_id":"cebpf4jnsgd1na2vs0mg"},{"bike_id":"44c2f516-7ec0-43a8-8a96-8f8c839051c6","system_id":"levelo_inurba_marseille","lat":43.3103,"lon":5.38357,"is_reserved":false,"is_disabled":false,"rental_uris":{"android":"levelo://app?vid=44c2f516-7ec0-43a8-8a96-8f8c839051c6","ios":"levelo://app?vid=44c2f516-7ec0-43a8-8a96-8f8c839051c6"},"vehicle_type_id":"4","last_reported":1742443957,"current_range_meters":12400,"station_id":"ce4bgv92rcd13ifvqcr0","pricing_plan_id":"cebpf4jnsgd1na2vs0mg"},{"bike_id":"6883c811-8746-429a-bd41-848ecf4dd19e","system_id":"levelo_inurba_marseille","lat":43.235174,"lon":5.377429,"is_reserved":false,"is_disabled":false,"rental_uris":{"android":"levelo://app?vid=6883c811-8746-429a-bd41-848ecf4dd19e","ios":"levelo://app?vid=6883c811-8746-429a-bd41-848ecf4dd19e"},"vehicle_type_id":"4","last_reported":1742443957,"current_range_meters":12400,"station_id":"","pricing_plan_id":"cebpf4jnsgd1na2vs0mg"},{"bike_id":"3541b254-27bb-462a-9b76-258b8d38b3e8","system_id":"levelo_inurba_marseille","lat":43.310711,"lon":5.38352,"is_reserved":false,"is_disabled":false,"rental_uris":{"android":"levelo://app?vid=3541b254-27bb-462a-9b76-258b8d38b3e8","ios":"levelo://app?vid=3541b254-27bb-462a-9b76-258b8d38b3e8"},"vehicle_type_id":"4","last_reported":1742443957,"current_range_meters":12400,"station_id":"ce4bgv92rcd13ifvqcr0","pricing_plan_id":"cebpf4jnsgd1na2vs0mg"},{"bike_id":"4fcd06ae-4851-4c19-aff2-bf420ac261fc","system_id":"levelo_inurba_marseille","lat":43.283497,"lon":5.386407,"is_reserved":false,"is_disabled":true,"rental_uris":{"android":"levelo://app?vid=4fcd06ae-4851-4c19-aff2-bf420ac261fc","ios":"levelo://app?vid=4fcd06ae-4851-4c19-aff2-bf420ac261fc"},"vehicle_type_id":"4","last_reported":1742443957,"current_range_meters":12400,"station_id":"ce4bh492rcd13ifvqdvg","pricing_plan_id":"cebpf4jnsgd1na2vs0mg"},{"bike_id":"f23756cf-c13a-4357-850f-676f170101c3","system_id":"levelo_inurba_marseille","lat":43.28879,"lon":5.36479,"is_reserved":false,"is_disabled":false,"rental_uris":{"android":"levelo://app?vid=f23756cf-c13a-4357-850f-676f170101c3","ios":"levelo://app?vid=f23756cf-c13a-4357-850f-676f170101c3"},"vehicle_type_id":"4","last_reported":1742443957,"current_range_meters":12400,"station_id":"","pricing_plan_id":"cebpf4jnsgd1na2vs0mg"},{"bike_id":"c5bb5dca-1dc9-450e-9a3d-9fa737cf345d","system_id":"levelo_inurba_marseille","lat":43.246485,"lon":5.388861,"is_reserved":false,"is_disabled":false,"rental_uris":{"android":"levelo://app?vid=c5bb5dca-1dc9-450e-9a3d-9fa737cf345d","ios":"levelo://app?vid=c5bb5dca-1dc9-450e-9a3d-9fa737cf345d"},"vehicle_type_id":"4","last_reported":1742443957,"current_range_meters":12400,"station_id":"ce4bhg12rcd13ifvqf60","pricing_plan_id":"cebpf4jnsgd1na2vs0mg"},{"bike_id":"0303b0ed-f8c8-4727-a934-eab1ff5762e3","system_id":"levelo_inurba_marseille","lat":43.308849,"lon":5.396254,"is_reserved":false,"is_disabled":false,"rental_uris":{"android":"levelo://app?vid=0303b0ed-f8c8-4727-a934-eab1ff5762e3","ios":"levelo://app?vid=0303b0ed-f8c8-4727-a934-eab1ff5762e3"},"vehicle_type_id":"4","last_reported":1742443957,"current_range_meters":12400,"station_id":"ce4bh012rcd13ifvqcv0","pricing_plan_id":"cebpf4jnsgd1na2vs0mg"},{"bike_id":"8879e25f-e10f-420b-a3cf-17b5a4037281","system_id":"levelo_inurba_marseille","lat":43.258178,"lon":5.394361,"is_reserved":false,"is_disabled":false,"rental_uris":{"android":"levelo://app?vid=8879e25f-e10f-420b-a3cf-17b5a4037281","ios":"levelo://app?vid=8879e25f-e10f-420b-a3cf-17b5a4037281"},"vehicle_type_id":"4","last_reported":1742443957,"current_range_meters":12400,"station_id":"ce4bhip2rcd13ifvqft0","pricing_plan_id":"cebpf4jnsgd1na2vs0mg"},{"bike_id":"f0ecc41c-3e76-4973-9ac5-ce0caabd5642","system_id":"levelo_inurba_marseille","lat":43.29894,"lon":5.39727,"is_reserved":false,"is_disabled":false,"rental_uris":{"android":"levelo://app?vid=f0ecc41c-3e76-4973-9ac5-ce0caabd5642","ios":"levelo://app?vid=f0ecc41c-3e76-4973-9ac5-ce0caabd5642"},"vehicle_type_id":"4","last_reported":1742443957,"current_range_meters":12800,"station_id":"ce4bh0h2rcd13ifvqd50","pricing_plan_id":"cebpf4jnsgd1na2vs0mg"},{"bike_id":"eaa90a4b-b35b-4e9d-bcb5-dc00cebc1f8d","system_id":"levelo_inurba_marseille","lat":43.32366,"lon":5.388844,"is_reserved":false,"is_disabled":false,"rental_uris":{"android":"levelo://app?vid=eaa90a4b-b35b-4e9d-bcb5-dc00cebc1f8d","ios":"levelo://app?vid=eaa90a4b-b35b-4e9d-bcb5-dc00cebc1f8d"},"vehicle_type_id":"4","last_reported":1742443957,"current_range_meters":12800,"station_id":"ce4bhqp2rcd13ifvqhog","pricing_plan_id":"cebpf4jnsgd1na2vs0mg"},{"bike_id":"56419ca8-463b-4be0-9c43-d4369c9ccefb","system_id":"levelo_inurba_marseille","lat":43.31557,"lon":5.37998,"is_reserved":false,"is_disabled":false,"rental_uris":{"android":"levelo://app?vid=56419ca8-463b-4be0-9c43-d4369c9ccefb","ios":"levelo://app?vid=56419ca8-463b-4be0-9c43-d4369c9ccefb"},"vehicle_type_id":"4","last_reported":1742443957,"current_range_meters":12800,"station_id":"ce4bhsp2rcd13ifvqi50","pricing_plan_id":"cebpf4jnsgd1na2vs0mg"},{"bike_id":"ebafa0fd-ee12-47f4-b68c-4a54737665d1","system_id":"levelo_inurba_marseille","lat":43.308935,"lon":5.396276,"is_reserved":false,"is_disabled":false,"rental_uris":{"android":"levelo://app?vid=ebafa0fd-ee12-47f4-b68c-4a54737665d1","ios":"levelo://app?vid=ebafa0fd-ee12-47f4-b68c-4a54737665d1"},"vehicle_type_id":"4","last_reported":1742443957,"current_range_meters":12800,"station_id":"ce4bh012rcd13ifvqcv0","pricing_plan_id":"cebpf4jnsgd1na2vs0mg"},{"bike_id":"153c2b1a-c06c-4899-a846-d0ebf48e2f80","system_id":"levelo_inurba_marseille","lat":43.287252,"lon":5.360925,"is_reserved":false,"is_disabled":false,"rental_uris":{"android":"levelo://app?vid=153c2b1a-c06c-4899-a846-d0ebf48e2f80","ios":"levelo://app?vid=153c2b1a-c06c-4899-a846-d0ebf48e2f80"},"vehicle_type_id":"4","last_reported":1742443957,"current_range_meters":12800,"station_id":"cki0cbj6b192h4jlfktg","pricing_plan_id":"cebpf4jnsgd1na2vs0mg"},{"bike_id":"dcfce11f-23fd-43b3-ac6a-2331b19f3e91","system_id":"levelo_inurba_marseille","lat":43.308872,"lon":5.396568,"is_reserved":false,"is_disabled":false,"rental_uris":{"android":"levelo://app?vid=dcfce11f-23fd-43b3-ac6a-2331b19f3e91","ios":"levelo://app?vid=dcfce11f-23fd-43b3-ac6a-2331b19f3e91"},"vehicle_type_id":"4","last_reported":1742443957,"current_range_meters":12800,"station_id":"ce4bh012rcd13ifvqcv0","pricing_plan_id":"cebpf4jnsgd1na2vs0mg"},{"bike_id":"b9e4bdd0-024c-4547-9a94-39d0c7923642","system_id":"levelo_inurba_marseille","lat":43.241692,"lon":5.364053,"is_reserved":false,"is_disabled":false,"rental_uris":{"android":"levelo://app?vid=b9e4bdd0-024c-4547-9a94-39d0c7923642","ios":"levelo://app?vid=b9e4bdd0-024c-4547-9a94-39d0c7923642"},"vehicle_type_id":"4","last_reported":1742443957,"current_range_meters":12800,"station_id":"cpo36qri1sfpv3e86is0","pricing_plan_id":"cebpf4jnsgd1na2vs0mg"},{"bike_id":"71cee084-4971-41dd-8931-6915b0a1225e","system_id":"levelo_inurba_marseille","lat":43.27829,"lon":5.40708,"is_reserved":false,"is_disabled":false,"rental_uris":{"android":"levelo://app?vid=71cee084-4971-41dd-8931-6915b0a1225e","ios":"levelo://app?vid=71cee084-4971-41dd-8931-6915b0a1225e"},"vehicle_type_id":"4","last_reported":1742443957,"current_range_meters":12800,"station_id":"ce4bhnh2rcd13ifvqgtg","pricing_plan_id":"cebpf4jnsgd1na2vs0mg"},{"bike_id":"989931a4-672c-4cbc-9409-267ed4a9c4ed","system_id":"levelo_inurba_marseille","lat":43.298053,"lon":5.404125,"is_reserved":false,"is_disabled":false,"rental_uris":{"android":"levelo://app?vid=989931a4-672c-4cbc-9409-267ed4a9c4ed","ios":"levelo://app?vid=989931a4-672c-4cbc-9409-267ed4a9c4ed"},"vehicle_type_id":"4","last_reported":1742443957,"current_range_meters":12800,"station_id":"ce4bh112rcd13ifvqd90","pricing_plan_id":"cebpf4jnsgd1na2vs0mg"},{"bike_id":"44b51cae-1f8d-4c3f-8cfa-49c7965edddc","system_id":"levelo_inurba_marseille","lat":43.288587,"lon":5.358472,"is_reserved":false,"is_disabled":false,"rental_uris":{"android":"levelo://app?vid=44b51cae-1f8d-4c3f-8cfa-49c7965edddc","ios":"levelo://app?vid=44b51cae-1f8d-4c3f-8cfa-49c7965edddc"},"vehicle_type_id":"4","last_reported":1742443957,"current_range_meters":13600,"station_id":"ce4bhb12rcd13ifvqem0","pricing_plan_id":"cebpf4jnsgd1na2vs0mg"},{"bike_id":"b180aee1-8494-4d04-ab85-035038a6747a","system_id":"levelo_inurba_marseille","lat":43.28037,"lon":5.36947,"is_reserved":false,"is_disabled":false,"rental_uris":{"android":"levelo://app?vid=b180aee1-8494-4d04-ab85-035038a6747a","ios":"levelo://app?vid=b180aee1-8494-4d04-ab85-035038a6747a"},"vehicle_type_id":"4","last_reported":1742443957,"current_range_meters":13600,"station_id":"ce4bha12rcd13ifvqef0","pricing_plan_id":"cebpf4jnsgd1na2vs0mg"},{"bike_id":"9e416160-7c0f-441b-b3e5-6061b7c9ea3e","system_id":"levelo_inurba_marseille","lat":43.30251,"lon":5.40042,"is_reserved":false,"is_disabled":false,"rental_uris":{"android":"levelo://app?vid=9e416160-7c0f-441b-b3e5-6061b7c9ea3e","ios":"levelo://app?vid=9e416160-7c0f-441b-b3e5-6061b7c9ea3e"},"vehicle_type_id":"4","last_reported":1742443957,"current_range_meters":13600,"station_id":"ce4bgvh2rcd13ifvqcs0","pricing_plan_id":"cebpf4jnsgd1na2vs0mg"},{"bike_id":"cfcd43ac-55d6-41fe-bcae-b87609468037","system_id":"levelo_inurba_marseille","lat":43.27681,"lon":5.38914,"is_reserved":false,"is_disabled":true,"rental_uris":{"android":"levelo://app?vid=cfcd43ac-55d6-41fe-bcae-b87609468037","ios":"levelo://app?vid=cfcd43ac-55d6-41fe-bcae-b87609468037"},"vehicle_type_id":"4","last_reported":1742443957,"current_range_meters":13600,"station_id":"ce4bhi12rcd13ifvqfo0","pricing_plan_id":"cebpf4jnsgd1na2vs0mg"},{"bike_id":"91bbc4d7-c30f-4b98-bc8f-0b3299ccfa54","system_id":"levelo_inurba_marseille","lat":43.27366,"lon":5.36233,"is_reserved":false,"is_disabled":false,"rental_uris":{"android":"levelo://app?vid=91bbc4d7-c30f-4b98-bc8f-0b3299ccfa54","ios":"levelo://app?vid=91bbc4d7-c30f-4b98-bc8f-0b3299ccfa54"},"vehicle_type_id":"4","last_reported":1742443957,"current_range_meters":13600,"station_id":"ce4bhbh2rcd13ifvqeo0","pricing_plan_id":"cebpf4jnsgd1na2vs0mg"},{"bike_id":"238f5ef8-200a-4c91-9401-f937e3a5a9dd","system_id":"levelo_inurba_marseille","lat":43.29873,"lon":5.39741,"is_reserved":false,"is_disabled":false,"rental_uris":{"android":"levelo://app?vid=238f5ef8-200a-4c91-9401-f937e3a5a9dd","ios":"levelo://app?vid=238f5ef8-200a-4c91-9401-f937e3a5a9dd"},"vehicle_type_id":"4","last_reported":1742443957,"current_range_meters":13600,"station_id":"ce4bh0h2rcd13ifvqd50","pricing_plan_id":"cebpf4jnsgd1na2vs0mg"},{"bike_id":"ac08bea7-a3db-4aa4-b663-22ba38e2c807","system_id":"levelo_inurba_marseille","lat":43.279412,"lon":5.410404,"is_reserved":false,"is_disabled":false,"rental_uris":{"android":"levelo://app?vid=ac08bea7-a3db-4aa4-b663-22ba38e2c807","ios":"levelo://app?vid=ac08bea7-a3db-4aa4-b663-22ba38e2c807"},"vehicle_type_id":"4","last_reported":1742443957,"current_range_meters":13600,"station_id":"ce4bhnp2rcd13ifvqh0g","pricing_plan_id":"cebpf4jnsgd1na2vs0mg"},{"bike_id":"819f55d4-8283-4aac-9c87-6c7f386799f5","system_id":"levelo_inurba_marseille","lat":43.28454,"lon":5.35917,"is_reserved":false,"is_disabled":false,"rental_uris":{"android":"levelo://app?vid=819f55d4-8283-4aac-9c87-6c7f386799f5","ios":"levelo://app?vid=819f55d4-8283-4aac-9c87-6c7f386799f5"},"vehicle_type_id":"4","last_reported":1742443957,"current_range_meters":13600,"station_id":"ce4bhah2rcd13ifvqei0","pricing_plan_id":"cebpf4jnsgd1na2vs0mg"},{"bike_id":"48d1ca75-c6a4-4880-91e2-d975a9f9859a","system_id":"levelo_inurba_marseille","lat":43.3189,"lon":5.40733,"is_reserved":false,"is_disabled":false,"rental_uris":{"android":"levelo://app?vid=48d1ca75-c6a4-4880-91e2-d975a9f9859a","ios":"levelo://app?vid=48d1ca75-c6a4-4880-91e2-d975a9f9859a"},"vehicle_type_id":"4","last_reported":1742443957,"current_range_meters":13600,"station_id":"ce4bhq12rcd13ifvqhig","pricing_plan_id":"cebpf4jnsgd1na2vs0mg"},{"bike_id":"77c325ba-2e1c-4b5f-812e-882a5e158ec8","system_id":"levelo_inurba_marseille","lat":43.2761,"lon":5.36117,"is_reserved":false,"is_disabled":false,"rental_uris":{"android":"levelo://app?vid=77c325ba-2e1c-4b5f-812e-882a5e158ec8","ios":"levelo://app?vid=77c325ba-2e1c-4b5f-812e-882a5e158ec8"},"vehicle_type_id":"4","last_reported":1742443957,"current_range_meters":14000,"station_id":"ce4bgj92rcd13ifvqbe0","pricing_plan_id":"cebpf4jnsgd1na2vs0mg"},{"bike_id":"7565d616-38a7-4fe3-aa7f-dfb8f45c0008","system_id":"levelo_inurba_marseille","lat":43.312017,"lon":5.37429,"is_reserved":false,"is_disabled":false,"rental_uris":{"android":"levelo://app?vid=7565d616-38a7-4fe3-aa7f-dfb8f45c0008","ios":"levelo://app?vid=7565d616-38a7-4fe3-aa7f-dfb8f45c0008"},"vehicle_type_id":"4","last_reported":1742443957,"current_range_meters":14000,"station_id":"","pricing_plan_id":"cebpf4jnsgd1na2vs0mg"},{"bike_id":"e675f7aa-a75a-4f56-ad9f-6545e0524a14","system_id":"levelo_inurba_marseille","lat":43.28413,"lon":5.3751,"is_reserved":false,"is_disabled":false,"rental_uris":{"android":"levelo://app?vid=e675f7aa-a75a-4f56-ad9f-6545e0524a14","ios":"levelo://app?vid=e675f7aa-a75a-4f56-ad9f-6545e0524a14"},"vehicle_type_id":"4","last_reported":1742443957,"current_range_meters":14000,"station_id":"ce4bh412rcd13ifvqds0","pricing_plan_id":"cebpf4jnsgd1na2vs0mg"},{"bike_id":"39a69217-5beb-4b90-9aec-4a4defd7fd6e","system_id":"levelo_inurba_marseille","lat":43.31169,"lon":5.38712,"is_reserved":false,"is_disabled":false,"rental_uris":{"android":"levelo://app?vid=39a69217-5beb-4b90-9aec-4a4defd7fd6e","ios":"levelo://app?vid=39a69217-5beb-4b90-9aec-4a4defd7fd6e"},"vehicle_type_id":"4","last_reported":1742443957,"current_range_meters":14000,"station_id":"ce4bgv12rcd13ifvqcp0","pricing_plan_id":"cebpf4jnsgd1na2vs0mg"},{"bike_id":"c3785270-e916-49c4-8938-772884b2125f","system_id":"levelo_inurba_marseille","lat":43.28663,"lon":5.36354,"is_reserved":false,"is_disabled":false,"rental_uris":{"android":"levelo://app?vid=c3785270-e916-49c4-8938-772884b2125f","ios":"levelo://app?vid=c3785270-e916-49c4-8938-772884b2125f"},"vehicle_type_id":"4","last_reported":1742443957,"current_range_meters":14000,"station_id":"ce4bhah2rcd13ifvqej0","pricing_plan_id":"cebpf4jnsgd1na2vs0mg"},{"bike_id":"7e9597ff-e319-4213-89bf-8dc65fa09e90","system_id":"levelo_inurba_marseille","lat":43.33559,"lon":5.41046,"is_reserved":false,"is_disabled":false,"rental_uris":{"android":"levelo://app?vid=7e9597ff-e319-4213-89bf-8dc65fa09e90","ios":"levelo://app?vid=7e9597ff-e319-4213-89bf-8dc65fa09e90"},"vehicle_type_id":"4","last_reported":1742443957,"current_range_meters":14000,"station_id":"ce4bhqh2rcd13ifvqhmg","pricing_plan_id":"cebpf4jnsgd1na2vs0mg"},{"bike_id":"53450bb0-21c0-4770-bb90-2c842485b597","system_id":"levelo_inurba_marseille","lat":43.250068,"lon":5.389476,"is_reserved":false,"is_disabled":false,"rental_uris":{"android":"levelo://app?vid=53450bb0-21c0-4770-bb90-2c842485b597","ios":"levelo://app?vid=53450bb0-21c0-4770-bb90-2c842485b597"},"vehicle_type_id":"4","last_reported":1742443957,"current_range_meters":14000,"station_id":"ce4bhgp2rcd13ifvqfd0","pricing_plan_id":"cebpf4jnsgd1na2vs0mg"},{"bike_id":"4428c3e0-16dc-4a38-a0c9-6086283c839d","system_id":"levelo_inurba_marseille","lat":43.290261,"lon":5.386408,"is_reserved":false,"is_disabled":true,"rental_uris":{"android":"levelo://app?vid=4428c3e0-16dc-4a38-a0c9-6086283c839d","ios":"levelo://app?vid=4428c3e0-16dc-4a38-a0c9-6086283c839d"},"vehicle_type_id":"4","last_reported":1742443957,"current_range_meters":14000,"station_id":"ce4bh4p2rcd13ifvqe0g","pricing_plan_id":"cebpf4jnsgd1na2vs0mg"},{"bike_id":"89dd7375-d5ef-4a0b-817a-54dfe9dce184","system_id":"levelo_inurba_marseille","lat":43.28846,"lon":5.35853,"is_reserved":false,"is_disabled":false,"rental_uris":{"android":"levelo://app?vid=89dd7375-d5ef-4a0b-817a-54dfe9dce184","ios":"levelo://app?vid=89dd7375-d5ef-4a0b-817a-54dfe9dce184"},"vehicle_type_id":"4","last_reported":1742443957,"current_range_meters":14000,"station_id":"ce4bhb12rcd13ifvqem0","pricing_plan_id":"cebpf4jnsgd1na2vs0mg"},{"bike_id":"beba08a2-d9cb-488c-9045-5efffb927c8b","system_id":"levelo_inurba_marseille","lat":43.284543,"lon":5.358887,"is_reserved":false,"is_disabled":false,"rental_uris":{"android":"levelo://app?vid=beba08a2-d9cb-488c-9045-5efffb927c8b","ios":"levelo://app?vid=beba08a2-d9cb-488c-9045-5efffb927c8b"},"vehicle_type_id":"4","last_reported":1742443957,"current_range_meters":14000,"station_id":"ce4bhah2rcd13ifvqei0","pricing_plan_id":"cebpf4jnsgd1na2vs0mg"},{"bike_id":"b851ec28-a8a0-4433-a2b2-468a7637efe2","system_id":"levelo_inurba_marseille","lat":43.28107,"lon":5.37838,"is_reserved":false,"is_disabled":false,"rental_uris":{"android":"levelo://app?vid=b851ec28-a8a0-4433-a2b2-468a7637efe2","ios":"levelo://app?vid=b851ec28-a8a0-4433-a2b2-468a7637efe2"},"vehicle_type_id":"4","last_reported":1742443957,"current_range_meters":14400,"station_id":"ce4bha12rcd13ifvqee0","pricing_plan_id":"cebpf4jnsgd1na2vs0mg"},{"bike_id":"e913b0cd-b2a6-4678-bba9-91b2476e2c22","system_id":"levelo_inurba_marseille","lat":43.24169,"lon":5.39669,"is_reserved":false,"is_disabled":false,"rental_uris":{"android":"levelo://app?vid=e913b0cd-b2a6-4678-bba9-91b2476e2c22","ios":"levelo://app?vid=e913b0cd-b2a6-4678-bba9-91b2476e2c22"},"vehicle_type_id":"4","last_reported":1742443957,"current_range_meters":14400,"station_id":"ce4bhn12rcd13ifvqgpg","pricing_plan_id":"cebpf4jnsgd1na2vs0mg"},{"bike_id":"7676f911-79e0-4de7-aca9-dcff942e9bd4","system_id":"levelo_inurba_marseille","lat":43.28626,"lon":5.35078,"is_reserved":false,"is_disabled":false,"rental_uris":{"android":"levelo://app?vid=7676f911-79e0-4de7-aca9-dcff942e9bd4","ios":"levelo://app?vid=7676f911-79e0-4de7-aca9-dcff942e9bd4"},"vehicle_type_id":"4","last_reported":1742443957,"current_range_meters":14400,"station_id":"ce4bhch2rcd13ifvqeug","pricing_plan_id":"cebpf4jnsgd1na2vs0mg"},{"bike_id":"1254f4f7-3d3a-4cff-851d-2ec6924cc15c","system_id":"levelo_inurba_marseille","lat":43.2834,"lon":5.38119,"is_reserved":false,"is_disabled":false,"rental_uris":{"android":"levelo://app?vid=1254f4f7-3d3a-4cff-851d-2ec6924cc15c","ios":"levelo://app?vid=1254f4f7-3d3a-4cff-851d-2ec6924cc15c"},"vehicle_type_id":"4","last_reported":1742443957,"current_range_meters":14400,"station_id":"ce4bh412rcd13ifvqdr0","pricing_plan_id":"cebpf4jnsgd1na2vs0mg"},{"bike_id":"cc0bfdbb-2155-4845-94ef-938a21d7b70e","system_id":"levelo_inurba_marseille","lat":43.286215,"lon":5.35105,"is_reserved":false,"is_disabled":false,"rental_uris":{"android":"levelo://app?vid=cc0bfdbb-2155-4845-94ef-938a21d7b70e","ios":"levelo://app?vid=cc0bfdbb-2155-4845-94ef-938a21d7b70e"},"vehicle_type_id":"4","last_reported":1742443957,"current_range_meters":14400,"station_id":"ce4bhch2rcd13ifvqeug","pricing_plan_id":"cebpf4jnsgd1na2vs0mg"},{"bike_id":"52e02280-5fd5-419b-aecb-4c9645b42c0f","system_id":"levelo_inurba_marseille","lat":43.330268,"lon":5.390428,"is_reserved":false,"is_disabled":false,"rental_uris":{"android":"levelo://app?vid=52e02280-5fd5-419b-aecb-4c9645b42c0f","ios":"levelo://app?vid=52e02280-5fd5-419b-aecb-4c9645b42c0f"},"vehicle_type_id":"4","last_reported":1742443957,"current_range_meters":14400,"station_id":"ce4bhr92rcd13ifvqhrg","pricing_plan_id":"cebpf4jnsgd1na2vs0mg"},{"bike_id":"221a3e15-9ce7-46f8-9a5e-0566ead9a333","system_id":"levelo_inurba_marseille","lat":43.29261,"lon":5.38442,"is_reserved":false,"is_disabled":true,"rental_uris":{"android":"levelo://app?vid=221a3e15-9ce7-46f8-9a5e-0566ead9a333","ios":"levelo://app?vid=221a3e15-9ce7-46f8-9a5e-0566ead9a333"},"vehicle_type_id":"4","last_reported":1742443957,"current_range_meters":14400,"station_id":"ce4bh692rcd13ifvqea0","pricing_plan_id":"cebpf4jnsgd1na2vs0mg"},{"bike_id":"ebe1c969-3a3f-4bca-ac92-df6fb55cceaf","system_id":"levelo_inurba_marseille","lat":43.28422,"lon":5.37517,"is_reserved":false,"is_disabled":false,"rental_uris":{"android":"levelo://app?vid=ebe1c969-3a3f-4bca-ac92-df6fb55cceaf","ios":"levelo://app?vid=ebe1c969-3a3f-4bca-ac92-df6fb55cceaf"},"vehicle_type_id":"4","last_reported":1742443957,"current_range_meters":14800,"station_id":"ce4bh412rcd13ifvqds0","pricing_plan_id":"cebpf4jnsgd1na2vs0mg"},{"bike_id":"bbf7123d-ad7f-493a-9748-c49d768d53e4","system_id":"levelo_inurba_marseille","lat":43.2872,"lon":5.36096,"is_reserved":false,"is_disabled":false,"rental_uris":{"android":"levelo://app?vid=bbf7123d-ad7f-493a-9748-c49d768d53e4","ios":"levelo://app?vid=bbf7123d-ad7f-493a-9748-c49d768d53e4"},"vehicle_type_id":"4","last_reported":1742443957,"current_range_meters":14800,"station_id":"cki0cbj6b192h4jlfktg","pricing_plan_id":"cebpf4jnsgd1na2vs0mg"},{"bike_id":"48857df4-75c2-4487-bbcb-2a3253d57efd","system_id":"levelo_inurba_marseille","lat":43.306499,"lon":5.400794,"is_reserved":false,"is_disabled":false,"rental_uris":{"android":"levelo://app?vid=48857df4-75c2-4487-bbcb-2a3253d57efd","ios":"levelo://app?vid=48857df4-75c2-4487-bbcb-2a3253d57efd"},"vehicle_type_id":"4","last_reported":1742443957,"current_range_meters":14800,"station_id":"ce4bh112rcd13ifvqda0","pricing_plan_id":"cebpf4jnsgd1na2vs0mg"},{"bike_id":"1c3b5361-695c-4ccc-94f9-aca7f37b6d45","system_id":"levelo_inurba_marseille","lat":43.231909,"lon":5.355496,"is_reserved":false,"is_disabled":false,"rental_uris":{"android":"levelo://app?vid=1c3b5361-695c-4ccc-94f9-aca7f37b6d45","ios":"levelo://app?vid=1c3b5361-695c-4ccc-94f9-aca7f37b6d45"},"vehicle_type_id":"4","last_reported":1742443957,"current_range_meters":15200,"station_id":"ce4bhu92rcd13ifvqi70","pricing_plan_id":"cebpf4jnsgd1na2vs0mg"},{"bike_id":"9159ea76-4d64-483e-8e93-86b494652aa9","system_id":"levelo_inurba_marseille","lat":43.317584,"lon":5.390147,"is_reserved":false,"is_disabled":false,"rental_uris":{"android":"levelo://app?vid=9159ea76-4d64-483e-8e93-86b494652aa9","ios":"levelo://app?vid=9159ea76-4d64-483e-8e93-86b494652aa9"},"vehicle_type_id":"4","last_reported":1742443957,"current_range_meters":15200,"station_id":"ce4bhqp2rcd13ifvqhng","pricing_plan_id":"cebpf4jnsgd1na2vs0mg"},{"bike_id":"08f5fdec-a33c-49db-864f-89f0718e881a","system_id":"levelo_inurba_marseille","lat":43.31273,"lon":5.4017,"is_reserved":false,"is_disabled":false,"rental_uris":{"android":"levelo://app?vid=08f5fdec-a33c-49db-864f-89f0718e881a","ios":"levelo://app?vid=08f5fdec-a33c-49db-864f-89f0718e881a"},"vehicle_type_id":"4","last_reported":1742443957,"current_range_meters":15200,"station_id":"ce4bh092rcd13ifvqd30","pricing_plan_id":"cebpf4jnsgd1na2vs0mg"},{"bike_id":"0083c39b-0cd3-4517-887e-db4196ac9ffa","system_id":"levelo_inurba_marseille","lat":43.28468,"lon":5.35899,"is_reserved":false,"is_disabled":false,"rental_uris":{"android":"levelo://app?vid=0083c39b-0cd3-4517-887e-db4196ac9ffa","ios":"levelo://app?vid=0083c39b-0cd3-4517-887e-db4196ac9ffa"},"vehicle_type_id":"4","last_reported":1742443957,"current_range_meters":15200,"station_id":"ce4bhah2rcd13ifvqei0","pricing_plan_id":"cebpf4jnsgd1na2vs0mg"},{"bike_id":"242d0c87-729d-4343-8ca0-b9a1ca8c1938","system_id":"levelo_inurba_marseille","lat":43.30811,"lon":5.38159,"is_reserved":false,"is_disabled":true,"rental_uris":{"android":"levelo://app?vid=242d0c87-729d-4343-8ca0-b9a1ca8c1938","ios":"levelo://app?vid=242d0c87-729d-4343-8ca0-b9a1ca8c1938"},"vehicle_type_id":"4","last_reported":1742443957,"current_range_meters":15200,"station_id":"ce4bgt12rcd13ifvqce0","pricing_plan_id":"cebpf4jnsgd1na2vs0mg"},{"bike_id":"ed4986d4-2975-4cc1-bdce-313b3d9492df","system_id":"levelo_inurba_marseille","lat":43.31327,"lon":5.39705,"is_reserved":false,"is_disabled":false,"rental_uris":{"android":"levelo://app?vid=ed4986d4-2975-4cc1-bdce-313b3d9492df","ios":"levelo://app?vid=ed4986d4-2975-4cc1-bdce-313b3d9492df"},"vehicle_type_id":"4","last_reported":1742443957,"current_range_meters":15200,"station_id":"ce4bgvp2rcd13ifvqcu0","pricing_plan_id":"cebpf4jnsgd1na2vs0mg"},{"bike_id":"78de8420-610c-4e7e-aabe-183adf2a5c6d","system_id":"levelo_inurba_marseille","lat":43.29616,"lon":5.40606,"is_reserved":false,"is_disabled":false,"rental_uris":{"android":"levelo://app?vid=78de8420-610c-4e7e-aabe-183adf2a5c6d","ios":"levelo://app?vid=78de8420-610c-4e7e-aabe-183adf2a5c6d"},"vehicle_type_id":"4","last_reported":1742443957,"current_range_meters":15200,"station_id":"ce4bh0h2rcd13ifvqd60","pricing_plan_id":"cebpf4jnsgd1na2vs0mg"},{"bike_id":"42510201-02b4-4f38-82bc-9dc134d4342c","system_id":"levelo_inurba_marseille","lat":43.22937,"lon":5.35366,"is_reserved":false,"is_disabled":false,"rental_uris":{"android":"levelo://app?vid=42510201-02b4-4f38-82bc-9dc134d4342c","ios":"levelo://app?vid=42510201-02b4-4f38-82bc-9dc134d4342c"},"vehicle_type_id":"4","last_reported":1742443957,"current_range_meters":15200,"station_id":"cpo3532slgdg3j2ikp40","pricing_plan_id":"cebpf4jnsgd1na2vs0mg"},{"bike_id":"66892a55-e6cc-4b7a-b6a4-82e54fdbcfb5","system_id":"levelo_inurba_marseille","lat":43.25578,"lon":5.38231,"is_reserved":false,"is_disabled":false,"rental_uris":{"android":"levelo://app?vid=66892a55-e6cc-4b7a-b6a4-82e54fdbcfb5","ios":"levelo://app?vid=66892a55-e6cc-4b7a-b6a4-82e54fdbcfb5"},"vehicle_type_id":"4","last_reported":1742443957,"current_range_meters":15200,"station_id":"ce4bhih2rcd13ifvqfs0","pricing_plan_id":"cebpf4jnsgd1na2vs0mg"},{"bike_id":"ea9c099e-cd33-406a-9fa7-4fde7c8e9bfd","system_id":"levelo_inurba_marseille","lat":43.278361,"lon":5.392013,"is_reserved":false,"is_disabled":false,"rental_uris":{"android":"levelo://app?vid=ea9c099e-cd33-406a-9fa7-4fde7c8e9bfd","ios":"levelo://app?vid=ea9c099e-cd33-406a-9fa7-4fde7c8e9bfd"},"vehicle_type_id":"4","last_reported":1742443957,"current_range_meters":15200,"station_id":"ce4bhjp2rcd13ifvqga0","pricing_plan_id":"cebpf4jnsgd1na2vs0mg"},{"bike_id":"c9135a37-b5cf-4ab5-a4b4-871623087c9f","system_id":"levelo_inurba_marseille","lat":43.28614,"lon":5.35108,"is_reserved":false,"is_disabled":false,"rental_uris":{"android":"levelo://app?vid=c9135a37-b5cf-4ab5-a4b4-871623087c9f","ios":"levelo://app?vid=c9135a37-b5cf-4ab5-a4b4-871623087c9f"},"vehicle_type_id":"4","last_reported":1742443957,"current_range_meters":15200,"station_id":"ce4bhch2rcd13ifvqeug","pricing_plan_id":"cebpf4jnsgd1na2vs0mg"},{"bike_id":"5b772b69-1e85-4a14-9aa8-067f67343e1c","system_id":"levelo_inurba_marseille","lat":43.281,"lon":5.37833,"is_reserved":false,"is_disabled":false,"rental_uris":{"android":"levelo://app?vid=5b772b69-1e85-4a14-9aa8-067f67343e1c","ios":"levelo://app?vid=5b772b69-1e85-4a14-9aa8-067f67343e1c"},"vehicle_type_id":"4","last_reported":1742443957,"current_range_meters":16000,"station_id":"ce4bha12rcd13ifvqee0","pricing_plan_id":"cebpf4jnsgd1na2vs0mg"},