{"last_updated":1734095996,"ttl":60,"version":"2.2","data":{"bikes":[{"bike_id":"ccb0e558-7034-4b70-ae2d-79d78d592241","system_id":"levelo_inurba_marseille","lat":43.23187,"lon":5.39986,"is_reserved":false,"is_disabled":false,"rental_uris":{"android":"levelo://app?vid=ccb0e558-7034-4b70-ae2d-79d78d592241","ios":"levelo://app?vid=ccb0e558-7034-4b70-ae2d-79d78d592241"},"vehicle_type_id":"4","last_reported":1734095996,"current_range_meters":31200,"station_id":"ce4bhn12rcd13ifvqgqg","pricing_plan_id":"cebpf4jnsgd1na2vs0mg"},{"bike_id":"3e5d99b9-1aaf-48b9-b5fb-fb7a0b5b1ba5","system_id":"levelo_inurba_marseille","lat":43.29017,"lon":5.39267,"is_reserved":false,"is_disabled":true,"rental_uris":{"android":"levelo://app?vid=3e5d99b9-1aaf-48b9-b5fb-fb7a0b5b1ba5","ios":"levelo://app?vid=3e5d99b9-1aaf-48b9-b5fb-fb7a0b5b1ba5"},"vehicle_type_id":"4","last_reported":1734095996,"current_range_meters":0,"station_id":"","pricing_plan_id":"cebpf4jnsgd1na2vs0mg"},{"bike_id":"0703430c-16a5-45e6-a4ba-b3d464062d71","system_id":"levelo_inurba_marseille","lat":43.29613,"lon":5.40369,"is_reserved":false,"is_disabled":true,"rental_uris":{"android":"levelo://app?vid=0703430c-16a5-45e6-a4ba-b3d464062d71","ios":"levelo://app?vid=0703430c-16a5-45e6-a4ba-b3d464062d71"},"vehicle_type_id":"4","last_reported":1734095996,"current_range_meters":1200,"station_id":"","pricing_plan_id":"cebpf4jnsgd1na2vs0mg"},{"bike_id":"ed18df8c-5a65-436b-b0b8-5f5d8d39d343","system_id":"levelo_inurba_marseille","lat":43.26004,"lon":5.37558,"is_reserved":false,"is_disabled":true,"rental_uris":{"android":"levelo://app?vid=ed18df8c-5a65-436b-b0b8-5f5d8d39d343","ios":"levelo://app?vid=ed18df8c-5a65-436b-b0b8-5f5d8d39d343"},"vehicle_type_id":"4","last_reported":1734095996,"current_range_meters":0,"station_id":"ce4bhgh2rcd13ifvqfa0","pricing_plan_id":"cebpf4jnsgd1na2vs0mg"},{"bike_id":"68a5e283-83da-4da3-a08f-76abd1202548","system_id":"levelo_inurba_marseille","lat":43.31436,"lon":5.37587,"is_reserved":false,"is_disabled":false,"rental_uris":{"android":"levelo://app?vid=68a5e283-83da-4da3-a08f-76abd1202548","ios":"levelo://app?vid=68a5e283-83da-4da3-a08f-76abd1202548"},"vehicle_type_id":"4","last_reported":1734095996,"current_range_meters":38800,"station_id":"","pricing_plan_id":"cebpf4jnsgd1na2vs0mg"},{"bike_id":"ffd95177-d0c3-4ef3-8e4f-16f4129469fa","system_id":"levelo_inurba_marseille","lat":43.2998,"lon":5.3718,"is_reserved":false,"is_disabled":false,"rental_uris":{"android":"levelo://app?vid=ffd95177-d0c3-4ef3-8e4f-16f4129469fa","ios":"levelo://app?vid=ffd95177-d0c3-4ef3-8e4f-16f4129469fa"},"vehicle_type_id":"4","last_reported":1734095996,"current_range_meters":25600,"station_id":"ce4bgr92rcd13ifvqc7g","pricing_plan_id":"cebpf4jnsgd1na2vs0mg"},{"bike_id":"72fe140c-8069-42b9-9079-53c877e1eaa4","system_id":"levelo_inurba_marseille","lat":43.26544,"lon":5.37322,"is_reserved":false,"is_disabled":false,"rental_uris":{"android":"levelo://app?vid=72fe140c-8069-42b9-9079-53c877e1eaa4","ios":"levelo://app?vid=72fe140c-8069-42b9-9079-53c877e1eaa4"},"vehicle_type_id":"4","last_reported":1734095996,"current_range_meters":15200,"station_id":"ce4bhg12rcd13ifvqf70","pricing_plan_id":"cebpf4jnsgd1na2vs0mg"},{"bike_id":"056f7c98-9df5-4142-a1f0-aaccaa27d23c","system_id":"levelo_inurba_marseille","lat":43.30942,"lon":5.39039,"is_reserved":false,"is_disabled":false,"rental_uris":{"android":"levelo://app?vid=056f7c98-9df5-4142-a1f0-aaccaa27d23c","ios":"levelo://app?vid=056f7c98-9df5-4142-a1f0-aaccaa27d23c"},"vehicle_type_id":"4","last_reported":1734095996,"current_range_meters":11200,"station_id":"ce4bgup2rcd13ifvqco0","pricing_plan_id":"cebpf4jnsgd1na2vs0mg"},{"bike_id":"f2605f1f-a8ab-4b10-b383-c9da181195cc","system_id":"levelo_inurba_marseille","lat":43.2849,"lon":5.38565,"is_reserved":false,"is_disabled":false,"rental_uris":{"android":"levelo://app?vid=f2605f1f-a8ab-4b10-b383-c9da181195cc","ios":"levelo://app?vid=f2605f1f-a8ab-4b10-b383-c9da181195cc"},"vehicle_type_id":"4","last_reported":1734095996,"current_range_meters":38800,"station_id":"ce4bh8p2rcd13ifvqeb0","pricing_plan_id":"cebpf4jnsgd1na2vs0mg"},{"bike_id":"9134c73e-9e11-4d12-9fc2-d4a26311dab8","system_id":"levelo_inurba_marseille","lat":43.26197,"lon":5.37927,"is_reserved":false,"is_disabled":false,"rental_uris":{"android":"levelo://app?vid=9134c73e-9e11-4d12-9fc2-d4a26311dab8","ios":"levelo://app?vid=9134c73e-9e11-4d12-9fc2-d4a26311dab8"},"vehicle_type_id":"4","last_reported":1734095996,"current_range_meters":34000,"station_id":"ce4bhjp2rcd13ifvqg90","pricing_plan_id":"cebpf4jnsgd1na2vs0mg"},{"bike_id":"f53a51f1-6db0-4716-9c45-7ac4c7fcd208","system_id":"levelo_inurba_marseille","lat":43.32281,"lon":5.38282,"is_reserved":false,"is_disabled":false,"rental_uris":{"android":"levelo://app?vid=f53a51f1-6db0-4716-9c45-7ac4c7fcd208","ios":"levelo://app?vid=f53a51f1-6db0-4716-9c45-7ac4c7fcd208"},"vehicle_type_id":"4","last_reported":1734095996,"current_range_meters":36000,"station_id":"ce4bhr12rcd13ifvqhqg","pricing_plan_id":"cebpf4jnsgd1na2vs0mg"},{"bike_id":"980f96eb-32c9-4906-98f6-c44dbf4c84a1","system_id":"levelo_inurba_marseille","lat":43.27455,"lon":5.40073,"is_reserved":false,"is_disabled":true,"rental_uris":{"android":"levelo://app?vid=980f96eb-32c9-4906-98f6-c44dbf4c84a1","ios":"levelo://app?vid=980f96eb-32c9-4906-98f6-c44dbf4c84a1"},"vehicle_type_id":"4","last_reported":1734095996,"current_range_meters":0,"station_id":"","pricing_plan_id":"cebpf4jnsgd1na2vs0mg"},{"bike_id":"e212b217-e1a0-4818-b77a-8c5a990e4ef4","system_id":"levelo_inurba_marseille","lat":43.32545,"lon":5.41445,"is_reserved":false,"is_disabled":false,"rental_uris":{"android":"levelo://app?vid=e212b217-e1a0-4818-b77a-8c5a990e4ef4","ios":"levelo://app?vid=e212b217-e1a0-4818-b77a-8c5a990e4ef4"},"vehicle_type_id":"4","last_reported":1734095996,"current_range_meters":37600,"station_id":"ce4bhq12rcd13ifvqhhg","pricing_plan_id":"cebpf4jnsgd1na2vs0mg"},{"bike_id":"62368126-0576-4037-884e-1ba2a436c169","system_id":"levelo_inurba_marseille","lat":43.26028,"lon":5.37549,"is_reserved":false,"is_disabled":false,"rental_uris":{"android":"levelo://app?vid=62368126-0576-4037-884e-1ba2a436c169","ios":"levelo://app?vid=62368126-0576-4037-884e-1ba2a436c169"},"vehicle_type_id":"4","last_reported":1734095996,"current_range_meters":38800,"station_id":"ce4bhgh2rcd13ifvqfa0","pricing_plan_id":"cebpf4jnsgd1na2vs0mg"},{"bike_id":"ee633bd0-40f5-46a9-aaab-947219add634","system_id":"levelo_inurba_marseille","lat":43.2919,"lon":5.35797,"is_reserved":false,"is_disabled":true,"rental_uris":{"android":"levelo://app?vid=ee633bd0-40f5-46a9-aaab-947219add634","ios":"levelo://app?vid=ee633bd0-40f5-46a9-aaab-947219add634"},"vehicle_type_id":"4","last_reported":1734095996,"current_range_meters":30000,"station_id":"ce4bhb12rcd13ifvqel0","pricing_plan_id":"cebpf4jnsgd1na2vs0mg"},{"bike_id":"2ff74495-1668-4f69-93f4-3525206b58ff","system_id":"levelo_inurba_marseille","lat":43.2465,"lon":5.38899,"is_reserved":false,"is_disabled":false,"rental_uris":{"android":"levelo://app?vid=2ff74495-1668-4f69-93f4-3525206b58ff","ios":"levelo://app?vid=2ff74495-1668-4f69-93f4-3525206b58ff"},"vehicle_type_id":"4","last_reported":1734095996,"current_range_meters":24400,"station_id":"ce4bhg12rcd13ifvqf60","pricing_plan_id":"cebpf4jnsgd1na2vs0mg"},{"bike_id":"506ab972-ac84-46b6-90f5-267f1345b92d","system_id":"levelo_inurba_marseille","lat":43.27062,"lon":5.40268,"is_reserved":false,"is_disabled":false,"rental_uris":{"android":"levelo://app?vid=506ab972-ac84-46b6-90f5-267f1345b92d","ios":"levelo://app?vid=506ab972-ac84-46b6-90f5-267f1345b92d"},"vehicle_type_id":"4","last_reported":1734095996,"current_range_meters":31200,"station_id":"ce4bhk92rcd13ifvqgc0","pricing_plan_id":"cebpf4jnsgd1na2vs0mg"},{"bike_id":"fe87f8f2-6e97-4611-93da-1318a830eb3c","system_id":"levelo_inurba_marseille","lat":43.27992,"lon":5.41662,"is_reserved":false,"is_disabled":false,"rental_uris":{"android":"levelo://app?vid=fe87f8f2-6e97-4611-93da-1318a830eb3c","ios":"levelo://app?vid=fe87f8f2-6e97-4611-93da-1318a830eb3c"},"vehicle_type_id":"4","last_reported":1734095996,"current_range_meters":37600,"station_id":"ce4bho12rcd13ifvqh1g","pricing_plan_id":"cebpf4jnsgd1na2vs0mg"},{"bike_id":"68341feb-c70b-4c28-91d5-1c7269ec3b3a","system_id":"levelo_inurba_marseille","lat":43.30342,"lon":5.39186,"is_reserved":false,"is_disabled":false,"rental_uris":{"android":"levelo://app?vid=68341feb-c70b-4c28-91d5-1c7269ec3b3a","ios":"levelo://app?vid=68341feb-c70b-4c28-91d5-1c7269ec3b3a"},"vehicle_type_id":"4","last_reported":1734095996,"current_range_meters":25600,"station_id":"","pricing_plan_id":"cebpf4jnsgd1na2vs0mg"},{"bike_id":"a830854d-85a5-4d22-8e8f-1bf3eb4beebf","system_id":"levelo_inurba_marseille","lat":43.30519,"lon":5.36589,"is_reserved":false,"is_disabled":false,"rental_uris":{"android":"levelo://app?vid=a830854d-85a5-4d22-8e8f-1bf3eb4beebf","ios":"levelo://app?vid=a830854d-85a5-4d22-8e8f-1bf3eb4beebf"},"vehicle_type_id":"4","last_reported":1734095996,"current_range_meters":37600,"station_id":"","pricing_plan_id":"cebpf4jnsgd1na2vs0mg"},{"bike_id":"88cbbdef-b7fd-4bfb-a825-9fa8ab276a5b","system_id":"levelo_inurba_marseille","lat":43.27491,"lon":5.42455,"is_reserved":false,"is_disabled":false,"rental_uris":{"android":"levelo://app?vid=88cbbdef-b7fd-4bfb-a825-9fa8ab276a5b","ios":"levelo://app?vid=88cbbdef-b7fd-4bfb-a825-9fa8ab276a5b"},"vehicle_type_id":"4","last_reported":1734095996,"current_range_meters":4000,"station_id":"ce4bhn92rcd13ifvqgrg","pricing_plan_id":"cebpf4jnsgd1na2vs0mg"},{"bike_id":"d5c89c1f-3bad-4af2-9449-e04c277a4696","system_id":"levelo_inurba_marseille","lat":43.29986,"lon":5.41315,"is_reserved":false,"is_disabled":true,"rental_uris":{"android":"levelo://app?vid=d5c89c1f-3bad-4af2-9449-e04c277a4696","ios":"levelo://app?vid=d5c89c1f-3bad-4af2-9449-e04c277a4696"},"vehicle_type_id":"4","last_reported":1734095996,"current_range_meters":34000,"station_id":"ce4bhp12rcd13ifvqh9g","pricing_plan_id":"cebpf4jnsgd1na2vs0mg"},{"bike_id":"e2abf982-dd95-4d72-aeff-26bf898783f8","system_id":"levelo_inurba_marseille","lat":43.24084,"lon":5.37745,"is_reserved":false,"is_disabled":false,"rental_uris":{"android":"levelo://app?vid=e2abf982-dd95-4d72-aeff-26bf898783f8","ios":"levelo://app?vid=e2abf982-dd95-4d72-aeff-26bf898783f8"},"vehicle_type_id":"4","last_reported":1734095996,"current_range_meters":25200,"station_id":"ce4bhnp2rcd13ifvqgvg","pricing_plan_id":"cebpf4jnsgd1na2vs0mg"},{"bike_id":"5dcb142e-3766-4e2c-b1fe-c9ebbc5d3c50","system_id":"levelo_inurba_marseille","lat":43.31996,"lon":5.38163,"is_reserved":false,"is_disabled":false,"rental_uris":{"android":"levelo://app?vid=5dcb142e-3766-4e2c-b1fe-c9ebbc5d3c50","ios":"levelo://app?vid=5dcb142e-3766-4e2c-b1fe-c9ebbc5d3c50"},"vehicle_type_id":"4","last_reported":1734095996,"current_range_meters":6800,"station_id":"ce4bhr12rcd13ifvqhpg","pricing_plan_id":"cebpf4jnsgd1na2vs0mg"},{"bike_id":"8beeaa46-0fa7-4c1d-9233-811957576fbe","system_id":"levelo_inurba_marseille","lat":43.28784,"lon":5.37346,"is_reserved":false,"is_disabled":false,"rental_uris":{"android":"levelo://app?vid=8beeaa46-0fa7-4c1d-9233-811957576fbe","ios":"levelo://app?vid=8beeaa46-0fa7-4c1d-9233-811957576fbe"},"vehicle_type_id":"4","last_reported":1734095996,"current_range_meters":30800,"station_id":"ce4bhah2rcd13ifvqej0","pricing_plan_id":"cebpf4jnsgd1na2vs0mg"},{"bike_id":"23b203e2-b068-4fc8-9a12-e11cba490e91","system_id":"levelo_inurba_marseille","lat":43.25587,"lon":5.38219,"is_reserved":false,"is_disabled":false,"rental_uris":{"android":"levelo://app?vid=23b203e2-b068-4fc8-9a12-e11cba490e91","ios":"levelo://app?vid=23b203e2-b068-4fc8-9a12-e11cba490e91"},"vehicle_type_id":"4","last_reported":1734095996,"current_range_meters":37600,"station_id":"ce4bhih2rcd13ifvqfs0","pricing_plan_id":"cebpf4jnsgd1na2vs0mg"},{"bike_id":"516bcbce-8b75-4610-9ee5-df08b7034853","system_id":"levelo_inurba_marseille","lat":43.26837,"lon":5.39376,"is_reserved":false,"is_disabled":false,"rental_uris":{"android":"levelo://app?vid=516bcbce-8b75-4610-9ee5-df08b7034853","ios":"levelo://app?vid=516bcbce-8b75-4610-9ee5-df08b7034853"},"vehicle_type_id":"4","last_reported":1734095996,"current_range_meters":5600,"station_id":"ce4bhh12rcd13ifvqfg0","pricing_plan_id":"cebpf4jnsgd1na2vs0mg"},{"bike_id":"b71de84d-593d-4459-8db7-0d8bedfa1caa","system_id":"levelo_inurba_marseille","lat":43.28993,"lon":5.35619,"is_reserved":false,"is_disabled":false,"rental_uris":{"android":"levelo://app?vid=b71de84d-593d-4459-8db7-0d8bedfa1caa","ios":"levelo://app?vid=b71de84d-593d-4459-8db7-0d8bedfa1caa"},"vehicle_type_id":"4","last_reported":1734095996,"current_range_meters":24800,"station_id":"ce4bhb92rcd13ifvqen0","pricing_plan_id":"cebpf4jnsgd1na2vs0mg"},{"bike_id":"1097fc89-8f64-4598-a8e2-7baa1de2b051","system_id":"levelo_inurba_marseille","lat":43.29785,"lon":5.38121,"is_reserved":false,"is_disabled":false,"rental_uris":{"android":"levelo://app?vid=1097fc89-8f64-4598-a8e2-7baa1de2b051","ios":"levelo://app?vid=1097fc89-8f64-4598-a8e2-7baa1de2b051"},"vehicle_type_id":"4","last_reported":1734095996,"current_range_meters":38400,"station_id":"ce4bgip2rcd13ifvqbb0","pricing_plan_id":"cebpf4jnsgd1na2vs0mg"},{"bike_id":"14b44178-a900-4af8-850f-9bed953b726c","system_id":"levelo_inurba_marseille","lat":43.29039,"lon":5.39951,"is_reserved":false,"is_disabled":false,"rental_uris":{"android":"levelo://app?vid=14b44178-a900-4af8-850f-9bed953b726c","ios":"levelo://app?vid=14b44178-a900-4af8-850f-9bed953b726c"},"vehicle_type_id":"4","last_reported":1734095996,"current_range_meters":24800,"station_id":"ce4bh392rcd13ifvqdm0","pricing_plan_id":"cebpf4jnsgd1na2vs0mg"},{"bike_id":"94e1f871-2269-4dc0-b678-810d929953a4","system_id":"levelo_inurba_marseille","lat":43.26558,"lon":5.37283,"is_reserved":false,"is_disabled":false,"rental_uris":{"android":"levelo://app?vid=94e1f871-2269-4dc0-b678-810d929953a4","ios":"levelo://app?vid=94e1f871-2269-4dc0-b678-810d929953a4"},"vehicle_type_id":"4","last_reported":1734095996,"current_range_meters":29600,"station_id":"ce4bhg12rcd13ifvqf70","pricing_plan_id":"cebpf4jnsgd1na2vs0mg"},{"bike_id":"495986c7-e02a-4c20-a1dc-c3edae2c8c07","system_id":"levelo_inurba_marseille","lat":43.30169,"lon":5.37361,"is_reserved":false,"is_disabled":false,"rental_uris":{"android":"levelo://app?vid=495986c7-e02a-4c20-a1dc-c3edae2c8c07","ios":"levelo://app?vid=495986c7-e02a-4c20-a1dc-c3edae2c8c07"},"vehicle_type_id":"4","last_reported":1734095996,"current_range_meters":28800,"station_id":"","pricing_plan_id":"cebpf4jnsgd1na2vs0mg"},{"bike_id":"eebc277d-b739-4b41-b751-894d125d0eb1","system_id":"levelo_inurba_marseille","lat":43.24079,"lon":5.37748,"is_reserved":false,"is_disabled":false,"rental_uris":{"android":"levelo://app?vid=eebc277d-b739-4b41-b751-894d125d0eb1","ios":"levelo://app?vid=eebc277d-b739-4b41-b751-894d125d0eb1"},"vehicle_type_id":"4","last_reported":1734095996,"current_range_meters":18000,"station_id":"ce4bhnp2rcd13ifvqgvg","pricing_plan_id":"cebpf4jnsgd1na2vs0mg"},{"bike_id":"51e10fb8-719e-47b4-b0f5-030c6846f7ae","system_id":"levelo_inurba_marseille","lat":43.279242,"lon":5.407572,"is_reserved":false,"is_disabled":false,"rental_uris":{"android":"levelo://app?vid=51e10fb8-719e-47b4-b0f5-030c6846f7ae","ios":"levelo://app?vid=51e10fb8-719e-47b4-b0f5-030c6846f7ae"},"vehicle_type_id":"4","last_reported":1734095996,"current_range_meters":38000,"station_id":"ce4bhnh2rcd13ifvqgtg","pricing_plan_id":"cebpf4jnsgd1na2vs0mg"},{"bike_id":"400da5f8-7ac1-4655-a822-ef95555a3e83","system_id":"levelo_inurba_marseille","lat":43.28388,"lon":5.37569,"is_reserved":false,"is_disabled":false,"rental_uris":{"android":"levelo://app?vid=400da5f8-7ac1-4655-a822-ef95555a3e83","ios":"levelo://app?vid=400da5f8-7ac1-4655-a822-ef95555a3e83"},"vehicle_type_id":"4","last_reported":1734095996,"current_range_meters":38400,"station_id":"ce4bh412rcd13ifvqds0","pricing_plan_id":"cebpf4jnsgd1na2vs0mg"},{"bike_id":"0e8a89dc-4e73-48a3-8682-6696627877b1","system_id":"levelo_inurba_marseille","lat":43.31752,"lon":5.39019,"is_reserved":false,"is_disabled":true,"rental_uris":{"android":"levelo://app?vid=0e8a89dc-4e73-48a3-8682-6696627877b1","ios":"levelo://app?vid=0e8a89dc-4e73-48a3-8682-6696627877b1"},"vehicle_type_id":"4","last_reported":1734095996,"current_range_meters":0,"station_id":"ce4bhqp2rcd13ifvqhng","pricing_plan_id":"cebpf4jnsgd1na2vs0mg"},{"bike_id":"edaea664-24e0-4d6c-aa7a-497f5c5f88f6","system_id":"levelo_inurba_marseille","lat":43.270056,"lon":5.391544,"is_reserved":false,"is_disabled":true,"rental_uris":{"android":"levelo://app?vid=edaea664-24e0-4d6c-aa7a-497f5c5f88f6","ios":"levelo://app?vid=edaea664-24e0-4d6c-aa7a-497f5c5f88f6"},"vehicle_type_id":"4","last_reported":1734095996,"current_range_meters":0,"station_id":"","pricing_plan_id":"cebpf4jnsgd1na2vs0mg"},{"bike_id":"6c993311-8c72-4fa2-a657-27cf0f3381d1","system_id":"levelo_inurba_marseille","lat":43.29607,"lon":5.37723,"is_reserved":false,"is_disabled":false,"rental_uris":{"android":"levelo://app?vid=6c993311-8c72-4fa2-a657-27cf0f3381d1","ios":"levelo://app?vid=6c993311-8c72-4fa2-a657-27cf0f3381d1"},"vehicle_type_id":"4","last_reported":1734095996,"current_range_meters":34800,"station_id":"ce4bgi92rcd13ifvqb90","pricing_plan_id":"cebpf4jnsgd1na2vs0mg"},{"bike_id":"bd3c6234-98f1-4c87-a9ae-0d2f2f93bdf0","system_id":"levelo_inurba_marseille","lat":43.31689,"lon":5.37804,"is_reserved":false,"is_disabled":false,"rental_uris":{"android":"levelo://app?vid=bd3c6234-98f1-4c87-a9ae-0d2f2f93bdf0","ios":"levelo://app?vid=bd3c6234-98f1-4c87-a9ae-0d2f2f93bdf0"},"vehicle_type_id":"4","last_reported":1734095996,"current_range_meters":30400,"station_id":"","pricing_plan_id":"cebpf4jnsgd1na2vs0mg"},{"bike_id":"031809f5-fdc4-4687-967d-86d6a0becf47","system_id":"levelo_inurba_marseille","lat":43.25862,"lon":5.39912,"is_reserved":false,"is_disabled":false,"rental_uris":{"android":"levelo://app?vid=031809f5-fdc4-4687-967d-86d6a0becf47","ios":"levelo://app?vid=031809f5-fdc4-4687-967d-86d6a0becf47"},"vehicle_type_id":"4","last_reported":1734095996,"current_range_meters":38400,"station_id":"ce4bhl92rcd13ifvqghg","pricing_plan_id":"cebpf4jnsgd1na2vs0mg"},{"bike_id":"516f14a4-04fe-406e-80c1-e9be448aafa5","system_id":"levelo_inurba_marseille","lat":43.3055,"lon":5.36545,"is_reserved":false,"is_disabled":false,"rental_uris":{"android":"levelo://app?vid=516f14a4-04fe-406e-80c1-e9be448aafa5","ios":"levelo://app?vid=516f14a4-04fe-406e-80c1-e9be448aafa5"},"vehicle_type_id":"4","last_reported":1734095996,"current_range_meters":38800,"station_id":"ce4bgs12rcd13ifvqcag","pricing_plan_id":"cebpf4jnsgd1na2vs0mg"},{"bike_id":"c66f0454-3e74-494e-aaa0-29cb545d1f03","system_id":"levelo_inurba_marseille","lat":43.26544,"lon":5.39049,"is_reserved":false,"is_disabled":false,"rental_uris":{"android":"levelo://app?vid=c66f0454-3e74-494e-aaa0-29cb545d1f03","ios":"levelo://app?vid=c66f0454-3e74-494e-aaa0-29cb545d1f03"},"vehicle_type_id":"4","last_reported":1734095996,"current_range_meters":18000,"station_id":"ce4bhe12rcd13ifvqf30","pricing_plan_id":"cebpf4jnsgd1na2vs0mg"},{"bike_id":"75d005f1-a104-4287-b501-1002db049ee7","system_id":"levelo_inurba_marseille","lat":43.33729,"lon":5.39223,"is_reserved":false,"is_disabled":false,"rental_uris":{"android":"levelo://app?vid=75d005f1-a104-4287-b501-1002db049ee7","ios":"levelo://app?vid=75d005f1-a104-4287-b501-1002db049ee7"},"vehicle_type_id":"4","last_reported":1734095996,"current_range_meters":38800,"station_id":"ce4bhr92rcd13ifvqhsg","pricing_plan_id":"cebpf4jnsgd1na2vs0mg"},{"bike_id":"9c1ce7b6-f5d4-48dd-b699-4ec030edf6d0","system_id":"levelo_inurba_marseille","lat":43.33033,"lon":5.39042,"is_reserved":false,"is_disabled":false,"rental_uris":{"android":"levelo://app?vid=9c1ce7b6-f5d4-48dd-b699-4ec030edf6d0","ios":"levelo://app?vid=9c1ce7b6-f5d4-48dd-b699-4ec030edf6d0"},"vehicle_type_id":"4","last_reported":1734095996,"current_range_meters":16800,"station_id":"ce4bhr92rcd13ifvqhrg","pricing_plan_id":"cebpf4jnsgd1na2vs0mg"},{"bike_id":"322ed3aa-07f1-459c-bc97-a084d4435e5f","system_id":"levelo_inurba_marseille","lat":43.31481,"lon":5.37305,"is_reserved":false,"is_disabled":false,"rental_uris":{"android":"levelo://app?vid=322ed3aa-07f1-459c-bc97-a084d4435e5f","ios":"levelo://app?vid=322ed3aa-07f1-459c-bc97-a084d4435e5f"},"vehicle_type_id":"4","last_reported":1734095996,"current_range_meters":28000,"station_id":"ce4bgt12rcd13ifvqcd0","pricing_plan_id":"cebpf4jnsgd1na2vs0mg"},{"bike_id":"30b7f7b0-cffb-44e8-9e23-86428fe1183d","system_id":"levelo_inurba_marseille","lat":43.23054,"lon":5.3552,"is_reserved":false,"is_disabled":false,"rental_uris":{"android":"levelo://app?vid=30b7f7b0-cffb-44e8-9e23-86428fe1183d","ios":"levelo://app?vid=30b7f7b0-cffb-44e8-9e23-86428fe1183d"},"vehicle_type_id":"4","last_reported":1734095996,"current_range_meters":38400,"station_id":"cpo3342slgdg3j2ifvpg","pricing_plan_id":"cebpf4jnsgd1na2vs0mg"},{"bike_id":"a5156622-88e2-4ac0-9647-87aea9d964c8","system_id":"levelo_inurba_marseille","lat":43.29934,"lon":5.36554,"is_reserved":false,"is_disabled":false,"rental_uris":{"android":"levelo://app?vid=a5156622-88e2-4ac0-9647-87aea9d964c8","ios":"levelo://app?vid=a5156622-88e2-4ac0-9647-87aea9d964c8"},"vehicle_type_id":"4","last_reported":1734095996,"current_range_meters":12000,"station_id":"ce4bgm92rcd13ifvqbr0","pricing_plan_id":"cebpf4jnsgd1na2vs0mg"},{"bike_id":"c962957d-ec10-4997-96e1-a869343f922e","system_id":"levelo_inurba_marseille","lat":43.32657,"lon":5.36111,"is_reserved":false,"is_disabled":false,"rental_uris":{"android":"levelo://app?vid=c962957d-ec10-4997-96e1-a869343f922e","ios":"levelo://app?vid=c962957d-ec10-4997-96e1-a869343f922e"},"vehicle_type_id":"4","last_reported":1734095996,"current_range_meters":6000,"station_id":"","pricing_plan_id":"cebpf4jnsgd1na2vs0mg"},{"bike_id":"7906f1d8-f676-4e86-bb36-c3a9dd69bddb","system_id":"levelo_inurba_marseille","lat":43.30134,"lon":5.37417,"is_reserved":false,"is_disabled":false,"rental_uris":{"android":"levelo://app?vid=7906f1d8-f676-4e86-bb36-c3a9dd69bddb","ios":"levelo://app?vid=7906f1d8-f676-4e86-bb36-c3a9dd69bddb"},"vehicle_type_id":"4","last_reported":1734095996,"current_range_meters":34800,"station_id":"ce4bgs92rcd13ifvqcc0","pricing_plan_id":"cebpf4jnsgd1na2vs0mg"},{"bike_id":"f32f3c09-0c3b-40e3-9564-562a24faf68c","system_id":"levelo_inurba_marseille","lat":43.28616,"lon":5.35117,"is_reserved":false,"is_disabled":false,"rental_uris":{"android":"levelo://app?vid=f32f3c09-0c3b-40e3-9564-562a24faf68c","ios":"levelo://app?vid=f32f3c09-0c3b-40e3-9564-562a24faf68c"},"vehicle_type_id":"4","last_reported":1734095996,"current_range_meters":33200,"station_id":"ce4bhch2rcd13ifvqeug","pricing_plan_id":"cebpf4jnsgd1na2vs0mg"},{"bike_id":"5313f15a-6be9-4e32-afca-b26d6d5068af","system_id":"levelo_inurba_marseille","lat":43.26544,"lon":5.39025,"is_reserved":false,"is_disabled":false,"rental_uris":{"android":"levelo://app?vid=5313f15a-6be9-4e32-afca-b26d6d5068af","ios":"levelo://app?vid=5313f15a-6be9-4e32-afca-b26d6d5068af"},"vehicle_type_id":"4","last_reported":1734095996,"current_range_meters":6800,"station_id":"ce4bhe12rcd13ifvqf30","pricing_plan_id":"cebpf4jnsgd1na2vs0mg"},{"bike_id":"7123aa8b-c80e-4f40-9072-be578e43de12","system_id":"levelo_inurba_marseille","lat":43.30132,"lon":5.37428,"is_reserved":false,"is_disabled":false,"rental_uris":{"android":"levelo://app?vid=7123aa8b-c80e-4f40-9072-be578e43de12","ios":"levelo://app?vid=7123aa8b-c80e-4f40-9072-be578e43de12"},"vehicle_type_id":"4","last_reported":1734095996,"current_range_meters":30400,"station_id":"ce4bgs92rcd13ifvqcc0","pricing_plan_id":"cebpf4jnsgd1na2vs0mg"},{"bike_id":"25ff195e-8838-42e4-9658-3de44861968d","system_id":"levelo_inurba_marseille","lat":43.27972,"lon":5.38741,"is_reserved":false,"is_disabled":true,"rental_uris":{"android":"levelo://app?vid=25ff195e-8838-42e4-9658-3de44861968d","ios":"levelo://app?vid=25ff195e-8838-42e4-9658-3de44861968d"},"vehicle_type_id":"4","last_reported":1734095996,"current_range_meters":1200,"station_id":"ce4bhg12rcd13ifvqf80","pricing_plan_id":"cebpf4jnsgd1na2vs0mg"},{"bike_id":"da345435-a4ab-4142-96e2-d4c3515056c7","system_id":"levelo_inurba_marseille","lat":43.30131,"lon":5.38796,"is_reserved":false,"is_disabled":true,"rental_uris":{"android":"levelo://app?vid=da345435-a4ab-4142-96e2-d4c3515056c7","ios":"levelo://app?vid=da345435-a4ab-4142-96e2-d4c3515056c7"},"vehicle_type_id":"4","last_reported":1734095996,"current_range_meters":0,"station_id":"ce4bghh2rcd13ifvqb60","pricing_plan_id":"cebpf4jnsgd1na2vs0mg"},{"bike_id":"1f569fb1-5314-48af-abe3-83ce7f284a13","system_id":"levelo_inurba_marseille","lat":43.33718,"lon":5.39192,"is_reserved":false,"is_disabled":false,"rental_uris":{"android":"levelo://app?vid=1f569fb1-5314-48af-abe3-83ce7f284a13","ios":"levelo://app?vid=1f569fb1-5314-48af-abe3-83ce7f284a13"},"vehicle_type_id":"4","last_reported":1734095996,"current_range_meters":19200,"station_id":"ce4bhr92rcd13ifvqhsg","pricing_plan_id":"cebpf4jnsgd1na2vs0mg"},{"bike_id":"8f30775a-b911-4f3b-adca-e2ccfd5c0edb","system_id":"levelo_inurba_marseille","lat":43.25936,"lon":5.40906,"is_reserved":false,"is_disabled":false,"rental_uris":{"android":"levelo://app?vid=8f30775a-b911-4f3b-adca-e2ccfd5c0edb","ios":"levelo://app?vid=8f30775a-b911-4f3b-adca-e2ccfd5c0edb"},"vehicle_type_id":"4","last_reported":1734095996,"current_range_meters":38400,"station_id":"ce4bhm92rcd13ifvqglg","pricing_plan_id":"cebpf4jnsgd1na2vs0mg"},{"bike_id":"246c7cb4-a1ed-488e-9b2f-1d2024ac9c9e","system_id":"levelo_inurba_marseille","lat":43.25116,"lon":5.40325,"is_reserved":true,"is_disabled":false,"rental_uris":{"android":"levelo://app?vid=246c7cb4-a1ed-488e-9b2f-1d2024ac9c9e","ios":"levelo://app?vid=246c7cb4-a1ed-488e-9b2f-1d2024ac9c9e"},"vehicle_type_id":"4","last_reported":1734095996,"current_range_meters":35600,"station_id":"ce4bhlh2rcd13ifvqgig","pricing_plan_id":"cebpf4jnsgd1na2vs0mg"},{"bike_id":"143ccd8e-9541-44bb-a0f3-805b2d1001bb","system_id":"levelo_inurba_marseille","lat":43.291966,"lon":5.393304,"is_reserved":false,"is_disabled":false,"rental_uris":{"android":"levelo://app?vid=143ccd8e-9541-44bb-a0f3-805b2d1001bb","ios":"levelo://app?vid=143ccd8e-9541-44bb-a0f3-805b2d1001bb"},"vehicle_type_id":"4","last_reported":1734095996,"current_range_meters":19200,"station_id":"ce4bh192rcd13ifvqdd0","pricing_plan_id":"cebpf4jnsgd1na2vs0mg"},{"bike_id":"3e4a2260-2062-4f7c-a6b0-f7b72abe1092","system_id":"levelo_inurba_marseille","lat":43.29613,"lon":5.37728,"is_reserved":false,"is_disabled":false,"rental_uris":{"android":"levelo://app?vid=3e4a2260-2062-4f7c-a6b0-f7b72abe1092","ios":"levelo://app?vid=3e4a2260-2062-4f7c-a6b0-f7b72abe1092"},"vehicle_type_id":"4","last_reported":1734095996,"current_range_meters":7200,"station_id":"ce4bgi92rcd13ifvqb90","pricing_plan_id":"cebpf4jnsgd1na2vs0mg"},{"bike_id":"ec2921c6-737d-429d-9d7b-2d79651e0954","system_id":"levelo_inurba_marseille","lat":43.27996,"lon":5.41666,"is_reserved":false,"is_disabled":false,"rental_uris":{"android":"levelo://app?vid=ec2921c6-737d-429d-9d7b-2d79651e0954","ios":"levelo://app?vid=ec2921c6-737d-429d-9d7b-2d79651e0954"},"vehicle_type_id":"4","last_reported":1734095996,"current_range_meters":28800,"station_id":"ce4bho12rcd13ifvqh1g","pricing_plan_id":"cebpf4jnsgd1na2vs0mg"},{"bike_id":"4197bb5b-3d5d-4fe9-bf08-63b8e5f1af74","system_id":"levelo_inurba_marseille","lat":43.26917,"lon":5.4028,"is_reserved":false,"is_disabled":false,"rental_uris":{"android":"levelo://app?vid=4197bb5b-3d5d-4fe9-bf08-63b8e5f1af74","ios":"levelo://app?vid=4197bb5b-3d5d-4fe9-bf08-63b8e5f1af74"},"vehicle_type_id":"4","last_reported":1734095996,"current_range_meters":30400,"station_id":"cjm6bp8fraef2m0cb0m0","pricing_plan_id":"cebpf4jnsgd1na2vs0mg"},{"bike_id":"af67ac53-ba21-4ff0-8334-95679e9ff2cc","system_id":"levelo_inurba_marseille","lat":43.278805,"lon":5.388003,"is_reserved":false,"is_disabled":true,"rental_uris":{"android":"levelo://app?vid=af67ac53-ba21-4ff0-8334-95679e9ff2cc","ios":"levelo://app?vid=af67ac53-ba21-4ff0-8334-95679e9ff2cc"},"vehicle_type_id":"4","last_reported":1734095996,"current_range_meters":6400,"station_id":"","pricing_plan_id":"cebpf4jnsgd1na2vs0mg"},{"bike_id":"fe19895c-d4e5-4b5d-96e9-2c3719a837b2","system_id":"levelo_inurba_marseille","lat":43.30761,"lon":5.3766,"is_reserved":false,"is_disabled":false,"rental_uris":{"android":"levelo://app?vid=fe19895c-d4e5-4b5d-96e9-2c3719a837b2","ios":"levelo://app?vid=fe19895c-d4e5-4b5d-96e9-2c3719a837b2"},"vehicle_type_id":"4","last_reported":1734095996,"current_range_meters":38800,"station_id":"ce4bgv92rcd13ifvqcq0","pricing_plan_id":"cebpf4jnsgd1na2vs0mg"},{"bike_id":"8b5189dc-4e2c-49ea-b1ac-d8d0509a19c1","system_id":"levelo_inurba_marseille","lat":43.29708,"lon":5.36609,"is_reserved":false,"is_disabled":false,"rental_uris":{"android":"levelo://app?vid=8b5189dc-4e2c-49ea-b1ac-d8d0509a19c1","ios":"levelo://app?vid=8b5189dc-4e2c-49ea-b1ac-d8d0509a19c1"},"vehicle_type_id":"4","last_reported":1734095996,"current_range_meters":30000,"station_id":"ce4bgn12rcd13ifvqbt0","pricing_plan_id":"cebpf4jnsgd1na2vs0mg"},{"bike_id":"1863e5bb-1339-4a2a-a04e-e9e9d05a787a","system_id":"levelo_inurba_marseille","lat":43.29083,"lon":5.37131,"is_reserved":false,"is_disabled":true,"rental_uris":{"android":"levelo://app?vid=1863e5bb-1339-4a2a-a04e-e9e9d05a787a","ios":"levelo://app?vid=1863e5bb-1339-4a2a-a04e-e9e9d05a787a"},"vehicle_type_id":"4","last_reported":1734095996,"current_range_meters":38800,"station_id":"ce4bh5p2rcd13ifvqe4g","pricing_plan_id":"cebpf4jnsgd1na2vs0mg"},{"bike_id":"d8d7ffef-ae54-446a-a28c-8265164b47ce","system_id":"levelo_inurba_marseille","lat":43.29163,"lon":5.43911,"is_reserved":false,"is_disabled":true,"rental_uris":{"android":"levelo://app?vid=d8d7ffef-ae54-446a-a28c-8265164b47ce","ios":"levelo://app?vid=d8d7ffef-ae54-446a-a28c-8265164b47ce"},"vehicle_type_id":"4","last_reported":1734095996,"current_range_meters":30000,"station_id":"","pricing_plan_id":"cebpf4jnsgd1na2vs0mg"},{"bike_id":"bb197cd8-509a-4aab-ae35-2b05343decc5","system_id":"levelo_inurba_marseille","lat":43.31701,"lon":5.37747,"is_reserved":false,"is_disabled":false,"rental_uris":{"android":"levelo://app?vid=bb197cd8-509a-4aab-ae35-2b05343decc5","ios":"levelo://app?vid=bb197cd8-509a-4aab-ae35-2b05343decc5"},"vehicle_type_id":"4","last_reported":1734095996,"current_range_meters":34000,"station_id":"ce4bgth2rcd13ifvqch0","pricing_plan_id":"cebpf4jnsgd1na2vs0mg"},{"bike_id":"c5768e7e-b244-4dfc-973f-384fac771fcc","system_id":"levelo_inurba_marseille","lat":43.27978,"lon":5.41657,"is_reserved":false,"is_disabled":true,"rental_uris":{"android":"levelo://app?vid=c5768e7e-b244-4dfc-973f-384fac771fcc","ios":"levelo://app?vid=c5768e7e-b244-4dfc-973f-384fac771fcc"},"vehicle_type_id":"4","last_reported":1734095996,"current_range_meters":0,"station_id":"ce4bho12rcd13ifvqh1g","pricing_plan_id":"cebpf4jnsgd1na2vs0mg"},{"bike_id":"d65fcea9-51ba-41f0-86fd-e798dfdd6f09","system_id":"levelo_inurba_marseille","lat":43.28681,"lon":5.38332,"is_reserved":false,"is_disabled":true,"rental_uris":{"android":"levelo://app?vid=d65fcea9-51ba-41f0-86fd-e798dfdd6f09","ios":"levelo://app?vid=d65fcea9-51ba-41f0-86fd-e798dfdd6f09"},"vehicle_type_id":"4","last_reported":1734095996,"current_range_meters":0,"station_id":"","pricing_plan_id":"cebpf4jnsgd1na2vs0mg"},{"bike_id":"ffa9c38d-b292-42e8-9406-b34661d360c3","system_id":"levelo_inurba_marseille","lat":43.29507,"lon":5.39399,"is_reserved":false,"is_disabled":false,"rental_uris":{"android":"levelo://app?vid=ffa9c38d-b292-42e8-9406-b34661d360c3","ios":"levelo://app?vid=ffa9c38d-b292-42e8-9406-b34661d360c3"},"vehicle_type_id":"4","last_reported":1734095996,"current_range_meters":3600,"station_id":"ce4bh292rcd13ifvqdf0","pricing_plan_id":"cebpf4jnsgd1na2vs0mg"},{"bike_id":"3cffa040-7e8b-4d9e-a1bd-b8a78d782447","system_id":"levelo_inurba_marseille","lat":43.314905,"lon":5.373088,"is_reserved":false,"is_disabled":true,"rental_uris":{"android":"levelo://app?vid=3cffa040-7e8b-4d9e-a1bd-b8a78d782447","ios":"levelo://app?vid=3cffa040-7e8b-4d9e-a1bd-b8a78d782447"},"vehicle_type_id":"4","last_reported":1734095996,"current_range_meters":3600,"station_id":"","pricing_plan_id":"cebpf4jnsgd1na2vs0mg"},{"bike_id":"7e49be71-0e26-44b2-83c0-bc0ababab313","system_id":"levelo_inurba_marseille","lat":43.26541,"lon":5.39018,"is_reserved":false,"is_disabled":false,"rental_uris":{"android":"levelo://app?vid=7e49be71-0e26-44b2-83c0-bc0ababab313","ios":"levelo://app?vid=7e49be71-0e26-44b2-83c0-bc0ababab313"},"vehicle_type_id":"4","last_reported":1734095996,"current_range_meters":38800,"station_id":"ce4bhe12rcd13ifvqf30","pricing_plan_id":"cebpf4jnsgd1na2vs0mg"},{"bike_id":"e7cfd852-9909-436d-bad5-f8e28209031c","system_id":"levelo_inurba_marseille","lat":43.26937,"lon":5.40248,"is_reserved":true,"is_disabled":false,"rental_uris":{"android":"levelo://app?vid=e7cfd852-9909-436d-bad5-f8e28209031c","ios":"levelo://app?vid=e7cfd852-9909-436d-bad5-f8e28209031c"},"vehicle_type_id":"4","last_reported":1734095996,"current_range_meters":38800,"station_id":"cjm6bp8fraef2m0cb0m0","pricing_plan_id":"cebpf4jnsgd1na2vs0mg"},{"bike_id":"985f7d50-5c6d-4cf1-a335-af474ddc9e1f","system_id":"levelo_inurba_marseille","lat":43.3227,"lon":5.39455,"is_reserved":false,"is_disabled":false,"rental_uris":{"android":"levelo://app?vid=985f7d50-5c6d-4cf1-a335-af474ddc9e1f","ios":"levelo://app?vid=985f7d50-5c6d-4cf1-a335-af474ddc9e1f"},"vehicle_type_id":"4","last_reported":1734095996,"current_range_meters":8400,"station_id":"","pricing_plan_id":"cebpf4jnsgd1na2vs0mg"},{"bike_id":"64203de9-e72b-4d66-9a84-7a315c7ed37f","system_id":"levelo_inurba_marseille","lat":43.29395,"lon":5.37452,"is_reserved":false,"is_disabled":true,"rental_uris":{"android":"levelo://app?vid=64203de9-e72b-4d66-9a84-7a315c7ed37f","ios":"levelo://app?vid=64203de9-e72b-4d66-9a84-7a315c7ed37f"},"vehicle_type_id":"4","last_reported":1734095996,"current_range_meters":0,"station_id":"","pricing_plan_id":"cebpf4jnsgd1na2vs0mg"},{"bike_id":"bacb56f3-a1e5-4f53-9f37-bab954d675f8","system_id":"levelo_inurba_marseille","lat":43.33606,"lon":5.41034,"is_reserved":false,"is_disabled":false,"rental_uris":{"android":"levelo://app?vid=bacb56f3-a1e5-4f53-9f37-bab954d675f8","ios":"levelo://app?vid=bacb56f3-a1e5-4f53-9f37-bab954d675f8"},"vehicle_type_id":"4","last_reported":1734095996,"current_range_meters":4800,"station_id":"ce4bhqh2rcd13ifvqhmg","pricing_plan_id":"cebpf4jnsgd1na2vs0mg"},{"bike_id":"c9179a56-6ac3-49b3-8785-0da77ec0b66c","system_id":"levelo_inurba_marseille","lat":43.29837,"lon":5.36263,"is_reserved":false,"is_disabled":false,"rental_uris":{"android":"levelo://app?vid=c9179a56-6ac3-49b3-8785-0da77ec0b66c","ios":"levelo://app?vid=c9179a56-6ac3-49b3-8785-0da77ec0b66c"},"vehicle_type_id":"4","last_reported":1734095996,"current_range_meters":39200,"station_id":"ce4bgpp2rcd13ifvqc3g","pricing_plan_id":"cebpf4jnsgd1na2vs0mg"},{"bike_id":"601f050d-9d6e-466c-b963-7c607a9453fd","system_id":"levelo_inurba_marseille","lat":43.26554,"lon":5.37289,"is_reserved":false,"is_disabled":false,"rental_uris":{"android":"levelo://app?vid=601f050d-9d6e-466c-b963-7c607a9453fd","ios":"levelo://app?vid=601f050d-9d6e-466c-b963-7c607a9453fd"},"vehicle_type_id":"4","last_reported":1734095996,"current_range_meters":16000,"station_id":"ce4bhg12rcd13ifvqf70","pricing_plan_id":"cebpf4jnsgd1na2vs0mg"},{"bike_id":"09a8e005-9af8-4ba5-9a89-5f289a3b7f45","system_id":"levelo_inurba_marseille","lat":43.29265,"lon":5.40904,"is_reserved":false,"is_disabled":false,"rental_uris":{"android":"levelo://app?vid=09a8e005-9af8-4ba5-9a89-5f289a3b7f45","ios":"levelo://app?vid=09a8e005-9af8-4ba5-9a89-5f289a3b7f45"},"vehicle_type_id":"4","last_reported":1734095996,"current_range_meters":10000,"station_id":"ce4bh192rcd13ifvqdc0","pricing_plan_id":"cebpf4jnsgd1na2vs0mg"},{"bike_id":"f4723ee9-77fc-40fa-84a0-3a8c27c9758d","system_id":"levelo_inurba_marseille","lat":43.27071,"lon":5.42279,"is_reserved":false,"is_disabled":false,"rental_uris":{"android":"levelo://app?vid=f4723ee9-77fc-40fa-84a0-3a8c27c9758d","ios":"levelo://app?vid=f4723ee9-77fc-40fa-84a0-3a8c27c9758d"},"vehicle_type_id":"4","last_reported":1734095996,"current_range_meters":28000,"station_id":"ce4bhk92rcd13ifvqgb0","pricing_plan_id":"cebpf4jnsgd1na2vs0mg"},{"bike_id":"83697503-ebb6-4133-8865-690e94a16a9b","system_id":"levelo_inurba_marseille","lat":43.24168,"lon":5.39714,"is_reserved":false,"is_disabled":true,"rental_uris":{"android":"levelo://app?vid=83697503-ebb6-4133-8865-690e94a16a9b","ios":"levelo://app?vid=83697503-ebb6-4133-8865-690e94a16a9b"},"vehicle_type_id":"4","last_reported":1734095996,"current_range_meters":0,"station_id":"ce4bhn12rcd13ifvqgpg","pricing_plan_id":"cebpf4jnsgd1na2vs0mg"},{"bike_id":"7efeaa2d-a794-4424-afb0-d7954420ea73","system_id":"levelo_inurba_marseille","lat":43.29033,"lon":5.39965,"is_reserved":false,"is_disabled":false,"rental_uris":{"android":"levelo://app?vid=7efeaa2d-a794-4424-afb0-d7954420ea73","ios":"levelo://app?vid=7efeaa2d-a794-4424-afb0-d7954420ea73"},"vehicle_type_id":"4","last_reported":1734095996,"current_range_meters":32800,"station_id":"ce4bh392rcd13ifvqdm0","pricing_plan_id":"cebpf4jnsgd1na2vs0mg"},{"bike_id":"18449eca-7cd4-4637-aad8-d740a9109818","system_id":"levelo_inurba_marseille","lat":43.26822,"lon":5.40251,"is_reserved":false,"is_disabled":false,"rental_uris":{"android":"levelo://app?vid=18449eca-7cd4-4637-aad8-d740a9109818","ios":"levelo://app?vid=18449eca-7cd4-4637-aad8-d740a9109818"},"vehicle_type_id":"4","last_reported":1734095996,"current_range_meters":38800,"station_id":"ce501612rcd8frsf0b60","pricing_plan_id":"cebpf4jnsgd1na2vs0mg"},{"bike_id":"45209acf-d7a2-4a5a-abb0-bfce209c5bf7","system_id":"levelo_inurba_marseille","lat":43.306,"lon":5.37243,"is_reserved":false,"is_disabled":false,"rental_uris":{"android":"levelo://app?vid=45209acf-d7a2-4a5a-abb0-bfce209c5bf7","ios":"levelo://app?vid=45209acf-d7a2-4a5a-abb0-bfce209c5bf7"},"vehicle_type_id":"4","last_reported":1734095996,"current_range_meters":32000,"station_id":"ce4bgqh2rcd13ifvqc4g","pricing_plan_id":"cebpf4jnsgd1na2vs0mg"},{"bike_id":"6001e068-b33d-42bd-b0db-4242457fdf93","system_id":"levelo_inurba_marseille","lat":43.29981,"lon":5.38476,"is_reserved":false,"is_disabled":false,"rental_uris":{"android":"levelo://app?vid=6001e068-b33d-42bd-b0db-4242457fdf93","ios":"levelo://app?vid=6001e068-b33d-42bd-b0db-4242457fdf93"},"vehicle_type_id":"4","last_reported":1734095996,"current_range_meters":6000,"station_id":"ce4bgj92rcd13ifvqbd0","pricing_plan_id":"cebpf4jnsgd1na2vs0mg"},{"bike_id":"3772e04e-41fd-4726-adc0-6c20ef0530a6","system_id":"levelo_inurba_marseille","lat":43.31996,"lon":5.38153,"is_reserved":false,"is_disabled":false,"rental_uris":{"android":"levelo://app?vid=3772e04e-41fd-4726-adc0-6c20ef0530a6","ios":"levelo://app?vid=3772e04e-41fd-4726-adc0-6c20ef0530a6"},"vehicle_type_id":"4","last_reported":1734095996,"current_range_meters":16400,"station_id":"ce4bhr12rcd13ifvqhpg","pricing_plan_id":"cebpf4jnsgd1na2vs0mg"},{"bike_id":"6fd4dc5c-4b5f-45f6-a12b-2e291ab1540b","system_id":"levelo_inurba_marseille","lat":43.29973,"lon":5.37185,"is_reserved":false,"is_disabled":false,"rental_uris":{"android":"levelo://app?vid=6fd4dc5c-4b5f-45f6-a12b-2e291ab1540b","ios":"levelo://app?vid=6fd4dc5c-4b5f-45f6-a12b-2e291ab1540b"},"vehicle_type_id":"4","last_reported":1734095996,"current_range_meters":26000,"station_id":"ce4bgr92rcd13ifvqc7g","pricing_plan_id":"cebpf4jnsgd1na2vs0mg"},{"bike_id":"e939de06-d909-4758-b8f3-8d43330311ae","system_id":"levelo_inurba_marseille","lat":43.25559,"lon":5.38237,"is_reserved":false,"is_disabled":false,"rental_uris":{"android":"levelo://app?vid=e939de06-d909-4758-b8f3-8d43330311ae","ios":"levelo://app?vid=e939de06-d909-4758-b8f3-8d43330311ae"},"vehicle_type_id":"4","last_reported":1734095996,"current_range_meters":36800,"station_id":"ce4bhih2rcd13ifvqfs0","pricing_plan_id":"cebpf4jnsgd1na2vs0mg"},{"bike_id":"06536989-5409-4147-a3fb-466ee8745405","system_id":"levelo_inurba_marseille","lat":43.29104,"lon":5.3813,"is_reserved":false,"is_disabled":false,"rental_uris":{"android":"levelo://app?vid=06536989-5409-4147-a3fb-466ee8745405","ios":"levelo://app?vid=06536989-5409-4147-a3fb-466ee8745405"},"vehicle_type_id":"4","last_reported":1734095996,"current_range_meters":27600,"station_id":"ce4bh512rcd13ifvqe2g","pricing_plan_id":"cebpf4jnsgd1na2vs0mg"},{"bike_id":"82a3e1e8-535f-4f5d-8150-e7487c1a69ad","system_id":"levelo_inurba_marseille","lat":43.24043,"lon":5.37776,"is_reserved":false,"is_disabled":false,"rental_uris":{"android":"levelo://app?vid=82a3e1e8-535f-4f5d-8150-e7487c1a69ad","ios":"levelo://app?vid=82a3e1e8-535f-4f5d-8150-e7487c1a69ad"},"vehicle_type_id":"4","last_reported":1734095996,"current_range_meters":36400,"station_id":"ce4bhnp2rcd13ifvqgvg","pricing_plan_id":"cebpf4jnsgd1na2vs0mg"},{"bike_id":"c9e1454b-54c0-42a6-b3fa-918fdc07bf7b","system_id":"levelo_inurba_marseille","lat":43.30138,"lon":5.37429,"is_reserved":false,"is_disabled":false,"rental_uris":{"android":"levelo://app?vid=c9e1454b-54c0-42a6-b3fa-918fdc07bf7b","ios":"levelo://app?vid=c9e1454b-54c0-42a6-b3fa-918fdc07bf7b"},"vehicle_type_id":"4","last_reported":1734095996,"current_range_meters":38800,"station_id":"ce4bgs92rcd13ifvqcc0","pricing_plan_id":"cebpf4jnsgd1na2vs0mg"},{"bike_id":"7d2ac4e9-c65a-4d16-8b86-8a263de6f5be","system_id":"levelo_inurba_marseille","lat":43.29794,"lon":5.38127,"is_reserved":false,"is_disabled":false,"rental_uris":{"android":"levelo://app?vid=7d2ac4e9-c65a-4d16-8b86-8a263de6f5be","ios":"levelo://app?vid=7d2ac4e9-c65a-4d16-8b86-8a263de6f5be"},"vehicle_type_id":"4","last_reported":1734095996,"current_range_meters":36800,"station_id":"ce4bgip2rcd13ifvqbb0","pricing_plan_id":"cebpf4jnsgd1na2vs0mg"},{"bike_id":"b911a503-342b-423f-b0e4-ff53caf217f3","system_id":"levelo_inurba_marseille","lat":43.29001,"lon":5.3561,"is_reserved":false,"is_disabled":false,"rental_uris":{"android":"levelo://app?vid=b911a503-342b-423f-b0e4-ff53caf217f3","ios":"levelo://app?vid=b911a503-342b-423f-b0e4-ff53caf217f3"},"vehicle_type_id":"4","last_reported":1734095996,"current_range_meters":29600,"station_id":"ce4bhb92rcd13ifvqen0","pricing_plan_id":"cebpf4jnsgd1na2vs0mg"},{"bike_id":"ccc9e736-395b-4466-94dc-6a787309142a","system_id":"levelo_inurba_marseille","lat":43.30339,"lon":5.36806,"is_reserved":false,"is_disabled":false,"rental_uris":{"android":"levelo://app?vid=ccc9e736-395b-4466-94dc-6a787309142a","ios":"levelo://app?vid=ccc9e736-395b-4466-94dc-6a787309142a"},"vehicle_type_id":"4","last_reported":1734095996,"current_range_meters":10000,"station_id":"","pricing_plan_id":"cebpf4jnsgd1na2vs0mg"},{"bike_id":"97b55a38-976a-4015-b3d7-3ad989b0be89","system_id":"levelo_inurba_marseille","lat":43.33017,"lon":5.39032,"is_reserved":false,"is_disabled":false,"rental_uris":{"android":"levelo://app?vid=97b55a38-976a-4015-b3d7-3ad989b0be89","ios":"levelo://app?vid=97b55a38-976a-4015-b3d7-3ad989b0be89"},"vehicle_type_id":"4","last_reported":1734095996,"current_range_meters":38800,"station_id":"ce4bhr92rcd13ifvqhrg","pricing_plan_id":"cebpf4jnsgd1na2vs0mg"},{"bike_id":"c92ea69e-782f-4ada-a32b-667972a0ade2","system_id":"levelo_inurba_marseille","lat":43.29198,"lon":5.39318,"is_reserved":false,"is_disabled":false,"rental_uris":{"android":"levelo://app?vid=c92ea69e-782f-4ada-a32b-667972a0ade2","ios":"levelo://app?vid=c92ea69e-782f-4ada-a32b-667972a0ade2"},"vehicle_type_id":"4","last_reported":1734095996,"current_range_meters":38800,"station_id":"ce4bh192rcd13ifvqdd0","pricing_plan_id":"cebpf4jnsgd1na2vs0mg"},{"bike_id":"c5cf1ad5-da4b-4aba-b795-7ef391c538f4","system_id":"levelo_inurba_marseille","lat":43.30353,"lon":5.41867,"is_reserved":false,"is_disabled":false,"rental_uris":{"android":"levelo://app?vid=c5cf1ad5-da4b-4aba-b795-7ef391c538f4","ios":"levelo://app?vid=c5cf1ad5-da4b-4aba-b795-7ef391c538f4"},"vehicle_type_id":"4","last_reported":1734095996,"current_range_meters":9600,"station_id":"ce4bhop2rcd13ifvqh7g","pricing_plan_id":"cebpf4jnsgd1na2vs0mg"},{"bike_id":"265a59a5-1f8b-40cd-bb56-038ad2f60a5d","system_id":"levelo_inurba_marseille","lat":43.29038,"lon":5.3998,"is_reserved":false,"is_disabled":true,"rental_uris":{"android":"levelo://app?vid=265a59a5-1f8b-40cd-bb56-038ad2f60a5d","ios":"levelo://app?vid=265a59a5-1f8b-40cd-bb56-038ad2f60a5d"},"vehicle_type_id":"4","last_reported":1734095996,"current_range_meters":38000,"station_id":"ce4bh392rcd13ifvqdm0","pricing_plan_id":"cebpf4jnsgd1na2vs0mg"},{"bike_id":"9cae785b-bd39-4a7b-8aad-0b48af8c98e6","system_id":"levelo_inurba_marseille","lat":43.248,"lon":5.37462,"is_reserved":false,"is_disabled":false,"rental_uris":{"android":"levelo://app?vid=9cae785b-bd39-4a7b-8aad-0b48af8c98e6","ios":"levelo://app?vid=9cae785b-bd39-4a7b-8aad-0b48af8c98e6"},"vehicle_type_id":"4","last_reported":1734095996,"current_range_meters":25200,"station_id":"ce4bhgh2rcd13ifvqfb0","pricing_plan_id":"cebpf4jnsgd1na2vs0mg"},{"bike_id":"6bc7401a-ad66-4e4d-bfd6-a954bc5b40c0","system_id":"levelo_inurba_marseille","lat":43.337527,"lon":5.37441,"is_reserved":false,"is_disabled":false,"rental_uris":{"android":"levelo://app?vid=6bc7401a-ad66-4e4d-bfd6-a954bc5b40c0","ios":"levelo://app?vid=6bc7401a-ad66-4e4d-bfd6-a954bc5b40c0"},"vehicle_type_id":"4","last_reported":1734095996,"current_range_meters":30000,"station_id":"","pricing_plan_id":"cebpf4jnsgd1na2vs0mg"},{"bike_id":"4bac8f48-0631-4c42-a0a3-9215ee2bf75e","system_id":"levelo_inurba_marseille","lat":43.28862,"lon":5.35863,"is_reserved":false,"is_disabled":false,"rental_uris":{"android":"levelo://app?vid=4bac8f48-0631-4c42-a0a3-9215ee2bf75e","ios":"levelo://app?vid=4bac8f48-0631-4c42-a0a3-9215ee2bf75e"},"vehicle_type_id":"4","last_reported":1734095996,"current_range_meters":30000,"station_id":"ce4bhb12rcd13ifvqem0","pricing_plan_id":"cebpf4jnsgd1na2vs0mg"},{"bike_id":"f0a4f587-2333-4a7a-8819-09121e495e1b","system_id":"levelo_inurba_marseille","lat":43.22935,"lon":5.3538,"is_reserved":false,"is_disabled":false,"rental_uris":{"android":"levelo://app?vid=f0a4f587-2333-4a7a-8819-09121e495e1b","ios":"levelo://app?vid=f0a4f587-2333-4a7a-8819-09121e495e1b"},"vehicle_type_id":"4","last_reported":1734095996,"current_range_meters":4400,"station_id":"cpo3532slgdg3j2ikp40","pricing_plan_id":"cebpf4jnsgd1na2vs0mg"},{"bike_id":"d03ed5ce-e520-4069-9e0e-9e1df4579056","system_id":"levelo_inurba_marseille","lat":43.29842,"lon":5.36283,"is_reserved":false,"is_disabled":false,"rental_uris":{"android":"levelo://app?vid=d03ed5ce-e520-4069-9e0e-9e1df4579056","ios":"levelo://app?vid=d03ed5ce-e520-4069-9e0e-9e1df4579056"},"vehicle_type_id":"4","last_reported":1734095996,"current_range_meters":37600,"station_id":"ce4bgpp2rcd13ifvqc3g","pricing_plan_id":"cebpf4jnsgd1na2vs0mg"},{"bike_id":"7ef92d55-7ad7-49c7-b174-ec42f301e973","system_id":"levelo_inurba_marseille","lat":43.31722,"lon":5.42403,"is_reserved":false,"is_disabled":false,"rental_uris":{"android":"levelo://app?vid=7ef92d55-7ad7-49c7-b174-ec42f301e973","ios":"levelo://app?vid=7ef92d55-7ad7-49c7-b174-ec42f301e973"},"vehicle_type_id":"4","last_reported":1734095996,"current_range_meters":35600,"station_id":"ce4bhp92rcd13ifvqhbg","pricing_plan_id":"cebpf4jnsgd1na2vs0mg"},{"bike_id":"0361a0de-08e4-4cb5-b64b-d268aaef6d0f","system_id":"levelo_inurba_marseille","lat":43.30964,"lon":5.39015,"is_reserved":false,"is_disabled":true,"rental_uris":{"android":"levelo://app?vid=0361a0de-08e4-4cb5-b64b-d268aaef6d0f","ios":"levelo://app?vid=0361a0de-08e4-4cb5-b64b-d268aaef6d0f"},"vehicle_type_id":"4","last_reported":1734095996,"current_range_meters":38800,"station_id":"ce4bgup2rcd13ifvqco0","pricing_plan_id":"cebpf4jnsgd1na2vs0mg"},{"bike_id":"1be4dfd7-b95c-4558-b62a-debc1f52eb94","system_id":"levelo_inurba_marseille","lat":43.28477,"lon":5.40898,"is_reserved":false,"is_disabled":false,"rental_uris":{"android":"levelo://app?vid=1be4dfd7-b95c-4558-b62a-debc1f52eb94","ios":"levelo://app?vid=1be4dfd7-b95c-4558-b62a-debc1f52eb94"},"vehicle_type_id":"4","last_reported":1734095996,"current_range_meters":38800,"station_id":"","pricing_plan_id":"cebpf4jnsgd1na2vs0mg"},{"bike_id":"eb1496f4-67ed-47fd-8660-60023378367f","system_id":"levelo_inurba_marseille","lat":43.294212,"lon":5.374322,"is_reserved":false,"is_disabled":true,"rental_uris":{"android":"levelo://app?vid=eb1496f4-67ed-47fd-8660-60023378367f","ios":"levelo://app?vid=eb1496f4-67ed-47fd-8660-60023378367f"},"vehicle_type_id":"4","last_reported":1734095996,"current_range_meters":0,"station_id":"","pricing_plan_id":"cebpf4jnsgd1na2vs0mg"},{"bike_id":"82c7aac2-0460-4c8f-b3e1-78528afe01d5","system_id":"levelo_inurba_marseille","lat":43.29026,"lon":5.38646,"is_reserved":false,"is_disabled":false,"rental_uris":{"android":"levelo://app?vid=82c7aac2-0460-4c8f-b3e1-78528afe01d5","ios":"levelo://app?vid=82c7aac2-0460-4c8f-b3e1-78528afe01d5"},"vehicle_type_id":"4","last_reported":1734095996,"current_range_meters":10800,"station_id":"ce4bh4p2rcd13ifvqe0g","pricing_plan_id":"cebpf4jnsgd1na2vs0mg"},{"bike_id":"a2e3bf37-f1e5-4b35-adeb-0da3e0fe69d3","system_id":"levelo_inurba_marseille","lat":43.286331,"lon":5.386029,"is_reserved":false,"is_disabled":true,"rental_uris":{"android":"levelo://app?vid=a2e3bf37-f1e5-4b35-adeb-0da3e0fe69d3","ios":"levelo://app?vid=a2e3bf37-f1e5-4b35-adeb-0da3e0fe69d3"},"vehicle_type_id":"4","last_reported":1734095996,"current_range_meters":0,"station_id":"","pricing_plan_id":"cebpf4jnsgd1na2vs0mg"},{"bike_id":"1bbbe1c0-13e3-4981-b3f4-e45d99dd306a","system_id":"levelo_inurba_marseille","lat":43.25579,"lon":5.38234,"is_reserved":false,"is_disabled":false,"rental_uris":{"android":"levelo://app?vid=1bbbe1c0-13e3-4981-b3f4-e45d99dd306a","ios":"levelo://app?vid=1bbbe1c0-13e3-4981-b3f4-e45d99dd306a"},"vehicle_type_id":"4","last_reported":1734095996,"current_range_meters":30000,"station_id":"ce4bhih2rcd13ifvqfs0","pricing_plan_id":"cebpf4jnsgd1na2vs0mg"},{"bike_id":"1b04d415-10b6-4085-a10e-8bba44c3d11d","system_id":"levelo_inurba_marseille","lat":43.26806,"lon":5.40274,"is_reserved":false,"is_disabled":false,"rental_uris":{"android":"levelo://app?vid=1b04d415-10b6-4085-a10e-8bba44c3d11d","ios":"levelo://app?vid=1b04d415-10b6-4085-a10e-8bba44c3d11d"},"vehicle_type_id":"4","last_reported":1734095996,"current_range_meters":34000,"station_id":"ce501612rcd8frsf0b60","pricing_plan_id":"cebpf4jnsgd1na2vs0mg"},{"bike_id":"4a5d153b-a605-4bb1-b3aa-23047b6c7ed2","system_id":"levelo_inurba_marseille","lat":43.30589,"lon":5.37231,"is_reserved":false,"is_disabled":false,"rental_uris":{"android":"levelo://app?vid=4a5d153b-a605-4bb1-b3aa-23047b6c7ed2","ios":"levelo://app?vid=4a5d153b-a605-4bb1-b3aa-23047b6c7ed2"},"vehicle_type_id":"4","last_reported":1734095996,"current_range_meters":33600,"station_id":"ce4bgqh2rcd13ifvqc4g","pricing_plan_id":"cebpf4jnsgd1na2vs0mg"},{"bike_id":"b4d92984-c875-4a33-afb1-2a516c6d2c05","system_id":"levelo_inurba_marseille","lat":43.2887,"lon":5.35842,"is_reserved":false,"is_disabled":false,"rental_uris":{"android":"levelo://app?vid=b4d92984-c875-4a33-afb1-2a516c6d2c05","ios":"levelo://app?vid=b4d92984-c875-4a33-afb1-2a516c6d2c05"},"vehicle_type_id":"4","last_reported":1734095996,"current_range_meters":36000,"station_id":"ce4bhb12rcd13ifvqem0","pricing_plan_id":"cebpf4jnsgd1na2vs0mg"},{"bike_id":"ec927667-9164-479a-b446-395f55c955bb","system_id":"levelo_inurba_marseille","lat":43.22925,"lon":5.35384,"is_reserved":false,"is_disabled":false,"rental_uris":{"android":"levelo://app?vid=ec927667-9164-479a-b446-395f55c955bb","ios":"levelo://app?vid=ec927667-9164-479a-b446-395f55c955bb"},"vehicle_type_id":"4","last_reported":1734095996,"current_range_meters":38800,"station_id":"cpo3532slgdg3j2ikp40","pricing_plan_id":"cebpf4jnsgd1na2vs0mg"},{"bike_id":"8cb75e54-80cb-48c1-81aa-892a2859514e","system_id":"levelo_inurba_marseille","lat":43.25732,"lon":5.41099,"is_reserved":false,"is_disabled":false,"rental_uris":{"android":"levelo://app?vid=8cb75e54-80cb-48c1-81aa-892a2859514e","ios":"levelo://app?vid=8cb75e54-80cb-48c1-81aa-892a2859514e"},"vehicle_type_id":"4","last_reported":1734095996,"current_range_meters":38000,"station_id":"ce4bhkp2rcd13ifvqgd0","pricing_plan_id":"cebpf4jnsgd1na2vs0mg"},{"bike_id":"0a3d38c2-a495-4e6d-abe6-34eefec94f5b","system_id":"levelo_inurba_marseille","lat":43.29033,"lon":5.38653,"is_reserved":false,"is_disabled":false,"rental_uris":{"android":"levelo://app?vid=0a3d38c2-a495-4e6d-abe6-34eefec94f5b","ios":"levelo://app?vid=0a3d38c2-a495-4e6d-abe6-34eefec94f5b"},"vehicle_type_id":"4","last_reported":1734095996,"current_range_meters":19600,"station_id":"ce4bh4p2rcd13ifvqe0g","pricing_plan_id":"cebpf4jnsgd1na2vs0mg"},{"bike_id":"0d1fc68b-9b79-41e9-8b2b-e106d261be5e","system_id":"levelo_inurba_marseille","lat":43.29712,"lon":5.37701,"is_reserved":false,"is_disabled":false,"rental_uris":{"android":"levelo://app?vid=0d1fc68b-9b79-41e9-8b2b-e106d261be5e","ios":"levelo://app?vid=0d1fc68b-9b79-41e9-8b2b-e106d261be5e"},"vehicle_type_id":"4","last_reported":1734095996,"current_range_meters":11600,"station_id":"ce4bgkh2rcd13ifvqbl0","pricing_plan_id":"cebpf4jnsgd1na2vs0mg"},{"bike_id":"a3d50968-28f4-41e2-bba4-15d8551065b3","system_id":"levelo_inurba_marseille","lat":43.29647,"lon":5.37142,"is_reserved":false,"is_disabled":false,"rental_uris":{"android":"levelo://app?vid=a3d50968-28f4-41e2-bba4-15d8551065b3","ios":"levelo://app?vid=a3d50968-28f4-41e2-bba4-15d8551065b3"},"vehicle_type_id":"4","last_reported":1734095996,"current_range_meters":32000,"station_id":"ce4bgnh2rcd13ifvqc0g","pricing_plan_id":"cebpf4jnsgd1na2vs0mg"},{"bike_id":"e74372ac-2a6c-47ae-afc7-e1b4e1c3d13f","system_id":"levelo_inurba_marseille","lat":43.23055,"lon":5.35507,"is_reserved":false,"is_disabled":false,"rental_uris":{"android":"levelo://app?vid=e74372ac-2a6c-47ae-afc7-e1b4e1c3d13f","ios":"levelo://app?vid=e74372ac-2a6c-47ae-afc7-e1b4e1c3d13f"},"vehicle_type_id":"4","last_reported":1734095996,"current_range_meters":38800,"station_id":"cpo3342slgdg3j2ifvpg","pricing_plan_id":"cebpf4jnsgd1na2vs0mg"},{"bike_id":"938f078e-9e57-4ca5-880a-1cbb8cbb21ac","system_id":"levelo_inurba_marseille","lat":43.27071,"lon":5.42282,"is_reserved":false,"is_disabled":false,"rental_uris":{"android":"levelo://app?vid=938f078e-9e57-4ca5-880a-1cbb8cbb21ac","ios":"levelo://app?vid=938f078e-9e57-4ca5-880a-1cbb8cbb21ac"},"vehicle_type_id":"4","last_reported":1734095996,"current_range_meters":11200,"station_id":"ce4bhk92rcd13ifvqgb0","pricing_plan_id":"cebpf4jnsgd1na2vs0mg"},{"bike_id":"e193ef0e-e328-415a-a8ad-7b8f709bf396","system_id":"levelo_inurba_marseille","lat":43.28491,"lon":5.37904,"is_reserved":false,"is_disabled":true,"rental_uris":{"android":"levelo://app?vid=e193ef0e-e328-415a-a8ad-7b8f709bf396","ios":"levelo://app?vid=e193ef0e-e328-415a-a8ad-7b8f709bf396"},"vehicle_type_id":"4","last_reported":1734095996,"current_range_meters":24800,"station_id":"","pricing_plan_id":"cebpf4jnsgd1na2vs0mg"},{"bike_id":"ec27cfa9-234f-4f4f-a3af-c006b6870c3a","system_id":"levelo_inurba_marseille","lat":43.31112,"lon":5.37758,"is_reserved":true,"is_disabled":false,"rental_uris":{"android":"levelo://app?vid=ec27cfa9-234f-4f4f-a3af-c006b6870c3a","ios":"levelo://app?vid=ec27cfa9-234f-4f4f-a3af-c006b6870c3a"},"vehicle_type_id":"4","last_reported":1734095996,"current_range_meters":38800,"station_id":"ce4bgt92rcd13ifvqcg0","pricing_plan_id":"cebpf4jnsgd1na2vs0mg"},{"bike_id":"1f3bb220-68bc-4ae2-ad43-3a927d11010e","system_id":"levelo_inurba_marseille","lat":43.27055,"lon":5.40267,"is_reserved":false,"is_disabled":false,"rental_uris":{"android":"levelo://app?vid=1f3bb220-68bc-4ae2-ad43-3a927d11010e","ios":"levelo://app?vid=1f3bb220-68bc-4ae2-ad43-3a927d11010e"},"vehicle_type_id":"4","last_reported":1734095996,"current_range_meters":38800,"station_id":"ce4bhk92rcd13ifvqgc0","pricing_plan_id":"cebpf4jnsgd1na2vs0mg"},{"bike_id":"409bc7aa-9eb7-45e9-aea2-11f34d5e1c06","system_id":"levelo_inurba_marseille","lat":43.26022,"lon":5.37569,"is_reserved":false,"is_disabled":false,"rental_uris":{"android":"levelo://app?vid=409bc7aa-9eb7-45e9-aea2-11f34d5e1c06","ios":"levelo://app?vid=409bc7aa-9eb7-45e9-aea2-11f34d5e1c06"},"vehicle_type_id":"4","last_reported":1734095996,"current_range_meters":38800,"station_id":"ce4bhgh2rcd13ifvqfa0","pricing_plan_id":"cebpf4jnsgd1na2vs0mg"},{"bike_id":"16629034-a9ee-4dc6-9dde-fdcffeb5d512","system_id":"levelo_inurba_marseille","lat":43.30139,"lon":5.37411,"is_reserved":false,"is_disabled":false,"rental_uris":{"android":"levelo://app?vid=16629034-a9ee-4dc6-9dde-fdcffeb5d512","ios":"levelo://app?vid=16629034-a9ee-4dc6-9dde-fdcffeb5d512"},"vehicle_type_id":"4","last_reported":1734095996,"current_range_meters":37600,"station_id":"ce4bgs92rcd13ifvqcc0","pricing_plan_id":"cebpf4jnsgd1na2vs0mg"},{"bike_id":"63623f6a-8687-40e3-8a32-8438a4ca95ed","system_id":"levelo_inurba_marseille","lat":43.27677,"lon":5.38867,"is_reserved":false,"is_disabled":false,"rental_uris":{"android":"levelo://app?vid=63623f6a-8687-40e3-8a32-8438a4ca95ed","ios":"levelo://app?vid=63623f6a-8687-40e3-8a32-8438a4ca95ed"},"vehicle_type_id":"4","last_reported":1734095996,"current_range_meters":16800,"station_id":"ce4bhi12rcd13ifvqfo0","pricing_plan_id":"cebpf4jnsgd1na2vs0mg"},{"bike_id":"77155c71-182b-4b91-bdbb-26532cbe0834","system_id":"levelo_inurba_marseille","lat":43.28704,"lon":5.37941,"is_reserved":false,"is_disabled":false,"rental_uris":{"android":"levelo://app?vid=77155c71-182b-4b91-bdbb-26532cbe0834","ios":"levelo://app?vid=77155c71-182b-4b91-bdbb-26532cbe0834"},"vehicle_type_id":"4","last_reported":1734095996,"current_range_meters":10000,"station_id":"ce4bh9p2rcd13ifvqec0","pricing_plan_id":"cebpf4jnsgd1na2vs0mg"},{"bike_id":"c35ac8f6-56ee-4406-a628-ca31135984cc","system_id":"levelo_inurba_marseille","lat":43.23183,"lon":5.39984,"is_reserved":false,"is_disabled":false,"rental_uris":{"android":"levelo://app?vid=c35ac8f6-56ee-4406-a628-ca31135984cc","ios":"levelo://app?vid=c35ac8f6-56ee-4406-a628-ca31135984cc"},"vehicle_type_id":"4","last_reported":1734095996,"current_range_meters":24800,"station_id":"ce4bhn12rcd13ifvqgqg","pricing_plan_id":"cebpf4jnsgd1na2vs0mg"},{"bike_id":"f43b60c0-f88c-4e14-af84-90e9e26b07b0","system_id":"levelo_inurba_marseille","lat":43.30746,"lon":5.36819,"is_reserved":false,"is_disabled":false,"rental_uris":{"android":"levelo://app?vid=f43b60c0-f88c-4e14-af84-90e9e26b07b0","ios":"levelo://app?vid=f43b60c0-f88c-4e14-af84-90e9e26b07b0"},"vehicle_type_id":"4","last_reported":1734095996,"current_range_meters":19200,"station_id":"","pricing_plan_id":"cebpf4jnsgd1na2vs0mg"},{"bike_id":"bde168cb-e40d-4d30-9ebd-9cecf4a5254f","system_id":"levelo_inurba_marseille","lat":43.28839,"lon":5.35834,"is_reserved":false,"is_disabled":true,"rental_uris":{"android":"levelo://app?vid=bde168cb-e40d-4d30-9ebd-9cecf4a5254f","ios":"levelo://app?vid=bde168cb-e40d-4d30-9ebd-9cecf4a5254f"},"vehicle_type_id":"4","last_reported":1734095996,"current_range_meters":0,"station_id":"ce4bhb12rcd13ifvqem0","pricing_plan_id":"cebpf4jnsgd1na2vs0mg"},{"bike_id":"4ef9a64a-70bc-4335-b5b4-38849719efda","system_id":"levelo_inurba_marseille","lat":43.2848,"lon":5.38412,"is_reserved":false,"is_disabled":false,"rental_uris":{"android":"levelo://app?vid=4ef9a64a-70bc-4335-b5b4-38849719efda","ios":"levelo://app?vid=4ef9a64a-70bc-4335-b5b4-38849719efda"},"vehicle_type_id":"4","last_reported":1734095996,"current_range_meters":28400,"station_id":"ce4bh512rcd13ifvqe3g","pricing_plan_id":"cebpf4jnsgd1na2vs0mg"},{"bike_id":"6af5705e-0b63-4941-bd75-095717cfa6f1","system_id":"levelo_inurba_marseille","lat":43.29663,"lon":5.37314,"is_reserved":false,"is_disabled":false,"rental_uris":{"android":"levelo://app?vid=6af5705e-0b63-4941-bd75-095717cfa6f1","ios":"levelo://app?vid=6af5705e-0b63-4941-bd75-095717cfa6f1"},"vehicle_type_id":"4","last_reported":1734095996,"current_range_meters":38800,"station_id":"ce4bgk12rcd13ifvqbj0","pricing_plan_id":"cebpf4jnsgd1na2vs0mg"},{"bike_id":"553d15d0-0abf-4f37-9541-d482e3742cbb","system_id":"levelo_inurba_marseille","lat":43.31331,"lon":5.36723,"is_reserved":false,"is_disabled":false,"rental_uris":{"android":"levelo://app?vid=553d15d0-0abf-4f37-9541-d482e3742cbb","ios":"levelo://app?vid=553d15d0-0abf-4f37-9541-d482e3742cbb"},"vehicle_type_id":"4","last_reported":1734095996,"current_range_meters":19600,"station_id":"ce4bgr92rcd13ifvqc6g","pricing_plan_id":"cebpf4jnsgd1na2vs0mg"},{"bike_id":"ebc65128-fe73-4828-8862-243da7b26624","system_id":"levelo_inurba_marseille","lat":43.31491,"lon":5.37304,"is_reserved":false,"is_disabled":false,"rental_uris":{"android":"levelo://app?vid=ebc65128-fe73-4828-8862-243da7b26624","ios":"levelo://app?vid=ebc65128-fe73-4828-8862-243da7b26624"},"vehicle_type_id":"4","last_reported":1734095996,"current_range_meters":19600,"station_id":"ce4bgt12rcd13ifvqcd0","pricing_plan_id":"cebpf4jnsgd1na2vs0mg"},{"bike_id":"002069da-d74c-4e41-ae54-1da711c0eed6","system_id":"levelo_inurba_marseille","lat":43.285944,"lon":5.412961,"is_reserved":false,"is_disabled":true,"rental_uris":{"android":"levelo://app?vid=002069da-d74c-4e41-ae54-1da711c0eed6","ios":"levelo://app?vid=002069da-d74c-4e41-ae54-1da711c0eed6"},"vehicle_type_id":"4","last_reported":1734095996,"current_range_meters":0,"station_id":"","pricing_plan_id":"cebpf4jnsgd1na2vs0mg"},{"bike_id":"ca4154d3-ea4e-43ea-851b-930f8edd4151","system_id":"levelo_inurba_marseille","lat":43.25499,"lon":5.37654,"is_reserved":false,"is_disabled":false,"rental_uris":{"android":"levelo://app?vid=ca4154d3-ea4e-43ea-851b-930f8edd4151","ios":"levelo://app?vid=ca4154d3-ea4e-43ea-851b-930f8edd4151"},"vehicle_type_id":"4","last_reported":1734095996,"current_range_meters":38800,"station_id":"ce4bhh12rcd13ifvqff0","pricing_plan_id":"cebpf4jnsgd1na2vs0mg"},{"bike_id":"003fcc20-75cd-4e78-9b9a-bd60ee138a76","system_id":"levelo_inurba_marseille","lat":43.25538,"lon":5.38272,"is_reserved":false,"is_disabled":false,"rental_uris":{"android":"levelo://app?vid=003fcc20-75cd-4e78-9b9a-bd60ee138a76","ios":"levelo://app?vid=003fcc20-75cd-4e78-9b9a-bd60ee138a76"},"vehicle_type_id":"4","last_reported":1734095996,"current_range_meters":37600,"station_id":"","pricing_plan_id":"cebpf4jnsgd1na2vs0mg"},{"bike_id":"c77d6955-387d-47b1-ba3d-c8796a172ed4","system_id":"levelo_inurba_marseille","lat":43.2407,"lon":5.37764,"is_reserved":false,"is_disabled":false,"rental_uris":{"android":"levelo://app?vid=c77d6955-387d-47b1-ba3d-c8796a172ed4","ios":"levelo://app?vid=c77d6955-387d-47b1-ba3d-c8796a172ed4"},"vehicle_type_id":"4","last_reported":1734095996,"current_range_meters":35600,"station_id":"ce4bhnp2rcd13ifvqgvg","pricing_plan_id":"cebpf4jnsgd1na2vs0mg"},{"bike_id":"0dc53ed0-703c-41c7-a7ba-e5fe121ea6cc","system_id":"levelo_inurba_marseille","lat":43.28931,"lon":5.37892,"is_reserved":false,"is_disabled":false,"rental_uris":{"android":"levelo://app?vid=0dc53ed0-703c-41c7-a7ba-e5fe121ea6cc","ios":"levelo://app?vid=0dc53ed0-703c-41c7-a7ba-e5fe121ea6cc"},"vehicle_type_id":"4","last_reported":1734095996,"current_range_meters":33600,"station_id":"","pricing_plan_id":"cebpf4jnsgd1na2vs0mg"},{"bike_id":"a1b3e7ef-122c-4c3b-8be9-c3cc1fd01590","system_id":"levelo_inurba_marseille","lat":43.24533,"lon":5.39523,"is_reserved":false,"is_disabled":false,"rental_uris":{"android":"levelo://app?vid=a1b3e7ef-122c-4c3b-8be9-c3cc1fd01590","ios":"levelo://app?vid=a1b3e7ef-122c-4c3b-8be9-c3cc1fd01590"},"vehicle_type_id":"4","last_reported":1734095996,"current_range_meters":4400,"station_id":"ce4bhlp2rcd13ifvqgjg","pricing_plan_id":"cebpf4jnsgd1na2vs0mg"},{"bike_id":"1e09aea1-6592-4606-838e-01c5295332d1","system_id":"levelo_inurba_marseille","lat":43.3266,"lon":5.4099,"is_reserved":false,"is_disabled":true,"rental_uris":{"android":"levelo://app?vid=1e09aea1-6592-4606-838e-01c5295332d1","ios":"levelo://app?vid=1e09aea1-6592-4606-838e-01c5295332d1"},"vehicle_type_id":"4","last_reported":1734095996,"current_range_meters":32800,"station_id":"ce4bhpp2rcd13ifvqhgg","pricing_plan_id":"cebpf4jnsgd1na2vs0mg"},{"bike_id":"117995f4-b8d9-45ec-80c9-df0eb7dadab5","system_id":"levelo_inurba_marseille","lat":43.30134,"lon":5.37422,"is_reserved":false,"is_disabled":false,"rental_uris":{"android":"levelo://app?vid=117995f4-b8d9-45ec-80c9-df0eb7dadab5","ios":"levelo://app?vid=117995f4-b8d9-45ec-80c9-df0eb7dadab5"},"vehicle_type_id":"4","last_reported":1734095996,"current_range_meters":35600,"station_id":"ce4bgs92rcd13ifvqcc0","pricing_plan_id":"cebpf4jnsgd1na2vs0mg"},{"bike_id":"8767b2b1-2764-4a53-87e3-2f9d58ed86ac","system_id":"levelo_inurba_marseille","lat":43.29027,"lon":5.35924,"is_reserved":false,"is_disabled":false,"rental_uris":{"android":"levelo://app?vid=8767b2b1-2764-4a53-87e3-2f9d58ed86ac","ios":"levelo://app?vid=8767b2b1-2764-4a53-87e3-2f9d58ed86ac"},"vehicle_type_id":"4","last_reported":1734095996,"current_range_meters":6800,"station_id":"ce4bha92rcd13ifvqeg0","pricing_plan_id":"cebpf4jnsgd1na2vs0mg"},{"bike_id":"be3d60a6-6fb6-4cc8-81d6-6fe96ff5ee23","system_id":"levelo_inurba_marseille","lat":43.23067,"lon":5.354937,"is_reserved":false,"is_disabled":false,"rental_uris":{"android":"levelo://app?vid=be3d60a6-6fb6-4cc8-81d6-6fe96ff5ee23","ios":"levelo://app?vid=be3d60a6-6fb6-4cc8-81d6-6fe96ff5ee23"},"vehicle_type_id":"4","last_reported":1734095996,"current_range_meters":38400,"station_id":"cpo3342slgdg3j2ifvpg","pricing_plan_id":"cebpf4jnsgd1na2vs0mg"},{"bike_id":"5a347e26-b262-431b-90c9-dc44152bfdaa","system_id":"levelo_inurba_marseille","lat":43.25003,"lon":5.38946,"is_reserved":false,"is_disabled":false,"rental_uris":{"android":"levelo://app?vid=5a347e26-b262-431b-90c9-dc44152bfdaa","ios":"levelo://app?vid=5a347e26-b262-431b-90c9-dc44152bfdaa"},"vehicle_type_id":"4","last_reported":1734095996,"current_range_meters":26800,"station_id":"ce4bhgp2rcd13ifvqfd0","pricing_plan_id":"cebpf4jnsgd1na2vs0mg"},{"bike_id":"1a6191e2-ac99-485d-8e32-fe2f8071e4a9","system_id":"levelo_inurba_marseille","lat":43.29417,"lon":5.38626,"is_reserved":false,"is_disabled":true,"rental_uris":{"android":"levelo://app?vid=1a6191e2-ac99-485d-8e32-fe2f8071e4a9","ios":"levelo://app?vid=1a6191e2-ac99-485d-8e32-fe2f8071e4a9"},"vehicle_type_id":"4","last_reported":1734095996,"current_range_meters":400,"station_id":"ce4bh2h2rcd13ifvqdh0","pricing_plan_id":"cebpf4jnsgd1na2vs0mg"},{"bike_id":"ebdbc8d5-b290-4e69-aa5c-3c2a17f728a0","system_id":"levelo_inurba_marseille","lat":43.30148,"lon":5.37422,"is_reserved":false,"is_disabled":false,"rental_uris":{"android":"levelo://app?vid=ebdbc8d5-b290-4e69-aa5c-3c2a17f728a0","ios":"levelo://app?vid=ebdbc8d5-b290-4e69-aa5c-3c2a17f728a0"},"vehicle_type_id":"4","last_reported":1734095996,"current_range_meters":38800,"station_id":"ce4bgs92rcd13ifvqcc0","pricing_plan_id":"cebpf4jnsgd1na2vs0mg"},{"bike_id":"bced2216-fe81-4039-bef5-7e9843b329f3","system_id":"levelo_inurba_marseille","lat":43.28158,"lon":5.42631,"is_reserved":true,"is_disabled":false,"rental_uris":{"android":"levelo://app?vid=bced2216-fe81-4039-bef5-7e9843b329f3","ios":"levelo://app?vid=bced2216-fe81-4039-bef5-7e9843b329f3"},"vehicle_type_id":"4","last_reported":1734095996,"current_range_meters":36800,"station_id":"ce4bhnh2rcd13ifvqgug","pricing_plan_id":"cebpf4jnsgd1na2vs0mg"},{"bike_id":"9332f19c-96e3-47ac-8807-c5c2384614c0","system_id":"levelo_inurba_marseille","lat":43.23059,"lon":5.35494,"is_reserved":false,"is_disabled":false,"rental_uris":{"android":"levelo://app?vid=9332f19c-96e3-47ac-8807-c5c2384614c0","ios":"levelo://app?vid=9332f19c-96e3-47ac-8807-c5c2384614c0"},"vehicle_type_id":"4","last_reported":1734095996,"current_range_meters":7200,"station_id":"cpo3342slgdg3j2ifvpg","pricing_plan_id":"cebpf4jnsgd1na2vs0mg"},{"bike_id":"524fdc59-1def-4765-b344-53587a6914ff","system_id":"levelo_inurba_marseille","lat":43.31081,"lon":5.42427,"is_reserved":false,"is_disabled":false,"rental_uris":{"android":"levelo://app?vid=524fdc59-1def-4765-b344-53587a6914ff","ios":"levelo://app?vid=524fdc59-1def-4765-b344-53587a6914ff"},"vehicle_type_id":"4","last_reported":1734095996,"current_range_meters":36800,"station_id":"ce4bhp92rcd13ifvqhag","pricing_plan_id":"cebpf4jnsgd1na2vs0mg"},{"bike_id":"ce66921b-c75d-476b-a9f5-648c181abd0c","system_id":"levelo_inurba_marseille","lat":43.29029,"lon":5.38655,"is_reserved":false,"is_disabled":false,"rental_uris":{"android":"levelo://app?vid=ce66921b-c75d-476b-a9f5-648c181abd0c","ios":"levelo://app?vid=ce66921b-c75d-476b-a9f5-648c181abd0c"},"vehicle_type_id":"4","last_reported":1734095996,"current_range_meters":26800,"station_id":"ce4bh4p2rcd13ifvqe0g","pricing_plan_id":"cebpf4jnsgd1na2vs0mg"},{"bike_id":"a8942e43-f3d6-46fd-8576-2cc6b2787f3e","system_id":"levelo_inurba_marseille","lat":43.33025,"lon":5.39052,"is_reserved":false,"is_disabled":false,"rental_uris":{"android":"levelo://app?vid=a8942e43-f3d6-46fd-8576-2cc6b2787f3e","ios":"levelo://app?vid=a8942e43-f3d6-46fd-8576-2cc6b2787f3e"},"vehicle_type_id":"4","last_reported":1734095996,"current_range_meters":20800,"station_id":"ce4bhr92rcd13ifvqhrg","pricing_plan_id":"cebpf4jnsgd1na2vs0mg"},{"bike_id":"ef3db57d-5b63-4a69-8887-6cc7ded4098d","system_id":"levelo_inurba_marseille","lat":43.29375,"lon":5.37856,"is_reserved":false,"is_disabled":true,"rental_uris":{"android":"levelo://app?vid=ef3db57d-5b63-4a69-8887-6cc7ded4098d","ios":"levelo://app?vid=ef3db57d-5b63-4a69-8887-6cc7ded4098d"},"vehicle_type_id":"4","last_reported":1734095996,"current_range_meters":24800,"station_id":"ce4bgjh2rcd13ifvqbf0","pricing_plan_id":"cebpf4jnsgd1na2vs0mg"},{"bike_id":"9c788276-9755-4d7b-a3ab-eb1e58f57b51","system_id":"levelo_inurba_marseille","lat":43.296025,"lon":5.40019,"is_reserved":false,"is_disabled":false,"rental_uris":{"android":"levelo://app?vid=9c788276-9755-4d7b-a3ab-eb1e58f57b51","ios":"levelo://app?vid=9c788276-9755-4d7b-a3ab-eb1e58f57b51"},"vehicle_type_id":"4","last_reported":1734095996,"current_range_meters":36800,"station_id":"ce4bh312rcd13ifvqdj0","pricing_plan_id":"cebpf4jnsgd1na2vs0mg"},{"bike_id":"36f5ef6a-7d9a-4435-85bf-e5ee11242117","system_id":"levelo_inurba_marseille","lat":43.28834,"lon":5.35836,"is_reserved":false,"is_disabled":false,"rental_uris":{"android":"levelo://app?vid=36f5ef6a-7d9a-4435-85bf-e5ee11242117","ios":"levelo://app?vid=36f5ef6a-7d9a-4435-85bf-e5ee11242117"},"vehicle_type_id":"4","last_reported":1734095996,"current_range_meters":38400,"station_id":"ce4bhb12rcd13ifvqem0","pricing_plan_id":"cebpf4jnsgd1na2vs0mg"},{"bike_id":"225f282b-3073-4357-9356-9088bd7241f7","system_id":"levelo_inurba_marseille","lat":43.26797,"lon":5.40243,"is_reserved":false,"is_disabled":false,"rental_uris":{"android":"levelo://app?vid=225f282b-3073-4357-9356-9088bd7241f7","ios":"levelo://app?vid=225f282b-3073-4357-9356-9088bd7241f7"},"vehicle_type_id":"4","last_reported":1734095996,"current_range_meters":30800,"station_id":"ce501612rcd8frsf0b60","pricing_plan_id":"cebpf4jnsgd1na2vs0mg"},{"bike_id":"208886c0-de2e-43ca-abbf-3e8665653f84","system_id":"levelo_inurba_marseille","lat":43.30404,"lon":5.37714,"is_reserved":false,"is_disabled":true,"rental_uris":{"android":"levelo://app?vid=208886c0-de2e-43ca-abbf-3e8665653f84","ios":"levelo://app?vid=208886c0-de2e-43ca-abbf-3e8665653f84"},"vehicle_type_id":"4","last_reported":1734095996,"current_range_meters":0,"station_id":"","pricing_plan_id":"cebpf4jnsgd1na2vs0mg"},{"bike_id":"a5c72909-bd51-437d-8b08-8c2543ff2641","system_id":"levelo_inurba_marseille","lat":43.29707,"lon":5.36598,"is_reserved":false,"is_disabled":false,"rental_uris":{"android":"levelo://app?vid=a5c72909-bd51-437d-8b08-8c2543ff2641","ios":"levelo://app?vid=a5c72909-bd51-437d-8b08-8c2543ff2641"},"vehicle_type_id":"4","last_reported":1734095996,"current_range_meters":37600,"station_id":"ce4bgn12rcd13ifvqbt0","pricing_plan_id":"cebpf4jnsgd1na2vs0mg"},{"bike_id":"8e1bf99c-7efc-4828-9c4c-8b8f8aa923c2","system_id":"levelo_inurba_marseille","lat":43.29607,"lon":5.381,"is_reserved":false,"is_disabled":false,"rental_uris":{"android":"levelo://app?vid=8e1bf99c-7efc-4828-9c4c-8b8f8aa923c2","ios":"levelo://app?vid=8e1bf99c-7efc-4828-9c4c-8b8f8aa923c2"},"vehicle_type_id":"4","last_reported":1734095996,"current_range_meters":12000,"station_id":"ce4bgl12rcd13ifvqbo0","pricing_plan_id":"cebpf4jnsgd1na2vs0mg"},{"bike_id":"35d49a7a-5c78-4628-a4c8-dc5d3ff53cc7","system_id":"levelo_inurba_marseille","lat":43.28429,"lon":5.39192,"is_reserved":false,"is_disabled":false,"rental_uris":{"android":"levelo://app?vid=35d49a7a-5c78-4628-a4c8-dc5d3ff53cc7","ios":"levelo://app?vid=35d49a7a-5c78-4628-a4c8-dc5d3ff53cc7"},"vehicle_type_id":"4","last_reported":1734095996,"current_range_meters":38800,"station_id":"ce4bhoh2rcd13ifvqh5g","pricing_plan_id":"cebpf4jnsgd1na2vs0mg"},{"bike_id":"21d57506-de3b-49b1-8947-2d83e751a996","system_id":"levelo_inurba_marseille","lat":43.26568,"lon":5.39032,"is_reserved":false,"is_disabled":false,"rental_uris":{"android":"levelo://app?vid=21d57506-de3b-49b1-8947-2d83e751a996","ios":"levelo://app?vid=21d57506-de3b-49b1-8947-2d83e751a996"},"vehicle_type_id":"4","last_reported":1734095996,"current_range_meters":24800,"station_id":"ce4bhe12rcd13ifvqf30","pricing_plan_id":"cebpf4jnsgd1na2vs0mg"},{"bike_id":"1432cf1d-5f52-496b-8b0f-41af200811c1","system_id":"levelo_inurba_marseille","lat":43.29586,"lon":5.37501,"is_reserved":false,"is_disabled":false,"rental_uris":{"android":"levelo://app?vid=1432cf1d-5f52-496b-8b0f-41af200811c1","ios":"levelo://app?vid=1432cf1d-5f52-496b-8b0f-41af200811c1"},"vehicle_type_id":"4","last_reported":1734095996,"current_range_meters":28800,"station_id":"ce4bgh92rcd13ifvqb50","pricing_plan_id":"cebpf4jnsgd1na2vs0mg"},{"bike_id":"91b42ee8-a62f-4212-bca9-8cc53e418673","system_id":"levelo_inurba_marseille","lat":43.30453,"lon":5.39743,"is_reserved":false,"is_disabled":false,"rental_uris":{"android":"levelo://app?vid=91b42ee8-a62f-4212-bca9-8cc53e418673","ios":"levelo://app?vid=91b42ee8-a62f-4212-bca9-8cc53e418673"},"vehicle_type_id":"4","last_reported":1734095996,"current_range_meters":38400,"station_id":"ce4bh092rcd13ifvqd20","pricing_plan_id":"cebpf4jnsgd1na2vs0mg"},{"bike_id":"f3cb3fa5-f996-4779-a72c-c8dc29955965","system_id":"levelo_inurba_marseille","lat":43.26567,"lon":5.37284,"is_reserved":false,"is_disabled":false,"rental_uris":{"android":"levelo://app?vid=f3cb3fa5-f996-4779-a72c-c8dc29955965","ios":"levelo://app?vid=f3cb3fa5-f996-4779-a72c-c8dc29955965"},"vehicle_type_id":"4","last_reported":1734095996,"current_range_meters":27600,"station_id":"ce4bhg12rcd13ifvqf70","pricing_plan_id":"cebpf4jnsgd1na2vs0mg"},{"bike_id":"6e6a004b-462d-4b03-aeaa-2611256f0d89","system_id":"levelo_inurba_marseille","lat":43.28105,"lon":5.38932,"is_reserved":false,"is_disabled":true,"rental_uris":{"android":"levelo://app?vid=6e6a004b-462d-4b03-aeaa-2611256f0d89","ios":"levelo://app?vid=6e6a004b-462d-4b03-aeaa-2611256f0d89"},"vehicle_type_id":"4","last_reported":1734095996,"current_range_meters":0,"station_id":"","pricing_plan_id":"cebpf4jnsgd1na2vs0mg"},{"bike_id":"a52e16e8-5995-41e1-add6-a7754ed9bdce","system_id":"levelo_inurba_marseille","lat":43.29804,"lon":5.38088,"is_reserved":false,"is_disabled":false,"rental_uris":{"android":"levelo://app?vid=a52e16e8-5995-41e1-add6-a7754ed9bdce","ios":"levelo://app?vid=a52e16e8-5995-41e1-add6-a7754ed9bdce"},"vehicle_type_id":"4","last_reported":1734095996,"current_range_meters":37600,"station_id":"ce4bgip2rcd13ifvqbb0","pricing_plan_id":"cebpf4jnsgd1na2vs0mg"},{"bike_id":"14845a8f-c0c8-4311-843d-ef820014914a","system_id":"levelo_inurba_marseille","lat":43.26807,"lon":5.40283,"is_reserved":false,"is_disabled":false,"rental_uris":{"android":"levelo://app?vid=14845a8f-c0c8-4311-843d-ef820014914a","ios":"levelo://app?vid=14845a8f-c0c8-4311-843d-ef820014914a"},"vehicle_type_id":"4","last_reported":1734095996,"current_range_meters":36800,"station_id":"ce501612rcd8frsf0b60","pricing_plan_id":"cebpf4jnsgd1na2vs0mg"},{"bike_id":"d6fffe95-279f-4f4a-acf8-3816725ad43e","system_id":"levelo_inurba_marseille","lat":43.30778,"lon":5.37652,"is_reserved":false,"is_disabled":false,"rental_uris":{"android":"levelo://app?vid=d6fffe95-279f-4f4a-acf8-3816725ad43e","ios":"levelo://app?vid=d6fffe95-279f-4f4a-acf8-3816725ad43e"},"vehicle_type_id":"4","last_reported":1734095996,"current_range_meters":38800,"station_id":"ce4bgv92rcd13ifvqcq0","pricing_plan_id":"cebpf4jnsgd1na2vs0mg"},{"bike_id":"89b7528c-fd56-4128-b133-e3ab623913c3","system_id":"levelo_inurba_marseille","lat":43.30549,"lon":5.36828,"is_reserved":false,"is_disabled":false,"rental_uris":{"android":"levelo://app?vid=89b7528c-fd56-4128-b133-e3ab623913c3","ios":"levelo://app?vid=89b7528c-fd56-4128-b133-e3ab623913c3"},"vehicle_type_id":"4","last_reported":1734095996,"current_range_meters":36400,"station_id":"","pricing_plan_id":"cebpf4jnsgd1na2vs0mg"},{"bike_id":"29006f51-6eb8-4dde-a752-30244f24cbd9","system_id":"levelo_inurba_marseille","lat":43.26493,"lon":5.39542,"is_reserved":false,"is_disabled":false,"rental_uris":{"android":"levelo://app?vid=29006f51-6eb8-4dde-a752-30244f24cbd9","ios":"levelo://app?vid=29006f51-6eb8-4dde-a752-30244f24cbd9"},"vehicle_type_id":"4","last_reported":1734095996,"current_range_meters":17600,"station_id":"ce4bhi12rcd13ifvqfq0","pricing_plan_id":"cebpf4jnsgd1na2vs0mg"},{"bike_id":"e738fcc8-c725-46f1-b7fe-8f522bd56ad4","system_id":"levelo_inurba_marseille","lat":43.22919,"lon":5.35392,"is_reserved":false,"is_disabled":false,"rental_uris":{"android":"levelo://app?vid=e738fcc8-c725-46f1-b7fe-8f522bd56ad4","ios":"levelo://app?vid=e738fcc8-c725-46f1-b7fe-8f522bd56ad4"},"vehicle_type_id":"4","last_reported":1734095996,"current_range_meters":6400,"station_id":"cpo3532slgdg3j2ikp40","pricing_plan_id":"cebpf4jnsgd1na2vs0mg"},{"bike_id":"978bce4a-4ce2-4d4c-9dc7-c42a0edfcb96","system_id":"levelo_inurba_marseille","lat":43.23154,"lon":5.43716,"is_reserved":false,"is_disabled":true,"rental_uris":{"android":"levelo://app?vid=978bce4a-4ce2-4d4c-9dc7-c42a0edfcb96","ios":"levelo://app?vid=978bce4a-4ce2-4d4c-9dc7-c42a0edfcb96"},"vehicle_type_id":"4","last_reported":1734095996,"current_range_meters":0,"station_id":"ce4bhmp2rcd13ifvqgog","pricing_plan_id":"cebpf4jnsgd1na2vs0mg"},{"bike_id":"fa79c50a-6b99-4c07-a642-9d6102d9ae07","system_id":"levelo_inurba_marseille","lat":43.30332,"lon":5.40427,"is_reserved":false,"is_disabled":false,"rental_uris":{"android":"levelo://app?vid=fa79c50a-6b99-4c07-a642-9d6102d9ae07","ios":"levelo://app?vid=fa79c50a-6b99-4c07-a642-9d6102d9ae07"},"vehicle_type_id":"4","last_reported":1734095996,"current_range_meters":36400,"station_id":"ce4bh012rcd13ifvqd10","pricing_plan_id":"cebpf4jnsgd1na2vs0mg"},{"bike_id":"7965bd8b-65b9-4460-9e65-36f253ebc53b","system_id":"levelo_inurba_marseille","lat":43.3202,"lon":5.41558,"is_reserved":false,"is_disabled":false,"rental_uris":{"android":"levelo://app?vid=7965bd8b-65b9-4460-9e65-36f253ebc53b","ios":"levelo://app?vid=7965bd8b-65b9-4460-9e65-36f253ebc53b"},"vehicle_type_id":"4","last_reported":1734095996,"current_range_meters":23200,"station_id":"ce4bhq92rcd13ifvqhkg","pricing_plan_id":"cebpf4jnsgd1na2vs0mg"},{"bike_id":"0ffc6b8d-2ddb-4335-86e7-92f0e64a897e","system_id":"levelo_inurba_marseille","lat":43.31496,"lon":5.37314,"is_reserved":false,"is_disabled":false,"rental_uris":{"android":"levelo://app?vid=0ffc6b8d-2ddb-4335-86e7-92f0e64a897e","ios":"levelo://app?vid=0ffc6b8d-2ddb-4335-86e7-92f0e64a897e"},"vehicle_type_id":"4","last_reported":1734095996,"current_range_meters":8800,"station_id":"ce4bgt12rcd13ifvqcd0","pricing_plan_id":"cebpf4jnsgd1na2vs0mg"},{"bike_id":"e5192aff-1008-4e7e-b82a-23b5df79d920","system_id":"levelo_inurba_marseille","lat":43.2954,"lon":5.42303,"is_reserved":false,"is_disabled":true,"rental_uris":{"android":"levelo://app?vid=e5192aff-1008-4e7e-b82a-23b5df79d920","ios":"levelo://app?vid=e5192aff-1008-4e7e-b82a-23b5df79d920"},"vehicle_type_id":"4","last_reported":1734095996,"current_range_meters":400,"station_id":"ce4bhph2rcd13ifvqhdg","pricing_plan_id":"cebpf4jnsgd1na2vs0mg"},{"bike_id":"4600b33a-013f-443b-a2a7-97fb9f39b95c","system_id":"levelo_inurba_marseille","lat":43.29741,"lon":5.37691,"is_reserved":false,"is_disabled":false,"rental_uris":{"android":"levelo://app?vid=4600b33a-013f-443b-a2a7-97fb9f39b95c","ios":"levelo://app?vid=4600b33a-013f-443b-a2a7-97fb9f39b95c"},"vehicle_type_id":"4","last_reported":1734095996,"current_range_meters":36000,"station_id":"ce4bgkh2rcd13ifvqbl0","pricing_plan_id":"cebpf4jnsgd1na2vs0mg"},{"bike_id":"400924dc-8f30-43a2-84e4-042f443d3fa7","system_id":"levelo_inurba_marseille","lat":43.24545,"lon":5.39528,"is_reserved":false,"is_disabled":false,"rental_uris":{"android":"levelo://app?vid=400924dc-8f30-43a2-84e4-042f443d3fa7","ios":"levelo://app?vid=400924dc-8f30-43a2-84e4-042f443d3fa7"},"vehicle_type_id":"4","last_reported":1734095996,"current_range_meters":31200,"station_id":"ce4bhlp2rcd13ifvqgjg","pricing_plan_id":"cebpf4jnsgd1na2vs0mg"},{"bike_id":"a5589391-a7e4-412b-9a87-f917b2322580","system_id":"levelo_inurba_marseille","lat":43.23047,"lon":5.35518,"is_reserved":false,"is_disabled":false,"rental_uris":{"android":"levelo://app?vid=a5589391-a7e4-412b-9a87-f917b2322580","ios":"levelo://app?vid=a5589391-a7e4-412b-9a87-f917b2322580"},"vehicle_type_id":"4","last_reported":1734095996,"current_range_meters":38800,"station_id":"cpo3342slgdg3j2ifvpg","pricing_plan_id":"cebpf4jnsgd1na2vs0mg"},{"bike_id":"950745b5-6492-438d-b17c-adeaaa0c16a9","system_id":"levelo_inurba_marseille","lat":43.29528,"lon":5.38549,"is_reserved":false,"is_disabled":false,"rental_uris":{"android":"levelo://app?vid=950745b5-6492-438d-b17c-adeaaa0c16a9","ios":"levelo://app?vid=950745b5-6492-438d-b17c-adeaaa0c16a9"},"vehicle_type_id":"4","last_reported":1734095996,"current_range_meters":26000,"station_id":"ce4bgih2rcd13ifvqba0","pricing_plan_id":"cebpf4jnsgd1na2vs0mg"},{"bike_id":"103e9cb3-a529-4d55-b047-75adf6d60c18","system_id":"levelo_inurba_marseille","lat":43.27958,"lon":5.39927,"is_reserved":false,"is_disabled":true,"rental_uris":{"android":"levelo://app?vid=103e9cb3-a529-4d55-b047-75adf6d60c18","ios":"levelo://app?vid=103e9cb3-a529-4d55-b047-75adf6d60c18"},"vehicle_type_id":"4","last_reported":1734095996,"current_range_meters":0,"station_id":"","pricing_plan_id":"cebpf4jnsgd1na2vs0mg"},{"bike_id":"9f6edf01-748c-401f-9fc5-e91fa31a072c","system_id":"levelo_inurba_marseille","lat":43.33019,"lon":5.39039,"is_reserved":false,"is_disabled":false,"rental_uris":{"android":"levelo://app?vid=9f6edf01-748c-401f-9fc5-e91fa31a072c","ios":"levelo://app?vid=9f6edf01-748c-401f-9fc5-e91fa31a072c"},"vehicle_type_id":"4","last_reported":1734095996,"current_range_meters":31200,"station_id":"ce4bhr92rcd13ifvqhrg","pricing_plan_id":"cebpf4jnsgd1na2vs0mg"},{"bike_id":"946b8664-a71e-4019-8273-627de8b0a4d6","system_id":"levelo_inurba_marseille","lat":43.29202,"lon":5.39307,"is_reserved":false,"is_disabled":false,"rental_uris":{"android":"levelo://app?vid=946b8664-a71e-4019-8273-627de8b0a4d6","ios":"levelo://app?vid=946b8664-a71e-4019-8273-627de8b0a4d6"},"vehicle_type_id":"4","last_reported":1734095996,"current_range_meters":27200,"station_id":"ce4bh192rcd13ifvqdd0","pricing_plan_id":"cebpf4jnsgd1na2vs0mg"},{"bike_id":"fee00dae-eab2-4bf7-95b7-0552890d0408","system_id":"levelo_inurba_marseille","lat":43.33603,"lon":5.41047,"is_reserved":false,"is_disabled":false,"rental_uris":{"android":"levelo://app?vid=fee00dae-eab2-4bf7-95b7-0552890d0408","ios":"levelo://app?vid=fee00dae-eab2-4bf7-95b7-0552890d0408"},"vehicle_type_id":"4","last_reported":1734095996,"current_range_meters":33200,"station_id":"ce4bhqh2rcd13ifvqhmg","pricing_plan_id":"cebpf4jnsgd1na2vs0mg"},{"bike_id":"cf114bb8-ce3e-43ba-8e23-69bcac3003fd","system_id":"levelo_inurba_marseille","lat":43.337636,"lon":5.374377,"is_reserved":false,"is_disabled":false,"rental_uris":{"android":"levelo://app?vid=cf114bb8-ce3e-43ba-8e23-69bcac3003fd","ios":"levelo://app?vid=cf114bb8-ce3e-43ba-8e23-69bcac3003fd"},"vehicle_type_id":"4","last_reported":1734095996,"current_range_meters":25200,"station_id":"","pricing_plan_id":"cebpf4jnsgd1na2vs0mg"},{"bike_id":"9170b74c-6ab9-4aed-ae3b-75ae727d0100","system_id":"levelo_inurba_marseille","lat":43.27408,"lon":5.3901,"is_reserved":false,"is_disabled":false,"rental_uris":{"android":"levelo://app?vid=9170b74c-6ab9-4aed-ae3b-75ae727d0100","ios":"levelo://app?vid=9170b74c-6ab9-4aed-ae3b-75ae727d0100"},"vehicle_type_id":"4","last_reported":1734095996,"current_range_meters":9600,"station_id":"","pricing_plan_id":"cebpf4jnsgd1na2vs0mg"},{"bike_id":"bf26ba67-e67a-47f2-aeb5-22efb7770553","system_id":"levelo_inurba_marseille","lat":43.28604,"lon":5.35096,"is_reserved":false,"is_disabled":true,"rental_uris":{"android":"levelo://app?vid=bf26ba67-e67a-47f2-aeb5-22efb7770553","ios":"levelo://app?vid=bf26ba67-e67a-47f2-aeb5-22efb7770553"},"vehicle_type_id":"4","last_reported":1734095996,"current_range_meters":28400,"station_id":"ce4bhch2rcd13ifvqeug","pricing_plan_id":"cebpf4jnsgd1na2vs0mg"},{"bike_id":"1edcb435-be97-41f8-aa8c-4a20808cef7c","system_id":"levelo_inurba_marseille","lat":43.26769,"lon":5.40328,"is_reserved":false,"is_disabled":false,"rental_uris":{"android":"levelo://app?vid=1edcb435-be97-41f8-aa8c-4a20808cef7c","ios":"levelo://app?vid=1edcb435-be97-41f8-aa8c-4a20808cef7c"},"vehicle_type_id":"4","last_reported":1734095996,"current_range_meters":5600,"station_id":"","pricing_plan_id":"cebpf4jnsgd1na2vs0mg"},{"bike_id":"8bfdfc56-27ca-4366-bc75-b6d83b3c7ef7","system_id":"levelo_inurba_marseille","lat":43.30418,"lon":5.39755,"is_reserved":false,"is_disabled":false,"rental_uris":{"android":"levelo://app?vid=8bfdfc56-27ca-4366-bc75-b6d83b3c7ef7","ios":"levelo://app?vid=8bfdfc56-27ca-4366-bc75-b6d83b3c7ef7"},"vehicle_type_id":"4","last_reported":1734095996,"current_range_meters":38800,"station_id":"ce4bh092rcd13ifvqd20","pricing_plan_id":"cebpf4jnsgd1na2vs0mg"},{"bike_id":"61df4582-7c9f-489e-b7da-d6a0cfdcd7c7","system_id":"levelo_inurba_marseille","lat":43.28659,"lon":5.36351,"is_reserved":false,"is_disabled":true,"rental_uris":{"android":"levelo://app?vid=61df4582-7c9f-489e-b7da-d6a0cfdcd7c7","ios":"levelo://app?vid=61df4582-7c9f-489e-b7da-d6a0cfdcd7c7"},"vehicle_type_id":"4","last_reported":1734095996,"current_range_meters":0,"station_id":"ce4bhah2rcd13ifvqej0","pricing_plan_id":"cebpf4jnsgd1na2vs0mg"},{"bike_id":"0676962b-e6d0-4301-b2eb-1a64d605e62b","system_id":"levelo_inurba_marseille","lat":43.33154,"lon":5.38727,"is_reserved":false,"is_disabled":false,"rental_uris":{"android":"levelo://app?vid=0676962b-e6d0-4301-b2eb-1a64d605e62b","ios":"levelo://app?vid=0676962b-e6d0-4301-b2eb-1a64d605e62b"},"vehicle_type_id":"4","last_reported":1734095996,"current_range_meters":31200,"station_id":"","pricing_plan_id":"cebpf4jnsgd1na2vs0mg"},{"bike_id":"069bd7be-d7b1-4fb4-8a31-6d5c7733f3a6","system_id":"levelo_inurba_marseille","lat":43.30136,"lon":5.3743,"is_reserved":false,"is_disabled":false,"rental_uris":{"android":"levelo://app?vid=069bd7be-d7b1-4fb4-8a31-6d5c7733f3a6","ios":"levelo://app?vid=069bd7be-d7b1-4fb4-8a31-6d5c7733f3a6"},"vehicle_type_id":"4","last_reported":1734095996,"current_range_meters":16400,"station_id":"ce4bgs92rcd13ifvqcc0","pricing_plan_id":"cebpf4jnsgd1na2vs0mg"},{"bike_id":"ca3bf6a0-806c-4046-b219-bbea4c2ba646","system_id":"levelo_inurba_marseille","lat":43.23192,"lon":5.35553,"is_reserved":false,"is_disabled":false,"rental_uris":{"android":"levelo://app?vid=ca3bf6a0-806c-4046-b219-bbea4c2ba646","ios":"levelo://app?vid=ca3bf6a0-806c-4046-b219-bbea4c2ba646"},"vehicle_type_id":"4","last_reported":1734095996,"current_range_meters":38800,"station_id":"ce4bhu92rcd13ifvqi70","pricing_plan_id":"cebpf4jnsgd1na2vs0mg"},{"bike_id":"057d46ff-2ee8-4fe4-a32e-cfffa3f5aaa8","system_id":"levelo_inurba_marseille","lat":43.28399,"lon":5.39232,"is_reserved":false,"is_disabled":false,"rental_uris":{"android":"levelo://app?vid=057d46ff-2ee8-4fe4-a32e-cfffa3f5aaa8","ios":"levelo://app?vid=057d46ff-2ee8-4fe4-a32e-cfffa3f5aaa8"},"vehicle_type_id":"4","last_reported":1734095996,"current_range_meters":20400,"station_id":"","pricing_plan_id":"cebpf4jnsgd1na2vs0mg"},{"bike_id":"46b2fdec-0870-4ae2-84dc-b1f57512351e","system_id":"levelo_inurba_marseille","lat":43.337444,"lon":5.374475,"is_reserved":false,"is_disabled":true,"rental_uris":{"android":"levelo://app?vid=46b2fdec-0870-4ae2-84dc-b1f57512351e","ios":"levelo://app?vid=46b2fdec-0870-4ae2-84dc-b1f57512351e"},"vehicle_type_id":"4","last_reported":1734095996,"current_range_meters":0,"station_id":"","pricing_plan_id":"cebpf4jnsgd1na2vs0mg"},{"bike_id":"3634ee14-424e-4ddd-b7a4-8494acc0ef71","system_id":"levelo_inurba_marseille","lat":43.28933,"lon":5.3641,"is_reserved":false,"is_disabled":false,"rental_uris":{"android":"levelo://app?vid=3634ee14-424e-4ddd-b7a4-8494acc0ef71","ios":"levelo://app?vid=3634ee14-424e-4ddd-b7a4-8494acc0ef71"},"vehicle_type_id":"4","last_reported":1734095996,"current_range_meters":23200,"station_id":"ce4bhc92rcd13ifvqetg","pricing_plan_id":"cebpf4jnsgd1na2vs0mg"},{"bike_id":"aa79a861-df04-4624-8727-f17cfda404ba","system_id":"levelo_inurba_marseille","lat":43.321461,"lon":5.368177,"is_reserved":false,"is_disabled":false,"rental_uris":{"android":"levelo://app?vid=aa79a861-df04-4624-8727-f17cfda404ba","ios":"levelo://app?vid=aa79a861-df04-4624-8727-f17cfda404ba"},"vehicle_type_id":"4","last_reported":1734095996,"current_range_meters":2800,"station_id":"ce4bhrh2rcd13ifvqhug","pricing_plan_id":"cebpf4jnsgd1na2vs0mg"},{"bike_id":"cbe01e99-0ff7-479e-ac8d-a89f5a65b0d8","system_id":"levelo_inurba_marseille","lat":43.25574,"lon":5.38246,"is_reserved":false,"is_disabled":false,"rental_uris":{"android":"levelo://app?vid=cbe01e99-0ff7-479e-ac8d-a89f5a65b0d8","ios":"levelo://app?vid=cbe01e99-0ff7-479e-ac8d-a89f5a65b0d8"},"vehicle_type_id":"4","last_reported":1734095996,"current_range_meters":36800,"station_id":"ce4bhih2rcd13ifvqfs0","pricing_plan_id":"cebpf4jnsgd1na2vs0mg"},{"bike_id":"e5d00ad2-00e6-44ec-ae2a-c7deff982377","system_id":"levelo_inurba_marseille","lat":43.28473,"lon":5.38407,"is_reserved":false,"is_disabled":true,"rental_uris":{"android":"levelo://app?vid=e5d00ad2-00e6-44ec-ae2a-c7deff982377","ios":"levelo://app?vid=e5d00ad2-00e6-44ec-ae2a-c7deff982377"},"vehicle_type_id":"4","last_reported":1734095996,"current_range_meters":1200,"station_id":"ce4bh512rcd13ifvqe3g","pricing_plan_id":"cebpf4jnsgd1na2vs0mg"},{"bike_id":"7c8d906e-4b51-42bb-9af1-ff1bd760124a","system_id":"levelo_inurba_marseille","lat":43.24082,"lon":5.37752,"is_reserved":false,"is_disabled":false,"rental_uris":{"android":"levelo://app?vid=7c8d906e-4b51-42bb-9af1-ff1bd760124a","ios":"levelo://app?vid=7c8d906e-4b51-42bb-9af1-ff1bd760124a"},"vehicle_type_id":"4","last_reported":1734095996,"current_range_meters":14800,"station_id":"ce4bhnp2rcd13ifvqgvg","pricing_plan_id":"cebpf4jnsgd1na2vs0mg"},{"bike_id":"ecbdb7da-22b1-405b-9b8e-6fa5021a2d09","system_id":"levelo_inurba_marseille","lat":43.29974,"lon":5.37187,"is_reserved":false,"is_disabled":false,"rental_uris":{"android":"levelo://app?vid=ecbdb7da-22b1-405b-9b8e-6fa5021a2d09","ios":"levelo://app?vid=ecbdb7da-22b1-405b-9b8e-6fa5021a2d09"},"vehicle_type_id":"4","last_reported":1734095996,"current_range_meters":30800,"station_id":"ce4bgr92rcd13ifvqc7g","pricing_plan_id":"cebpf4jnsgd1na2vs0mg"},{"bike_id":"30f69c34-2ece-4b1a-9dfd-901085ceaaab","system_id":"levelo_inurba_marseille","lat":43.28398,"lon":5.37519,"is_reserved":false,"is_disabled":false,"rental_uris":{"android":"levelo://app?vid=30f69c34-2ece-4b1a-9dfd-901085ceaaab","ios":"levelo://app?vid=30f69c34-2ece-4b1a-9dfd-901085ceaaab"},"vehicle_type_id":"4","last_reported":1734095996,"current_range_meters":26800,"station_id":"ce4bh412rcd13ifvqds0","pricing_plan_id":"cebpf4jnsgd1na2vs0mg"},{"bike_id":"9c51598c-968e-48b4-81b9-e35f67cfa712","system_id":"levelo_inurba_marseille","lat":43.2846,"lon":5.35887,"is_reserved":false,"is_disabled":true,"rental_uris":{"android":"levelo://app?vid=9c51598c-968e-48b4-81b9-e35f67cfa712","ios":"levelo://app?vid=9c51598c-968e-48b4-81b9-e35f67cfa712"},"vehicle_type_id":"4","last_reported":1734095996,"current_range_meters":38800,"station_id":"ce4bhah2rcd13ifvqei0","pricing_plan_id":"cebpf4jnsgd1na2vs0mg"},{"bike_id":"2448f112-093b-44a4-8c49-c482af2ba024","system_id":"levelo_inurba_marseille","lat":43.23056,"lon":5.35495,"is_reserved":false,"is_disabled":false,"rental_uris":{"android":"levelo://app?vid=2448f112-093b-44a4-8c49-c482af2ba024","ios":"levelo://app?vid=2448f112-093b-44a4-8c49-c482af2ba024"},"vehicle_type_id":"4","last_reported":1734095996,"current_range_meters":26000,"station_id":"cpo3342slgdg3j2ifvpg","pricing_plan_id":"cebpf4jnsgd1na2vs0mg"},{"bike_id":"ae852cf5-4caf-4288-83dc-5af4330cd8f5","system_id":"levelo_inurba_marseille","lat":43.25118,"lon":5.40314,"is_reserved":false,"is_disabled":false,"rental_uris":{"android":"levelo://app?vid=ae852cf5-4caf-4288-83dc-5af4330cd8f5","ios":"levelo://app?vid=ae852cf5-4caf-4288-83dc-5af4330cd8f5"},"vehicle_type_id":"4","last_reported":1734095996,"current_range_meters":16000,"station_id":"ce4bhlh2rcd13ifvqgig","pricing_plan_id":"cebpf4jnsgd1na2vs0mg"},{"bike_id":"20e90c5e-d5d7-4ef5-ba82-92da2a4486ad","system_id":"levelo_inurba_marseille","lat":43.29967,"lon":5.38491,"is_reserved":false,"is_disabled":false,"rental_uris":{"android":"levelo://app?vid=20e90c5e-d5d7-4ef5-ba82-92da2a4486ad","ios":"levelo://app?vid=20e90c5e-d5d7-4ef5-ba82-92da2a4486ad"},"vehicle_type_id":"4","last_reported":1734095996,"current_range_meters":33600,"station_id":"ce4bgj92rcd13ifvqbd0","pricing_plan_id":"cebpf4jnsgd1na2vs0mg"},{"bike_id":"5c7b5ddd-d22a-4b9b-9fd3-1746b7dd5085","system_id":"levelo_inurba_marseille","lat":43.28366,"lon":5.38637,"is_reserved":false,"is_disabled":true,"rental_uris":{"android":"levelo://app?vid=5c7b5ddd-d22a-4b9b-9fd3-1746b7dd5085","ios":"levelo://app?vid=5c7b5ddd-d22a-4b9b-9fd3-1746b7dd5085"},"vehicle_type_id":"4","last_reported":1734095996,"current_range_meters":0,"station_id":"ce4bh492rcd13ifvqdvg","pricing_plan_id":"cebpf4jnsgd1na2vs0mg"},{"bike_id":"569dd298-e91f-4626-b1b6-edc24f409229","system_id":"levelo_inurba_marseille","lat":43.2827,"lon":5.35078,"is_reserved":false,"is_disabled":false,"rental_uris":{"android":"levelo://app?vid=569dd298-e91f-4626-b1b6-edc24f409229","ios":"levelo://app?vid=569dd298-e91f-4626-b1b6-edc24f409229"},"vehicle_type_id":"4","last_reported":1734095996,"current_range_meters":39200,"station_id":"ce4bhbp2rcd13ifvqerg","pricing_plan_id":"cebpf4jnsgd1na2vs0mg"},{"bike_id":"36fe7f2d-6b60-46ad-a5d3-ec5715357c26","system_id":"levelo_inurba_marseille","lat":43.33773,"lon":5.37438,"is_reserved":false,"is_disabled":false,"rental_uris":{"android":"levelo://app?vid=36fe7f2d-6b60-46ad-a5d3-ec5715357c26","ios":"levelo://app?vid=36fe7f2d-6b60-46ad-a5d3-ec5715357c26"},"vehicle_type_id":"4","last_reported":1734095996,"current_range_meters":38400,"station_id":"","pricing_plan_id":"cebpf4jnsgd1na2vs0mg"},{"bike_id":"6d05f7ba-808a-4403-b1f3-f8483fec843c","system_id":"levelo_inurba_marseille","lat":43.23184,"lon":5.3556,"is_reserved":false,"is_disabled":false,"rental_uris":{"android":"levelo://app?vid=6d05f7ba-808a-4403-b1f3-f8483fec843c","ios":"levelo://app?vid=6d05f7ba-808a-4403-b1f3-f8483fec843c"},"vehicle_type_id":"4","last_reported":1734095996,"current_range_meters":27200,"station_id":"ce4bhu92rcd13ifvqi70","pricing_plan_id":"cebpf4jnsgd1na2vs0mg"},{"bike_id":"632cbb7d-3930-4d08-9c55-101c7c0073c2","system_id":"levelo_inurba_marseille","lat":43.30256,"lon":5.37751,"is_reserved":false,"is_disabled":false,"rental_uris":{"android":"levelo://app?vid=632cbb7d-3930-4d08-9c55-101c7c0073c2","ios":"levelo://app?vid=632cbb7d-3930-4d08-9c55-101c7c0073c2"},"vehicle_type_id":"4","last_reported":1734095996,"current_range_meters":38800,"station_id":"ce4bguh2rcd13ifvqcj0","pricing_plan_id":"cebpf4jnsgd1na2vs0mg"},{"bike_id":"36f84b63-5e88-406e-b909-c7ee6424d209","system_id":"levelo_inurba_marseille","lat":43.27952,"lon":5.38712,"is_reserved":false,"is_disabled":true,"rental_uris":{"android":"levelo://app?vid=36f84b63-5e88-406e-b909-c7ee6424d209","ios":"levelo://app?vid=36f84b63-5e88-406e-b909-c7ee6424d209"},"vehicle_type_id":"4","last_reported":1734095996,"current_range_meters":24000,"station_id":"ce4bhg12rcd13ifvqf80","pricing_plan_id":"cebpf4jnsgd1na2vs0mg"},{"bike_id":"22d56e08-a694-4bdb-8ca9-a0933f8deefa","system_id":"levelo_inurba_marseille","lat":43.28262,"lon":5.35059,"is_reserved":false,"is_disabled":false,"rental_uris":{"android":"levelo://app?vid=22d56e08-a694-4bdb-8ca9-a0933f8deefa","ios":"levelo://app?vid=22d56e08-a694-4bdb-8ca9-a0933f8deefa"},"vehicle_type_id":"4","last_reported":1734095996,"current_range_meters":11600,"station_id":"ce4bhbp2rcd13ifvqerg","pricing_plan_id":"cebpf4jnsgd1na2vs0mg"},{"bike_id":"733d48b5-3e3e-4902-9af1-a9d5ec11e190","system_id":"levelo_inurba_marseille","lat":43.27494,"lon":5.42446,"is_reserved":false,"is_disabled":true,"rental_uris":{"android":"levelo://app?vid=733d48b5-3e3e-4902-9af1-a9d5ec11e190","ios":"levelo://app?vid=733d48b5-3e3e-4902-9af1-a9d5ec11e190"},"vehicle_type_id":"4","last_reported":1734095996,"current_range_meters":800,"station_id":"ce4bhn92rcd13ifvqgrg","pricing_plan_id":"cebpf4jnsgd1na2vs0mg"},{"bike_id":"9c8c1480-9ffa-4086-913c-c2125a6eb848","system_id":"levelo_inurba_marseille","lat":43.22931,"lon":5.35378,"is_reserved":false,"is_disabled":false,"rental_uris":{"android":"levelo://app?vid=9c8c1480-9ffa-4086-913c-c2125a6eb848","ios":"levelo://app?vid=9c8c1480-9ffa-4086-913c-c2125a6eb848"},"vehicle_type_id":"4","last_reported":1734095996,"current_range_meters":32400,"station_id":"cpo3532slgdg3j2ikp40","pricing_plan_id":"cebpf4jnsgd1na2vs0mg"},{"bike_id":"6f01bb7d-4400-45d7-98f5-701a6b4c1e67","system_id":"levelo_inurba_marseille","lat":43.29193,"lon":5.39288,"is_reserved":false,"is_disabled":false,"rental_uris":{"android":"levelo://app?vid=6f01bb7d-4400-45d7-98f5-701a6b4c1e67","ios":"levelo://app?vid=6f01bb7d-4400-45d7-98f5-701a6b4c1e67"},"vehicle_type_id":"4","last_reported":1734095996,"current_range_meters":24800,"station_id":"ce4bh192rcd13ifvqdd0","pricing_plan_id":"cebpf4jnsgd1na2vs0mg"},{"bike_id":"21360fa8-8c09-4489-aacd-1df877aa461c","system_id":"levelo_inurba_marseille","lat":43.28926,"lon":5.36403,"is_reserved":false,"is_disabled":false,"rental_uris":{"android":"levelo://app?vid=21360fa8-8c09-4489-aacd-1df877aa461c","ios":"levelo://app?vid=21360fa8-8c09-4489-aacd-1df877aa461c"},"vehicle_type_id":"4","last_reported":1734095996,"current_range_meters":9200,"station_id":"ce4bhc92rcd13ifvqetg","pricing_plan_id":"cebpf4jnsgd1na2vs0mg"},{"bike_id":"dd76e1a4-0943-4507-a76b-20b15c09ddac","system_id":"levelo_inurba_marseille","lat":43.29554,"lon":5.39973,"is_reserved":false,"is_disabled":true,"rental_uris":{"android":"levelo://app?vid=dd76e1a4-0943-4507-a76b-20b15c09ddac","ios":"levelo://app?vid=dd76e1a4-0943-4507-a76b-20b15c09ddac"},"vehicle_type_id":"4","last_reported":1734095996,"current_range_meters":36400,"station_id":"ce4bh312rcd13ifvqdj0","pricing_plan_id":"cebpf4jnsgd1na2vs0mg"},{"bike_id":"0bb9c82a-b040-40b7-867c-b47e66a677f4","system_id":"levelo_inurba_marseille","lat":43.29031,"lon":5.37566,"is_reserved":false,"is_disabled":false,"rental_uris":{"android":"levelo://app?vid=0bb9c82a-b040-40b7-867c-b47e66a677f4","ios":"levelo://app?vid=0bb9c82a-b040-40b7-867c-b47e66a677f4"},"vehicle_type_id":"4","last_reported":1734095996,"current_range_meters":27600,"station_id":"ce4bh692rcd13ifvqe90","pricing_plan_id":"cebpf4jnsgd1na2vs0mg"},{"bike_id":"11569a89-87ad-4dd6-a538-2e060b5201dd","system_id":"levelo_inurba_marseille","lat":43.2842,"lon":5.35005,"is_reserved":false,"is_disabled":true,"rental_uris":{"android":"levelo://app?vid=11569a89-87ad-4dd6-a538-2e060b5201dd","ios":"levelo://app?vid=11569a89-87ad-4dd6-a538-2e060b5201dd"},"vehicle_type_id":"4","last_reported":1734095996,"current_range_meters":19200,"station_id":"ce4bhbh2rcd13ifvqepg","pricing_plan_id":"cebpf4jnsgd1na2vs0mg"},{"bike_id":"76ff6577-012f-45c0-9808-97bac7529c3f","system_id":"levelo_inurba_marseille","lat":43.30186,"lon":5.3751,"is_reserved":false,"is_disabled":false,"rental_uris":{"android":"levelo://app?vid=76ff6577-012f-45c0-9808-97bac7529c3f","ios":"levelo://app?vid=76ff6577-012f-45c0-9808-97bac7529c3f"},