{"last_updated":1699603745,"ttl":30,"version":"2.2","data":{"bikes":[{"bike_id":"5a5a3219-b961-429f-95da-90a3dccb4983","system_id":"levelo_inurba_marseille","lat":43.31341,"lon":5.367098,"is_reserved":false,"is_disabled":false,"rental_uris":{"android":"levelo://app?vid=5a5a3219-b961-429f-95da-90a3dccb4983","ios":"levelo://app?vid=5a5a3219-b961-429f-95da-90a3dccb4983"},"vehicle_type_id":"4","last_reported":1699603745,"current_range_meters":17200,"station_id":"ce4bgr92rcd13ifvqc6g","pricing_plan_id":"free"},{"bike_id":"a65146f2-8d6a-47fb-b4a5-e43349ad5352","system_id":"levelo_inurba_marseille","lat":43.313391,"lon":5.36706,"is_reserved":false,"is_disabled":false,"rental_uris":{"android":"levelo://app?vid=a65146f2-8d6a-47fb-b4a5-e43349ad5352","ios":"levelo://app?vid=a65146f2-8d6a-47fb-b4a5-e43349ad5352"},"vehicle_type_id":"4","last_reported":1699603745,"current_range_meters":30000,"station_id":"ce4bgr92rcd13ifvqc6g","pricing_plan_id":"free"},{"bike_id":"2d132b32-de15-4f66-8101-e60b7b238ef0","system_id":"levelo_inurba_marseille","lat":43.31341,"lon":5.367098,"is_reserved":false,"is_disabled":false,"rental_uris":{"android":"levelo://app?vid=2d132b32-de15-4f66-8101-e60b7b238ef0","ios":"levelo://app?vid=2d132b32-de15-4f66-8101-e60b7b238ef0"},"vehicle_type_id":"4","last_reported":1699603745,"current_range_meters":16800,"station_id":"ce4bgr92rcd13ifvqc6g","pricing_plan_id":"free"},{"bike_id":"76302bc2-d378-4dc0-8b0f-631fa63000bc","system_id":"levelo_inurba_marseille","lat":43.31341,"lon":5.367098,"is_reserved":false,"is_disabled":false,"rental_uris":{"android":"levelo://app?vid=76302bc2-d378-4dc0-8b0f-631fa63000bc","ios":"levelo://app?vid=76302bc2-d378-4dc0-8b0f-631fa63000bc"},"vehicle_type_id":"4","last_reported":1699603745,"current_range_meters":19200,"station_id":"ce4bgr92rcd13ifvqc6g","pricing_plan_id":"free"},{"bike_id":"79b66948-5d86-4ee1-95a1-7f51693e3c0b","system_id":"levelo_inurba_marseille","lat":43.313391,"lon":5.36706,"is_reserved":false,"is_disabled":false,"rental_uris":{"android":"levelo://app?vid=79b66948-5d86-4ee1-95a1-7f51693e3c0b","ios":"levelo://app?vid=79b66948-5d86-4ee1-95a1-7f51693e3c0b"},"vehicle_type_id":"4","last_reported":1699603745,"current_range_meters":22800,"station_id":"ce4bgr92rcd13ifvqc6g","pricing_plan_id":"free"},{"bike_id":"f2053970-3acd-49e7-9cb2-efcf6e87c29d","system_id":"levelo_inurba_marseille","lat":43.31341,"lon":5.367098,"is_reserved":false,"is_disabled":false,"rental_uris":{"android":"levelo://app?vid=f2053970-3acd-49e7-9cb2-efcf6e87c29d","ios":"levelo://app?vid=f2053970-3acd-49e7-9cb2-efcf6e87c29d"},"vehicle_type_id":"4","last_reported":1699603745,"current_range_meters":30000,"station_id":"ce4bgr92rcd13ifvqc6g","pricing_plan_id":"free"},{"bike_id":"104966ae-a01e-43ff-8459-9b9ca0d8c096","system_id":"levelo_inurba_marseille","lat":43.31341,"lon":5.367098,"is_reserved":false,"is_disabled":false,"rental_uris":{"android":"levelo://app?vid=104966ae-a01e-43ff-8459-9b9ca0d8c096","ios":"levelo://app?vid=104966ae-a01e-43ff-8459-9b9ca0d8c096"},"vehicle_type_id":"4","last_reported":1699603745,"current_range_meters":12000,"station_id":"ce4bgr92rcd13ifvqc6g","pricing_plan_id":"free"},{"bike_id":"27234f2c-bc37-4399-88e5-98524116ab87","system_id":"levelo_inurba_marseille","lat":43.31341,"lon":5.367098,"is_reserved":false,"is_disabled":false,"rental_uris":{"android":"levelo://app?vid=27234f2c-bc37-4399-88e5-98524116ab87","ios":"levelo://app?vid=27234f2c-bc37-4399-88e5-98524116ab87"},"vehicle_type_id":"4","last_reported":1699603745,"current_range_meters":26000,"station_id":"ce4bgr92rcd13ifvqc6g","pricing_plan_id":"free"},{"bike_id":"d0483dd8-dea9-4c55-bc66-9c28ea3fb597","system_id":"levelo_inurba_marseille","lat":43.3123,"lon":5.36852,"is_reserved":false,"is_disabled":false,"rental_uris":{"android":"levelo://app?vid=d0483dd8-dea9-4c55-bc66-9c28ea3fb597","ios":"levelo://app?vid=d0483dd8-dea9-4c55-bc66-9c28ea3fb597"},"vehicle_type_id":"4","last_reported":1699603745,"current_range_meters":12400,"station_id":"ce4bgl92rcd13ifvqbq0","pricing_plan_id":"free"},{"bike_id":"6ab0642f-baf3-49de-ab05-c8dce25963d5","system_id":"levelo_inurba_marseille","lat":43.309076,"lon":5.368465,"is_reserved":false,"is_disabled":false,"rental_uris":{"android":"levelo://app?vid=6ab0642f-baf3-49de-ab05-c8dce25963d5","ios":"levelo://app?vid=6ab0642f-baf3-49de-ab05-c8dce25963d5"},"vehicle_type_id":"4","last_reported":1699603745,"current_range_meters":23200,"station_id":"ce4bgn92rcd13ifvqbvg","pricing_plan_id":"free"},{"bike_id":"1b7fddc6-bc68-477c-897c-cfc41f099e99","system_id":"levelo_inurba_marseille","lat":43.309076,"lon":5.368465,"is_reserved":false,"is_disabled":false,"rental_uris":{"android":"levelo://app?vid=1b7fddc6-bc68-477c-897c-cfc41f099e99","ios":"levelo://app?vid=1b7fddc6-bc68-477c-897c-cfc41f099e99"},"vehicle_type_id":"4","last_reported":1699603745,"current_range_meters":13200,"station_id":"ce4bgn92rcd13ifvqbvg","pricing_plan_id":"free"},{"bike_id":"8e973df3-8da9-4e11-8e55-ab8182ead070","system_id":"levelo_inurba_marseille","lat":43.309076,"lon":5.368465,"is_reserved":false,"is_disabled":false,"rental_uris":{"android":"levelo://app?vid=8e973df3-8da9-4e11-8e55-ab8182ead070","ios":"levelo://app?vid=8e973df3-8da9-4e11-8e55-ab8182ead070"},"vehicle_type_id":"4","last_reported":1699603745,"current_range_meters":8000,"station_id":"ce4bgn92rcd13ifvqbvg","pricing_plan_id":"free"},{"bike_id":"4b4d72a4-9e9d-465e-9792-73cb6bf102bc","system_id":"levelo_inurba_marseille","lat":43.309076,"lon":5.368465,"is_reserved":false,"is_disabled":false,"rental_uris":{"android":"levelo://app?vid=4b4d72a4-9e9d-465e-9792-73cb6bf102bc","ios":"levelo://app?vid=4b4d72a4-9e9d-465e-9792-73cb6bf102bc"},"vehicle_type_id":"4","last_reported":1699603745,"current_range_meters":12000,"station_id":"ce4bgn92rcd13ifvqbvg","pricing_plan_id":"free"},{"bike_id":"35de1fd8-22ea-43fd-aaca-12c6da8c223c","system_id":"levelo_inurba_marseille","lat":43.309039,"lon":5.371797,"is_reserved":false,"is_disabled":false,"rental_uris":{"android":"levelo://app?vid=35de1fd8-22ea-43fd-aaca-12c6da8c223c","ios":"levelo://app?vid=35de1fd8-22ea-43fd-aaca-12c6da8c223c"},"vehicle_type_id":"4","last_reported":1699603745,"current_range_meters":26000,"station_id":"ce4bguh2rcd13ifvqckg","pricing_plan_id":"free"},{"bike_id":"2f222026-c000-4c84-9103-e6d44a0ff880","system_id":"levelo_inurba_marseille","lat":43.309039,"lon":5.371797,"is_reserved":false,"is_disabled":false,"rental_uris":{"android":"levelo://app?vid=2f222026-c000-4c84-9103-e6d44a0ff880","ios":"levelo://app?vid=2f222026-c000-4c84-9103-e6d44a0ff880"},"vehicle_type_id":"4","last_reported":1699603745,"current_range_meters":31600,"station_id":"ce4bguh2rcd13ifvqckg","pricing_plan_id":"free"},{"bike_id":"3d6cbaf5-9db7-4661-a897-b899a602adfa","system_id":"levelo_inurba_marseille","lat":43.309039,"lon":5.371797,"is_reserved":false,"is_disabled":false,"rental_uris":{"android":"levelo://app?vid=3d6cbaf5-9db7-4661-a897-b899a602adfa","ios":"levelo://app?vid=3d6cbaf5-9db7-4661-a897-b899a602adfa"},"vehicle_type_id":"4","last_reported":1699603745,"current_range_meters":22400,"station_id":"ce4bguh2rcd13ifvqckg","pricing_plan_id":"free"},{"bike_id":"02e70d68-ac4b-4cae-86de-a546e2a551bf","system_id":"levelo_inurba_marseille","lat":43.309039,"lon":5.371797,"is_reserved":false,"is_disabled":false,"rental_uris":{"android":"levelo://app?vid=02e70d68-ac4b-4cae-86de-a546e2a551bf","ios":"levelo://app?vid=02e70d68-ac4b-4cae-86de-a546e2a551bf"},"vehicle_type_id":"4","last_reported":1699603745,"current_range_meters":21200,"station_id":"ce4bguh2rcd13ifvqckg","pricing_plan_id":"free"},{"bike_id":"c45f79b9-b964-4a05-a9fe-6166630f59d0","system_id":"levelo_inurba_marseille","lat":43.305714,"lon":5.365633,"is_reserved":false,"is_disabled":false,"rental_uris":{"android":"levelo://app?vid=c45f79b9-b964-4a05-a9fe-6166630f59d0","ios":"levelo://app?vid=c45f79b9-b964-4a05-a9fe-6166630f59d0"},"vehicle_type_id":"4","last_reported":1699603745,"current_range_meters":25200,"station_id":"ce4bgs12rcd13ifvqcag","pricing_plan_id":"free"},{"bike_id":"44e5bd9c-3d85-4cb5-acda-88a09b1668fa","system_id":"levelo_inurba_marseille","lat":43.30541,"lon":5.36709,"is_reserved":false,"is_disabled":false,"rental_uris":{"android":"levelo://app?vid=44e5bd9c-3d85-4cb5-acda-88a09b1668fa","ios":"levelo://app?vid=44e5bd9c-3d85-4cb5-acda-88a09b1668fa"},"vehicle_type_id":"4","last_reported":1699603745,"current_range_meters":30400,"station_id":"ce4bgrp2rcd13ifvqc9g","pricing_plan_id":"free"},{"bike_id":"da397768-1954-450b-83ba-ddad8745c9ff","system_id":"levelo_inurba_marseille","lat":43.30539,"lon":5.36717,"is_reserved":false,"is_disabled":false,"rental_uris":{"android":"levelo://app?vid=da397768-1954-450b-83ba-ddad8745c9ff","ios":"levelo://app?vid=da397768-1954-450b-83ba-ddad8745c9ff"},"vehicle_type_id":"4","last_reported":1699603745,"current_range_meters":31200,"station_id":"ce4bgrp2rcd13ifvqc9g","pricing_plan_id":"free"},{"bike_id":"d92ea85f-506f-4e2c-afc0-25eecba594a8","system_id":"levelo_inurba_marseille","lat":43.30536,"lon":5.3671,"is_reserved":false,"is_disabled":false,"rental_uris":{"android":"levelo://app?vid=d92ea85f-506f-4e2c-afc0-25eecba594a8","ios":"levelo://app?vid=d92ea85f-506f-4e2c-afc0-25eecba594a8"},"vehicle_type_id":"4","last_reported":1699603745,"current_range_meters":17200,"station_id":"ce4bgrp2rcd13ifvqc9g","pricing_plan_id":"free"},{"bike_id":"76b359af-c20b-45d0-a1df-78f4c9a6553a","system_id":"levelo_inurba_marseille","lat":43.30544,"lon":5.36541,"is_reserved":false,"is_disabled":false,"rental_uris":{"android":"levelo://app?vid=76b359af-c20b-45d0-a1df-78f4c9a6553a","ios":"levelo://app?vid=76b359af-c20b-45d0-a1df-78f4c9a6553a"},"vehicle_type_id":"4","last_reported":1699603745,"current_range_meters":24400,"station_id":"ce4bgs12rcd13ifvqcag","pricing_plan_id":"free"},{"bike_id":"39a45504-fe4f-43dd-a62f-7efd8bdf54ff","system_id":"levelo_inurba_marseille","lat":43.30539,"lon":5.36554,"is_reserved":false,"is_disabled":false,"rental_uris":{"android":"levelo://app?vid=39a45504-fe4f-43dd-a62f-7efd8bdf54ff","ios":"levelo://app?vid=39a45504-fe4f-43dd-a62f-7efd8bdf54ff"},"vehicle_type_id":"4","last_reported":1699603745,"current_range_meters":22800,"station_id":"ce4bgs12rcd13ifvqcag","pricing_plan_id":"free"},{"bike_id":"fc5b8035-d375-486c-b963-c07e2332bc93","system_id":"levelo_inurba_marseille","lat":43.305229,"lon":5.366943,"is_reserved":false,"is_disabled":false,"rental_uris":{"android":"levelo://app?vid=fc5b8035-d375-486c-b963-c07e2332bc93","ios":"levelo://app?vid=fc5b8035-d375-486c-b963-c07e2332bc93"},"vehicle_type_id":"4","last_reported":1699603745,"current_range_meters":0,"station_id":"ce4bgrp2rcd13ifvqc9g","pricing_plan_id":"free"},{"bike_id":"a144425d-c29c-4f34-826f-d2f10a9a46cf","system_id":"levelo_inurba_marseille","lat":43.304794,"lon":5.365808,"is_reserved":false,"is_disabled":false,"rental_uris":{"android":"levelo://app?vid=a144425d-c29c-4f34-826f-d2f10a9a46cf","ios":"levelo://app?vid=a144425d-c29c-4f34-826f-d2f10a9a46cf"},"vehicle_type_id":"4","last_reported":1699603745,"current_range_meters":17200,"station_id":"","pricing_plan_id":"free"},{"bike_id":"57053367-5328-4d78-8951-737f56b37ed9","system_id":"levelo_inurba_marseille","lat":43.319924,"lon":5.373389,"is_reserved":false,"is_disabled":false,"rental_uris":{"android":"levelo://app?vid=57053367-5328-4d78-8951-737f56b37ed9","ios":"levelo://app?vid=57053367-5328-4d78-8951-737f56b37ed9"},"vehicle_type_id":"4","last_reported":1699603745,"current_range_meters":23200,"station_id":"","pricing_plan_id":"free"},{"bike_id":"37e6cc99-429c-436a-a732-33691b552be9","system_id":"levelo_inurba_marseille","lat":43.317075,"lon":5.377367,"is_reserved":false,"is_disabled":false,"rental_uris":{"android":"levelo://app?vid=37e6cc99-429c-436a-a732-33691b552be9","ios":"levelo://app?vid=37e6cc99-429c-436a-a732-33691b552be9"},"vehicle_type_id":"4","last_reported":1699603745,"current_range_meters":31200,"station_id":"ce4bgth2rcd13ifvqch0","pricing_plan_id":"free"},{"bike_id":"67f7efe0-60ae-42f2-b85e-3f0e9ec5e863","system_id":"levelo_inurba_marseille","lat":43.317075,"lon":5.377367,"is_reserved":false,"is_disabled":false,"rental_uris":{"android":"levelo://app?vid=67f7efe0-60ae-42f2-b85e-3f0e9ec5e863","ios":"levelo://app?vid=67f7efe0-60ae-42f2-b85e-3f0e9ec5e863"},"vehicle_type_id":"4","last_reported":1699603745,"current_range_meters":13600,"station_id":"ce4bgth2rcd13ifvqch0","pricing_plan_id":"free"},{"bike_id":"d073573e-2edf-4bce-9de6-c3e6eb6cd24d","system_id":"levelo_inurba_marseille","lat":43.317075,"lon":5.377367,"is_reserved":false,"is_disabled":false,"rental_uris":{"android":"levelo://app?vid=d073573e-2edf-4bce-9de6-c3e6eb6cd24d","ios":"levelo://app?vid=d073573e-2edf-4bce-9de6-c3e6eb6cd24d"},"vehicle_type_id":"4","last_reported":1699603745,"current_range_meters":31600,"station_id":"ce4bgth2rcd13ifvqch0","pricing_plan_id":"free"},{"bike_id":"b0d59d40-d284-4b1b-a7ba-d8e6972f4654","system_id":"levelo_inurba_marseille","lat":43.317075,"lon":5.377367,"is_reserved":false,"is_disabled":false,"rental_uris":{"android":"levelo://app?vid=b0d59d40-d284-4b1b-a7ba-d8e6972f4654","ios":"levelo://app?vid=b0d59d40-d284-4b1b-a7ba-d8e6972f4654"},"vehicle_type_id":"4","last_reported":1699603745,"current_range_meters":24800,"station_id":"ce4bgth2rcd13ifvqch0","pricing_plan_id":"free"},{"bike_id":"91b3bd0e-e6dc-40ed-8643-1c909d5733dd","system_id":"levelo_inurba_marseille","lat":43.317075,"lon":5.377367,"is_reserved":false,"is_disabled":false,"rental_uris":{"android":"levelo://app?vid=91b3bd0e-e6dc-40ed-8643-1c909d5733dd","ios":"levelo://app?vid=91b3bd0e-e6dc-40ed-8643-1c909d5733dd"},"vehicle_type_id":"4","last_reported":1699603745,"current_range_meters":29600,"station_id":"ce4bgth2rcd13ifvqch0","pricing_plan_id":"free"},{"bike_id":"e57e249b-229d-483a-ad69-c84d6678bd04","system_id":"levelo_inurba_marseille","lat":43.303068,"lon":5.36903,"is_reserved":false,"is_disabled":false,"rental_uris":{"android":"levelo://app?vid=e57e249b-229d-483a-ad69-c84d6678bd04","ios":"levelo://app?vid=e57e249b-229d-483a-ad69-c84d6678bd04"},"vehicle_type_id":"4","last_reported":1699603745,"current_range_meters":26400,"station_id":"ce4bgqh2rcd13ifvqc5g","pricing_plan_id":"free"},{"bike_id":"52e43f3d-cb2f-437b-8c87-91792bb0e7db","system_id":"levelo_inurba_marseille","lat":43.322379,"lon":5.375575,"is_reserved":false,"is_disabled":false,"rental_uris":{"android":"levelo://app?vid=52e43f3d-cb2f-437b-8c87-91792bb0e7db","ios":"levelo://app?vid=52e43f3d-cb2f-437b-8c87-91792bb0e7db"},"vehicle_type_id":"4","last_reported":1699603745,"current_range_meters":10400,"station_id":"","pricing_plan_id":"free"},{"bike_id":"0374ad62-c563-4805-b79d-1f392374dae0","system_id":"levelo_inurba_marseille","lat":43.304606,"lon":5.379026,"is_reserved":false,"is_disabled":false,"rental_uris":{"android":"levelo://app?vid=0374ad62-c563-4805-b79d-1f392374dae0","ios":"levelo://app?vid=0374ad62-c563-4805-b79d-1f392374dae0"},"vehicle_type_id":"4","last_reported":1699603745,"current_range_meters":31600,"station_id":"ce4bgup2rcd13ifvqcn0","pricing_plan_id":"free"},{"bike_id":"236f3641-9cec-4dd3-be09-d046877dd823","system_id":"levelo_inurba_marseille","lat":43.304606,"lon":5.379026,"is_reserved":false,"is_disabled":false,"rental_uris":{"android":"levelo://app?vid=236f3641-9cec-4dd3-be09-d046877dd823","ios":"levelo://app?vid=236f3641-9cec-4dd3-be09-d046877dd823"},"vehicle_type_id":"4","last_reported":1699603745,"current_range_meters":16800,"station_id":"ce4bgup2rcd13ifvqcn0","pricing_plan_id":"free"},{"bike_id":"86f8de9b-e1ee-4597-a48e-1dc0f4ceb4ed","system_id":"levelo_inurba_marseille","lat":43.304606,"lon":5.379026,"is_reserved":false,"is_disabled":false,"rental_uris":{"android":"levelo://app?vid=86f8de9b-e1ee-4597-a48e-1dc0f4ceb4ed","ios":"levelo://app?vid=86f8de9b-e1ee-4597-a48e-1dc0f4ceb4ed"},"vehicle_type_id":"4","last_reported":1699603745,"current_range_meters":27200,"station_id":"ce4bgup2rcd13ifvqcn0","pricing_plan_id":"free"},{"bike_id":"b236103d-5ee3-479a-ad0d-0f311ca85458","system_id":"levelo_inurba_marseille","lat":43.304606,"lon":5.379026,"is_reserved":false,"is_disabled":false,"rental_uris":{"android":"levelo://app?vid=b236103d-5ee3-479a-ad0d-0f311ca85458","ios":"levelo://app?vid=b236103d-5ee3-479a-ad0d-0f311ca85458"},"vehicle_type_id":"4","last_reported":1699603745,"current_range_meters":24000,"station_id":"ce4bgup2rcd13ifvqcn0","pricing_plan_id":"free"},{"bike_id":"c360016b-e179-42c9-8cef-3d7ec330581c","system_id":"levelo_inurba_marseille","lat":43.304606,"lon":5.379026,"is_reserved":false,"is_disabled":false,"rental_uris":{"android":"levelo://app?vid=c360016b-e179-42c9-8cef-3d7ec330581c","ios":"levelo://app?vid=c360016b-e179-42c9-8cef-3d7ec330581c"},"vehicle_type_id":"4","last_reported":1699603745,"current_range_meters":31200,"station_id":"ce4bgup2rcd13ifvqcn0","pricing_plan_id":"free"},{"bike_id":"56d4d73e-8e21-450a-991b-2ca43801e656","system_id":"levelo_inurba_marseille","lat":43.304606,"lon":5.379026,"is_reserved":false,"is_disabled":false,"rental_uris":{"android":"levelo://app?vid=56d4d73e-8e21-450a-991b-2ca43801e656","ios":"levelo://app?vid=56d4d73e-8e21-450a-991b-2ca43801e656"},"vehicle_type_id":"4","last_reported":1699603745,"current_range_meters":30800,"station_id":"ce4bgup2rcd13ifvqcn0","pricing_plan_id":"free"},{"bike_id":"7db124f9-21d3-4749-be67-693707848f0a","system_id":"levelo_inurba_marseille","lat":43.304606,"lon":5.379026,"is_reserved":false,"is_disabled":false,"rental_uris":{"android":"levelo://app?vid=7db124f9-21d3-4749-be67-693707848f0a","ios":"levelo://app?vid=7db124f9-21d3-4749-be67-693707848f0a"},"vehicle_type_id":"4","last_reported":1699603745,"current_range_meters":19200,"station_id":"ce4bgup2rcd13ifvqcn0","pricing_plan_id":"free"},{"bike_id":"637a142c-72ef-41a8-b4e0-50043c4872bb","system_id":"levelo_inurba_marseille","lat":43.304606,"lon":5.379026,"is_reserved":false,"is_disabled":false,"rental_uris":{"android":"levelo://app?vid=637a142c-72ef-41a8-b4e0-50043c4872bb","ios":"levelo://app?vid=637a142c-72ef-41a8-b4e0-50043c4872bb"},"vehicle_type_id":"4","last_reported":1699603745,"current_range_meters":26400,"station_id":"ce4bgup2rcd13ifvqcn0","pricing_plan_id":"free"},{"bike_id":"e39b6328-f87e-46fd-808e-0be999791c6d","system_id":"levelo_inurba_marseille","lat":43.304606,"lon":5.379026,"is_reserved":false,"is_disabled":false,"rental_uris":{"android":"levelo://app?vid=e39b6328-f87e-46fd-808e-0be999791c6d","ios":"levelo://app?vid=e39b6328-f87e-46fd-808e-0be999791c6d"},"vehicle_type_id":"4","last_reported":1699603745,"current_range_meters":14400,"station_id":"ce4bgup2rcd13ifvqcn0","pricing_plan_id":"free"},{"bike_id":"158b4159-e656-4beb-bc1f-b3a16e0c75f8","system_id":"levelo_inurba_marseille","lat":43.304606,"lon":5.379026,"is_reserved":false,"is_disabled":false,"rental_uris":{"android":"levelo://app?vid=158b4159-e656-4beb-bc1f-b3a16e0c75f8","ios":"levelo://app?vid=158b4159-e656-4beb-bc1f-b3a16e0c75f8"},"vehicle_type_id":"4","last_reported":1699603745,"current_range_meters":27200,"station_id":"ce4bgup2rcd13ifvqcn0","pricing_plan_id":"free"},{"bike_id":"bcd6dd6b-5b28-4a04-9bb6-4032a0a916e1","system_id":"levelo_inurba_marseille","lat":43.304606,"lon":5.379026,"is_reserved":false,"is_disabled":false,"rental_uris":{"android":"levelo://app?vid=bcd6dd6b-5b28-4a04-9bb6-4032a0a916e1","ios":"levelo://app?vid=bcd6dd6b-5b28-4a04-9bb6-4032a0a916e1"},"vehicle_type_id":"4","last_reported":1699603745,"current_range_meters":16400,"station_id":"ce4bgup2rcd13ifvqcn0","pricing_plan_id":"free"},{"bike_id":"2d21a6a8-7336-4254-beb7-6f11100e75d9","system_id":"levelo_inurba_marseille","lat":43.304606,"lon":5.379026,"is_reserved":false,"is_disabled":false,"rental_uris":{"android":"levelo://app?vid=2d21a6a8-7336-4254-beb7-6f11100e75d9","ios":"levelo://app?vid=2d21a6a8-7336-4254-beb7-6f11100e75d9"},"vehicle_type_id":"4","last_reported":1699603745,"current_range_meters":21200,"station_id":"ce4bgup2rcd13ifvqcn0","pricing_plan_id":"free"},{"bike_id":"7d660adb-5440-45f9-b45e-6da54e23ae9a","system_id":"levelo_inurba_marseille","lat":43.304606,"lon":5.379026,"is_reserved":false,"is_disabled":false,"rental_uris":{"android":"levelo://app?vid=7d660adb-5440-45f9-b45e-6da54e23ae9a","ios":"levelo://app?vid=7d660adb-5440-45f9-b45e-6da54e23ae9a"},"vehicle_type_id":"4","last_reported":1699603745,"current_range_meters":400,"station_id":"ce4bgup2rcd13ifvqcn0","pricing_plan_id":"free"},{"bike_id":"a46be2f6-04d5-45f1-8a54-4eac07f1d68a","system_id":"levelo_inurba_marseille","lat":43.304606,"lon":5.379026,"is_reserved":false,"is_disabled":false,"rental_uris":{"android":"levelo://app?vid=a46be2f6-04d5-45f1-8a54-4eac07f1d68a","ios":"levelo://app?vid=a46be2f6-04d5-45f1-8a54-4eac07f1d68a"},"vehicle_type_id":"4","last_reported":1699603745,"current_range_meters":30000,"station_id":"ce4bgup2rcd13ifvqcn0","pricing_plan_id":"free"},{"bike_id":"2128c909-acff-4222-8eb4-ef5366236288","system_id":"levelo_inurba_marseille","lat":43.304606,"lon":5.379026,"is_reserved":false,"is_disabled":false,"rental_uris":{"android":"levelo://app?vid=2128c909-acff-4222-8eb4-ef5366236288","ios":"levelo://app?vid=2128c909-acff-4222-8eb4-ef5366236288"},"vehicle_type_id":"4","last_reported":1699603745,"current_range_meters":29200,"station_id":"ce4bgup2rcd13ifvqcn0","pricing_plan_id":"free"},{"bike_id":"fc087785-ea35-467b-9824-03a5a669285f","system_id":"levelo_inurba_marseille","lat":43.304606,"lon":5.379026,"is_reserved":false,"is_disabled":false,"rental_uris":{"android":"levelo://app?vid=fc087785-ea35-467b-9824-03a5a669285f","ios":"levelo://app?vid=fc087785-ea35-467b-9824-03a5a669285f"},"vehicle_type_id":"4","last_reported":1699603745,"current_range_meters":26000,"station_id":"ce4bgup2rcd13ifvqcn0","pricing_plan_id":"free"},{"bike_id":"77d467c6-772f-4209-b765-7ff39c1eb929","system_id":"levelo_inurba_marseille","lat":43.304606,"lon":5.379026,"is_reserved":false,"is_disabled":false,"rental_uris":{"android":"levelo://app?vid=77d467c6-772f-4209-b765-7ff39c1eb929","ios":"levelo://app?vid=77d467c6-772f-4209-b765-7ff39c1eb929"},"vehicle_type_id":"4","last_reported":1699603745,"current_range_meters":27200,"station_id":"ce4bgup2rcd13ifvqcn0","pricing_plan_id":"free"},{"bike_id":"f70d7104-c8d7-469b-b2a5-668770fb26df","system_id":"levelo_inurba_marseille","lat":43.304606,"lon":5.379026,"is_reserved":false,"is_disabled":false,"rental_uris":{"android":"levelo://app?vid=f70d7104-c8d7-469b-b2a5-668770fb26df","ios":"levelo://app?vid=f70d7104-c8d7-469b-b2a5-668770fb26df"},"vehicle_type_id":"4","last_reported":1699603745,"current_range_meters":10800,"station_id":"ce4bgup2rcd13ifvqcn0","pricing_plan_id":"free"},{"bike_id":"4ddf6a1c-fcba-4d13-ba41-24e3b2453aac","system_id":"levelo_inurba_marseille","lat":43.304606,"lon":5.379026,"is_reserved":false,"is_disabled":false,"rental_uris":{"android":"levelo://app?vid=4ddf6a1c-fcba-4d13-ba41-24e3b2453aac","ios":"levelo://app?vid=4ddf6a1c-fcba-4d13-ba41-24e3b2453aac"},"vehicle_type_id":"4","last_reported":1699603745,"current_range_meters":12800,"station_id":"ce4bgup2rcd13ifvqcn0","pricing_plan_id":"free"},{"bike_id":"cd6de071-6edc-479d-a8e1-cdb207a8a94a","system_id":"levelo_inurba_marseille","lat":43.304606,"lon":5.379026,"is_reserved":false,"is_disabled":false,"rental_uris":{"android":"levelo://app?vid=cd6de071-6edc-479d-a8e1-cdb207a8a94a","ios":"levelo://app?vid=cd6de071-6edc-479d-a8e1-cdb207a8a94a"},"vehicle_type_id":"4","last_reported":1699603745,"current_range_meters":6000,"station_id":"ce4bgup2rcd13ifvqcn0","pricing_plan_id":"free"},{"bike_id":"7da0ee78-15a2-42f6-9749-ff20028119d4","system_id":"levelo_inurba_marseille","lat":43.304606,"lon":5.379026,"is_reserved":false,"is_disabled":false,"rental_uris":{"android":"levelo://app?vid=7da0ee78-15a2-42f6-9749-ff20028119d4","ios":"levelo://app?vid=7da0ee78-15a2-42f6-9749-ff20028119d4"},"vehicle_type_id":"4","last_reported":1699603745,"current_range_meters":4000,"station_id":"ce4bgup2rcd13ifvqcn0","pricing_plan_id":"free"},{"bike_id":"85dc41b5-79e4-4d29-b51a-153354797028","system_id":"levelo_inurba_marseille","lat":43.304606,"lon":5.379026,"is_reserved":false,"is_disabled":false,"rental_uris":{"android":"levelo://app?vid=85dc41b5-79e4-4d29-b51a-153354797028","ios":"levelo://app?vid=85dc41b5-79e4-4d29-b51a-153354797028"},"vehicle_type_id":"4","last_reported":1699603745,"current_range_meters":20800,"station_id":"ce4bgup2rcd13ifvqcn0","pricing_plan_id":"free"},{"bike_id":"764129e1-e376-4cf3-ba83-9e7f3f0ec798","system_id":"levelo_inurba_marseille","lat":43.30457,"lon":5.37924,"is_reserved":false,"is_disabled":false,"rental_uris":{"android":"levelo://app?vid=764129e1-e376-4cf3-ba83-9e7f3f0ec798","ios":"levelo://app?vid=764129e1-e376-4cf3-ba83-9e7f3f0ec798"},"vehicle_type_id":"4","last_reported":1699603745,"current_range_meters":27200,"station_id":"ce4bgup2rcd13ifvqcn0","pricing_plan_id":"free"},{"bike_id":"12d1c79f-493b-4be4-aaf2-d49ed9088ac2","system_id":"levelo_inurba_marseille","lat":43.302784,"lon":5.377158,"is_reserved":false,"is_disabled":false,"rental_uris":{"android":"levelo://app?vid=12d1c79f-493b-4be4-aaf2-d49ed9088ac2","ios":"levelo://app?vid=12d1c79f-493b-4be4-aaf2-d49ed9088ac2"},"vehicle_type_id":"4","last_reported":1699603745,"current_range_meters":28800,"station_id":"ce4bguh2rcd13ifvqcj0","pricing_plan_id":"free"},{"bike_id":"6e6c34b4-bcd1-490b-8284-6e6fd9253973","system_id":"levelo_inurba_marseille","lat":43.302784,"lon":5.377158,"is_reserved":false,"is_disabled":false,"rental_uris":{"android":"levelo://app?vid=6e6c34b4-bcd1-490b-8284-6e6fd9253973","ios":"levelo://app?vid=6e6c34b4-bcd1-490b-8284-6e6fd9253973"},"vehicle_type_id":"4","last_reported":1699603745,"current_range_meters":25600,"station_id":"ce4bguh2rcd13ifvqcj0","pricing_plan_id":"free"},{"bike_id":"82ea52a2-c47a-418f-8cb6-c8cbecfb185e","system_id":"levelo_inurba_marseille","lat":43.302784,"lon":5.377158,"is_reserved":false,"is_disabled":false,"rental_uris":{"android":"levelo://app?vid=82ea52a2-c47a-418f-8cb6-c8cbecfb185e","ios":"levelo://app?vid=82ea52a2-c47a-418f-8cb6-c8cbecfb185e"},"vehicle_type_id":"4","last_reported":1699603745,"current_range_meters":8400,"station_id":"ce4bguh2rcd13ifvqcj0","pricing_plan_id":"free"},{"bike_id":"3bd249ea-9127-4491-a87f-05ae4d2f9bf4","system_id":"levelo_inurba_marseille","lat":43.302784,"lon":5.377158,"is_reserved":false,"is_disabled":false,"rental_uris":{"android":"levelo://app?vid=3bd249ea-9127-4491-a87f-05ae4d2f9bf4","ios":"levelo://app?vid=3bd249ea-9127-4491-a87f-05ae4d2f9bf4"},"vehicle_type_id":"4","last_reported":1699603745,"current_range_meters":8800,"station_id":"ce4bguh2rcd13ifvqcj0","pricing_plan_id":"free"},{"bike_id":"b6775ab8-69b2-488e-9404-fae297d1b9c5","system_id":"levelo_inurba_marseille","lat":43.302784,"lon":5.377158,"is_reserved":false,"is_disabled":false,"rental_uris":{"android":"levelo://app?vid=b6775ab8-69b2-488e-9404-fae297d1b9c5","ios":"levelo://app?vid=b6775ab8-69b2-488e-9404-fae297d1b9c5"},"vehicle_type_id":"4","last_reported":1699603745,"current_range_meters":4400,"station_id":"ce4bguh2rcd13ifvqcj0","pricing_plan_id":"free"},{"bike_id":"b51ec039-94ab-453c-82dc-2c419b088855","system_id":"levelo_inurba_marseille","lat":43.30143,"lon":5.37413,"is_reserved":false,"is_disabled":false,"rental_uris":{"android":"levelo://app?vid=b51ec039-94ab-453c-82dc-2c419b088855","ios":"levelo://app?vid=b51ec039-94ab-453c-82dc-2c419b088855"},"vehicle_type_id":"4","last_reported":1699603745,"current_range_meters":26000,"station_id":"ce4bgs92rcd13ifvqcc0","pricing_plan_id":"free"},{"bike_id":"18efc37c-11a5-4500-8b7e-c081cc4039ae","system_id":"levelo_inurba_marseille","lat":43.302784,"lon":5.377158,"is_reserved":false,"is_disabled":false,"rental_uris":{"android":"levelo://app?vid=18efc37c-11a5-4500-8b7e-c081cc4039ae","ios":"levelo://app?vid=18efc37c-11a5-4500-8b7e-c081cc4039ae"},"vehicle_type_id":"4","last_reported":1699603745,"current_range_meters":21600,"station_id":"ce4bguh2rcd13ifvqcj0","pricing_plan_id":"free"},{"bike_id":"91892a9b-fcb7-4e61-931c-f257fa313fb8","system_id":"levelo_inurba_marseille","lat":43.30143,"lon":5.37413,"is_reserved":false,"is_disabled":false,"rental_uris":{"android":"levelo://app?vid=91892a9b-fcb7-4e61-931c-f257fa313fb8","ios":"levelo://app?vid=91892a9b-fcb7-4e61-931c-f257fa313fb8"},"vehicle_type_id":"4","last_reported":1699603745,"current_range_meters":29600,"station_id":"ce4bgs92rcd13ifvqcc0","pricing_plan_id":"free"},{"bike_id":"c2b9e779-733d-48e0-99d7-2dc0f147402f","system_id":"levelo_inurba_marseille","lat":43.301429,"lon":5.37413,"is_reserved":false,"is_disabled":false,"rental_uris":{"android":"levelo://app?vid=c2b9e779-733d-48e0-99d7-2dc0f147402f","ios":"levelo://app?vid=c2b9e779-733d-48e0-99d7-2dc0f147402f"},"vehicle_type_id":"4","last_reported":1699603745,"current_range_meters":23600,"station_id":"ce4bgs92rcd13ifvqcc0","pricing_plan_id":"free"},{"bike_id":"4d1b9327-b35c-482f-8e61-fe4a60de4630","system_id":"levelo_inurba_marseille","lat":43.302784,"lon":5.377158,"is_reserved":false,"is_disabled":false,"rental_uris":{"android":"levelo://app?vid=4d1b9327-b35c-482f-8e61-fe4a60de4630","ios":"levelo://app?vid=4d1b9327-b35c-482f-8e61-fe4a60de4630"},"vehicle_type_id":"4","last_reported":1699603745,"current_range_meters":25600,"station_id":"ce4bguh2rcd13ifvqcj0","pricing_plan_id":"free"},{"bike_id":"bb0a6094-33c3-46d9-aeb8-9d88a1b85668","system_id":"levelo_inurba_marseille","lat":43.31997,"lon":5.38142,"is_reserved":false,"is_disabled":false,"rental_uris":{"android":"levelo://app?vid=bb0a6094-33c3-46d9-aeb8-9d88a1b85668","ios":"levelo://app?vid=bb0a6094-33c3-46d9-aeb8-9d88a1b85668"},"vehicle_type_id":"4","last_reported":1699603745,"current_range_meters":30400,"station_id":"ce4bhr12rcd13ifvqhpg","pricing_plan_id":"free"},{"bike_id":"13475556-4acf-4aa6-b00a-f5068b4b97fc","system_id":"levelo_inurba_marseille","lat":43.31998,"lon":5.38143,"is_reserved":false,"is_disabled":false,"rental_uris":{"android":"levelo://app?vid=13475556-4acf-4aa6-b00a-f5068b4b97fc","ios":"levelo://app?vid=13475556-4acf-4aa6-b00a-f5068b4b97fc"},"vehicle_type_id":"4","last_reported":1699603745,"current_range_meters":28000,"station_id":"ce4bhr12rcd13ifvqhpg","pricing_plan_id":"free"},{"bike_id":"69166d53-ec8e-4a0a-864c-7a29f7650dd8","system_id":"levelo_inurba_marseille","lat":43.32107,"lon":5.3803,"is_reserved":false,"is_disabled":false,"rental_uris":{"android":"levelo://app?vid=69166d53-ec8e-4a0a-864c-7a29f7650dd8","ios":"levelo://app?vid=69166d53-ec8e-4a0a-864c-7a29f7650dd8"},"vehicle_type_id":"4","last_reported":1699603745,"current_range_meters":24800,"station_id":"","pricing_plan_id":"free"},{"bike_id":"defcaae0-157e-473b-a98e-5551c6052783","system_id":"levelo_inurba_marseille","lat":43.31998,"lon":5.38147,"is_reserved":false,"is_disabled":false,"rental_uris":{"android":"levelo://app?vid=defcaae0-157e-473b-a98e-5551c6052783","ios":"levelo://app?vid=defcaae0-157e-473b-a98e-5551c6052783"},"vehicle_type_id":"4","last_reported":1699603745,"current_range_meters":13600,"station_id":"ce4bhr12rcd13ifvqhpg","pricing_plan_id":"free"},{"bike_id":"1482bc32-7a23-4109-885f-2d119a1e3cec","system_id":"levelo_inurba_marseille","lat":43.31995,"lon":5.38151,"is_reserved":false,"is_disabled":false,"rental_uris":{"android":"levelo://app?vid=1482bc32-7a23-4109-885f-2d119a1e3cec","ios":"levelo://app?vid=1482bc32-7a23-4109-885f-2d119a1e3cec"},"vehicle_type_id":"4","last_reported":1699603745,"current_range_meters":13200,"station_id":"ce4bhr12rcd13ifvqhpg","pricing_plan_id":"free"},{"bike_id":"f0e0fac1-61fc-4545-80df-e429e55c1818","system_id":"levelo_inurba_marseille","lat":43.31996,"lon":5.38151,"is_reserved":false,"is_disabled":false,"rental_uris":{"android":"levelo://app?vid=f0e0fac1-61fc-4545-80df-e429e55c1818","ios":"levelo://app?vid=f0e0fac1-61fc-4545-80df-e429e55c1818"},"vehicle_type_id":"4","last_reported":1699603745,"current_range_meters":26800,"station_id":"ce4bhr12rcd13ifvqhpg","pricing_plan_id":"free"},{"bike_id":"d98ef63b-3279-44c8-ac44-bc93896579ca","system_id":"levelo_inurba_marseille","lat":43.319993,"lon":5.381496,"is_reserved":false,"is_disabled":false,"rental_uris":{"android":"levelo://app?vid=d98ef63b-3279-44c8-ac44-bc93896579ca","ios":"levelo://app?vid=d98ef63b-3279-44c8-ac44-bc93896579ca"},"vehicle_type_id":"4","last_reported":1699603745,"current_range_meters":22000,"station_id":"ce4bhr12rcd13ifvqhpg","pricing_plan_id":"free"},{"bike_id":"13d78257-2559-4a10-97b8-aaa7032179bc","system_id":"levelo_inurba_marseille","lat":43.319975,"lon":5.381519,"is_reserved":false,"is_disabled":false,"rental_uris":{"android":"levelo://app?vid=13d78257-2559-4a10-97b8-aaa7032179bc","ios":"levelo://app?vid=13d78257-2559-4a10-97b8-aaa7032179bc"},"vehicle_type_id":"4","last_reported":1699603745,"current_range_meters":8800,"station_id":"","pricing_plan_id":"free"},{"bike_id":"b6046f74-4348-4671-8214-63027a43228f","system_id":"levelo_inurba_marseille","lat":43.32004,"lon":5.38148,"is_reserved":false,"is_disabled":false,"rental_uris":{"android":"levelo://app?vid=b6046f74-4348-4671-8214-63027a43228f","ios":"levelo://app?vid=b6046f74-4348-4671-8214-63027a43228f"},"vehicle_type_id":"4","last_reported":1699603745,"current_range_meters":18800,"station_id":"ce4bhr12rcd13ifvqhpg","pricing_plan_id":"free"},{"bike_id":"14f69812-558e-4871-8d1c-51db74bef75f","system_id":"levelo_inurba_marseille","lat":43.299724,"lon":5.371829,"is_reserved":false,"is_disabled":false,"rental_uris":{"android":"levelo://app?vid=14f69812-558e-4871-8d1c-51db74bef75f","ios":"levelo://app?vid=14f69812-558e-4871-8d1c-51db74bef75f"},"vehicle_type_id":"4","last_reported":1699603745,"current_range_meters":18000,"station_id":"ce4bgr92rcd13ifvqc7g","pricing_plan_id":"free"},{"bike_id":"66753465-b425-490b-ad5d-9eb232511d3b","system_id":"levelo_inurba_marseille","lat":43.299724,"lon":5.371829,"is_reserved":false,"is_disabled":false,"rental_uris":{"android":"levelo://app?vid=66753465-b425-490b-ad5d-9eb232511d3b","ios":"levelo://app?vid=66753465-b425-490b-ad5d-9eb232511d3b"},"vehicle_type_id":"4","last_reported":1699603745,"current_range_meters":10000,"station_id":"ce4bgr92rcd13ifvqc7g","pricing_plan_id":"free"},{"bike_id":"2599e459-f155-40e8-af87-42a9cdc2fe5e","system_id":"levelo_inurba_marseille","lat":43.299724,"lon":5.371829,"is_reserved":false,"is_disabled":false,"rental_uris":{"android":"levelo://app?vid=2599e459-f155-40e8-af87-42a9cdc2fe5e","ios":"levelo://app?vid=2599e459-f155-40e8-af87-42a9cdc2fe5e"},"vehicle_type_id":"4","last_reported":1699603745,"current_range_meters":3200,"station_id":"ce4bgr92rcd13ifvqc7g","pricing_plan_id":"free"},{"bike_id":"0ebaaf68-62f9-42cd-b864-48cabba77e6e","system_id":"levelo_inurba_marseille","lat":43.299724,"lon":5.371829,"is_reserved":false,"is_disabled":false,"rental_uris":{"android":"levelo://app?vid=0ebaaf68-62f9-42cd-b864-48cabba77e6e","ios":"levelo://app?vid=0ebaaf68-62f9-42cd-b864-48cabba77e6e"},"vehicle_type_id":"4","last_reported":1699603745,"current_range_meters":25200,"station_id":"ce4bgr92rcd13ifvqc7g","pricing_plan_id":"free"},{"bike_id":"06c583c5-2abd-4c26-838d-2f83b28396c6","system_id":"levelo_inurba_marseille","lat":43.299724,"lon":5.371829,"is_reserved":false,"is_disabled":false,"rental_uris":{"android":"levelo://app?vid=06c583c5-2abd-4c26-838d-2f83b28396c6","ios":"levelo://app?vid=06c583c5-2abd-4c26-838d-2f83b28396c6"},"vehicle_type_id":"4","last_reported":1699603745,"current_range_meters":19200,"station_id":"ce4bgr92rcd13ifvqc7g","pricing_plan_id":"free"},{"bike_id":"2aa07dbd-abc3-43b6-a1fa-b3b25d3cf066","system_id":"levelo_inurba_marseille","lat":43.32148,"lon":5.38202,"is_reserved":false,"is_disabled":false,"rental_uris":{"android":"levelo://app?vid=2aa07dbd-abc3-43b6-a1fa-b3b25d3cf066","ios":"levelo://app?vid=2aa07dbd-abc3-43b6-a1fa-b3b25d3cf066"},"vehicle_type_id":"4","last_reported":1699603745,"current_range_meters":0,"station_id":"","pricing_plan_id":"free"},{"bike_id":"fbcb21e0-97f4-494f-8e37-6f3be4daec7c","system_id":"levelo_inurba_marseille","lat":43.299243,"lon":5.374807,"is_reserved":false,"is_disabled":false,"rental_uris":{"android":"levelo://app?vid=fbcb21e0-97f4-494f-8e37-6f3be4daec7c","ios":"levelo://app?vid=fbcb21e0-97f4-494f-8e37-6f3be4daec7c"},"vehicle_type_id":"4","last_reported":1699603745,"current_range_meters":26000,"station_id":"ce4bgjh2rcd13ifvqbg0","pricing_plan_id":"free"},{"bike_id":"b69f9bb4-6d9e-4593-aee4-20cea352585d","system_id":"levelo_inurba_marseille","lat":43.298433,"lon":5.362774,"is_reserved":false,"is_disabled":false,"rental_uris":{"android":"levelo://app?vid=b69f9bb4-6d9e-4593-aee4-20cea352585d","ios":"levelo://app?vid=b69f9bb4-6d9e-4593-aee4-20cea352585d"},"vehicle_type_id":"4","last_reported":1699603745,"current_range_meters":28000,"station_id":"ce4bgpp2rcd13ifvqc3g","pricing_plan_id":"free"},{"bike_id":"8950f55a-e75d-4fac-9a7c-f529bc0580a5","system_id":"levelo_inurba_marseille","lat":43.320464,"lon":5.384144,"is_reserved":false,"is_disabled":false,"rental_uris":{"android":"levelo://app?vid=8950f55a-e75d-4fac-9a7c-f529bc0580a5","ios":"levelo://app?vid=8950f55a-e75d-4fac-9a7c-f529bc0580a5"},"vehicle_type_id":"4","last_reported":1699603745,"current_range_meters":17600,"station_id":"","pricing_plan_id":"free"},{"bike_id":"47fd440a-6b7d-4496-b183-0bcd99366c30","system_id":"levelo_inurba_marseille","lat":43.299243,"lon":5.374807,"is_reserved":false,"is_disabled":false,"rental_uris":{"android":"levelo://app?vid=47fd440a-6b7d-4496-b183-0bcd99366c30","ios":"levelo://app?vid=47fd440a-6b7d-4496-b183-0bcd99366c30"},"vehicle_type_id":"4","last_reported":1699603745,"current_range_meters":30400,"station_id":"ce4bgjh2rcd13ifvqbg0","pricing_plan_id":"free"},{"bike_id":"30104a21-d217-4183-8b94-11103cf98908","system_id":"levelo_inurba_marseille","lat":43.297794,"lon":5.370888,"is_reserved":false,"is_disabled":false,"rental_uris":{"android":"levelo://app?vid=30104a21-d217-4183-8b94-11103cf98908","ios":"levelo://app?vid=30104a21-d217-4183-8b94-11103cf98908"},"vehicle_type_id":"4","last_reported":1699603745,"current_range_meters":4800,"station_id":"ce4bgop2rcd13ifvqc1g","pricing_plan_id":"free"},{"bike_id":"fe153c21-d64e-4996-a512-be502539e17c","system_id":"levelo_inurba_marseille","lat":43.297774,"lon":5.370875,"is_reserved":false,"is_disabled":false,"rental_uris":{"android":"levelo://app?vid=fe153c21-d64e-4996-a512-be502539e17c","ios":"levelo://app?vid=fe153c21-d64e-4996-a512-be502539e17c"},"vehicle_type_id":"4","last_reported":1699603745,"current_range_meters":27200,"station_id":"ce4bgop2rcd13ifvqc1g","pricing_plan_id":"free"},{"bike_id":"c56743ff-3529-452f-8708-34e7cedc17ce","system_id":"levelo_inurba_marseille","lat":43.297794,"lon":5.370888,"is_reserved":false,"is_disabled":false,"rental_uris":{"android":"levelo://app?vid=c56743ff-3529-452f-8708-34e7cedc17ce","ios":"levelo://app?vid=c56743ff-3529-452f-8708-34e7cedc17ce"},"vehicle_type_id":"4","last_reported":1699603745,"current_range_meters":1600,"station_id":"ce4bgop2rcd13ifvqc1g","pricing_plan_id":"free"},{"bike_id":"6abc6ed3-7ee5-474c-b332-4aeb367ba6b7","system_id":"levelo_inurba_marseille","lat":43.322872,"lon":5.382756,"is_reserved":false,"is_disabled":false,"rental_uris":{"android":"levelo://app?vid=6abc6ed3-7ee5-474c-b332-4aeb367ba6b7","ios":"levelo://app?vid=6abc6ed3-7ee5-474c-b332-4aeb367ba6b7"},"vehicle_type_id":"4","last_reported":1699603745,"current_range_meters":24000,"station_id":"ce4bhr12rcd13ifvqhqg","pricing_plan_id":"free"},{"bike_id":"adec3add-adaa-4c07-9d6b-d29fb6c4f19c","system_id":"levelo_inurba_marseille","lat":43.322872,"lon":5.382756,"is_reserved":false,"is_disabled":false,"rental_uris":{"android":"levelo://app?vid=adec3add-adaa-4c07-9d6b-d29fb6c4f19c","ios":"levelo://app?vid=adec3add-adaa-4c07-9d6b-d29fb6c4f19c"},"vehicle_type_id":"4","last_reported":1699603745,"current_range_meters":31200,"station_id":"ce4bhr12rcd13ifvqhqg","pricing_plan_id":"free"},{"bike_id":"e4a895a8-c6d1-4804-993c-b111541ae28a","system_id":"levelo_inurba_marseille","lat":43.322872,"lon":5.382756,"is_reserved":false,"is_disabled":false,"rental_uris":{"android":"levelo://app?vid=e4a895a8-c6d1-4804-993c-b111541ae28a","ios":"levelo://app?vid=e4a895a8-c6d1-4804-993c-b111541ae28a"},"vehicle_type_id":"4","last_reported":1699603745,"current_range_meters":11200,"station_id":"ce4bhr12rcd13ifvqhqg","pricing_plan_id":"free"},{"bike_id":"3107b7f8-ab0e-4ce9-87df-bf5ce8e59681","system_id":"levelo_inurba_marseille","lat":43.322904,"lon":5.382746,"is_reserved":false,"is_disabled":false,"rental_uris":{"android":"levelo://app?vid=3107b7f8-ab0e-4ce9-87df-bf5ce8e59681","ios":"levelo://app?vid=3107b7f8-ab0e-4ce9-87df-bf5ce8e59681"},"vehicle_type_id":"4","last_reported":1699603745,"current_range_meters":16400,"station_id":"ce4bhr12rcd13ifvqhqg","pricing_plan_id":"free"},{"bike_id":"277ef9fe-d8b7-4cff-84c5-ec7dab05f05d","system_id":"levelo_inurba_marseille","lat":43.328371,"lon":5.366909,"is_reserved":false,"is_disabled":false,"rental_uris":{"android":"levelo://app?vid=277ef9fe-d8b7-4cff-84c5-ec7dab05f05d","ios":"levelo://app?vid=277ef9fe-d8b7-4cff-84c5-ec7dab05f05d"},"vehicle_type_id":"4","last_reported":1699603745,"current_range_meters":6000,"station_id":"ce4bhs92rcd13ifvqi0g","pricing_plan_id":"free"},{"bike_id":"f437c1fb-b5f1-44fe-aa69-52bd1cd9ade2","system_id":"levelo_inurba_marseille","lat":43.328371,"lon":5.366909,"is_reserved":false,"is_disabled":false,"rental_uris":{"android":"levelo://app?vid=f437c1fb-b5f1-44fe-aa69-52bd1cd9ade2","ios":"levelo://app?vid=f437c1fb-b5f1-44fe-aa69-52bd1cd9ade2"},"vehicle_type_id":"4","last_reported":1699603745,"current_range_meters":16800,"station_id":"ce4bhs92rcd13ifvqi0g","pricing_plan_id":"free"},{"bike_id":"7c5b2ce2-e80d-4552-ad49-1bc8cd5d92c3","system_id":"levelo_inurba_marseille","lat":43.31595,"lon":5.38931,"is_reserved":false,"is_disabled":false,"rental_uris":{"android":"levelo://app?vid=7c5b2ce2-e80d-4552-ad49-1bc8cd5d92c3","ios":"levelo://app?vid=7c5b2ce2-e80d-4552-ad49-1bc8cd5d92c3"},"vehicle_type_id":"4","last_reported":1699603745,"current_range_meters":12000,"station_id":"","pricing_plan_id":"free"},{"bike_id":"547558d2-d8a3-47c3-8381-a4377ae77cfa","system_id":"levelo_inurba_marseille","lat":43.295963,"lon":5.368107,"is_reserved":false,"is_disabled":false,"rental_uris":{"android":"levelo://app?vid=547558d2-d8a3-47c3-8381-a4377ae77cfa","ios":"levelo://app?vid=547558d2-d8a3-47c3-8381-a4377ae77cfa"},"vehicle_type_id":"4","last_reported":1699603745,"current_range_meters":24800,"station_id":"","pricing_plan_id":"free"},{"bike_id":"454c8652-2b88-4243-8841-e293591be0c8","system_id":"levelo_inurba_marseille","lat":43.309589,"lon":5.390258,"is_reserved":false,"is_disabled":false,"rental_uris":{"android":"levelo://app?vid=454c8652-2b88-4243-8841-e293591be0c8","ios":"levelo://app?vid=454c8652-2b88-4243-8841-e293591be0c8"},"vehicle_type_id":"4","last_reported":1699603745,"current_range_meters":18000,"station_id":"ce4bgup2rcd13ifvqco0","pricing_plan_id":"free"},{"bike_id":"d447991a-59b4-4778-a190-7d2b0920a414","system_id":"levelo_inurba_marseille","lat":43.32215,"lon":5.38613,"is_reserved":false,"is_disabled":false,"rental_uris":{"android":"levelo://app?vid=d447991a-59b4-4778-a190-7d2b0920a414","ios":"levelo://app?vid=d447991a-59b4-4778-a190-7d2b0920a414"},"vehicle_type_id":"4","last_reported":1699603745,"current_range_meters":25200,"station_id":"","pricing_plan_id":"free"},{"bike_id":"942a5887-c6c6-4e22-adf3-1f9956918a50","system_id":"levelo_inurba_marseille","lat":43.29573,"lon":5.367355,"is_reserved":false,"is_disabled":false,"rental_uris":{"android":"levelo://app?vid=942a5887-c6c6-4e22-adf3-1f9956918a50","ios":"levelo://app?vid=942a5887-c6c6-4e22-adf3-1f9956918a50"},"vehicle_type_id":"4","last_reported":1699603745,"current_range_meters":22800,"station_id":"ce4bgph2rcd13ifvqc2g","pricing_plan_id":"free"},{"bike_id":"d6427e54-408f-42d1-ad51-e1b5e8fc1e6f","system_id":"levelo_inurba_marseille","lat":43.296131,"lon":5.370791,"is_reserved":false,"is_disabled":false,"rental_uris":{"android":"levelo://app?vid=d6427e54-408f-42d1-ad51-e1b5e8fc1e6f","ios":"levelo://app?vid=d6427e54-408f-42d1-ad51-e1b5e8fc1e6f"},"vehicle_type_id":"4","last_reported":1699603745,"current_range_meters":25200,"station_id":"ce4bgnh2rcd13ifvqc0g","pricing_plan_id":"free"},{"bike_id":"bbd238a3-34ec-49b6-beb2-ddc2cf13b9fd","system_id":"levelo_inurba_marseille","lat":43.296935,"lon":5.376544,"is_reserved":false,"is_disabled":false,"rental_uris":{"android":"levelo://app?vid=bbd238a3-34ec-49b6-beb2-ddc2cf13b9fd","ios":"levelo://app?vid=bbd238a3-34ec-49b6-beb2-ddc2cf13b9fd"},"vehicle_type_id":"4","last_reported":1699603745,"current_range_meters":27200,"station_id":"ce4bgkh2rcd13ifvqbl0","pricing_plan_id":"free"},{"bike_id":"18e1d70f-a619-47e9-a935-69a73d34e29a","system_id":"levelo_inurba_marseille","lat":43.299028,"lon":5.381509,"is_reserved":false,"is_disabled":false,"rental_uris":{"android":"levelo://app?vid=18e1d70f-a619-47e9-a935-69a73d34e29a","ios":"levelo://app?vid=18e1d70f-a619-47e9-a935-69a73d34e29a"},"vehicle_type_id":"4","last_reported":1699603745,"current_range_meters":30800,"station_id":"ce4bgj12rcd13ifvqbc0","pricing_plan_id":"free"},{"bike_id":"af42125b-6b16-4dd4-bccc-257aed5c647a","system_id":"levelo_inurba_marseille","lat":43.299028,"lon":5.381509,"is_reserved":false,"is_disabled":false,"rental_uris":{"android":"levelo://app?vid=af42125b-6b16-4dd4-bccc-257aed5c647a","ios":"levelo://app?vid=af42125b-6b16-4dd4-bccc-257aed5c647a"},"vehicle_type_id":"4","last_reported":1699603745,"current_range_meters":30000,"station_id":"ce4bgj12rcd13ifvqbc0","pricing_plan_id":"free"},{"bike_id":"62ff6fce-0ff0-4cba-a0eb-79b2ce55f517","system_id":"levelo_inurba_marseille","lat":43.299028,"lon":5.381509,"is_reserved":false,"is_disabled":false,"rental_uris":{"android":"levelo://app?vid=62ff6fce-0ff0-4cba-a0eb-79b2ce55f517","ios":"levelo://app?vid=62ff6fce-0ff0-4cba-a0eb-79b2ce55f517"},"vehicle_type_id":"4","last_reported":1699603745,"current_range_meters":12400,"station_id":"ce4bgj12rcd13ifvqbc0","pricing_plan_id":"free"},{"bike_id":"b4b89efe-608d-443e-8ccf-1a01cb8b0811","system_id":"levelo_inurba_marseille","lat":43.309589,"lon":5.390258,"is_reserved":false,"is_disabled":false,"rental_uris":{"android":"levelo://app?vid=b4b89efe-608d-443e-8ccf-1a01cb8b0811","ios":"levelo://app?vid=b4b89efe-608d-443e-8ccf-1a01cb8b0811"},"vehicle_type_id":"4","last_reported":1699603745,"current_range_meters":20000,"station_id":"ce4bgup2rcd13ifvqco0","pricing_plan_id":"free"},{"bike_id":"53e8b1bd-9435-4cbd-a90d-317335ec14c7","system_id":"levelo_inurba_marseille","lat":43.309589,"lon":5.390258,"is_reserved":false,"is_disabled":false,"rental_uris":{"android":"levelo://app?vid=53e8b1bd-9435-4cbd-a90d-317335ec14c7","ios":"levelo://app?vid=53e8b1bd-9435-4cbd-a90d-317335ec14c7"},"vehicle_type_id":"4","last_reported":1699603745,"current_range_meters":400,"station_id":"ce4bgup2rcd13ifvqco0","pricing_plan_id":"free"},{"bike_id":"d7478524-e8fc-4506-94af-ce958d8baafb","system_id":"levelo_inurba_marseille","lat":43.309589,"lon":5.390258,"is_reserved":false,"is_disabled":false,"rental_uris":{"android":"levelo://app?vid=d7478524-e8fc-4506-94af-ce958d8baafb","ios":"levelo://app?vid=d7478524-e8fc-4506-94af-ce958d8baafb"},"vehicle_type_id":"4","last_reported":1699603745,"current_range_meters":20000,"station_id":"ce4bgup2rcd13ifvqco0","pricing_plan_id":"free"},{"bike_id":"8d417cee-4e7b-4a7b-9d95-3eaee5ea34fd","system_id":"levelo_inurba_marseille","lat":43.309589,"lon":5.390258,"is_reserved":false,"is_disabled":false,"rental_uris":{"android":"levelo://app?vid=8d417cee-4e7b-4a7b-9d95-3eaee5ea34fd","ios":"levelo://app?vid=8d417cee-4e7b-4a7b-9d95-3eaee5ea34fd"},"vehicle_type_id":"4","last_reported":1699603745,"current_range_meters":2400,"station_id":"ce4bgup2rcd13ifvqco0","pricing_plan_id":"free"},{"bike_id":"3392bae1-edb5-4c4b-884e-31d7cc3b2359","system_id":"levelo_inurba_marseille","lat":43.309589,"lon":5.390258,"is_reserved":false,"is_disabled":false,"rental_uris":{"android":"levelo://app?vid=3392bae1-edb5-4c4b-884e-31d7cc3b2359","ios":"levelo://app?vid=3392bae1-edb5-4c4b-884e-31d7cc3b2359"},"vehicle_type_id":"4","last_reported":1699603745,"current_range_meters":31200,"station_id":"ce4bgup2rcd13ifvqco0","pricing_plan_id":"free"},{"bike_id":"ec2cc277-6b78-423e-9240-c2e3eaa218b9","system_id":"levelo_inurba_marseille","lat":43.296075,"lon":5.376975,"is_reserved":false,"is_disabled":false,"rental_uris":{"android":"levelo://app?vid=ec2cc277-6b78-423e-9240-c2e3eaa218b9","ios":"levelo://app?vid=ec2cc277-6b78-423e-9240-c2e3eaa218b9"},"vehicle_type_id":"4","last_reported":1699603745,"current_range_meters":4800,"station_id":"ce4bgi92rcd13ifvqb90","pricing_plan_id":"free"},{"bike_id":"ab157d71-2cea-4f9d-9575-2d4925f8cdd5","system_id":"levelo_inurba_marseille","lat":43.296098,"lon":5.37707,"is_reserved":false,"is_disabled":false,"rental_uris":{"android":"levelo://app?vid=ab157d71-2cea-4f9d-9575-2d4925f8cdd5","ios":"levelo://app?vid=ab157d71-2cea-4f9d-9575-2d4925f8cdd5"},"vehicle_type_id":"4","last_reported":1699603745,"current_range_meters":24400,"station_id":"ce4bgi92rcd13ifvqb90","pricing_plan_id":"free"},{"bike_id":"443f43a9-98a1-45c8-ba00-40f2a0de410b","system_id":"levelo_inurba_marseille","lat":43.295279,"lon":5.375048,"is_reserved":false,"is_disabled":false,"rental_uris":{"android":"levelo://app?vid=443f43a9-98a1-45c8-ba00-40f2a0de410b","ios":"levelo://app?vid=443f43a9-98a1-45c8-ba00-40f2a0de410b"},"vehicle_type_id":"4","last_reported":1699603745,"current_range_meters":10800,"station_id":"ce4bgkp2rcd13ifvqbmg","pricing_plan_id":"free"},{"bike_id":"a5fb31f5-ae44-4f7d-ba96-37f443292eae","system_id":"levelo_inurba_marseille","lat":43.295279,"lon":5.375048,"is_reserved":false,"is_disabled":false,"rental_uris":{"android":"levelo://app?vid=a5fb31f5-ae44-4f7d-ba96-37f443292eae","ios":"levelo://app?vid=a5fb31f5-ae44-4f7d-ba96-37f443292eae"},"vehicle_type_id":"4","last_reported":1699603745,"current_range_meters":29600,"station_id":"ce4bgkp2rcd13ifvqbmg","pricing_plan_id":"free"},{"bike_id":"03290775-7034-41fb-9a69-d515b0a67919","system_id":"levelo_inurba_marseille","lat":43.299707,"lon":5.384859,"is_reserved":false,"is_disabled":false,"rental_uris":{"android":"levelo://app?vid=03290775-7034-41fb-9a69-d515b0a67919","ios":"levelo://app?vid=03290775-7034-41fb-9a69-d515b0a67919"},"vehicle_type_id":"4","last_reported":1699603745,"current_range_meters":25600,"station_id":"ce4bgj92rcd13ifvqbd0","pricing_plan_id":"free"},{"bike_id":"c2cb3649-8253-4742-a3be-2b79e82ccf6b","system_id":"levelo_inurba_marseille","lat":43.295279,"lon":5.375048,"is_reserved":false,"is_disabled":false,"rental_uris":{"android":"levelo://app?vid=c2cb3649-8253-4742-a3be-2b79e82ccf6b","ios":"levelo://app?vid=c2cb3649-8253-4742-a3be-2b79e82ccf6b"},"vehicle_type_id":"4","last_reported":1699603745,"current_range_meters":24400,"station_id":"ce4bgkp2rcd13ifvqbmg","pricing_plan_id":"free"},{"bike_id":"a26a672c-8f86-40f5-9e8e-9856cf399a24","system_id":"levelo_inurba_marseille","lat":43.299707,"lon":5.384859,"is_reserved":false,"is_disabled":false,"rental_uris":{"android":"levelo://app?vid=a26a672c-8f86-40f5-9e8e-9856cf399a24","ios":"levelo://app?vid=a26a672c-8f86-40f5-9e8e-9856cf399a24"},"vehicle_type_id":"4","last_reported":1699603745,"current_range_meters":30400,"station_id":"ce4bgj92rcd13ifvqbd0","pricing_plan_id":"free"},{"bike_id":"dba2c1a2-e6a9-451b-9545-95869c02b46f","system_id":"levelo_inurba_marseille","lat":43.329065,"lon":5.379814,"is_reserved":false,"is_disabled":false,"rental_uris":{"android":"levelo://app?vid=dba2c1a2-e6a9-451b-9545-95869c02b46f","ios":"levelo://app?vid=dba2c1a2-e6a9-451b-9545-95869c02b46f"},"vehicle_type_id":"4","last_reported":1699603745,"current_range_meters":0,"station_id":"","pricing_plan_id":"free"},{"bike_id":"dcb02e5a-867d-44ad-bdb3-d6dbc6547785","system_id":"levelo_inurba_marseille","lat":43.32367,"lon":5.388836,"is_reserved":false,"is_disabled":false,"rental_uris":{"android":"levelo://app?vid=dcb02e5a-867d-44ad-bdb3-d6dbc6547785","ios":"levelo://app?vid=dcb02e5a-867d-44ad-bdb3-d6dbc6547785"},"vehicle_type_id":"4","last_reported":1699603745,"current_range_meters":6800,"station_id":"ce4bhqp2rcd13ifvqhog","pricing_plan_id":"free"},{"bike_id":"4a25991b-41a7-45ef-868f-91a17d69b947","system_id":"levelo_inurba_marseille","lat":43.29602,"lon":5.381084,"is_reserved":false,"is_disabled":false,"rental_uris":{"android":"levelo://app?vid=4a25991b-41a7-45ef-868f-91a17d69b947","ios":"levelo://app?vid=4a25991b-41a7-45ef-868f-91a17d69b947"},"vehicle_type_id":"4","last_reported":1699603745,"current_range_meters":25600,"station_id":"ce4bgl12rcd13ifvqbo0","pricing_plan_id":"free"},{"bike_id":"4f04e828-7eab-447a-9ded-4cd6edbdf09b","system_id":"levelo_inurba_marseille","lat":43.293259,"lon":5.371586,"is_reserved":false,"is_disabled":false,"rental_uris":{"android":"levelo://app?vid=4f04e828-7eab-447a-9ded-4cd6edbdf09b","ios":"levelo://app?vid=4f04e828-7eab-447a-9ded-4cd6edbdf09b"},"vehicle_type_id":"4","last_reported":1699603745,"current_range_meters":30400,"station_id":"ce4bgh92rcd13ifvqb40","pricing_plan_id":"free"},{"bike_id":"7b8b779a-fd85-4ff3-9c99-37dceb685eec","system_id":"levelo_inurba_marseille","lat":43.293259,"lon":5.371586,"is_reserved":false,"is_disabled":false,"rental_uris":{"android":"levelo://app?vid=7b8b779a-fd85-4ff3-9c99-37dceb685eec","ios":"levelo://app?vid=7b8b779a-fd85-4ff3-9c99-37dceb685eec"},"vehicle_type_id":"4","last_reported":1699603745,"current_range_meters":27200,"station_id":"ce4bgh92rcd13ifvqb40","pricing_plan_id":"free"},{"bike_id":"4ebe6fb6-6eca-4d86-939c-3316fc291113","system_id":"levelo_inurba_marseille","lat":43.292749,"lon":5.368402,"is_reserved":false,"is_disabled":false,"rental_uris":{"android":"levelo://app?vid=4ebe6fb6-6eca-4d86-939c-3316fc291113","ios":"levelo://app?vid=4ebe6fb6-6eca-4d86-939c-3316fc291113"},"vehicle_type_id":"4","last_reported":1699603745,"current_range_meters":30000,"station_id":"ce4bhbp2rcd13ifvqesg","pricing_plan_id":"free"},{"bike_id":"1f2edeec-835f-4188-b75a-b19c37bb1dac","system_id":"levelo_inurba_marseille","lat":43.30109,"lon":5.3894,"is_reserved":false,"is_disabled":false,"rental_uris":{"android":"levelo://app?vid=1f2edeec-835f-4188-b75a-b19c37bb1dac","ios":"levelo://app?vid=1f2edeec-835f-4188-b75a-b19c37bb1dac"},"vehicle_type_id":"4","last_reported":1699603745,"current_range_meters":11200,"station_id":"","pricing_plan_id":"free"},{"bike_id":"72c35c64-2754-436a-bcf6-d88e50a24575","system_id":"levelo_inurba_marseille","lat":43.292741,"lon":5.370961,"is_reserved":false,"is_disabled":false,"rental_uris":{"android":"levelo://app?vid=72c35c64-2754-436a-bcf6-d88e50a24575","ios":"levelo://app?vid=72c35c64-2754-436a-bcf6-d88e50a24575"},"vehicle_type_id":"4","last_reported":1699603745,"current_range_meters":11200,"station_id":"","pricing_plan_id":"free"},{"bike_id":"3ad5367e-e483-4e1b-8422-777ace0a3d72","system_id":"levelo_inurba_marseille","lat":43.305994,"lon":5.393687,"is_reserved":false,"is_disabled":false,"rental_uris":{"android":"levelo://app?vid=3ad5367e-e483-4e1b-8422-777ace0a3d72","ios":"levelo://app?vid=3ad5367e-e483-4e1b-8422-777ace0a3d72"},"vehicle_type_id":"4","last_reported":1699603745,"current_range_meters":15200,"station_id":"ce4bh0p2rcd13ifvqd80","pricing_plan_id":"free"},{"bike_id":"269245ab-ee3c-4dc1-ac07-5a65b6c396d3","system_id":"levelo_inurba_marseille","lat":43.30596,"lon":5.39357,"is_reserved":false,"is_disabled":false,"rental_uris":{"android":"levelo://app?vid=269245ab-ee3c-4dc1-ac07-5a65b6c396d3","ios":"levelo://app?vid=269245ab-ee3c-4dc1-ac07-5a65b6c396d3"},"vehicle_type_id":"4","last_reported":1699603745,"current_range_meters":3600,"station_id":"ce4bh0p2rcd13ifvqd80","pricing_plan_id":"free"},{"bike_id":"76924304-60b3-4341-8f43-2d23d7b28c79","system_id":"levelo_inurba_marseille","lat":43.305994,"lon":5.393687,"is_reserved":false,"is_disabled":false,"rental_uris":{"android":"levelo://app?vid=76924304-60b3-4341-8f43-2d23d7b28c79","ios":"levelo://app?vid=76924304-60b3-4341-8f43-2d23d7b28c79"},"vehicle_type_id":"4","last_reported":1699603745,"current_range_meters":30000,"station_id":"ce4bh0p2rcd13ifvqd80","pricing_plan_id":"free"},{"bike_id":"3f3ef66f-ddcc-44c2-a74f-1c41395cd35f","system_id":"levelo_inurba_marseille","lat":43.305994,"lon":5.393687,"is_reserved":false,"is_disabled":false,"rental_uris":{"android":"levelo://app?vid=3f3ef66f-ddcc-44c2-a74f-1c41395cd35f","ios":"levelo://app?vid=3f3ef66f-ddcc-44c2-a74f-1c41395cd35f"},"vehicle_type_id":"4","last_reported":1699603745,"current_range_meters":21600,"station_id":"ce4bh0p2rcd13ifvqd80","pricing_plan_id":"free"},{"bike_id":"7b41e404-8446-49ce-9e5d-b3752b83a32a","system_id":"levelo_inurba_marseille","lat":43.303002,"lon":5.392142,"is_reserved":false,"is_disabled":false,"rental_uris":{"android":"levelo://app?vid=7b41e404-8446-49ce-9e5d-b3752b83a32a","ios":"levelo://app?vid=7b41e404-8446-49ce-9e5d-b3752b83a32a"},"vehicle_type_id":"4","last_reported":1699603745,"current_range_meters":14800,"station_id":"ce4bgkh2rcd13ifvqbk0","pricing_plan_id":"free"},{"bike_id":"705f468f-408d-44d1-8d91-68edf14c7550","system_id":"levelo_inurba_marseille","lat":43.292311,"lon":5.360731,"is_reserved":false,"is_disabled":false,"rental_uris":{"android":"levelo://app?vid=705f468f-408d-44d1-8d91-68edf14c7550","ios":"levelo://app?vid=705f468f-408d-44d1-8d91-68edf14c7550"},"vehicle_type_id":"4","last_reported":1699603745,"current_range_meters":4800,"station_id":"ce4bhbh2rcd13ifvqeqg","pricing_plan_id":"free"},{"bike_id":"08554cd6-f562-49a8-b1fa-c91dce73593d","system_id":"levelo_inurba_marseille","lat":43.292311,"lon":5.360731,"is_reserved":false,"is_disabled":false,"rental_uris":{"android":"levelo://app?vid=08554cd6-f562-49a8-b1fa-c91dce73593d","ios":"levelo://app?vid=08554cd6-f562-49a8-b1fa-c91dce73593d"},"vehicle_type_id":"4","last_reported":1699603745,"current_range_meters":31600,"station_id":"ce4bhbh2rcd13ifvqeqg","pricing_plan_id":"free"},{"bike_id":"ea8250e3-9534-4be2-b163-a75fa97120cf","system_id":"levelo_inurba_marseille","lat":43.29262,"lon":5.37627,"is_reserved":false,"is_disabled":false,"rental_uris":{"android":"levelo://app?vid=ea8250e3-9534-4be2-b163-a75fa97120cf","ios":"levelo://app?vid=ea8250e3-9534-4be2-b163-a75fa97120cf"},"vehicle_type_id":"4","last_reported":1699603745,"current_range_meters":19200,"station_id":"ce4bgi12rcd13ifvqb80","pricing_plan_id":"free"},{"bike_id":"69915967-cb2a-4026-97a0-2f354509b5d2","system_id":"levelo_inurba_marseille","lat":43.309038,"lon":5.396546,"is_reserved":false,"is_disabled":false,"rental_uris":{"android":"levelo://app?vid=69915967-cb2a-4026-97a0-2f354509b5d2","ios":"levelo://app?vid=69915967-cb2a-4026-97a0-2f354509b5d2"},"vehicle_type_id":"4","last_reported":1699603745,"current_range_meters":31200,"station_id":"ce4bh012rcd13ifvqcv0","pricing_plan_id":"free"},{"bike_id":"dca08a3f-ed1d-4403-8c1b-c61fe769e756","system_id":"levelo_inurba_marseille","lat":43.308883,"lon":5.396443,"is_reserved":false,"is_disabled":false,"rental_uris":{"android":"levelo://app?vid=dca08a3f-ed1d-4403-8c1b-c61fe769e756","ios":"levelo://app?vid=dca08a3f-ed1d-4403-8c1b-c61fe769e756"},"vehicle_type_id":"4","last_reported":1699603745,"current_range_meters":15600,"station_id":"ce4bh012rcd13ifvqcv0","pricing_plan_id":"free"},{"bike_id":"79ffa691-e424-46a9-a9ab-a4efc4d6a9ac","system_id":"levelo_inurba_marseille","lat":43.302008,"lon":5.394694,"is_reserved":false,"is_disabled":false,"rental_uris":{"android":"levelo://app?vid=79ffa691-e424-46a9-a9ab-a4efc4d6a9ac","ios":"levelo://app?vid=79ffa691-e424-46a9-a9ab-a4efc4d6a9ac"},"vehicle_type_id":"4","last_reported":1699603745,"current_range_meters":12800,"station_id":"ce4bh0p2rcd13ifvqd70","pricing_plan_id":"free"},{"bike_id":"d0a920c8-9c8d-404f-a096-724b1f816449","system_id":"levelo_inurba_marseille","lat":43.302008,"lon":5.394694,"is_reserved":false,"is_disabled":false,"rental_uris":{"android":"levelo://app?vid=d0a920c8-9c8d-404f-a096-724b1f816449","ios":"levelo://app?vid=d0a920c8-9c8d-404f-a096-724b1f816449"},"vehicle_type_id":"4","last_reported":1699603745,"current_range_meters":23600,"station_id":"ce4bh0p2rcd13ifvqd70","pricing_plan_id":"free"},{"bike_id":"827ac53e-228e-46b6-86f9-e43d6af5ba25","system_id":"levelo_inurba_marseille","lat":43.289495,"lon":5.366272,"is_reserved":false,"is_disabled":false,"rental_uris":{"android":"levelo://app?vid=827ac53e-228e-46b6-86f9-e43d6af5ba25","ios":"levelo://app?vid=827ac53e-228e-46b6-86f9-e43d6af5ba25"},"vehicle_type_id":"4","last_reported":1699603745,"current_range_meters":20000,"station_id":"","pricing_plan_id":"free"},{"bike_id":"2afd1807-de5b-4a15-88a6-799d1af0cb9e","system_id":"levelo_inurba_marseille","lat":43.289184,"lon":5.366408,"is_reserved":false,"is_disabled":false,"rental_uris":{"android":"levelo://app?vid=2afd1807-de5b-4a15-88a6-799d1af0cb9e","ios":"levelo://app?vid=2afd1807-de5b-4a15-88a6-799d1af0cb9e"},"vehicle_type_id":"4","last_reported":1699603745,"current_range_meters":22800,"station_id":"ce4bhap2rcd13ifvqek0","pricing_plan_id":"free"},{"bike_id":"05d01f65-daf9-4617-b5ed-c2122209c0ab","system_id":"levelo_inurba_marseille","lat":43.289386,"lon":5.363944,"is_reserved":false,"is_disabled":false,"rental_uris":{"android":"levelo://app?vid=05d01f65-daf9-4617-b5ed-c2122209c0ab","ios":"levelo://app?vid=05d01f65-daf9-4617-b5ed-c2122209c0ab"},"vehicle_type_id":"4","last_reported":1699603745,"current_range_meters":29200,"station_id":"ce4bhc92rcd13ifvqetg","pricing_plan_id":"free"},{"bike_id":"750ec2ac-6e68-4588-8133-f350a257eda1","system_id":"levelo_inurba_marseille","lat":43.290995,"lon":5.381361,"is_reserved":false,"is_disabled":false,"rental_uris":{"android":"levelo://app?vid=750ec2ac-6e68-4588-8133-f350a257eda1","ios":"levelo://app?vid=750ec2ac-6e68-4588-8133-f350a257eda1"},"vehicle_type_id":"4","last_reported":1699603745,"current_range_meters":20400,"station_id":"ce4bh512rcd13ifvqe2g","pricing_plan_id":"free"},{"bike_id":"9525e34c-8d92-43bf-b04f-18d571016553","system_id":"levelo_inurba_marseille","lat":43.290995,"lon":5.381361,"is_reserved":false,"is_disabled":false,"rental_uris":{"android":"levelo://app?vid=9525e34c-8d92-43bf-b04f-18d571016553","ios":"levelo://app?vid=9525e34c-8d92-43bf-b04f-18d571016553"},"vehicle_type_id":"4","last_reported":1699603745,"current_range_meters":10800,"station_id":"ce4bh512rcd13ifvqe2g","pricing_plan_id":"free"},{"bike_id":"ea3364ad-3d9d-4b8c-8219-1012b5b3e94a","system_id":"levelo_inurba_marseille","lat":43.290995,"lon":5.381361,"is_reserved":false,"is_disabled":false,"rental_uris":{"android":"levelo://app?vid=ea3364ad-3d9d-4b8c-8219-1012b5b3e94a","ios":"levelo://app?vid=ea3364ad-3d9d-4b8c-8219-1012b5b3e94a"},"vehicle_type_id":"4","last_reported":1699603745,"current_range_meters":7600,"station_id":"ce4bh512rcd13ifvqe2g","pricing_plan_id":"free"},{"bike_id":"013471d4-06ba-4086-8711-dfc95420892b","system_id":"levelo_inurba_marseille","lat":43.297885,"lon":5.39355,"is_reserved":false,"is_disabled":false,"rental_uris":{"android":"levelo://app?vid=013471d4-06ba-4086-8711-dfc95420892b","ios":"levelo://app?vid=013471d4-06ba-4086-8711-dfc95420892b"},"vehicle_type_id":"4","last_reported":1699603745,"current_range_meters":0,"station_id":"chh1huq6cuj3fo74tm60","pricing_plan_id":"free"},{"bike_id":"37841781-bcde-48c0-a4a7-3c9b1ffa3f83","system_id":"levelo_inurba_marseille","lat":43.289741,"lon":5.378306,"is_reserved":false,"is_disabled":false,"rental_uris":{"android":"levelo://app?vid=37841781-bcde-48c0-a4a7-3c9b1ffa3f83","ios":"levelo://app?vid=37841781-bcde-48c0-a4a7-3c9b1ffa3f83"},"vehicle_type_id":"4","last_reported":1699603745,"current_range_meters":24400,"station_id":"ce4bh9p2rcd13ifvqed0","pricing_plan_id":"free"},{"bike_id":"0fa1f252-5499-481b-9250-9a5e8ff3b87b","system_id":"levelo_inurba_marseille","lat":43.30926,"lon":5.40138,"is_reserved":false,"is_disabled":false,"rental_uris":{"android":"levelo://app?vid=0fa1f252-5499-481b-9250-9a5e8ff3b87b","ios":"levelo://app?vid=0fa1f252-5499-481b-9250-9a5e8ff3b87b"},"vehicle_type_id":"4","last_reported":1699603745,"current_range_meters":25200,"station_id":"ce4bgvp2rcd13ifvqct0","pricing_plan_id":"free"},{"bike_id":"2eb76cb2-e51e-4a80-b58d-cf3036b5c3e4","system_id":"levelo_inurba_marseille","lat":43.309296,"lon":5.401463,"is_reserved":false,"is_disabled":false,"rental_uris":{"android":"levelo://app?vid=2eb76cb2-e51e-4a80-b58d-cf3036b5c3e4","ios":"levelo://app?vid=2eb76cb2-e51e-4a80-b58d-cf3036b5c3e4"},"vehicle_type_id":"4","last_reported":1699603745,"current_range_meters":16400,"station_id":"ce4bgvp2rcd13ifvqct0","pricing_plan_id":"free"},{"bike_id":"fb8c267a-8fbc-4bb8-86fa-ead1c910eee3","system_id":"levelo_inurba_marseille","lat":43.337498,"lon":5.374532,"is_reserved":false,"is_disabled":false,"rental_uris":{"android":"levelo://app?vid=fb8c267a-8fbc-4bb8-86fa-ead1c910eee3","ios":"levelo://app?vid=fb8c267a-8fbc-4bb8-86fa-ead1c910eee3"},"vehicle_type_id":"4","last_reported":1699603745,"current_range_meters":30400,"station_id":"","pricing_plan_id":"free"},{"bike_id":"724da875-3f67-46fb-88d1-f65d7e8d4c58","system_id":"levelo_inurba_marseille","lat":43.30935,"lon":5.40148,"is_reserved":false,"is_disabled":false,"rental_uris":{"android":"levelo://app?vid=724da875-3f67-46fb-88d1-f65d7e8d4c58","ios":"levelo://app?vid=724da875-3f67-46fb-88d1-f65d7e8d4c58"},"vehicle_type_id":"4","last_reported":1699603745,"current_range_meters":30400,"station_id":"ce4bgvp2rcd13ifvqct0","pricing_plan_id":"free"},{"bike_id":"987d8f4e-8fdd-4d9d-b09a-2457efc8f7ab","system_id":"levelo_inurba_marseille","lat":43.309356,"lon":5.401493,"is_reserved":false,"is_disabled":false,"rental_uris":{"android":"levelo://app?vid=987d8f4e-8fdd-4d9d-b09a-2457efc8f7ab","ios":"levelo://app?vid=987d8f4e-8fdd-4d9d-b09a-2457efc8f7ab"},"vehicle_type_id":"4","last_reported":1699603745,"current_range_meters":9600,"station_id":"ce4bgvp2rcd13ifvqct0","pricing_plan_id":"free"},{"bike_id":"9cd40627-d81b-41ec-921e-7e9fb75192fc","system_id":"levelo_inurba_marseille","lat":43.30932,"lon":5.40153,"is_reserved":false,"is_disabled":false,"rental_uris":{"android":"levelo://app?vid=9cd40627-d81b-41ec-921e-7e9fb75192fc","ios":"levelo://app?vid=9cd40627-d81b-41ec-921e-7e9fb75192fc"},"vehicle_type_id":"4","last_reported":1699603745,"current_range_meters":20400,"station_id":"ce4bgvp2rcd13ifvqct0","pricing_plan_id":"free"},{"bike_id":"d4a320dc-271d-4a3d-8ecf-39c4c78f2b73","system_id":"levelo_inurba_marseille","lat":43.30656,"lon":5.40088,"is_reserved":false,"is_disabled":false,"rental_uris":{"android":"levelo://app?vid=d4a320dc-271d-4a3d-8ecf-39c4c78f2b73","ios":"levelo://app?vid=d4a320dc-271d-4a3d-8ecf-39c4c78f2b73"},"vehicle_type_id":"4","last_reported":1699603745,"current_range_meters":16000,"station_id":"ce4bh112rcd13ifvqda0","pricing_plan_id":"free"},{"bike_id":"61c9606b-5e0c-419f-a3b5-4fe4d535e889","system_id":"levelo_inurba_marseille","lat":43.33037,"lon":5.392367,"is_reserved":false,"is_disabled":false,"rental_uris":{"android":"levelo://app?vid=61c9606b-5e0c-419f-a3b5-4fe4d535e889","ios":"levelo://app?vid=61c9606b-5e0c-419f-a3b5-4fe4d535e889"},"vehicle_type_id":"4","last_reported":1699603745,"current_range_meters":14800,"station_id":"","pricing_plan_id":"free"},{"bike_id":"5ac2e2d6-9935-491e-a079-ff1b72a99bea","system_id":"levelo_inurba_marseille","lat":43.28729,"lon":5.36132,"is_reserved":false,"is_disabled":false,"rental_uris":{"android":"levelo://app?vid=5ac2e2d6-9935-491e-a079-ff1b72a99bea","ios":"levelo://app?vid=5ac2e2d6-9935-491e-a079-ff1b72a99bea"},"vehicle_type_id":"4","last_reported":1699603745,"current_range_meters":15600,"station_id":"cki0cbj6b192h4jlfktg","pricing_plan_id":"free"},{"bike_id":"58e87f3f-0a78-40f9-b458-29fe2c6f7e61","system_id":"levelo_inurba_marseille","lat":43.287072,"lon":5.373915,"is_reserved":false,"is_disabled":false,"rental_uris":{"android":"levelo://app?vid=58e87f3f-0a78-40f9-b458-29fe2c6f7e61","ios":"levelo://app?vid=58e87f3f-0a78-40f9-b458-29fe2c6f7e61"},"vehicle_type_id":"4","last_reported":1699603745,"current_range_meters":26800,"station_id":"","pricing_plan_id":"free"},{"bike_id":"54a0246e-5913-45da-95fa-38536d7cd0dc","system_id":"levelo_inurba_marseille","lat":43.286591,"lon":5.363346,"is_reserved":false,"is_disabled":false,"rental_uris":{"android":"levelo://app?vid=54a0246e-5913-45da-95fa-38536d7cd0dc","ios":"levelo://app?vid=54a0246e-5913-45da-95fa-38536d7cd0dc"},"vehicle_type_id":"4","last_reported":1699603745,"current_range_meters":0,"station_id":"ce4bhah2rcd13ifvqej0","pricing_plan_id":"free"},{"bike_id":"9a71790f-bfd3-4673-a639-a713e58e7c63","system_id":"levelo_inurba_marseille","lat":43.302446,"lon":5.400582,"is_reserved":false,"is_disabled":false,"rental_uris":{"android":"levelo://app?vid=9a71790f-bfd3-4673-a639-a713e58e7c63","ios":"levelo://app?vid=9a71790f-bfd3-4673-a639-a713e58e7c63"},"vehicle_type_id":"4","last_reported":1699603745,"current_range_meters":0,"station_id":"ce4bgvh2rcd13ifvqcs0","pricing_plan_id":"free"},{"bike_id":"b78de949-70fa-4edc-9104-dfb0703f6568","system_id":"levelo_inurba_marseille","lat":43.29026,"lon":5.38641,"is_reserved":false,"is_disabled":false,"rental_uris":{"android":"levelo://app?vid=b78de949-70fa-4edc-9104-dfb0703f6568","ios":"levelo://app?vid=b78de949-70fa-4edc-9104-dfb0703f6568"},"vehicle_type_id":"4","last_reported":1699603745,"current_range_meters":24800,"station_id":"ce4bh4p2rcd13ifvqe0g","pricing_plan_id":"free"},{"bike_id":"dd286bd6-dc1d-4e5f-bd19-57c87f6bbe37","system_id":"levelo_inurba_marseille","lat":43.302759,"lon":5.400793,"is_reserved":false,"is_disabled":false,"rental_uris":{"android":"levelo://app?vid=dd286bd6-dc1d-4e5f-bd19-57c87f6bbe37","ios":"levelo://app?vid=dd286bd6-dc1d-4e5f-bd19-57c87f6bbe37"},"vehicle_type_id":"4","last_reported":1699603745,"current_range_meters":29200,"station_id":"ce4bgvh2rcd13ifvqcs0","pricing_plan_id":"free"},{"bike_id":"47115d91-bf86-4024-8e92-92b6a12b2e7e","system_id":"levelo_inurba_marseille","lat":43.302399,"lon":5.400671,"is_reserved":false,"is_disabled":false,"rental_uris":{"android":"levelo://app?vid=47115d91-bf86-4024-8e92-92b6a12b2e7e","ios":"levelo://app?vid=47115d91-bf86-4024-8e92-92b6a12b2e7e"},"vehicle_type_id":"4","last_reported":1699603745,"current_range_meters":6000,"station_id":"ce4bgvh2rcd13ifvqcs0","pricing_plan_id":"free"},{"bike_id":"3227bbd0-5bb3-4e9d-b588-4d72591586bd","system_id":"levelo_inurba_marseille","lat":43.302759,"lon":5.400793,"is_reserved":false,"is_disabled":false,"rental_uris":{"android":"levelo://app?vid=3227bbd0-5bb3-4e9d-b588-4d72591586bd","ios":"levelo://app?vid=3227bbd0-5bb3-4e9d-b588-4d72591586bd"},"vehicle_type_id":"4","last_reported":1699603745,"current_range_meters":28000,"station_id":"ce4bgvh2rcd13ifvqcs0","pricing_plan_id":"free"},{"bike_id":"577aee67-cd9b-488a-b92b-797af6b80732","system_id":"levelo_inurba_marseille","lat":43.283502,"lon":5.386471,"is_reserved":false,"is_disabled":false,"rental_uris":{"android":"levelo://app?vid=577aee67-cd9b-488a-b92b-797af6b80732","ios":"levelo://app?vid=577aee67-cd9b-488a-b92b-797af6b80732"},"vehicle_type_id":"4","last_reported":1699603745,"current_range_meters":16800,"station_id":"ce4bh492rcd13ifvqdvg","pricing_plan_id":"free"},{"bike_id":"e57449c2-d088-47cf-8bf2-271593713c89","system_id":"levelo_inurba_marseille","lat":43.328576,"lon":5.398841,"is_reserved":false,"is_disabled":false,"rental_uris":{"android":"levelo://app?vid=e57449c2-d088-47cf-8bf2-271593713c89","ios":"levelo://app?vid=e57449c2-d088-47cf-8bf2-271593713c89"},"vehicle_type_id":"4","last_reported":1699603745,"current_range_meters":12800,"station_id":"","pricing_plan_id":"free"},{"bike_id":"8c5e9706-e763-4c57-b84f-3d21a35bd9bd","system_id":"levelo_inurba_marseille","lat":43.284638,"lon":5.358932,"is_reserved":false,"is_disabled":false,"rental_uris":{"android":"levelo://app?vid=8c5e9706-e763-4c57-b84f-3d21a35bd9bd","ios":"levelo://app?vid=8c5e9706-e763-4c57-b84f-3d21a35bd9bd"},"vehicle_type_id":"4","last_reported":1699603745,"current_range_meters":30000,"station_id":"ce4bhah2rcd13ifvqei0","pricing_plan_id":"free"},{"bike_id":"9bb217ca-3551-4a57-84ab-20784a907507","system_id":"levelo_inurba_marseille","lat":43.28461,"lon":5.35892,"is_reserved":false,"is_disabled":false,"rental_uris":{"android":"levelo://app?vid=9bb217ca-3551-4a57-84ab-20784a907507","ios":"levelo://app?vid=9bb217ca-3551-4a57-84ab-20784a907507"},"vehicle_type_id":"4","last_reported":1699603745,"current_range_meters":30000,"station_id":"ce4bhah2rcd13ifvqei0","pricing_plan_id":"free"},{"bike_id":"c6335d6d-a7ad-4c2d-b60d-d28edb981e22","system_id":"levelo_inurba_marseille","lat":43.284606,"lon":5.358931,"is_reserved":false,"is_disabled":false,"rental_uris":{"android":"levelo://app?vid=c6335d6d-a7ad-4c2d-b60d-d28edb981e22","ios":"levelo://app?vid=c6335d6d-a7ad-4c2d-b60d-d28edb981e22"},"vehicle_type_id":"4","last_reported":1699603745,"current_range_meters":22400,"station_id":"ce4bhah2rcd13ifvqei0","pricing_plan_id":"free"},{"bike_id":"a0d06709-91b1-4700-9d93-53f5cd8397ab","system_id":"levelo_inurba_marseille","lat":43.284534,"lon":5.358662,"is_reserved":false,"is_disabled":false,"rental_uris":{"android":"levelo://app?vid=a0d06709-91b1-4700-9d93-53f5cd8397ab","ios":"levelo://app?vid=a0d06709-91b1-4700-9d93-53f5cd8397ab"},"vehicle_type_id":"4","last_reported":1699603745,"current_range_meters":24800,"station_id":"ce4bhah2rcd13ifvqei0","pricing_plan_id":"free"},{"bike_id":"94af14a7-e47d-4982-bbf0-3c1d6f6d5cbd","system_id":"levelo_inurba_marseille","lat":43.284563,"lon":5.358939,"is_reserved":false,"is_disabled":false,"rental_uris":{"android":"levelo://app?vid=94af14a7-e47d-4982-bbf0-3c1d6f6d5cbd","ios":"levelo://app?vid=94af14a7-e47d-4982-bbf0-3c1d6f6d5cbd"},"vehicle_type_id":"4","last_reported":1699603745,"current_range_meters":28800,"station_id":"ce4bhah2rcd13ifvqei0","pricing_plan_id":"free"},{"bike_id":"d1e7e8d3-53aa-434e-9af7-e529e013546f","system_id":"levelo_inurba_marseille","lat":43.284558,"lon":5.358859,"is_reserved":false,"is_disabled":false,"rental_uris":{"android":"levelo://app?vid=d1e7e8d3-53aa-434e-9af7-e529e013546f","ios":"levelo://app?vid=d1e7e8d3-53aa-434e-9af7-e529e013546f"},"vehicle_type_id":"4","last_reported":1699603745,"current_range_meters":15200,"station_id":"ce4bhah2rcd13ifvqei0","pricing_plan_id":"free"},{"bike_id":"212b134c-a574-4853-94ae-3e49d2a38039","system_id":"levelo_inurba_marseille","lat":43.299243,"lon":5.37481,"is_reserved":false,"is_disabled":false,"rental_uris":{"android":"levelo://app?vid=212b134c-a574-4853-94ae-3e49d2a38039","ios":"levelo://app?vid=212b134c-a574-4853-94ae-3e49d2a38039"},"vehicle_type_id":"4","last_reported":1699603745,"current_range_meters":14000,"station_id":"ce4bgjh2rcd13ifvqbg0","pricing_plan_id":"free"},{"bike_id":"5464178e-ec5c-4894-a3f8-1f96bf957b95","system_id":"levelo_inurba_marseille","lat":43.285848,"lon":5.350787,"is_reserved":false,"is_disabled":false,"rental_uris":{"android":"levelo://app?vid=5464178e-ec5c-4894-a3f8-1f96bf957b95","ios":"levelo://app?vid=5464178e-ec5c-4894-a3f8-1f96bf957b95"},"vehicle_type_id":"4","last_reported":1699603745,"current_range_meters":16800,"station_id":"ce4bhch2rcd13ifvqeug","pricing_plan_id":"free"},{"bike_id":"2cfec70b-0286-4a78-905c-6f2170ffcf9c","system_id":"levelo_inurba_marseille","lat":43.295668,"lon":5.399432,"is_reserved":false,"is_disabled":false,"rental_uris":{"android":"levelo://app?vid=2cfec70b-0286-4a78-905c-6f2170ffcf9c","ios":"levelo://app?vid=2cfec70b-0286-4a78-905c-6f2170ffcf9c"},"vehicle_type_id":"4","last_reported":1699603745,"current_range_meters":28000,"station_id":"ce4bh312rcd13ifvqdj0","pricing_plan_id":"free"},{"bike_id":"f3973c8c-780f-4a7b-9d72-73fda08a99f6","system_id":"levelo_inurba_marseille","lat":43.295713,"lon":5.399639,"is_reserved":false,"is_disabled":false,"rental_uris":{"android":"levelo://app?vid=f3973c8c-780f-4a7b-9d72-73fda08a99f6","ios":"levelo://app?vid=f3973c8c-780f-4a7b-9d72-73fda08a99f6"},"vehicle_type_id":"4","last_reported":1699603745,"current_range_meters":26400,"station_id":"ce4bh312rcd13ifvqdj0","pricing_plan_id":"free"},{"bike_id":"4718b3bd-4039-4816-aeaa-7f1421b37f85","system_id":"levelo_inurba_marseille","lat":43.283998,"lon":5.375062,"is_reserved":false,"is_disabled":false,"rental_uris":{"android":"levelo://app?vid=4718b3bd-4039-4816-aeaa-7f1421b37f85","ios":"levelo://app?vid=4718b3bd-4039-4816-aeaa-7f1421b37f85"},"vehicle_type_id":"4","last_reported":1699603745,"current_range_meters":28000,"station_id":"ce4bh412rcd13ifvqds0","pricing_plan_id":"free"},{"bike_id":"21e98131-adb0-462f-8659-a3f1a898f42a","system_id":"levelo_inurba_marseille","lat":43.286595,"lon":5.386795,"is_reserved":false,"is_disabled":false,"rental_uris":{"android":"levelo://app?vid=21e98131-adb0-462f-8659-a3f1a898f42a","ios":"levelo://app?vid=21e98131-adb0-462f-8659-a3f1a898f42a"},"vehicle_type_id":"4","last_reported":1699603745,"current_range_meters":19200,"station_id":"ce4bh492rcd13ifvqdug","pricing_plan_id":"free"},{"bike_id":"21b4f2c2-e977-4d2e-b5b4-4fc264f1a4d2","system_id":"levelo_inurba_marseille","lat":43.319179,"lon":5.407725,"is_reserved":false,"is_disabled":false,"rental_uris":{"android":"levelo://app?vid=21b4f2c2-e977-4d2e-b5b4-4fc264f1a4d2","ios":"levelo://app?vid=21b4f2c2-e977-4d2e-b5b4-4fc264f1a4d2"},"vehicle_type_id":"4","last_reported":1699603745,"current_range_meters":28000,"station_id":"ce4bhq12rcd13ifvqhig","pricing_plan_id":"free"},{"bike_id":"030625bd-f8ba-4389-9944-df2973894a22","system_id":"levelo_inurba_marseille","lat":43.325731,"lon":5.404186,"is_reserved":false,"is_disabled":false,"rental_uris":{"android":"levelo://app?vid=030625bd-f8ba-4389-9944-df2973894a22","ios":"levelo://app?vid=030625bd-f8ba-4389-9944-df2973894a22"},"vehicle_type_id":"4","last_reported":1699603745,"current_range_meters":8400,"station_id":"","pricing_plan_id":"free"},{"bike_id":"c62a31fe-26d8-480d-83d1-44db580000e3","system_id":"levelo_inurba_marseille","lat":43.323464,"lon":5.406297,"is_reserved":false,"is_disabled":false,"rental_uris":{"android":"levelo://app?vid=c62a31fe-26d8-480d-83d1-44db580000e3","ios":"levelo://app?vid=c62a31fe-26d8-480d-83d1-44db580000e3"},"vehicle_type_id":"4","last_reported":1699603745,"current_range_meters":31200,"station_id":"ce4bhq92rcd13ifvqhjg","pricing_plan_id":"free"},{"bike_id":"3fd447c9-bd02-4aa2-8b14-301ac9885ead","system_id":"levelo_inurba_marseille","lat":43.323464,"lon":5.406297,"is_reserved":false,"is_disabled":false,"rental_uris":{"android":"levelo://app?vid=3fd447c9-bd02-4aa2-8b14-301ac9885ead","ios":"levelo://app?vid=3fd447c9-bd02-4aa2-8b14-301ac9885ead"},"vehicle_type_id":"4","last_reported":1699603745,"current_range_meters":31200,"station_id":"ce4bhq92rcd13ifvqhjg","pricing_plan_id":"free"},{"bike_id":"edf9d82c-1751-4579-9fd6-31ea5db19398","system_id":"levelo_inurba_marseille","lat":43.29795,"lon":5.404086,"is_reserved":false,"is_disabled":false,"rental_uris":{"android":"levelo://app?vid=edf9d82c-1751-4579-9fd6-31ea5db19398","ios":"levelo://app?vid=edf9d82c-1751-4579-9fd6-31ea5db19398"},"vehicle_type_id":"4","last_reported":1699603745,"current_range_meters":28800,"station_id":"ce4bh112rcd13ifvqd90","pricing_plan_id":"free"},{"bike_id":"ba171127-6a7d-411a-9e10-bb877c03cdf2","system_id":"levelo_inurba_marseille","lat":43.288497,"lon":5.393089,"is_reserved":false,"is_disabled":false,"rental_uris":{"android":"levelo://app?vid=ba171127-6a7d-411a-9e10-bb877c03cdf2","ios":"levelo://app?vid=ba171127-6a7d-411a-9e10-bb877c03cdf2"},"vehicle_type_id":"4","last_reported":1699603745,"current_range_meters":30000,"station_id":"ce4bh2p2rcd13ifvqdi0","pricing_plan_id":"free"},{"bike_id":"131a1f3e-626c-48d5-8af4-df09d8a90dea","system_id":"levelo_inurba_marseille","lat":43.288501,"lon":5.393087,"is_reserved":false,"is_disabled":false,"rental_uris":{"android":"levelo://app?vid=131a1f3e-626c-48d5-8af4-df09d8a90dea","ios":"levelo://app?vid=131a1f3e-626c-48d5-8af4-df09d8a90dea"},"vehicle_type_id":"4","last_reported":1699603745,"current_range_meters":29200,"station_id":"ce4bh2p2rcd13ifvqdi0","pricing_plan_id":"free"},{"bike_id":"f4e10ed5-6f60-47a7-bb87-be34a8e8466c","system_id":"levelo_inurba_marseille","lat":43.283494,"lon":5.380945,"is_reserved":false,"is_disabled":false,"rental_uris":{"android":"levelo://app?vid=f4e10ed5-6f60-47a7-bb87-be34a8e8466c","ios":"levelo://app?vid=f4e10ed5-6f60-47a7-bb87-be34a8e8466c"},"vehicle_type_id":"4","last_reported":1699603745,"current_range_meters":6800,"station_id":"ce4bh412rcd13ifvqdr0","pricing_plan_id":"free"},{"bike_id":"a8439bff-a9c0-4f5b-9418-87cf7934ac8f","system_id":"levelo_inurba_marseille","lat":43.283498,"lon":5.380948,"is_reserved":false,"is_disabled":false,"rental_uris":{"android":"levelo://app?vid=a8439bff-a9c0-4f5b-9418-87cf7934ac8f","ios":"levelo://app?vid=a8439bff-a9c0-4f5b-9418-87cf7934ac8f"},"vehicle_type_id":"4","last_reported":1699603745,"current_range_meters":27600,"station_id":"ce4bh412rcd13ifvqdr0","pricing_plan_id":"free"},{"bike_id":"bfcd8ab0-574a-4696-ac75-6a1962167f7d","system_id":"levelo_inurba_marseille","lat":43.284217,"lon":5.349697,"is_reserved":false,"is_disabled":false,"rental_uris":{"android":"levelo://app?vid=bfcd8ab0-574a-4696-ac75-6a1962167f7d","ios":"levelo://app?vid=bfcd8ab0-574a-4696-ac75-6a1962167f7d"},"vehicle_type_id":"4","last_reported":1699603745,"current_range_meters":28800,"station_id":"ce4bhbh2rcd13ifvqepg","pricing_plan_id":"free"},{"bike_id":"6fc151bd-c332-4cb2-86ec-40b933894b3a","system_id":"levelo_inurba_marseille","lat":43.28945,"lon":5.3963,"is_reserved":false,"is_disabled":false,"rental_uris":{"android":"levelo://app?vid=6fc151bd-c332-4cb2-86ec-40b933894b3a","ios":"levelo://app?vid=6fc151bd-c332-4cb2-86ec-40b933894b3a"},"vehicle_type_id":"4","last_reported":1699603745,"current_range_meters":5200,"station_id":"ce4bh3h2rcd13ifvqdn0","pricing_plan_id":"free"},{"bike_id":"694cc18d-6823-481a-9d09-67d990c2d197","system_id":"levelo_inurba_marseille","lat":43.324289,"lon":5.407562,"is_reserved":false,"is_disabled":false,"rental_uris":{"android":"levelo://app?vid=694cc18d-6823-481a-9d09-67d990c2d197","ios":"levelo://app?vid=694cc18d-6823-481a-9d09-67d990c2d197"},"vehicle_type_id":"4","last_reported":1699603745,"current_range_meters":3200,"station_id":"","pricing_plan_id":"free"},{"bike_id":"f81f3e0a-3b84-4022-81a2-cf963667f716","system_id":"levelo_inurba_marseille","lat":43.292795,"lon":5.40117,"is_reserved":false,"is_disabled":false,"rental_uris":{"android":"levelo://app?vid=f81f3e0a-3b84-4022-81a2-cf963667f716","ios":"levelo://app?vid=f81f3e0a-3b84-4022-81a2-cf963667f716"},"vehicle_type_id":"4","last_reported":1699603745,"current_range_meters":26000,"station_id":"ce4bh312rcd13ifvqdk0","pricing_plan_id":"free"},{"bike_id":"67e16cf6-af38-48c8-ad3a-b44735052729","system_id":"levelo_inurba_marseille","lat":43.29279,"lon":5.40119,"is_reserved":false,"is_disabled":false,"rental_uris":{"android":"levelo://app?vid=67e16cf6-af38-48c8-ad3a-b44735052729","ios":"levelo://app?vid=67e16cf6-af38-48c8-ad3a-b44735052729"},"vehicle_type_id":"4","last_reported":1699603745,"current_range_meters":12800,"station_id":"ce4bh312rcd13ifvqdk0","pricing_plan_id":"free"},{"bike_id":"9e9a2c42-2eca-460e-b598-3b4c388ee1c7","system_id":"levelo_inurba_marseille","lat":43.292796,"lon":5.401207,"is_reserved":false,"is_disabled":false,"rental_uris":{"android":"levelo://app?vid=9e9a2c42-2eca-460e-b598-3b4c388ee1c7","ios":"levelo://app?vid=9e9a2c42-2eca-460e-b598-3b4c388ee1c7"},"vehicle_type_id":"4","last_reported":1699603745,"current_range_meters":28400,"station_id":"ce4bh312rcd13ifvqdk0","pricing_plan_id":"free"},{"bike_id":"127fab5f-d08b-4b84-b2a6-33091f62848b","system_id":"levelo_inurba_marseille","lat":43.28039,"lon":5.369297,"is_reserved":false,"is_disabled":false,"rental_uris":{"android":"levelo://app?vid=127fab5f-d08b-4b84-b2a6-33091f62848b","ios":"levelo://app?vid=127fab5f-d08b-4b84-b2a6-33091f62848b"},"vehicle_type_id":"4","last_reported":1699603745,"current_range_meters":10800,"station_id":"ce4bha12rcd13ifvqef0","pricing_plan_id":"free"},{"bike_id":"6ce14d11-5c0b-40be-8dc1-99e20a1711f6","system_id":"levelo_inurba_marseille","lat":43.28039,"lon":5.369297,"is_reserved":false,"is_disabled":false,"rental_uris":{"android":"levelo://app?vid=6ce14d11-5c0b-40be-8dc1-99e20a1711f6","ios":"levelo://app?vid=6ce14d11-5c0b-40be-8dc1-99e20a1711f6"},"vehicle_type_id":"4","last_reported":1699603745,"current_range_meters":28800,"station_id":"ce4bha12rcd13ifvqef0","pricing_plan_id":"free"},{"bike_id":"a2eca894-49f5-4e44-b757-7ecd4bb60485","system_id":"levelo_inurba_marseille","lat":43.28039,"lon":5.369297,"is_reserved":false,"is_disabled":false,"rental_uris":{"android":"levelo://app?vid=a2eca894-49f5-4e44-b757-7ecd4bb60485","ios":"levelo://app?vid=a2eca894-49f5-4e44-b757-7ecd4bb60485"},"vehicle_type_id":"4","last_reported":1699603745,"current_range_meters":28000,"station_id":"ce4bha12rcd13ifvqef0","pricing_plan_id":"free"},{"bike_id":"0eca1d00-5069-4a15-98af-d74e4fb5633f","system_id":"levelo_inurba_marseille","lat":43.303648,"lon":5.410009,"is_reserved":false,"is_disabled":false,"rental_uris":{"android":"levelo://app?vid=0eca1d00-5069-4a15-98af-d74e4fb5633f","ios":"levelo://app?vid=0eca1d00-5069-4a15-98af-d74e4fb5633f"},"vehicle_type_id":"4","last_reported":1699603745,"current_range_meters":19200,"station_id":"","pricing_plan_id":"free"},{"bike_id":"8831cc5c-1eb5-41a1-9908-47d646e2b774","system_id":"levelo_inurba_marseille","lat":43.29041,"lon":5.399634,"is_reserved":false,"is_disabled":false,"rental_uris":{"android":"levelo://app?vid=8831cc5c-1eb5-41a1-9908-47d646e2b774","ios":"levelo://app?vid=8831cc5c-1eb5-41a1-9908-47d646e2b774"},"vehicle_type_id":"4","last_reported":1699603745,"current_range_meters":30400,"station_id":"ce4bh392rcd13ifvqdm0","pricing_plan_id":"free"},{"bike_id":"a10d6895-5775-4724-a0ab-9a560cefebf2","system_id":"levelo_inurba_marseille","lat":43.2903,"lon":5.39971,"is_reserved":false,"is_disabled":false,"rental_uris":{"android":"levelo://app?vid=a10d6895-5775-4724-a0ab-9a560cefebf2","ios":"levelo://app?vid=a10d6895-5775-4724-a0ab-9a560cefebf2"},"vehicle_type_id":"4","last_reported":1699603745,"current_range_meters":22000,"station_id":"ce4bh392rcd13ifvqdm0","pricing_plan_id":"free"},{"bike_id":"4ffb0c16-4846-402b-99ae-21d8d30e0db8","system_id":"levelo_inurba_marseille","lat":43.296263,"lon":5.40601,"is_reserved":false,"is_disabled":false,"rental_uris":{"android":"levelo://app?vid=4ffb0c16-4846-402b-99ae-21d8d30e0db8","ios":"levelo://app?vid=4ffb0c16-4846-402b-99ae-21d8d30e0db8"},"vehicle_type_id":"4","last_reported":1699603745,"current_range_meters":24800,"station_id":"ce4bh0h2rcd13ifvqd60","pricing_plan_id":"free"},{"bike_id":"4eeb5f0d-3d6a-46dd-b6c1-923192e976d0","system_id":"levelo_inurba_marseille","lat":43.296263,"lon":5.40601,"is_reserved":false,"is_disabled":false,"rental_uris":{"android":"levelo://app?vid=4eeb5f0d-3d6a-46dd-b6c1-923192e976d0","ios":"levelo://app?vid=4eeb5f0d-3d6a-46dd-b6c1-923192e976d0"},"vehicle_type_id":"4","last_reported":1699603745,"current_range_meters":20800,"station_id":"ce4bh0h2rcd13ifvqd60","pricing_plan_id":"free"},{"bike_id":"f8fced4f-230d-40c3-9920-b1acf9bb81d2","system_id":"levelo_inurba_marseille","lat":43.29033,"lon":5.39984,"is_reserved":false,"is_disabled":false,"rental_uris":{"android":"levelo://app?vid=f8fced4f-230d-40c3-9920-b1acf9bb81d2","ios":"levelo://app?vid=f8fced4f-230d-40c3-9920-b1acf9bb81d2"},"vehicle_type_id":"4","last_reported":1699603745,"current_range_meters":28800,"station_id":"ce4bh392rcd13ifvqdm0","pricing_plan_id":"free"},{"bike_id":"07754cd0-df8a-43e6-85bb-5a0a8593c141","system_id":"levelo_inurba_marseille","lat":43.281044,"lon":5.378308,"is_reserved":false,"is_disabled":false,"rental_uris":{"android":"levelo://app?vid=07754cd0-df8a-43e6-85bb-5a0a8593c141","ios":"levelo://app?vid=07754cd0-df8a-43e6-85bb-5a0a8593c141"},"vehicle_type_id":"4","last_reported":1699603745,"current_range_meters":22800,"station_id":"ce4bha12rcd13ifvqee0","pricing_plan_id":"free"},{"bike_id":"c5269fde-c094-4163-a2ac-a6350e774e3c","system_id":"levelo_inurba_marseille","lat":43.323447,"lon":5.41003,"is_reserved":false,"is_disabled":false,"rental_uris":{"android":"levelo://app?vid=c5269fde-c094-4163-a2ac-a6350e774e3c","ios":"levelo://app?vid=c5269fde-c094-4163-a2ac-a6350e774e3c"},"vehicle_type_id":"4","last_reported":1699603745,"current_range_meters":10000,"station_id":"","pricing_plan_id":"free"},{"bike_id":"b8a953c6-d84a-466c-8c23-22ea72750b70","system_id":"levelo_inurba_marseille","lat":43.284462,"lon":5.392121,"is_reserved":false,"is_disabled":false,"rental_uris":{"android":"levelo://app?vid=b8a953c6-d84a-466c-8c23-22ea72750b70","ios":"levelo://app?vid=b8a953c6-d84a-466c-8c23-22ea72750b70"},"vehicle_type_id":"4","last_reported":1699603745,"current_range_meters":5600,"station_id":"ce4bhoh2rcd13ifvqh5g","pricing_plan_id":"free"},{"bike_id":"c1e832f9-b52e-4252-bba8-667cebf0c692","system_id":"levelo_inurba_marseille","lat":43.28573,"lon":5.394992,"is_reserved":false,"is_disabled":false,"rental_uris":{"android":"levelo://app?vid=c1e832f9-b52e-4252-bba8-667cebf0c692","ios":"levelo://app?vid=c1e832f9-b52e-4252-bba8-667cebf0c692"},"vehicle_type_id":"4","last_reported":1699603745,"current_range_meters":0,"station_id":"ce4bh292rcd13ifvqdg0","pricing_plan_id":"free"},{"bike_id":"02c72c36-cbbd-4feb-8926-bb852eb9d939","system_id":"levelo_inurba_marseille","lat":43.326605,"lon":5.409903,"is_reserved":false,"is_disabled":false,"rental_uris":{"android":"levelo://app?vid=02c72c36-cbbd-4feb-8926-bb852eb9d939","ios":"levelo://app?vid=02c72c36-cbbd-4feb-8926-bb852eb9d939"},"vehicle_type_id":"4","last_reported":1699603745,"current_range_meters":27200,"station_id":"ce4bhpp2rcd13ifvqhgg","pricing_plan_id":"free"},{"bike_id":"4d122082-bef4-48a6-b8b5-0ffd4c5a60fc","system_id":"levelo_inurba_marseille","lat":43.326605,"lon":5.409903,"is_reserved":false,"is_disabled":false,"rental_uris":{"android":"levelo://app?vid=4d122082-bef4-48a6-b8b5-0ffd4c5a60fc","ios":"levelo://app?vid=4d122082-bef4-48a6-b8b5-0ffd4c5a60fc"},"vehicle_type_id":"4","last_reported":1699603745,"current_range_meters":25600,"station_id":"ce4bhpp2rcd13ifvqhgg","pricing_plan_id":"free"},{"bike_id":"4ceb9aa1-b02f-4f58-98dd-831a75908e45","system_id":"levelo_inurba_marseille","lat":43.304188,"lon":5.412904,"is_reserved":false,"is_disabled":false,"rental_uris":{"android":"levelo://app?vid=4ceb9aa1-b02f-4f58-98dd-831a75908e45","ios":"levelo://app?vid=4ceb9aa1-b02f-4f58-98dd-831a75908e45"},"vehicle_type_id":"4","last_reported":1699603745,"current_range_meters":14400,"station_id":"ce4bhop2rcd13ifvqh8g","pricing_plan_id":"free"},{"bike_id":"faf09b53-e562-4ae9-ae94-323bf3cb9ce0","system_id":"levelo_inurba_marseille","lat":43.304188,"lon":5.412904,"is_reserved":false,"is_disabled":false,"rental_uris":{"android":"levelo://app?vid=faf09b53-e562-4ae9-ae94-323bf3cb9ce0","ios":"levelo://app?vid=faf09b53-e562-4ae9-ae94-323bf3cb9ce0"},"vehicle_type_id":"4","last_reported":1699603745,"current_range_meters":22400,"station_id":"ce4bhop2rcd13ifvqh8g","pricing_plan_id":"free"},{"bike_id":"e8918fc3-4771-4c5d-86f3-8b6f6e21e0f7","system_id":"levelo_inurba_marseille","lat":43.304188,"lon":5.412904,"is_reserved":false,"is_disabled":false,"rental_uris":{"android":"levelo://app?vid=e8918fc3-4771-4c5d-86f3-8b6f6e21e0f7","ios":"levelo://app?vid=e8918fc3-4771-4c5d-86f3-8b6f6e21e0f7"},"vehicle_type_id":"4","last_reported":1699603745,"current_range_meters":24000,"station_id":"ce4bhop2rcd13ifvqh8g","pricing_plan_id":"free"},{"bike_id":"d35fd685-a972-46c8-9325-fa8e082ffe24","system_id":"levelo_inurba_marseille","lat":43.304188,"lon":5.412904,"is_reserved":false,"is_disabled":false,"rental_uris":{"android":"levelo://app?vid=d35fd685-a972-46c8-9325-fa8e082ffe24","ios":"levelo://app?vid=d35fd685-a972-46c8-9325-fa8e082ffe24"},"vehicle_type_id":"4","last_reported":1699603745,"current_range_meters":31200,"station_id":"ce4bhop2rcd13ifvqh8g","pricing_plan_id":"free"},{"bike_id":"381ba743-1552-4db6-9c19-4059aedf5f04","system_id":"levelo_inurba_marseille","lat":43.287154,"lon":5.399979,"is_reserved":false,"is_disabled":false,"rental_uris":{"android":"levelo://app?vid=381ba743-1552-4db6-9c19-4059aedf5f04","ios":"levelo://app?vid=381ba743-1552-4db6-9c19-4059aedf5f04"},"vehicle_type_id":"4","last_reported":1699603745,"current_range_meters":31600,"station_id":"ce4bho92rcd13ifvqh3g","pricing_plan_id":"free"},{"bike_id":"798b845e-3212-41db-b549-220eda887db5","system_id":"levelo_inurba_marseille","lat":43.287154,"lon":5.399979,"is_reserved":false,"is_disabled":false,"rental_uris":{"android":"levelo://app?vid=798b845e-3212-41db-b549-220eda887db5","ios":"levelo://app?vid=798b845e-3212-41db-b549-220eda887db5"},"vehicle_type_id":"4","last_reported":1699603745,"current_range_meters":18400,"station_id":"ce4bho92rcd13ifvqh3g","pricing_plan_id":"free"},{"bike_id":"5949fb8f-a87a-4fdd-914f-8307e361c3d5","system_id":"levelo_inurba_marseille","lat":43.287154,"lon":5.399979,"is_reserved":false,"is_disabled":false,"rental_uris":{"android":"levelo://app?vid=5949fb8f-a87a-4fdd-914f-8307e361c3d5","ios":"levelo://app?vid=5949fb8f-a87a-4fdd-914f-8307e361c3d5"},"vehicle_type_id":"4","last_reported":1699603745,"current_range_meters":31600,"station_id":"ce4bho92rcd13ifvqh3g","pricing_plan_id":"free"},{"bike_id":"2bc613f6-5d23-4b5c-9e87-c04f044bd82c","system_id":"levelo_inurba_marseille","lat":43.287154,"lon":5.399979,"is_reserved":false,"is_disabled":false,"rental_uris":{"android":"levelo://app?vid=2bc613f6-5d23-4b5c-9e87-c04f044bd82c","ios":"levelo://app?vid=2bc613f6-5d23-4b5c-9e87-c04f044bd82c"},"vehicle_type_id":"4","last_reported":1699603745,"current_range_meters":24400,"station_id":"ce4bho92rcd13ifvqh3g","pricing_plan_id":"free"},{"bike_id":"2b214a03-8f8a-4c5a-825f-41d6746bcf3f","system_id":"levelo_inurba_marseille","lat":43.287154,"lon":5.399979,"is_reserved":false,"is_disabled":false,"rental_uris":{"android":"levelo://app?vid=2b214a03-8f8a-4c5a-825f-41d6746bcf3f","ios":"levelo://app?vid=2b214a03-8f8a-4c5a-825f-41d6746bcf3f"},"vehicle_type_id":"4","last_reported":1699603745,"current_range_meters":21200,"station_id":"ce4bho92rcd13ifvqh3g","pricing_plan_id":"free"},{"bike_id":"ab77c349-2cba-4820-9fc4-983ee75b3dd7","system_id":"levelo_inurba_marseille","lat":43.287154,"lon":5.399979,"is_reserved":false,"is_disabled":false,"rental_uris":{"android":"levelo://app?vid=ab77c349-2cba-4820-9fc4-983ee75b3dd7","ios":"levelo://app?vid=ab77c349-2cba-4820-9fc4-983ee75b3dd7"},"vehicle_type_id":"4","last_reported":1699603745,"current_range_meters":12800,"station_id":"ce4bho92rcd13ifvqh3g","pricing_plan_id":"free"},{"bike_id":"1c4bd0db-33c8-434a-8e56-134b33aa4836","system_id":"levelo_inurba_marseille","lat":43.287154,"lon":5.399979,"is_reserved":false,"is_disabled":false,"rental_uris":{"android":"levelo://app?vid=1c4bd0db-33c8-434a-8e56-134b33aa4836","ios":"levelo://app?vid=1c4bd0db-33c8-434a-8e56-134b33aa4836"},"vehicle_type_id":"4","last_reported":1699603745,"current_range_meters":31600,"station_id":"ce4bho92rcd13ifvqh3g","pricing_plan_id":"free"},{"bike_id":"feca28d2-7019-4e39-96be-d7938cc29597","system_id":"levelo_inurba_marseille","lat":43.32435,"lon":5.4137,"is_reserved":false,"is_disabled":false,"rental_uris":{"android":"levelo://app?vid=feca28d2-7019-4e39-96be-d7938cc29597","ios":"levelo://app?vid=feca28d2-7019-4e39-96be-d7938cc29597"},"vehicle_type_id":"4","last_reported":1699603745,"current_range_meters":26000,"station_id":"","pricing_plan_id":"free"},{"bike_id":"c6482345-534c-4f0f-9525-12aaf738803f","system_id":"levelo_inurba_marseille","lat":43.299579,"lon":5.413255,"is_reserved":false,"is_disabled":false,"rental_uris":{"android":"levelo://app?vid=c6482345-534c-4f0f-9525-12aaf738803f","ios":"levelo://app?vid=c6482345-534c-4f0f-9525-12aaf738803f"},"vehicle_type_id":"4","last_reported":1699603745,"current_range_meters":24400,"station_id":"ce4bhp12rcd13ifvqh9g","pricing_plan_id":"free"},{"bike_id":"ebedd3d6-a186-46b5-9226-b4cfe2c645f6","system_id":"levelo_inurba_marseille","lat":43.279742,"lon":5.38744,"is_reserved":false,"is_disabled":false,"rental_uris":{"android":"levelo://app?vid=ebedd3d6-a186-46b5-9226-b4cfe2c645f6","ios":"levelo://app?vid=ebedd3d6-a186-46b5-9226-b4cfe2c645f6"},"vehicle_type_id":"4","last_reported":1699603745,"current_range_meters":24800,"station_id":"ce4bhg12rcd13ifvqf80","pricing_plan_id":"free"},{"bike_id":"a00a6b26-e7ed-45f4-a489-5bb77faaf4b5","system_id":"levelo_inurba_marseille","lat":43.299577,"lon":5.413277,"is_reserved":false,"is_disabled":false,"rental_uris":{"android":"levelo://app?vid=a00a6b26-e7ed-45f4-a489-5bb77faaf4b5","ios":"levelo://app?vid=a00a6b26-e7ed-45f4-a489-5bb77faaf4b5"},"vehicle_type_id":"4","last_reported":1699603745,"current_range_meters":30800,"station_id":"ce4bhp12rcd13ifvqh9g","pricing_plan_id":"free"},{"bike_id":"5ac87595-9729-4d21-a136-312c696930a4","system_id":"levelo_inurba_marseille","lat":43.29965,"lon":5.41325,"is_reserved":false,"is_disabled":false,"rental_uris":{"android":"levelo://app?vid=5ac87595-9729-4d21-a136-312c696930a4","ios":"levelo://app?vid=5ac87595-9729-4d21-a136-312c696930a4"},"vehicle_type_id":"4","last_reported":1699603745,"current_range_meters":31200,"station_id":"ce4bhp12rcd13ifvqh9g","pricing_plan_id":"free"},{"bike_id":"1dd17022-3e98-4ce4-bf39-7eb4bd6f3592","system_id":"levelo_inurba_marseille","lat":43.279715,"lon":5.387358,"is_reserved":false,"is_disabled":false,"rental_uris":{"android":"levelo://app?vid=1dd17022-3e98-4ce4-bf39-7eb4bd6f3592","ios":"levelo://app?vid=1dd17022-3e98-4ce4-bf39-7eb4bd6f3592"},"vehicle_type_id":"4","last_reported":1699603745,"current_range_meters":28000,"station_id":"ce4bhg12rcd13ifvqf80","pricing_plan_id":"free"},{"bike_id":"1d65ac98-4d05-4e98-80be-982dbd923e13","system_id":"levelo_inurba_marseille","lat":43.27968,"lon":5.38737,"is_reserved":false,"is_disabled":false,"rental_uris":{"android":"levelo://app?vid=1d65ac98-4d05-4e98-80be-982dbd923e13","ios":"levelo://app?vid=1d65ac98-4d05-4e98-80be-982dbd923e13"},"vehicle_type_id":"4","last_reported":1699603745,"current_range_meters":27200,"station_id":"","pricing_plan_id":"free"},{"bike_id":"0ae5309e-300f-47ed-a0cd-ce8f42743790","system_id":"levelo_inurba_marseille","lat":43.279742,"lon":5.38744,"is_reserved":false,"is_disabled":false,"rental_uris":{"android":"levelo://app?vid=0ae5309e-300f-47ed-a0cd-ce8f42743790","ios":"levelo://app?vid=0ae5309e-300f-47ed-a0cd-ce8f42743790"},"vehicle_type_id":"4","last_reported":1699603745,"current_range_meters":25600,"station_id":"ce4bhg12rcd13ifvqf80","pricing_plan_id":"free"},{"bike_id":"fc033fb6-a21b-48df-b162-b16bddd0936e","system_id":"levelo_inurba_marseille","lat":43.325233,"lon":5.414318,"is_reserved":false,"is_disabled":false,"rental_uris":{"android":"levelo://app?vid=fc033fb6-a21b-48df-b162-b16bddd0936e","ios":"levelo://app?vid=fc033fb6-a21b-48df-b162-b16bddd0936e"},"vehicle_type_id":"4","last_reported":1699603745,"current_range_meters":20800,"station_id":"ce4bhq12rcd13ifvqhhg","pricing_plan_id":"free"},{"bike_id":"6617684c-34c6-4177-a998-09b50822d0b4","system_id":"levelo_inurba_marseille","lat":43.2926,"lon":5.40904,"is_reserved":false,"is_disabled":false,"rental_uris":{"android":"levelo://app?vid=6617684c-34c6-4177-a998-09b50822d0b4","ios":"levelo://app?vid=6617684c-34c6-4177-a998-09b50822d0b4"},"vehicle_type_id":"4","last_reported":1699603745,"current_range_meters":30800,"station_id":"ce4bh192rcd13ifvqdc0","pricing_plan_id":"free"},{"bike_id":"cf3a339c-ddd6-4e11-b8bb-93857272d9b6","system_id":"levelo_inurba_marseille","lat":43.325233,"lon":5.414318,"is_reserved":false,"is_disabled":false,"rental_uris":{"android":"levelo://app?vid=cf3a339c-ddd6-4e11-b8bb-93857272d9b6","ios":"levelo://app?vid=cf3a339c-ddd6-4e11-b8bb-93857272d9b6"},"vehicle_type_id":"4","last_reported":1699603745,"current_range_meters":30400,"station_id":"ce4bhq12rcd13ifvqhhg","pricing_plan_id":"free"},{"bike_id":"e5dc304a-07c1-4c5f-bd5e-45acfba4c943","system_id":"levelo_inurba_marseille","lat":43.325233,"lon":5.414318,"is_reserved":false,"is_disabled":false,"rental_uris":{"android":"levelo://app?vid=e5dc304a-07c1-4c5f-bd5e-45acfba4c943","ios":"levelo://app?vid=e5dc304a-07c1-4c5f-bd5e-45acfba4c943"},"vehicle_type_id":"4","last_reported":1699603745,"current_range_meters":10800,"station_id":"ce4bhq12rcd13ifvqhhg","pricing_plan_id":"free"},