{"last_updated":1704128785,"ttl":30,"version":"2.2","data":{"bikes":[{"bike_id":"7d85abb0-786c-454d-939c-3f7819b2c5c6","system_id":"levelo_inurba_marseille","lat":43.31341,"lon":5.367098,"is_reserved":false,"is_disabled":false,"rental_uris":{"android":"levelo://app?vid=7d85abb0-786c-454d-939c-3f7819b2c5c6","ios":"levelo://app?vid=7d85abb0-786c-454d-939c-3f7819b2c5c6"},"vehicle_type_id":"4","last_reported":1704128785,"current_range_meters":31200,"station_id":"ce4bgr92rcd13ifvqc6g","pricing_plan_id":"free"},{"bike_id":"19681d20-0e94-4d95-bd6e-75843e212133","system_id":"levelo_inurba_marseille","lat":43.313391,"lon":5.36706,"is_reserved":false,"is_disabled":false,"rental_uris":{"android":"levelo://app?vid=19681d20-0e94-4d95-bd6e-75843e212133","ios":"levelo://app?vid=19681d20-0e94-4d95-bd6e-75843e212133"},"vehicle_type_id":"4","last_reported":1704128785,"current_range_meters":28800,"station_id":"ce4bgr92rcd13ifvqc6g","pricing_plan_id":"free"},{"bike_id":"44a9498d-b1bb-4a79-8fdb-f829f6d9457c","system_id":"levelo_inurba_marseille","lat":43.312239,"lon":5.368562,"is_reserved":false,"is_disabled":false,"rental_uris":{"android":"levelo://app?vid=44a9498d-b1bb-4a79-8fdb-f829f6d9457c","ios":"levelo://app?vid=44a9498d-b1bb-4a79-8fdb-f829f6d9457c"},"vehicle_type_id":"4","last_reported":1704128785,"current_range_meters":29200,"station_id":"ce4bgl92rcd13ifvqbq0","pricing_plan_id":"free"},{"bike_id":"5c5442d9-e872-4173-8876-7a522e80ce70","system_id":"levelo_inurba_marseille","lat":43.312239,"lon":5.368562,"is_reserved":false,"is_disabled":false,"rental_uris":{"android":"levelo://app?vid=5c5442d9-e872-4173-8876-7a522e80ce70","ios":"levelo://app?vid=5c5442d9-e872-4173-8876-7a522e80ce70"},"vehicle_type_id":"4","last_reported":1704128785,"current_range_meters":9200,"station_id":"ce4bgl92rcd13ifvqbq0","pricing_plan_id":"free"},{"bike_id":"7676754d-8469-48f2-a4d8-e6be70702df1","system_id":"levelo_inurba_marseille","lat":43.309076,"lon":5.368465,"is_reserved":false,"is_disabled":false,"rental_uris":{"android":"levelo://app?vid=7676754d-8469-48f2-a4d8-e6be70702df1","ios":"levelo://app?vid=7676754d-8469-48f2-a4d8-e6be70702df1"},"vehicle_type_id":"4","last_reported":1704128785,"current_range_meters":18800,"station_id":"ce4bgn92rcd13ifvqbvg","pricing_plan_id":"free"},{"bike_id":"13b61803-1820-4527-8c0c-52b27acc841d","system_id":"levelo_inurba_marseille","lat":43.309076,"lon":5.368465,"is_reserved":false,"is_disabled":false,"rental_uris":{"android":"levelo://app?vid=13b61803-1820-4527-8c0c-52b27acc841d","ios":"levelo://app?vid=13b61803-1820-4527-8c0c-52b27acc841d"},"vehicle_type_id":"4","last_reported":1704128785,"current_range_meters":23200,"station_id":"ce4bgn92rcd13ifvqbvg","pricing_plan_id":"free"},{"bike_id":"b226a9d7-249c-4ff2-8f78-9fcfa39e8e65","system_id":"levelo_inurba_marseille","lat":43.309076,"lon":5.368465,"is_reserved":false,"is_disabled":false,"rental_uris":{"android":"levelo://app?vid=b226a9d7-249c-4ff2-8f78-9fcfa39e8e65","ios":"levelo://app?vid=b226a9d7-249c-4ff2-8f78-9fcfa39e8e65"},"vehicle_type_id":"4","last_reported":1704128785,"current_range_meters":15600,"station_id":"ce4bgn92rcd13ifvqbvg","pricing_plan_id":"free"},{"bike_id":"169fc797-5a0f-44a1-9c51-501bf889c536","system_id":"levelo_inurba_marseille","lat":43.314811,"lon":5.373103,"is_reserved":false,"is_disabled":false,"rental_uris":{"android":"levelo://app?vid=169fc797-5a0f-44a1-9c51-501bf889c536","ios":"levelo://app?vid=169fc797-5a0f-44a1-9c51-501bf889c536"},"vehicle_type_id":"4","last_reported":1704128785,"current_range_meters":20000,"station_id":"ce4bgt12rcd13ifvqcd0","pricing_plan_id":"free"},{"bike_id":"1ca9373c-bbff-4b68-be9c-ccfd36d08db3","system_id":"levelo_inurba_marseille","lat":43.314811,"lon":5.373103,"is_reserved":false,"is_disabled":false,"rental_uris":{"android":"levelo://app?vid=1ca9373c-bbff-4b68-be9c-ccfd36d08db3","ios":"levelo://app?vid=1ca9373c-bbff-4b68-be9c-ccfd36d08db3"},"vehicle_type_id":"4","last_reported":1704128785,"current_range_meters":19600,"station_id":"ce4bgt12rcd13ifvqcd0","pricing_plan_id":"free"},{"bike_id":"76717232-fb13-4f9b-a173-ce0f689ccd20","system_id":"levelo_inurba_marseille","lat":43.305706,"lon":5.365654,"is_reserved":false,"is_disabled":false,"rental_uris":{"android":"levelo://app?vid=76717232-fb13-4f9b-a173-ce0f689ccd20","ios":"levelo://app?vid=76717232-fb13-4f9b-a173-ce0f689ccd20"},"vehicle_type_id":"4","last_reported":1704128785,"current_range_meters":25600,"station_id":"ce4bgs12rcd13ifvqcag","pricing_plan_id":"free"},{"bike_id":"0d79ae00-be73-4cf1-ad97-e32a3f832f81","system_id":"levelo_inurba_marseille","lat":43.305714,"lon":5.365633,"is_reserved":false,"is_disabled":false,"rental_uris":{"android":"levelo://app?vid=0d79ae00-be73-4cf1-ad97-e32a3f832f81","ios":"levelo://app?vid=0d79ae00-be73-4cf1-ad97-e32a3f832f81"},"vehicle_type_id":"4","last_reported":1704128785,"current_range_meters":15600,"station_id":"ce4bgs12rcd13ifvqcag","pricing_plan_id":"free"},{"bike_id":"b0484558-c844-4f83-b161-1da51ab91202","system_id":"levelo_inurba_marseille","lat":43.305706,"lon":5.365654,"is_reserved":false,"is_disabled":false,"rental_uris":{"android":"levelo://app?vid=b0484558-c844-4f83-b161-1da51ab91202","ios":"levelo://app?vid=b0484558-c844-4f83-b161-1da51ab91202"},"vehicle_type_id":"4","last_reported":1704128785,"current_range_meters":6400,"station_id":"ce4bgs12rcd13ifvqcag","pricing_plan_id":"free"},{"bike_id":"6cc10ba3-514e-4b87-b859-081a0f2df958","system_id":"levelo_inurba_marseille","lat":43.305706,"lon":5.365654,"is_reserved":false,"is_disabled":false,"rental_uris":{"android":"levelo://app?vid=6cc10ba3-514e-4b87-b859-081a0f2df958","ios":"levelo://app?vid=6cc10ba3-514e-4b87-b859-081a0f2df958"},"vehicle_type_id":"4","last_reported":1704128785,"current_range_meters":22800,"station_id":"ce4bgs12rcd13ifvqcag","pricing_plan_id":"free"},{"bike_id":"622d038e-c76a-48fa-9bb5-ecf549aa0d85","system_id":"levelo_inurba_marseille","lat":43.305989,"lon":5.37225,"is_reserved":false,"is_disabled":false,"rental_uris":{"android":"levelo://app?vid=622d038e-c76a-48fa-9bb5-ecf549aa0d85","ios":"levelo://app?vid=622d038e-c76a-48fa-9bb5-ecf549aa0d85"},"vehicle_type_id":"4","last_reported":1704128785,"current_range_meters":18400,"station_id":"ce4bgqh2rcd13ifvqc4g","pricing_plan_id":"free"},{"bike_id":"25af9e1c-886c-4f64-92f2-5ca68e46ae4a","system_id":"levelo_inurba_marseille","lat":43.31722,"lon":5.37668,"is_reserved":false,"is_disabled":false,"rental_uris":{"android":"levelo://app?vid=25af9e1c-886c-4f64-92f2-5ca68e46ae4a","ios":"levelo://app?vid=25af9e1c-886c-4f64-92f2-5ca68e46ae4a"},"vehicle_type_id":"4","last_reported":1704128785,"current_range_meters":17600,"station_id":"","pricing_plan_id":"free"},{"bike_id":"f9ae486b-b863-49d9-a516-4fbb2113a3cc","system_id":"levelo_inurba_marseille","lat":43.31648,"lon":5.37786,"is_reserved":false,"is_disabled":false,"rental_uris":{"android":"levelo://app?vid=f9ae486b-b863-49d9-a516-4fbb2113a3cc","ios":"levelo://app?vid=f9ae486b-b863-49d9-a516-4fbb2113a3cc"},"vehicle_type_id":"4","last_reported":1704128785,"current_range_meters":18400,"station_id":"","pricing_plan_id":"free"},{"bike_id":"5170051c-678f-4600-8a7e-ff4942292a1f","system_id":"levelo_inurba_marseille","lat":43.303046,"lon":5.368981,"is_reserved":false,"is_disabled":false,"rental_uris":{"android":"levelo://app?vid=5170051c-678f-4600-8a7e-ff4942292a1f","ios":"levelo://app?vid=5170051c-678f-4600-8a7e-ff4942292a1f"},"vehicle_type_id":"4","last_reported":1704128785,"current_range_meters":24000,"station_id":"ce4bgqh2rcd13ifvqc5g","pricing_plan_id":"free"},{"bike_id":"16503b00-600c-42e4-acb0-40cca7f9eb4f","system_id":"levelo_inurba_marseille","lat":43.30195,"lon":5.366133,"is_reserved":false,"is_disabled":false,"rental_uris":{"android":"levelo://app?vid=16503b00-600c-42e4-acb0-40cca7f9eb4f","ios":"levelo://app?vid=16503b00-600c-42e4-acb0-40cca7f9eb4f"},"vehicle_type_id":"4","last_reported":1704128785,"current_range_meters":30800,"station_id":"ce4bgrh2rcd13ifvqc8g","pricing_plan_id":"free"},{"bike_id":"c04c0c68-0c18-479a-8d7e-976158c8ea16","system_id":"levelo_inurba_marseille","lat":43.301939,"lon":5.366286,"is_reserved":false,"is_disabled":false,"rental_uris":{"android":"levelo://app?vid=c04c0c68-0c18-479a-8d7e-976158c8ea16","ios":"levelo://app?vid=c04c0c68-0c18-479a-8d7e-976158c8ea16"},"vehicle_type_id":"4","last_reported":1704128785,"current_range_meters":11200,"station_id":"ce4bgrh2rcd13ifvqc8g","pricing_plan_id":"free"},{"bike_id":"be2855b1-da16-402f-91e0-70b13e437797","system_id":"levelo_inurba_marseille","lat":43.301939,"lon":5.366286,"is_reserved":false,"is_disabled":false,"rental_uris":{"android":"levelo://app?vid=be2855b1-da16-402f-91e0-70b13e437797","ios":"levelo://app?vid=be2855b1-da16-402f-91e0-70b13e437797"},"vehicle_type_id":"4","last_reported":1704128785,"current_range_meters":27600,"station_id":"ce4bgrh2rcd13ifvqc8g","pricing_plan_id":"free"},{"bike_id":"856b0c6f-ff8f-440c-ba13-0054a6628d7c","system_id":"levelo_inurba_marseille","lat":43.301939,"lon":5.366286,"is_reserved":false,"is_disabled":false,"rental_uris":{"android":"levelo://app?vid=856b0c6f-ff8f-440c-ba13-0054a6628d7c","ios":"levelo://app?vid=856b0c6f-ff8f-440c-ba13-0054a6628d7c"},"vehicle_type_id":"4","last_reported":1704128785,"current_range_meters":15600,"station_id":"ce4bgrh2rcd13ifvqc8g","pricing_plan_id":"free"},{"bike_id":"600ce058-b0e3-4f26-a023-1fcdd1ac0754","system_id":"levelo_inurba_marseille","lat":43.308012,"lon":5.381511,"is_reserved":false,"is_disabled":false,"rental_uris":{"android":"levelo://app?vid=600ce058-b0e3-4f26-a023-1fcdd1ac0754","ios":"levelo://app?vid=600ce058-b0e3-4f26-a023-1fcdd1ac0754"},"vehicle_type_id":"4","last_reported":1704128785,"current_range_meters":9600,"station_id":"ce4bgt12rcd13ifvqce0","pricing_plan_id":"free"},{"bike_id":"5377074b-30e2-4d67-825b-9deb3b1dbed3","system_id":"levelo_inurba_marseille","lat":43.304708,"lon":5.379039,"is_reserved":false,"is_disabled":false,"rental_uris":{"android":"levelo://app?vid=5377074b-30e2-4d67-825b-9deb3b1dbed3","ios":"levelo://app?vid=5377074b-30e2-4d67-825b-9deb3b1dbed3"},"vehicle_type_id":"4","last_reported":1704128785,"current_range_meters":14000,"station_id":"","pricing_plan_id":"free"},{"bike_id":"12cc3e03-e48b-4f30-bfc9-f1b37a6da005","system_id":"levelo_inurba_marseille","lat":43.302812,"lon":5.376994,"is_reserved":false,"is_disabled":false,"rental_uris":{"android":"levelo://app?vid=12cc3e03-e48b-4f30-bfc9-f1b37a6da005","ios":"levelo://app?vid=12cc3e03-e48b-4f30-bfc9-f1b37a6da005"},"vehicle_type_id":"4","last_reported":1704128785,"current_range_meters":30400,"station_id":"ce4bguh2rcd13ifvqcj0","pricing_plan_id":"free"},{"bike_id":"37654fee-c31e-4e93-a13c-b8fb11c15bab","system_id":"levelo_inurba_marseille","lat":43.302806,"lon":5.377,"is_reserved":false,"is_disabled":false,"rental_uris":{"android":"levelo://app?vid=37654fee-c31e-4e93-a13c-b8fb11c15bab","ios":"levelo://app?vid=37654fee-c31e-4e93-a13c-b8fb11c15bab"},"vehicle_type_id":"4","last_reported":1704128785,"current_range_meters":28800,"station_id":"ce4bguh2rcd13ifvqcj0","pricing_plan_id":"free"},{"bike_id":"2a6c552b-c8f3-404a-aceb-36f8473ac999","system_id":"levelo_inurba_marseille","lat":43.28573,"lon":5.394992,"is_reserved":false,"is_disabled":false,"rental_uris":{"android":"levelo://app?vid=2a6c552b-c8f3-404a-aceb-36f8473ac999","ios":"levelo://app?vid=2a6c552b-c8f3-404a-aceb-36f8473ac999"},"vehicle_type_id":"4","last_reported":1704128785,"current_range_meters":30400,"station_id":"ce4bh292rcd13ifvqdg0","pricing_plan_id":"free"},{"bike_id":"00322881-25ad-4017-9802-50961af81e12","system_id":"levelo_inurba_marseille","lat":43.313571,"lon":5.384829,"is_reserved":false,"is_disabled":false,"rental_uris":{"android":"levelo://app?vid=00322881-25ad-4017-9802-50961af81e12","ios":"levelo://app?vid=00322881-25ad-4017-9802-50961af81e12"},"vehicle_type_id":"4","last_reported":1704128785,"current_range_meters":19200,"station_id":"ce4bgt92rcd13ifvqcf0","pricing_plan_id":"free"},{"bike_id":"c167d754-deda-4459-8085-b13c1a544b19","system_id":"levelo_inurba_marseille","lat":43.3136,"lon":5.3849,"is_reserved":false,"is_disabled":false,"rental_uris":{"android":"levelo://app?vid=c167d754-deda-4459-8085-b13c1a544b19","ios":"levelo://app?vid=c167d754-deda-4459-8085-b13c1a544b19"},"vehicle_type_id":"4","last_reported":1704128785,"current_range_meters":21600,"station_id":"ce4bgt92rcd13ifvqcf0","pricing_plan_id":"free"},{"bike_id":"1dbc8a77-5d10-47e0-94e9-be1d311ed37a","system_id":"levelo_inurba_marseille","lat":43.313571,"lon":5.384829,"is_reserved":false,"is_disabled":false,"rental_uris":{"android":"levelo://app?vid=1dbc8a77-5d10-47e0-94e9-be1d311ed37a","ios":"levelo://app?vid=1dbc8a77-5d10-47e0-94e9-be1d311ed37a"},"vehicle_type_id":"4","last_reported":1704128785,"current_range_meters":20000,"station_id":"ce4bgt92rcd13ifvqcf0","pricing_plan_id":"free"},{"bike_id":"f74aed6e-0f81-4784-b1e2-b9611d35793a","system_id":"levelo_inurba_marseille","lat":43.299724,"lon":5.371829,"is_reserved":false,"is_disabled":false,"rental_uris":{"android":"levelo://app?vid=f74aed6e-0f81-4784-b1e2-b9611d35793a","ios":"levelo://app?vid=f74aed6e-0f81-4784-b1e2-b9611d35793a"},"vehicle_type_id":"4","last_reported":1704128785,"current_range_meters":25600,"station_id":"ce4bgr92rcd13ifvqc7g","pricing_plan_id":"free"},{"bike_id":"458e7324-6015-431d-9ab0-45eccfc0a662","system_id":"levelo_inurba_marseille","lat":43.299243,"lon":5.374807,"is_reserved":false,"is_disabled":false,"rental_uris":{"android":"levelo://app?vid=458e7324-6015-431d-9ab0-45eccfc0a662","ios":"levelo://app?vid=458e7324-6015-431d-9ab0-45eccfc0a662"},"vehicle_type_id":"4","last_reported":1704128785,"current_range_meters":10000,"station_id":"ce4bgjh2rcd13ifvqbg0","pricing_plan_id":"free"},{"bike_id":"e33786a5-bfd4-4e10-bf45-a4f154f0f397","system_id":"levelo_inurba_marseille","lat":43.305364,"lon":5.384119,"is_reserved":false,"is_disabled":false,"rental_uris":{"android":"levelo://app?vid=e33786a5-bfd4-4e10-bf45-a4f154f0f397","ios":"levelo://app?vid=e33786a5-bfd4-4e10-bf45-a4f154f0f397"},"vehicle_type_id":"4","last_reported":1704128785,"current_range_meters":5600,"station_id":"ce4bgg92rcd13ifvqb30","pricing_plan_id":"free"},{"bike_id":"00183ec6-87a0-42f1-8fae-8bbf43fd97c1","system_id":"levelo_inurba_marseille","lat":43.299243,"lon":5.374807,"is_reserved":false,"is_disabled":false,"rental_uris":{"android":"levelo://app?vid=00183ec6-87a0-42f1-8fae-8bbf43fd97c1","ios":"levelo://app?vid=00183ec6-87a0-42f1-8fae-8bbf43fd97c1"},"vehicle_type_id":"4","last_reported":1704128785,"current_range_meters":3200,"station_id":"ce4bgjh2rcd13ifvqbg0","pricing_plan_id":"free"},{"bike_id":"a7cc8da7-23dc-48b9-8331-ad80bc4b63e2","system_id":"levelo_inurba_marseille","lat":43.2984,"lon":5.36279,"is_reserved":false,"is_disabled":false,"rental_uris":{"android":"levelo://app?vid=a7cc8da7-23dc-48b9-8331-ad80bc4b63e2","ios":"levelo://app?vid=a7cc8da7-23dc-48b9-8331-ad80bc4b63e2"},"vehicle_type_id":"4","last_reported":1704128785,"current_range_meters":30800,"station_id":"ce4bgpp2rcd13ifvqc3g","pricing_plan_id":"free"},{"bike_id":"16942a59-a5a2-4bd9-aee5-b6ecbfb7ce2f","system_id":"levelo_inurba_marseille","lat":43.299243,"lon":5.37481,"is_reserved":false,"is_disabled":false,"rental_uris":{"android":"levelo://app?vid=16942a59-a5a2-4bd9-aee5-b6ecbfb7ce2f","ios":"levelo://app?vid=16942a59-a5a2-4bd9-aee5-b6ecbfb7ce2f"},"vehicle_type_id":"4","last_reported":1704128785,"current_range_meters":18000,"station_id":"ce4bgjh2rcd13ifvqbg0","pricing_plan_id":"free"},{"bike_id":"3c9bf24c-b538-4eae-99f5-9903fe75c815","system_id":"levelo_inurba_marseille","lat":43.32285,"lon":5.38255,"is_reserved":false,"is_disabled":false,"rental_uris":{"android":"levelo://app?vid=3c9bf24c-b538-4eae-99f5-9903fe75c815","ios":"levelo://app?vid=3c9bf24c-b538-4eae-99f5-9903fe75c815"},"vehicle_type_id":"4","last_reported":1704128785,"current_range_meters":6800,"station_id":"ce4bhr12rcd13ifvqhqg","pricing_plan_id":"free"},{"bike_id":"3406ac08-144e-419c-8a8c-9c89910b5b78","system_id":"levelo_inurba_marseille","lat":43.328248,"lon":5.36683,"is_reserved":false,"is_disabled":false,"rental_uris":{"android":"levelo://app?vid=3406ac08-144e-419c-8a8c-9c89910b5b78","ios":"levelo://app?vid=3406ac08-144e-419c-8a8c-9c89910b5b78"},"vehicle_type_id":"4","last_reported":1704128785,"current_range_meters":22000,"station_id":"","pricing_plan_id":"free"},{"bike_id":"ea7074d7-b7c9-4941-82c2-dff391bae9cb","system_id":"levelo_inurba_marseille","lat":43.32827,"lon":5.36682,"is_reserved":false,"is_disabled":false,"rental_uris":{"android":"levelo://app?vid=ea7074d7-b7c9-4941-82c2-dff391bae9cb","ios":"levelo://app?vid=ea7074d7-b7c9-4941-82c2-dff391bae9cb"},"vehicle_type_id":"4","last_reported":1704128785,"current_range_meters":20000,"station_id":"ce4bhs92rcd13ifvqi0g","pricing_plan_id":"free"},{"bike_id":"8233d320-3015-483d-9317-9f5ea8045c87","system_id":"levelo_inurba_marseille","lat":43.3283,"lon":5.36692,"is_reserved":false,"is_disabled":false,"rental_uris":{"android":"levelo://app?vid=8233d320-3015-483d-9317-9f5ea8045c87","ios":"levelo://app?vid=8233d320-3015-483d-9317-9f5ea8045c87"},"vehicle_type_id":"4","last_reported":1704128785,"current_range_meters":6400,"station_id":"","pricing_plan_id":"free"},{"bike_id":"777e7b6f-5840-4b9c-afcf-288933a9c0d9","system_id":"levelo_inurba_marseille","lat":43.328371,"lon":5.366909,"is_reserved":false,"is_disabled":false,"rental_uris":{"android":"levelo://app?vid=777e7b6f-5840-4b9c-afcf-288933a9c0d9","ios":"levelo://app?vid=777e7b6f-5840-4b9c-afcf-288933a9c0d9"},"vehicle_type_id":"4","last_reported":1704128785,"current_range_meters":23600,"station_id":"ce4bhs92rcd13ifvqi0g","pricing_plan_id":"free"},{"bike_id":"370cccf7-c9ba-46c2-819b-c8e8cacc4c21","system_id":"levelo_inurba_marseille","lat":43.3277,"lon":5.37458,"is_reserved":false,"is_disabled":false,"rental_uris":{"android":"levelo://app?vid=370cccf7-c9ba-46c2-819b-c8e8cacc4c21","ios":"levelo://app?vid=370cccf7-c9ba-46c2-819b-c8e8cacc4c21"},"vehicle_type_id":"4","last_reported":1704128785,"current_range_meters":12000,"station_id":"","pricing_plan_id":"free"},{"bike_id":"50833991-9dc9-4783-84e5-9fa0a822ddd1","system_id":"levelo_inurba_marseille","lat":43.2968,"lon":5.37291,"is_reserved":false,"is_disabled":false,"rental_uris":{"android":"levelo://app?vid=50833991-9dc9-4783-84e5-9fa0a822ddd1","ios":"levelo://app?vid=50833991-9dc9-4783-84e5-9fa0a822ddd1"},"vehicle_type_id":"4","last_reported":1704128785,"current_range_meters":15600,"station_id":"ce4bgk12rcd13ifvqbj0","pricing_plan_id":"free"},{"bike_id":"b918b343-c8bb-4833-854b-8caf89eca45d","system_id":"levelo_inurba_marseille","lat":43.2968,"lon":5.37291,"is_reserved":false,"is_disabled":false,"rental_uris":{"android":"levelo://app?vid=b918b343-c8bb-4833-854b-8caf89eca45d","ios":"levelo://app?vid=b918b343-c8bb-4833-854b-8caf89eca45d"},"vehicle_type_id":"4","last_reported":1704128785,"current_range_meters":15600,"station_id":"ce4bgk12rcd13ifvqbj0","pricing_plan_id":"free"},{"bike_id":"aaf81196-0e4e-4b58-8b0b-f7d17cd21f89","system_id":"levelo_inurba_marseille","lat":43.29573,"lon":5.367355,"is_reserved":false,"is_disabled":false,"rental_uris":{"android":"levelo://app?vid=aaf81196-0e4e-4b58-8b0b-f7d17cd21f89","ios":"levelo://app?vid=aaf81196-0e4e-4b58-8b0b-f7d17cd21f89"},"vehicle_type_id":"4","last_reported":1704128785,"current_range_meters":12400,"station_id":"ce4bgph2rcd13ifvqc2g","pricing_plan_id":"free"},{"bike_id":"91b81514-cf4f-416a-bb53-f82930e4937e","system_id":"levelo_inurba_marseille","lat":43.309589,"lon":5.390258,"is_reserved":false,"is_disabled":false,"rental_uris":{"android":"levelo://app?vid=91b81514-cf4f-416a-bb53-f82930e4937e","ios":"levelo://app?vid=91b81514-cf4f-416a-bb53-f82930e4937e"},"vehicle_type_id":"4","last_reported":1704128785,"current_range_meters":16400,"station_id":"ce4bgup2rcd13ifvqco0","pricing_plan_id":"free"},{"bike_id":"77d51744-95e3-4801-b840-1487b949a7ce","system_id":"levelo_inurba_marseille","lat":43.317557,"lon":5.390173,"is_reserved":false,"is_disabled":false,"rental_uris":{"android":"levelo://app?vid=77d51744-95e3-4801-b840-1487b949a7ce","ios":"levelo://app?vid=77d51744-95e3-4801-b840-1487b949a7ce"},"vehicle_type_id":"4","last_reported":1704128785,"current_range_meters":30800,"station_id":"ce4bhqp2rcd13ifvqhng","pricing_plan_id":"free"},{"bike_id":"5eb924fa-c39a-4260-b8ee-d69e93c5f06a","system_id":"levelo_inurba_marseille","lat":43.317557,"lon":5.390173,"is_reserved":false,"is_disabled":false,"rental_uris":{"android":"levelo://app?vid=5eb924fa-c39a-4260-b8ee-d69e93c5f06a","ios":"levelo://app?vid=5eb924fa-c39a-4260-b8ee-d69e93c5f06a"},"vehicle_type_id":"4","last_reported":1704128785,"current_range_meters":27600,"station_id":"ce4bhqp2rcd13ifvqhng","pricing_plan_id":"free"},{"bike_id":"89041833-1fc4-4374-bd3b-95137a9affed","system_id":"levelo_inurba_marseille","lat":43.304278,"lon":5.388868,"is_reserved":false,"is_disabled":false,"rental_uris":{"android":"levelo://app?vid=89041833-1fc4-4374-bd3b-95137a9affed","ios":"levelo://app?vid=89041833-1fc4-4374-bd3b-95137a9affed"},"vehicle_type_id":"4","last_reported":1704128785,"current_range_meters":12400,"station_id":"ce4bgk12rcd13ifvqbi0","pricing_plan_id":"free"},{"bike_id":"f4796d10-3aca-44fb-8c02-51a6fe99e39d","system_id":"levelo_inurba_marseille","lat":43.296263,"lon":5.377094,"is_reserved":false,"is_disabled":false,"rental_uris":{"android":"levelo://app?vid=f4796d10-3aca-44fb-8c02-51a6fe99e39d","ios":"levelo://app?vid=f4796d10-3aca-44fb-8c02-51a6fe99e39d"},"vehicle_type_id":"4","last_reported":1704128785,"current_range_meters":4000,"station_id":"ce4bgi92rcd13ifvqb90","pricing_plan_id":"free"},{"bike_id":"f46d322a-aaee-42a2-9403-4e41f9613b82","system_id":"levelo_inurba_marseille","lat":43.304278,"lon":5.388868,"is_reserved":false,"is_disabled":false,"rental_uris":{"android":"levelo://app?vid=f46d322a-aaee-42a2-9403-4e41f9613b82","ios":"levelo://app?vid=f46d322a-aaee-42a2-9403-4e41f9613b82"},"vehicle_type_id":"4","last_reported":1704128785,"current_range_meters":13600,"station_id":"ce4bgk12rcd13ifvqbi0","pricing_plan_id":"free"},{"bike_id":"d60802d6-4f47-444a-b234-883690eec05b","system_id":"levelo_inurba_marseille","lat":43.33062,"lon":5.3627,"is_reserved":false,"is_disabled":false,"rental_uris":{"android":"levelo://app?vid=d60802d6-4f47-444a-b234-883690eec05b","ios":"levelo://app?vid=d60802d6-4f47-444a-b234-883690eec05b"},"vehicle_type_id":"4","last_reported":1704128785,"current_range_meters":18800,"station_id":"","pricing_plan_id":"free"},{"bike_id":"dc14f3af-6601-4f64-b04d-973033a032e8","system_id":"levelo_inurba_marseille","lat":43.296263,"lon":5.377094,"is_reserved":false,"is_disabled":false,"rental_uris":{"android":"levelo://app?vid=dc14f3af-6601-4f64-b04d-973033a032e8","ios":"levelo://app?vid=dc14f3af-6601-4f64-b04d-973033a032e8"},"vehicle_type_id":"4","last_reported":1704128785,"current_range_meters":17600,"station_id":"ce4bgi92rcd13ifvqb90","pricing_plan_id":"free"},{"bike_id":"1d29da03-a1e4-4647-a7f2-3eb087882685","system_id":"levelo_inurba_marseille","lat":43.296263,"lon":5.377094,"is_reserved":false,"is_disabled":false,"rental_uris":{"android":"levelo://app?vid=1d29da03-a1e4-4647-a7f2-3eb087882685","ios":"levelo://app?vid=1d29da03-a1e4-4647-a7f2-3eb087882685"},"vehicle_type_id":"4","last_reported":1704128785,"current_range_meters":27600,"station_id":"ce4bgi92rcd13ifvqb90","pricing_plan_id":"free"},{"bike_id":"7119845d-00aa-4d9f-be8c-fc97d41f1380","system_id":"levelo_inurba_marseille","lat":43.297594,"lon":5.381134,"is_reserved":false,"is_disabled":false,"rental_uris":{"android":"levelo://app?vid=7119845d-00aa-4d9f-be8c-fc97d41f1380","ios":"levelo://app?vid=7119845d-00aa-4d9f-be8c-fc97d41f1380"},"vehicle_type_id":"4","last_reported":1704128785,"current_range_meters":7200,"station_id":"ce4bgip2rcd13ifvqbb0","pricing_plan_id":"free"},{"bike_id":"c8b446f7-22f7-4aba-91a1-09d67e874fb5","system_id":"levelo_inurba_marseille","lat":43.299717,"lon":5.384845,"is_reserved":false,"is_disabled":false,"rental_uris":{"android":"levelo://app?vid=c8b446f7-22f7-4aba-91a1-09d67e874fb5","ios":"levelo://app?vid=c8b446f7-22f7-4aba-91a1-09d67e874fb5"},"vehicle_type_id":"4","last_reported":1704128785,"current_range_meters":17200,"station_id":"ce4bgj92rcd13ifvqbd0","pricing_plan_id":"free"},{"bike_id":"78335140-6595-4f40-a65d-8400dce61595","system_id":"levelo_inurba_marseille","lat":43.29963,"lon":5.38505,"is_reserved":false,"is_disabled":false,"rental_uris":{"android":"levelo://app?vid=78335140-6595-4f40-a65d-8400dce61595","ios":"levelo://app?vid=78335140-6595-4f40-a65d-8400dce61595"},"vehicle_type_id":"4","last_reported":1704128785,"current_range_meters":10400,"station_id":"ce4bgj92rcd13ifvqbd0","pricing_plan_id":"free"},{"bike_id":"34cf0232-29cf-4875-bf60-e591541b4fbe","system_id":"levelo_inurba_marseille","lat":43.29602,"lon":5.381084,"is_reserved":false,"is_disabled":false,"rental_uris":{"android":"levelo://app?vid=34cf0232-29cf-4875-bf60-e591541b4fbe","ios":"levelo://app?vid=34cf0232-29cf-4875-bf60-e591541b4fbe"},"vehicle_type_id":"4","last_reported":1704128785,"current_range_meters":3600,"station_id":"ce4bgl12rcd13ifvqbo0","pricing_plan_id":"free"},{"bike_id":"94ebaca7-2db6-41c2-ac76-49d1b68fb0de","system_id":"levelo_inurba_marseille","lat":43.29602,"lon":5.381084,"is_reserved":false,"is_disabled":false,"rental_uris":{"android":"levelo://app?vid=94ebaca7-2db6-41c2-ac76-49d1b68fb0de","ios":"levelo://app?vid=94ebaca7-2db6-41c2-ac76-49d1b68fb0de"},"vehicle_type_id":"4","last_reported":1704128785,"current_range_meters":26800,"station_id":"ce4bgl12rcd13ifvqbo0","pricing_plan_id":"free"},{"bike_id":"9de33a0d-dc2d-47d7-9c60-b85a08a9e927","system_id":"levelo_inurba_marseille","lat":43.303002,"lon":5.392142,"is_reserved":false,"is_disabled":false,"rental_uris":{"android":"levelo://app?vid=9de33a0d-dc2d-47d7-9c60-b85a08a9e927","ios":"levelo://app?vid=9de33a0d-dc2d-47d7-9c60-b85a08a9e927"},"vehicle_type_id":"4","last_reported":1704128785,"current_range_meters":21600,"station_id":"ce4bgkh2rcd13ifvqbk0","pricing_plan_id":"free"},{"bike_id":"cbe019d4-f7c2-4974-9456-00a3b32ead06","system_id":"levelo_inurba_marseille","lat":43.293009,"lon":5.374584,"is_reserved":false,"is_disabled":false,"rental_uris":{"android":"levelo://app?vid=cbe019d4-f7c2-4974-9456-00a3b32ead06","ios":"levelo://app?vid=cbe019d4-f7c2-4974-9456-00a3b32ead06"},"vehicle_type_id":"4","last_reported":1704128785,"current_range_meters":21600,"station_id":"ce4bgi12rcd13ifvqb70","pricing_plan_id":"free"},{"bike_id":"ebcd0976-ed32-4df2-a0dd-00d0ff494717","system_id":"levelo_inurba_marseille","lat":43.302992,"lon":5.392136,"is_reserved":false,"is_disabled":false,"rental_uris":{"android":"levelo://app?vid=ebcd0976-ed32-4df2-a0dd-00d0ff494717","ios":"levelo://app?vid=ebcd0976-ed32-4df2-a0dd-00d0ff494717"},"vehicle_type_id":"4","last_reported":1704128785,"current_range_meters":9600,"station_id":"ce4bgkh2rcd13ifvqbk0","pricing_plan_id":"free"},{"bike_id":"b0cf7ac3-4be5-43fb-a52f-af5f0977eb1e","system_id":"levelo_inurba_marseille","lat":43.2936,"lon":5.37835,"is_reserved":false,"is_disabled":false,"rental_uris":{"android":"levelo://app?vid=b0cf7ac3-4be5-43fb-a52f-af5f0977eb1e","ios":"levelo://app?vid=b0cf7ac3-4be5-43fb-a52f-af5f0977eb1e"},"vehicle_type_id":"4","last_reported":1704128785,"current_range_meters":6400,"station_id":"ce4bgjh2rcd13ifvqbf0","pricing_plan_id":"free"},{"bike_id":"fde8cb9e-b754-4c6f-8796-56a125bcb633","system_id":"levelo_inurba_marseille","lat":43.2936,"lon":5.37835,"is_reserved":false,"is_disabled":false,"rental_uris":{"android":"levelo://app?vid=fde8cb9e-b754-4c6f-8796-56a125bcb633","ios":"levelo://app?vid=fde8cb9e-b754-4c6f-8796-56a125bcb633"},"vehicle_type_id":"4","last_reported":1704128785,"current_range_meters":21600,"station_id":"ce4bgjh2rcd13ifvqbf0","pricing_plan_id":"free"},{"bike_id":"453c26e7-1304-498d-9fbc-6cb9b1e286e8","system_id":"levelo_inurba_marseille","lat":43.300975,"lon":5.390856,"is_reserved":false,"is_disabled":false,"rental_uris":{"android":"levelo://app?vid=453c26e7-1304-498d-9fbc-6cb9b1e286e8","ios":"levelo://app?vid=453c26e7-1304-498d-9fbc-6cb9b1e286e8"},"vehicle_type_id":"4","last_reported":1704128785,"current_range_meters":23600,"station_id":"","pricing_plan_id":"free"},{"bike_id":"32995bde-fb01-44fb-9c88-cde115101ea8","system_id":"levelo_inurba_marseille","lat":43.30085,"lon":5.390856,"is_reserved":false,"is_disabled":false,"rental_uris":{"android":"levelo://app?vid=32995bde-fb01-44fb-9c88-cde115101ea8","ios":"levelo://app?vid=32995bde-fb01-44fb-9c88-cde115101ea8"},"vehicle_type_id":"4","last_reported":1704128785,"current_range_meters":13200,"station_id":"ce4bh192rcd13ifvqdb0","pricing_plan_id":"free"},{"bike_id":"9eba6c15-7202-4a7c-8fb3-04d356c8ecf9","system_id":"levelo_inurba_marseille","lat":43.293009,"lon":5.374584,"is_reserved":false,"is_disabled":false,"rental_uris":{"android":"levelo://app?vid=9eba6c15-7202-4a7c-8fb3-04d356c8ecf9","ios":"levelo://app?vid=9eba6c15-7202-4a7c-8fb3-04d356c8ecf9"},"vehicle_type_id":"4","last_reported":1704128785,"current_range_meters":11600,"station_id":"ce4bgi12rcd13ifvqb70","pricing_plan_id":"free"},{"bike_id":"457488a3-6653-4c78-9047-494f44e7e47d","system_id":"levelo_inurba_marseille","lat":43.291671,"lon":5.371575,"is_reserved":false,"is_disabled":false,"rental_uris":{"android":"levelo://app?vid=457488a3-6653-4c78-9047-494f44e7e47d","ios":"levelo://app?vid=457488a3-6653-4c78-9047-494f44e7e47d"},"vehicle_type_id":"4","last_reported":1704128785,"current_range_meters":12800,"station_id":"ce4bha92rcd13ifvqeh0","pricing_plan_id":"free"},{"bike_id":"668942d6-33c2-433a-a4c3-8da233302454","system_id":"levelo_inurba_marseille","lat":43.313291,"lon":5.396838,"is_reserved":false,"is_disabled":false,"rental_uris":{"android":"levelo://app?vid=668942d6-33c2-433a-a4c3-8da233302454","ios":"levelo://app?vid=668942d6-33c2-433a-a4c3-8da233302454"},"vehicle_type_id":"4","last_reported":1704128785,"current_range_meters":30000,"station_id":"ce4bgvp2rcd13ifvqcu0","pricing_plan_id":"free"},{"bike_id":"be8f8d06-2cf9-49dd-9fbf-a20aa1f80808","system_id":"levelo_inurba_marseille","lat":43.313291,"lon":5.396838,"is_reserved":false,"is_disabled":false,"rental_uris":{"android":"levelo://app?vid=be8f8d06-2cf9-49dd-9fbf-a20aa1f80808","ios":"levelo://app?vid=be8f8d06-2cf9-49dd-9fbf-a20aa1f80808"},"vehicle_type_id":"4","last_reported":1704128785,"current_range_meters":20800,"station_id":"ce4bgvp2rcd13ifvqcu0","pricing_plan_id":"free"},{"bike_id":"13a70271-df04-49bb-8be1-b317500c25f0","system_id":"levelo_inurba_marseille","lat":43.29529,"lon":5.385581,"is_reserved":false,"is_disabled":false,"rental_uris":{"android":"levelo://app?vid=13a70271-df04-49bb-8be1-b317500c25f0","ios":"levelo://app?vid=13a70271-df04-49bb-8be1-b317500c25f0"},"vehicle_type_id":"4","last_reported":1704128785,"current_range_meters":15200,"station_id":"ce4bgih2rcd13ifvqba0","pricing_plan_id":"free"},{"bike_id":"3356c5ce-e806-4753-99d8-91fdf022e13f","system_id":"levelo_inurba_marseille","lat":43.290779,"lon":5.371482,"is_reserved":false,"is_disabled":false,"rental_uris":{"android":"levelo://app?vid=3356c5ce-e806-4753-99d8-91fdf022e13f","ios":"levelo://app?vid=3356c5ce-e806-4753-99d8-91fdf022e13f"},"vehicle_type_id":"4","last_reported":1704128785,"current_range_meters":31200,"station_id":"ce4bh5p2rcd13ifvqe4g","pricing_plan_id":"free"},{"bike_id":"342f6522-907c-4b60-9797-89e40161f6a9","system_id":"levelo_inurba_marseille","lat":43.290779,"lon":5.371482,"is_reserved":false,"is_disabled":false,"rental_uris":{"android":"levelo://app?vid=342f6522-907c-4b60-9797-89e40161f6a9","ios":"levelo://app?vid=342f6522-907c-4b60-9797-89e40161f6a9"},"vehicle_type_id":"4","last_reported":1704128785,"current_range_meters":29200,"station_id":"ce4bh5p2rcd13ifvqe4g","pricing_plan_id":"free"},{"bike_id":"e8e957b5-5db1-4cce-8232-c1050557f4d1","system_id":"levelo_inurba_marseille","lat":43.294162,"lon":5.386292,"is_reserved":false,"is_disabled":false,"rental_uris":{"android":"levelo://app?vid=e8e957b5-5db1-4cce-8232-c1050557f4d1","ios":"levelo://app?vid=e8e957b5-5db1-4cce-8232-c1050557f4d1"},"vehicle_type_id":"4","last_reported":1704128785,"current_range_meters":16800,"station_id":"ce4bh2h2rcd13ifvqdh0","pricing_plan_id":"free"},{"bike_id":"1d8b7cf5-3b69-4713-9abc-3e71287d6022","system_id":"levelo_inurba_marseille","lat":43.297907,"lon":5.39338,"is_reserved":false,"is_disabled":false,"rental_uris":{"android":"levelo://app?vid=1d8b7cf5-3b69-4713-9abc-3e71287d6022","ios":"levelo://app?vid=1d8b7cf5-3b69-4713-9abc-3e71287d6022"},"vehicle_type_id":"4","last_reported":1704128785,"current_range_meters":0,"station_id":"chh1huq6cuj3fo74tm60","pricing_plan_id":"free"},{"bike_id":"891e99cc-b383-415e-b204-6dddbcb897ea","system_id":"levelo_inurba_marseille","lat":43.290827,"lon":5.381421,"is_reserved":false,"is_disabled":false,"rental_uris":{"android":"levelo://app?vid=891e99cc-b383-415e-b204-6dddbcb897ea","ios":"levelo://app?vid=891e99cc-b383-415e-b204-6dddbcb897ea"},"vehicle_type_id":"4","last_reported":1704128785,"current_range_meters":20800,"station_id":"","pricing_plan_id":"free"},{"bike_id":"7d3f0707-26fc-41d0-8f63-88674e57e19c","system_id":"levelo_inurba_marseille","lat":43.3302,"lon":5.39035,"is_reserved":false,"is_disabled":false,"rental_uris":{"android":"levelo://app?vid=7d3f0707-26fc-41d0-8f63-88674e57e19c","ios":"levelo://app?vid=7d3f0707-26fc-41d0-8f63-88674e57e19c"},"vehicle_type_id":"4","last_reported":1704128785,"current_range_meters":10800,"station_id":"","pricing_plan_id":"free"},{"bike_id":"fb208447-a108-4713-82fe-2ce6fc49921a","system_id":"levelo_inurba_marseille","lat":43.289741,"lon":5.378306,"is_reserved":false,"is_disabled":false,"rental_uris":{"android":"levelo://app?vid=fb208447-a108-4713-82fe-2ce6fc49921a","ios":"levelo://app?vid=fb208447-a108-4713-82fe-2ce6fc49921a"},"vehicle_type_id":"4","last_reported":1704128785,"current_range_meters":23200,"station_id":"ce4bh9p2rcd13ifvqed0","pricing_plan_id":"free"},{"bike_id":"96b0c95b-69f7-40a5-a0ad-9b9abdc85a26","system_id":"levelo_inurba_marseille","lat":43.28974,"lon":5.37831,"is_reserved":false,"is_disabled":false,"rental_uris":{"android":"levelo://app?vid=96b0c95b-69f7-40a5-a0ad-9b9abdc85a26","ios":"levelo://app?vid=96b0c95b-69f7-40a5-a0ad-9b9abdc85a26"},"vehicle_type_id":"4","last_reported":1704128785,"current_range_meters":2000,"station_id":"ce4bh9p2rcd13ifvqed0","pricing_plan_id":"free"},{"bike_id":"70fde437-a4e8-493d-ad87-6b6612de5aa0","system_id":"levelo_inurba_marseille","lat":43.2952,"lon":5.39036,"is_reserved":false,"is_disabled":false,"rental_uris":{"android":"levelo://app?vid=70fde437-a4e8-493d-ad87-6b6612de5aa0","ios":"levelo://app?vid=70fde437-a4e8-493d-ad87-6b6612de5aa0"},"vehicle_type_id":"4","last_reported":1704128785,"current_range_meters":18400,"station_id":"","pricing_plan_id":"free"},{"bike_id":"839a8312-0b23-4bb3-b5e9-4007662633c4","system_id":"levelo_inurba_marseille","lat":43.295169,"lon":5.390426,"is_reserved":false,"is_disabled":false,"rental_uris":{"android":"levelo://app?vid=839a8312-0b23-4bb3-b5e9-4007662633c4","ios":"levelo://app?vid=839a8312-0b23-4bb3-b5e9-4007662633c4"},"vehicle_type_id":"4","last_reported":1704128785,"current_range_meters":6400,"station_id":"ce4bh3p2rcd13ifvqdp0","pricing_plan_id":"free"},{"bike_id":"13d41c86-d361-4b17-ae49-6b5491dd4e85","system_id":"levelo_inurba_marseille","lat":43.330442,"lon":5.389148,"is_reserved":false,"is_disabled":false,"rental_uris":{"android":"levelo://app?vid=13d41c86-d361-4b17-ae49-6b5491dd4e85","ios":"levelo://app?vid=13d41c86-d361-4b17-ae49-6b5491dd4e85"},"vehicle_type_id":"4","last_reported":1704128785,"current_range_meters":28400,"station_id":"ce4bhr92rcd13ifvqhrg","pricing_plan_id":"free"},{"bike_id":"d63f9580-7020-4ac4-9100-0d302e2a78de","system_id":"levelo_inurba_marseille","lat":43.295169,"lon":5.390426,"is_reserved":false,"is_disabled":false,"rental_uris":{"android":"levelo://app?vid=d63f9580-7020-4ac4-9100-0d302e2a78de","ios":"levelo://app?vid=d63f9580-7020-4ac4-9100-0d302e2a78de"},"vehicle_type_id":"4","last_reported":1704128785,"current_range_meters":12400,"station_id":"ce4bh3p2rcd13ifvqdp0","pricing_plan_id":"free"},{"bike_id":"de7c9a66-3dc5-4cf2-b414-a8850e59e040","system_id":"levelo_inurba_marseille","lat":43.28856,"lon":5.358371,"is_reserved":false,"is_disabled":false,"rental_uris":{"android":"levelo://app?vid=de7c9a66-3dc5-4cf2-b414-a8850e59e040","ios":"levelo://app?vid=de7c9a66-3dc5-4cf2-b414-a8850e59e040"},"vehicle_type_id":"4","last_reported":1704128785,"current_range_meters":23200,"station_id":"ce4bhb12rcd13ifvqem0","pricing_plan_id":"free"},{"bike_id":"acdd791b-b005-455d-8a15-399fdf59a552","system_id":"levelo_inurba_marseille","lat":43.337419,"lon":5.374721,"is_reserved":false,"is_disabled":false,"rental_uris":{"android":"levelo://app?vid=acdd791b-b005-455d-8a15-399fdf59a552","ios":"levelo://app?vid=acdd791b-b005-455d-8a15-399fdf59a552"},"vehicle_type_id":"4","last_reported":1704128785,"current_range_meters":6000,"station_id":"","pricing_plan_id":"free"},{"bike_id":"2b989fa1-fafa-4190-b164-41fca6209129","system_id":"levelo_inurba_marseille","lat":43.309371,"lon":5.401449,"is_reserved":false,"is_disabled":false,"rental_uris":{"android":"levelo://app?vid=2b989fa1-fafa-4190-b164-41fca6209129","ios":"levelo://app?vid=2b989fa1-fafa-4190-b164-41fca6209129"},"vehicle_type_id":"4","last_reported":1704128785,"current_range_meters":18800,"station_id":"ce4bgvp2rcd13ifvqct0","pricing_plan_id":"free"},{"bike_id":"41a7d31f-1e0a-4058-8171-d9146d4a8418","system_id":"levelo_inurba_marseille","lat":43.33755,"lon":5.3745,"is_reserved":false,"is_disabled":false,"rental_uris":{"android":"levelo://app?vid=41a7d31f-1e0a-4058-8171-d9146d4a8418","ios":"levelo://app?vid=41a7d31f-1e0a-4058-8171-d9146d4a8418"},"vehicle_type_id":"4","last_reported":1704128785,"current_range_meters":28800,"station_id":"","pricing_plan_id":"free"},{"bike_id":"39fb78ff-e4da-4640-bb03-30ef6de1c6b6","system_id":"levelo_inurba_marseille","lat":43.301117,"lon":5.398795,"is_reserved":false,"is_disabled":false,"rental_uris":{"android":"levelo://app?vid=39fb78ff-e4da-4640-bb03-30ef6de1c6b6","ios":"levelo://app?vid=39fb78ff-e4da-4640-bb03-30ef6de1c6b6"},"vehicle_type_id":"4","last_reported":1704128785,"current_range_meters":17600,"station_id":"ce4bh0h2rcd13ifvqd40","pricing_plan_id":"free"},{"bike_id":"7e9a59ee-058b-4752-9380-1129ce8586dd","system_id":"levelo_inurba_marseille","lat":43.28727,"lon":5.36078,"is_reserved":false,"is_disabled":false,"rental_uris":{"android":"levelo://app?vid=7e9a59ee-058b-4752-9380-1129ce8586dd","ios":"levelo://app?vid=7e9a59ee-058b-4752-9380-1129ce8586dd"},"vehicle_type_id":"4","last_reported":1704128785,"current_range_meters":28000,"station_id":"cki0cbj6b192h4jlfktg","pricing_plan_id":"free"},{"bike_id":"8bc1d976-7c72-432c-95f9-eb72c6c27bbf","system_id":"levelo_inurba_marseille","lat":43.298681,"lon":5.397225,"is_reserved":false,"is_disabled":false,"rental_uris":{"android":"levelo://app?vid=8bc1d976-7c72-432c-95f9-eb72c6c27bbf","ios":"levelo://app?vid=8bc1d976-7c72-432c-95f9-eb72c6c27bbf"},"vehicle_type_id":"4","last_reported":1704128785,"current_range_meters":12400,"station_id":"ce4bh0h2rcd13ifvqd50","pricing_plan_id":"free"},{"bike_id":"36bbde72-523c-48c8-ad63-0a748b1a2666","system_id":"levelo_inurba_marseille","lat":43.298681,"lon":5.397225,"is_reserved":false,"is_disabled":false,"rental_uris":{"android":"levelo://app?vid=36bbde72-523c-48c8-ad63-0a748b1a2666","ios":"levelo://app?vid=36bbde72-523c-48c8-ad63-0a748b1a2666"},"vehicle_type_id":"4","last_reported":1704128785,"current_range_meters":2800,"station_id":"ce4bh0h2rcd13ifvqd50","pricing_plan_id":"free"},{"bike_id":"038fbe1a-a819-44e3-87d8-d13887e8702f","system_id":"levelo_inurba_marseille","lat":43.298681,"lon":5.397225,"is_reserved":false,"is_disabled":false,"rental_uris":{"android":"levelo://app?vid=038fbe1a-a819-44e3-87d8-d13887e8702f","ios":"levelo://app?vid=038fbe1a-a819-44e3-87d8-d13887e8702f"},"vehicle_type_id":"4","last_reported":1704128785,"current_range_meters":26800,"station_id":"ce4bh0h2rcd13ifvqd50","pricing_plan_id":"free"},{"bike_id":"90b14df3-4153-404b-8b05-790584f2670a","system_id":"levelo_inurba_marseille","lat":43.286591,"lon":5.363346,"is_reserved":false,"is_disabled":false,"rental_uris":{"android":"levelo://app?vid=90b14df3-4153-404b-8b05-790584f2670a","ios":"levelo://app?vid=90b14df3-4153-404b-8b05-790584f2670a"},"vehicle_type_id":"4","last_reported":1704128785,"current_range_meters":28000,"station_id":"ce4bhah2rcd13ifvqej0","pricing_plan_id":"free"},{"bike_id":"4978b832-c2b9-41d7-8bfc-27d2430db808","system_id":"levelo_inurba_marseille","lat":43.298681,"lon":5.397225,"is_reserved":false,"is_disabled":false,"rental_uris":{"android":"levelo://app?vid=4978b832-c2b9-41d7-8bfc-27d2430db808","ios":"levelo://app?vid=4978b832-c2b9-41d7-8bfc-27d2430db808"},"vehicle_type_id":"4","last_reported":1704128785,"current_range_meters":16400,"station_id":"ce4bh0h2rcd13ifvqd50","pricing_plan_id":"free"},{"bike_id":"f53e27bf-8dd9-4276-a06b-ca575c086118","system_id":"levelo_inurba_marseille","lat":43.298681,"lon":5.397225,"is_reserved":false,"is_disabled":false,"rental_uris":{"android":"levelo://app?vid=f53e27bf-8dd9-4276-a06b-ca575c086118","ios":"levelo://app?vid=f53e27bf-8dd9-4276-a06b-ca575c086118"},"vehicle_type_id":"4","last_reported":1704128785,"current_range_meters":22000,"station_id":"ce4bh0h2rcd13ifvqd50","pricing_plan_id":"free"},{"bike_id":"3ee4bf3e-2472-4835-965c-e4e930a1a388","system_id":"levelo_inurba_marseille","lat":43.286961,"lon":5.373785,"is_reserved":false,"is_disabled":false,"rental_uris":{"android":"levelo://app?vid=3ee4bf3e-2472-4835-965c-e4e930a1a388","ios":"levelo://app?vid=3ee4bf3e-2472-4835-965c-e4e930a1a388"},"vehicle_type_id":"4","last_reported":1704128785,"current_range_meters":3600,"station_id":"ce4bh3p2rcd13ifvqdq0","pricing_plan_id":"free"},{"bike_id":"f182ad30-578d-439a-b895-037c49f93cbb","system_id":"levelo_inurba_marseille","lat":43.28039,"lon":5.369297,"is_reserved":false,"is_disabled":false,"rental_uris":{"android":"levelo://app?vid=f182ad30-578d-439a-b895-037c49f93cbb","ios":"levelo://app?vid=f182ad30-578d-439a-b895-037c49f93cbb"},"vehicle_type_id":"4","last_reported":1704128785,"current_range_meters":31600,"station_id":"ce4bha12rcd13ifvqef0","pricing_plan_id":"free"},{"bike_id":"b59bbbff-4276-4801-b61b-318a655c6bed","system_id":"levelo_inurba_marseille","lat":43.295194,"lon":5.39397,"is_reserved":false,"is_disabled":false,"rental_uris":{"android":"levelo://app?vid=b59bbbff-4276-4801-b61b-318a655c6bed","ios":"levelo://app?vid=b59bbbff-4276-4801-b61b-318a655c6bed"},"vehicle_type_id":"4","last_reported":1704128785,"current_range_meters":28800,"station_id":"ce4bh292rcd13ifvqdf0","pricing_plan_id":"free"},{"bike_id":"6d19b5fc-58c8-4e6c-9d18-320dbef9506c","system_id":"levelo_inurba_marseille","lat":43.295194,"lon":5.39397,"is_reserved":false,"is_disabled":false,"rental_uris":{"android":"levelo://app?vid=6d19b5fc-58c8-4e6c-9d18-320dbef9506c","ios":"levelo://app?vid=6d19b5fc-58c8-4e6c-9d18-320dbef9506c"},"vehicle_type_id":"4","last_reported":1704128785,"current_range_meters":16800,"station_id":"ce4bh292rcd13ifvqdf0","pricing_plan_id":"free"},{"bike_id":"137d41ad-0eed-410a-8620-8a5bbc0e8297","system_id":"levelo_inurba_marseille","lat":43.295196,"lon":5.39397,"is_reserved":false,"is_disabled":false,"rental_uris":{"android":"levelo://app?vid=137d41ad-0eed-410a-8620-8a5bbc0e8297","ios":"levelo://app?vid=137d41ad-0eed-410a-8620-8a5bbc0e8297"},"vehicle_type_id":"4","last_reported":1704128785,"current_range_meters":4800,"station_id":"ce4bh292rcd13ifvqdf0","pricing_plan_id":"free"},{"bike_id":"a13f52cb-e59f-4069-a952-3b945d494156","system_id":"levelo_inurba_marseille","lat":43.295196,"lon":5.39397,"is_reserved":false,"is_disabled":false,"rental_uris":{"android":"levelo://app?vid=a13f52cb-e59f-4069-a952-3b945d494156","ios":"levelo://app?vid=a13f52cb-e59f-4069-a952-3b945d494156"},"vehicle_type_id":"4","last_reported":1704128785,"current_range_meters":26000,"station_id":"ce4bh292rcd13ifvqdf0","pricing_plan_id":"free"},{"bike_id":"989fd886-dcc5-4d49-aaba-4e2d8de00cf1","system_id":"levelo_inurba_marseille","lat":43.290345,"lon":5.38646,"is_reserved":false,"is_disabled":false,"rental_uris":{"android":"levelo://app?vid=989fd886-dcc5-4d49-aaba-4e2d8de00cf1","ios":"levelo://app?vid=989fd886-dcc5-4d49-aaba-4e2d8de00cf1"},"vehicle_type_id":"4","last_reported":1704128785,"current_range_meters":13200,"station_id":"ce4bh4p2rcd13ifvqe0g","pricing_plan_id":"free"},{"bike_id":"28889bd8-2f73-47ee-88f4-dfca45b5dd9d","system_id":"levelo_inurba_marseille","lat":43.302759,"lon":5.400793,"is_reserved":false,"is_disabled":false,"rental_uris":{"android":"levelo://app?vid=28889bd8-2f73-47ee-88f4-dfca45b5dd9d","ios":"levelo://app?vid=28889bd8-2f73-47ee-88f4-dfca45b5dd9d"},"vehicle_type_id":"4","last_reported":1704128785,"current_range_meters":0,"station_id":"ce4bgvh2rcd13ifvqcs0","pricing_plan_id":"free"},{"bike_id":"96f7b394-f197-4016-bb3c-db29fc986cc1","system_id":"levelo_inurba_marseille","lat":43.291994,"lon":5.392907,"is_reserved":false,"is_disabled":false,"rental_uris":{"android":"levelo://app?vid=96f7b394-f197-4016-bb3c-db29fc986cc1","ios":"levelo://app?vid=96f7b394-f197-4016-bb3c-db29fc986cc1"},"vehicle_type_id":"4","last_reported":1704128785,"current_range_meters":8800,"station_id":"ce4bh192rcd13ifvqdd0","pricing_plan_id":"free"},{"bike_id":"47962c03-d8a9-4723-a1c5-90c5c1cb0308","system_id":"levelo_inurba_marseille","lat":43.291994,"lon":5.392907,"is_reserved":false,"is_disabled":false,"rental_uris":{"android":"levelo://app?vid=47962c03-d8a9-4723-a1c5-90c5c1cb0308","ios":"levelo://app?vid=47962c03-d8a9-4723-a1c5-90c5c1cb0308"},"vehicle_type_id":"4","last_reported":1704128785,"current_range_meters":26000,"station_id":"ce4bh192rcd13ifvqdd0","pricing_plan_id":"free"},{"bike_id":"e07dd0c9-ff0a-49bd-8bcb-17f59a7f02a9","system_id":"levelo_inurba_marseille","lat":43.284538,"lon":5.358657,"is_reserved":false,"is_disabled":false,"rental_uris":{"android":"levelo://app?vid=e07dd0c9-ff0a-49bd-8bcb-17f59a7f02a9","ios":"levelo://app?vid=e07dd0c9-ff0a-49bd-8bcb-17f59a7f02a9"},"vehicle_type_id":"4","last_reported":1704128785,"current_range_meters":13600,"station_id":"ce4bhah2rcd13ifvqei0","pricing_plan_id":"free"},{"bike_id":"c3a0a884-5397-4533-9417-fb99cbd51802","system_id":"levelo_inurba_marseille","lat":43.284538,"lon":5.358657,"is_reserved":false,"is_disabled":false,"rental_uris":{"android":"levelo://app?vid=c3a0a884-5397-4533-9417-fb99cbd51802","ios":"levelo://app?vid=c3a0a884-5397-4533-9417-fb99cbd51802"},"vehicle_type_id":"4","last_reported":1704128785,"current_range_meters":22400,"station_id":"ce4bhah2rcd13ifvqei0","pricing_plan_id":"free"},{"bike_id":"ce52423e-5a6c-4987-8d3f-1de5d2e25235","system_id":"levelo_inurba_marseille","lat":43.284534,"lon":5.358662,"is_reserved":false,"is_disabled":false,"rental_uris":{"android":"levelo://app?vid=ce52423e-5a6c-4987-8d3f-1de5d2e25235","ios":"levelo://app?vid=ce52423e-5a6c-4987-8d3f-1de5d2e25235"},"vehicle_type_id":"4","last_reported":1704128785,"current_range_meters":3200,"station_id":"ce4bhah2rcd13ifvqei0","pricing_plan_id":"free"},{"bike_id":"0fe1feda-0cc8-43aa-9bf7-13941b47cb64","system_id":"levelo_inurba_marseille","lat":43.284534,"lon":5.358662,"is_reserved":false,"is_disabled":false,"rental_uris":{"android":"levelo://app?vid=0fe1feda-0cc8-43aa-9bf7-13941b47cb64","ios":"levelo://app?vid=0fe1feda-0cc8-43aa-9bf7-13941b47cb64"},"vehicle_type_id":"4","last_reported":1704128785,"current_range_meters":13200,"station_id":"ce4bhah2rcd13ifvqei0","pricing_plan_id":"free"},{"bike_id":"20be2735-b079-499a-af99-188ab3a39ea1","system_id":"levelo_inurba_marseille","lat":43.284538,"lon":5.358657,"is_reserved":false,"is_disabled":false,"rental_uris":{"android":"levelo://app?vid=20be2735-b079-499a-af99-188ab3a39ea1","ios":"levelo://app?vid=20be2735-b079-499a-af99-188ab3a39ea1"},"vehicle_type_id":"4","last_reported":1704128785,"current_range_meters":21600,"station_id":"ce4bhah2rcd13ifvqei0","pricing_plan_id":"free"},{"bike_id":"7be1fd96-9df7-4dc2-864e-e485fc92ec9f","system_id":"levelo_inurba_marseille","lat":43.28457,"lon":5.35896,"is_reserved":false,"is_disabled":false,"rental_uris":{"android":"levelo://app?vid=7be1fd96-9df7-4dc2-864e-e485fc92ec9f","ios":"levelo://app?vid=7be1fd96-9df7-4dc2-864e-e485fc92ec9f"},"vehicle_type_id":"4","last_reported":1704128785,"current_range_meters":25600,"station_id":"","pricing_plan_id":"free"},{"bike_id":"8f7d7cfa-4d11-4e18-8493-ae75f04ca436","system_id":"levelo_inurba_marseille","lat":43.284534,"lon":5.358662,"is_reserved":false,"is_disabled":false,"rental_uris":{"android":"levelo://app?vid=8f7d7cfa-4d11-4e18-8493-ae75f04ca436","ios":"levelo://app?vid=8f7d7cfa-4d11-4e18-8493-ae75f04ca436"},"vehicle_type_id":"4","last_reported":1704128785,"current_range_meters":6000,"station_id":"ce4bhah2rcd13ifvqei0","pricing_plan_id":"free"},{"bike_id":"8ac7f1dd-1771-414b-8ebd-511b661b23d8","system_id":"levelo_inurba_marseille","lat":43.294314,"lon":5.397498,"is_reserved":false,"is_disabled":false,"rental_uris":{"android":"levelo://app?vid=8ac7f1dd-1771-414b-8ebd-511b661b23d8","ios":"levelo://app?vid=8ac7f1dd-1771-414b-8ebd-511b661b23d8"},"vehicle_type_id":"4","last_reported":1704128785,"current_range_meters":0,"station_id":"ce4bh3h2rcd13ifvqdo0","pricing_plan_id":"free"},{"bike_id":"059084ea-b2a9-4b5d-8153-62f4e489fee9","system_id":"levelo_inurba_marseille","lat":43.285856,"lon":5.350771,"is_reserved":false,"is_disabled":false,"rental_uris":{"android":"levelo://app?vid=059084ea-b2a9-4b5d-8153-62f4e489fee9","ios":"levelo://app?vid=059084ea-b2a9-4b5d-8153-62f4e489fee9"},"vehicle_type_id":"4","last_reported":1704128785,"current_range_meters":30800,"station_id":"ce4bhch2rcd13ifvqeug","pricing_plan_id":"free"},{"bike_id":"5b86bc42-d69a-44d2-96b1-bdd6f9f89b63","system_id":"levelo_inurba_marseille","lat":43.285856,"lon":5.350771,"is_reserved":false,"is_disabled":false,"rental_uris":{"android":"levelo://app?vid=5b86bc42-d69a-44d2-96b1-bdd6f9f89b63","ios":"levelo://app?vid=5b86bc42-d69a-44d2-96b1-bdd6f9f89b63"},"vehicle_type_id":"4","last_reported":1704128785,"current_range_meters":26000,"station_id":"ce4bhch2rcd13ifvqeug","pricing_plan_id":"free"},{"bike_id":"2f14d3d0-646e-40be-861c-5a8a4566ed1b","system_id":"levelo_inurba_marseille","lat":43.285856,"lon":5.350771,"is_reserved":false,"is_disabled":false,"rental_uris":{"android":"levelo://app?vid=2f14d3d0-646e-40be-861c-5a8a4566ed1b","ios":"levelo://app?vid=2f14d3d0-646e-40be-861c-5a8a4566ed1b"},"vehicle_type_id":"4","last_reported":1704128785,"current_range_meters":19600,"station_id":"ce4bhch2rcd13ifvqeug","pricing_plan_id":"free"},{"bike_id":"96ec6147-836d-405f-b5e0-1bbadff4dad8","system_id":"levelo_inurba_marseille","lat":43.28615,"lon":5.35101,"is_reserved":false,"is_disabled":false,"rental_uris":{"android":"levelo://app?vid=96ec6147-836d-405f-b5e0-1bbadff4dad8","ios":"levelo://app?vid=96ec6147-836d-405f-b5e0-1bbadff4dad8"},"vehicle_type_id":"4","last_reported":1704128785,"current_range_meters":31200,"station_id":"ce4bhch2rcd13ifvqeug","pricing_plan_id":"free"},{"bike_id":"18bd282a-6633-47c2-ba42-c4aedc053b7f","system_id":"levelo_inurba_marseille","lat":43.283998,"lon":5.375062,"is_reserved":false,"is_disabled":false,"rental_uris":{"android":"levelo://app?vid=18bd282a-6633-47c2-ba42-c4aedc053b7f","ios":"levelo://app?vid=18bd282a-6633-47c2-ba42-c4aedc053b7f"},"vehicle_type_id":"4","last_reported":1704128785,"current_range_meters":26400,"station_id":"ce4bh412rcd13ifvqds0","pricing_plan_id":"free"},{"bike_id":"d640c68a-9e72-4316-86d2-76377ff8e723","system_id":"levelo_inurba_marseille","lat":43.295713,"lon":5.399639,"is_reserved":false,"is_disabled":false,"rental_uris":{"android":"levelo://app?vid=d640c68a-9e72-4316-86d2-76377ff8e723","ios":"levelo://app?vid=d640c68a-9e72-4316-86d2-76377ff8e723"},"vehicle_type_id":"4","last_reported":1704128785,"current_range_meters":800,"station_id":"ce4bh312rcd13ifvqdj0","pricing_plan_id":"free"},{"bike_id":"cf1399c5-ff3f-4e41-b8b1-9b33e88d37af","system_id":"levelo_inurba_marseille","lat":43.295713,"lon":5.399639,"is_reserved":false,"is_disabled":false,"rental_uris":{"android":"levelo://app?vid=cf1399c5-ff3f-4e41-b8b1-9b33e88d37af","ios":"levelo://app?vid=cf1399c5-ff3f-4e41-b8b1-9b33e88d37af"},"vehicle_type_id":"4","last_reported":1704128785,"current_range_meters":14800,"station_id":"ce4bh312rcd13ifvqdj0","pricing_plan_id":"free"},{"bike_id":"e2e941a8-d475-4cfd-81f3-33a64d99e91a","system_id":"levelo_inurba_marseille","lat":43.286595,"lon":5.386795,"is_reserved":false,"is_disabled":false,"rental_uris":{"android":"levelo://app?vid=e2e941a8-d475-4cfd-81f3-33a64d99e91a","ios":"levelo://app?vid=e2e941a8-d475-4cfd-81f3-33a64d99e91a"},"vehicle_type_id":"4","last_reported":1704128785,"current_range_meters":22400,"station_id":"ce4bh492rcd13ifvqdug","pricing_plan_id":"free"},{"bike_id":"678d4739-8be7-49e1-a174-b84e4bdff705","system_id":"levelo_inurba_marseille","lat":43.28676,"lon":5.38659,"is_reserved":false,"is_disabled":false,"rental_uris":{"android":"levelo://app?vid=678d4739-8be7-49e1-a174-b84e4bdff705","ios":"levelo://app?vid=678d4739-8be7-49e1-a174-b84e4bdff705"},"vehicle_type_id":"4","last_reported":1704128785,"current_range_meters":1200,"station_id":"ce4bh492rcd13ifvqdug","pricing_plan_id":"free"},{"bike_id":"c69cb3a4-bf10-410e-a438-f8b2391bfe3b","system_id":"levelo_inurba_marseille","lat":43.286595,"lon":5.386795,"is_reserved":false,"is_disabled":false,"rental_uris":{"android":"levelo://app?vid=c69cb3a4-bf10-410e-a438-f8b2391bfe3b","ios":"levelo://app?vid=c69cb3a4-bf10-410e-a438-f8b2391bfe3b"},"vehicle_type_id":"4","last_reported":1704128785,"current_range_meters":0,"station_id":"ce4bh492rcd13ifvqdug","pricing_plan_id":"free"},{"bike_id":"17503908-3471-4248-8ec5-6a4fa8231941","system_id":"levelo_inurba_marseille","lat":43.286595,"lon":5.386795,"is_reserved":false,"is_disabled":false,"rental_uris":{"android":"levelo://app?vid=17503908-3471-4248-8ec5-6a4fa8231941","ios":"levelo://app?vid=17503908-3471-4248-8ec5-6a4fa8231941"},"vehicle_type_id":"4","last_reported":1704128785,"current_range_meters":26800,"station_id":"ce4bh492rcd13ifvqdug","pricing_plan_id":"free"},{"bike_id":"8af6642b-e526-4770-8a06-6b115e68c32b","system_id":"levelo_inurba_marseille","lat":43.337199,"lon":5.391828,"is_reserved":false,"is_disabled":false,"rental_uris":{"android":"levelo://app?vid=8af6642b-e526-4770-8a06-6b115e68c32b","ios":"levelo://app?vid=8af6642b-e526-4770-8a06-6b115e68c32b"},"vehicle_type_id":"4","last_reported":1704128785,"current_range_meters":24400,"station_id":"ce4bhr92rcd13ifvqhsg","pricing_plan_id":"free"},{"bike_id":"1860c054-e673-4084-804e-8832a59aeb53","system_id":"levelo_inurba_marseille","lat":43.337168,"lon":5.391825,"is_reserved":false,"is_disabled":false,"rental_uris":{"android":"levelo://app?vid=1860c054-e673-4084-804e-8832a59aeb53","ios":"levelo://app?vid=1860c054-e673-4084-804e-8832a59aeb53"},"vehicle_type_id":"4","last_reported":1704128785,"current_range_meters":27600,"station_id":"ce4bhr92rcd13ifvqhsg","pricing_plan_id":"free"},{"bike_id":"1ee4d186-0276-478a-b3b1-81053b34918c","system_id":"levelo_inurba_marseille","lat":43.284793,"lon":5.384113,"is_reserved":false,"is_disabled":false,"rental_uris":{"android":"levelo://app?vid=1ee4d186-0276-478a-b3b1-81053b34918c","ios":"levelo://app?vid=1ee4d186-0276-478a-b3b1-81053b34918c"},"vehicle_type_id":"4","last_reported":1704128785,"current_range_meters":3600,"station_id":"ce4bh512rcd13ifvqe3g","pricing_plan_id":"free"},{"bike_id":"26fbbec3-3073-437c-8091-a5d8f1508e70","system_id":"levelo_inurba_marseille","lat":43.288501,"lon":5.393087,"is_reserved":false,"is_disabled":false,"rental_uris":{"android":"levelo://app?vid=26fbbec3-3073-437c-8091-a5d8f1508e70","ios":"levelo://app?vid=26fbbec3-3073-437c-8091-a5d8f1508e70"},"vehicle_type_id":"4","last_reported":1704128785,"current_range_meters":3600,"station_id":"ce4bh2p2rcd13ifvqdi0","pricing_plan_id":"free"},{"bike_id":"a321df53-bef4-45a0-9fcf-29f940a5ecde","system_id":"levelo_inurba_marseille","lat":43.292724,"lon":5.401131,"is_reserved":false,"is_disabled":false,"rental_uris":{"android":"levelo://app?vid=a321df53-bef4-45a0-9fcf-29f940a5ecde","ios":"levelo://app?vid=a321df53-bef4-45a0-9fcf-29f940a5ecde"},"vehicle_type_id":"4","last_reported":1704128785,"current_range_meters":17600,"station_id":"ce4bh312rcd13ifvqdk0","pricing_plan_id":"free"},{"bike_id":"7a1beebc-52c8-47ad-9484-9d71ab7861e3","system_id":"levelo_inurba_marseille","lat":43.28039,"lon":5.369297,"is_reserved":false,"is_disabled":false,"rental_uris":{"android":"levelo://app?vid=7a1beebc-52c8-47ad-9484-9d71ab7861e3","ios":"levelo://app?vid=7a1beebc-52c8-47ad-9484-9d71ab7861e3"},"vehicle_type_id":"4","last_reported":1704128785,"current_range_meters":15200,"station_id":"ce4bha12rcd13ifvqef0","pricing_plan_id":"free"},{"bike_id":"df044df3-dc84-4895-9b9a-0c47d09763a4","system_id":"levelo_inurba_marseille","lat":43.28039,"lon":5.369297,"is_reserved":false,"is_disabled":false,"rental_uris":{"android":"levelo://app?vid=df044df3-dc84-4895-9b9a-0c47d09763a4","ios":"levelo://app?vid=df044df3-dc84-4895-9b9a-0c47d09763a4"},"vehicle_type_id":"4","last_reported":1704128785,"current_range_meters":18000,"station_id":"ce4bha12rcd13ifvqef0","pricing_plan_id":"free"},{"bike_id":"8ec1fe43-f214-47b8-b2da-0102415af4dc","system_id":"levelo_inurba_marseille","lat":43.281044,"lon":5.378308,"is_reserved":false,"is_disabled":false,"rental_uris":{"android":"levelo://app?vid=8ec1fe43-f214-47b8-b2da-0102415af4dc","ios":"levelo://app?vid=8ec1fe43-f214-47b8-b2da-0102415af4dc"},"vehicle_type_id":"4","last_reported":1704128785,"current_range_meters":11200,"station_id":"ce4bha12rcd13ifvqee0","pricing_plan_id":"free"},{"bike_id":"e0a1ffbd-e66b-4fe1-83c3-e9c77f3e816f","system_id":"levelo_inurba_marseille","lat":43.284462,"lon":5.392121,"is_reserved":false,"is_disabled":false,"rental_uris":{"android":"levelo://app?vid=e0a1ffbd-e66b-4fe1-83c3-e9c77f3e816f","ios":"levelo://app?vid=e0a1ffbd-e66b-4fe1-83c3-e9c77f3e816f"},"vehicle_type_id":"4","last_reported":1704128785,"current_range_meters":17200,"station_id":"ce4bhoh2rcd13ifvqh5g","pricing_plan_id":"free"},{"bike_id":"c00b28db-ca57-4a05-9984-3aaf84686a30","system_id":"levelo_inurba_marseille","lat":43.28573,"lon":5.394992,"is_reserved":false,"is_disabled":false,"rental_uris":{"android":"levelo://app?vid=c00b28db-ca57-4a05-9984-3aaf84686a30","ios":"levelo://app?vid=c00b28db-ca57-4a05-9984-3aaf84686a30"},"vehicle_type_id":"4","last_reported":1704128785,"current_range_meters":31200,"station_id":"ce4bh292rcd13ifvqdg0","pricing_plan_id":"free"},{"bike_id":"f2a77905-389b-48fc-84c0-3ad634214821","system_id":"levelo_inurba_marseille","lat":43.30421,"lon":5.41277,"is_reserved":false,"is_disabled":false,"rental_uris":{"android":"levelo://app?vid=f2a77905-389b-48fc-84c0-3ad634214821","ios":"levelo://app?vid=f2a77905-389b-48fc-84c0-3ad634214821"},"vehicle_type_id":"4","last_reported":1704128785,"current_range_meters":26400,"station_id":"ce4bhop2rcd13ifvqh8g","pricing_plan_id":"free"},{"bike_id":"4266b66e-7361-4f27-bdcb-46d22a6ef3c4","system_id":"levelo_inurba_marseille","lat":43.304188,"lon":5.412904,"is_reserved":false,"is_disabled":false,"rental_uris":{"android":"levelo://app?vid=4266b66e-7361-4f27-bdcb-46d22a6ef3c4","ios":"levelo://app?vid=4266b66e-7361-4f27-bdcb-46d22a6ef3c4"},"vehicle_type_id":"4","last_reported":1704128785,"current_range_meters":26800,"station_id":"ce4bhop2rcd13ifvqh8g","pricing_plan_id":"free"},{"bike_id":"d6c9d56f-5a1e-4097-a2f2-c1bc2bc8b0e2","system_id":"levelo_inurba_marseille","lat":43.304188,"lon":5.412904,"is_reserved":false,"is_disabled":false,"rental_uris":{"android":"levelo://app?vid=d6c9d56f-5a1e-4097-a2f2-c1bc2bc8b0e2","ios":"levelo://app?vid=d6c9d56f-5a1e-4097-a2f2-c1bc2bc8b0e2"},"vehicle_type_id":"4","last_reported":1704128785,"current_range_meters":12800,"station_id":"ce4bhop2rcd13ifvqh8g","pricing_plan_id":"free"},{"bike_id":"9ea0e984-6109-49aa-9303-74d3144b8a25","system_id":"levelo_inurba_marseille","lat":43.304188,"lon":5.412904,"is_reserved":false,"is_disabled":false,"rental_uris":{"android":"levelo://app?vid=9ea0e984-6109-49aa-9303-74d3144b8a25","ios":"levelo://app?vid=9ea0e984-6109-49aa-9303-74d3144b8a25"},"vehicle_type_id":"4","last_reported":1704128785,"current_range_meters":26400,"station_id":"ce4bhop2rcd13ifvqh8g","pricing_plan_id":"free"},{"bike_id":"2db24671-39ad-44b4-ba2b-55e9ed3ce071","system_id":"levelo_inurba_marseille","lat":43.30417,"lon":5.41288,"is_reserved":false,"is_disabled":false,"rental_uris":{"android":"levelo://app?vid=2db24671-39ad-44b4-ba2b-55e9ed3ce071","ios":"levelo://app?vid=2db24671-39ad-44b4-ba2b-55e9ed3ce071"},"vehicle_type_id":"4","last_reported":1704128785,"current_range_meters":17200,"station_id":"ce4bhop2rcd13ifvqh8g","pricing_plan_id":"free"},{"bike_id":"c25adcf8-98fc-454b-a99d-391c26d666c5","system_id":"levelo_inurba_marseille","lat":43.279087,"lon":5.380114,"is_reserved":false,"is_disabled":false,"rental_uris":{"android":"levelo://app?vid=c25adcf8-98fc-454b-a99d-391c26d666c5","ios":"levelo://app?vid=c25adcf8-98fc-454b-a99d-391c26d666c5"},"vehicle_type_id":"4","last_reported":1704128785,"current_range_meters":6000,"station_id":"ce4bhf92rcd13ifvqf50","pricing_plan_id":"free"},{"bike_id":"8ac5f70f-ef3b-47c3-81be-ad0eaf6a4eee","system_id":"levelo_inurba_marseille","lat":43.279087,"lon":5.380114,"is_reserved":false,"is_disabled":false,"rental_uris":{"android":"levelo://app?vid=8ac5f70f-ef3b-47c3-81be-ad0eaf6a4eee","ios":"levelo://app?vid=8ac5f70f-ef3b-47c3-81be-ad0eaf6a4eee"},"vehicle_type_id":"4","last_reported":1704128785,"current_range_meters":12000,"station_id":"ce4bhf92rcd13ifvqf50","pricing_plan_id":"free"},{"bike_id":"d4c4b021-552c-4db6-9da9-b640254c5ecb","system_id":"levelo_inurba_marseille","lat":43.287154,"lon":5.399979,"is_reserved":false,"is_disabled":false,"rental_uris":{"android":"levelo://app?vid=d4c4b021-552c-4db6-9da9-b640254c5ecb","ios":"levelo://app?vid=d4c4b021-552c-4db6-9da9-b640254c5ecb"},"vehicle_type_id":"4","last_reported":1704128785,"current_range_meters":2400,"station_id":"ce4bho92rcd13ifvqh3g","pricing_plan_id":"free"},{"bike_id":"554c21ae-5c4a-4014-a996-d8c4488b3b47","system_id":"levelo_inurba_marseille","lat":43.279087,"lon":5.380114,"is_reserved":false,"is_disabled":false,"rental_uris":{"android":"levelo://app?vid=554c21ae-5c4a-4014-a996-d8c4488b3b47","ios":"levelo://app?vid=554c21ae-5c4a-4014-a996-d8c4488b3b47"},"vehicle_type_id":"4","last_reported":1704128785,"current_range_meters":9200,"station_id":"ce4bhf92rcd13ifvqf50","pricing_plan_id":"free"},{"bike_id":"a727640c-5568-4228-bf01-47f754027641","system_id":"levelo_inurba_marseille","lat":43.279087,"lon":5.380114,"is_reserved":false,"is_disabled":false,"rental_uris":{"android":"levelo://app?vid=a727640c-5568-4228-bf01-47f754027641","ios":"levelo://app?vid=a727640c-5568-4228-bf01-47f754027641"},"vehicle_type_id":"4","last_reported":1704128785,"current_range_meters":1600,"station_id":"ce4bhf92rcd13ifvqf50","pricing_plan_id":"free"},{"bike_id":"8571ddf1-8157-46ba-b747-ea46713afd05","system_id":"levelo_inurba_marseille","lat":43.29277,"lon":5.40698,"is_reserved":false,"is_disabled":false,"rental_uris":{"android":"levelo://app?vid=8571ddf1-8157-46ba-b747-ea46713afd05","ios":"levelo://app?vid=8571ddf1-8157-46ba-b747-ea46713afd05"},"vehicle_type_id":"4","last_reported":1704128785,"current_range_meters":3200,"station_id":"","pricing_plan_id":"free"},{"bike_id":"cbdcfd08-a5bf-4237-866e-516231215770","system_id":"levelo_inurba_marseille","lat":43.279742,"lon":5.38744,"is_reserved":false,"is_disabled":false,"rental_uris":{"android":"levelo://app?vid=cbdcfd08-a5bf-4237-866e-516231215770","ios":"levelo://app?vid=cbdcfd08-a5bf-4237-866e-516231215770"},"vehicle_type_id":"4","last_reported":1704128785,"current_range_meters":4400,"station_id":"ce4bhg12rcd13ifvqf80","pricing_plan_id":"free"},{"bike_id":"50d8d64a-bb7f-4c1a-8b2b-fa12385e8afe","system_id":"levelo_inurba_marseille","lat":43.279742,"lon":5.38744,"is_reserved":false,"is_disabled":false,"rental_uris":{"android":"levelo://app?vid=50d8d64a-bb7f-4c1a-8b2b-fa12385e8afe","ios":"levelo://app?vid=50d8d64a-bb7f-4c1a-8b2b-fa12385e8afe"},"vehicle_type_id":"4","last_reported":1704128785,"current_range_meters":10000,"station_id":"ce4bhg12rcd13ifvqf80","pricing_plan_id":"free"},{"bike_id":"3558cf00-76a6-4d39-92a2-c8284a96f4ab","system_id":"levelo_inurba_marseille","lat":43.279742,"lon":5.38744,"is_reserved":false,"is_disabled":false,"rental_uris":{"android":"levelo://app?vid=3558cf00-76a6-4d39-92a2-c8284a96f4ab","ios":"levelo://app?vid=3558cf00-76a6-4d39-92a2-c8284a96f4ab"},"vehicle_type_id":"4","last_reported":1704128785,"current_range_meters":25600,"station_id":"ce4bhg12rcd13ifvqf80","pricing_plan_id":"free"},{"bike_id":"9b79004f-b235-4acf-aaf6-11dfc1bcc384","system_id":"levelo_inurba_marseille","lat":43.292569,"lon":5.409107,"is_reserved":false,"is_disabled":false,"rental_uris":{"android":"levelo://app?vid=9b79004f-b235-4acf-aaf6-11dfc1bcc384","ios":"levelo://app?vid=9b79004f-b235-4acf-aaf6-11dfc1bcc384"},"vehicle_type_id":"4","last_reported":1704128785,"current_range_meters":31200,"station_id":"ce4bh192rcd13ifvqdc0","pricing_plan_id":"free"},{"bike_id":"0f84f884-bab3-4200-8cc7-d4f2c72d9909","system_id":"levelo_inurba_marseille","lat":43.292571,"lon":5.409107,"is_reserved":false,"is_disabled":false,"rental_uris":{"android":"levelo://app?vid=0f84f884-bab3-4200-8cc7-d4f2c72d9909","ios":"levelo://app?vid=0f84f884-bab3-4200-8cc7-d4f2c72d9909"},"vehicle_type_id":"4","last_reported":1704128785,"current_range_meters":31200,"station_id":"ce4bh192rcd13ifvqdc0","pricing_plan_id":"free"},{"bike_id":"b49848bb-4290-468a-8d29-11d86684b049","system_id":"levelo_inurba_marseille","lat":43.27618,"lon":5.361009,"is_reserved":false,"is_disabled":false,"rental_uris":{"android":"levelo://app?vid=b49848bb-4290-468a-8d29-11d86684b049","ios":"levelo://app?vid=b49848bb-4290-468a-8d29-11d86684b049"},"vehicle_type_id":"4","last_reported":1704128785,"current_range_meters":3200,"station_id":"ce4bgj92rcd13ifvqbe0","pricing_plan_id":"free"},{"bike_id":"13083173-d784-4a87-850f-f602f8724e39","system_id":"levelo_inurba_marseille","lat":43.27621,"lon":5.361,"is_reserved":false,"is_disabled":false,"rental_uris":{"android":"levelo://app?vid=13083173-d784-4a87-850f-f602f8724e39","ios":"levelo://app?vid=13083173-d784-4a87-850f-f602f8724e39"},"vehicle_type_id":"4","last_reported":1704128785,"current_range_meters":20800,"station_id":"ce4bgj92rcd13ifvqbe0","pricing_plan_id":"free"},{"bike_id":"1119d660-316f-46d9-9a3d-9a1121af39a5","system_id":"levelo_inurba_marseille","lat":43.2762,"lon":5.36104,"is_reserved":false,"is_disabled":false,"rental_uris":{"android":"levelo://app?vid=1119d660-316f-46d9-9a3d-9a1121af39a5","ios":"levelo://app?vid=1119d660-316f-46d9-9a3d-9a1121af39a5"},"vehicle_type_id":"4","last_reported":1704128785,"current_range_meters":22800,"station_id":"ce4bgj92rcd13ifvqbe0","pricing_plan_id":"free"},{"bike_id":"d2a3da75-7092-415e-b8a8-ce83ba1178e9","system_id":"levelo_inurba_marseille","lat":43.280784,"lon":5.396622,"is_reserved":false,"is_disabled":false,"rental_uris":{"android":"levelo://app?vid=d2a3da75-7092-415e-b8a8-ce83ba1178e9","ios":"levelo://app?vid=d2a3da75-7092-415e-b8a8-ce83ba1178e9"},"vehicle_type_id":"4","last_reported":1704128785,"current_range_meters":19600,"station_id":"ce4bho12rcd13ifvqh2g","pricing_plan_id":"free"},{"bike_id":"bd726a23-5118-4f62-8c5e-1477bf66150b","system_id":"levelo_inurba_marseille","lat":43.280784,"lon":5.396622,"is_reserved":false,"is_disabled":false,"rental_uris":{"android":"levelo://app?vid=bd726a23-5118-4f62-8c5e-1477bf66150b","ios":"levelo://app?vid=bd726a23-5118-4f62-8c5e-1477bf66150b"},"vehicle_type_id":"4","last_reported":1704128785,"current_range_meters":27200,"station_id":"ce4bho12rcd13ifvqh2g","pricing_plan_id":"free"},{"bike_id":"9443765f-359f-4674-8822-13206f57c02e","system_id":"levelo_inurba_marseille","lat":43.280784,"lon":5.396622,"is_reserved":false,"is_disabled":false,"rental_uris":{"android":"levelo://app?vid=9443765f-359f-4674-8822-13206f57c02e","ios":"levelo://app?vid=9443765f-359f-4674-8822-13206f57c02e"},"vehicle_type_id":"4","last_reported":1704128785,"current_range_meters":2000,"station_id":"ce4bho12rcd13ifvqh2g","pricing_plan_id":"free"},{"bike_id":"52710c2c-e727-4072-b4b3-43bca13f4228","system_id":"levelo_inurba_marseille","lat":43.280784,"lon":5.396622,"is_reserved":false,"is_disabled":false,"rental_uris":{"android":"levelo://app?vid=52710c2c-e727-4072-b4b3-43bca13f4228","ios":"levelo://app?vid=52710c2c-e727-4072-b4b3-43bca13f4228"},"vehicle_type_id":"4","last_reported":1704128785,"current_range_meters":23600,"station_id":"ce4bho12rcd13ifvqh2g","pricing_plan_id":"free"},{"bike_id":"e1838f9f-299f-437d-abd8-4f286644fe17","system_id":"levelo_inurba_marseille","lat":43.280784,"lon":5.396622,"is_reserved":false,"is_disabled":false,"rental_uris":{"android":"levelo://app?vid=e1838f9f-299f-437d-abd8-4f286644fe17","ios":"levelo://app?vid=e1838f9f-299f-437d-abd8-4f286644fe17"},"vehicle_type_id":"4","last_reported":1704128785,"current_range_meters":29200,"station_id":"ce4bho12rcd13ifvqh2g","pricing_plan_id":"free"},{"bike_id":"9727190a-b3e3-4d96-a370-472e6c8b4d96","system_id":"levelo_inurba_marseille","lat":43.303837,"lon":5.418724,"is_reserved":false,"is_disabled":false,"rental_uris":{"android":"levelo://app?vid=9727190a-b3e3-4d96-a370-472e6c8b4d96","ios":"levelo://app?vid=9727190a-b3e3-4d96-a370-472e6c8b4d96"},"vehicle_type_id":"4","last_reported":1704128785,"current_range_meters":11600,"station_id":"ce4bhop2rcd13ifvqh7g","pricing_plan_id":"free"},{"bike_id":"6090cc09-0dbd-45d6-93fb-c517e7a33dfc","system_id":"levelo_inurba_marseille","lat":43.278401,"lon":5.392152,"is_reserved":false,"is_disabled":false,"rental_uris":{"android":"levelo://app?vid=6090cc09-0dbd-45d6-93fb-c517e7a33dfc","ios":"levelo://app?vid=6090cc09-0dbd-45d6-93fb-c517e7a33dfc"},"vehicle_type_id":"4","last_reported":1704128785,"current_range_meters":24400,"station_id":"ce4bhjp2rcd13ifvqga0","pricing_plan_id":"free"},{"bike_id":"274d9a72-069f-4bbb-8dd5-f58c8b3273e9","system_id":"levelo_inurba_marseille","lat":43.303837,"lon":5.418724,"is_reserved":false,"is_disabled":false,"rental_uris":{"android":"levelo://app?vid=274d9a72-069f-4bbb-8dd5-f58c8b3273e9","ios":"levelo://app?vid=274d9a72-069f-4bbb-8dd5-f58c8b3273e9"},"vehicle_type_id":"4","last_reported":1704128785,"current_range_meters":11600,"station_id":"ce4bhop2rcd13ifvqh7g","pricing_plan_id":"free"},{"bike_id":"4e4ff796-b6c2-4ed5-bf16-c931dd6520f7","system_id":"levelo_inurba_marseille","lat":43.303837,"lon":5.418724,"is_reserved":false,"is_disabled":false,"rental_uris":{"android":"levelo://app?vid=4e4ff796-b6c2-4ed5-bf16-c931dd6520f7","ios":"levelo://app?vid=4e4ff796-b6c2-4ed5-bf16-c931dd6520f7"},"vehicle_type_id":"4","last_reported":1704128785,"current_range_meters":26400,"station_id":"ce4bhop2rcd13ifvqh7g","pricing_plan_id":"free"},{"bike_id":"1b3af1dc-ada9-487d-b179-21694e50de87","system_id":"levelo_inurba_marseille","lat":43.278399,"lon":5.392139,"is_reserved":false,"is_disabled":false,"rental_uris":{"android":"levelo://app?vid=1b3af1dc-ada9-487d-b179-21694e50de87","ios":"levelo://app?vid=1b3af1dc-ada9-487d-b179-21694e50de87"},"vehicle_type_id":"4","last_reported":1704128785,"current_range_meters":24800,"station_id":"ce4bhjp2rcd13ifvqga0","pricing_plan_id":"free"},{"bike_id":"9ebd5be7-ea73-40bb-b2ae-8a925684cc42","system_id":"levelo_inurba_marseille","lat":43.273613,"lon":5.362705,"is_reserved":false,"is_disabled":false,"rental_uris":{"android":"levelo://app?vid=9ebd5be7-ea73-40bb-b2ae-8a925684cc42","ios":"levelo://app?vid=9ebd5be7-ea73-40bb-b2ae-8a925684cc42"},"vehicle_type_id":"4","last_reported":1704128785,"current_range_meters":29600,"station_id":"ce4bhbh2rcd13ifvqeo0","pricing_plan_id":"free"},{"bike_id":"2bc78665-5366-4b01-966c-71dbf5251e0e","system_id":"levelo_inurba_marseille","lat":43.273609,"lon":5.362708,"is_reserved":false,"is_disabled":false,"rental_uris":{"android":"levelo://app?vid=2bc78665-5366-4b01-966c-71dbf5251e0e","ios":"levelo://app?vid=2bc78665-5366-4b01-966c-71dbf5251e0e"},"vehicle_type_id":"4","last_reported":1704128785,"current_range_meters":22800,"station_id":"ce4bhbh2rcd13ifvqeo0","pricing_plan_id":"free"},{"bike_id":"838e390a-0d2f-44c2-87a4-d40aabcd8ccc","system_id":"levelo_inurba_marseille","lat":43.27671,"lon":5.389198,"is_reserved":false,"is_disabled":false,"rental_uris":{"android":"levelo://app?vid=838e390a-0d2f-44c2-87a4-d40aabcd8ccc","ios":"levelo://app?vid=838e390a-0d2f-44c2-87a4-d40aabcd8ccc"},"vehicle_type_id":"4","last_reported":1704128785,"current_range_meters":0,"station_id":"","pricing_plan_id":"free"},{"bike_id":"29db4e75-73a9-45d1-8a88-78686b16c358","system_id":"levelo_inurba_marseille","lat":43.27998,"lon":5.40019,"is_reserved":false,"is_disabled":false,"rental_uris":{"android":"levelo://app?vid=29db4e75-73a9-45d1-8a88-78686b16c358","ios":"levelo://app?vid=29db4e75-73a9-45d1-8a88-78686b16c358"},"vehicle_type_id":"4","last_reported":1704128785,"current_range_meters":19200,"station_id":"ce4bho92rcd13ifvqh4g","pricing_plan_id":"free"},{"bike_id":"ad8ead7b-2150-462d-9ff1-f4303c6e32bd","system_id":"levelo_inurba_marseille","lat":43.279972,"lon":5.400248,"is_reserved":false,"is_disabled":false,"rental_uris":{"android":"levelo://app?vid=ad8ead7b-2150-462d-9ff1-f4303c6e32bd","ios":"levelo://app?vid=ad8ead7b-2150-462d-9ff1-f4303c6e32bd"},"vehicle_type_id":"4","last_reported":1704128785,"current_range_meters":27200,"station_id":"ce4bho92rcd13ifvqh4g","pricing_plan_id":"free"},{"bike_id":"c8e7703b-2edf-4796-b45d-2438019a9059","system_id":"levelo_inurba_marseille","lat":43.317121,"lon":5.423936,"is_reserved":false,"is_disabled":false,"rental_uris":{"android":"levelo://app?vid=c8e7703b-2edf-4796-b45d-2438019a9059","ios":"levelo://app?vid=c8e7703b-2edf-4796-b45d-2438019a9059"},"vehicle_type_id":"4","last_reported":1704128785,"current_range_meters":14800,"station_id":"ce4bhp92rcd13ifvqhbg","pricing_plan_id":"free"},{"bike_id":"95620b28-48e0-40ed-8f4c-f7654a31b6da","system_id":"levelo_inurba_marseille","lat":43.317121,"lon":5.423936,"is_reserved":false,"is_disabled":false,"rental_uris":{"android":"levelo://app?vid=95620b28-48e0-40ed-8f4c-f7654a31b6da","ios":"levelo://app?vid=95620b28-48e0-40ed-8f4c-f7654a31b6da"},"vehicle_type_id":"4","last_reported":1704128785,"current_range_meters":30800,"station_id":"ce4bhp92rcd13ifvqhbg","pricing_plan_id":"free"},{"bike_id":"f3e351f0-7ca3-497e-a450-69da3118abd7","system_id":"levelo_inurba_marseille","lat":43.31725,"lon":5.42397,"is_reserved":false,"is_disabled":false,"rental_uris":{"android":"levelo://app?vid=f3e351f0-7ca3-497e-a450-69da3118abd7","ios":"levelo://app?vid=f3e351f0-7ca3-497e-a450-69da3118abd7"},"vehicle_type_id":"4","last_reported":1704128785,"current_range_meters":28400,"station_id":"ce4bhp92rcd13ifvqhbg","pricing_plan_id":"free"},{"bike_id":"4760841b-4fd7-4b7d-aef3-782de75b0909","system_id":"levelo_inurba_marseille","lat":43.317121,"lon":5.423936,"is_reserved":false,"is_disabled":false,"rental_uris":{"android":"levelo://app?vid=4760841b-4fd7-4b7d-aef3-782de75b0909","ios":"levelo://app?vid=4760841b-4fd7-4b7d-aef3-782de75b0909"},"vehicle_type_id":"4","last_reported":1704128785,"current_range_meters":25600,"station_id":"ce4bhp92rcd13ifvqhbg","pricing_plan_id":"free"},{"bike_id":"450ed659-c181-4eab-9bb5-1bc0054378de","system_id":"levelo_inurba_marseille","lat":43.31721,"lon":5.42402,"is_reserved":false,"is_disabled":false,"rental_uris":{"android":"levelo://app?vid=450ed659-c181-4eab-9bb5-1bc0054378de","ios":"levelo://app?vid=450ed659-c181-4eab-9bb5-1bc0054378de"},"vehicle_type_id":"4","last_reported":1704128785,"current_range_meters":28400,"station_id":"ce4bhp92rcd13ifvqhbg","pricing_plan_id":"free"},{"bike_id":"5e3452d0-bbc8-463b-8852-ec98e809d5a0","system_id":"levelo_inurba_marseille","lat":43.317121,"lon":5.423936,"is_reserved":false,"is_disabled":false,"rental_uris":{"android":"levelo://app?vid=5e3452d0-bbc8-463b-8852-ec98e809d5a0","ios":"levelo://app?vid=5e3452d0-bbc8-463b-8852-ec98e809d5a0"},"vehicle_type_id":"4","last_reported":1704128785,"current_range_meters":31200,"station_id":"ce4bhp92rcd13ifvqhbg","pricing_plan_id":"free"},{"bike_id":"e2340435-a767-4a07-9db0-637fd4bce462","system_id":"levelo_inurba_marseille","lat":43.317121,"lon":5.423936,"is_reserved":false,"is_disabled":false,"rental_uris":{"android":"levelo://app?vid=e2340435-a767-4a07-9db0-637fd4bce462","ios":"levelo://app?vid=e2340435-a767-4a07-9db0-637fd4bce462"},"vehicle_type_id":"4","last_reported":1704128785,"current_range_meters":14000,"station_id":"ce4bhp92rcd13ifvqhbg","pricing_plan_id":"free"},{"bike_id":"f3df15e8-aad3-4eb3-8655-ae037bdab9c9","system_id":"levelo_inurba_marseille","lat":43.31083,"lon":5.42431,"is_reserved":false,"is_disabled":false,"rental_uris":{"android":"levelo://app?vid=f3df15e8-aad3-4eb3-8655-ae037bdab9c9","ios":"levelo://app?vid=f3df15e8-aad3-4eb3-8655-ae037bdab9c9"},"vehicle_type_id":"4","last_reported":1704128785,"current_range_meters":13600,"station_id":"ce4bhp92rcd13ifvqhag","pricing_plan_id":"free"},{"bike_id":"9195ccae-4ee4-4b62-844f-82cab6198eb9","system_id":"levelo_inurba_marseille","lat":43.287154,"lon":5.399979,"is_reserved":false,"is_disabled":false,"rental_uris":{"android":"levelo://app?vid=9195ccae-4ee4-4b62-844f-82cab6198eb9","ios":"levelo://app?vid=9195ccae-4ee4-4b62-844f-82cab6198eb9"},"vehicle_type_id":"4","last_reported":1704128785,"current_range_meters":7200,"station_id":"ce4bho92rcd13ifvqh3g","pricing_plan_id":"free"},{"bike_id":"72be8c87-95b5-44a3-a58e-8e3ac1a66cf3","system_id":"levelo_inurba_marseille","lat":43.340804,"lon":5.410219,"is_reserved":false,"is_disabled":false,"rental_uris":{"android":"levelo://app?vid=72be8c87-95b5-44a3-a58e-8e3ac1a66cf3","ios":"levelo://app?vid=72be8c87-95b5-44a3-a58e-8e3ac1a66cf3"},"vehicle_type_id":"4","last_reported":1704128785,"current_range_meters":30800,"station_id":"ce4bhqh2rcd13ifvqhlg","pricing_plan_id":"free"},{"bike_id":"bc43089e-ca34-459e-8f01-09e83b0d65e1","system_id":"levelo_inurba_marseille","lat":43.340804,"lon":5.410219,"is_reserved":false,"is_disabled":false,"rental_uris":{"android":"levelo://app?vid=bc43089e-ca34-459e-8f01-09e83b0d65e1","ios":"levelo://app?vid=bc43089e-ca34-459e-8f01-09e83b0d65e1"},"vehicle_type_id":"4","last_reported":1704128785,"current_range_meters":9600,"station_id":"ce4bhqh2rcd13ifvqhlg","pricing_plan_id":"free"},{"bike_id":"1321cad9-2d86-42c0-9e69-f19e49ad0b15","system_id":"levelo_inurba_marseille","lat":43.340804,"lon":5.410219,"is_reserved":false,"is_disabled":false,"rental_uris":{"android":"levelo://app?vid=1321cad9-2d86-42c0-9e69-f19e49ad0b15","ios":"levelo://app?vid=1321cad9-2d86-42c0-9e69-f19e49ad0b15"},"vehicle_type_id":"4","last_reported":1704128785,"current_range_meters":6400,"station_id":"ce4bhqh2rcd13ifvqhlg","pricing_plan_id":"free"},{"bike_id":"90571ad6-316f-49da-bafa-db0ba0903b9c","system_id":"levelo_inurba_marseille","lat":43.273125,"lon":5.390731,"is_reserved":false,"is_disabled":false,"rental_uris":{"android":"levelo://app?vid=90571ad6-316f-49da-bafa-db0ba0903b9c","ios":"levelo://app?vid=90571ad6-316f-49da-bafa-db0ba0903b9c"},"vehicle_type_id":"4","last_reported":1704128785,"current_range_meters":26400,"station_id":"ce4bhgp2rcd13ifvqfe0","pricing_plan_id":"free"},{"bike_id":"aa5c63f9-4a04-46f0-a022-03547ab6b1c4","system_id":"levelo_inurba_marseille","lat":43.304096,"lon":5.425385,"is_reserved":false,"is_disabled":false,"rental_uris":{"android":"levelo://app?vid=aa5c63f9-4a04-46f0-a022-03547ab6b1c4","ios":"levelo://app?vid=aa5c63f9-4a04-46f0-a022-03547ab6b1c4"},"vehicle_type_id":"4","last_reported":1704128785,"current_range_meters":25600,"station_id":"ce4bhoh2rcd13ifvqh6g","pricing_plan_id":"free"},{"bike_id":"d548d66b-88c9-49f9-867c-e26df10c9510","system_id":"levelo_inurba_marseille","lat":43.29553,"lon":5.42286,"is_reserved":false,"is_disabled":false,"rental_uris":{"android":"levelo://app?vid=d548d66b-88c9-49f9-867c-e26df10c9510","ios":"levelo://app?vid=d548d66b-88c9-49f9-867c-e26df10c9510"},"vehicle_type_id":"4","last_reported":1704128785,"current_range_meters":27600,"station_id":"ce4bhph2rcd13ifvqhdg","pricing_plan_id":"free"},{"bike_id":"92c62140-6073-4b50-887d-f4ed58f8da74","system_id":"levelo_inurba_marseille","lat":43.278128,"lon":5.407195,"is_reserved":false,"is_disabled":false,"rental_uris":{"android":"levelo://app?vid=92c62140-6073-4b50-887d-f4ed58f8da74","ios":"levelo://app?vid=92c62140-6073-4b50-887d-f4ed58f8da74"},"vehicle_type_id":"4","last_reported":1704128785,"current_range_meters":8000,"station_id":"ce4bhnh2rcd13ifvqgtg","pricing_plan_id":"free"},{"bike_id":"425f9578-de78-4e61-bdf4-7cfac3cad89a","system_id":"levelo_inurba_marseille","lat":43.279465,"lon":5.410561,"is_reserved":false,"is_disabled":false,"rental_uris":{"android":"levelo://app?vid=425f9578-de78-4e61-bdf4-7cfac3cad89a","ios":"levelo://app?vid=425f9578-de78-4e61-bdf4-7cfac3cad89a"},"vehicle_type_id":"4","last_reported":1704128785,"current_range_meters":24800,"station_id":"ce4bhnp2rcd13ifvqh0g","pricing_plan_id":"free"},{"bike_id":"30fd2104-1b14-4ca9-b095-799969957ed3","system_id":"levelo_inurba_marseille","lat":43.269319,"lon":5.389397,"is_reserved":false,"is_disabled":false,"rental_uris":{"android":"levelo://app?vid=30fd2104-1b14-4ca9-b095-799969957ed3","ios":"levelo://app?vid=30fd2104-1b14-4ca9-b095-799969957ed3"},"vehicle_type_id":"4","last_reported":1704128785,"current_range_meters":31200,"station_id":"ce4bhhh2rcd13ifvqfl0","pricing_plan_id":"free"},{"bike_id":"fca8f991-4466-4445-a8a9-a8e050297848","system_id":"levelo_inurba_marseille","lat":43.265714,"lon":5.372891,"is_reserved":false,"is_disabled":false,"rental_uris":{"android":"levelo://app?vid=fca8f991-4466-4445-a8a9-a8e050297848","ios":"levelo://app?vid=fca8f991-4466-4445-a8a9-a8e050297848"},"vehicle_type_id":"4","last_reported":1704128785,"current_range_meters":21200,"station_id":"ce4bhg12rcd13ifvqf70","pricing_plan_id":"free"},{"bike_id":"b377144d-51fd-4147-8183-bef58cb936c6","system_id":"levelo_inurba_marseille","lat":43.27996,"lon":5.41663,"is_reserved":false,"is_disabled":false,"rental_uris":{"android":"levelo://app?vid=b377144d-51fd-4147-8183-bef58cb936c6","ios":"levelo://app?vid=b377144d-51fd-4147-8183-bef58cb936c6"},"vehicle_type_id":"4","last_reported":1704128785,"current_range_meters":1200,"station_id":"ce4bho12rcd13ifvqh1g","pricing_plan_id":"free"},{"bike_id":"136aa616-cd18-48d2-904b-2f78b63de31b","system_id":"levelo_inurba_marseille","lat":43.27993,"lon":5.4166,"is_reserved":false,"is_disabled":false,"rental_uris":{"android":"levelo://app?vid=136aa616-cd18-48d2-904b-2f78b63de31b","ios":"levelo://app?vid=136aa616-cd18-48d2-904b-2f78b63de31b"},"vehicle_type_id":"4","last_reported":1704128785,"current_range_meters":8800,"station_id":"ce4bho12rcd13ifvqh1g","pricing_plan_id":"free"},{"bike_id":"4e7b82a4-f271-4a72-bdbd-460d1cfbd58d","system_id":"levelo_inurba_marseille","lat":43.27181,"lon":5.404997,"is_reserved":false,"is_disabled":false,"rental_uris":{"android":"levelo://app?vid=4e7b82a4-f271-4a72-bdbd-460d1cfbd58d","ios":"levelo://app?vid=4e7b82a4-f271-4a72-bdbd-460d1cfbd58d"},"vehicle_type_id":"4","last_reported":1704128785,"current_range_meters":9200,"station_id":"","pricing_plan_id":"free"},{"bike_id":"45730320-d888-42aa-bc60-ab4966459db6","system_id":"levelo_inurba_marseille","lat":43.265571,"lon":5.390032,"is_reserved":false,"is_disabled":false,"rental_uris":{"android":"levelo://app?vid=45730320-d888-42aa-bc60-ab4966459db6","ios":"levelo://app?vid=45730320-d888-42aa-bc60-ab4966459db6"},"vehicle_type_id":"4","last_reported":1704128785,"current_range_meters":3200,"station_id":"ce4bhe12rcd13ifvqf30","pricing_plan_id":"free"},{"bike_id":"3a70dc13-01b3-4ae7-8f14-dac62188e774","system_id":"levelo_inurba_marseille","lat":43.265569,"lon":5.390047,"is_reserved":false,"is_disabled":false,"rental_uris":{"android":"levelo://app?vid=3a70dc13-01b3-4ae7-8f14-dac62188e774","ios":"levelo://app?vid=3a70dc13-01b3-4ae7-8f14-dac62188e774"},"vehicle_type_id":"4","last_reported":1704128785,"current_range_meters":16000,"station_id":"ce4bhe12rcd13ifvqf30","pricing_plan_id":"free"},{"bike_id":"34e62c0c-6e4c-4ce0-a32e-2a5972cc9649","system_id":"levelo_inurba_marseille","lat":43.265569,"lon":5.390047,"is_reserved":false,"is_disabled":false,"rental_uris":{"android":"levelo://app?vid=34e62c0c-6e4c-4ce0-a32e-2a5972cc9649","ios":"levelo://app?vid=34e62c0c-6e4c-4ce0-a32e-2a5972cc9649"},"vehicle_type_id":"4","last_reported":1704128785,"current_range_meters":15600,"station_id":"ce4bhe12rcd13ifvqf30","pricing_plan_id":"free"},{"bike_id":"dac5ea74-92f7-462e-b536-31f322bb01c0","system_id":"levelo_inurba_marseille","lat":43.331893,"lon":5.431791,"is_reserved":false,"is_disabled":false,"rental_uris":{"android":"levelo://app?vid=dac5ea74-92f7-462e-b536-31f322bb01c0","ios":"levelo://app?vid=dac5ea74-92f7-462e-b536-31f322bb01c0"},"vehicle_type_id":"4","last_reported":1704128785,"current_range_meters":6800,"station_id":"","pricing_plan_id":"free"},{"bike_id":"7260f48f-152a-4084-a91d-d14c51d1a0b3","system_id":"levelo_inurba_marseille","lat":43.26186,"lon":5.37439,"is_reserved":false,"is_disabled":false,"rental_uris":{"android":"levelo://app?vid=7260f48f-152a-4084-a91d-d14c51d1a0b3","ios":"levelo://app?vid=7260f48f-152a-4084-a91d-d14c51d1a0b3"},"vehicle_type_id":"4","last_reported":1704128785,"current_range_meters":24000,"station_id":"ce4bhgp2rcd13ifvqfc0","pricing_plan_id":"free"},{"bike_id":"741e3cbe-a381-4bf6-9405-af70bf188946","system_id":"levelo_inurba_marseille","lat":43.31711,"lon":5.43703,"is_reserved":false,"is_disabled":false,"rental_uris":{"android":"levelo://app?vid=741e3cbe-a381-4bf6-9405-af70bf188946","ios":"levelo://app?vid=741e3cbe-a381-4bf6-9405-af70bf188946"},"vehicle_type_id":"4","last_reported":1704128785,"current_range_meters":14000,"station_id":"ce4bhp92rcd13ifvqhcg","pricing_plan_id":"free"},{"bike_id":"c693cffc-c1b1-4f48-a2af-4776d28f9155","system_id":"levelo_inurba_marseille","lat":43.31714,"lon":5.43707,"is_reserved":false,"is_disabled":false,"rental_uris":{"android":"levelo://app?vid=c693cffc-c1b1-4f48-a2af-4776d28f9155","ios":"levelo://app?vid=c693cffc-c1b1-4f48-a2af-4776d28f9155"},"vehicle_type_id":"4","last_reported":1704128785,"current_range_meters":19600,"station_id":"ce4bhp92rcd13ifvqhcg","pricing_plan_id":"free"},{"bike_id":"8c7df74b-a509-49f1-af95-b0a69adf8f56","system_id":"levelo_inurba_marseille","lat":43.31716,"lon":5.43707,"is_reserved":false,"is_disabled":false,"rental_uris":{"android":"levelo://app?vid=8c7df74b-a509-49f1-af95-b0a69adf8f56","ios":"levelo://app?vid=8c7df74b-a509-49f1-af95-b0a69adf8f56"},"vehicle_type_id":"4","last_reported":1704128785,"current_range_meters":29600,"station_id":"ce4bhp92rcd13ifvqhcg","pricing_plan_id":"free"},{"bike_id":"8475f879-31a9-434f-877e-815dcf813756","system_id":"levelo_inurba_marseille","lat":43.267959,"lon":5.402687,"is_reserved":false,"is_disabled":false,"rental_uris":{"android":"levelo://app?vid=8475f879-31a9-434f-877e-815dcf813756","ios":"levelo://app?vid=8475f879-31a9-434f-877e-815dcf813756"},"vehicle_type_id":"4","last_reported":1704128785,"current_range_meters":18800,"station_id":"ce501612rcd8frsf0b60","pricing_plan_id":"free"},{"bike_id":"6bdcb0b2-883e-41e2-92ab-23704c9cb261","system_id":"levelo_inurba_marseille","lat":43.267959,"lon":5.402687,"is_reserved":false,"is_disabled":false,"rental_uris":{"android":"levelo://app?vid=6bdcb0b2-883e-41e2-92ab-23704c9cb261","ios":"levelo://app?vid=6bdcb0b2-883e-41e2-92ab-23704c9cb261"},"vehicle_type_id":"4","last_reported":1704128785,"current_range_meters":800,"station_id":"ce501612rcd8frsf0b60","pricing_plan_id":"free"},{"bike_id":"561232c7-db97-4857-969f-2ad8276e1366","system_id":"levelo_inurba_marseille","lat":43.292724,"lon":5.401131,"is_reserved":false,"is_disabled":false,"rental_uris":{"android":"levelo://app?vid=561232c7-db97-4857-969f-2ad8276e1366","ios":"levelo://app?vid=561232c7-db97-4857-969f-2ad8276e1366"},"vehicle_type_id":"4","last_reported":1704128785,"current_range_meters":6400,"station_id":"ce4bh312rcd13ifvqdk0","pricing_plan_id":"free"},{"bike_id":"aee55816-91af-4090-b86d-2303bacde030","system_id":"levelo_inurba_marseille","lat":43.26126,"lon":5.37501,"is_reserved":false,"is_disabled":false,"rental_uris":{"android":"levelo://app?vid=aee55816-91af-4090-b86d-2303bacde030","ios":"levelo://app?vid=aee55816-91af-4090-b86d-2303bacde030"},"vehicle_type_id":"4","last_reported":1704128785,"current_range_meters":21600,"station_id":"","pricing_plan_id":"free"},{"bike_id":"f359195f-f069-42a0-b818-68741f0dae01","system_id":"levelo_inurba_marseille","lat":43.298768,"lon":5.43643,"is_reserved":false,"is_disabled":false,"rental_uris":{"android":"levelo://app?vid=f359195f-f069-42a0-b818-68741f0dae01","ios":"levelo://app?vid=f359195f-f069-42a0-b818-68741f0dae01"},"vehicle_type_id":"4","last_reported":1704128785,"current_range_meters":29200,"station_id":"ce4bhpp2rcd13ifvqhfg","pricing_plan_id":"free"},{"bike_id":"2aef17d2-5e1a-42db-a1a2-eebc4e3d678f","system_id":"levelo_inurba_marseille","lat":43.298768,"lon":5.43643,"is_reserved":false,"is_disabled":false,"rental_uris":{"android":"levelo://app?vid=2aef17d2-5e1a-42db-a1a2-eebc4e3d678f","ios":"levelo://app?vid=2aef17d2-5e1a-42db-a1a2-eebc4e3d678f"},"vehicle_type_id":"4","last_reported":1704128785,"current_range_meters":8800,"station_id":"ce4bhpp2rcd13ifvqhfg","pricing_plan_id":"free"},{"bike_id":"ec17f12b-76f2-4e38-bdf0-2f3dcd905333","system_id":"levelo_inurba_marseille","lat":43.298768,"lon":5.43643,"is_reserved":false,"is_disabled":false,"rental_uris":{"android":"levelo://app?vid=ec17f12b-76f2-4e38-bdf0-2f3dcd905333","ios":"levelo://app?vid=ec17f12b-76f2-4e38-bdf0-2f3dcd905333"},"vehicle_type_id":"4","last_reported":1704128785,"current_range_meters":27600,"station_id":"ce4bhpp2rcd13ifvqhfg","pricing_plan_id":"free"},{"bike_id":"98b9164e-e0c2-43ae-827c-2e209a21d596","system_id":"levelo_inurba_marseille","lat":43.260219,"lon":5.37546,"is_reserved":false,"is_disabled":false,"rental_uris":{"android":"levelo://app?vid=98b9164e-e0c2-43ae-827c-2e209a21d596","ios":"levelo://app?vid=98b9164e-e0c2-43ae-827c-2e209a21d596"},"vehicle_type_id":"4","last_reported":1704128785,"current_range_meters":4000,"station_id":"ce4bhgh2rcd13ifvqfa0","pricing_plan_id":"free"},{"bike_id":"5f1555ac-704e-4a70-abf2-d97627b4f388","system_id":"levelo_inurba_marseille","lat":43.281548,"lon":5.42643,"is_reserved":false,"is_disabled":false,"rental_uris":{"android":"levelo://app?vid=5f1555ac-704e-4a70-abf2-d97627b4f388","ios":"levelo://app?vid=5f1555ac-704e-4a70-abf2-d97627b4f388"},"vehicle_type_id":"4","last_reported":1704128785,"current_range_meters":22400,"station_id":"ce4bhnh2rcd13ifvqgug","pricing_plan_id":"free"},{"bike_id":"51b307ad-3e03-4c88-8cbb-3669bbc8a1ad","system_id":"levelo_inurba_marseille","lat":43.281548,"lon":5.42643,"is_reserved":false,"is_disabled":false,"rental_uris":{"android":"levelo://app?vid=51b307ad-3e03-4c88-8cbb-3669bbc8a1ad","ios":"levelo://app?vid=51b307ad-3e03-4c88-8cbb-3669bbc8a1ad"},"vehicle_type_id":"4","last_reported":1704128785,"current_range_meters":31200,"station_id":"ce4bhnh2rcd13ifvqgug","pricing_plan_id":"free"},{"bike_id":"e32e8b2f-227a-41f1-a651-f92b4e26dae8","system_id":"levelo_inurba_marseille","lat":43.281548,"lon":5.42643,"is_reserved":false,"is_disabled":false,"rental_uris":{"android":"levelo://app?vid=e32e8b2f-227a-41f1-a651-f92b4e26dae8","ios":"levelo://app?vid=e32e8b2f-227a-41f1-a651-f92b4e26dae8"},"vehicle_type_id":"4","last_reported":1704128785,"current_range_meters":0,"station_id":"ce4bhnh2rcd13ifvqgug","pricing_plan_id":"free"},{"bike_id":"5a04ea17-eb41-4e08-b828-ac0858829f65","system_id":"levelo_inurba_marseille","lat":43.281548,"lon":5.42643,"is_reserved":false,"is_disabled":false,"rental_uris":{"android":"levelo://app?vid=5a04ea17-eb41-4e08-b828-ac0858829f65","ios":"levelo://app?vid=5a04ea17-eb41-4e08-b828-ac0858829f65"},"vehicle_type_id":"4","last_reported":1704128785,"current_range_meters":18000,"station_id":"ce4bhnh2rcd13ifvqgug","pricing_plan_id":"free"},{"bike_id":"20f457aa-21b0-4254-bd2f-8b6f31ce302e","system_id":"levelo_inurba_marseille","lat":43.281548,"lon":5.42643,"is_reserved":false,"is_disabled":false,"rental_uris":{"android":"levelo://app?vid=20f457aa-21b0-4254-bd2f-8b6f31ce302e","ios":"levelo://app?vid=20f457aa-21b0-4254-bd2f-8b6f31ce302e"},"vehicle_type_id":"4","last_reported":1704128785,"current_range_meters":31200,"station_id":"ce4bhnh2rcd13ifvqgug","pricing_plan_id":"free"},{"bike_id":"dd2ae354-b374-4e9f-a915-275627cc27df","system_id":"levelo_inurba_marseille","lat":43.281548,"lon":5.42643,"is_reserved":false,"is_disabled":false,"rental_uris":{"android":"levelo://app?vid=dd2ae354-b374-4e9f-a915-275627cc27df","ios":"levelo://app?vid=dd2ae354-b374-4e9f-a915-275627cc27df"},"vehicle_type_id":"4","last_reported":1704128785,"current_range_meters":26800,"station_id":"ce4bhnh2rcd13ifvqgug","pricing_plan_id":"free"},{"bike_id":"239866bf-d593-439b-8f00-008a123dffd7","system_id":"levelo_inurba_marseille","lat":43.281548,"lon":5.42643,"is_reserved":false,"is_disabled":false,"rental_uris":{"android":"levelo://app?vid=239866bf-d593-439b-8f00-008a123dffd7","ios":"levelo://app?vid=239866bf-d593-439b-8f00-008a123dffd7"},"vehicle_type_id":"4","last_reported":1704128785,"current_range_meters":31200,"station_id":"ce4bhnh2rcd13ifvqgug","pricing_plan_id":"free"},{"bike_id":"1a9dbf08-bcad-4147-8e53-eb4159c05375","system_id":"levelo_inurba_marseille","lat":43.2607,"lon":5.393983,"is_reserved":false,"is_disabled":false,"rental_uris":{"android":"levelo://app?vid=1a9dbf08-bcad-4147-8e53-eb4159c05375","ios":"levelo://app?vid=1a9dbf08-bcad-4147-8e53-eb4159c05375"},"vehicle_type_id":"4","last_reported":1704128785,"current_range_meters":20400,"station_id":"ce4bhh92rcd13ifvqfj0","pricing_plan_id":"free"},{"bike_id":"7ad50cc5-9788-45de-b807-fd22b7baeb89","system_id":"levelo_inurba_marseille","lat":43.2607,"lon":5.393983,"is_reserved":false,"is_disabled":false,"rental_uris":{"android":"levelo://app?vid=7ad50cc5-9788-45de-b807-fd22b7baeb89","ios":"levelo://app?vid=7ad50cc5-9788-45de-b807-fd22b7baeb89"},"vehicle_type_id":"4","last_reported":1704128785,"current_range_meters":13600,"station_id":"ce4bhh92rcd13ifvqfj0","pricing_plan_id":"free"},{"bike_id":"49358a4e-4549-42be-af7c-461aadd9058f","system_id":"levelo_inurba_marseille","lat":43.2607,"lon":5.393983,"is_reserved":false,"is_disabled":false,"rental_uris":{"android":"levelo://app?vid=49358a4e-4549-42be-af7c-461aadd9058f","ios":"levelo://app?vid=49358a4e-4549-42be-af7c-461aadd9058f"},"vehicle_type_id":"4","last_reported":1704128785,"current_range_meters":11200,"station_id":"ce4bhh92rcd13ifvqfj0","pricing_plan_id":"free"},{"bike_id":"d6393227-cf16-48bf-bb2f-22685e245430","system_id":"levelo_inurba_marseille","lat":43.2607,"lon":5.393983,"is_reserved":false,"is_disabled":false,"rental_uris":{"android":"levelo://app?vid=d6393227-cf16-48bf-bb2f-22685e245430","ios":"levelo://app?vid=d6393227-cf16-48bf-bb2f-22685e245430"},"vehicle_type_id":"4","last_reported":1704128785,"current_range_meters":16000,"station_id":"ce4bhh92rcd13ifvqfj0","pricing_plan_id":"free"},{"bike_id":"c6e1d669-4b40-4bf6-a5f7-2ef90ad928f9","system_id":"levelo_inurba_marseille","lat":43.27494,"lon":5.42456,"is_reserved":false,"is_disabled":false,"rental_uris":{"android":"levelo://app?vid=c6e1d669-4b40-4bf6-a5f7-2ef90ad928f9","ios":"levelo://app?vid=c6e1d669-4b40-4bf6-a5f7-2ef90ad928f9"},"vehicle_type_id":"4","last_reported":1704128785,"current_range_meters":30800,"station_id":"ce4bhn92rcd13ifvqgrg","pricing_plan_id":"free"},{"bike_id":"2c907ece-6345-4a51-84ed-2f4720d8e2e9","system_id":"levelo_inurba_marseille","lat":43.258224,"lon":5.394369,"is_reserved":false,"is_disabled":false,"rental_uris":{"android":"levelo://app?vid=2c907ece-6345-4a51-84ed-2f4720d8e2e9","ios":"levelo://app?vid=2c907ece-6345-4a51-84ed-2f4720d8e2e9"},"vehicle_type_id":"4","last_reported":1704128785,"current_range_meters":29200,"station_id":"ce4bhip2rcd13ifvqft0","pricing_plan_id":"free"},{"bike_id":"baf5356e-beb9-497f-81ad-b642e4e7a077","system_id":"levelo_inurba_marseille","lat":43.254945,"lon":5.376454,"is_reserved":false,"is_disabled":false,"rental_uris":{"android":"levelo://app?vid=baf5356e-beb9-497f-81ad-b642e4e7a077","ios":"levelo://app?vid=baf5356e-beb9-497f-81ad-b642e4e7a077"},"vehicle_type_id":"4","last_reported":1704128785,"current_range_meters":26400,"station_id":"ce4bhh12rcd13ifvqff0","pricing_plan_id":"free"},{"bike_id":"aa3d5064-e3d4-49c4-8d96-96782fe73d79","system_id":"levelo_inurba_marseille","lat":43.254947,"lon":5.376454,"is_reserved":false,"is_disabled":false,"rental_uris":{"android":"levelo://app?vid=aa3d5064-e3d4-49c4-8d96-96782fe73d79","ios":"levelo://app?vid=aa3d5064-e3d4-49c4-8d96-96782fe73d79"},"vehicle_type_id":"4","last_reported":1704128785,"current_range_meters":4000,"station_id":"ce4bhh12rcd13ifvqff0","pricing_plan_id":"free"},{"bike_id":"e60289fc-fad5-47c4-9c1b-48ad12fb3a94","system_id":"levelo_inurba_marseille","lat":43.270721,"lon":5.422764,"is_reserved":false,"is_disabled":false,"rental_uris":{"android":"levelo://app?vid=e60289fc-fad5-47c4-9c1b-48ad12fb3a94","ios":"levelo://app?vid=e60289fc-fad5-47c4-9c1b-48ad12fb3a94"},"vehicle_type_id":"4","last_reported":1704128785,"current_range_meters":19200,"station_id":"ce4bhk92rcd13ifvqgb0","pricing_plan_id":"free"},{"bike_id":"b66168d7-3d55-4410-a353-e0c5d37c26d1","system_id":"levelo_inurba_marseille","lat":43.258658,"lon":5.398935,"is_reserved":false,"is_disabled":false,"rental_uris":{"android":"levelo://app?vid=b66168d7-3d55-4410-a353-e0c5d37c26d1","ios":"levelo://app?vid=b66168d7-3d55-4410-a353-e0c5d37c26d1"},"vehicle_type_id":"4","last_reported":1704128785,"current_range_meters":20400,"station_id":"ce4bhl92rcd13ifvqghg","pricing_plan_id":"free"},{"bike_id":"0be6edf7-3e3e-425e-bd51-d30b845fe421","system_id":"levelo_inurba_marseille","lat":43.258658,"lon":5.398935,"is_reserved":false,"is_disabled":false,"rental_uris":{"android":"levelo://app?vid=0be6edf7-3e3e-425e-bd51-d30b845fe421","ios":"levelo://app?vid=0be6edf7-3e3e-425e-bd51-d30b845fe421"},"vehicle_type_id":"4","last_reported":1704128785,"current_range_meters":29200,"station_id":"ce4bhl92rcd13ifvqghg","pricing_plan_id":"free"},{"bike_id":"9ae4e880-5f27-4d80-bae7-f348f19de31f","system_id":"levelo_inurba_marseille","lat":43.258658,"lon":5.398935,"is_reserved":false,"is_disabled":false,"rental_uris":{"android":"levelo://app?vid=9ae4e880-5f27-4d80-bae7-f348f19de31f","ios":"levelo://app?vid=9ae4e880-5f27-4d80-bae7-f348f19de31f"},"vehicle_type_id":"4","last_reported":1704128785,"current_range_meters":19200,"station_id":"ce4bhl92rcd13ifvqghg","pricing_plan_id":"free"},{"bike_id":"e77bb6c7-1e0f-4bd1-aa8b-30414b46f243","system_id":"levelo_inurba_marseille","lat":43.2481,"lon":5.37456,"is_reserved":false,"is_disabled":false,"rental_uris":{"android":"levelo://app?vid=e77bb6c7-1e0f-4bd1-aa8b-30414b46f243","ios":"levelo://app?vid=e77bb6c7-1e0f-4bd1-aa8b-30414b46f243"},"vehicle_type_id":"4","last_reported":1704128785,"current_range_meters":26800,"station_id":"ce4bhgh2rcd13ifvqfb0","pricing_plan_id":"free"},{"bike_id":"3e66f750-c55f-44d7-b435-b04030071eaa","system_id":"levelo_inurba_marseille","lat":43.2479,"lon":5.374457,"is_reserved":false,"is_disabled":false,"rental_uris":{"android":"levelo://app?vid=3e66f750-c55f-44d7-b435-b04030071eaa","ios":"levelo://app?vid=3e66f750-c55f-44d7-b435-b04030071eaa"},"vehicle_type_id":"4","last_reported":1704128785,"current_range_meters":4000,"station_id":"ce4bhgh2rcd13ifvqfb0","pricing_plan_id":"free"},{"bike_id":"c1743a2c-61e7-4a7e-9f80-73d8cf77be75","system_id":"levelo_inurba_marseille","lat":43.257079,"lon":5.411051,"is_reserved":false,"is_disabled":false,"rental_uris":{"android":"levelo://app?vid=c1743a2c-61e7-4a7e-9f80-73d8cf77be75","ios":"levelo://app?vid=c1743a2c-61e7-4a7e-9f80-73d8cf77be75"},