{"last_updated":1731438399,"ttl":60,"version":"2.2","data":{"bikes":[{"bike_id":"1d7da949-dca2-40fa-812b-a179f08972ed","system_id":"levelo_inurba_marseille","lat":43.28483,"lon":5.38405,"is_reserved":false,"is_disabled":false,"rental_uris":{"android":"levelo://app?vid=1d7da949-dca2-40fa-812b-a179f08972ed","ios":"levelo://app?vid=1d7da949-dca2-40fa-812b-a179f08972ed"},"vehicle_type_id":"4","last_reported":1731438399,"current_range_meters":27200,"station_id":"ce4bh512rcd13ifvqe3g","pricing_plan_id":"cebpf4jnsgd1na2vs0mg"},{"bike_id":"4ecf88c0-77a6-4268-b158-1994aec5c096","system_id":"levelo_inurba_marseille","lat":43.31072,"lon":5.40092,"is_reserved":false,"is_disabled":false,"rental_uris":{"android":"levelo://app?vid=4ecf88c0-77a6-4268-b158-1994aec5c096","ios":"levelo://app?vid=4ecf88c0-77a6-4268-b158-1994aec5c096"},"vehicle_type_id":"4","last_reported":1731438399,"current_range_meters":4000,"station_id":"","pricing_plan_id":"cebpf4jnsgd1na2vs0mg"},{"bike_id":"9321cc4c-b7b8-4621-99af-a090505f2af8","system_id":"levelo_inurba_marseille","lat":43.28424,"lon":5.37514,"is_reserved":false,"is_disabled":false,"rental_uris":{"android":"levelo://app?vid=9321cc4c-b7b8-4621-99af-a090505f2af8","ios":"levelo://app?vid=9321cc4c-b7b8-4621-99af-a090505f2af8"},"vehicle_type_id":"4","last_reported":1731438399,"current_range_meters":3600,"station_id":"ce4bh412rcd13ifvqds0","pricing_plan_id":"cebpf4jnsgd1na2vs0mg"},{"bike_id":"e3302601-dafd-4911-99fe-3d1cec184d66","system_id":"levelo_inurba_marseille","lat":43.29535,"lon":5.39393,"is_reserved":false,"is_disabled":false,"rental_uris":{"android":"levelo://app?vid=e3302601-dafd-4911-99fe-3d1cec184d66","ios":"levelo://app?vid=e3302601-dafd-4911-99fe-3d1cec184d66"},"vehicle_type_id":"4","last_reported":1731438399,"current_range_meters":35200,"station_id":"ce4bh292rcd13ifvqdf0","pricing_plan_id":"cebpf4jnsgd1na2vs0mg"},{"bike_id":"32b9fb5c-72c7-40fa-b43d-660b6b2d8d9d","system_id":"levelo_inurba_marseille","lat":43.32343,"lon":5.40623,"is_reserved":false,"is_disabled":false,"rental_uris":{"android":"levelo://app?vid=32b9fb5c-72c7-40fa-b43d-660b6b2d8d9d","ios":"levelo://app?vid=32b9fb5c-72c7-40fa-b43d-660b6b2d8d9d"},"vehicle_type_id":"4","last_reported":1731438399,"current_range_meters":18000,"station_id":"ce4bhq92rcd13ifvqhjg","pricing_plan_id":"cebpf4jnsgd1na2vs0mg"},{"bike_id":"c4e00506-2f54-4afb-b23c-6fdb96d02c0e","system_id":"levelo_inurba_marseille","lat":43.23191,"lon":5.35559,"is_reserved":false,"is_disabled":false,"rental_uris":{"android":"levelo://app?vid=c4e00506-2f54-4afb-b23c-6fdb96d02c0e","ios":"levelo://app?vid=c4e00506-2f54-4afb-b23c-6fdb96d02c0e"},"vehicle_type_id":"4","last_reported":1731438399,"current_range_meters":24000,"station_id":"ce4bhu92rcd13ifvqi70","pricing_plan_id":"cebpf4jnsgd1na2vs0mg"},{"bike_id":"2be01fed-a00a-4ba6-8802-b7eee89768cc","system_id":"levelo_inurba_marseille","lat":43.31072,"lon":5.3835,"is_reserved":false,"is_disabled":false,"rental_uris":{"android":"levelo://app?vid=2be01fed-a00a-4ba6-8802-b7eee89768cc","ios":"levelo://app?vid=2be01fed-a00a-4ba6-8802-b7eee89768cc"},"vehicle_type_id":"4","last_reported":1731438399,"current_range_meters":16400,"station_id":"ce4bgv92rcd13ifvqcr0","pricing_plan_id":"cebpf4jnsgd1na2vs0mg"},{"bike_id":"18600b65-d922-4b26-8018-34b1e4d05724","system_id":"levelo_inurba_marseille","lat":43.27813,"lon":5.40715,"is_reserved":false,"is_disabled":false,"rental_uris":{"android":"levelo://app?vid=18600b65-d922-4b26-8018-34b1e4d05724","ios":"levelo://app?vid=18600b65-d922-4b26-8018-34b1e4d05724"},"vehicle_type_id":"4","last_reported":1731438399,"current_range_meters":39200,"station_id":"ce4bhnh2rcd13ifvqgtg","pricing_plan_id":"cebpf4jnsgd1na2vs0mg"},{"bike_id":"89fac154-5eaa-4d0f-84e5-21c9a8591366","system_id":"levelo_inurba_marseille","lat":43.29006,"lon":5.35604,"is_reserved":false,"is_disabled":false,"rental_uris":{"android":"levelo://app?vid=89fac154-5eaa-4d0f-84e5-21c9a8591366","ios":"levelo://app?vid=89fac154-5eaa-4d0f-84e5-21c9a8591366"},"vehicle_type_id":"4","last_reported":1731438399,"current_range_meters":39200,"station_id":"ce4bhb92rcd13ifvqen0","pricing_plan_id":"cebpf4jnsgd1na2vs0mg"},{"bike_id":"18df7c71-103d-4f7e-ac84-690ea0604d22","system_id":"levelo_inurba_marseille","lat":43.23196,"lon":5.35557,"is_reserved":false,"is_disabled":false,"rental_uris":{"android":"levelo://app?vid=18df7c71-103d-4f7e-ac84-690ea0604d22","ios":"levelo://app?vid=18df7c71-103d-4f7e-ac84-690ea0604d22"},"vehicle_type_id":"4","last_reported":1731438399,"current_range_meters":22000,"station_id":"ce4bhu92rcd13ifvqi70","pricing_plan_id":"cebpf4jnsgd1na2vs0mg"},{"bike_id":"6b228d07-4301-4a5b-9474-4b744d853bd2","system_id":"levelo_inurba_marseille","lat":43.32489,"lon":5.36565,"is_reserved":false,"is_disabled":false,"rental_uris":{"android":"levelo://app?vid=6b228d07-4301-4a5b-9474-4b744d853bd2","ios":"levelo://app?vid=6b228d07-4301-4a5b-9474-4b744d853bd2"},"vehicle_type_id":"4","last_reported":1731438399,"current_range_meters":24800,"station_id":"ce4bhs12rcd13ifvqhvg","pricing_plan_id":"cebpf4jnsgd1na2vs0mg"},{"bike_id":"08b576bb-db72-4765-beb3-6747da039575","system_id":"levelo_inurba_marseille","lat":43.2816,"lon":5.42635,"is_reserved":false,"is_disabled":false,"rental_uris":{"android":"levelo://app?vid=08b576bb-db72-4765-beb3-6747da039575","ios":"levelo://app?vid=08b576bb-db72-4765-beb3-6747da039575"},"vehicle_type_id":"4","last_reported":1731438399,"current_range_meters":9600,"station_id":"ce4bhnh2rcd13ifvqgug","pricing_plan_id":"cebpf4jnsgd1na2vs0mg"},{"bike_id":"7d87b85e-93cd-4582-82c9-874c09a2a874","system_id":"levelo_inurba_marseille","lat":43.27494,"lon":5.42451,"is_reserved":false,"is_disabled":false,"rental_uris":{"android":"levelo://app?vid=7d87b85e-93cd-4582-82c9-874c09a2a874","ios":"levelo://app?vid=7d87b85e-93cd-4582-82c9-874c09a2a874"},"vehicle_type_id":"4","last_reported":1731438399,"current_range_meters":9200,"station_id":"ce4bhn92rcd13ifvqgrg","pricing_plan_id":"cebpf4jnsgd1na2vs0mg"},{"bike_id":"5e9064af-c50f-4f89-8df1-2a9040e977e1","system_id":"levelo_inurba_marseille","lat":43.29314,"lon":5.3746,"is_reserved":false,"is_disabled":false,"rental_uris":{"android":"levelo://app?vid=5e9064af-c50f-4f89-8df1-2a9040e977e1","ios":"levelo://app?vid=5e9064af-c50f-4f89-8df1-2a9040e977e1"},"vehicle_type_id":"4","last_reported":1731438399,"current_range_meters":25600,"station_id":"ce4bgi12rcd13ifvqb70","pricing_plan_id":"cebpf4jnsgd1na2vs0mg"},{"bike_id":"92501b6a-7129-4fd6-b1c6-a0ff5a76a687","system_id":"levelo_inurba_marseille","lat":43.25087,"lon":5.39516,"is_reserved":false,"is_disabled":false,"rental_uris":{"android":"levelo://app?vid=92501b6a-7129-4fd6-b1c6-a0ff5a76a687","ios":"levelo://app?vid=92501b6a-7129-4fd6-b1c6-a0ff5a76a687"},"vehicle_type_id":"4","last_reported":1731438399,"current_range_meters":19200,"station_id":"ce4bhm12rcd13ifvqgkg","pricing_plan_id":"cebpf4jnsgd1na2vs0mg"},{"bike_id":"86f1feee-7efa-4d72-ae44-66404ff916fc","system_id":"levelo_inurba_marseille","lat":43.30911,"lon":5.36839,"is_reserved":false,"is_disabled":false,"rental_uris":{"android":"levelo://app?vid=86f1feee-7efa-4d72-ae44-66404ff916fc","ios":"levelo://app?vid=86f1feee-7efa-4d72-ae44-66404ff916fc"},"vehicle_type_id":"4","last_reported":1731438399,"current_range_meters":25200,"station_id":"ce4bgn92rcd13ifvqbvg","pricing_plan_id":"cebpf4jnsgd1na2vs0mg"},{"bike_id":"f15b2485-c866-40ff-a0ec-c64bc6896464","system_id":"levelo_inurba_marseille","lat":43.31065,"lon":5.38345,"is_reserved":false,"is_disabled":false,"rental_uris":{"android":"levelo://app?vid=f15b2485-c866-40ff-a0ec-c64bc6896464","ios":"levelo://app?vid=f15b2485-c866-40ff-a0ec-c64bc6896464"},"vehicle_type_id":"4","last_reported":1731438399,"current_range_meters":14800,"station_id":"ce4bgv92rcd13ifvqcr0","pricing_plan_id":"cebpf4jnsgd1na2vs0mg"},{"bike_id":"ec2bd622-564a-4344-81ef-f79e221200a1","system_id":"levelo_inurba_marseille","lat":43.25583,"lon":5.3823,"is_reserved":false,"is_disabled":false,"rental_uris":{"android":"levelo://app?vid=ec2bd622-564a-4344-81ef-f79e221200a1","ios":"levelo://app?vid=ec2bd622-564a-4344-81ef-f79e221200a1"},"vehicle_type_id":"4","last_reported":1731438399,"current_range_meters":27600,"station_id":"ce4bhih2rcd13ifvqfs0","pricing_plan_id":"cebpf4jnsgd1na2vs0mg"},{"bike_id":"e32c1aa5-ff1a-4282-a432-b2ba53e65f49","system_id":"levelo_inurba_marseille","lat":43.29713,"lon":5.3661,"is_reserved":false,"is_disabled":false,"rental_uris":{"android":"levelo://app?vid=e32c1aa5-ff1a-4282-a432-b2ba53e65f49","ios":"levelo://app?vid=e32c1aa5-ff1a-4282-a432-b2ba53e65f49"},"vehicle_type_id":"4","last_reported":1731438399,"current_range_meters":20400,"station_id":"ce4bgn12rcd13ifvqbt0","pricing_plan_id":"cebpf4jnsgd1na2vs0mg"},{"bike_id":"25b70a3a-40c7-4299-a2e9-c150bcc2f247","system_id":"levelo_inurba_marseille","lat":43.28464,"lon":5.35881,"is_reserved":false,"is_disabled":false,"rental_uris":{"android":"levelo://app?vid=25b70a3a-40c7-4299-a2e9-c150bcc2f247","ios":"levelo://app?vid=25b70a3a-40c7-4299-a2e9-c150bcc2f247"},"vehicle_type_id":"4","last_reported":1731438399,"current_range_meters":18800,"station_id":"ce4bhah2rcd13ifvqei0","pricing_plan_id":"cebpf4jnsgd1na2vs0mg"},{"bike_id":"131c48f7-325d-49f5-b51e-4c6b86326b57","system_id":"levelo_inurba_marseille","lat":43.30211,"lon":5.39468,"is_reserved":false,"is_disabled":false,"rental_uris":{"android":"levelo://app?vid=131c48f7-325d-49f5-b51e-4c6b86326b57","ios":"levelo://app?vid=131c48f7-325d-49f5-b51e-4c6b86326b57"},"vehicle_type_id":"4","last_reported":1731438399,"current_range_meters":38800,"station_id":"ce4bh0p2rcd13ifvqd70","pricing_plan_id":"cebpf4jnsgd1na2vs0mg"},{"bike_id":"3bdda338-e3ff-4c76-b169-cd8709eec0c3","system_id":"levelo_inurba_marseille","lat":43.29795,"lon":5.38091,"is_reserved":false,"is_disabled":false,"rental_uris":{"android":"levelo://app?vid=3bdda338-e3ff-4c76-b169-cd8709eec0c3","ios":"levelo://app?vid=3bdda338-e3ff-4c76-b169-cd8709eec0c3"},"vehicle_type_id":"4","last_reported":1731438399,"current_range_meters":30400,"station_id":"ce4bgip2rcd13ifvqbb0","pricing_plan_id":"cebpf4jnsgd1na2vs0mg"},{"bike_id":"1e6d59bd-28cd-4e09-b6e4-a60784365a06","system_id":"levelo_inurba_marseille","lat":43.27998,"lon":5.41666,"is_reserved":false,"is_disabled":false,"rental_uris":{"android":"levelo://app?vid=1e6d59bd-28cd-4e09-b6e4-a60784365a06","ios":"levelo://app?vid=1e6d59bd-28cd-4e09-b6e4-a60784365a06"},"vehicle_type_id":"4","last_reported":1731438399,"current_range_meters":32400,"station_id":"ce4bho12rcd13ifvqh1g","pricing_plan_id":"cebpf4jnsgd1na2vs0mg"},{"bike_id":"de1213ad-8538-49db-90f1-13c1562aa5c2","system_id":"levelo_inurba_marseille","lat":43.28618,"lon":5.35099,"is_reserved":false,"is_disabled":false,"rental_uris":{"android":"levelo://app?vid=de1213ad-8538-49db-90f1-13c1562aa5c2","ios":"levelo://app?vid=de1213ad-8538-49db-90f1-13c1562aa5c2"},"vehicle_type_id":"4","last_reported":1731438399,"current_range_meters":8400,"station_id":"ce4bhch2rcd13ifvqeug","pricing_plan_id":"cebpf4jnsgd1na2vs0mg"},{"bike_id":"5770bbd9-2c6e-4691-a76b-306c0fdae32c","system_id":"levelo_inurba_marseille","lat":43.28857,"lon":5.35855,"is_reserved":false,"is_disabled":false,"rental_uris":{"android":"levelo://app?vid=5770bbd9-2c6e-4691-a76b-306c0fdae32c","ios":"levelo://app?vid=5770bbd9-2c6e-4691-a76b-306c0fdae32c"},"vehicle_type_id":"4","last_reported":1731438399,"current_range_meters":32800,"station_id":"ce4bhb12rcd13ifvqem0","pricing_plan_id":"cebpf4jnsgd1na2vs0mg"},{"bike_id":"507284d9-4009-457e-bfa1-5ddbf58c6240","system_id":"levelo_inurba_marseille","lat":43.27175,"lon":5.40988,"is_reserved":false,"is_disabled":false,"rental_uris":{"android":"levelo://app?vid=507284d9-4009-457e-bfa1-5ddbf58c6240","ios":"levelo://app?vid=507284d9-4009-457e-bfa1-5ddbf58c6240"},"vehicle_type_id":"4","last_reported":1731438399,"current_range_meters":40000,"station_id":"ce4bhl12rcd13ifvqgf0","pricing_plan_id":"cebpf4jnsgd1na2vs0mg"},{"bike_id":"5585f7df-260f-4763-a77b-cec71622b344","system_id":"levelo_inurba_marseille","lat":43.32023,"lon":5.38124,"is_reserved":false,"is_disabled":false,"rental_uris":{"android":"levelo://app?vid=5585f7df-260f-4763-a77b-cec71622b344","ios":"levelo://app?vid=5585f7df-260f-4763-a77b-cec71622b344"},"vehicle_type_id":"4","last_reported":1731438399,"current_range_meters":31200,"station_id":"ce4bhr12rcd13ifvqhpg","pricing_plan_id":"cebpf4jnsgd1na2vs0mg"},{"bike_id":"fffa400e-f633-4a32-aa79-78e1bcdd8ab7","system_id":"levelo_inurba_marseille","lat":43.284146,"lon":5.385582,"is_reserved":false,"is_disabled":false,"rental_uris":{"android":"levelo://app?vid=fffa400e-f633-4a32-aa79-78e1bcdd8ab7","ios":"levelo://app?vid=fffa400e-f633-4a32-aa79-78e1bcdd8ab7"},"vehicle_type_id":"4","last_reported":1731438399,"current_range_meters":37600,"station_id":"ce4bh492rcd13ifvqdvg","pricing_plan_id":"cebpf4jnsgd1na2vs0mg"},{"bike_id":"e513d5e8-7e69-48d1-b1a5-1bc3f62df761","system_id":"levelo_inurba_marseille","lat":43.309518,"lon":5.390258,"is_reserved":false,"is_disabled":false,"rental_uris":{"android":"levelo://app?vid=e513d5e8-7e69-48d1-b1a5-1bc3f62df761","ios":"levelo://app?vid=e513d5e8-7e69-48d1-b1a5-1bc3f62df761"},"vehicle_type_id":"4","last_reported":1731438399,"current_range_meters":20400,"station_id":"ce4bgup2rcd13ifvqco0","pricing_plan_id":"cebpf4jnsgd1na2vs0mg"},{"bike_id":"44a85343-f177-4904-8616-4b62e063a17c","system_id":"levelo_inurba_marseille","lat":43.29002,"lon":5.35613,"is_reserved":false,"is_disabled":false,"rental_uris":{"android":"levelo://app?vid=44a85343-f177-4904-8616-4b62e063a17c","ios":"levelo://app?vid=44a85343-f177-4904-8616-4b62e063a17c"},"vehicle_type_id":"4","last_reported":1731438399,"current_range_meters":39200,"station_id":"ce4bhb92rcd13ifvqen0","pricing_plan_id":"cebpf4jnsgd1na2vs0mg"},{"bike_id":"0c16ce1e-70c2-4d1f-b546-d3a2156323ff","system_id":"levelo_inurba_marseille","lat":43.27814,"lon":5.40712,"is_reserved":false,"is_disabled":false,"rental_uris":{"android":"levelo://app?vid=0c16ce1e-70c2-4d1f-b546-d3a2156323ff","ios":"levelo://app?vid=0c16ce1e-70c2-4d1f-b546-d3a2156323ff"},"vehicle_type_id":"4","last_reported":1731438399,"current_range_meters":32400,"station_id":"ce4bhnh2rcd13ifvqgtg","pricing_plan_id":"cebpf4jnsgd1na2vs0mg"},{"bike_id":"545b5284-2b5f-4c76-b6de-050eba91d10e","system_id":"levelo_inurba_marseille","lat":43.24802,"lon":5.37457,"is_reserved":false,"is_disabled":false,"rental_uris":{"android":"levelo://app?vid=545b5284-2b5f-4c76-b6de-050eba91d10e","ios":"levelo://app?vid=545b5284-2b5f-4c76-b6de-050eba91d10e"},"vehicle_type_id":"4","last_reported":1731438399,"current_range_meters":6400,"station_id":"ce4bhgh2rcd13ifvqfb0","pricing_plan_id":"cebpf4jnsgd1na2vs0mg"},{"bike_id":"32455e37-0756-4ac0-8e1a-f473e5d36f3a","system_id":"levelo_inurba_marseille","lat":43.33026,"lon":5.39041,"is_reserved":false,"is_disabled":false,"rental_uris":{"android":"levelo://app?vid=32455e37-0756-4ac0-8e1a-f473e5d36f3a","ios":"levelo://app?vid=32455e37-0756-4ac0-8e1a-f473e5d36f3a"},"vehicle_type_id":"4","last_reported":1731438399,"current_range_meters":10800,"station_id":"ce4bhr92rcd13ifvqhrg","pricing_plan_id":"cebpf4jnsgd1na2vs0mg"},{"bike_id":"d5943862-203f-48ea-92c4-5ad0cb7262bb","system_id":"levelo_inurba_marseille","lat":43.31336,"lon":5.39692,"is_reserved":false,"is_disabled":false,"rental_uris":{"android":"levelo://app?vid=d5943862-203f-48ea-92c4-5ad0cb7262bb","ios":"levelo://app?vid=d5943862-203f-48ea-92c4-5ad0cb7262bb"},"vehicle_type_id":"4","last_reported":1731438399,"current_range_meters":34800,"station_id":"ce4bgvp2rcd13ifvqcu0","pricing_plan_id":"cebpf4jnsgd1na2vs0mg"},{"bike_id":"d265751d-fa37-4729-b8e3-a5848e7e9d07","system_id":"levelo_inurba_marseille","lat":43.24804,"lon":5.37455,"is_reserved":false,"is_disabled":false,"rental_uris":{"android":"levelo://app?vid=d265751d-fa37-4729-b8e3-a5848e7e9d07","ios":"levelo://app?vid=d265751d-fa37-4729-b8e3-a5848e7e9d07"},"vehicle_type_id":"4","last_reported":1731438399,"current_range_meters":38800,"station_id":"ce4bhgh2rcd13ifvqfb0","pricing_plan_id":"cebpf4jnsgd1na2vs0mg"},{"bike_id":"e4557244-baef-4fb7-ae0e-00398e2706db","system_id":"levelo_inurba_marseille","lat":43.28465,"lon":5.35886,"is_reserved":false,"is_disabled":false,"rental_uris":{"android":"levelo://app?vid=e4557244-baef-4fb7-ae0e-00398e2706db","ios":"levelo://app?vid=e4557244-baef-4fb7-ae0e-00398e2706db"},"vehicle_type_id":"4","last_reported":1731438399,"current_range_meters":28000,"station_id":"ce4bhah2rcd13ifvqei0","pricing_plan_id":"cebpf4jnsgd1na2vs0mg"},{"bike_id":"f6ab6a11-7b1f-4725-a4fc-55ac9756602b","system_id":"levelo_inurba_marseille","lat":43.23196,"lon":5.35552,"is_reserved":false,"is_disabled":false,"rental_uris":{"android":"levelo://app?vid=f6ab6a11-7b1f-4725-a4fc-55ac9756602b","ios":"levelo://app?vid=f6ab6a11-7b1f-4725-a4fc-55ac9756602b"},"vehicle_type_id":"4","last_reported":1731438399,"current_range_meters":22400,"station_id":"ce4bhu92rcd13ifvqi70","pricing_plan_id":"cebpf4jnsgd1na2vs0mg"},{"bike_id":"26a2d6a7-4fa8-4809-8a08-65a4babf4a73","system_id":"levelo_inurba_marseille","lat":43.30973,"lon":5.37285,"is_reserved":false,"is_disabled":false,"rental_uris":{"android":"levelo://app?vid=26a2d6a7-4fa8-4809-8a08-65a4babf4a73","ios":"levelo://app?vid=26a2d6a7-4fa8-4809-8a08-65a4babf4a73"},"vehicle_type_id":"4","last_reported":1731438399,"current_range_meters":21600,"station_id":"","pricing_plan_id":"cebpf4jnsgd1na2vs0mg"},{"bike_id":"14995115-d532-4496-9a51-993f33945250","system_id":"levelo_inurba_marseille","lat":43.28717,"lon":5.37943,"is_reserved":false,"is_disabled":false,"rental_uris":{"android":"levelo://app?vid=14995115-d532-4496-9a51-993f33945250","ios":"levelo://app?vid=14995115-d532-4496-9a51-993f33945250"},"vehicle_type_id":"4","last_reported":1731438399,"current_range_meters":38800,"station_id":"ce4bh9p2rcd13ifvqec0","pricing_plan_id":"cebpf4jnsgd1na2vs0mg"},{"bike_id":"3922a5eb-6156-4c8a-a09b-14fee498ab0f","system_id":"levelo_inurba_marseille","lat":43.27069,"lon":5.42279,"is_reserved":false,"is_disabled":false,"rental_uris":{"android":"levelo://app?vid=3922a5eb-6156-4c8a-a09b-14fee498ab0f","ios":"levelo://app?vid=3922a5eb-6156-4c8a-a09b-14fee498ab0f"},"vehicle_type_id":"4","last_reported":1731438399,"current_range_meters":35600,"station_id":"ce4bhk92rcd13ifvqgb0","pricing_plan_id":"cebpf4jnsgd1na2vs0mg"},{"bike_id":"61fecd63-b608-4453-b03a-5f467b8e7514","system_id":"levelo_inurba_marseille","lat":43.31333,"lon":5.39691,"is_reserved":false,"is_disabled":false,"rental_uris":{"android":"levelo://app?vid=61fecd63-b608-4453-b03a-5f467b8e7514","ios":"levelo://app?vid=61fecd63-b608-4453-b03a-5f467b8e7514"},"vehicle_type_id":"4","last_reported":1731438399,"current_range_meters":22400,"station_id":"ce4bgvp2rcd13ifvqcu0","pricing_plan_id":"cebpf4jnsgd1na2vs0mg"},{"bike_id":"9c6e8335-7b55-4c15-8665-29190ffcd09f","system_id":"levelo_inurba_marseille","lat":43.26564,"lon":5.38999,"is_reserved":false,"is_disabled":false,"rental_uris":{"android":"levelo://app?vid=9c6e8335-7b55-4c15-8665-29190ffcd09f","ios":"levelo://app?vid=9c6e8335-7b55-4c15-8665-29190ffcd09f"},"vehicle_type_id":"4","last_reported":1731438399,"current_range_meters":16400,"station_id":"ce4bhe12rcd13ifvqf30","pricing_plan_id":"cebpf4jnsgd1na2vs0mg"},{"bike_id":"643acdb3-4fdc-4eb0-be6f-5155ce023638","system_id":"levelo_inurba_marseille","lat":43.22933,"lon":5.35376,"is_reserved":false,"is_disabled":false,"rental_uris":{"android":"levelo://app?vid=643acdb3-4fdc-4eb0-be6f-5155ce023638","ios":"levelo://app?vid=643acdb3-4fdc-4eb0-be6f-5155ce023638"},"vehicle_type_id":"4","last_reported":1731438399,"current_range_meters":23200,"station_id":"cpo3532slgdg3j2ikp40","pricing_plan_id":"cebpf4jnsgd1na2vs0mg"},{"bike_id":"cabd32d1-ee14-437f-9c0a-9dc62638f451","system_id":"levelo_inurba_marseille","lat":43.31687,"lon":5.40477,"is_reserved":false,"is_disabled":false,"rental_uris":{"android":"levelo://app?vid=cabd32d1-ee14-437f-9c0a-9dc62638f451","ios":"levelo://app?vid=cabd32d1-ee14-437f-9c0a-9dc62638f451"},"vehicle_type_id":"4","last_reported":1731438399,"current_range_meters":4800,"station_id":"ce4bh012rcd13ifvqd00","pricing_plan_id":"cebpf4jnsgd1na2vs0mg"},{"bike_id":"4ea09c0a-69d0-4a4b-ac6d-f8d9d70b9f13","system_id":"levelo_inurba_marseille","lat":43.28461,"lon":5.35889,"is_reserved":false,"is_disabled":false,"rental_uris":{"android":"levelo://app?vid=4ea09c0a-69d0-4a4b-ac6d-f8d9d70b9f13","ios":"levelo://app?vid=4ea09c0a-69d0-4a4b-ac6d-f8d9d70b9f13"},"vehicle_type_id":"4","last_reported":1731438399,"current_range_meters":35200,"station_id":"ce4bhah2rcd13ifvqei0","pricing_plan_id":"cebpf4jnsgd1na2vs0mg"},{"bike_id":"5072a353-eabe-4a56-91dd-8bf8a0d02063","system_id":"levelo_inurba_marseille","lat":43.290408,"lon":5.399606,"is_reserved":false,"is_disabled":false,"rental_uris":{"android":"levelo://app?vid=5072a353-eabe-4a56-91dd-8bf8a0d02063","ios":"levelo://app?vid=5072a353-eabe-4a56-91dd-8bf8a0d02063"},"vehicle_type_id":"4","last_reported":1731438399,"current_range_meters":30800,"station_id":"ce4bh392rcd13ifvqdm0","pricing_plan_id":"cebpf4jnsgd1na2vs0mg"},{"bike_id":"253a12c5-006f-4195-a5e6-b6dd3f5e3125","system_id":"levelo_inurba_marseille","lat":43.29442,"lon":5.39752,"is_reserved":false,"is_disabled":false,"rental_uris":{"android":"levelo://app?vid=253a12c5-006f-4195-a5e6-b6dd3f5e3125","ios":"levelo://app?vid=253a12c5-006f-4195-a5e6-b6dd3f5e3125"},"vehicle_type_id":"4","last_reported":1731438399,"current_range_meters":34800,"station_id":"ce4bh3h2rcd13ifvqdo0","pricing_plan_id":"cebpf4jnsgd1na2vs0mg"},{"bike_id":"8590e4ae-d91a-4e64-9530-614abe01d2a4","system_id":"levelo_inurba_marseille","lat":43.27206,"lon":5.39184,"is_reserved":false,"is_disabled":false,"rental_uris":{"android":"levelo://app?vid=8590e4ae-d91a-4e64-9530-614abe01d2a4","ios":"levelo://app?vid=8590e4ae-d91a-4e64-9530-614abe01d2a4"},"vehicle_type_id":"4","last_reported":1731438399,"current_range_meters":15200,"station_id":"ce4bhhp2rcd13ifvqfm0","pricing_plan_id":"cebpf4jnsgd1na2vs0mg"},{"bike_id":"7d250492-b878-490b-8fb4-bee304bc7d48","system_id":"levelo_inurba_marseille","lat":43.29521,"lon":5.39036,"is_reserved":false,"is_disabled":false,"rental_uris":{"android":"levelo://app?vid=7d250492-b878-490b-8fb4-bee304bc7d48","ios":"levelo://app?vid=7d250492-b878-490b-8fb4-bee304bc7d48"},"vehicle_type_id":"4","last_reported":1731438399,"current_range_meters":32800,"station_id":"ce4bh3p2rcd13ifvqdp0","pricing_plan_id":"cebpf4jnsgd1na2vs0mg"},{"bike_id":"2f7c0ff4-f529-409a-83cd-35a4539bd82f","system_id":"levelo_inurba_marseille","lat":43.24074,"lon":5.3776,"is_reserved":false,"is_disabled":false,"rental_uris":{"android":"levelo://app?vid=2f7c0ff4-f529-409a-83cd-35a4539bd82f","ios":"levelo://app?vid=2f7c0ff4-f529-409a-83cd-35a4539bd82f"},"vehicle_type_id":"4","last_reported":1731438399,"current_range_meters":27600,"station_id":"ce4bhnp2rcd13ifvqgvg","pricing_plan_id":"cebpf4jnsgd1na2vs0mg"},{"bike_id":"1c823daa-54e3-4fdc-ac69-748d400a7157","system_id":"levelo_inurba_marseille","lat":43.28108,"lon":5.37837,"is_reserved":false,"is_disabled":false,"rental_uris":{"android":"levelo://app?vid=1c823daa-54e3-4fdc-ac69-748d400a7157","ios":"levelo://app?vid=1c823daa-54e3-4fdc-ac69-748d400a7157"},"vehicle_type_id":"4","last_reported":1731438399,"current_range_meters":38000,"station_id":"ce4bha12rcd13ifvqee0","pricing_plan_id":"cebpf4jnsgd1na2vs0mg"},{"bike_id":"310bf956-2d0c-40fb-9411-0b80e8e2b383","system_id":"levelo_inurba_marseille","lat":43.30324,"lon":5.40442,"is_reserved":false,"is_disabled":false,"rental_uris":{"android":"levelo://app?vid=310bf956-2d0c-40fb-9411-0b80e8e2b383","ios":"levelo://app?vid=310bf956-2d0c-40fb-9411-0b80e8e2b383"},"vehicle_type_id":"4","last_reported":1731438399,"current_range_meters":38800,"station_id":"ce4bh012rcd13ifvqd10","pricing_plan_id":"cebpf4jnsgd1na2vs0mg"},{"bike_id":"e8e02d9c-9f18-44fb-893f-40424ddd086b","system_id":"levelo_inurba_marseille","lat":43.28467,"lon":5.35887,"is_reserved":false,"is_disabled":false,"rental_uris":{"android":"levelo://app?vid=e8e02d9c-9f18-44fb-893f-40424ddd086b","ios":"levelo://app?vid=e8e02d9c-9f18-44fb-893f-40424ddd086b"},"vehicle_type_id":"4","last_reported":1731438399,"current_range_meters":39200,"station_id":"ce4bhah2rcd13ifvqei0","pricing_plan_id":"cebpf4jnsgd1na2vs0mg"},{"bike_id":"82e98470-11c0-4399-ad83-59956d6b4baa","system_id":"levelo_inurba_marseille","lat":43.30592,"lon":5.39353,"is_reserved":false,"is_disabled":false,"rental_uris":{"android":"levelo://app?vid=82e98470-11c0-4399-ad83-59956d6b4baa","ios":"levelo://app?vid=82e98470-11c0-4399-ad83-59956d6b4baa"},"vehicle_type_id":"4","last_reported":1731438399,"current_range_meters":13600,"station_id":"ce4bh0p2rcd13ifvqd80","pricing_plan_id":"cebpf4jnsgd1na2vs0mg"},{"bike_id":"b0843d66-5916-4a06-86f1-73ac0aafef65","system_id":"levelo_inurba_marseille","lat":43.31753,"lon":5.39014,"is_reserved":false,"is_disabled":false,"rental_uris":{"android":"levelo://app?vid=b0843d66-5916-4a06-86f1-73ac0aafef65","ios":"levelo://app?vid=b0843d66-5916-4a06-86f1-73ac0aafef65"},"vehicle_type_id":"4","last_reported":1731438399,"current_range_meters":34800,"station_id":"ce4bhqp2rcd13ifvqhng","pricing_plan_id":"cebpf4jnsgd1na2vs0mg"},{"bike_id":"1740a8aa-c44f-4c36-a230-385a32395a5f","system_id":"levelo_inurba_marseille","lat":43.28721,"lon":5.3608,"is_reserved":false,"is_disabled":false,"rental_uris":{"android":"levelo://app?vid=1740a8aa-c44f-4c36-a230-385a32395a5f","ios":"levelo://app?vid=1740a8aa-c44f-4c36-a230-385a32395a5f"},"vehicle_type_id":"4","last_reported":1731438399,"current_range_meters":38800,"station_id":"cki0cbj6b192h4jlfktg","pricing_plan_id":"cebpf4jnsgd1na2vs0mg"},{"bike_id":"279e7387-2aa6-4fe0-952b-39bf3dc9e040","system_id":"levelo_inurba_marseille","lat":43.22932,"lon":5.35379,"is_reserved":false,"is_disabled":false,"rental_uris":{"android":"levelo://app?vid=279e7387-2aa6-4fe0-952b-39bf3dc9e040","ios":"levelo://app?vid=279e7387-2aa6-4fe0-952b-39bf3dc9e040"},"vehicle_type_id":"4","last_reported":1731438399,"current_range_meters":8800,"station_id":"cpo3532slgdg3j2ikp40","pricing_plan_id":"cebpf4jnsgd1na2vs0mg"},{"bike_id":"414f8b07-37f6-4725-9e7e-60506af50cd6","system_id":"levelo_inurba_marseille","lat":43.29264,"lon":5.38439,"is_reserved":false,"is_disabled":false,"rental_uris":{"android":"levelo://app?vid=414f8b07-37f6-4725-9e7e-60506af50cd6","ios":"levelo://app?vid=414f8b07-37f6-4725-9e7e-60506af50cd6"},"vehicle_type_id":"4","last_reported":1731438399,"current_range_meters":6000,"station_id":"ce4bh692rcd13ifvqea0","pricing_plan_id":"cebpf4jnsgd1na2vs0mg"},{"bike_id":"bffb9ad5-11f9-4ac1-bc93-daa95e4d74a2","system_id":"levelo_inurba_marseille","lat":43.23186,"lon":5.39982,"is_reserved":false,"is_disabled":false,"rental_uris":{"android":"levelo://app?vid=bffb9ad5-11f9-4ac1-bc93-daa95e4d74a2","ios":"levelo://app?vid=bffb9ad5-11f9-4ac1-bc93-daa95e4d74a2"},"vehicle_type_id":"4","last_reported":1731438399,"current_range_meters":38800,"station_id":"ce4bhn12rcd13ifvqgqg","pricing_plan_id":"cebpf4jnsgd1na2vs0mg"},{"bike_id":"ad3c56dd-1801-4517-816f-e4affc1518c5","system_id":"levelo_inurba_marseille","lat":43.29257,"lon":5.40912,"is_reserved":false,"is_disabled":false,"rental_uris":{"android":"levelo://app?vid=ad3c56dd-1801-4517-816f-e4affc1518c5","ios":"levelo://app?vid=ad3c56dd-1801-4517-816f-e4affc1518c5"},"vehicle_type_id":"4","last_reported":1731438399,"current_range_meters":38800,"station_id":"ce4bh192rcd13ifvqdc0","pricing_plan_id":"cebpf4jnsgd1na2vs0mg"},{"bike_id":"7de8e655-df9b-45fc-8982-9a2d00a0ff2b","system_id":"levelo_inurba_marseille","lat":43.24667,"lon":5.38164,"is_reserved":false,"is_disabled":false,"rental_uris":{"android":"levelo://app?vid=7de8e655-df9b-45fc-8982-9a2d00a0ff2b","ios":"levelo://app?vid=7de8e655-df9b-45fc-8982-9a2d00a0ff2b"},"vehicle_type_id":"4","last_reported":1731438399,"current_range_meters":34800,"station_id":"ce4bhih2rcd13ifvqfr0","pricing_plan_id":"cebpf4jnsgd1na2vs0mg"},{"bike_id":"3a6533c9-5044-4b9f-a02e-c224d31828ff","system_id":"levelo_inurba_marseille","lat":43.2916,"lon":5.37153,"is_reserved":false,"is_disabled":false,"rental_uris":{"android":"levelo://app?vid=3a6533c9-5044-4b9f-a02e-c224d31828ff","ios":"levelo://app?vid=3a6533c9-5044-4b9f-a02e-c224d31828ff"},"vehicle_type_id":"4","last_reported":1731438399,"current_range_meters":12400,"station_id":"ce4bha92rcd13ifvqeh0","pricing_plan_id":"cebpf4jnsgd1na2vs0mg"},{"bike_id":"eed71474-32a6-4164-bcfa-ab05b54ae0d3","system_id":"levelo_inurba_marseille","lat":43.30235,"lon":5.40056,"is_reserved":false,"is_disabled":false,"rental_uris":{"android":"levelo://app?vid=eed71474-32a6-4164-bcfa-ab05b54ae0d3","ios":"levelo://app?vid=eed71474-32a6-4164-bcfa-ab05b54ae0d3"},"vehicle_type_id":"4","last_reported":1731438399,"current_range_meters":13600,"station_id":"ce4bgvh2rcd13ifvqcs0","pricing_plan_id":"cebpf4jnsgd1na2vs0mg"},{"bike_id":"0533d407-0885-441e-afcd-c99a726d8cbf","system_id":"levelo_inurba_marseille","lat":43.2885,"lon":5.35856,"is_reserved":false,"is_disabled":false,"rental_uris":{"android":"levelo://app?vid=0533d407-0885-441e-afcd-c99a726d8cbf","ios":"levelo://app?vid=0533d407-0885-441e-afcd-c99a726d8cbf"},"vehicle_type_id":"4","last_reported":1731438399,"current_range_meters":6800,"station_id":"ce4bhb12rcd13ifvqem0","pricing_plan_id":"cebpf4jnsgd1na2vs0mg"},{"bike_id":"d7263090-4e41-407d-9271-2db32801f77e","system_id":"levelo_inurba_marseille","lat":43.27837,"lon":5.39197,"is_reserved":false,"is_disabled":false,"rental_uris":{"android":"levelo://app?vid=d7263090-4e41-407d-9271-2db32801f77e","ios":"levelo://app?vid=d7263090-4e41-407d-9271-2db32801f77e"},"vehicle_type_id":"4","last_reported":1731438399,"current_range_meters":28800,"station_id":"ce4bhjp2rcd13ifvqga0","pricing_plan_id":"cebpf4jnsgd1na2vs0mg"},{"bike_id":"f6eacb2e-c0ca-4e69-b150-d867981fc1e4","system_id":"levelo_inurba_marseille","lat":43.28986,"lon":5.37816,"is_reserved":false,"is_disabled":false,"rental_uris":{"android":"levelo://app?vid=f6eacb2e-c0ca-4e69-b150-d867981fc1e4","ios":"levelo://app?vid=f6eacb2e-c0ca-4e69-b150-d867981fc1e4"},"vehicle_type_id":"4","last_reported":1731438399,"current_range_meters":30000,"station_id":"ce4bh9p2rcd13ifvqed0","pricing_plan_id":"cebpf4jnsgd1na2vs0mg"},{"bike_id":"a93f524c-1914-4fc3-923e-13a0a3dd24d2","system_id":"levelo_inurba_marseille","lat":43.29551,"lon":5.42295,"is_reserved":false,"is_disabled":false,"rental_uris":{"android":"levelo://app?vid=a93f524c-1914-4fc3-923e-13a0a3dd24d2","ios":"levelo://app?vid=a93f524c-1914-4fc3-923e-13a0a3dd24d2"},"vehicle_type_id":"4","last_reported":1731438399,"current_range_meters":21600,"station_id":"ce4bhph2rcd13ifvqhdg","pricing_plan_id":"cebpf4jnsgd1na2vs0mg"},{"bike_id":"647d87d8-ed03-4344-9ce2-6aeae85a7109","system_id":"levelo_inurba_marseille","lat":43.2857,"lon":5.39493,"is_reserved":false,"is_disabled":false,"rental_uris":{"android":"levelo://app?vid=647d87d8-ed03-4344-9ce2-6aeae85a7109","ios":"levelo://app?vid=647d87d8-ed03-4344-9ce2-6aeae85a7109"},"vehicle_type_id":"4","last_reported":1731438399,"current_range_meters":38800,"station_id":"ce4bh292rcd13ifvqdg0","pricing_plan_id":"cebpf4jnsgd1na2vs0mg"},{"bike_id":"b006f22f-269a-46a7-b220-e64237870ed6","system_id":"levelo_inurba_marseille","lat":43.27172,"lon":5.40991,"is_reserved":false,"is_disabled":false,"rental_uris":{"android":"levelo://app?vid=b006f22f-269a-46a7-b220-e64237870ed6","ios":"levelo://app?vid=b006f22f-269a-46a7-b220-e64237870ed6"},"vehicle_type_id":"4","last_reported":1731438399,"current_range_meters":6400,"station_id":"ce4bhl12rcd13ifvqgf0","pricing_plan_id":"cebpf4jnsgd1na2vs0mg"},{"bike_id":"a4b6d270-8a6e-4716-a83e-fe9575fea649","system_id":"levelo_inurba_marseille","lat":43.24075,"lon":5.37763,"is_reserved":false,"is_disabled":false,"rental_uris":{"android":"levelo://app?vid=a4b6d270-8a6e-4716-a83e-fe9575fea649","ios":"levelo://app?vid=a4b6d270-8a6e-4716-a83e-fe9575fea649"},"vehicle_type_id":"4","last_reported":1731438399,"current_range_meters":6000,"station_id":"ce4bhnp2rcd13ifvqgvg","pricing_plan_id":"cebpf4jnsgd1na2vs0mg"},{"bike_id":"ac5501a9-cd92-46be-9b01-66b8a10f5b68","system_id":"levelo_inurba_marseille","lat":43.28105,"lon":5.37837,"is_reserved":false,"is_disabled":false,"rental_uris":{"android":"levelo://app?vid=ac5501a9-cd92-46be-9b01-66b8a10f5b68","ios":"levelo://app?vid=ac5501a9-cd92-46be-9b01-66b8a10f5b68"},"vehicle_type_id":"4","last_reported":1731438399,"current_range_meters":36800,"station_id":"ce4bha12rcd13ifvqee0","pricing_plan_id":"cebpf4jnsgd1na2vs0mg"},{"bike_id":"64628101-f202-440b-83b0-c9f25076dd30","system_id":"levelo_inurba_marseille","lat":43.28414,"lon":5.37513,"is_reserved":false,"is_disabled":false,"rental_uris":{"android":"levelo://app?vid=64628101-f202-440b-83b0-c9f25076dd30","ios":"levelo://app?vid=64628101-f202-440b-83b0-c9f25076dd30"},"vehicle_type_id":"4","last_reported":1731438399,"current_range_meters":9600,"station_id":"ce4bh412rcd13ifvqds0","pricing_plan_id":"cebpf4jnsgd1na2vs0mg"},{"bike_id":"22b6d7d4-f5e9-441e-baeb-bcfd84be88b4","system_id":"levelo_inurba_marseille","lat":43.28864,"lon":5.35834,"is_reserved":false,"is_disabled":false,"rental_uris":{"android":"levelo://app?vid=22b6d7d4-f5e9-441e-baeb-bcfd84be88b4","ios":"levelo://app?vid=22b6d7d4-f5e9-441e-baeb-bcfd84be88b4"},"vehicle_type_id":"4","last_reported":1731438399,"current_range_meters":36800,"station_id":"ce4bhb12rcd13ifvqem0","pricing_plan_id":"cebpf4jnsgd1na2vs0mg"},{"bike_id":"65715c3f-614c-464f-af5f-e10124002dd8","system_id":"levelo_inurba_marseille","lat":43.31528,"lon":5.38029,"is_reserved":false,"is_disabled":false,"rental_uris":{"android":"levelo://app?vid=65715c3f-614c-464f-af5f-e10124002dd8","ios":"levelo://app?vid=65715c3f-614c-464f-af5f-e10124002dd8"},"vehicle_type_id":"4","last_reported":1731438399,"current_range_meters":38800,"station_id":"ce4bhsp2rcd13ifvqi50","pricing_plan_id":"cebpf4jnsgd1na2vs0mg"},{"bike_id":"22e180e6-24f2-4ab6-80da-3b2e910228b6","system_id":"levelo_inurba_marseille","lat":43.30095,"lon":5.39086,"is_reserved":false,"is_disabled":false,"rental_uris":{"android":"levelo://app?vid=22e180e6-24f2-4ab6-80da-3b2e910228b6","ios":"levelo://app?vid=22e180e6-24f2-4ab6-80da-3b2e910228b6"},"vehicle_type_id":"4","last_reported":1731438399,"current_range_meters":20800,"station_id":"ce4bh192rcd13ifvqdb0","pricing_plan_id":"cebpf4jnsgd1na2vs0mg"},{"bike_id":"96e928d1-13a1-4310-a464-3d7a2cd58567","system_id":"levelo_inurba_marseille","lat":43.309311,"lon":5.390516,"is_reserved":false,"is_disabled":false,"rental_uris":{"android":"levelo://app?vid=96e928d1-13a1-4310-a464-3d7a2cd58567","ios":"levelo://app?vid=96e928d1-13a1-4310-a464-3d7a2cd58567"},"vehicle_type_id":"4","last_reported":1731438399,"current_range_meters":12000,"station_id":"ce4bgup2rcd13ifvqco0","pricing_plan_id":"cebpf4jnsgd1na2vs0mg"},{"bike_id":"00090ebe-df58-4cfb-a1b3-37deebdb9913","system_id":"levelo_inurba_marseille","lat":43.28954,"lon":5.35779,"is_reserved":false,"is_disabled":false,"rental_uris":{"android":"levelo://app?vid=00090ebe-df58-4cfb-a1b3-37deebdb9913","ios":"levelo://app?vid=00090ebe-df58-4cfb-a1b3-37deebdb9913"},"vehicle_type_id":"4","last_reported":1731438399,"current_range_meters":28400,"station_id":"","pricing_plan_id":"cebpf4jnsgd1na2vs0mg"},{"bike_id":"66666f45-6562-4a25-905a-788c606fb154","system_id":"levelo_inurba_marseille","lat":43.27922,"lon":5.39587,"is_reserved":false,"is_disabled":false,"rental_uris":{"android":"levelo://app?vid=66666f45-6562-4a25-905a-788c606fb154","ios":"levelo://app?vid=66666f45-6562-4a25-905a-788c606fb154"},"vehicle_type_id":"4","last_reported":1731438399,"current_range_meters":17600,"station_id":"ce4bhf92rcd13ifvqf40","pricing_plan_id":"cebpf4jnsgd1na2vs0mg"},{"bike_id":"cc2b55d3-ce0a-4c0f-ae9d-3bb945b6050b","system_id":"levelo_inurba_marseille","lat":43.28838,"lon":5.39306,"is_reserved":false,"is_disabled":false,"rental_uris":{"android":"levelo://app?vid=cc2b55d3-ce0a-4c0f-ae9d-3bb945b6050b","ios":"levelo://app?vid=cc2b55d3-ce0a-4c0f-ae9d-3bb945b6050b"},"vehicle_type_id":"4","last_reported":1731438399,"current_range_meters":28400,"station_id":"ce4bh2p2rcd13ifvqdi0","pricing_plan_id":"cebpf4jnsgd1na2vs0mg"},{"bike_id":"02a3f1fa-1b00-4bb2-8845-d89d50875ff5","system_id":"levelo_inurba_marseille","lat":43.32361,"lon":5.38883,"is_reserved":false,"is_disabled":false,"rental_uris":{"android":"levelo://app?vid=02a3f1fa-1b00-4bb2-8845-d89d50875ff5","ios":"levelo://app?vid=02a3f1fa-1b00-4bb2-8845-d89d50875ff5"},"vehicle_type_id":"4","last_reported":1731438399,"current_range_meters":36000,"station_id":"ce4bhqp2rcd13ifvqhog","pricing_plan_id":"cebpf4jnsgd1na2vs0mg"},{"bike_id":"91396e2c-9f64-4b07-9603-7237ff652da5","system_id":"levelo_inurba_marseille","lat":43.28156,"lon":5.42642,"is_reserved":false,"is_disabled":false,"rental_uris":{"android":"levelo://app?vid=91396e2c-9f64-4b07-9603-7237ff652da5","ios":"levelo://app?vid=91396e2c-9f64-4b07-9603-7237ff652da5"},"vehicle_type_id":"4","last_reported":1731438399,"current_range_meters":36800,"station_id":"ce4bhnh2rcd13ifvqgug","pricing_plan_id":"cebpf4jnsgd1na2vs0mg"},{"bike_id":"3fc8e131-ee97-4bd0-9956-4d476a1f6edb","system_id":"levelo_inurba_marseille","lat":43.27915,"lon":5.39588,"is_reserved":false,"is_disabled":false,"rental_uris":{"android":"levelo://app?vid=3fc8e131-ee97-4bd0-9956-4d476a1f6edb","ios":"levelo://app?vid=3fc8e131-ee97-4bd0-9956-4d476a1f6edb"},"vehicle_type_id":"4","last_reported":1731438399,"current_range_meters":20400,"station_id":"ce4bhf92rcd13ifvqf40","pricing_plan_id":"cebpf4jnsgd1na2vs0mg"},{"bike_id":"23371319-3326-4e94-b694-68f01aa3521f","system_id":"levelo_inurba_marseille","lat":43.337444,"lon":5.374475,"is_reserved":false,"is_disabled":false,"rental_uris":{"android":"levelo://app?vid=23371319-3326-4e94-b694-68f01aa3521f","ios":"levelo://app?vid=23371319-3326-4e94-b694-68f01aa3521f"},"vehicle_type_id":"4","last_reported":1731438399,"current_range_meters":36400,"station_id":"","pricing_plan_id":"cebpf4jnsgd1na2vs0mg"},{"bike_id":"9c0f5fac-94d8-4cd4-a201-0905559926b2","system_id":"levelo_inurba_marseille","lat":43.29446,"lon":5.39741,"is_reserved":false,"is_disabled":false,"rental_uris":{"android":"levelo://app?vid=9c0f5fac-94d8-4cd4-a201-0905559926b2","ios":"levelo://app?vid=9c0f5fac-94d8-4cd4-a201-0905559926b2"},"vehicle_type_id":"4","last_reported":1731438399,"current_range_meters":36800,"station_id":"ce4bh3h2rcd13ifvqdo0","pricing_plan_id":"cebpf4jnsgd1na2vs0mg"},{"bike_id":"a93d8b68-be2e-4d7d-bd53-815af0cfe36b","system_id":"levelo_inurba_marseille","lat":43.27171,"lon":5.4099,"is_reserved":false,"is_disabled":false,"rental_uris":{"android":"levelo://app?vid=a93d8b68-be2e-4d7d-bd53-815af0cfe36b","ios":"levelo://app?vid=a93d8b68-be2e-4d7d-bd53-815af0cfe36b"},"vehicle_type_id":"4","last_reported":1731438399,"current_range_meters":9200,"station_id":"ce4bhl12rcd13ifvqgf0","pricing_plan_id":"cebpf4jnsgd1na2vs0mg"},{"bike_id":"297ae498-f98e-4d8e-aac5-f38671eafb41","system_id":"levelo_inurba_marseille","lat":43.2573,"lon":5.41108,"is_reserved":false,"is_disabled":false,"rental_uris":{"android":"levelo://app?vid=297ae498-f98e-4d8e-aac5-f38671eafb41","ios":"levelo://app?vid=297ae498-f98e-4d8e-aac5-f38671eafb41"},"vehicle_type_id":"4","last_reported":1731438399,"current_range_meters":9200,"station_id":"ce4bhkp2rcd13ifvqgd0","pricing_plan_id":"cebpf4jnsgd1na2vs0mg"},{"bike_id":"f6ec8717-1c2c-4c9c-90c5-29827b3ed065","system_id":"levelo_inurba_marseille","lat":43.28857,"lon":5.35855,"is_reserved":false,"is_disabled":false,"rental_uris":{"android":"levelo://app?vid=f6ec8717-1c2c-4c9c-90c5-29827b3ed065","ios":"levelo://app?vid=f6ec8717-1c2c-4c9c-90c5-29827b3ed065"},"vehicle_type_id":"4","last_reported":1731438399,"current_range_meters":38400,"station_id":"ce4bhb12rcd13ifvqem0","pricing_plan_id":"cebpf4jnsgd1na2vs0mg"},{"bike_id":"28854e83-1824-4a61-a535-5caf21bba725","system_id":"levelo_inurba_marseille","lat":43.2923,"lon":5.36076,"is_reserved":false,"is_disabled":false,"rental_uris":{"android":"levelo://app?vid=28854e83-1824-4a61-a535-5caf21bba725","ios":"levelo://app?vid=28854e83-1824-4a61-a535-5caf21bba725"},"vehicle_type_id":"4","last_reported":1731438399,"current_range_meters":36400,"station_id":"ce4bhbh2rcd13ifvqeqg","pricing_plan_id":"cebpf4jnsgd1na2vs0mg"},{"bike_id":"8e08d8dd-4de1-4192-aafe-3a6c8da67190","system_id":"levelo_inurba_marseille","lat":43.27814,"lon":5.40713,"is_reserved":false,"is_disabled":false,"rental_uris":{"android":"levelo://app?vid=8e08d8dd-4de1-4192-aafe-3a6c8da67190","ios":"levelo://app?vid=8e08d8dd-4de1-4192-aafe-3a6c8da67190"},"vehicle_type_id":"4","last_reported":1731438399,"current_range_meters":7200,"station_id":"ce4bhnh2rcd13ifvqgtg","pricing_plan_id":"cebpf4jnsgd1na2vs0mg"},{"bike_id":"a44bcfe8-777d-45fe-a1bd-e3af260423ba","system_id":"levelo_inurba_marseille","lat":43.30354,"lon":5.41882,"is_reserved":false,"is_disabled":false,"rental_uris":{"android":"levelo://app?vid=a44bcfe8-777d-45fe-a1bd-e3af260423ba","ios":"levelo://app?vid=a44bcfe8-777d-45fe-a1bd-e3af260423ba"},"vehicle_type_id":"4","last_reported":1731438399,"current_range_meters":28400,"station_id":"ce4bhop2rcd13ifvqh7g","pricing_plan_id":"cebpf4jnsgd1na2vs0mg"},{"bike_id":"fec10551-f379-49ba-9ca2-8a635f99a617","system_id":"levelo_inurba_marseille","lat":43.337444,"lon":5.374475,"is_reserved":false,"is_disabled":false,"rental_uris":{"android":"levelo://app?vid=fec10551-f379-49ba-9ca2-8a635f99a617","ios":"levelo://app?vid=fec10551-f379-49ba-9ca2-8a635f99a617"},"vehicle_type_id":"4","last_reported":1731438399,"current_range_meters":38400,"station_id":"","pricing_plan_id":"cebpf4jnsgd1na2vs0mg"},{"bike_id":"979b0182-b0c0-414a-ac99-0bb48afc867b","system_id":"levelo_inurba_marseille","lat":43.27408,"lon":5.38951,"is_reserved":false,"is_disabled":false,"rental_uris":{"android":"levelo://app?vid=979b0182-b0c0-414a-ac99-0bb48afc867b","ios":"levelo://app?vid=979b0182-b0c0-414a-ac99-0bb48afc867b"},"vehicle_type_id":"4","last_reported":1731438399,"current_range_meters":12400,"station_id":"","pricing_plan_id":"cebpf4jnsgd1na2vs0mg"},{"bike_id":"5deeb5b0-30a6-4dd7-8440-5bd8367e681d","system_id":"levelo_inurba_marseille","lat":43.30218,"lon":5.39467,"is_reserved":false,"is_disabled":false,"rental_uris":{"android":"levelo://app?vid=5deeb5b0-30a6-4dd7-8440-5bd8367e681d","ios":"levelo://app?vid=5deeb5b0-30a6-4dd7-8440-5bd8367e681d"},"vehicle_type_id":"4","last_reported":1731438399,"current_range_meters":21600,"station_id":"ce4bh0p2rcd13ifvqd70","pricing_plan_id":"cebpf4jnsgd1na2vs0mg"},{"bike_id":"24cb39e8-25b2-4f23-b0cc-d23256a940f7","system_id":"levelo_inurba_marseille","lat":43.29086,"lon":5.38109,"is_reserved":false,"is_disabled":false,"rental_uris":{"android":"levelo://app?vid=24cb39e8-25b2-4f23-b0cc-d23256a940f7","ios":"levelo://app?vid=24cb39e8-25b2-4f23-b0cc-d23256a940f7"},"vehicle_type_id":"4","last_reported":1731438399,"current_range_meters":35600,"station_id":"ce4bh512rcd13ifvqe2g","pricing_plan_id":"cebpf4jnsgd1na2vs0mg"},{"bike_id":"0777a99b-1756-4eb7-a277-d3ad1515c4a1","system_id":"levelo_inurba_marseille","lat":43.2998,"lon":5.37184,"is_reserved":false,"is_disabled":false,"rental_uris":{"android":"levelo://app?vid=0777a99b-1756-4eb7-a277-d3ad1515c4a1","ios":"levelo://app?vid=0777a99b-1756-4eb7-a277-d3ad1515c4a1"},"vehicle_type_id":"4","last_reported":1731438399,"current_range_meters":27600,"station_id":"ce4bgr92rcd13ifvqc7g","pricing_plan_id":"cebpf4jnsgd1na2vs0mg"},{"bike_id":"9be58879-9b4f-48bf-864f-f319b0546a88","system_id":"levelo_inurba_marseille","lat":43.23963,"lon":5.36626,"is_reserved":false,"is_disabled":false,"rental_uris":{"android":"levelo://app?vid=9be58879-9b4f-48bf-864f-f319b0546a88","ios":"levelo://app?vid=9be58879-9b4f-48bf-864f-f319b0546a88"},"vehicle_type_id":"4","last_reported":1731438399,"current_range_meters":16000,"station_id":"ce4bhi12rcd13ifvqfp0","pricing_plan_id":"cebpf4jnsgd1na2vs0mg"},{"bike_id":"e51bb789-4d6b-4b57-8e8d-af81b047df29","system_id":"levelo_inurba_marseille","lat":43.29002,"lon":5.35604,"is_reserved":false,"is_disabled":false,"rental_uris":{"android":"levelo://app?vid=e51bb789-4d6b-4b57-8e8d-af81b047df29","ios":"levelo://app?vid=e51bb789-4d6b-4b57-8e8d-af81b047df29"},"vehicle_type_id":"4","last_reported":1731438399,"current_range_meters":39200,"station_id":"ce4bhb92rcd13ifvqen0","pricing_plan_id":"cebpf4jnsgd1na2vs0mg"},{"bike_id":"997e8ac0-1d46-4817-95d5-b61546cadfd8","system_id":"levelo_inurba_marseille","lat":43.22931,"lon":5.3538,"is_reserved":false,"is_disabled":false,"rental_uris":{"android":"levelo://app?vid=997e8ac0-1d46-4817-95d5-b61546cadfd8","ios":"levelo://app?vid=997e8ac0-1d46-4817-95d5-b61546cadfd8"},"vehicle_type_id":"4","last_reported":1731438399,"current_range_meters":37600,"station_id":"cpo3532slgdg3j2ikp40","pricing_plan_id":"cebpf4jnsgd1na2vs0mg"},{"bike_id":"8d37a234-729d-41b4-af36-39effabcf73b","system_id":"levelo_inurba_marseille","lat":43.28669,"lon":5.36352,"is_reserved":false,"is_disabled":false,"rental_uris":{"android":"levelo://app?vid=8d37a234-729d-41b4-af36-39effabcf73b","ios":"levelo://app?vid=8d37a234-729d-41b4-af36-39effabcf73b"},"vehicle_type_id":"4","last_reported":1731438399,"current_range_meters":25600,"station_id":"ce4bhah2rcd13ifvqej0","pricing_plan_id":"cebpf4jnsgd1na2vs0mg"},{"bike_id":"50575324-39be-4c63-8c21-44ec86396f5c","system_id":"levelo_inurba_marseille","lat":43.30307,"lon":5.391973,"is_reserved":false,"is_disabled":false,"rental_uris":{"android":"levelo://app?vid=50575324-39be-4c63-8c21-44ec86396f5c","ios":"levelo://app?vid=50575324-39be-4c63-8c21-44ec86396f5c"},"vehicle_type_id":"4","last_reported":1731438399,"current_range_meters":20400,"station_id":"ce4bgkh2rcd13ifvqbk0","pricing_plan_id":"cebpf4jnsgd1na2vs0mg"},{"bike_id":"fc062240-cc46-444a-9cfb-e7fae21f9218","system_id":"levelo_inurba_marseille","lat":43.2893,"lon":5.38376,"is_reserved":false,"is_disabled":false,"rental_uris":{"android":"levelo://app?vid=fc062240-cc46-444a-9cfb-e7fae21f9218","ios":"levelo://app?vid=fc062240-cc46-444a-9cfb-e7fae21f9218"},"vehicle_type_id":"4","last_reported":1731438399,"current_range_meters":31200,"station_id":"ce4bh612rcd13ifvqe6g","pricing_plan_id":"cebpf4jnsgd1na2vs0mg"},{"bike_id":"7c464c17-921e-452a-933b-7a266cab13d7","system_id":"levelo_inurba_marseille","lat":43.29958,"lon":5.38501,"is_reserved":false,"is_disabled":false,"rental_uris":{"android":"levelo://app?vid=7c464c17-921e-452a-933b-7a266cab13d7","ios":"levelo://app?vid=7c464c17-921e-452a-933b-7a266cab13d7"},"vehicle_type_id":"4","last_reported":1731438399,"current_range_meters":12400,"station_id":"ce4bgj92rcd13ifvqbd0","pricing_plan_id":"cebpf4jnsgd1na2vs0mg"},{"bike_id":"9274c437-4add-420f-ae8e-f7d334ed744f","system_id":"levelo_inurba_marseille","lat":43.24997,"lon":5.38932,"is_reserved":false,"is_disabled":false,"rental_uris":{"android":"levelo://app?vid=9274c437-4add-420f-ae8e-f7d334ed744f","ios":"levelo://app?vid=9274c437-4add-420f-ae8e-f7d334ed744f"},"vehicle_type_id":"4","last_reported":1731438399,"current_range_meters":38800,"station_id":"ce4bhgp2rcd13ifvqfd0","pricing_plan_id":"cebpf4jnsgd1na2vs0mg"},{"bike_id":"a03fe7c0-2e62-4b1b-9b91-54305e0c86f7","system_id":"levelo_inurba_marseille","lat":43.32662,"lon":5.40997,"is_reserved":false,"is_disabled":false,"rental_uris":{"android":"levelo://app?vid=a03fe7c0-2e62-4b1b-9b91-54305e0c86f7","ios":"levelo://app?vid=a03fe7c0-2e62-4b1b-9b91-54305e0c86f7"},"vehicle_type_id":"4","last_reported":1731438399,"current_range_meters":19200,"station_id":"ce4bhpp2rcd13ifvqhgg","pricing_plan_id":"cebpf4jnsgd1na2vs0mg"},{"bike_id":"56cd5555-5691-44a6-b515-7c9485fe6b17","system_id":"levelo_inurba_marseille","lat":43.29555,"lon":5.42286,"is_reserved":false,"is_disabled":false,"rental_uris":{"android":"levelo://app?vid=56cd5555-5691-44a6-b515-7c9485fe6b17","ios":"levelo://app?vid=56cd5555-5691-44a6-b515-7c9485fe6b17"},"vehicle_type_id":"4","last_reported":1731438399,"current_range_meters":37600,"station_id":"ce4bhph2rcd13ifvqhdg","pricing_plan_id":"cebpf4jnsgd1na2vs0mg"},{"bike_id":"fa6af7c8-ac01-422b-a4fb-fe688220bd82","system_id":"levelo_inurba_marseille","lat":43.291962,"lon":5.385193,"is_reserved":false,"is_disabled":false,"rental_uris":{"android":"levelo://app?vid=fa6af7c8-ac01-422b-a4fb-fe688220bd82","ios":"levelo://app?vid=fa6af7c8-ac01-422b-a4fb-fe688220bd82"},"vehicle_type_id":"4","last_reported":1731438399,"current_range_meters":32400,"station_id":"","pricing_plan_id":"cebpf4jnsgd1na2vs0mg"},{"bike_id":"0fd0e1cb-6a4e-4324-80db-f68d71f73f0c","system_id":"levelo_inurba_marseille","lat":43.29792,"lon":5.39341,"is_reserved":false,"is_disabled":false,"rental_uris":{"android":"levelo://app?vid=0fd0e1cb-6a4e-4324-80db-f68d71f73f0c","ios":"levelo://app?vid=0fd0e1cb-6a4e-4324-80db-f68d71f73f0c"},"vehicle_type_id":"4","last_reported":1731438399,"current_range_meters":28800,"station_id":"chh1huq6cuj3fo74tm60","pricing_plan_id":"cebpf4jnsgd1na2vs0mg"},{"bike_id":"1d2fdf37-8550-4501-9665-b3a002de98ca","system_id":"levelo_inurba_marseille","lat":43.29794,"lon":5.39345,"is_reserved":false,"is_disabled":false,"rental_uris":{"android":"levelo://app?vid=1d2fdf37-8550-4501-9665-b3a002de98ca","ios":"levelo://app?vid=1d2fdf37-8550-4501-9665-b3a002de98ca"},"vehicle_type_id":"4","last_reported":1731438399,"current_range_meters":24400,"station_id":"chh1huq6cuj3fo74tm60","pricing_plan_id":"cebpf4jnsgd1na2vs0mg"},{"bike_id":"f7be93c3-e6a3-40ba-94d0-3df20ea7a045","system_id":"levelo_inurba_marseille","lat":43.23183,"lon":5.399775,"is_reserved":false,"is_disabled":false,"rental_uris":{"android":"levelo://app?vid=f7be93c3-e6a3-40ba-94d0-3df20ea7a045","ios":"levelo://app?vid=f7be93c3-e6a3-40ba-94d0-3df20ea7a045"},"vehicle_type_id":"4","last_reported":1731438399,"current_range_meters":18800,"station_id":"ce4bhn12rcd13ifvqgqg","pricing_plan_id":"cebpf4jnsgd1na2vs0mg"},{"bike_id":"71a649ef-ed3c-4201-bbe7-3f4c92d1bb6e","system_id":"levelo_inurba_marseille","lat":43.295198,"lon":5.390367,"is_reserved":false,"is_disabled":false,"rental_uris":{"android":"levelo://app?vid=71a649ef-ed3c-4201-bbe7-3f4c92d1bb6e","ios":"levelo://app?vid=71a649ef-ed3c-4201-bbe7-3f4c92d1bb6e"},"vehicle_type_id":"4","last_reported":1731438399,"current_range_meters":32000,"station_id":"ce4bh3p2rcd13ifvqdp0","pricing_plan_id":"cebpf4jnsgd1na2vs0mg"},{"bike_id":"f2131f3f-b70e-4291-8534-6a267cb5aff2","system_id":"levelo_inurba_marseille","lat":43.30799,"lon":5.38142,"is_reserved":false,"is_disabled":false,"rental_uris":{"android":"levelo://app?vid=f2131f3f-b70e-4291-8534-6a267cb5aff2","ios":"levelo://app?vid=f2131f3f-b70e-4291-8534-6a267cb5aff2"},"vehicle_type_id":"4","last_reported":1731438399,"current_range_meters":4000,"station_id":"ce4bgt12rcd13ifvqce0","pricing_plan_id":"cebpf4jnsgd1na2vs0mg"},{"bike_id":"6ec4b06b-2e56-464f-b7e1-fa161b129de2","system_id":"levelo_inurba_marseille","lat":43.31271,"lon":5.40165,"is_reserved":false,"is_disabled":false,"rental_uris":{"android":"levelo://app?vid=6ec4b06b-2e56-464f-b7e1-fa161b129de2","ios":"levelo://app?vid=6ec4b06b-2e56-464f-b7e1-fa161b129de2"},"vehicle_type_id":"4","last_reported":1731438399,"current_range_meters":23200,"station_id":"ce4bh092rcd13ifvqd30","pricing_plan_id":"cebpf4jnsgd1na2vs0mg"},{"bike_id":"50ec9a72-2d48-4182-b452-21b17e2354cd","system_id":"levelo_inurba_marseille","lat":43.308,"lon":5.43524,"is_reserved":false,"is_disabled":false,"rental_uris":{"android":"levelo://app?vid=50ec9a72-2d48-4182-b452-21b17e2354cd","ios":"levelo://app?vid=50ec9a72-2d48-4182-b452-21b17e2354cd"},"vehicle_type_id":"4","last_reported":1731438399,"current_range_meters":5600,"station_id":"ce4bhph2rcd13ifvqheg","pricing_plan_id":"cebpf4jnsgd1na2vs0mg"},{"bike_id":"de654265-0d80-4f4f-9671-79f3c4312a80","system_id":"levelo_inurba_marseille","lat":43.30659,"lon":5.40091,"is_reserved":false,"is_disabled":false,"rental_uris":{"android":"levelo://app?vid=de654265-0d80-4f4f-9671-79f3c4312a80","ios":"levelo://app?vid=de654265-0d80-4f4f-9671-79f3c4312a80"},"vehicle_type_id":"4","last_reported":1731438399,"current_range_meters":33600,"station_id":"ce4bh112rcd13ifvqda0","pricing_plan_id":"cebpf4jnsgd1na2vs0mg"},{"bike_id":"e20e371e-0ac8-4f8a-8e0a-12e9bf345f5e","system_id":"levelo_inurba_marseille","lat":43.27069,"lon":5.42281,"is_reserved":false,"is_disabled":false,"rental_uris":{"android":"levelo://app?vid=e20e371e-0ac8-4f8a-8e0a-12e9bf345f5e","ios":"levelo://app?vid=e20e371e-0ac8-4f8a-8e0a-12e9bf345f5e"},"vehicle_type_id":"4","last_reported":1731438399,"current_range_meters":30000,"station_id":"ce4bhk92rcd13ifvqgb0","pricing_plan_id":"cebpf4jnsgd1na2vs0mg"},{"bike_id":"9230f939-409f-42b5-a7a7-bcf8003da7db","system_id":"levelo_inurba_marseille","lat":43.2952,"lon":5.3903,"is_reserved":false,"is_disabled":false,"rental_uris":{"android":"levelo://app?vid=9230f939-409f-42b5-a7a7-bcf8003da7db","ios":"levelo://app?vid=9230f939-409f-42b5-a7a7-bcf8003da7db"},"vehicle_type_id":"4","last_reported":1731438399,"current_range_meters":32400,"station_id":"ce4bh3p2rcd13ifvqdp0","pricing_plan_id":"cebpf4jnsgd1na2vs0mg"},{"bike_id":"73a1427c-6b03-4f3e-8ed5-0b2affc8dcb5","system_id":"levelo_inurba_marseille","lat":43.29792,"lon":5.39341,"is_reserved":false,"is_disabled":false,"rental_uris":{"android":"levelo://app?vid=73a1427c-6b03-4f3e-8ed5-0b2affc8dcb5","ios":"levelo://app?vid=73a1427c-6b03-4f3e-8ed5-0b2affc8dcb5"},"vehicle_type_id":"4","last_reported":1731438399,"current_range_meters":39200,"station_id":"chh1huq6cuj3fo74tm60","pricing_plan_id":"cebpf4jnsgd1na2vs0mg"},{"bike_id":"a7fa391a-5e9a-4306-ab89-3411e5df4996","system_id":"levelo_inurba_marseille","lat":43.33019,"lon":5.39027,"is_reserved":false,"is_disabled":false,"rental_uris":{"android":"levelo://app?vid=a7fa391a-5e9a-4306-ab89-3411e5df4996","ios":"levelo://app?vid=a7fa391a-5e9a-4306-ab89-3411e5df4996"},"vehicle_type_id":"4","last_reported":1731438399,"current_range_meters":37600,"station_id":"ce4bhr92rcd13ifvqhrg","pricing_plan_id":"cebpf4jnsgd1na2vs0mg"},{"bike_id":"5817e958-deb7-4799-af1a-ed194ead4717","system_id":"levelo_inurba_marseille","lat":43.291968,"lon":5.393224,"is_reserved":false,"is_disabled":false,"rental_uris":{"android":"levelo://app?vid=5817e958-deb7-4799-af1a-ed194ead4717","ios":"levelo://app?vid=5817e958-deb7-4799-af1a-ed194ead4717"},"vehicle_type_id":"4","last_reported":1731438399,"current_range_meters":38800,"station_id":"ce4bh192rcd13ifvqdd0","pricing_plan_id":"cebpf4jnsgd1na2vs0mg"},{"bike_id":"04f54561-538e-4ca1-9eb3-77edc97332a9","system_id":"levelo_inurba_marseille","lat":43.28102,"lon":5.37842,"is_reserved":false,"is_disabled":false,"rental_uris":{"android":"levelo://app?vid=04f54561-538e-4ca1-9eb3-77edc97332a9","ios":"levelo://app?vid=04f54561-538e-4ca1-9eb3-77edc97332a9"},"vehicle_type_id":"4","last_reported":1731438399,"current_range_meters":38800,"station_id":"ce4bha12rcd13ifvqee0","pricing_plan_id":"cebpf4jnsgd1na2vs0mg"},{"bike_id":"be408e0a-2aa7-4e01-90ca-d448ecc9bb35","system_id":"levelo_inurba_marseille","lat":43.30182,"lon":5.397668,"is_reserved":false,"is_disabled":false,"rental_uris":{"android":"levelo://app?vid=be408e0a-2aa7-4e01-90ca-d448ecc9bb35","ios":"levelo://app?vid=be408e0a-2aa7-4e01-90ca-d448ecc9bb35"},"vehicle_type_id":"4","last_reported":1731438399,"current_range_meters":30000,"station_id":"ce4bh0h2rcd13ifvqd40","pricing_plan_id":"cebpf4jnsgd1na2vs0mg"},{"bike_id":"85818844-8eb0-4925-bc5d-82279bf48263","system_id":"levelo_inurba_marseille","lat":43.24872,"lon":5.37462,"is_reserved":false,"is_disabled":false,"rental_uris":{"android":"levelo://app?vid=85818844-8eb0-4925-bc5d-82279bf48263","ios":"levelo://app?vid=85818844-8eb0-4925-bc5d-82279bf48263"},"vehicle_type_id":"4","last_reported":1731438399,"current_range_meters":38400,"station_id":"ce4bhgh2rcd13ifvqfb0","pricing_plan_id":"cebpf4jnsgd1na2vs0mg"},{"bike_id":"51de079a-4713-4220-aef5-8906afb2ba42","system_id":"levelo_inurba_marseille","lat":43.28106,"lon":5.3784,"is_reserved":false,"is_disabled":false,"rental_uris":{"android":"levelo://app?vid=51de079a-4713-4220-aef5-8906afb2ba42","ios":"levelo://app?vid=51de079a-4713-4220-aef5-8906afb2ba42"},"vehicle_type_id":"4","last_reported":1731438399,"current_range_meters":36000,"station_id":"ce4bha12rcd13ifvqee0","pricing_plan_id":"cebpf4jnsgd1na2vs0mg"},{"bike_id":"ff1ab44c-b111-40bb-95d2-168d6b5f2578","system_id":"levelo_inurba_marseille","lat":43.30931,"lon":5.40144,"is_reserved":false,"is_disabled":false,"rental_uris":{"android":"levelo://app?vid=ff1ab44c-b111-40bb-95d2-168d6b5f2578","ios":"levelo://app?vid=ff1ab44c-b111-40bb-95d2-168d6b5f2578"},"vehicle_type_id":"4","last_reported":1731438399,"current_range_meters":39200,"station_id":"ce4bgvp2rcd13ifvqct0","pricing_plan_id":"cebpf4jnsgd1na2vs0mg"},{"bike_id":"d3d88389-bd60-4947-8db6-b3fd375e6183","system_id":"levelo_inurba_marseille","lat":43.23958,"lon":5.3663,"is_reserved":false,"is_disabled":false,"rental_uris":{"android":"levelo://app?vid=d3d88389-bd60-4947-8db6-b3fd375e6183","ios":"levelo://app?vid=d3d88389-bd60-4947-8db6-b3fd375e6183"},"vehicle_type_id":"4","last_reported":1731438399,"current_range_meters":36400,"station_id":"ce4bhi12rcd13ifvqfp0","pricing_plan_id":"cebpf4jnsgd1na2vs0mg"},{"bike_id":"7ea419b8-8d2d-4572-92b2-d38495a6be2d","system_id":"levelo_inurba_marseille","lat":43.28677,"lon":5.38657,"is_reserved":false,"is_disabled":false,"rental_uris":{"android":"levelo://app?vid=7ea419b8-8d2d-4572-92b2-d38495a6be2d","ios":"levelo://app?vid=7ea419b8-8d2d-4572-92b2-d38495a6be2d"},"vehicle_type_id":"4","last_reported":1731438399,"current_range_meters":18800,"station_id":"ce4bh492rcd13ifvqdug","pricing_plan_id":"cebpf4jnsgd1na2vs0mg"},{"bike_id":"6a262d8c-b862-4636-a252-02099ef84214","system_id":"levelo_inurba_marseille","lat":43.33022,"lon":5.39044,"is_reserved":false,"is_disabled":false,"rental_uris":{"android":"levelo://app?vid=6a262d8c-b862-4636-a252-02099ef84214","ios":"levelo://app?vid=6a262d8c-b862-4636-a252-02099ef84214"},"vehicle_type_id":"4","last_reported":1731438399,"current_range_meters":18000,"station_id":"ce4bhr92rcd13ifvqhrg","pricing_plan_id":"cebpf4jnsgd1na2vs0mg"},{"bike_id":"6befffe0-3b8e-4aa9-9f4e-e38e1911f090","system_id":"levelo_inurba_marseille","lat":43.29417,"lon":5.38623,"is_reserved":false,"is_disabled":false,"rental_uris":{"android":"levelo://app?vid=6befffe0-3b8e-4aa9-9f4e-e38e1911f090","ios":"levelo://app?vid=6befffe0-3b8e-4aa9-9f4e-e38e1911f090"},"vehicle_type_id":"4","last_reported":1731438399,"current_range_meters":19200,"station_id":"ce4bh2h2rcd13ifvqdh0","pricing_plan_id":"cebpf4jnsgd1na2vs0mg"},{"bike_id":"d13dfac3-cdb7-4f2f-860c-e1df99fdc25a","system_id":"levelo_inurba_marseille","lat":43.25583,"lon":5.38236,"is_reserved":false,"is_disabled":false,"rental_uris":{"android":"levelo://app?vid=d13dfac3-cdb7-4f2f-860c-e1df99fdc25a","ios":"levelo://app?vid=d13dfac3-cdb7-4f2f-860c-e1df99fdc25a"},"vehicle_type_id":"4","last_reported":1731438399,"current_range_meters":20800,"station_id":"ce4bhih2rcd13ifvqfs0","pricing_plan_id":"cebpf4jnsgd1na2vs0mg"},{"bike_id":"6a7864c7-1043-407c-b1f5-95a83a37e67e","system_id":"levelo_inurba_marseille","lat":43.28412,"lon":5.37514,"is_reserved":false,"is_disabled":false,"rental_uris":{"android":"levelo://app?vid=6a7864c7-1043-407c-b1f5-95a83a37e67e","ios":"levelo://app?vid=6a7864c7-1043-407c-b1f5-95a83a37e67e"},"vehicle_type_id":"4","last_reported":1731438399,"current_range_meters":30800,"station_id":"ce4bh412rcd13ifvqds0","pricing_plan_id":"cebpf4jnsgd1na2vs0mg"},{"bike_id":"91526d85-6d2f-4b0d-b668-d1a556d90682","system_id":"levelo_inurba_marseille","lat":43.31994,"lon":5.38149,"is_reserved":false,"is_disabled":false,"rental_uris":{"android":"levelo://app?vid=91526d85-6d2f-4b0d-b668-d1a556d90682","ios":"levelo://app?vid=91526d85-6d2f-4b0d-b668-d1a556d90682"},"vehicle_type_id":"4","last_reported":1731438399,"current_range_meters":39200,"station_id":"ce4bhr12rcd13ifvqhpg","pricing_plan_id":"cebpf4jnsgd1na2vs0mg"},{"bike_id":"b559c9c6-563c-434e-a716-8bca141c219c","system_id":"levelo_inurba_marseille","lat":43.30123,"lon":5.3718,"is_reserved":false,"is_disabled":false,"rental_uris":{"android":"levelo://app?vid=b559c9c6-563c-434e-a716-8bca141c219c","ios":"levelo://app?vid=b559c9c6-563c-434e-a716-8bca141c219c"},"vehicle_type_id":"4","last_reported":1731438399,"current_range_meters":11200,"station_id":"","pricing_plan_id":"cebpf4jnsgd1na2vs0mg"},{"bike_id":"385d91d5-d144-4838-b15f-8b4d784f8d86","system_id":"levelo_inurba_marseille","lat":43.31173,"lon":5.38714,"is_reserved":false,"is_disabled":false,"rental_uris":{"android":"levelo://app?vid=385d91d5-d144-4838-b15f-8b4d784f8d86","ios":"levelo://app?vid=385d91d5-d144-4838-b15f-8b4d784f8d86"},"vehicle_type_id":"4","last_reported":1731438399,"current_range_meters":25600,"station_id":"ce4bgv12rcd13ifvqcp0","pricing_plan_id":"cebpf4jnsgd1na2vs0mg"},{"bike_id":"3c5f66c8-95cc-4ffc-b438-eb70ea7aeae8","system_id":"levelo_inurba_marseille","lat":43.31488,"lon":5.37307,"is_reserved":false,"is_disabled":false,"rental_uris":{"android":"levelo://app?vid=3c5f66c8-95cc-4ffc-b438-eb70ea7aeae8","ios":"levelo://app?vid=3c5f66c8-95cc-4ffc-b438-eb70ea7aeae8"},"vehicle_type_id":"4","last_reported":1731438399,"current_range_meters":20000,"station_id":"ce4bgt12rcd13ifvqcd0","pricing_plan_id":"cebpf4jnsgd1na2vs0mg"},{"bike_id":"e1f2424d-96e3-41c7-9f8d-6dd18a27c6ce","system_id":"levelo_inurba_marseille","lat":43.2743,"lon":5.39409,"is_reserved":false,"is_disabled":false,"rental_uris":{"android":"levelo://app?vid=e1f2424d-96e3-41c7-9f8d-6dd18a27c6ce","ios":"levelo://app?vid=e1f2424d-96e3-41c7-9f8d-6dd18a27c6ce"},"vehicle_type_id":"4","last_reported":1731438399,"current_range_meters":38800,"station_id":"ce4bhdp2rcd13ifvqf20","pricing_plan_id":"cebpf4jnsgd1na2vs0mg"},{"bike_id":"d32cb781-3101-480c-93dd-503a994b5a91","system_id":"levelo_inurba_marseille","lat":43.24663,"lon":5.38164,"is_reserved":false,"is_disabled":false,"rental_uris":{"android":"levelo://app?vid=d32cb781-3101-480c-93dd-503a994b5a91","ios":"levelo://app?vid=d32cb781-3101-480c-93dd-503a994b5a91"},"vehicle_type_id":"4","last_reported":1731438399,"current_range_meters":27600,"station_id":"ce4bhih2rcd13ifvqfr0","pricing_plan_id":"cebpf4jnsgd1na2vs0mg"},{"bike_id":"c5cca83d-ead2-41f1-a38e-650eda55cd96","system_id":"levelo_inurba_marseille","lat":43.27814,"lon":5.40718,"is_reserved":false,"is_disabled":false,"rental_uris":{"android":"levelo://app?vid=c5cca83d-ead2-41f1-a38e-650eda55cd96","ios":"levelo://app?vid=c5cca83d-ead2-41f1-a38e-650eda55cd96"},"vehicle_type_id":"4","last_reported":1731438399,"current_range_meters":38800,"station_id":"ce4bhnh2rcd13ifvqgtg","pricing_plan_id":"cebpf4jnsgd1na2vs0mg"},{"bike_id":"690959e1-32d7-492f-a674-cbcd4a6a2909","system_id":"levelo_inurba_marseille","lat":43.2791,"lon":5.39583,"is_reserved":false,"is_disabled":false,"rental_uris":{"android":"levelo://app?vid=690959e1-32d7-492f-a674-cbcd4a6a2909","ios":"levelo://app?vid=690959e1-32d7-492f-a674-cbcd4a6a2909"},"vehicle_type_id":"4","last_reported":1731438399,"current_range_meters":35200,"station_id":"ce4bhf92rcd13ifvqf40","pricing_plan_id":"cebpf4jnsgd1na2vs0mg"},{"bike_id":"caf6929d-e0c2-4435-9d6c-a404cdf1b843","system_id":"levelo_inurba_marseille","lat":43.2846,"lon":5.35889,"is_reserved":false,"is_disabled":false,"rental_uris":{"android":"levelo://app?vid=caf6929d-e0c2-4435-9d6c-a404cdf1b843","ios":"levelo://app?vid=caf6929d-e0c2-4435-9d6c-a404cdf1b843"},"vehicle_type_id":"4","last_reported":1731438399,"current_range_meters":30000,"station_id":"ce4bhah2rcd13ifvqei0","pricing_plan_id":"cebpf4jnsgd1na2vs0mg"},{"bike_id":"2d11c320-a81b-424e-80ce-d8ac1193642b","system_id":"levelo_inurba_marseille","lat":43.27813,"lon":5.40708,"is_reserved":false,"is_disabled":false,"rental_uris":{"android":"levelo://app?vid=2d11c320-a81b-424e-80ce-d8ac1193642b","ios":"levelo://app?vid=2d11c320-a81b-424e-80ce-d8ac1193642b"},"vehicle_type_id":"4","last_reported":1731438399,"current_range_meters":37600,"station_id":"ce4bhnh2rcd13ifvqgtg","pricing_plan_id":"cebpf4jnsgd1na2vs0mg"},{"bike_id":"96b84df2-447b-42c1-9180-a983ad587907","system_id":"levelo_inurba_marseille","lat":43.25714,"lon":5.41114,"is_reserved":false,"is_disabled":false,"rental_uris":{"android":"levelo://app?vid=96b84df2-447b-42c1-9180-a983ad587907","ios":"levelo://app?vid=96b84df2-447b-42c1-9180-a983ad587907"},"vehicle_type_id":"4","last_reported":1731438399,"current_range_meters":38000,"station_id":"ce4bhkp2rcd13ifvqgd0","pricing_plan_id":"cebpf4jnsgd1na2vs0mg"},{"bike_id":"a3c951fb-c745-48fb-b680-dd3415bb1c78","system_id":"levelo_inurba_marseille","lat":43.29525,"lon":5.39026,"is_reserved":false,"is_disabled":false,"rental_uris":{"android":"levelo://app?vid=a3c951fb-c745-48fb-b680-dd3415bb1c78","ios":"levelo://app?vid=a3c951fb-c745-48fb-b680-dd3415bb1c78"},"vehicle_type_id":"4","last_reported":1731438399,"current_range_meters":7200,"station_id":"ce4bh3p2rcd13ifvqdp0","pricing_plan_id":"cebpf4jnsgd1na2vs0mg"},{"bike_id":"e62bb96a-ded7-4199-85d5-f7da5543f92d","system_id":"levelo_inurba_marseille","lat":43.30241,"lon":5.40064,"is_reserved":false,"is_disabled":false,"rental_uris":{"android":"levelo://app?vid=e62bb96a-ded7-4199-85d5-f7da5543f92d","ios":"levelo://app?vid=e62bb96a-ded7-4199-85d5-f7da5543f92d"},"vehicle_type_id":"4","last_reported":1731438399,"current_range_meters":38800,"station_id":"ce4bgvh2rcd13ifvqcs0","pricing_plan_id":"cebpf4jnsgd1na2vs0mg"},{"bike_id":"8ef70561-fcee-40a4-b033-2b7fb95e2bd9","system_id":"levelo_inurba_marseille","lat":43.27842,"lon":5.39203,"is_reserved":false,"is_disabled":false,"rental_uris":{"android":"levelo://app?vid=8ef70561-fcee-40a4-b033-2b7fb95e2bd9","ios":"levelo://app?vid=8ef70561-fcee-40a4-b033-2b7fb95e2bd9"},"vehicle_type_id":"4","last_reported":1731438399,"current_range_meters":32400,"station_id":"ce4bhjp2rcd13ifvqga0","pricing_plan_id":"cebpf4jnsgd1na2vs0mg"},{"bike_id":"02218ba6-6fdc-4419-a8e0-5d74d2be07b2","system_id":"levelo_inurba_marseille","lat":43.31711,"lon":5.43707,"is_reserved":false,"is_disabled":false,"rental_uris":{"android":"levelo://app?vid=02218ba6-6fdc-4419-a8e0-5d74d2be07b2","ios":"levelo://app?vid=02218ba6-6fdc-4419-a8e0-5d74d2be07b2"},"vehicle_type_id":"4","last_reported":1731438399,"current_range_meters":12400,"station_id":"ce4bhp92rcd13ifvqhcg","pricing_plan_id":"cebpf4jnsgd1na2vs0mg"},{"bike_id":"23bd2924-0acf-4f0e-a6f4-fa7bc784425a","system_id":"levelo_inurba_marseille","lat":43.2293,"lon":5.35376,"is_reserved":false,"is_disabled":false,"rental_uris":{"android":"levelo://app?vid=23bd2924-0acf-4f0e-a6f4-fa7bc784425a","ios":"levelo://app?vid=23bd2924-0acf-4f0e-a6f4-fa7bc784425a"},"vehicle_type_id":"4","last_reported":1731438399,"current_range_meters":32000,"station_id":"cpo3532slgdg3j2ikp40","pricing_plan_id":"cebpf4jnsgd1na2vs0mg"},{"bike_id":"3f7f3df8-50d9-475f-8a41-f4a7ada046d4","system_id":"levelo_inurba_marseille","lat":43.319609,"lon":5.369002,"is_reserved":false,"is_disabled":false,"rental_uris":{"android":"levelo://app?vid=3f7f3df8-50d9-475f-8a41-f4a7ada046d4","ios":"levelo://app?vid=3f7f3df8-50d9-475f-8a41-f4a7ada046d4"},"vehicle_type_id":"4","last_reported":1731438399,"current_range_meters":27600,"station_id":"","pricing_plan_id":"cebpf4jnsgd1na2vs0mg"},{"bike_id":"28071f5e-223d-4fd3-b16c-5ef3c0211c4e","system_id":"levelo_inurba_marseille","lat":43.3153,"lon":5.38023,"is_reserved":false,"is_disabled":false,"rental_uris":{"android":"levelo://app?vid=28071f5e-223d-4fd3-b16c-5ef3c0211c4e","ios":"levelo://app?vid=28071f5e-223d-4fd3-b16c-5ef3c0211c4e"},"vehicle_type_id":"4","last_reported":1731438399,"current_range_meters":27200,"station_id":"ce4bhsp2rcd13ifvqi50","pricing_plan_id":"cebpf4jnsgd1na2vs0mg"},{"bike_id":"d9bb59e1-3364-4847-beca-a3d22525c27b","system_id":"levelo_inurba_marseille","lat":43.31255,"lon":5.40156,"is_reserved":false,"is_disabled":false,"rental_uris":{"android":"levelo://app?vid=d9bb59e1-3364-4847-beca-a3d22525c27b","ios":"levelo://app?vid=d9bb59e1-3364-4847-beca-a3d22525c27b"},"vehicle_type_id":"4","last_reported":1731438399,"current_range_meters":28400,"station_id":"ce4bh092rcd13ifvqd30","pricing_plan_id":"cebpf4jnsgd1na2vs0mg"},{"bike_id":"03e7c2d6-7943-4034-92e7-7194dfabc013","system_id":"levelo_inurba_marseille","lat":43.23068,"lon":5.35491,"is_reserved":false,"is_disabled":false,"rental_uris":{"android":"levelo://app?vid=03e7c2d6-7943-4034-92e7-7194dfabc013","ios":"levelo://app?vid=03e7c2d6-7943-4034-92e7-7194dfabc013"},"vehicle_type_id":"4","last_reported":1731438399,"current_range_meters":2800,"station_id":"cpo3342slgdg3j2ifvpg","pricing_plan_id":"cebpf4jnsgd1na2vs0mg"},{"bike_id":"bcd861b0-8eca-430f-8082-61adce7c6e7e","system_id":"levelo_inurba_marseille","lat":43.25826,"lon":5.3943,"is_reserved":false,"is_disabled":false,"rental_uris":{"android":"levelo://app?vid=bcd861b0-8eca-430f-8082-61adce7c6e7e","ios":"levelo://app?vid=bcd861b0-8eca-430f-8082-61adce7c6e7e"},"vehicle_type_id":"4","last_reported":1731438399,"current_range_meters":25600,"station_id":"ce4bhip2rcd13ifvqft0","pricing_plan_id":"cebpf4jnsgd1na2vs0mg"},{"bike_id":"0e171ddd-bcf2-4897-a3c5-4bcad6a3968d","system_id":"levelo_inurba_marseille","lat":43.2955,"lon":5.42283,"is_reserved":false,"is_disabled":false,"rental_uris":{"android":"levelo://app?vid=0e171ddd-bcf2-4897-a3c5-4bcad6a3968d","ios":"levelo://app?vid=0e171ddd-bcf2-4897-a3c5-4bcad6a3968d"},"vehicle_type_id":"4","last_reported":1731438399,"current_range_meters":26000,"station_id":"ce4bhph2rcd13ifvqhdg","pricing_plan_id":"cebpf4jnsgd1na2vs0mg"},{"bike_id":"eaf5dc06-d6af-42a2-8ba9-c9a2095e8ca8","system_id":"levelo_inurba_marseille","lat":43.31076,"lon":5.38355,"is_reserved":false,"is_disabled":false,"rental_uris":{"android":"levelo://app?vid=eaf5dc06-d6af-42a2-8ba9-c9a2095e8ca8","ios":"levelo://app?vid=eaf5dc06-d6af-42a2-8ba9-c9a2095e8ca8"},"vehicle_type_id":"4","last_reported":1731438399,"current_range_meters":36000,"station_id":"ce4bgv92rcd13ifvqcr0","pricing_plan_id":"cebpf4jnsgd1na2vs0mg"},{"bike_id":"accffff0-106b-494e-b740-c748a2d598de","system_id":"levelo_inurba_marseille","lat":43.295715,"lon":5.399731,"is_reserved":false,"is_disabled":false,"rental_uris":{"android":"levelo://app?vid=accffff0-106b-494e-b740-c748a2d598de","ios":"levelo://app?vid=accffff0-106b-494e-b740-c748a2d598de"},"vehicle_type_id":"4","last_reported":1731438399,"current_range_meters":14000,"station_id":"ce4bh312rcd13ifvqdj0","pricing_plan_id":"cebpf4jnsgd1na2vs0mg"},{"bike_id":"b4e135d0-2079-4624-a281-477a1ad758b0","system_id":"levelo_inurba_marseille","lat":43.273111,"lon":5.390745,"is_reserved":false,"is_disabled":false,"rental_uris":{"android":"levelo://app?vid=b4e135d0-2079-4624-a281-477a1ad758b0","ios":"levelo://app?vid=b4e135d0-2079-4624-a281-477a1ad758b0"},"vehicle_type_id":"4","last_reported":1731438399,"current_range_meters":11200,"station_id":"ce4bhgp2rcd13ifvqfe0","pricing_plan_id":"cebpf4jnsgd1na2vs0mg"},{"bike_id":"e92c5947-6d80-41ba-aecc-06ded8281947","system_id":"levelo_inurba_marseille","lat":43.32492,"lon":5.36564,"is_reserved":false,"is_disabled":false,"rental_uris":{"android":"levelo://app?vid=e92c5947-6d80-41ba-aecc-06ded8281947","ios":"levelo://app?vid=e92c5947-6d80-41ba-aecc-06ded8281947"},"vehicle_type_id":"4","last_reported":1731438399,"current_range_meters":36800,"station_id":"ce4bhs12rcd13ifvqhvg","pricing_plan_id":"cebpf4jnsgd1na2vs0mg"},{"bike_id":"95a92208-fe5e-4560-85cb-1eeb02f67bdb","system_id":"levelo_inurba_marseille","lat":43.3133,"lon":5.39687,"is_reserved":false,"is_disabled":false,"rental_uris":{"android":"levelo://app?vid=95a92208-fe5e-4560-85cb-1eeb02f67bdb","ios":"levelo://app?vid=95a92208-fe5e-4560-85cb-1eeb02f67bdb"},"vehicle_type_id":"4","last_reported":1731438399,"current_range_meters":30800,"station_id":"ce4bgvp2rcd13ifvqcu0","pricing_plan_id":"cebpf4jnsgd1na2vs0mg"},{"bike_id":"634b8b3e-e24a-4a3a-b056-c4a931da7a17","system_id":"levelo_inurba_marseille","lat":43.30193,"lon":5.36604,"is_reserved":false,"is_disabled":false,"rental_uris":{"android":"levelo://app?vid=634b8b3e-e24a-4a3a-b056-c4a931da7a17","ios":"levelo://app?vid=634b8b3e-e24a-4a3a-b056-c4a931da7a17"},"vehicle_type_id":"4","last_reported":1731438399,"current_range_meters":37600,"station_id":"ce4bgrh2rcd13ifvqc8g","pricing_plan_id":"cebpf4jnsgd1na2vs0mg"},{"bike_id":"aca0a2b6-877a-49e6-88ef-a28b7913efcd","system_id":"levelo_inurba_marseille","lat":43.31327,"lon":5.39702,"is_reserved":false,"is_disabled":false,"rental_uris":{"android":"levelo://app?vid=aca0a2b6-877a-49e6-88ef-a28b7913efcd","ios":"levelo://app?vid=aca0a2b6-877a-49e6-88ef-a28b7913efcd"},"vehicle_type_id":"4","last_reported":1731438399,"current_range_meters":12000,"station_id":"ce4bgvp2rcd13ifvqcu0","pricing_plan_id":"cebpf4jnsgd1na2vs0mg"},{"bike_id":"06d6457c-153b-4c31-afba-4eaa1ffcb32c","system_id":"levelo_inurba_marseille","lat":43.29135,"lon":5.3811,"is_reserved":false,"is_disabled":false,"rental_uris":{"android":"levelo://app?vid=06d6457c-153b-4c31-afba-4eaa1ffcb32c","ios":"levelo://app?vid=06d6457c-153b-4c31-afba-4eaa1ffcb32c"},"vehicle_type_id":"4","last_reported":1731438399,"current_range_meters":31200,"station_id":"ce4bh512rcd13ifvqe2g","pricing_plan_id":"cebpf4jnsgd1na2vs0mg"},{"bike_id":"ecb44d89-bff9-41f1-b050-e57d58cce89a","system_id":"levelo_inurba_marseille","lat":43.30611,"lon":5.37223,"is_reserved":false,"is_disabled":false,"rental_uris":{"android":"levelo://app?vid=ecb44d89-bff9-41f1-b050-e57d58cce89a","ios":"levelo://app?vid=ecb44d89-bff9-41f1-b050-e57d58cce89a"},"vehicle_type_id":"4","last_reported":1731438399,"current_range_meters":34000,"station_id":"ce4bgqh2rcd13ifvqc4g","pricing_plan_id":"cebpf4jnsgd1na2vs0mg"},{"bike_id":"c2707140-9d1f-4788-99d3-c85410a9d8ee","system_id":"levelo_inurba_marseille","lat":43.28927,"lon":5.3839,"is_reserved":false,"is_disabled":false,"rental_uris":{"android":"levelo://app?vid=c2707140-9d1f-4788-99d3-c85410a9d8ee","ios":"levelo://app?vid=c2707140-9d1f-4788-99d3-c85410a9d8ee"},"vehicle_type_id":"4","last_reported":1731438399,"current_range_meters":27200,"station_id":"ce4bh612rcd13ifvqe6g","pricing_plan_id":"cebpf4jnsgd1na2vs0mg"},{"bike_id":"4560d80d-b770-46a9-8ac0-6fe10fc64b4e","system_id":"levelo_inurba_marseille","lat":43.28035,"lon":5.36949,"is_reserved":false,"is_disabled":false,"rental_uris":{"android":"levelo://app?vid=4560d80d-b770-46a9-8ac0-6fe10fc64b4e","ios":"levelo://app?vid=4560d80d-b770-46a9-8ac0-6fe10fc64b4e"},"vehicle_type_id":"4","last_reported":1731438399,"current_range_meters":32800,"station_id":"ce4bha12rcd13ifvqef0","pricing_plan_id":"cebpf4jnsgd1na2vs0mg"},{"bike_id":"08b12162-639b-42e6-b6d7-e289591b02ce","system_id":"levelo_inurba_marseille","lat":43.3176,"lon":5.3902,"is_reserved":false,"is_disabled":false,"rental_uris":{"android":"levelo://app?vid=08b12162-639b-42e6-b6d7-e289591b02ce","ios":"levelo://app?vid=08b12162-639b-42e6-b6d7-e289591b02ce"},"vehicle_type_id":"4","last_reported":1731438399,"current_range_meters":21600,"station_id":"ce4bhqp2rcd13ifvqhng","pricing_plan_id":"cebpf4jnsgd1na2vs0mg"},{"bike_id":"e60b42f2-a281-4419-a16c-efdb587b14b5","system_id":"levelo_inurba_marseille","lat":43.32292,"lon":5.38269,"is_reserved":false,"is_disabled":false,"rental_uris":{"android":"levelo://app?vid=e60b42f2-a281-4419-a16c-efdb587b14b5","ios":"levelo://app?vid=e60b42f2-a281-4419-a16c-efdb587b14b5"},"vehicle_type_id":"4","last_reported":1731438399,"current_range_meters":24800,"station_id":"ce4bhr12rcd13ifvqhqg","pricing_plan_id":"cebpf4jnsgd1na2vs0mg"},{"bike_id":"9963c1c3-b113-43d3-ac21-cf8249ac6969","system_id":"levelo_inurba_marseille","lat":43.30251,"lon":5.40065,"is_reserved":false,"is_disabled":false,"rental_uris":{"android":"levelo://app?vid=9963c1c3-b113-43d3-ac21-cf8249ac6969","ios":"levelo://app?vid=9963c1c3-b113-43d3-ac21-cf8249ac6969"},"vehicle_type_id":"4","last_reported":1731438399,"current_range_meters":32800,"station_id":"ce4bgvh2rcd13ifvqcs0","pricing_plan_id":"cebpf4jnsgd1na2vs0mg"},{"bike_id":"351682cc-3502-477e-b2b0-120bb5c74a72","system_id":"levelo_inurba_marseille","lat":43.30139,"lon":5.39862,"is_reserved":false,"is_disabled":false,"rental_uris":{"android":"levelo://app?vid=351682cc-3502-477e-b2b0-120bb5c74a72","ios":"levelo://app?vid=351682cc-3502-477e-b2b0-120bb5c74a72"},"vehicle_type_id":"4","last_reported":1731438399,"current_range_meters":11600,"station_id":"ce4bh0h2rcd13ifvqd40","pricing_plan_id":"cebpf4jnsgd1na2vs0mg"},{"bike_id":"7b1d3612-39cd-4cb3-9238-b7159cf9796b","system_id":"levelo_inurba_marseille","lat":43.28699,"lon":5.37382,"is_reserved":false,"is_disabled":false,"rental_uris":{"android":"levelo://app?vid=7b1d3612-39cd-4cb3-9238-b7159cf9796b","ios":"levelo://app?vid=7b1d3612-39cd-4cb3-9238-b7159cf9796b"},"vehicle_type_id":"4","last_reported":1731438399,"current_range_meters":31200,"station_id":"ce4bh3p2rcd13ifvqdq0","pricing_plan_id":"cebpf4jnsgd1na2vs0mg"},{"bike_id":"593dd953-92e9-4448-9d82-ca754ac12605","system_id":"levelo_inurba_marseille","lat":43.25089,"lon":5.39522,"is_reserved":false,"is_disabled":false,"rental_uris":{"android":"levelo://app?vid=593dd953-92e9-4448-9d82-ca754ac12605","ios":"levelo://app?vid=593dd953-92e9-4448-9d82-ca754ac12605"},"vehicle_type_id":"4","last_reported":1731438399,"current_range_meters":17200,"station_id":"ce4bhm12rcd13ifvqgkg","pricing_plan_id":"cebpf4jnsgd1na2vs0mg"},{"bike_id":"98a41b55-783d-4a53-9a0a-09f9b47b2669","system_id":"levelo_inurba_marseille","lat":43.23197,"lon":5.35556,"is_reserved":false,"is_disabled":false,"rental_uris":{"android":"levelo://app?vid=98a41b55-783d-4a53-9a0a-09f9b47b2669","ios":"levelo://app?vid=98a41b55-783d-4a53-9a0a-09f9b47b2669"},"vehicle_type_id":"4","last_reported":1731438399,"current_range_meters":19200,"station_id":"ce4bhu92rcd13ifvqi70","pricing_plan_id":"cebpf4jnsgd1na2vs0mg"},{"bike_id":"9b899324-9bf0-4e7e-944b-128cdc9d3596","system_id":"levelo_inurba_marseille","lat":43.25576,"lon":5.38235,"is_reserved":false,"is_disabled":false,"rental_uris":{"android":"levelo://app?vid=9b899324-9bf0-4e7e-944b-128cdc9d3596","ios":"levelo://app?vid=9b899324-9bf0-4e7e-944b-128cdc9d3596"},"vehicle_type_id":"4","last_reported":1731438399,"current_range_meters":32000,"station_id":"ce4bhih2rcd13ifvqfs0","pricing_plan_id":"cebpf4jnsgd1na2vs0mg"},{"bike_id":"33982fe9-a903-40cd-a32c-32a0ffad344a","system_id":"levelo_inurba_marseille","lat":43.2847,"lon":5.35883,"is_reserved":false,"is_disabled":false,"rental_uris":{"android":"levelo://app?vid=33982fe9-a903-40cd-a32c-32a0ffad344a","ios":"levelo://app?vid=33982fe9-a903-40cd-a32c-32a0ffad344a"},"vehicle_type_id":"4","last_reported":1731438399,"current_range_meters":32800,"station_id":"ce4bhah2rcd13ifvqei0","pricing_plan_id":"cebpf4jnsgd1na2vs0mg"},{"bike_id":"2202a904-a13c-4eda-9d49-23c5c6db8e84","system_id":"levelo_inurba_marseille","lat":43.28271,"lon":5.35068,"is_reserved":false,"is_disabled":false,"rental_uris":{"android":"levelo://app?vid=2202a904-a13c-4eda-9d49-23c5c6db8e84","ios":"levelo://app?vid=2202a904-a13c-4eda-9d49-23c5c6db8e84"},"vehicle_type_id":"4","last_reported":1731438399,"current_range_meters":28800,"station_id":"ce4bhbp2rcd13ifvqerg","pricing_plan_id":"cebpf4jnsgd1na2vs0mg"},{"bike_id":"692fb841-efd6-45f3-98d5-6b03df882962","system_id":"levelo_inurba_marseille","lat":43.27495,"lon":5.4245,"is_reserved":false,"is_disabled":false,"rental_uris":{"android":"levelo://app?vid=692fb841-efd6-45f3-98d5-6b03df882962","ios":"levelo://app?vid=692fb841-efd6-45f3-98d5-6b03df882962"},"vehicle_type_id":"4","last_reported":1731438399,"current_range_meters":38800,"station_id":"ce4bhn92rcd13ifvqgrg","pricing_plan_id":"cebpf4jnsgd1na2vs0mg"},{"bike_id":"17db4ccc-55e1-459e-b970-b46888175485","system_id":"levelo_inurba_marseille","lat":43.30236,"lon":5.40067,"is_reserved":false,"is_disabled":false,"rental_uris":{"android":"levelo://app?vid=17db4ccc-55e1-459e-b970-b46888175485","ios":"levelo://app?vid=17db4ccc-55e1-459e-b970-b46888175485"},"vehicle_type_id":"4","last_reported":1731438399,"current_range_meters":32400,"station_id":"ce4bgvh2rcd13ifvqcs0","pricing_plan_id":"cebpf4jnsgd1na2vs0mg"},{"bike_id":"f7dfe9d8-8b1c-44bd-9e07-3a51ca4750f2","system_id":"levelo_inurba_marseille","lat":43.26491,"lon":5.3955,"is_reserved":false,"is_disabled":false,"rental_uris":{"android":"levelo://app?vid=f7dfe9d8-8b1c-44bd-9e07-3a51ca4750f2","ios":"levelo://app?vid=f7dfe9d8-8b1c-44bd-9e07-3a51ca4750f2"},"vehicle_type_id":"4","last_reported":1731438399,"current_range_meters":33600,"station_id":"ce4bhi12rcd13ifvqfq0","pricing_plan_id":"cebpf4jnsgd1na2vs0mg"},{"bike_id":"5b791881-5835-4c2e-86dd-5e6158d4f3fb","system_id":"levelo_inurba_marseille","lat":43.30083,"lon":5.39087,"is_reserved":false,"is_disabled":false,"rental_uris":{"android":"levelo://app?vid=5b791881-5835-4c2e-86dd-5e6158d4f3fb","ios":"levelo://app?vid=5b791881-5835-4c2e-86dd-5e6158d4f3fb"},"vehicle_type_id":"4","last_reported":1731438399,"current_range_meters":6400,"station_id":"ce4bh192rcd13ifvqdb0","pricing_plan_id":"cebpf4jnsgd1na2vs0mg"},{"bike_id":"afa715b5-1241-4d6f-8f78-73e0daefc925","system_id":"levelo_inurba_marseille","lat":43.29,"lon":5.35602,"is_reserved":false,"is_disabled":false,"rental_uris":{"android":"levelo://app?vid=afa715b5-1241-4d6f-8f78-73e0daefc925","ios":"levelo://app?vid=afa715b5-1241-4d6f-8f78-73e0daefc925"},"vehicle_type_id":"4","last_reported":1731438399,"current_range_meters":35200,"station_id":"ce4bhb92rcd13ifvqen0","pricing_plan_id":"cebpf4jnsgd1na2vs0mg"},{"bike_id":"eed06a88-a545-474e-b484-4e1e99674a29","system_id":"levelo_inurba_marseille","lat":43.28267,"lon":5.35074,"is_reserved":false,"is_disabled":false,"rental_uris":{"android":"levelo://app?vid=eed06a88-a545-474e-b484-4e1e99674a29","ios":"levelo://app?vid=eed06a88-a545-474e-b484-4e1e99674a29"},"vehicle_type_id":"4","last_reported":1731438399,"current_range_meters":18000,"station_id":"ce4bhbp2rcd13ifvqerg","pricing_plan_id":"cebpf4jnsgd1na2vs0mg"},{"bike_id":"0606443b-4369-42a4-bea1-57669a14e9a4","system_id":"levelo_inurba_marseille","lat":43.27822,"lon":5.40723,"is_reserved":false,"is_disabled":false,"rental_uris":{"android":"levelo://app?vid=0606443b-4369-42a4-bea1-57669a14e9a4","ios":"levelo://app?vid=0606443b-4369-42a4-bea1-57669a14e9a4"},"vehicle_type_id":"4","last_reported":1731438399,"current_range_meters":37600,"station_id":"ce4bhnh2rcd13ifvqgtg","pricing_plan_id":"cebpf4jnsgd1na2vs0mg"},{"bike_id":"0fb7af37-ed7e-4639-a28c-e6d4b52ce80c","system_id":"levelo_inurba_marseille","lat":43.30934,"lon":5.40156,"is_reserved":false,"is_disabled":false,"rental_uris":{"android":"levelo://app?vid=0fb7af37-ed7e-4639-a28c-e6d4b52ce80c","ios":"levelo://app?vid=0fb7af37-ed7e-4639-a28c-e6d4b52ce80c"},"vehicle_type_id":"4","last_reported":1731438399,"current_range_meters":37600,"station_id":"ce4bgvp2rcd13ifvqct0","pricing_plan_id":"cebpf4jnsgd1na2vs0mg"},{"bike_id":"39bfa097-59a6-4e1f-8c95-57f4aa2e83f3","system_id":"levelo_inurba_marseille","lat":43.29789,"lon":5.37117,"is_reserved":false,"is_disabled":false,"rental_uris":{"android":"levelo://app?vid=39bfa097-59a6-4e1f-8c95-57f4aa2e83f3","ios":"levelo://app?vid=39bfa097-59a6-4e1f-8c95-57f4aa2e83f3"},"vehicle_type_id":"4","last_reported":1731438399,"current_range_meters":38800,"station_id":"ce4bgop2rcd13ifvqc1g","pricing_plan_id":"cebpf4jnsgd1na2vs0mg"},{"bike_id":"d5b47975-7665-4836-8707-7a65639f0843","system_id":"levelo_inurba_marseille","lat":43.3024,"lon":5.40064,"is_reserved":false,"is_disabled":false,"rental_uris":{"android":"levelo://app?vid=d5b47975-7665-4836-8707-7a65639f0843","ios":"levelo://app?vid=d5b47975-7665-4836-8707-7a65639f0843"},"vehicle_type_id":"4","last_reported":1731438399,"current_range_meters":37600,"station_id":"ce4bgvh2rcd13ifvqcs0","pricing_plan_id":"cebpf4jnsgd1na2vs0mg"},{"bike_id":"c0a00f4b-989e-46ef-a312-e7072f1a3c52","system_id":"levelo_inurba_marseille","lat":43.28921,"lon":5.38376,"is_reserved":false,"is_disabled":false,"rental_uris":{"android":"levelo://app?vid=c0a00f4b-989e-46ef-a312-e7072f1a3c52","ios":"levelo://app?vid=c0a00f4b-989e-46ef-a312-e7072f1a3c52"},"vehicle_type_id":"4","last_reported":1731438399,"current_range_meters":12400,"station_id":"ce4bh612rcd13ifvqe6g","pricing_plan_id":"cebpf4jnsgd1na2vs0mg"},{"bike_id":"134b5bea-4094-40ed-9e13-dd2d02fb9d33","system_id":"levelo_inurba_marseille","lat":43.2997,"lon":5.38492,"is_reserved":false,"is_disabled":false,"rental_uris":{"android":"levelo://app?vid=134b5bea-4094-40ed-9e13-dd2d02fb9d33","ios":"levelo://app?vid=134b5bea-4094-40ed-9e13-dd2d02fb9d33"},"vehicle_type_id":"4","last_reported":1731438399,"current_range_meters":30000,"station_id":"ce4bgj92rcd13ifvqbd0","pricing_plan_id":"cebpf4jnsgd1na2vs0mg"},{"bike_id":"aa81cd4d-52e5-4916-b3b1-6e135085c8ef","system_id":"levelo_inurba_marseille","lat":43.24801,"lon":5.37461,"is_reserved":false,"is_disabled":false,"rental_uris":{"android":"levelo://app?vid=aa81cd4d-52e5-4916-b3b1-6e135085c8ef","ios":"levelo://app?vid=aa81cd4d-52e5-4916-b3b1-6e135085c8ef"},"vehicle_type_id":"4","last_reported":1731438399,"current_range_meters":39200,"station_id":"ce4bhgh2rcd13ifvqfb0","pricing_plan_id":"cebpf4jnsgd1na2vs0mg"},{"bike_id":"af3c2379-836a-42b2-a7e4-5e983acec102","system_id":"levelo_inurba_marseille","lat":43.29252,"lon":5.40911,"is_reserved":false,"is_disabled":false,"rental_uris":{"android":"levelo://app?vid=af3c2379-836a-42b2-a7e4-5e983acec102","ios":"levelo://app?vid=af3c2379-836a-42b2-a7e4-5e983acec102"},"vehicle_type_id":"4","last_reported":1731438399,"current_range_meters":33200,"station_id":"ce4bh192rcd13ifvqdc0","pricing_plan_id":"cebpf4jnsgd1na2vs0mg"},{"bike_id":"d1637773-1cf9-455f-bb0f-cde84ed359c0","system_id":"levelo_inurba_marseille","lat":43.28451,"lon":5.35884,"is_reserved":false,"is_disabled":false,"rental_uris":{"android":"levelo://app?vid=d1637773-1cf9-455f-bb0f-cde84ed359c0","ios":"levelo://app?vid=d1637773-1cf9-455f-bb0f-cde84ed359c0"},"vehicle_type_id":"4","last_reported":1731438399,"current_range_meters":38800,"station_id":"ce4bhah2rcd13ifvqei0","pricing_plan_id":"cebpf4jnsgd1na2vs0mg"},{"bike_id":"ed2020d9-53c9-4082-9a6b-029c3dfcbe63","system_id":"levelo_inurba_marseille","lat":43.29298,"lon":5.39335,"is_reserved":false,"is_disabled":false,"rental_uris":{"android":"levelo://app?vid=ed2020d9-53c9-4082-9a6b-029c3dfcbe63","ios":"levelo://app?vid=ed2020d9-53c9-4082-9a6b-029c3dfcbe63"},"vehicle_type_id":"4","last_reported":1731438399,"current_range_meters":4800,"station_id":"","pricing_plan_id":"cebpf4jnsgd1na2vs0mg"},{"bike_id":"7ca33f6b-e349-49e0-8226-5b445a766323","system_id":"levelo_inurba_marseille","lat":43.32102,"lon":5.36777,"is_reserved":false,"is_disabled":false,"rental_uris":{"android":"levelo://app?vid=7ca33f6b-e349-49e0-8226-5b445a766323","ios":"levelo://app?vid=7ca33f6b-e349-49e0-8226-5b445a766323"},"vehicle_type_id":"4","last_reported":1731438399,"current_range_meters":23200,"station_id":"ce4bhrh2rcd13ifvqhug","pricing_plan_id":"cebpf4jnsgd1na2vs0mg"},{"bike_id":"7eefa272-3116-4b84-a466-6a64c9d9db4c","system_id":"levelo_inurba_marseille","lat":43.28853,"lon":5.35835,"is_reserved":false,"is_disabled":false,"rental_uris":{"android":"levelo://app?vid=7eefa272-3116-4b84-a466-6a64c9d9db4c","ios":"levelo://app?vid=7eefa272-3116-4b84-a466-6a64c9d9db4c"},"vehicle_type_id":"4","last_reported":1731438399,"current_range_meters":37600,"station_id":"ce4bhb12rcd13ifvqem0","pricing_plan_id":"cebpf4jnsgd1na2vs0mg"},{"bike_id":"9b6f4511-578c-42ab-81ac-bef492210160","system_id":"levelo_inurba_marseille","lat":43.31331,"lon":5.39695,"is_reserved":false,"is_disabled":false,"rental_uris":{"android":"levelo://app?vid=9b6f4511-578c-42ab-81ac-bef492210160","ios":"levelo://app?vid=9b6f4511-578c-42ab-81ac-bef492210160"},"vehicle_type_id":"4","last_reported":1731438399,"current_range_meters":39200,"station_id":"ce4bgvp2rcd13ifvqcu0","pricing_plan_id":"cebpf4jnsgd1na2vs0mg"},{"bike_id":"367f8902-ddbb-48ae-ac65-1aaf06459443","system_id":"levelo_inurba_marseille","lat":43.267802,"lon":5.394164,"is_reserved":false,"is_disabled":false,"rental_uris":{"android":"levelo://app?vid=367f8902-ddbb-48ae-ac65-1aaf06459443","ios":"levelo://app?vid=367f8902-ddbb-48ae-ac65-1aaf06459443"},"vehicle_type_id":"4","last_reported":1731438399,"current_range_meters":27600,"station_id":"ce4bh3h2rcd13ifvqdo0","pricing_plan_id":"cebpf4jnsgd1na2vs0mg"},{"bike_id":"a2fed592-e055-404e-949b-38dc428964cc","system_id":"levelo_inurba_marseille","lat":43.26557,"lon":5.39002,"is_reserved":false,"is_disabled":false,"rental_uris":{"android":"levelo://app?vid=a2fed592-e055-404e-949b-38dc428964cc","ios":"levelo://app?vid=a2fed592-e055-404e-949b-38dc428964cc"},"vehicle_type_id":"4","last_reported":1731438399,"current_range_meters":9600,"station_id":"ce4bhe12rcd13ifvqf30","pricing_plan_id":"cebpf4jnsgd1na2vs0mg"},{"bike_id":"3a49739d-e0d5-44ce-afc6-bcfbf1160431","system_id":"levelo_inurba_marseille","lat":43.27948,"lon":5.41048,"is_reserved":false,"is_disabled":false,"rental_uris":{"android":"levelo://app?vid=3a49739d-e0d5-44ce-afc6-bcfbf1160431","ios":"levelo://app?vid=3a49739d-e0d5-44ce-afc6-bcfbf1160431"},"vehicle_type_id":"4","last_reported":1731438399,"current_range_meters":33600,"station_id":"ce4bhnp2rcd13ifvqh0g","pricing_plan_id":"cebpf4jnsgd1na2vs0mg"},{"bike_id":"d8691974-b452-4302-8aac-bf750f2c4c5d","system_id":"levelo_inurba_marseille","lat":43.28415,"lon":5.34996,"is_reserved":false,"is_disabled":false,"rental_uris":{"android":"levelo://app?vid=d8691974-b452-4302-8aac-bf750f2c4c5d","ios":"levelo://app?vid=d8691974-b452-4302-8aac-bf750f2c4c5d"},"vehicle_type_id":"4","last_reported":1731438399,"current_range_meters":38000,"station_id":"ce4bhbh2rcd13ifvqepg","pricing_plan_id":"cebpf4jnsgd1na2vs0mg"},{"bike_id":"6cc49a5a-10d7-4481-bb6e-0b4566b7e49e","system_id":"levelo_inurba_marseille","lat":43.3064,"lon":5.4007,"is_reserved":false,"is_disabled":false,"rental_uris":{"android":"levelo://app?vid=6cc49a5a-10d7-4481-bb6e-0b4566b7e49e","ios":"levelo://app?vid=6cc49a5a-10d7-4481-bb6e-0b4566b7e49e"},"vehicle_type_id":"4","last_reported":1731438399,"current_range_meters":39200,"station_id":"ce4bh112rcd13ifvqda0","pricing_plan_id":"cebpf4jnsgd1na2vs0mg"},{"bike_id":"290d9ccc-ec87-4d41-bca2-75fa1cd5e08e","system_id":"levelo_inurba_marseille","lat":43.28858,"lon":5.35842,"is_reserved":false,"is_disabled":false,"rental_uris":{"android":"levelo://app?vid=290d9ccc-ec87-4d41-bca2-75fa1cd5e08e","ios":"levelo://app?vid=290d9ccc-ec87-4d41-bca2-75fa1cd5e08e"},"vehicle_type_id":"4","last_reported":1731438399,"current_range_meters":38800,"station_id":"ce4bhb12rcd13ifvqem0","pricing_plan_id":"cebpf4jnsgd1na2vs0mg"},{"bike_id":"87405bba-8d27-43a9-ba45-4436b04620c4","system_id":"levelo_inurba_marseille","lat":43.3108,"lon":5.42431,"is_reserved":false,"is_disabled":false,"rental_uris":{"android":"levelo://app?vid=87405bba-8d27-43a9-ba45-4436b04620c4","ios":"levelo://app?vid=87405bba-8d27-43a9-ba45-4436b04620c4"},"vehicle_type_id":"4","last_reported":1731438399,"current_range_meters":32000,"station_id":"ce4bhp92rcd13ifvqhag","pricing_plan_id":"cebpf4jnsgd1na2vs0mg"},{"bike_id":"d4cb47ce-3a58-486a-a45f-d4337f15aeff","system_id":"levelo_inurba_marseille","lat":43.25746,"lon":5.39443,"is_reserved":false,"is_disabled":false,"rental_uris":{"android":"levelo://app?vid=d4cb47ce-3a58-486a-a45f-d4337f15aeff","ios":"levelo://app?vid=d4cb47ce-3a58-486a-a45f-d4337f15aeff"},"vehicle_type_id":"4","last_reported":1731438399,"current_range_meters":32400,"station_id":"ce4bhip2rcd13ifvqft0","pricing_plan_id":"cebpf4jnsgd1na2vs0mg"},{"bike_id":"9963c250-fdd1-4d76-bc9a-de3e882b0868","system_id":"levelo_inurba_marseille","lat":43.2721,"lon":5.39178,"is_reserved":false,"is_disabled":false,"rental_uris":{"android":"levelo://app?vid=9963c250-fdd1-4d76-bc9a-de3e882b0868","ios":"levelo://app?vid=9963c250-fdd1-4d76-bc9a-de3e882b0868"},"vehicle_type_id":"4","last_reported":1731438399,"current_range_meters":9600,"station_id":"ce4bhhp2rcd13ifvqfm0","pricing_plan_id":"cebpf4jnsgd1na2vs0mg"},{"bike_id":"604969ab-247a-4436-8de3-4b0947861361","system_id":"levelo_inurba_marseille","lat":43.27824,"lon":5.40722,"is_reserved":false,"is_disabled":false,"rental_uris":{"android":"levelo://app?vid=604969ab-247a-4436-8de3-4b0947861361","ios":"levelo://app?vid=604969ab-247a-4436-8de3-4b0947861361"},"vehicle_type_id":"4","last_reported":1731438399,"current_range_meters":20400,"station_id":"ce4bhnh2rcd13ifvqgtg","pricing_plan_id":"cebpf4jnsgd1na2vs0mg"},{"bike_id":"991726b4-5671-45cd-9f87-83117ad09650","system_id":"levelo_inurba_marseille","lat":43.32363,"lon":5.38878,"is_reserved":false,"is_disabled":false,"rental_uris":{"android":"levelo://app?vid=991726b4-5671-45cd-9f87-83117ad09650","ios":"levelo://app?vid=991726b4-5671-45cd-9f87-83117ad09650"},"vehicle_type_id":"4","last_reported":1731438399,"current_range_meters":25600,"station_id":"ce4bhqp2rcd13ifvqhog","pricing_plan_id":"cebpf4jnsgd1na2vs0mg"},{"bike_id":"652d5563-c48b-48dd-900b-0b62a1a21cc9","system_id":"levelo_inurba_marseille","lat":43.27995,"lon":5.41661,"is_reserved":false,"is_disabled":false,"rental_uris":{"android":"levelo://app?vid=652d5563-c48b-48dd-900b-0b62a1a21cc9","ios":"levelo://app?vid=652d5563-c48b-48dd-900b-0b62a1a21cc9"},"vehicle_type_id":"4","last_reported":1731438399,"current_range_meters":6400,"station_id":"ce4bho12rcd13ifvqh1g","pricing_plan_id":"cebpf4jnsgd1na2vs0mg"},{"bike_id":"1b78dc6f-bcd7-4772-9063-a0fe1798c19e","system_id":"levelo_inurba_marseille","lat":43.28152,"lon":5.42641,"is_reserved":false,"is_disabled":false,"rental_uris":{"android":"levelo://app?vid=1b78dc6f-bcd7-4772-9063-a0fe1798c19e","ios":"levelo://app?vid=1b78dc6f-bcd7-4772-9063-a0fe1798c19e"},"vehicle_type_id":"4","last_reported":1731438399,"current_range_meters":36400,"station_id":"ce4bhnh2rcd13ifvqgug","pricing_plan_id":"cebpf4jnsgd1na2vs0mg"},{"bike_id":"338beb6c-7d58-4935-9c4c-65b1e1f6e74d","system_id":"levelo_inurba_marseille","lat":43.25006,"lon":5.38918,"is_reserved":false,"is_disabled":false,"rental_uris":{"android":"levelo://app?vid=338beb6c-7d58-4935-9c4c-65b1e1f6e74d","ios":"levelo://app?vid=338beb6c-7d58-4935-9c4c-65b1e1f6e74d"},"vehicle_type_id":"4","last_reported":1731438399,"current_range_meters":20400,"station_id":"ce4bhgp2rcd13ifvqfd0","pricing_plan_id":"cebpf4jnsgd1na2vs0mg"},{"bike_id":"515a80a5-0ba7-4345-8558-977afc45db37","system_id":"levelo_inurba_marseille","lat":43.28727,"lon":5.3607,"is_reserved":false,"is_disabled":false,"rental_uris":{"android":"levelo://app?vid=515a80a5-0ba7-4345-8558-977afc45db37","ios":"levelo://app?vid=515a80a5-0ba7-4345-8558-977afc45db37"},"vehicle_type_id":"4","last_reported":1731438399,"current_range_meters":39200,"station_id":"cki0cbj6b192h4jlfktg","pricing_plan_id":"cebpf4jnsgd1na2vs0mg"},{"bike_id":"7f2168b2-5622-4833-a747-ee2d754883b4","system_id":"levelo_inurba_marseille","lat":43.28345,"lon":5.38102,"is_reserved":false,"is_disabled":false,"rental_uris":{"android":"levelo://app?vid=7f2168b2-5622-4833-a747-ee2d754883b4","ios":"levelo://app?vid=7f2168b2-5622-4833-a747-ee2d754883b4"},"vehicle_type_id":"4","last_reported":1731438399,"current_range_meters":5600,"station_id":"ce4bh412rcd13ifvqdr0","pricing_plan_id":"cebpf4jnsgd1na2vs0mg"},{"bike_id":"801a3db4-404a-4f45-8da7-e6281687dfcd","system_id":"levelo_inurba_marseille","lat":43.29064,"lon":5.35907,"is_reserved":false,"is_disabled":false,"rental_uris":{"android":"levelo://app?vid=801a3db4-404a-4f45-8da7-e6281687dfcd","ios":"levelo://app?vid=801a3db4-404a-4f45-8da7-e6281687dfcd"},"vehicle_type_id":"4","last_reported":1731438399,"current_range_meters":7200,"station_id":"ce4bha92rcd13ifvqeg0","pricing_plan_id":"cebpf4jnsgd1na2vs0mg"},{"bike_id":"75477a1a-4e8c-48d3-bcf2-d9ee5222e19e","system_id":"levelo_inurba_marseille","lat":43.24796,"lon":5.37455,"is_reserved":false,"is_disabled":false,"rental_uris":{"android":"levelo://app?vid=75477a1a-4e8c-48d3-bcf2-d9ee5222e19e","ios":"levelo://app?vid=75477a1a-4e8c-48d3-bcf2-d9ee5222e19e"},"vehicle_type_id":"4","last_reported":1731438399,"current_range_meters":17200,"station_id":"ce4bhgh2rcd13ifvqfb0","pricing_plan_id":"cebpf4jnsgd1na2vs0mg"},{"bike_id":"f9759fe8-3500-4cad-8ee7-da4c287019e9","system_id":"levelo_inurba_marseille","lat":43.3229,"lon":5.38272,"is_reserved":false,"is_disabled":false,"rental_uris":{"android":"levelo://app?vid=f9759fe8-3500-4cad-8ee7-da4c287019e9","ios":"levelo://app?vid=f9759fe8-3500-4cad-8ee7-da4c287019e9"},"vehicle_type_id":"4","last_reported":1731438399,"current_range_meters":14800,"station_id":"ce4bhr12rcd13ifvqhqg","pricing_plan_id":"cebpf4jnsgd1na2vs0mg"},{"bike_id":"257e8fcc-a6ab-4f4b-a151-1263f4c801c2","system_id":"levelo_inurba_marseille","lat":43.28466,"lon":5.35879,"is_reserved":false,"is_disabled":false,"rental_uris":{"android":"levelo://app?vid=257e8fcc-a6ab-4f4b-a151-1263f4c801c2","ios":"levelo://app?vid=257e8fcc-a6ab-4f4b-a151-1263f4c801c2"},"vehicle_type_id":"4","last_reported":1731438399,"current_range_meters":24400,"station_id":"ce4bhah2rcd13ifvqei0","pricing_plan_id":"cebpf4jnsgd1na2vs0mg"},{"bike_id":"2dac7feb-eea9-4852-93c2-f3c53a9e7371","system_id":"levelo_inurba_marseille","lat":43.30457,"lon":5.38942,"is_reserved":false,"is_disabled":false,"rental_uris":{"android":"levelo://app?vid=2dac7feb-eea9-4852-93c2-f3c53a9e7371","ios":"levelo://app?vid=2dac7feb-eea9-4852-93c2-f3c53a9e7371"},"vehicle_type_id":"4","last_reported":1731438399,"current_range_meters":22000,"station_id":"","pricing_plan_id":"cebpf4jnsgd1na2vs0mg"},{"bike_id":"2a932a1a-50af-4c12-a79d-1d78291b80dc","system_id":"levelo_inurba_marseille","lat":43.27073,"lon":5.4228,"is_reserved":false,"is_disabled":false,"rental_uris":{"android":"levelo://app?vid=2a932a1a-50af-4c12-a79d-1d78291b80dc","ios":"levelo://app?vid=2a932a1a-50af-4c12-a79d-1d78291b80dc"},"vehicle_type_id":"4","last_reported":1731438399,"current_range_meters":24400,"station_id":"ce4bhk92rcd13ifvqgb0","pricing_plan_id":"cebpf4jnsgd1na2vs0mg"},{"bike_id":"b85b7669-422e-46a3-afda-8ce2f94b78cc","system_id":"levelo_inurba_marseille","lat":43.31753,"lon":5.3902,"is_reserved":false,"is_disabled":false,"rental_uris":{"android":"levelo://app?vid=b85b7669-422e-46a3-afda-8ce2f94b78cc","ios":"levelo://app?vid=b85b7669-422e-46a3-afda-8ce2f94b78cc"},"vehicle_type_id":"4","last_reported":1731438399,"current_range_meters":36800,"station_id":"ce4bhqp2rcd13ifvqhng","pricing_plan_id":"cebpf4jnsgd1na2vs0mg"},{"bike_id":"dd02ec95-b3ad-4225-9aa3-99448bc4cdf5","system_id":"levelo_inurba_marseille","lat":43.31078,"lon":5.38353,"is_reserved":false,"is_disabled":false,"rental_uris":{"android":"levelo://app?vid=dd02ec95-b3ad-4225-9aa3-99448bc4cdf5","ios":"levelo://app?vid=dd02ec95-b3ad-4225-9aa3-99448bc4cdf5"},"vehicle_type_id":"4","last_reported":1731438399,"current_range_meters":27600,"station_id":"ce4bgv92rcd13ifvqcr0","pricing_plan_id":"cebpf4jnsgd1na2vs0mg"},{"bike_id":"be7286c5-8ba3-48f2-9ec2-68842fd15d13","system_id":"levelo_inurba_marseille","lat":43.2738,"lon":5.36256,"is_reserved":false,"is_disabled":false,"rental_uris":{"android":"levelo://app?vid=be7286c5-8ba3-48f2-9ec2-68842fd15d13","ios":"levelo://app?vid=be7286c5-8ba3-48f2-9ec2-68842fd15d13"},"vehicle_type_id":"4","last_reported":1731438399,"current_range_meters":38400,"station_id":"ce4bhbh2rcd13ifvqeo0","pricing_plan_id":"cebpf4jnsgd1na2vs0mg"},{"bike_id":"4d4469f7-5424-4f01-8b8d-6eb6c3573259","system_id":"levelo_inurba_marseille","lat":43.337444,"lon":5.374475,"is_reserved":false,"is_disabled":false,"rental_uris":{"android":"levelo://app?vid=4d4469f7-5424-4f01-8b8d-6eb6c3573259","ios":"levelo://app?vid=4d4469f7-5424-4f01-8b8d-6eb6c3573259"},"vehicle_type_id":"4","last_reported":1731438399,"current_range_meters":36800,"station_id":"","pricing_plan_id":"cebpf4jnsgd1na2vs0mg"},{"bike_id":"b95b9d5f-6f84-4af1-b985-fe4d827a4791","system_id":"levelo_inurba_marseille","lat":43.2885,"lon":5.39323,"is_reserved":false,"is_disabled":false,"rental_uris":{"android":"levelo://app?vid=b95b9d5f-6f84-4af1-b985-fe4d827a4791","ios":"levelo://app?vid=b95b9d5f-6f84-4af1-b985-fe4d827a4791"},"vehicle_type_id":"4","last_reported":1731438399,"current_range_meters":16800,"station_id":"ce4bh2p2rcd13ifvqdi0","pricing_plan_id":"cebpf4jnsgd1na2vs0mg"},