{"last_updated":1732688063,"ttl":60,"version":"2.2","data":{"bikes":[{"bike_id":"867de474-7d21-4a45-b160-f59fdff81394","system_id":"levelo_inurba_marseille","lat":43.31329,"lon":5.39699,"is_reserved":false,"is_disabled":false,"rental_uris":{"android":"levelo://app?vid=867de474-7d21-4a45-b160-f59fdff81394","ios":"levelo://app?vid=867de474-7d21-4a45-b160-f59fdff81394"},"vehicle_type_id":"4","last_reported":1732688063,"current_range_meters":38400,"station_id":"ce4bgvp2rcd13ifvqcu0","pricing_plan_id":"cebpf4jnsgd1na2vs0mg"},{"bike_id":"d9c28aa4-81a4-4d13-8fc9-100bb4e3d7e2","system_id":"levelo_inurba_marseille","lat":43.27407,"lon":5.38952,"is_reserved":false,"is_disabled":true,"rental_uris":{"android":"levelo://app?vid=d9c28aa4-81a4-4d13-8fc9-100bb4e3d7e2","ios":"levelo://app?vid=d9c28aa4-81a4-4d13-8fc9-100bb4e3d7e2"},"vehicle_type_id":"4","last_reported":1732688063,"current_range_meters":0,"station_id":"","pricing_plan_id":"cebpf4jnsgd1na2vs0mg"},{"bike_id":"a33a40f2-a99d-4474-9adc-0da0cd98f9a9","system_id":"levelo_inurba_marseille","lat":43.27376,"lon":5.36258,"is_reserved":false,"is_disabled":false,"rental_uris":{"android":"levelo://app?vid=a33a40f2-a99d-4474-9adc-0da0cd98f9a9","ios":"levelo://app?vid=a33a40f2-a99d-4474-9adc-0da0cd98f9a9"},"vehicle_type_id":"4","last_reported":1732688063,"current_range_meters":38400,"station_id":"ce4bhbh2rcd13ifvqeo0","pricing_plan_id":"cebpf4jnsgd1na2vs0mg"},{"bike_id":"b856c8b4-412d-4c25-bdd4-e6b29aed04cb","system_id":"levelo_inurba_marseille","lat":43.22939,"lon":5.35375,"is_reserved":false,"is_disabled":false,"rental_uris":{"android":"levelo://app?vid=b856c8b4-412d-4c25-bdd4-e6b29aed04cb","ios":"levelo://app?vid=b856c8b4-412d-4c25-bdd4-e6b29aed04cb"},"vehicle_type_id":"4","last_reported":1732688063,"current_range_meters":38800,"station_id":"cpo3532slgdg3j2ikp40","pricing_plan_id":"cebpf4jnsgd1na2vs0mg"},{"bike_id":"4eebdf16-4fbb-423f-bcd8-8055ad21b28f","system_id":"levelo_inurba_marseille","lat":43.31069,"lon":5.38349,"is_reserved":false,"is_disabled":false,"rental_uris":{"android":"levelo://app?vid=4eebdf16-4fbb-423f-bcd8-8055ad21b28f","ios":"levelo://app?vid=4eebdf16-4fbb-423f-bcd8-8055ad21b28f"},"vehicle_type_id":"4","last_reported":1732688063,"current_range_meters":26000,"station_id":"ce4bgv92rcd13ifvqcr0","pricing_plan_id":"cebpf4jnsgd1na2vs0mg"},{"bike_id":"b51d31e3-b561-4c0d-b4c9-74c74d6a4aa9","system_id":"levelo_inurba_marseille","lat":43.33022,"lon":5.39053,"is_reserved":false,"is_disabled":false,"rental_uris":{"android":"levelo://app?vid=b51d31e3-b561-4c0d-b4c9-74c74d6a4aa9","ios":"levelo://app?vid=b51d31e3-b561-4c0d-b4c9-74c74d6a4aa9"},"vehicle_type_id":"4","last_reported":1732688063,"current_range_meters":38000,"station_id":"ce4bhr92rcd13ifvqhrg","pricing_plan_id":"cebpf4jnsgd1na2vs0mg"},{"bike_id":"d69e2163-7b36-4552-b784-37cc2a937a83","system_id":"levelo_inurba_marseille","lat":43.31164,"lon":5.38729,"is_reserved":false,"is_disabled":false,"rental_uris":{"android":"levelo://app?vid=d69e2163-7b36-4552-b784-37cc2a937a83","ios":"levelo://app?vid=d69e2163-7b36-4552-b784-37cc2a937a83"},"vehicle_type_id":"4","last_reported":1732688063,"current_range_meters":17200,"station_id":"ce4bgv12rcd13ifvqcp0","pricing_plan_id":"cebpf4jnsgd1na2vs0mg"},{"bike_id":"f0347ef3-0bf2-4904-8134-c34ce91c6bae","system_id":"levelo_inurba_marseille","lat":43.30529,"lon":5.36716,"is_reserved":false,"is_disabled":true,"rental_uris":{"android":"levelo://app?vid=f0347ef3-0bf2-4904-8134-c34ce91c6bae","ios":"levelo://app?vid=f0347ef3-0bf2-4904-8134-c34ce91c6bae"},"vehicle_type_id":"4","last_reported":1732688063,"current_range_meters":12800,"station_id":"ce4bgrp2rcd13ifvqc9g","pricing_plan_id":"cebpf4jnsgd1na2vs0mg"},{"bike_id":"a481b9a0-9c57-4f11-a4b3-9fcac54c7392","system_id":"levelo_inurba_marseille","lat":43.240739,"lon":5.377591,"is_reserved":false,"is_disabled":false,"rental_uris":{"android":"levelo://app?vid=a481b9a0-9c57-4f11-a4b3-9fcac54c7392","ios":"levelo://app?vid=a481b9a0-9c57-4f11-a4b3-9fcac54c7392"},"vehicle_type_id":"4","last_reported":1732688063,"current_range_meters":38400,"station_id":"ce4bhnp2rcd13ifvqgvg","pricing_plan_id":"cebpf4jnsgd1na2vs0mg"},{"bike_id":"7d7afdb0-f80a-46d6-8e62-3b4de73cdf4b","system_id":"levelo_inurba_marseille","lat":43.30359,"lon":5.41871,"is_reserved":false,"is_disabled":false,"rental_uris":{"android":"levelo://app?vid=7d7afdb0-f80a-46d6-8e62-3b4de73cdf4b","ios":"levelo://app?vid=7d7afdb0-f80a-46d6-8e62-3b4de73cdf4b"},"vehicle_type_id":"4","last_reported":1732688063,"current_range_meters":28800,"station_id":"ce4bhop2rcd13ifvqh7g","pricing_plan_id":"cebpf4jnsgd1na2vs0mg"},{"bike_id":"8d79141f-b811-4a05-965b-319f30ef22a4","system_id":"levelo_inurba_marseille","lat":43.2797,"lon":5.38755,"is_reserved":false,"is_disabled":false,"rental_uris":{"android":"levelo://app?vid=8d79141f-b811-4a05-965b-319f30ef22a4","ios":"levelo://app?vid=8d79141f-b811-4a05-965b-319f30ef22a4"},"vehicle_type_id":"4","last_reported":1732688063,"current_range_meters":14400,"station_id":"ce4bhg12rcd13ifvqf80","pricing_plan_id":"cebpf4jnsgd1na2vs0mg"},{"bike_id":"a0609e4b-fca2-4f06-8a2b-54046bfadb87","system_id":"levelo_inurba_marseille","lat":43.25883,"lon":5.39887,"is_reserved":false,"is_disabled":false,"rental_uris":{"android":"levelo://app?vid=a0609e4b-fca2-4f06-8a2b-54046bfadb87","ios":"levelo://app?vid=a0609e4b-fca2-4f06-8a2b-54046bfadb87"},"vehicle_type_id":"4","last_reported":1732688063,"current_range_meters":39200,"station_id":"ce4bhl92rcd13ifvqghg","pricing_plan_id":"cebpf4jnsgd1na2vs0mg"},{"bike_id":"4a6f40e9-24aa-48ac-9ef2-a1bddf93539a","system_id":"levelo_inurba_marseille","lat":43.24072,"lon":5.37757,"is_reserved":false,"is_disabled":false,"rental_uris":{"android":"levelo://app?vid=4a6f40e9-24aa-48ac-9ef2-a1bddf93539a","ios":"levelo://app?vid=4a6f40e9-24aa-48ac-9ef2-a1bddf93539a"},"vehicle_type_id":"4","last_reported":1732688063,"current_range_meters":36400,"station_id":"ce4bhnp2rcd13ifvqgvg","pricing_plan_id":"cebpf4jnsgd1na2vs0mg"},{"bike_id":"37ee09df-8673-47a3-96b4-c2ef618884e5","system_id":"levelo_inurba_marseille","lat":43.337444,"lon":5.374475,"is_reserved":false,"is_disabled":false,"rental_uris":{"android":"levelo://app?vid=37ee09df-8673-47a3-96b4-c2ef618884e5","ios":"levelo://app?vid=37ee09df-8673-47a3-96b4-c2ef618884e5"},"vehicle_type_id":"4","last_reported":1732688063,"current_range_meters":32800,"station_id":"","pricing_plan_id":"cebpf4jnsgd1na2vs0mg"},{"bike_id":"df5a51f9-62a6-4145-a8df-400c84d19dd4","system_id":"levelo_inurba_marseille","lat":43.28081,"lon":5.39666,"is_reserved":false,"is_disabled":false,"rental_uris":{"android":"levelo://app?vid=df5a51f9-62a6-4145-a8df-400c84d19dd4","ios":"levelo://app?vid=df5a51f9-62a6-4145-a8df-400c84d19dd4"},"vehicle_type_id":"4","last_reported":1732688063,"current_range_meters":33200,"station_id":"ce4bho12rcd13ifvqh2g","pricing_plan_id":"cebpf4jnsgd1na2vs0mg"},{"bike_id":"2830472c-5a6d-42c6-b3e0-3d5fa9e78717","system_id":"levelo_inurba_marseille","lat":43.29268,"lon":5.40132,"is_reserved":false,"is_disabled":false,"rental_uris":{"android":"levelo://app?vid=2830472c-5a6d-42c6-b3e0-3d5fa9e78717","ios":"levelo://app?vid=2830472c-5a6d-42c6-b3e0-3d5fa9e78717"},"vehicle_type_id":"4","last_reported":1732688063,"current_range_meters":38800,"station_id":"ce4bh312rcd13ifvqdk0","pricing_plan_id":"cebpf4jnsgd1na2vs0mg"},{"bike_id":"c523214a-88b9-4353-bb8b-55d45b020426","system_id":"levelo_inurba_marseille","lat":43.27817,"lon":5.40712,"is_reserved":false,"is_disabled":true,"rental_uris":{"android":"levelo://app?vid=c523214a-88b9-4353-bb8b-55d45b020426","ios":"levelo://app?vid=c523214a-88b9-4353-bb8b-55d45b020426"},"vehicle_type_id":"4","last_reported":1732688063,"current_range_meters":26000,"station_id":"ce4bhnh2rcd13ifvqgtg","pricing_plan_id":"cebpf4jnsgd1na2vs0mg"},{"bike_id":"208770de-9b49-4ea6-b6b3-1c83bb03a84e","system_id":"levelo_inurba_marseille","lat":43.295961,"lon":5.381096,"is_reserved":false,"is_disabled":true,"rental_uris":{"android":"levelo://app?vid=208770de-9b49-4ea6-b6b3-1c83bb03a84e","ios":"levelo://app?vid=208770de-9b49-4ea6-b6b3-1c83bb03a84e"},"vehicle_type_id":"4","last_reported":1732688063,"current_range_meters":36800,"station_id":"ce4bgl12rcd13ifvqbo0","pricing_plan_id":"cebpf4jnsgd1na2vs0mg"},{"bike_id":"e7d61961-f2fb-44c4-9ee3-a227626b507f","system_id":"levelo_inurba_marseille","lat":43.23069,"lon":5.35495,"is_reserved":false,"is_disabled":false,"rental_uris":{"android":"levelo://app?vid=e7d61961-f2fb-44c4-9ee3-a227626b507f","ios":"levelo://app?vid=e7d61961-f2fb-44c4-9ee3-a227626b507f"},"vehicle_type_id":"4","last_reported":1732688063,"current_range_meters":38800,"station_id":"cpo3342slgdg3j2ifvpg","pricing_plan_id":"cebpf4jnsgd1na2vs0mg"},{"bike_id":"f7165f07-e923-4579-b202-89b3912a60e2","system_id":"levelo_inurba_marseille","lat":43.25868,"lon":5.39904,"is_reserved":false,"is_disabled":false,"rental_uris":{"android":"levelo://app?vid=f7165f07-e923-4579-b202-89b3912a60e2","ios":"levelo://app?vid=f7165f07-e923-4579-b202-89b3912a60e2"},"vehicle_type_id":"4","last_reported":1732688063,"current_range_meters":35600,"station_id":"ce4bhl92rcd13ifvqghg","pricing_plan_id":"cebpf4jnsgd1na2vs0mg"},{"bike_id":"a6e22c89-3dcb-4b2e-a4cc-b4c11dbf537a","system_id":"levelo_inurba_marseille","lat":43.23193,"lon":5.39992,"is_reserved":false,"is_disabled":false,"rental_uris":{"android":"levelo://app?vid=a6e22c89-3dcb-4b2e-a4cc-b4c11dbf537a","ios":"levelo://app?vid=a6e22c89-3dcb-4b2e-a4cc-b4c11dbf537a"},"vehicle_type_id":"4","last_reported":1732688063,"current_range_meters":8400,"station_id":"ce4bhn12rcd13ifvqgqg","pricing_plan_id":"cebpf4jnsgd1na2vs0mg"},{"bike_id":"3252dc82-2394-4eb8-90e9-0af3fa88f0da","system_id":"levelo_inurba_marseille","lat":43.28368,"lon":5.38629,"is_reserved":false,"is_disabled":false,"rental_uris":{"android":"levelo://app?vid=3252dc82-2394-4eb8-90e9-0af3fa88f0da","ios":"levelo://app?vid=3252dc82-2394-4eb8-90e9-0af3fa88f0da"},"vehicle_type_id":"4","last_reported":1732688063,"current_range_meters":4000,"station_id":"ce4bh492rcd13ifvqdvg","pricing_plan_id":"cebpf4jnsgd1na2vs0mg"},{"bike_id":"232d3dc5-0179-4abc-b358-d4d004e73122","system_id":"levelo_inurba_marseille","lat":43.297996,"lon":5.404049,"is_reserved":false,"is_disabled":false,"rental_uris":{"android":"levelo://app?vid=232d3dc5-0179-4abc-b358-d4d004e73122","ios":"levelo://app?vid=232d3dc5-0179-4abc-b358-d4d004e73122"},"vehicle_type_id":"4","last_reported":1732688063,"current_range_meters":38800,"station_id":"ce4bh112rcd13ifvqd90","pricing_plan_id":"cebpf4jnsgd1na2vs0mg"},{"bike_id":"f98cf346-2f95-41c1-a190-288b7ed6e557","system_id":"levelo_inurba_marseille","lat":43.24086,"lon":5.37735,"is_reserved":false,"is_disabled":false,"rental_uris":{"android":"levelo://app?vid=f98cf346-2f95-41c1-a190-288b7ed6e557","ios":"levelo://app?vid=f98cf346-2f95-41c1-a190-288b7ed6e557"},"vehicle_type_id":"4","last_reported":1732688063,"current_range_meters":38800,"station_id":"ce4bhnp2rcd13ifvqgvg","pricing_plan_id":"cebpf4jnsgd1na2vs0mg"},{"bike_id":"3e74510c-d86b-4186-a956-0b286b8b0c60","system_id":"levelo_inurba_marseille","lat":43.24659,"lon":5.38169,"is_reserved":false,"is_disabled":false,"rental_uris":{"android":"levelo://app?vid=3e74510c-d86b-4186-a956-0b286b8b0c60","ios":"levelo://app?vid=3e74510c-d86b-4186-a956-0b286b8b0c60"},"vehicle_type_id":"4","last_reported":1732688063,"current_range_meters":38800,"station_id":"ce4bhih2rcd13ifvqfr0","pricing_plan_id":"cebpf4jnsgd1na2vs0mg"},{"bike_id":"52573f65-5b72-43da-b5d4-77d70a8ca779","system_id":"levelo_inurba_marseille","lat":43.2989,"lon":5.43675,"is_reserved":false,"is_disabled":false,"rental_uris":{"android":"levelo://app?vid=52573f65-5b72-43da-b5d4-77d70a8ca779","ios":"levelo://app?vid=52573f65-5b72-43da-b5d4-77d70a8ca779"},"vehicle_type_id":"4","last_reported":1732688063,"current_range_meters":24000,"station_id":"ce4bhpp2rcd13ifvqhfg","pricing_plan_id":"cebpf4jnsgd1na2vs0mg"},{"bike_id":"50faf925-6d92-4351-8818-2837752c5e27","system_id":"levelo_inurba_marseille","lat":43.28479,"lon":5.38572,"is_reserved":false,"is_disabled":false,"rental_uris":{"android":"levelo://app?vid=50faf925-6d92-4351-8818-2837752c5e27","ios":"levelo://app?vid=50faf925-6d92-4351-8818-2837752c5e27"},"vehicle_type_id":"4","last_reported":1732688063,"current_range_meters":38000,"station_id":"ce4bh8p2rcd13ifvqeb0","pricing_plan_id":"cebpf4jnsgd1na2vs0mg"},{"bike_id":"d0f355d6-2da8-4e13-954c-6a3558a9d4f4","system_id":"levelo_inurba_marseille","lat":43.304663,"lon":5.379035,"is_reserved":false,"is_disabled":false,"rental_uris":{"android":"levelo://app?vid=d0f355d6-2da8-4e13-954c-6a3558a9d4f4","ios":"levelo://app?vid=d0f355d6-2da8-4e13-954c-6a3558a9d4f4"},"vehicle_type_id":"4","last_reported":1732688063,"current_range_meters":30800,"station_id":"ce4bgup2rcd13ifvqcn0","pricing_plan_id":"cebpf4jnsgd1na2vs0mg"},{"bike_id":"44e9ef6c-3601-4e64-bdb7-e23e97ecda8c","system_id":"levelo_inurba_marseille","lat":43.2706,"lon":5.40246,"is_reserved":false,"is_disabled":false,"rental_uris":{"android":"levelo://app?vid=44e9ef6c-3601-4e64-bdb7-e23e97ecda8c","ios":"levelo://app?vid=44e9ef6c-3601-4e64-bdb7-e23e97ecda8c"},"vehicle_type_id":"4","last_reported":1732688063,"current_range_meters":38800,"station_id":"ce4bhk92rcd13ifvqgc0","pricing_plan_id":"cebpf4jnsgd1na2vs0mg"},{"bike_id":"05aa3fb3-ce2d-43ba-9106-8e5fd56b7e9e","system_id":"levelo_inurba_marseille","lat":43.28418,"lon":5.3591,"is_reserved":false,"is_disabled":false,"rental_uris":{"android":"levelo://app?vid=05aa3fb3-ce2d-43ba-9106-8e5fd56b7e9e","ios":"levelo://app?vid=05aa3fb3-ce2d-43ba-9106-8e5fd56b7e9e"},"vehicle_type_id":"4","last_reported":1732688063,"current_range_meters":16000,"station_id":"","pricing_plan_id":"cebpf4jnsgd1na2vs0mg"},{"bike_id":"38814ff2-ffa8-4a66-be40-cf35d7ad2ae5","system_id":"levelo_inurba_marseille","lat":43.28713,"lon":5.36087,"is_reserved":false,"is_disabled":false,"rental_uris":{"android":"levelo://app?vid=38814ff2-ffa8-4a66-be40-cf35d7ad2ae5","ios":"levelo://app?vid=38814ff2-ffa8-4a66-be40-cf35d7ad2ae5"},"vehicle_type_id":"4","last_reported":1732688063,"current_range_meters":18800,"station_id":"cki0cbj6b192h4jlfktg","pricing_plan_id":"cebpf4jnsgd1na2vs0mg"},{"bike_id":"c7f0c2ae-332e-48f3-b3ba-a947d25b82d6","system_id":"levelo_inurba_marseille","lat":43.310714,"lon":5.383481,"is_reserved":false,"is_disabled":false,"rental_uris":{"android":"levelo://app?vid=c7f0c2ae-332e-48f3-b3ba-a947d25b82d6","ios":"levelo://app?vid=c7f0c2ae-332e-48f3-b3ba-a947d25b82d6"},"vehicle_type_id":"4","last_reported":1732688063,"current_range_meters":38800,"station_id":"ce4bgv92rcd13ifvqcr0","pricing_plan_id":"cebpf4jnsgd1na2vs0mg"},{"bike_id":"38fc8bf0-78a6-4380-a16d-e35db9a0e0af","system_id":"levelo_inurba_marseille","lat":43.30252,"lon":5.40055,"is_reserved":false,"is_disabled":false,"rental_uris":{"android":"levelo://app?vid=38fc8bf0-78a6-4380-a16d-e35db9a0e0af","ios":"levelo://app?vid=38fc8bf0-78a6-4380-a16d-e35db9a0e0af"},"vehicle_type_id":"4","last_reported":1732688063,"current_range_meters":9200,"station_id":"ce4bgvh2rcd13ifvqcs0","pricing_plan_id":"cebpf4jnsgd1na2vs0mg"},{"bike_id":"9f0d99d0-4576-4f22-ab76-950a0271ec39","system_id":"levelo_inurba_marseille","lat":43.28335,"lon":5.38118,"is_reserved":false,"is_disabled":true,"rental_uris":{"android":"levelo://app?vid=9f0d99d0-4576-4f22-ab76-950a0271ec39","ios":"levelo://app?vid=9f0d99d0-4576-4f22-ab76-950a0271ec39"},"vehicle_type_id":"4","last_reported":1732688063,"current_range_meters":36800,"station_id":"ce4bh412rcd13ifvqdr0","pricing_plan_id":"cebpf4jnsgd1na2vs0mg"},{"bike_id":"05ad44e5-d7ad-40e4-b78e-31a67af522c0","system_id":"levelo_inurba_marseille","lat":43.25724,"lon":5.41118,"is_reserved":false,"is_disabled":false,"rental_uris":{"android":"levelo://app?vid=05ad44e5-d7ad-40e4-b78e-31a67af522c0","ios":"levelo://app?vid=05ad44e5-d7ad-40e4-b78e-31a67af522c0"},"vehicle_type_id":"4","last_reported":1732688063,"current_range_meters":36800,"station_id":"ce4bhkp2rcd13ifvqgd0","pricing_plan_id":"cebpf4jnsgd1na2vs0mg"},{"bike_id":"947b4ae5-6d27-48cd-83df-1d5aa4a4dc55","system_id":"levelo_inurba_marseille","lat":43.24668,"lon":5.38152,"is_reserved":false,"is_disabled":false,"rental_uris":{"android":"levelo://app?vid=947b4ae5-6d27-48cd-83df-1d5aa4a4dc55","ios":"levelo://app?vid=947b4ae5-6d27-48cd-83df-1d5aa4a4dc55"},"vehicle_type_id":"4","last_reported":1732688063,"current_range_meters":30800,"station_id":"ce4bhih2rcd13ifvqfr0","pricing_plan_id":"cebpf4jnsgd1na2vs0mg"},{"bike_id":"ab7996a7-3e98-469a-8c3d-e7e311995a38","system_id":"levelo_inurba_marseille","lat":43.25721,"lon":5.41109,"is_reserved":false,"is_disabled":false,"rental_uris":{"android":"levelo://app?vid=ab7996a7-3e98-469a-8c3d-e7e311995a38","ios":"levelo://app?vid=ab7996a7-3e98-469a-8c3d-e7e311995a38"},"vehicle_type_id":"4","last_reported":1732688063,"current_range_meters":38800,"station_id":"ce4bhkp2rcd13ifvqgd0","pricing_plan_id":"cebpf4jnsgd1na2vs0mg"},{"bike_id":"d7b4e41b-5ea8-4d2c-9fe2-df65bc6478d3","system_id":"levelo_inurba_marseille","lat":43.24813,"lon":5.37459,"is_reserved":false,"is_disabled":false,"rental_uris":{"android":"levelo://app?vid=d7b4e41b-5ea8-4d2c-9fe2-df65bc6478d3","ios":"levelo://app?vid=d7b4e41b-5ea8-4d2c-9fe2-df65bc6478d3"},"vehicle_type_id":"4","last_reported":1732688063,"current_range_meters":16800,"station_id":"ce4bhgh2rcd13ifvqfb0","pricing_plan_id":"cebpf4jnsgd1na2vs0mg"},{"bike_id":"ea05d9d6-8979-46e2-85b0-19a92c6440c3","system_id":"levelo_inurba_marseille","lat":43.28463,"lon":5.35872,"is_reserved":false,"is_disabled":false,"rental_uris":{"android":"levelo://app?vid=ea05d9d6-8979-46e2-85b0-19a92c6440c3","ios":"levelo://app?vid=ea05d9d6-8979-46e2-85b0-19a92c6440c3"},"vehicle_type_id":"4","last_reported":1732688063,"current_range_meters":26000,"station_id":"ce4bhah2rcd13ifvqei0","pricing_plan_id":"cebpf4jnsgd1na2vs0mg"},{"bike_id":"835a170b-9333-4a62-9af0-a89a87c1a309","system_id":"levelo_inurba_marseille","lat":43.246511,"lon":5.381559,"is_reserved":false,"is_disabled":false,"rental_uris":{"android":"levelo://app?vid=835a170b-9333-4a62-9af0-a89a87c1a309","ios":"levelo://app?vid=835a170b-9333-4a62-9af0-a89a87c1a309"},"vehicle_type_id":"4","last_reported":1732688063,"current_range_meters":8000,"station_id":"ce4bhih2rcd13ifvqfr0","pricing_plan_id":"cebpf4jnsgd1na2vs0mg"},{"bike_id":"830d6b87-87f9-4255-8695-a991d2800c7b","system_id":"levelo_inurba_marseille","lat":43.25583,"lon":5.38242,"is_reserved":false,"is_disabled":false,"rental_uris":{"android":"levelo://app?vid=830d6b87-87f9-4255-8695-a991d2800c7b","ios":"levelo://app?vid=830d6b87-87f9-4255-8695-a991d2800c7b"},"vehicle_type_id":"4","last_reported":1732688063,"current_range_meters":38000,"station_id":"ce4bhih2rcd13ifvqfs0","pricing_plan_id":"cebpf4jnsgd1na2vs0mg"},{"bike_id":"5733782f-388c-4cb7-bf14-271e8728ae0e","system_id":"levelo_inurba_marseille","lat":43.26551,"lon":5.37329,"is_reserved":false,"is_disabled":false,"rental_uris":{"android":"levelo://app?vid=5733782f-388c-4cb7-bf14-271e8728ae0e","ios":"levelo://app?vid=5733782f-388c-4cb7-bf14-271e8728ae0e"},"vehicle_type_id":"4","last_reported":1732688063,"current_range_meters":38800,"station_id":"ce4bhg12rcd13ifvqf70","pricing_plan_id":"cebpf4jnsgd1na2vs0mg"},{"bike_id":"dcdd3219-3a91-4c2a-ac8b-1c3e94c5cca6","system_id":"levelo_inurba_marseille","lat":43.30878,"lon":5.39617,"is_reserved":false,"is_disabled":false,"rental_uris":{"android":"levelo://app?vid=dcdd3219-3a91-4c2a-ac8b-1c3e94c5cca6","ios":"levelo://app?vid=dcdd3219-3a91-4c2a-ac8b-1c3e94c5cca6"},"vehicle_type_id":"4","last_reported":1732688063,"current_range_meters":38800,"station_id":"ce4bh012rcd13ifvqcv0","pricing_plan_id":"cebpf4jnsgd1na2vs0mg"},{"bike_id":"e305b645-243b-4cf8-a402-cf366332141f","system_id":"levelo_inurba_marseille","lat":43.29228,"lon":5.36038,"is_reserved":false,"is_disabled":false,"rental_uris":{"android":"levelo://app?vid=e305b645-243b-4cf8-a402-cf366332141f","ios":"levelo://app?vid=e305b645-243b-4cf8-a402-cf366332141f"},"vehicle_type_id":"4","last_reported":1732688063,"current_range_meters":34800,"station_id":"ce4bhbh2rcd13ifvqeqg","pricing_plan_id":"cebpf4jnsgd1na2vs0mg"},{"bike_id":"519c024c-492e-476b-b78a-c6051e15e25a","system_id":"levelo_inurba_marseille","lat":43.31757,"lon":5.39025,"is_reserved":false,"is_disabled":false,"rental_uris":{"android":"levelo://app?vid=519c024c-492e-476b-b78a-c6051e15e25a","ios":"levelo://app?vid=519c024c-492e-476b-b78a-c6051e15e25a"},"vehicle_type_id":"4","last_reported":1732688063,"current_range_meters":38000,"station_id":"ce4bhqp2rcd13ifvqhng","pricing_plan_id":"cebpf4jnsgd1na2vs0mg"},{"bike_id":"ecdb3743-a3d9-4afc-bb51-ff07b746abac","system_id":"levelo_inurba_marseille","lat":43.290304,"lon":5.399685,"is_reserved":false,"is_disabled":true,"rental_uris":{"android":"levelo://app?vid=ecdb3743-a3d9-4afc-bb51-ff07b746abac","ios":"levelo://app?vid=ecdb3743-a3d9-4afc-bb51-ff07b746abac"},"vehicle_type_id":"4","last_reported":1732688063,"current_range_meters":38000,"station_id":"ce4bh392rcd13ifvqdm0","pricing_plan_id":"cebpf4jnsgd1na2vs0mg"},{"bike_id":"0a2d70bc-b761-4725-9e3d-6717bfcaa6cc","system_id":"levelo_inurba_marseille","lat":43.337444,"lon":5.374475,"is_reserved":false,"is_disabled":false,"rental_uris":{"android":"levelo://app?vid=0a2d70bc-b761-4725-9e3d-6717bfcaa6cc","ios":"levelo://app?vid=0a2d70bc-b761-4725-9e3d-6717bfcaa6cc"},"vehicle_type_id":"4","last_reported":1732688063,"current_range_meters":34800,"station_id":"","pricing_plan_id":"cebpf4jnsgd1na2vs0mg"},{"bike_id":"b3479e59-acbd-4cc9-9c90-f77a72c4b110","system_id":"levelo_inurba_marseille","lat":43.31753,"lon":5.38997,"is_reserved":false,"is_disabled":false,"rental_uris":{"android":"levelo://app?vid=b3479e59-acbd-4cc9-9c90-f77a72c4b110","ios":"levelo://app?vid=b3479e59-acbd-4cc9-9c90-f77a72c4b110"},"vehicle_type_id":"4","last_reported":1732688063,"current_range_meters":7200,"station_id":"ce4bhqp2rcd13ifvqhng","pricing_plan_id":"cebpf4jnsgd1na2vs0mg"},{"bike_id":"8e46b2c9-0288-44ad-a5dd-399cf4cb50ae","system_id":"levelo_inurba_marseille","lat":43.33614,"lon":5.4103,"is_reserved":false,"is_disabled":false,"rental_uris":{"android":"levelo://app?vid=8e46b2c9-0288-44ad-a5dd-399cf4cb50ae","ios":"levelo://app?vid=8e46b2c9-0288-44ad-a5dd-399cf4cb50ae"},"vehicle_type_id":"4","last_reported":1732688063,"current_range_meters":8400,"station_id":"ce4bhqh2rcd13ifvqhmg","pricing_plan_id":"cebpf4jnsgd1na2vs0mg"},{"bike_id":"820f12a0-cf28-488c-8a74-3f1b9d2e4db5","system_id":"levelo_inurba_marseille","lat":43.23054,"lon":5.35498,"is_reserved":false,"is_disabled":false,"rental_uris":{"android":"levelo://app?vid=820f12a0-cf28-488c-8a74-3f1b9d2e4db5","ios":"levelo://app?vid=820f12a0-cf28-488c-8a74-3f1b9d2e4db5"},"vehicle_type_id":"4","last_reported":1732688063,"current_range_meters":20000,"station_id":"cpo3342slgdg3j2ifvpg","pricing_plan_id":"cebpf4jnsgd1na2vs0mg"},{"bike_id":"563f55ce-6804-43ad-8afb-e9baaddbdbd0","system_id":"levelo_inurba_marseille","lat":43.25118,"lon":5.40316,"is_reserved":false,"is_disabled":false,"rental_uris":{"android":"levelo://app?vid=563f55ce-6804-43ad-8afb-e9baaddbdbd0","ios":"levelo://app?vid=563f55ce-6804-43ad-8afb-e9baaddbdbd0"},"vehicle_type_id":"4","last_reported":1732688063,"current_range_meters":38800,"station_id":"ce4bhlh2rcd13ifvqgig","pricing_plan_id":"cebpf4jnsgd1na2vs0mg"},{"bike_id":"043a72e8-0f32-43d1-b019-65c0557aa07e","system_id":"levelo_inurba_marseille","lat":43.25817,"lon":5.39434,"is_reserved":false,"is_disabled":false,"rental_uris":{"android":"levelo://app?vid=043a72e8-0f32-43d1-b019-65c0557aa07e","ios":"levelo://app?vid=043a72e8-0f32-43d1-b019-65c0557aa07e"},"vehicle_type_id":"4","last_reported":1732688063,"current_range_meters":38000,"station_id":"ce4bhip2rcd13ifvqft0","pricing_plan_id":"cebpf4jnsgd1na2vs0mg"},{"bike_id":"15c47ae6-5fda-4e52-aa1e-cdaf765e816b","system_id":"levelo_inurba_marseille","lat":43.28433,"lon":5.3919,"is_reserved":false,"is_disabled":false,"rental_uris":{"android":"levelo://app?vid=15c47ae6-5fda-4e52-aa1e-cdaf765e816b","ios":"levelo://app?vid=15c47ae6-5fda-4e52-aa1e-cdaf765e816b"},"vehicle_type_id":"4","last_reported":1732688063,"current_range_meters":33600,"station_id":"ce4bhoh2rcd13ifvqh5g","pricing_plan_id":"cebpf4jnsgd1na2vs0mg"},{"bike_id":"42098c83-9126-4d89-a011-0835a54e364c","system_id":"levelo_inurba_marseille","lat":43.322888,"lon":5.382794,"is_reserved":false,"is_disabled":false,"rental_uris":{"android":"levelo://app?vid=42098c83-9126-4d89-a011-0835a54e364c","ios":"levelo://app?vid=42098c83-9126-4d89-a011-0835a54e364c"},"vehicle_type_id":"4","last_reported":1732688063,"current_range_meters":8400,"station_id":"ce4bhr12rcd13ifvqhqg","pricing_plan_id":"cebpf4jnsgd1na2vs0mg"},{"bike_id":"0a3a07ba-6c70-4fc7-a686-936c4d76c056","system_id":"levelo_inurba_marseille","lat":43.28568,"lon":5.39494,"is_reserved":false,"is_disabled":false,"rental_uris":{"android":"levelo://app?vid=0a3a07ba-6c70-4fc7-a686-936c4d76c056","ios":"levelo://app?vid=0a3a07ba-6c70-4fc7-a686-936c4d76c056"},"vehicle_type_id":"4","last_reported":1732688063,"current_range_meters":38800,"station_id":"ce4bh292rcd13ifvqdg0","pricing_plan_id":"cebpf4jnsgd1na2vs0mg"},{"bike_id":"3451b272-9230-4dff-84d2-783314fd3bbb","system_id":"levelo_inurba_marseille","lat":43.25108,"lon":5.403204,"is_reserved":false,"is_disabled":true,"rental_uris":{"android":"levelo://app?vid=3451b272-9230-4dff-84d2-783314fd3bbb","ios":"levelo://app?vid=3451b272-9230-4dff-84d2-783314fd3bbb"},"vehicle_type_id":"4","last_reported":1732688063,"current_range_meters":0,"station_id":"ce4bhlh2rcd13ifvqgig","pricing_plan_id":"cebpf4jnsgd1na2vs0mg"},{"bike_id":"e4b0cdcb-67be-4389-b5ba-4fc73a6f16d7","system_id":"levelo_inurba_marseille","lat":43.2834,"lon":5.38112,"is_reserved":false,"is_disabled":false,"rental_uris":{"android":"levelo://app?vid=e4b0cdcb-67be-4389-b5ba-4fc73a6f16d7","ios":"levelo://app?vid=e4b0cdcb-67be-4389-b5ba-4fc73a6f16d7"},"vehicle_type_id":"4","last_reported":1732688063,"current_range_meters":39200,"station_id":"ce4bh412rcd13ifvqdr0","pricing_plan_id":"cebpf4jnsgd1na2vs0mg"},{"bike_id":"2f9b9b42-f665-4c1c-86a1-5a0ce40d3de2","system_id":"levelo_inurba_marseille","lat":43.324811,"lon":5.365829,"is_reserved":false,"is_disabled":true,"rental_uris":{"android":"levelo://app?vid=2f9b9b42-f665-4c1c-86a1-5a0ce40d3de2","ios":"levelo://app?vid=2f9b9b42-f665-4c1c-86a1-5a0ce40d3de2"},"vehicle_type_id":"4","last_reported":1732688063,"current_range_meters":27200,"station_id":"ce4bhs12rcd13ifvqhvg","pricing_plan_id":"cebpf4jnsgd1na2vs0mg"},{"bike_id":"33b8045d-fd1a-444f-8a40-a4ebaad2413b","system_id":"levelo_inurba_marseille","lat":43.251204,"lon":5.403152,"is_reserved":false,"is_disabled":false,"rental_uris":{"android":"levelo://app?vid=33b8045d-fd1a-444f-8a40-a4ebaad2413b","ios":"levelo://app?vid=33b8045d-fd1a-444f-8a40-a4ebaad2413b"},"vehicle_type_id":"4","last_reported":1732688063,"current_range_meters":36400,"station_id":"ce4bhlh2rcd13ifvqgig","pricing_plan_id":"cebpf4jnsgd1na2vs0mg"},{"bike_id":"103d6123-171f-44af-8025-a1d7c6f0de05","system_id":"levelo_inurba_marseille","lat":43.29963,"lon":5.41321,"is_reserved":false,"is_disabled":false,"rental_uris":{"android":"levelo://app?vid=103d6123-171f-44af-8025-a1d7c6f0de05","ios":"levelo://app?vid=103d6123-171f-44af-8025-a1d7c6f0de05"},"vehicle_type_id":"4","last_reported":1732688063,"current_range_meters":37600,"station_id":"ce4bhp12rcd13ifvqh9g","pricing_plan_id":"cebpf4jnsgd1na2vs0mg"},{"bike_id":"c30a3306-787f-4a4d-bf6f-2071f1c32110","system_id":"levelo_inurba_marseille","lat":43.30462,"lon":5.37909,"is_reserved":false,"is_disabled":false,"rental_uris":{"android":"levelo://app?vid=c30a3306-787f-4a4d-bf6f-2071f1c32110","ios":"levelo://app?vid=c30a3306-787f-4a4d-bf6f-2071f1c32110"},"vehicle_type_id":"4","last_reported":1732688063,"current_range_meters":38800,"station_id":"ce4bgup2rcd13ifvqcn0","pricing_plan_id":"cebpf4jnsgd1na2vs0mg"},{"bike_id":"c6323cc4-3a8d-4794-8c5c-c47ccfb2ec44","system_id":"levelo_inurba_marseille","lat":43.30535,"lon":5.36722,"is_reserved":false,"is_disabled":false,"rental_uris":{"android":"levelo://app?vid=c6323cc4-3a8d-4794-8c5c-c47ccfb2ec44","ios":"levelo://app?vid=c6323cc4-3a8d-4794-8c5c-c47ccfb2ec44"},"vehicle_type_id":"4","last_reported":1732688063,"current_range_meters":36400,"station_id":"ce4bgrp2rcd13ifvqc9g","pricing_plan_id":"cebpf4jnsgd1na2vs0mg"},{"bike_id":"7dddc6b3-bc71-4707-b97c-f58db65819c0","system_id":"levelo_inurba_marseille","lat":43.30139,"lon":5.37414,"is_reserved":false,"is_disabled":false,"rental_uris":{"android":"levelo://app?vid=7dddc6b3-bc71-4707-b97c-f58db65819c0","ios":"levelo://app?vid=7dddc6b3-bc71-4707-b97c-f58db65819c0"},"vehicle_type_id":"4","last_reported":1732688063,"current_range_meters":27200,"station_id":"ce4bgs92rcd13ifvqcc0","pricing_plan_id":"cebpf4jnsgd1na2vs0mg"},{"bike_id":"8cbb0878-6a10-472f-8cfe-82e6d1269102","system_id":"levelo_inurba_marseille","lat":43.28152,"lon":5.42643,"is_reserved":false,"is_disabled":false,"rental_uris":{"android":"levelo://app?vid=8cbb0878-6a10-472f-8cfe-82e6d1269102","ios":"levelo://app?vid=8cbb0878-6a10-472f-8cfe-82e6d1269102"},"vehicle_type_id":"4","last_reported":1732688063,"current_range_meters":32000,"station_id":"ce4bhnh2rcd13ifvqgug","pricing_plan_id":"cebpf4jnsgd1na2vs0mg"},{"bike_id":"287fa067-0159-4a80-8436-f002b330f07a","system_id":"levelo_inurba_marseille","lat":43.270681,"lon":5.422773,"is_reserved":false,"is_disabled":false,"rental_uris":{"android":"levelo://app?vid=287fa067-0159-4a80-8436-f002b330f07a","ios":"levelo://app?vid=287fa067-0159-4a80-8436-f002b330f07a"},"vehicle_type_id":"4","last_reported":1732688063,"current_range_meters":38800,"station_id":"ce4bhk92rcd13ifvqgb0","pricing_plan_id":"cebpf4jnsgd1na2vs0mg"},{"bike_id":"74b48480-354a-49c7-8fdd-9a90874b80e2","system_id":"levelo_inurba_marseille","lat":43.30537,"lon":5.36704,"is_reserved":false,"is_disabled":false,"rental_uris":{"android":"levelo://app?vid=74b48480-354a-49c7-8fdd-9a90874b80e2","ios":"levelo://app?vid=74b48480-354a-49c7-8fdd-9a90874b80e2"},"vehicle_type_id":"4","last_reported":1732688063,"current_range_meters":24400,"station_id":"ce4bgrp2rcd13ifvqc9g","pricing_plan_id":"cebpf4jnsgd1na2vs0mg"},{"bike_id":"4d4c884f-6933-49c0-8899-f9856d90f44d","system_id":"levelo_inurba_marseille","lat":43.297293,"lon":5.380076,"is_reserved":false,"is_disabled":true,"rental_uris":{"android":"levelo://app?vid=4d4c884f-6933-49c0-8899-f9856d90f44d","ios":"levelo://app?vid=4d4c884f-6933-49c0-8899-f9856d90f44d"},"vehicle_type_id":"4","last_reported":1732688063,"current_range_meters":0,"station_id":"","pricing_plan_id":"cebpf4jnsgd1na2vs0mg"},{"bike_id":"41fb53ca-a0a3-4a69-aa76-ed6a157b8fa0","system_id":"levelo_inurba_marseille","lat":43.30457,"lon":5.37909,"is_reserved":false,"is_disabled":false,"rental_uris":{"android":"levelo://app?vid=41fb53ca-a0a3-4a69-aa76-ed6a157b8fa0","ios":"levelo://app?vid=41fb53ca-a0a3-4a69-aa76-ed6a157b8fa0"},"vehicle_type_id":"4","last_reported":1732688063,"current_range_meters":37600,"station_id":"ce4bgup2rcd13ifvqcn0","pricing_plan_id":"cebpf4jnsgd1na2vs0mg"},{"bike_id":"55339742-29d1-4563-81c8-46551a560258","system_id":"levelo_inurba_marseille","lat":43.28093,"lon":5.37845,"is_reserved":false,"is_disabled":false,"rental_uris":{"android":"levelo://app?vid=55339742-29d1-4563-81c8-46551a560258","ios":"levelo://app?vid=55339742-29d1-4563-81c8-46551a560258"},"vehicle_type_id":"4","last_reported":1732688063,"current_range_meters":28800,"station_id":"ce4bha12rcd13ifvqee0","pricing_plan_id":"cebpf4jnsgd1na2vs0mg"},{"bike_id":"85ad58f6-1962-47c9-867e-4d960b52d89c","system_id":"levelo_inurba_marseille","lat":43.29888,"lon":5.39712,"is_reserved":false,"is_disabled":false,"rental_uris":{"android":"levelo://app?vid=85ad58f6-1962-47c9-867e-4d960b52d89c","ios":"levelo://app?vid=85ad58f6-1962-47c9-867e-4d960b52d89c"},"vehicle_type_id":"4","last_reported":1732688063,"current_range_meters":38400,"station_id":"ce4bh0h2rcd13ifvqd50","pricing_plan_id":"cebpf4jnsgd1na2vs0mg"},{"bike_id":"0b59e005-4e42-47c9-a772-4603f8162a9b","system_id":"levelo_inurba_marseille","lat":43.27809,"lon":5.40701,"is_reserved":false,"is_disabled":false,"rental_uris":{"android":"levelo://app?vid=0b59e005-4e42-47c9-a772-4603f8162a9b","ios":"levelo://app?vid=0b59e005-4e42-47c9-a772-4603f8162a9b"},"vehicle_type_id":"4","last_reported":1732688063,"current_range_meters":38800,"station_id":"ce4bhnh2rcd13ifvqgtg","pricing_plan_id":"cebpf4jnsgd1na2vs0mg"},{"bike_id":"5001bb71-3eee-4da5-b32a-e07ff7493211","system_id":"levelo_inurba_marseille","lat":43.31323,"lon":5.39686,"is_reserved":false,"is_disabled":false,"rental_uris":{"android":"levelo://app?vid=5001bb71-3eee-4da5-b32a-e07ff7493211","ios":"levelo://app?vid=5001bb71-3eee-4da5-b32a-e07ff7493211"},"vehicle_type_id":"4","last_reported":1732688063,"current_range_meters":38400,"station_id":"ce4bgvp2rcd13ifvqcu0","pricing_plan_id":"cebpf4jnsgd1na2vs0mg"},{"bike_id":"20b3d934-42a7-42b9-bb49-0833cf2f0412","system_id":"levelo_inurba_marseille","lat":43.29294,"lon":5.37194,"is_reserved":false,"is_disabled":true,"rental_uris":{"android":"levelo://app?vid=20b3d934-42a7-42b9-bb49-0833cf2f0412","ios":"levelo://app?vid=20b3d934-42a7-42b9-bb49-0833cf2f0412"},"vehicle_type_id":"4","last_reported":1732688063,"current_range_meters":38800,"station_id":"ce4bgh92rcd13ifvqb40","pricing_plan_id":"cebpf4jnsgd1na2vs0mg"},{"bike_id":"83180126-4cf0-4abb-ad76-e641c55a3a11","system_id":"levelo_inurba_marseille","lat":43.28671,"lon":5.36351,"is_reserved":false,"is_disabled":false,"rental_uris":{"android":"levelo://app?vid=83180126-4cf0-4abb-ad76-e641c55a3a11","ios":"levelo://app?vid=83180126-4cf0-4abb-ad76-e641c55a3a11"},"vehicle_type_id":"4","last_reported":1732688063,"current_range_meters":25600,"station_id":"ce4bhah2rcd13ifvqej0","pricing_plan_id":"cebpf4jnsgd1na2vs0mg"},{"bike_id":"95267e9b-c4ab-4b9b-ab33-4dbc2dffbe3f","system_id":"levelo_inurba_marseille","lat":43.28491,"lon":5.38558,"is_reserved":false,"is_disabled":false,"rental_uris":{"android":"levelo://app?vid=95267e9b-c4ab-4b9b-ab33-4dbc2dffbe3f","ios":"levelo://app?vid=95267e9b-c4ab-4b9b-ab33-4dbc2dffbe3f"},"vehicle_type_id":"4","last_reported":1732688063,"current_range_meters":37600,"station_id":"ce4bh8p2rcd13ifvqeb0","pricing_plan_id":"cebpf4jnsgd1na2vs0mg"},{"bike_id":"e023ff32-6c4f-4673-a7aa-5fcdbec26d0f","system_id":"levelo_inurba_marseille","lat":43.288521,"lon":5.35845,"is_reserved":false,"is_disabled":true,"rental_uris":{"android":"levelo://app?vid=e023ff32-6c4f-4673-a7aa-5fcdbec26d0f","ios":"levelo://app?vid=e023ff32-6c4f-4673-a7aa-5fcdbec26d0f"},"vehicle_type_id":"4","last_reported":1732688063,"current_range_meters":26000,"station_id":"ce4bhb12rcd13ifvqem0","pricing_plan_id":"cebpf4jnsgd1na2vs0mg"},{"bike_id":"22c0168c-678d-471b-9881-7150f7db9bb9","system_id":"levelo_inurba_marseille","lat":43.31754,"lon":5.39007,"is_reserved":false,"is_disabled":false,"rental_uris":{"android":"levelo://app?vid=22c0168c-678d-471b-9881-7150f7db9bb9","ios":"levelo://app?vid=22c0168c-678d-471b-9881-7150f7db9bb9"},"vehicle_type_id":"4","last_reported":1732688063,"current_range_meters":20800,"station_id":"ce4bhqp2rcd13ifvqhng","pricing_plan_id":"cebpf4jnsgd1na2vs0mg"},{"bike_id":"f9ca3389-f0b0-42e9-b890-7ec20aa8d35e","system_id":"levelo_inurba_marseille","lat":43.29267,"lon":5.36847,"is_reserved":false,"is_disabled":true,"rental_uris":{"android":"levelo://app?vid=f9ca3389-f0b0-42e9-b890-7ec20aa8d35e","ios":"levelo://app?vid=f9ca3389-f0b0-42e9-b890-7ec20aa8d35e"},"vehicle_type_id":"4","last_reported":1732688063,"current_range_meters":12400,"station_id":"ce4bhbp2rcd13ifvqesg","pricing_plan_id":"cebpf4jnsgd1na2vs0mg"},{"bike_id":"4d809776-4d2b-4bf5-8aa6-666b5b1fd18f","system_id":"levelo_inurba_marseille","lat":43.33718,"lon":5.39194,"is_reserved":false,"is_disabled":false,"rental_uris":{"android":"levelo://app?vid=4d809776-4d2b-4bf5-8aa6-666b5b1fd18f","ios":"levelo://app?vid=4d809776-4d2b-4bf5-8aa6-666b5b1fd18f"},"vehicle_type_id":"4","last_reported":1732688063,"current_range_meters":38800,"station_id":"ce4bhr92rcd13ifvqhsg","pricing_plan_id":"cebpf4jnsgd1na2vs0mg"},{"bike_id":"935e935c-0d33-494d-82f6-c390304c4510","system_id":"levelo_inurba_marseille","lat":43.30888,"lon":5.37187,"is_reserved":false,"is_disabled":false,"rental_uris":{"android":"levelo://app?vid=935e935c-0d33-494d-82f6-c390304c4510","ios":"levelo://app?vid=935e935c-0d33-494d-82f6-c390304c4510"},"vehicle_type_id":"4","last_reported":1732688063,"current_range_meters":37600,"station_id":"ce4bguh2rcd13ifvqckg","pricing_plan_id":"cebpf4jnsgd1na2vs0mg"},{"bike_id":"da973f73-8fec-478a-8cd8-93eda7ede1d6","system_id":"levelo_inurba_marseille","lat":43.25,"lon":5.38926,"is_reserved":false,"is_disabled":false,"rental_uris":{"android":"levelo://app?vid=da973f73-8fec-478a-8cd8-93eda7ede1d6","ios":"levelo://app?vid=da973f73-8fec-478a-8cd8-93eda7ede1d6"},"vehicle_type_id":"4","last_reported":1732688063,"current_range_meters":38000,"station_id":"ce4bhgp2rcd13ifvqfd0","pricing_plan_id":"cebpf4jnsgd1na2vs0mg"},{"bike_id":"5817161f-5d63-41b2-92c0-c94f8059d60c","system_id":"levelo_inurba_marseille","lat":43.33811,"lon":5.37425,"is_reserved":false,"is_disabled":false,"rental_uris":{"android":"levelo://app?vid=5817161f-5d63-41b2-92c0-c94f8059d60c","ios":"levelo://app?vid=5817161f-5d63-41b2-92c0-c94f8059d60c"},"vehicle_type_id":"4","last_reported":1732688063,"current_range_meters":38000,"station_id":"","pricing_plan_id":"cebpf4jnsgd1na2vs0mg"},{"bike_id":"546136ed-c1c3-4d73-b4c6-2ffa4b1b222b","system_id":"levelo_inurba_marseille","lat":43.3172,"lon":5.42402,"is_reserved":false,"is_disabled":false,"rental_uris":{"android":"levelo://app?vid=546136ed-c1c3-4d73-b4c6-2ffa4b1b222b","ios":"levelo://app?vid=546136ed-c1c3-4d73-b4c6-2ffa4b1b222b"},"vehicle_type_id":"4","last_reported":1732688063,"current_range_meters":38400,"station_id":"ce4bhp92rcd13ifvqhbg","pricing_plan_id":"cebpf4jnsgd1na2vs0mg"},{"bike_id":"a39548b4-21b3-49f1-b19a-4edf06e549d9","system_id":"levelo_inurba_marseille","lat":43.24677,"lon":5.38151,"is_reserved":false,"is_disabled":false,"rental_uris":{"android":"levelo://app?vid=a39548b4-21b3-49f1-b19a-4edf06e549d9","ios":"levelo://app?vid=a39548b4-21b3-49f1-b19a-4edf06e549d9"},"vehicle_type_id":"4","last_reported":1732688063,"current_range_meters":38000,"station_id":"ce4bhih2rcd13ifvqfr0","pricing_plan_id":"cebpf4jnsgd1na2vs0mg"},{"bike_id":"89d3adbc-8c70-413f-8488-75b105f8d0ff","system_id":"levelo_inurba_marseille","lat":43.284308,"lon":5.391956,"is_reserved":false,"is_disabled":false,"rental_uris":{"android":"levelo://app?vid=89d3adbc-8c70-413f-8488-75b105f8d0ff","ios":"levelo://app?vid=89d3adbc-8c70-413f-8488-75b105f8d0ff"},"vehicle_type_id":"4","last_reported":1732688063,"current_range_meters":29600,"station_id":"ce4bhoh2rcd13ifvqh5g","pricing_plan_id":"cebpf4jnsgd1na2vs0mg"},{"bike_id":"5d636e26-9bd0-4f95-ae1d-b185cca1e971","system_id":"levelo_inurba_marseille","lat":43.32483,"lon":5.36564,"is_reserved":false,"is_disabled":false,"rental_uris":{"android":"levelo://app?vid=5d636e26-9bd0-4f95-ae1d-b185cca1e971","ios":"levelo://app?vid=5d636e26-9bd0-4f95-ae1d-b185cca1e971"},"vehicle_type_id":"4","last_reported":1732688063,"current_range_meters":35600,"station_id":"ce4bhs12rcd13ifvqhvg","pricing_plan_id":"cebpf4jnsgd1na2vs0mg"},{"bike_id":"9f3336f6-205c-487c-b4db-85f8db3f7ce0","system_id":"levelo_inurba_marseille","lat":43.24671,"lon":5.3816,"is_reserved":false,"is_disabled":false,"rental_uris":{"android":"levelo://app?vid=9f3336f6-205c-487c-b4db-85f8db3f7ce0","ios":"levelo://app?vid=9f3336f6-205c-487c-b4db-85f8db3f7ce0"},"vehicle_type_id":"4","last_reported":1732688063,"current_range_meters":38400,"station_id":"ce4bhih2rcd13ifvqfr0","pricing_plan_id":"cebpf4jnsgd1na2vs0mg"},{"bike_id":"7201e0cf-a992-4041-bacd-04ce15cb4f7c","system_id":"levelo_inurba_marseille","lat":43.26212,"lon":5.37437,"is_reserved":false,"is_disabled":false,"rental_uris":{"android":"levelo://app?vid=7201e0cf-a992-4041-bacd-04ce15cb4f7c","ios":"levelo://app?vid=7201e0cf-a992-4041-bacd-04ce15cb4f7c"},"vehicle_type_id":"4","last_reported":1732688063,"current_range_meters":38400,"station_id":"ce4bhgp2rcd13ifvqfc0","pricing_plan_id":"cebpf4jnsgd1na2vs0mg"},{"bike_id":"5f60bd09-ca4b-4eaa-a808-cc895fde7bba","system_id":"levelo_inurba_marseille","lat":43.28404,"lon":5.3754,"is_reserved":false,"is_disabled":false,"rental_uris":{"android":"levelo://app?vid=5f60bd09-ca4b-4eaa-a808-cc895fde7bba","ios":"levelo://app?vid=5f60bd09-ca4b-4eaa-a808-cc895fde7bba"},"vehicle_type_id":"4","last_reported":1732688063,"current_range_meters":18800,"station_id":"ce4bh412rcd13ifvqds0","pricing_plan_id":"cebpf4jnsgd1na2vs0mg"},{"bike_id":"674df4ab-5b72-443e-a3da-efdec3ddef4f","system_id":"levelo_inurba_marseille","lat":43.314903,"lon":5.373188,"is_reserved":false,"is_disabled":false,"rental_uris":{"android":"levelo://app?vid=674df4ab-5b72-443e-a3da-efdec3ddef4f","ios":"levelo://app?vid=674df4ab-5b72-443e-a3da-efdec3ddef4f"},"vehicle_type_id":"4","last_reported":1732688063,"current_range_meters":6400,"station_id":"ce4bgt12rcd13ifvqcd0","pricing_plan_id":"cebpf4jnsgd1na2vs0mg"},{"bike_id":"ebba3546-4cc2-46cf-89c2-e1c5c89f5432","system_id":"levelo_inurba_marseille","lat":43.25866,"lon":5.39901,"is_reserved":false,"is_disabled":false,"rental_uris":{"android":"levelo://app?vid=ebba3546-4cc2-46cf-89c2-e1c5c89f5432","ios":"levelo://app?vid=ebba3546-4cc2-46cf-89c2-e1c5c89f5432"},"vehicle_type_id":"4","last_reported":1732688063,"current_range_meters":38800,"station_id":"ce4bhl92rcd13ifvqghg","pricing_plan_id":"cebpf4jnsgd1na2vs0mg"},{"bike_id":"dc473ea1-cb7e-4df1-8bc2-7f7c75206904","system_id":"levelo_inurba_marseille","lat":43.24649,"lon":5.38895,"is_reserved":false,"is_disabled":false,"rental_uris":{"android":"levelo://app?vid=dc473ea1-cb7e-4df1-8bc2-7f7c75206904","ios":"levelo://app?vid=dc473ea1-cb7e-4df1-8bc2-7f7c75206904"},"vehicle_type_id":"4","last_reported":1732688063,"current_range_meters":28800,"station_id":"ce4bhg12rcd13ifvqf60","pricing_plan_id":"cebpf4jnsgd1na2vs0mg"},{"bike_id":"0cd7fb1f-f090-4e80-a2fb-03510d2b2219","system_id":"levelo_inurba_marseille","lat":43.295778,"lon":5.374963,"is_reserved":false,"is_disabled":true,"rental_uris":{"android":"levelo://app?vid=0cd7fb1f-f090-4e80-a2fb-03510d2b2219","ios":"levelo://app?vid=0cd7fb1f-f090-4e80-a2fb-03510d2b2219"},"vehicle_type_id":"4","last_reported":1732688063,"current_range_meters":27600,"station_id":"ce4bgh92rcd13ifvqb50","pricing_plan_id":"cebpf4jnsgd1na2vs0mg"},{"bike_id":"8b8b52b9-1d01-45b3-a51d-9242a1a257c1","system_id":"levelo_inurba_marseille","lat":43.29035,"lon":5.35913,"is_reserved":false,"is_disabled":false,"rental_uris":{"android":"levelo://app?vid=8b8b52b9-1d01-45b3-a51d-9242a1a257c1","ios":"levelo://app?vid=8b8b52b9-1d01-45b3-a51d-9242a1a257c1"},"vehicle_type_id":"4","last_reported":1732688063,"current_range_meters":34800,"station_id":"ce4bha92rcd13ifvqeg0","pricing_plan_id":"cebpf4jnsgd1na2vs0mg"},{"bike_id":"b2f9f3c9-6d81-42b8-b9bb-bccecf18d676","system_id":"levelo_inurba_marseille","lat":43.2757,"lon":5.38423,"is_reserved":false,"is_disabled":false,"rental_uris":{"android":"levelo://app?vid=b2f9f3c9-6d81-42b8-b9bb-bccecf18d676","ios":"levelo://app?vid=b2f9f3c9-6d81-42b8-b9bb-bccecf18d676"},"vehicle_type_id":"4","last_reported":1732688063,"current_range_meters":38800,"station_id":"ce4bhh92rcd13ifvqfi0","pricing_plan_id":"cebpf4jnsgd1na2vs0mg"},{"bike_id":"09fe0143-9970-4c82-ae2d-a26005943c39","system_id":"levelo_inurba_marseille","lat":43.27813,"lon":5.40721,"is_reserved":false,"is_disabled":true,"rental_uris":{"android":"levelo://app?vid=09fe0143-9970-4c82-ae2d-a26005943c39","ios":"levelo://app?vid=09fe0143-9970-4c82-ae2d-a26005943c39"},"vehicle_type_id":"4","last_reported":1732688063,"current_range_meters":800,"station_id":"ce4bhnh2rcd13ifvqgtg","pricing_plan_id":"cebpf4jnsgd1na2vs0mg"},{"bike_id":"afec7923-bb94-4d10-aee5-c8a044b181fe","system_id":"levelo_inurba_marseille","lat":43.336057,"lon":5.410357,"is_reserved":false,"is_disabled":false,"rental_uris":{"android":"levelo://app?vid=afec7923-bb94-4d10-aee5-c8a044b181fe","ios":"levelo://app?vid=afec7923-bb94-4d10-aee5-c8a044b181fe"},"vehicle_type_id":"4","last_reported":1732688063,"current_range_meters":35200,"station_id":"","pricing_plan_id":"cebpf4jnsgd1na2vs0mg"},{"bike_id":"b96b93ca-a597-434c-a94f-c8450f9327b3","system_id":"levelo_inurba_marseille","lat":43.25859,"lon":5.39909,"is_reserved":false,"is_disabled":false,"rental_uris":{"android":"levelo://app?vid=b96b93ca-a597-434c-a94f-c8450f9327b3","ios":"levelo://app?vid=b96b93ca-a597-434c-a94f-c8450f9327b3"},"vehicle_type_id":"4","last_reported":1732688063,"current_range_meters":38800,"station_id":"ce4bhl92rcd13ifvqghg","pricing_plan_id":"cebpf4jnsgd1na2vs0mg"},{"bike_id":"182d83f8-e1ac-4212-b9e0-e3deabd469da","system_id":"levelo_inurba_marseille","lat":43.231885,"lon":5.399847,"is_reserved":false,"is_disabled":false,"rental_uris":{"android":"levelo://app?vid=182d83f8-e1ac-4212-b9e0-e3deabd469da","ios":"levelo://app?vid=182d83f8-e1ac-4212-b9e0-e3deabd469da"},"vehicle_type_id":"4","last_reported":1732688063,"current_range_meters":10800,"station_id":"ce4bhn12rcd13ifvqgqg","pricing_plan_id":"cebpf4jnsgd1na2vs0mg"},{"bike_id":"6a243988-d267-4e1e-bafc-c091870de6a8","system_id":"levelo_inurba_marseille","lat":43.24169,"lon":5.36396,"is_reserved":false,"is_disabled":false,"rental_uris":{"android":"levelo://app?vid=6a243988-d267-4e1e-bafc-c091870de6a8","ios":"levelo://app?vid=6a243988-d267-4e1e-bafc-c091870de6a8"},"vehicle_type_id":"4","last_reported":1732688063,"current_range_meters":36400,"station_id":"cpo36qri1sfpv3e86is0","pricing_plan_id":"cebpf4jnsgd1na2vs0mg"},{"bike_id":"2c815dcc-9d68-4c42-a3f8-be9c60feec54","system_id":"levelo_inurba_marseille","lat":43.26937,"lon":5.40248,"is_reserved":false,"is_disabled":false,"rental_uris":{"android":"levelo://app?vid=2c815dcc-9d68-4c42-a3f8-be9c60feec54","ios":"levelo://app?vid=2c815dcc-9d68-4c42-a3f8-be9c60feec54"},"vehicle_type_id":"4","last_reported":1732688063,"current_range_meters":38800,"station_id":"cjm6bp8fraef2m0cb0m0","pricing_plan_id":"cebpf4jnsgd1na2vs0mg"},{"bike_id":"32cbe6aa-217f-475e-8d89-7b3ea1a39381","system_id":"levelo_inurba_marseille","lat":43.330176,"lon":5.390413,"is_reserved":false,"is_disabled":false,"rental_uris":{"android":"levelo://app?vid=32cbe6aa-217f-475e-8d89-7b3ea1a39381","ios":"levelo://app?vid=32cbe6aa-217f-475e-8d89-7b3ea1a39381"},"vehicle_type_id":"4","last_reported":1732688063,"current_range_meters":10000,"station_id":"ce4bhr92rcd13ifvqhrg","pricing_plan_id":"cebpf4jnsgd1na2vs0mg"},{"bike_id":"8d7fb948-8394-45df-85f4-38659c7c1984","system_id":"levelo_inurba_marseille","lat":43.24645,"lon":5.38889,"is_reserved":false,"is_disabled":false,"rental_uris":{"android":"levelo://app?vid=8d7fb948-8394-45df-85f4-38659c7c1984","ios":"levelo://app?vid=8d7fb948-8394-45df-85f4-38659c7c1984"},"vehicle_type_id":"4","last_reported":1732688063,"current_range_meters":13600,"station_id":"ce4bhg12rcd13ifvqf60","pricing_plan_id":"cebpf4jnsgd1na2vs0mg"},{"bike_id":"82d9c03a-6f43-4338-8c7b-2b9ac3a50f16","system_id":"levelo_inurba_marseille","lat":43.289293,"lon":5.366341,"is_reserved":false,"is_disabled":true,"rental_uris":{"android":"levelo://app?vid=82d9c03a-6f43-4338-8c7b-2b9ac3a50f16","ios":"levelo://app?vid=82d9c03a-6f43-4338-8c7b-2b9ac3a50f16"},"vehicle_type_id":"4","last_reported":1732688063,"current_range_meters":17200,"station_id":"ce4bhap2rcd13ifvqek0","pricing_plan_id":"cebpf4jnsgd1na2vs0mg"},{"bike_id":"39b04c21-6a6a-40a7-a489-741c2b67c9bd","system_id":"levelo_inurba_marseille","lat":43.337254,"lon":5.391924,"is_reserved":false,"is_disabled":false,"rental_uris":{"android":"levelo://app?vid=39b04c21-6a6a-40a7-a489-741c2b67c9bd","ios":"levelo://app?vid=39b04c21-6a6a-40a7-a489-741c2b67c9bd"},"vehicle_type_id":"4","last_reported":1732688063,"current_range_meters":11600,"station_id":"ce4bhr92rcd13ifvqhsg","pricing_plan_id":"cebpf4jnsgd1na2vs0mg"},{"bike_id":"da499228-a122-4ef7-8dcf-c3a40f3557ba","system_id":"levelo_inurba_marseille","lat":43.2886,"lon":5.35847,"is_reserved":false,"is_disabled":false,"rental_uris":{"android":"levelo://app?vid=da499228-a122-4ef7-8dcf-c3a40f3557ba","ios":"levelo://app?vid=da499228-a122-4ef7-8dcf-c3a40f3557ba"},"vehicle_type_id":"4","last_reported":1732688063,"current_range_meters":26000,"station_id":"ce4bhb12rcd13ifvqem0","pricing_plan_id":"cebpf4jnsgd1na2vs0mg"},{"bike_id":"1fa2d81f-1883-4991-a02b-1a8e3a64fecf","system_id":"levelo_inurba_marseille","lat":43.28868,"lon":5.35836,"is_reserved":false,"is_disabled":false,"rental_uris":{"android":"levelo://app?vid=1fa2d81f-1883-4991-a02b-1a8e3a64fecf","ios":"levelo://app?vid=1fa2d81f-1883-4991-a02b-1a8e3a64fecf"},"vehicle_type_id":"4","last_reported":1732688063,"current_range_meters":31200,"station_id":"ce4bhb12rcd13ifvqem0","pricing_plan_id":"cebpf4jnsgd1na2vs0mg"},{"bike_id":"aaabd233-f07a-4d18-bea7-b9a035fdaedc","system_id":"levelo_inurba_marseille","lat":43.30804,"lon":5.4353,"is_reserved":false,"is_disabled":false,"rental_uris":{"android":"levelo://app?vid=aaabd233-f07a-4d18-bea7-b9a035fdaedc","ios":"levelo://app?vid=aaabd233-f07a-4d18-bea7-b9a035fdaedc"},"vehicle_type_id":"4","last_reported":1732688063,"current_range_meters":16000,"station_id":"ce4bhph2rcd13ifvqheg","pricing_plan_id":"cebpf4jnsgd1na2vs0mg"},{"bike_id":"e26d0981-24f1-43fe-b7af-bb6dae750240","system_id":"levelo_inurba_marseille","lat":43.31269,"lon":5.40179,"is_reserved":false,"is_disabled":false,"rental_uris":{"android":"levelo://app?vid=e26d0981-24f1-43fe-b7af-bb6dae750240","ios":"levelo://app?vid=e26d0981-24f1-43fe-b7af-bb6dae750240"},"vehicle_type_id":"4","last_reported":1732688063,"current_range_meters":38800,"station_id":"ce4bh092rcd13ifvqd30","pricing_plan_id":"cebpf4jnsgd1na2vs0mg"},{"bike_id":"7d51e624-0ea6-4353-a684-c3afe6c0bb90","system_id":"levelo_inurba_marseille","lat":43.25583,"lon":5.38242,"is_reserved":false,"is_disabled":false,"rental_uris":{"android":"levelo://app?vid=7d51e624-0ea6-4353-a684-c3afe6c0bb90","ios":"levelo://app?vid=7d51e624-0ea6-4353-a684-c3afe6c0bb90"},"vehicle_type_id":"4","last_reported":1732688063,"current_range_meters":38800,"station_id":"ce4bhih2rcd13ifvqfs0","pricing_plan_id":"cebpf4jnsgd1na2vs0mg"},{"bike_id":"78f90f7b-46ce-40b5-bddf-b0c3b39309c2","system_id":"levelo_inurba_marseille","lat":43.23964,"lon":5.36627,"is_reserved":false,"is_disabled":false,"rental_uris":{"android":"levelo://app?vid=78f90f7b-46ce-40b5-bddf-b0c3b39309c2","ios":"levelo://app?vid=78f90f7b-46ce-40b5-bddf-b0c3b39309c2"},"vehicle_type_id":"4","last_reported":1732688063,"current_range_meters":36800,"station_id":"ce4bhi12rcd13ifvqfp0","pricing_plan_id":"cebpf4jnsgd1na2vs0mg"},{"bike_id":"704ddb11-043f-474f-a260-926d75682a49","system_id":"levelo_inurba_marseille","lat":43.297984,"lon":5.404089,"is_reserved":false,"is_disabled":false,"rental_uris":{"android":"levelo://app?vid=704ddb11-043f-474f-a260-926d75682a49","ios":"levelo://app?vid=704ddb11-043f-474f-a260-926d75682a49"},"vehicle_type_id":"4","last_reported":1732688063,"current_range_meters":38800,"station_id":"ce4bh112rcd13ifvqd90","pricing_plan_id":"cebpf4jnsgd1na2vs0mg"},{"bike_id":"ec67f2e6-2c78-4be6-a42b-19eafc1c3ce3","system_id":"levelo_inurba_marseille","lat":43.29249,"lon":5.40901,"is_reserved":false,"is_disabled":false,"rental_uris":{"android":"levelo://app?vid=ec67f2e6-2c78-4be6-a42b-19eafc1c3ce3","ios":"levelo://app?vid=ec67f2e6-2c78-4be6-a42b-19eafc1c3ce3"},"vehicle_type_id":"4","last_reported":1732688063,"current_range_meters":8800,"station_id":"ce4bh192rcd13ifvqdc0","pricing_plan_id":"cebpf4jnsgd1na2vs0mg"},{"bike_id":"e6b6ed62-a985-43be-a221-3aaa72f8a1db","system_id":"levelo_inurba_marseille","lat":43.2797,"lon":5.38738,"is_reserved":false,"is_disabled":false,"rental_uris":{"android":"levelo://app?vid=e6b6ed62-a985-43be-a221-3aaa72f8a1db","ios":"levelo://app?vid=e6b6ed62-a985-43be-a221-3aaa72f8a1db"},"vehicle_type_id":"4","last_reported":1732688063,"current_range_meters":38800,"station_id":"ce4bhg12rcd13ifvqf80","pricing_plan_id":"cebpf4jnsgd1na2vs0mg"},{"bike_id":"6eb165ac-2a63-464b-982d-3fb7f9449104","system_id":"levelo_inurba_marseille","lat":43.309342,"lon":5.40149,"is_reserved":false,"is_disabled":false,"rental_uris":{"android":"levelo://app?vid=6eb165ac-2a63-464b-982d-3fb7f9449104","ios":"levelo://app?vid=6eb165ac-2a63-464b-982d-3fb7f9449104"},"vehicle_type_id":"4","last_reported":1732688063,"current_range_meters":30400,"station_id":"ce4bgvp2rcd13ifvqct0","pricing_plan_id":"cebpf4jnsgd1na2vs0mg"},{"bike_id":"3b2ddd61-7276-4381-b067-2a88d42fe9ff","system_id":"levelo_inurba_marseille","lat":43.28264,"lon":5.35071,"is_reserved":false,"is_disabled":false,"rental_uris":{"android":"levelo://app?vid=3b2ddd61-7276-4381-b067-2a88d42fe9ff","ios":"levelo://app?vid=3b2ddd61-7276-4381-b067-2a88d42fe9ff"},"vehicle_type_id":"4","last_reported":1732688063,"current_range_meters":16000,"station_id":"ce4bhbp2rcd13ifvqerg","pricing_plan_id":"cebpf4jnsgd1na2vs0mg"},{"bike_id":"3faca838-929a-408e-bcba-41512aacc531","system_id":"levelo_inurba_marseille","lat":43.28074,"lon":5.3965,"is_reserved":false,"is_disabled":false,"rental_uris":{"android":"levelo://app?vid=3faca838-929a-408e-bcba-41512aacc531","ios":"levelo://app?vid=3faca838-929a-408e-bcba-41512aacc531"},"vehicle_type_id":"4","last_reported":1732688063,"current_range_meters":7200,"station_id":"ce4bho12rcd13ifvqh2g","pricing_plan_id":"cebpf4jnsgd1na2vs0mg"},{"bike_id":"36296f5c-0176-4be0-97c8-7930cda9c369","system_id":"levelo_inurba_marseille","lat":43.32101,"lon":5.36769,"is_reserved":false,"is_disabled":false,"rental_uris":{"android":"levelo://app?vid=36296f5c-0176-4be0-97c8-7930cda9c369","ios":"levelo://app?vid=36296f5c-0176-4be0-97c8-7930cda9c369"},"vehicle_type_id":"4","last_reported":1732688063,"current_range_meters":17600,"station_id":"ce4bhrh2rcd13ifvqhug","pricing_plan_id":"cebpf4jnsgd1na2vs0mg"},{"bike_id":"ae98c5ce-6a84-4f2d-b974-736637de16e0","system_id":"levelo_inurba_marseille","lat":43.311866,"lon":5.387056,"is_reserved":false,"is_disabled":false,"rental_uris":{"android":"levelo://app?vid=ae98c5ce-6a84-4f2d-b974-736637de16e0","ios":"levelo://app?vid=ae98c5ce-6a84-4f2d-b974-736637de16e0"},"vehicle_type_id":"4","last_reported":1732688063,"current_range_meters":28800,"station_id":"ce4bgv12rcd13ifvqcp0","pricing_plan_id":"cebpf4jnsgd1na2vs0mg"},{"bike_id":"152a00dc-effe-46e0-a4c0-060ff5f1997e","system_id":"levelo_inurba_marseille","lat":43.308011,"lon":5.381666,"is_reserved":false,"is_disabled":false,"rental_uris":{"android":"levelo://app?vid=152a00dc-effe-46e0-a4c0-060ff5f1997e","ios":"levelo://app?vid=152a00dc-effe-46e0-a4c0-060ff5f1997e"},"vehicle_type_id":"4","last_reported":1732688063,"current_range_meters":37600,"station_id":"ce4bgt12rcd13ifvqce0","pricing_plan_id":"cebpf4jnsgd1na2vs0mg"},{"bike_id":"5a64147f-da9a-40cb-a940-153001e1f291","system_id":"levelo_inurba_marseille","lat":43.29791,"lon":5.38199,"is_reserved":false,"is_disabled":true,"rental_uris":{"android":"levelo://app?vid=5a64147f-da9a-40cb-a940-153001e1f291","ios":"levelo://app?vid=5a64147f-da9a-40cb-a940-153001e1f291"},"vehicle_type_id":"4","last_reported":1732688063,"current_range_meters":28800,"station_id":"","pricing_plan_id":"cebpf4jnsgd1na2vs0mg"},{"bike_id":"ab3b8567-5f88-4ba9-90c9-57cd7ca29a33","system_id":"levelo_inurba_marseille","lat":43.269373,"lon":5.402523,"is_reserved":false,"is_disabled":false,"rental_uris":{"android":"levelo://app?vid=ab3b8567-5f88-4ba9-90c9-57cd7ca29a33","ios":"levelo://app?vid=ab3b8567-5f88-4ba9-90c9-57cd7ca29a33"},"vehicle_type_id":"4","last_reported":1732688063,"current_range_meters":38400,"station_id":"cjm6bp8fraef2m0cb0m0","pricing_plan_id":"cebpf4jnsgd1na2vs0mg"},{"bike_id":"5e94e11f-881f-4f15-b59c-c93c4e3ef240","system_id":"levelo_inurba_marseille","lat":43.25113,"lon":5.40325,"is_reserved":false,"is_disabled":false,"rental_uris":{"android":"levelo://app?vid=5e94e11f-881f-4f15-b59c-c93c4e3ef240","ios":"levelo://app?vid=5e94e11f-881f-4f15-b59c-c93c4e3ef240"},"vehicle_type_id":"4","last_reported":1732688063,"current_range_meters":10000,"station_id":"ce4bhlh2rcd13ifvqgig","pricing_plan_id":"cebpf4jnsgd1na2vs0mg"},{"bike_id":"be36f0f2-e5f5-465c-971c-4425609070df","system_id":"levelo_inurba_marseille","lat":43.29417,"lon":5.38626,"is_reserved":false,"is_disabled":false,"rental_uris":{"android":"levelo://app?vid=be36f0f2-e5f5-465c-971c-4425609070df","ios":"levelo://app?vid=be36f0f2-e5f5-465c-971c-4425609070df"},"vehicle_type_id":"4","last_reported":1732688063,"current_range_meters":36400,"station_id":"ce4bh2h2rcd13ifvqdh0","pricing_plan_id":"cebpf4jnsgd1na2vs0mg"},{"bike_id":"d08c361c-1912-4825-949a-6ab73f0b4c31","system_id":"levelo_inurba_marseille","lat":43.28093,"lon":5.39654,"is_reserved":false,"is_disabled":false,"rental_uris":{"android":"levelo://app?vid=d08c361c-1912-4825-949a-6ab73f0b4c31","ios":"levelo://app?vid=d08c361c-1912-4825-949a-6ab73f0b4c31"},"vehicle_type_id":"4","last_reported":1732688063,"current_range_meters":38800,"station_id":"ce4bho12rcd13ifvqh2g","pricing_plan_id":"cebpf4jnsgd1na2vs0mg"},{"bike_id":"70f5ecc0-b7b6-4879-8d64-186541a8730a","system_id":"levelo_inurba_marseille","lat":43.3026,"lon":5.40083,"is_reserved":false,"is_disabled":false,"rental_uris":{"android":"levelo://app?vid=70f5ecc0-b7b6-4879-8d64-186541a8730a","ios":"levelo://app?vid=70f5ecc0-b7b6-4879-8d64-186541a8730a"},"vehicle_type_id":"4","last_reported":1732688063,"current_range_meters":11200,"station_id":"ce4bgvh2rcd13ifvqcs0","pricing_plan_id":"cebpf4jnsgd1na2vs0mg"},{"bike_id":"af37692a-afc7-4ddb-93b0-b4c766c6cca7","system_id":"levelo_inurba_marseille","lat":43.30141,"lon":5.37412,"is_reserved":false,"is_disabled":false,"rental_uris":{"android":"levelo://app?vid=af37692a-afc7-4ddb-93b0-b4c766c6cca7","ios":"levelo://app?vid=af37692a-afc7-4ddb-93b0-b4c766c6cca7"},"vehicle_type_id":"4","last_reported":1732688063,"current_range_meters":37600,"station_id":"ce4bgs92rcd13ifvqcc0","pricing_plan_id":"cebpf4jnsgd1na2vs0mg"},{"bike_id":"cb38c280-2322-4366-8e87-536769220a6f","system_id":"levelo_inurba_marseille","lat":43.29275,"lon":5.40125,"is_reserved":false,"is_disabled":false,"rental_uris":{"android":"levelo://app?vid=cb38c280-2322-4366-8e87-536769220a6f","ios":"levelo://app?vid=cb38c280-2322-4366-8e87-536769220a6f"},"vehicle_type_id":"4","last_reported":1732688063,"current_range_meters":18800,"station_id":"ce4bh312rcd13ifvqdk0","pricing_plan_id":"cebpf4jnsgd1na2vs0mg"},{"bike_id":"51b398f2-b539-440c-917f-0128fd59b7e4","system_id":"levelo_inurba_marseille","lat":43.28451,"lon":5.35886,"is_reserved":false,"is_disabled":false,"rental_uris":{"android":"levelo://app?vid=51b398f2-b539-440c-917f-0128fd59b7e4","ios":"levelo://app?vid=51b398f2-b539-440c-917f-0128fd59b7e4"},"vehicle_type_id":"4","last_reported":1732688063,"current_range_meters":38800,"station_id":"ce4bhah2rcd13ifvqei0","pricing_plan_id":"cebpf4jnsgd1na2vs0mg"},{"bike_id":"1cd78e3c-eca2-430e-a00b-3450b52eb373","system_id":"levelo_inurba_marseille","lat":43.22929,"lon":5.3538,"is_reserved":false,"is_disabled":false,"rental_uris":{"android":"levelo://app?vid=1cd78e3c-eca2-430e-a00b-3450b52eb373","ios":"levelo://app?vid=1cd78e3c-eca2-430e-a00b-3450b52eb373"},"vehicle_type_id":"4","last_reported":1732688063,"current_range_meters":38400,"station_id":"cpo3532slgdg3j2ikp40","pricing_plan_id":"cebpf4jnsgd1na2vs0mg"},{"bike_id":"2ccbab4c-72b8-4d2e-a7d8-b3b981518916","system_id":"levelo_inurba_marseille","lat":43.317599,"lon":5.39013,"is_reserved":false,"is_disabled":false,"rental_uris":{"android":"levelo://app?vid=2ccbab4c-72b8-4d2e-a7d8-b3b981518916","ios":"levelo://app?vid=2ccbab4c-72b8-4d2e-a7d8-b3b981518916"},"vehicle_type_id":"4","last_reported":1732688063,"current_range_meters":38800,"station_id":"ce4bhqp2rcd13ifvqhng","pricing_plan_id":"cebpf4jnsgd1na2vs0mg"},{"bike_id":"391001e2-7361-4b92-b20f-4fb1d1376b6e","system_id":"levelo_inurba_marseille","lat":43.23196,"lon":5.3998,"is_reserved":false,"is_disabled":false,"rental_uris":{"android":"levelo://app?vid=391001e2-7361-4b92-b20f-4fb1d1376b6e","ios":"levelo://app?vid=391001e2-7361-4b92-b20f-4fb1d1376b6e"},"vehicle_type_id":"4","last_reported":1732688063,"current_range_meters":37600,"station_id":"ce4bhn12rcd13ifvqgqg","pricing_plan_id":"cebpf4jnsgd1na2vs0mg"},{"bike_id":"4a5edfa9-8dfd-4c0c-9f8c-7043babfbe18","system_id":"levelo_inurba_marseille","lat":43.32332,"lon":5.40621,"is_reserved":false,"is_disabled":false,"rental_uris":{"android":"levelo://app?vid=4a5edfa9-8dfd-4c0c-9f8c-7043babfbe18","ios":"levelo://app?vid=4a5edfa9-8dfd-4c0c-9f8c-7043babfbe18"},"vehicle_type_id":"4","last_reported":1732688063,"current_range_meters":9200,"station_id":"ce4bhq92rcd13ifvqhjg","pricing_plan_id":"cebpf4jnsgd1na2vs0mg"},{"bike_id":"24382d19-1eba-456f-9400-fb1ae2b22acb","system_id":"levelo_inurba_marseille","lat":43.29245,"lon":5.40175,"is_reserved":false,"is_disabled":false,"rental_uris":{"android":"levelo://app?vid=24382d19-1eba-456f-9400-fb1ae2b22acb","ios":"levelo://app?vid=24382d19-1eba-456f-9400-fb1ae2b22acb"},"vehicle_type_id":"4","last_reported":1732688063,"current_range_meters":37600,"station_id":"","pricing_plan_id":"cebpf4jnsgd1na2vs0mg"},{"bike_id":"16eb9178-58c8-4889-b0ba-9fe7f0b286d2","system_id":"levelo_inurba_marseille","lat":43.2623,"lon":5.37519,"is_reserved":false,"is_disabled":false,"rental_uris":{"android":"levelo://app?vid=16eb9178-58c8-4889-b0ba-9fe7f0b286d2","ios":"levelo://app?vid=16eb9178-58c8-4889-b0ba-9fe7f0b286d2"},"vehicle_type_id":"4","last_reported":1732688063,"current_range_meters":30000,"station_id":"","pricing_plan_id":"cebpf4jnsgd1na2vs0mg"},{"bike_id":"e72d41bb-8bbd-4274-987d-4e5a925e8fe7","system_id":"levelo_inurba_marseille","lat":43.29629,"lon":5.40601,"is_reserved":false,"is_disabled":false,"rental_uris":{"android":"levelo://app?vid=e72d41bb-8bbd-4274-987d-4e5a925e8fe7","ios":"levelo://app?vid=e72d41bb-8bbd-4274-987d-4e5a925e8fe7"},"vehicle_type_id":"4","last_reported":1732688063,"current_range_meters":38800,"station_id":"ce4bh0h2rcd13ifvqd60","pricing_plan_id":"cebpf4jnsgd1na2vs0mg"},{"bike_id":"28709731-d14f-4e98-afa7-e678c8db1a10","system_id":"levelo_inurba_marseille","lat":43.32369,"lon":5.38882,"is_reserved":false,"is_disabled":false,"rental_uris":{"android":"levelo://app?vid=28709731-d14f-4e98-afa7-e678c8db1a10","ios":"levelo://app?vid=28709731-d14f-4e98-afa7-e678c8db1a10"},"vehicle_type_id":"4","last_reported":1732688063,"current_range_meters":26000,"station_id":"ce4bhqp2rcd13ifvqhog","pricing_plan_id":"cebpf4jnsgd1na2vs0mg"},{"bike_id":"ad147b94-4180-4578-a0fa-c4d1998acb2d","system_id":"levelo_inurba_marseille","lat":43.29032,"lon":5.35927,"is_reserved":false,"is_disabled":true,"rental_uris":{"android":"levelo://app?vid=ad147b94-4180-4578-a0fa-c4d1998acb2d","ios":"levelo://app?vid=ad147b94-4180-4578-a0fa-c4d1998acb2d"},"vehicle_type_id":"4","last_reported":1732688063,"current_range_meters":37600,"station_id":"ce4bha92rcd13ifvqeg0","pricing_plan_id":"cebpf4jnsgd1na2vs0mg"},{"bike_id":"8d88d784-a412-435e-bbdb-816b3095509e","system_id":"levelo_inurba_marseille","lat":43.31171,"lon":5.38723,"is_reserved":false,"is_disabled":false,"rental_uris":{"android":"levelo://app?vid=8d88d784-a412-435e-bbdb-816b3095509e","ios":"levelo://app?vid=8d88d784-a412-435e-bbdb-816b3095509e"},"vehicle_type_id":"4","last_reported":1732688063,"current_range_meters":38800,"station_id":"ce4bgv12rcd13ifvqcp0","pricing_plan_id":"cebpf4jnsgd1na2vs0mg"},{"bike_id":"4f9eddaf-5d26-42f4-98f6-12cd4c5250b2","system_id":"levelo_inurba_marseille","lat":43.28433,"lon":5.39194,"is_reserved":false,"is_disabled":false,"rental_uris":{"android":"levelo://app?vid=4f9eddaf-5d26-42f4-98f6-12cd4c5250b2","ios":"levelo://app?vid=4f9eddaf-5d26-42f4-98f6-12cd4c5250b2"},"vehicle_type_id":"4","last_reported":1732688063,"current_range_meters":30400,"station_id":"ce4bhoh2rcd13ifvqh5g","pricing_plan_id":"cebpf4jnsgd1na2vs0mg"},{"bike_id":"2e95a691-d7d8-426b-8dba-47b6b56c6a41","system_id":"levelo_inurba_marseille","lat":43.28149,"lon":5.4265,"is_reserved":false,"is_disabled":true,"rental_uris":{"android":"levelo://app?vid=2e95a691-d7d8-426b-8dba-47b6b56c6a41","ios":"levelo://app?vid=2e95a691-d7d8-426b-8dba-47b6b56c6a41"},"vehicle_type_id":"4","last_reported":1732688063,"current_range_meters":3200,"station_id":"ce4bhnh2rcd13ifvqgug","pricing_plan_id":"cebpf4jnsgd1na2vs0mg"},{"bike_id":"e1023cd0-0598-4752-bca2-87e3d8646e5a","system_id":"levelo_inurba_marseille","lat":43.2738,"lon":5.3625,"is_reserved":false,"is_disabled":false,"rental_uris":{"android":"levelo://app?vid=e1023cd0-0598-4752-bca2-87e3d8646e5a","ios":"levelo://app?vid=e1023cd0-0598-4752-bca2-87e3d8646e5a"},"vehicle_type_id":"4","last_reported":1732688063,"current_range_meters":38800,"station_id":"ce4bhbh2rcd13ifvqeo0","pricing_plan_id":"cebpf4jnsgd1na2vs0mg"},{"bike_id":"3e37db55-c4a9-4419-a174-bfd57be8a027","system_id":"levelo_inurba_marseille","lat":43.243851,"lon":5.370566,"is_reserved":false,"is_disabled":false,"rental_uris":{"android":"levelo://app?vid=3e37db55-c4a9-4419-a174-bfd57be8a027","ios":"levelo://app?vid=3e37db55-c4a9-4419-a174-bfd57be8a027"},"vehicle_type_id":"4","last_reported":1732688063,"current_range_meters":38000,"station_id":"ce4bhhh2rcd13ifvqfk0","pricing_plan_id":"cebpf4jnsgd1na2vs0mg"},{"bike_id":"fba1ceb6-3cef-4b3a-8f1d-cb2909f800c4","system_id":"levelo_inurba_marseille","lat":43.31363,"lon":5.36687,"is_reserved":false,"is_disabled":false,"rental_uris":{"android":"levelo://app?vid=fba1ceb6-3cef-4b3a-8f1d-cb2909f800c4","ios":"levelo://app?vid=fba1ceb6-3cef-4b3a-8f1d-cb2909f800c4"},"vehicle_type_id":"4","last_reported":1732688063,"current_range_meters":37600,"station_id":"ce4bgr92rcd13ifvqc6g","pricing_plan_id":"cebpf4jnsgd1na2vs0mg"},{"bike_id":"296383cf-b9f1-4ece-98e9-977ef8cbd17a","system_id":"levelo_inurba_marseille","lat":43.23187,"lon":5.39996,"is_reserved":false,"is_disabled":false,"rental_uris":{"android":"levelo://app?vid=296383cf-b9f1-4ece-98e9-977ef8cbd17a","ios":"levelo://app?vid=296383cf-b9f1-4ece-98e9-977ef8cbd17a"},"vehicle_type_id":"4","last_reported":1732688063,"current_range_meters":19600,"station_id":"ce4bhn12rcd13ifvqgqg","pricing_plan_id":"cebpf4jnsgd1na2vs0mg"},{"bike_id":"0d885c33-99e8-4e60-9043-86656721a083","system_id":"levelo_inurba_marseille","lat":43.29254,"lon":5.40897,"is_reserved":false,"is_disabled":false,"rental_uris":{"android":"levelo://app?vid=0d885c33-99e8-4e60-9043-86656721a083","ios":"levelo://app?vid=0d885c33-99e8-4e60-9043-86656721a083"},"vehicle_type_id":"4","last_reported":1732688063,"current_range_meters":9200,"station_id":"ce4bh192rcd13ifvqdc0","pricing_plan_id":"cebpf4jnsgd1na2vs0mg"},{"bike_id":"ae4286ba-a3e4-49c0-be9c-b4197d674bd5","system_id":"levelo_inurba_marseille","lat":43.2909,"lon":5.38116,"is_reserved":false,"is_disabled":false,"rental_uris":{"android":"levelo://app?vid=ae4286ba-a3e4-49c0-be9c-b4197d674bd5","ios":"levelo://app?vid=ae4286ba-a3e4-49c0-be9c-b4197d674bd5"},"vehicle_type_id":"4","last_reported":1732688063,"current_range_meters":3600,"station_id":"ce4bh512rcd13ifvqe2g","pricing_plan_id":"cebpf4jnsgd1na2vs0mg"},{"bike_id":"1606c510-b735-4fc8-8ac9-1879292672fd","system_id":"levelo_inurba_marseille","lat":43.258641,"lon":5.398949,"is_reserved":false,"is_disabled":false,"rental_uris":{"android":"levelo://app?vid=1606c510-b735-4fc8-8ac9-1879292672fd","ios":"levelo://app?vid=1606c510-b735-4fc8-8ac9-1879292672fd"},"vehicle_type_id":"4","last_reported":1732688063,"current_range_meters":8000,"station_id":"ce4bhl92rcd13ifvqghg","pricing_plan_id":"cebpf4jnsgd1na2vs0mg"},{"bike_id":"858b65e1-94fc-4151-a71e-8b168cb19dcb","system_id":"levelo_inurba_marseille","lat":43.32249,"lon":5.39241,"is_reserved":false,"is_disabled":true,"rental_uris":{"android":"levelo://app?vid=858b65e1-94fc-4151-a71e-8b168cb19dcb","ios":"levelo://app?vid=858b65e1-94fc-4151-a71e-8b168cb19dcb"},"vehicle_type_id":"4","last_reported":1732688063,"current_range_meters":0,"station_id":"","pricing_plan_id":"cebpf4jnsgd1na2vs0mg"},{"bike_id":"ea8c70eb-fb96-44a1-a20d-11ed438fce10","system_id":"levelo_inurba_marseille","lat":43.31082,"lon":5.4243,"is_reserved":false,"is_disabled":false,"rental_uris":{"android":"levelo://app?vid=ea8c70eb-fb96-44a1-a20d-11ed438fce10","ios":"levelo://app?vid=ea8c70eb-fb96-44a1-a20d-11ed438fce10"},"vehicle_type_id":"4","last_reported":1732688063,"current_range_meters":26800,"station_id":"ce4bhp92rcd13ifvqhag","pricing_plan_id":"cebpf4jnsgd1na2vs0mg"},{"bike_id":"e51b2acb-d883-446b-9ce9-347608453ece","system_id":"levelo_inurba_marseille","lat":43.22928,"lon":5.35385,"is_reserved":false,"is_disabled":false,"rental_uris":{"android":"levelo://app?vid=e51b2acb-d883-446b-9ce9-347608453ece","ios":"levelo://app?vid=e51b2acb-d883-446b-9ce9-347608453ece"},"vehicle_type_id":"4","last_reported":1732688063,"current_range_meters":38000,"station_id":"cpo3532slgdg3j2ikp40","pricing_plan_id":"cebpf4jnsgd1na2vs0mg"},{"bike_id":"d4631ba8-55fd-4d7a-8e8b-d75420895cf3","system_id":"levelo_inurba_marseille","lat":43.29198,"lon":5.39309,"is_reserved":false,"is_disabled":false,"rental_uris":{"android":"levelo://app?vid=d4631ba8-55fd-4d7a-8e8b-d75420895cf3","ios":"levelo://app?vid=d4631ba8-55fd-4d7a-8e8b-d75420895cf3"},"vehicle_type_id":"4","last_reported":1732688063,"current_range_meters":38400,"station_id":"ce4bh192rcd13ifvqdd0","pricing_plan_id":"cebpf4jnsgd1na2vs0mg"},{"bike_id":"2719c68b-aa87-4e27-91b7-d22fe9e18130","system_id":"levelo_inurba_marseille","lat":43.28275,"lon":5.35075,"is_reserved":false,"is_disabled":false,"rental_uris":{"android":"levelo://app?vid=2719c68b-aa87-4e27-91b7-d22fe9e18130","ios":"levelo://app?vid=2719c68b-aa87-4e27-91b7-d22fe9e18130"},"vehicle_type_id":"4","last_reported":1732688063,"current_range_meters":11600,"station_id":"ce4bhbp2rcd13ifvqerg","pricing_plan_id":"cebpf4jnsgd1na2vs0mg"},{"bike_id":"bc261adb-95a1-459a-92ba-5de718564b25","system_id":"levelo_inurba_marseille","lat":43.31327,"lon":5.39691,"is_reserved":false,"is_disabled":false,"rental_uris":{"android":"levelo://app?vid=bc261adb-95a1-459a-92ba-5de718564b25","ios":"levelo://app?vid=bc261adb-95a1-459a-92ba-5de718564b25"},"vehicle_type_id":"4","last_reported":1732688063,"current_range_meters":4000,"station_id":"ce4bgvp2rcd13ifvqcu0","pricing_plan_id":"cebpf4jnsgd1na2vs0mg"},{"bike_id":"0ce9ec12-7f38-48bb-aa8a-38c9fc0bd1f4","system_id":"levelo_inurba_marseille","lat":43.27188,"lon":5.40979,"is_reserved":false,"is_disabled":false,"rental_uris":{"android":"levelo://app?vid=0ce9ec12-7f38-48bb-aa8a-38c9fc0bd1f4","ios":"levelo://app?vid=0ce9ec12-7f38-48bb-aa8a-38c9fc0bd1f4"},"vehicle_type_id":"4","last_reported":1732688063,"current_range_meters":20400,"station_id":"ce4bhl12rcd13ifvqgf0","pricing_plan_id":"cebpf4jnsgd1na2vs0mg"},{"bike_id":"d5da5333-8509-4b0a-b744-e59e463e7865","system_id":"levelo_inurba_marseille","lat":43.27893,"lon":5.38285,"is_reserved":false,"is_disabled":true,"rental_uris":{"android":"levelo://app?vid=d5da5333-8509-4b0a-b744-e59e463e7865","ios":"levelo://app?vid=d5da5333-8509-4b0a-b744-e59e463e7865"},"vehicle_type_id":"4","last_reported":1732688063,"current_range_meters":20400,"station_id":"","pricing_plan_id":"cebpf4jnsgd1na2vs0mg"},{"bike_id":"859fbee0-02c1-4795-bf59-3633c6d02e96","system_id":"levelo_inurba_marseille","lat":43.30917,"lon":5.40157,"is_reserved":false,"is_disabled":false,"rental_uris":{"android":"levelo://app?vid=859fbee0-02c1-4795-bf59-3633c6d02e96","ios":"levelo://app?vid=859fbee0-02c1-4795-bf59-3633c6d02e96"},"vehicle_type_id":"4","last_reported":1732688063,"current_range_meters":16800,"station_id":"ce4bgvp2rcd13ifvqct0","pricing_plan_id":"cebpf4jnsgd1na2vs0mg"},{"bike_id":"bef8b325-9421-4973-be5b-43d178e3e26a","system_id":"levelo_inurba_marseille","lat":43.28906,"lon":5.384,"is_reserved":false,"is_disabled":false,"rental_uris":{"android":"levelo://app?vid=bef8b325-9421-4973-be5b-43d178e3e26a","ios":"levelo://app?vid=bef8b325-9421-4973-be5b-43d178e3e26a"},"vehicle_type_id":"4","last_reported":1732688063,"current_range_meters":30800,"station_id":"ce4bh612rcd13ifvqe6g","pricing_plan_id":"cebpf4jnsgd1na2vs0mg"},{"bike_id":"df8b6335-1fd6-4826-94dd-ea51fbe98817","system_id":"levelo_inurba_marseille","lat":43.28711,"lon":5.361,"is_reserved":false,"is_disabled":false,"rental_uris":{"android":"levelo://app?vid=df8b6335-1fd6-4826-94dd-ea51fbe98817","ios":"levelo://app?vid=df8b6335-1fd6-4826-94dd-ea51fbe98817"},"vehicle_type_id":"4","last_reported":1732688063,"current_range_meters":38800,"station_id":"cki0cbj6b192h4jlfktg","pricing_plan_id":"cebpf4jnsgd1na2vs0mg"},{"bike_id":"f7f3756c-1ec7-4782-9c87-6273f87b6774","system_id":"levelo_inurba_marseille","lat":43.337444,"lon":5.374475,"is_reserved":false,"is_disabled":true,"rental_uris":{"android":"levelo://app?vid=f7f3756c-1ec7-4782-9c87-6273f87b6774","ios":"levelo://app?vid=f7f3756c-1ec7-4782-9c87-6273f87b6774"},"vehicle_type_id":"4","last_reported":1732688063,"current_range_meters":16400,"station_id":"","pricing_plan_id":"cebpf4jnsgd1na2vs0mg"},{"bike_id":"9a7fc65c-a473-4df1-8da8-b97e38cbdb89","system_id":"levelo_inurba_marseille","lat":43.23148,"lon":5.43713,"is_reserved":false,"is_disabled":false,"rental_uris":{"android":"levelo://app?vid=9a7fc65c-a473-4df1-8da8-b97e38cbdb89","ios":"levelo://app?vid=9a7fc65c-a473-4df1-8da8-b97e38cbdb89"},"vehicle_type_id":"4","last_reported":1732688063,"current_range_meters":8000,"station_id":"ce4bhmp2rcd13ifvqgog","pricing_plan_id":"cebpf4jnsgd1na2vs0mg"},{"bike_id":"5ac84619-8500-415b-9629-5dc640523aaa","system_id":"levelo_inurba_marseille","lat":43.29512,"lon":5.37509,"is_reserved":false,"is_disabled":true,"rental_uris":{"android":"levelo://app?vid=5ac84619-8500-415b-9629-5dc640523aaa","ios":"levelo://app?vid=5ac84619-8500-415b-9629-5dc640523aaa"},"vehicle_type_id":"4","last_reported":1732688063,"current_range_meters":12800,"station_id":"ce4bgkp2rcd13ifvqbmg","pricing_plan_id":"cebpf4jnsgd1na2vs0mg"},{"bike_id":"ca3c5af7-6212-4473-8827-9c89992897f3","system_id":"levelo_inurba_marseille","lat":43.28434,"lon":5.39198,"is_reserved":false,"is_disabled":false,"rental_uris":{"android":"levelo://app?vid=ca3c5af7-6212-4473-8827-9c89992897f3","ios":"levelo://app?vid=ca3c5af7-6212-4473-8827-9c89992897f3"},"vehicle_type_id":"4","last_reported":1732688063,"current_range_meters":32400,"station_id":"ce4bhoh2rcd13ifvqh5g","pricing_plan_id":"cebpf4jnsgd1na2vs0mg"},{"bike_id":"3b633dca-eb70-4ea8-b301-a2515bdd370f","system_id":"levelo_inurba_marseille","lat":43.28407,"lon":5.37518,"is_reserved":false,"is_disabled":false,"rental_uris":{"android":"levelo://app?vid=3b633dca-eb70-4ea8-b301-a2515bdd370f","ios":"levelo://app?vid=3b633dca-eb70-4ea8-b301-a2515bdd370f"},"vehicle_type_id":"4","last_reported":1732688063,"current_range_meters":14800,"station_id":"ce4bh412rcd13ifvqds0","pricing_plan_id":"cebpf4jnsgd1na2vs0mg"},{"bike_id":"e74072b3-a02b-4151-87ff-4a55be046050","system_id":"levelo_inurba_marseille","lat":43.25084,"lon":5.39515,"is_reserved":false,"is_disabled":false,"rental_uris":{"android":"levelo://app?vid=e74072b3-a02b-4151-87ff-4a55be046050","ios":"levelo://app?vid=e74072b3-a02b-4151-87ff-4a55be046050"},"vehicle_type_id":"4","last_reported":1732688063,"current_range_meters":37600,"station_id":"ce4bhm12rcd13ifvqgkg","pricing_plan_id":"cebpf4jnsgd1na2vs0mg"},{"bike_id":"be75626b-aa28-4d29-a136-b3bd4a0311ca","system_id":"levelo_inurba_marseille","lat":43.30553,"lon":5.3654,"is_reserved":false,"is_disabled":true,"rental_uris":{"android":"levelo://app?vid=be75626b-aa28-4d29-a136-b3bd4a0311ca","ios":"levelo://app?vid=be75626b-aa28-4d29-a136-b3bd4a0311ca"},"vehicle_type_id":"4","last_reported":1732688063,"current_range_meters":38800,"station_id":"ce4bgs12rcd13ifvqcag","pricing_plan_id":"cebpf4jnsgd1na2vs0mg"},{"bike_id":"da9766fc-7c3a-4df3-adb6-43d914fc777e","system_id":"levelo_inurba_marseille","lat":43.298726,"lon":5.39735,"is_reserved":false,"is_disabled":false,"rental_uris":{"android":"levelo://app?vid=da9766fc-7c3a-4df3-adb6-43d914fc777e","ios":"levelo://app?vid=da9766fc-7c3a-4df3-adb6-43d914fc777e"},"vehicle_type_id":"4","last_reported":1732688063,"current_range_meters":37600,"station_id":"ce4bh0h2rcd13ifvqd50","pricing_plan_id":"cebpf4jnsgd1na2vs0mg"},{"bike_id":"5beeafd9-fc35-4444-8f38-3d5aae2d23a8","system_id":"levelo_inurba_marseille","lat":43.32484,"lon":5.36564,"is_reserved":false,"is_disabled":false,"rental_uris":{"android":"levelo://app?vid=5beeafd9-fc35-4444-8f38-3d5aae2d23a8","ios":"levelo://app?vid=5beeafd9-fc35-4444-8f38-3d5aae2d23a8"},"vehicle_type_id":"4","last_reported":1732688063,"current_range_meters":16000,"station_id":"ce4bhs12rcd13ifvqhvg","pricing_plan_id":"cebpf4jnsgd1na2vs0mg"},{"bike_id":"ee39fb7d-6338-4ece-8656-cb0f293fe4e8","system_id":"levelo_inurba_marseille","lat":43.31167,"lon":5.38718,"is_reserved":false,"is_disabled":false,"rental_uris":{"android":"levelo://app?vid=ee39fb7d-6338-4ece-8656-cb0f293fe4e8","ios":"levelo://app?vid=ee39fb7d-6338-4ece-8656-cb0f293fe4e8"},"vehicle_type_id":"4","last_reported":1732688063,"current_range_meters":10800,"station_id":"ce4bgv12rcd13ifvqcp0","pricing_plan_id":"cebpf4jnsgd1na2vs0mg"},{"bike_id":"1bdf9afd-1539-40b5-b519-81e00474358c","system_id":"levelo_inurba_marseille","lat":43.28852,"lon":5.3584,"is_reserved":false,"is_disabled":false,"rental_uris":{"android":"levelo://app?vid=1bdf9afd-1539-40b5-b519-81e00474358c","ios":"levelo://app?vid=1bdf9afd-1539-40b5-b519-81e00474358c"},"vehicle_type_id":"4","last_reported":1732688063,"current_range_meters":27600,"station_id":"ce4bhb12rcd13ifvqem0","pricing_plan_id":"cebpf4jnsgd1na2vs0mg"},{"bike_id":"ceef91ef-278d-48da-8af0-4d75c1ac4622","system_id":"levelo_inurba_marseille","lat":43.26558,"lon":5.37287,"is_reserved":false,"is_disabled":false,"rental_uris":{"android":"levelo://app?vid=ceef91ef-278d-48da-8af0-4d75c1ac4622","ios":"levelo://app?vid=ceef91ef-278d-48da-8af0-4d75c1ac4622"},"vehicle_type_id":"4","last_reported":1732688063,"current_range_meters":27600,"station_id":"ce4bhg12rcd13ifvqf70","pricing_plan_id":"cebpf4jnsgd1na2vs0mg"},{"bike_id":"b94865bd-271b-4f4b-bfb5-073ca9cd54df","system_id":"levelo_inurba_marseille","lat":43.30299,"lon":5.3922,"is_reserved":false,"is_disabled":true,"rental_uris":{"android":"levelo://app?vid=b94865bd-271b-4f4b-bfb5-073ca9cd54df","ios":"levelo://app?vid=b94865bd-271b-4f4b-bfb5-073ca9cd54df"},"vehicle_type_id":"4","last_reported":1732688063,"current_range_meters":30400,"station_id":"ce4bgkh2rcd13ifvqbk0","pricing_plan_id":"cebpf4jnsgd1na2vs0mg"},{"bike_id":"87d56768-250e-4244-bc87-a518d46164f1","system_id":"levelo_inurba_marseille","lat":43.288684,"lon":5.38851,"is_reserved":false,"is_disabled":false,"rental_uris":{"android":"levelo://app?vid=87d56768-250e-4244-bc87-a518d46164f1","ios":"levelo://app?vid=87d56768-250e-4244-bc87-a518d46164f1"},"vehicle_type_id":"4","last_reported":1732688063,"current_range_meters":34000,"station_id":"","pricing_plan_id":"cebpf4jnsgd1na2vs0mg"},{"bike_id":"a5909545-3e09-4859-9fda-9ffe4e6e4883","system_id":"levelo_inurba_marseille","lat":43.23065,"lon":5.35491,"is_reserved":false,"is_disabled":false,"rental_uris":{"android":"levelo://app?vid=a5909545-3e09-4859-9fda-9ffe4e6e4883","ios":"levelo://app?vid=a5909545-3e09-4859-9fda-9ffe4e6e4883"},"vehicle_type_id":"4","last_reported":1732688063,"current_range_meters":28400,"station_id":"cpo3342slgdg3j2ifvpg","pricing_plan_id":"cebpf4jnsgd1na2vs0mg"},{"bike_id":"9f12d915-5eff-4689-a96d-7d2d1d3f25d8","system_id":"levelo_inurba_marseille","lat":43.29803,"lon":5.40408,"is_reserved":false,"is_disabled":false,"rental_uris":{"android":"levelo://app?vid=9f12d915-5eff-4689-a96d-7d2d1d3f25d8","ios":"levelo://app?vid=9f12d915-5eff-4689-a96d-7d2d1d3f25d8"},"vehicle_type_id":"4","last_reported":1732688063,"current_range_meters":33600,"station_id":"ce4bh112rcd13ifvqd90","pricing_plan_id":"cebpf4jnsgd1na2vs0mg"},{"bike_id":"e2ce9644-d3a8-45c7-bcf9-77c4fa8e6779","system_id":"levelo_inurba_marseille","lat":43.27811,"lon":5.40716,"is_reserved":false,"is_disabled":false,"rental_uris":{"android":"levelo://app?vid=e2ce9644-d3a8-45c7-bcf9-77c4fa8e6779","ios":"levelo://app?vid=e2ce9644-d3a8-45c7-bcf9-77c4fa8e6779"},"vehicle_type_id":"4","last_reported":1732688063,"current_range_meters":38800,"station_id":"ce4bhnh2rcd13ifvqgtg","pricing_plan_id":"cebpf4jnsgd1na2vs0mg"},{"bike_id":"71653c12-5f0e-4266-b463-df436a385bc4","system_id":"levelo_inurba_marseille","lat":43.323637,"lon":5.388809,"is_reserved":false,"is_disabled":false,"rental_uris":{"android":"levelo://app?vid=71653c12-5f0e-4266-b463-df436a385bc4","ios":"levelo://app?vid=71653c12-5f0e-4266-b463-df436a385bc4"},"vehicle_type_id":"4","last_reported":1732688063,"current_range_meters":9600,"station_id":"ce4bhqp2rcd13ifvqhog","pricing_plan_id":"cebpf4jnsgd1na2vs0mg"},{"bike_id":"00c1b85e-f618-4a9f-97fe-87be3eac83ec","system_id":"levelo_inurba_marseille","lat":43.25862,"lon":5.399,"is_reserved":false,"is_disabled":false,"rental_uris":{"android":"levelo://app?vid=00c1b85e-f618-4a9f-97fe-87be3eac83ec","ios":"levelo://app?vid=00c1b85e-f618-4a9f-97fe-87be3eac83ec"},"vehicle_type_id":"4","last_reported":1732688063,"current_range_meters":39200,"station_id":"ce4bhl92rcd13ifvqghg","pricing_plan_id":"cebpf4jnsgd1na2vs0mg"},{"bike_id":"8f909575-15ed-40f5-ae18-0c95329b2480","system_id":"levelo_inurba_marseille","lat":43.28033,"lon":5.36947,"is_reserved":false,"is_disabled":false,"rental_uris":{"android":"levelo://app?vid=8f909575-15ed-40f5-ae18-0c95329b2480","ios":"levelo://app?vid=8f909575-15ed-40f5-ae18-0c95329b2480"},"vehicle_type_id":"4","last_reported":1732688063,"current_range_meters":27600,"station_id":"ce4bha12rcd13ifvqef0","pricing_plan_id":"cebpf4jnsgd1na2vs0mg"},{"bike_id":"23a43f24-e014-424e-9eb3-c6c84dc45a3f","system_id":"levelo_inurba_marseille","lat":43.30789,"lon":5.38147,"is_reserved":false,"is_disabled":false,"rental_uris":{"android":"levelo://app?vid=23a43f24-e014-424e-9eb3-c6c84dc45a3f","ios":"levelo://app?vid=23a43f24-e014-424e-9eb3-c6c84dc45a3f"},"vehicle_type_id":"4","last_reported":1732688063,"current_range_meters":36800,"station_id":"ce4bgt12rcd13ifvqce0","pricing_plan_id":"cebpf4jnsgd1na2vs0mg"},{"bike_id":"e5951ee3-4a5a-4ebb-b469-096c5188dfa3","system_id":"levelo_inurba_marseille","lat":43.23182,"lon":5.35562,"is_reserved":false,"is_disabled":false,"rental_uris":{"android":"levelo://app?vid=e5951ee3-4a5a-4ebb-b469-096c5188dfa3","ios":"levelo://app?vid=e5951ee3-4a5a-4ebb-b469-096c5188dfa3"},"vehicle_type_id":"4","last_reported":1732688063,"current_range_meters":33200,"station_id":"ce4bhu92rcd13ifvqi70","pricing_plan_id":"cebpf4jnsgd1na2vs0mg"},{"bike_id":"ef2bbbc8-ec8f-4e93-a201-6ddfc6dd6bb9","system_id":"levelo_inurba_marseille","lat":43.29516,"lon":5.3941,"is_reserved":false,"is_disabled":false,"rental_uris":{"android":"levelo://app?vid=ef2bbbc8-ec8f-4e93-a201-6ddfc6dd6bb9","ios":"levelo://app?vid=ef2bbbc8-ec8f-4e93-a201-6ddfc6dd6bb9"},"vehicle_type_id":"4","last_reported":1732688063,"current_range_meters":14000,"station_id":"ce4bh292rcd13ifvqdf0","pricing_plan_id":"cebpf4jnsgd1na2vs0mg"},{"bike_id":"c4ff3c2c-87d7-4575-9335-5f53ac047a46","system_id":"levelo_inurba_marseille","lat":43.27062,"lon":5.42303,"is_reserved":false,"is_disabled":false,"rental_uris":{"android":"levelo://app?vid=c4ff3c2c-87d7-4575-9335-5f53ac047a46","ios":"levelo://app?vid=c4ff3c2c-87d7-4575-9335-5f53ac047a46"},"vehicle_type_id":"4","last_reported":1732688063,"current_range_meters":38800,"station_id":"ce4bhk92rcd13ifvqgb0","pricing_plan_id":"cebpf4jnsgd1na2vs0mg"},{"bike_id":"8b90e280-1859-48e5-8cc1-f1521436ad0b","system_id":"levelo_inurba_marseille","lat":43.25574,"lon":5.38237,"is_reserved":false,"is_disabled":false,"rental_uris":{"android":"levelo://app?vid=8b90e280-1859-48e5-8cc1-f1521436ad0b","ios":"levelo://app?vid=8b90e280-1859-48e5-8cc1-f1521436ad0b"},"vehicle_type_id":"4","last_reported":1732688063,"current_range_meters":17200,"station_id":"ce4bhih2rcd13ifvqfs0","pricing_plan_id":"cebpf4jnsgd1na2vs0mg"},{"bike_id":"3379f44f-c07d-4ec3-b622-4c7ff9c0b74e","system_id":"levelo_inurba_marseille","lat":43.23194,"lon":5.35548,"is_reserved":false,"is_disabled":false,"rental_uris":{"android":"levelo://app?vid=3379f44f-c07d-4ec3-b622-4c7ff9c0b74e","ios":"levelo://app?vid=3379f44f-c07d-4ec3-b622-4c7ff9c0b74e"},"vehicle_type_id":"4","last_reported":1732688063,"current_range_meters":7200,"station_id":"ce4bhu92rcd13ifvqi70","pricing_plan_id":"cebpf4jnsgd1na2vs0mg"},{"bike_id":"6c948e9c-d5b3-4fe5-a918-1bd2f7c83b02","system_id":"levelo_inurba_marseille","lat":43.32102,"lon":5.36769,"is_reserved":false,"is_disabled":false,"rental_uris":{"android":"levelo://app?vid=6c948e9c-d5b3-4fe5-a918-1bd2f7c83b02","ios":"levelo://app?vid=6c948e9c-d5b3-4fe5-a918-1bd2f7c83b02"},"vehicle_type_id":"4","last_reported":1732688063,"current_range_meters":14400,"station_id":"ce4bhrh2rcd13ifvqhug","pricing_plan_id":"cebpf4jnsgd1na2vs0mg"},{"bike_id":"9e620abf-d324-4f99-84fc-d67e71109f2a","system_id":"levelo_inurba_marseille","lat":43.31077,"lon":5.42435,"is_reserved":false,"is_disabled":true,"rental_uris":{"android":"levelo://app?vid=9e620abf-d324-4f99-84fc-d67e71109f2a","ios":"levelo://app?vid=9e620abf-d324-4f99-84fc-d67e71109f2a"},"vehicle_type_id":"4","last_reported":1732688063,"current_range_meters":0,"station_id":"ce4bhp92rcd13ifvqhag","pricing_plan_id":"cebpf4jnsgd1na2vs0mg"},{"bike_id":"311c22a9-d002-4f76-a390-2ec196f39862","system_id":"levelo_inurba_marseille","lat":43.31025,"lon":5.38342,"is_reserved":false,"is_disabled":true,"rental_uris":{"android":"levelo://app?vid=311c22a9-d002-4f76-a390-2ec196f39862","ios":"levelo://app?vid=311c22a9-d002-4f76-a390-2ec196f39862"},"vehicle_type_id":"4","last_reported":1732688063,"current_range_meters":0,"station_id":"","pricing_plan_id":"cebpf4jnsgd1na2vs0mg"},{"bike_id":"047f1f9d-58af-4872-9794-3b5fe9f3ce18","system_id":"levelo_inurba_marseille","lat":43.3133,"lon":5.39695,"is_reserved":false,"is_disabled":false,"rental_uris":{"android":"levelo://app?vid=047f1f9d-58af-4872-9794-3b5fe9f3ce18","ios":"levelo://app?vid=047f1f9d-58af-4872-9794-3b5fe9f3ce18"},"vehicle_type_id":"4","last_reported":1732688063,"current_range_meters":35600,"station_id":"ce4bgvp2rcd13ifvqcu0","pricing_plan_id":"cebpf4jnsgd1na2vs0mg"},{"bike_id":"61248f67-1f70-427f-8a70-08cdafab4410","system_id":"levelo_inurba_marseille","lat":43.29636,"lon":5.406,"is_reserved":false,"is_disabled":false,"rental_uris":{"android":"levelo://app?vid=61248f67-1f70-427f-8a70-08cdafab4410","ios":"levelo://app?vid=61248f67-1f70-427f-8a70-08cdafab4410"},"vehicle_type_id":"4","last_reported":1732688063,"current_range_meters":25600,"station_id":"ce4bh0h2rcd13ifvqd60","pricing_plan_id":"cebpf4jnsgd1na2vs0mg"},{"bike_id":"8c79e570-47a5-4e10-96a4-2fc604c2da79","system_id":"levelo_inurba_marseille","lat":43.28096,"lon":5.37871,"is_reserved":false,"is_disabled":false,"rental_uris":{"android":"levelo://app?vid=8c79e570-47a5-4e10-96a4-2fc604c2da79","ios":"levelo://app?vid=8c79e570-47a5-4e10-96a4-2fc604c2da79"},"vehicle_type_id":"4","last_reported":1732688063,"current_range_meters":17200,"station_id":"ce4bha12rcd13ifvqee0","pricing_plan_id":"cebpf4jnsgd1na2vs0mg"},{"bike_id":"319db8f6-ad1c-4b46-ad57-5033d5ed25eb","system_id":"levelo_inurba_marseille","lat":43.25723,"lon":5.41107,"is_reserved":false,"is_disabled":false,"rental_uris":{"android":"levelo://app?vid=319db8f6-ad1c-4b46-ad57-5033d5ed25eb","ios":"levelo://app?vid=319db8f6-ad1c-4b46-ad57-5033d5ed25eb"},"vehicle_type_id":"4","last_reported":1732688063,"current_range_meters":20000,"station_id":"ce4bhkp2rcd13ifvqgd0","pricing_plan_id":"cebpf4jnsgd1na2vs0mg"},{"bike_id":"5c53cfbd-2547-413a-b79a-f8cc3b1ca992","system_id":"levelo_inurba_marseille","lat":43.32106,"lon":5.36769,"is_reserved":false,"is_disabled":false,"rental_uris":{"android":"levelo://app?vid=5c53cfbd-2547-413a-b79a-f8cc3b1ca992","ios":"levelo://app?vid=5c53cfbd-2547-413a-b79a-f8cc3b1ca992"},"vehicle_type_id":"4","last_reported":1732688063,"current_range_meters":28800,"station_id":"ce4bhrh2rcd13ifvqhug","pricing_plan_id":"cebpf4jnsgd1na2vs0mg"},{"bike_id":"18045cdd-2260-48a4-ab4b-06afcf0afb50","system_id":"levelo_inurba_marseille","lat":43.28256,"lon":5.35072,"is_reserved":false,"is_disabled":false,"rental_uris":{"android":"levelo://app?vid=18045cdd-2260-48a4-ab4b-06afcf0afb50","ios":"levelo://app?vid=18045cdd-2260-48a4-ab4b-06afcf0afb50"},"vehicle_type_id":"4","last_reported":1732688063,"current_range_meters":38800,"station_id":"ce4bhbp2rcd13ifvqerg","pricing_plan_id":"cebpf4jnsgd1na2vs0mg"},{"bike_id":"928f989c-a16f-42d5-932b-a87e5c63fea3","system_id":"levelo_inurba_marseille","lat":43.25576,"lon":5.38231,"is_reserved":false,"is_disabled":false,"rental_uris":{"android":"levelo://app?vid=928f989c-a16f-42d5-932b-a87e5c63fea3","ios":"levelo://app?vid=928f989c-a16f-42d5-932b-a87e5c63fea3"},"vehicle_type_id":"4","last_reported":1732688063,"current_range_meters":30000,"station_id":"ce4bhih2rcd13ifvqfs0","pricing_plan_id":"cebpf4jnsgd1na2vs0mg"},{"bike_id":"e3910269-0960-41ab-9a5c-2f153c15e14c","system_id":"levelo_inurba_marseille","lat":43.25573,"lon":5.38227,"is_reserved":false,"is_disabled":false,"rental_uris":{"android":"levelo://app?vid=e3910269-0960-41ab-9a5c-2f153c15e14c","ios":"levelo://app?vid=e3910269-0960-41ab-9a5c-2f153c15e14c"},"vehicle_type_id":"4","last_reported":1732688063,"current_range_meters":38000,"station_id":"ce4bhih2rcd13ifvqfs0","pricing_plan_id":"cebpf4jnsgd1na2vs0mg"},{"bike_id":"49653a55-5a6c-41f9-820b-80b194fa8c56","system_id":"levelo_inurba_marseille","lat":43.28101,"lon":5.37845,"is_reserved":false,"is_disabled":false,"rental_uris":{"android":"levelo://app?vid=49653a55-5a6c-41f9-820b-80b194fa8c56","ios":"levelo://app?vid=49653a55-5a6c-41f9-820b-80b194fa8c56"},"vehicle_type_id":"4","last_reported":1732688063,"current_range_meters":38000,"station_id":"ce4bha12rcd13ifvqee0","pricing_plan_id":"cebpf4jnsgd1na2vs0mg"},{"bike_id":"842fb95f-7e99-4a59-9251-bdf4c049b4fc","system_id":"levelo_inurba_marseille","lat":43.2396,"lon":5.36624,"is_reserved":false,"is_disabled":false,"rental_uris":{"android":"levelo://app?vid=842fb95f-7e99-4a59-9251-bdf4c049b4fc","ios":"levelo://app?vid=842fb95f-7e99-4a59-9251-bdf4c049b4fc"},"vehicle_type_id":"4","last_reported":1732688063,"current_range_meters":9200,"station_id":"ce4bhi12rcd13ifvqfp0","pricing_plan_id":"cebpf4jnsgd1na2vs0mg"},{"bike_id":"6d82135d-90dd-4cd1-bb9c-95513e49f2a1","system_id":"levelo_inurba_marseille","lat":43.28001,"lon":5.40012,"is_reserved":false,"is_disabled":false,"rental_uris":{"android":"levelo://app?vid=6d82135d-90dd-4cd1-bb9c-95513e49f2a1","ios":"levelo://app?vid=6d82135d-90dd-4cd1-bb9c-95513e49f2a1"},"vehicle_type_id":"4","last_reported":1732688063,"current_range_meters":38400,"station_id":"ce4bho92rcd13ifvqh4g","pricing_plan_id":"cebpf4jnsgd1na2vs0mg"},{"bike_id":"2ca9605c-5ec3-4ba9-84c5-d21f7f922f37","system_id":"levelo_inurba_marseille","lat":43.28434,"lon":5.39182,"is_reserved":false,"is_disabled":false,"rental_uris":{"android":"levelo://app?vid=2ca9605c-5ec3-4ba9-84c5-d21f7f922f37","ios":"levelo://app?vid=2ca9605c-5ec3-4ba9-84c5-d21f7f922f37"},"vehicle_type_id":"4","last_reported":1732688063,"current_range_meters":36800,"station_id":"ce4bhoh2rcd13ifvqh5g","pricing_plan_id":"cebpf4jnsgd1na2vs0mg"},{"bike_id":"276c8eac-f26f-4d52-8494-1e5f39f12889","system_id":"levelo_inurba_marseille","lat":43.25573,"lon":5.38244,"is_reserved":false,"is_disabled":false,"rental_uris":{"android":"levelo://app?vid=276c8eac-f26f-4d52-8494-1e5f39f12889","ios":"levelo://app?vid=276c8eac-f26f-4d52-8494-1e5f39f12889"},"vehicle_type_id":"4","last_reported":1732688063,"current_range_meters":38800,"station_id":"ce4bhih2rcd13ifvqfs0","pricing_plan_id":"cebpf4jnsgd1na2vs0mg"},{"bike_id":"40373390-4a6b-49c7-9be2-78b71cf451bd","system_id":"levelo_inurba_marseille","lat":43.292553,"lon":5.409135,"is_reserved":false,"is_disabled":false,"rental_uris":{"android":"levelo://app?vid=40373390-4a6b-49c7-9be2-78b71cf451bd","ios":"levelo://app?vid=40373390-4a6b-49c7-9be2-78b71cf451bd"},"vehicle_type_id":"4","last_reported":1732688063,"current_range_meters":38000,"station_id":"ce4bh192rcd13ifvqdc0","pricing_plan_id":"cebpf4jnsgd1na2vs0mg"},{"bike_id":"32d3feff-25ce-4c69-94cf-f83de9897a97","system_id":"levelo_inurba_marseille","lat":43.28406,"lon":5.37518,"is_reserved":false,"is_disabled":false,"rental_uris":{"android":"levelo://app?vid=32d3feff-25ce-4c69-94cf-f83de9897a97","ios":"levelo://app?vid=32d3feff-25ce-4c69-94cf-f83de9897a97"},"vehicle_type_id":"4","last_reported":1732688063,"current_range_meters":32000,"station_id":"ce4bh412rcd13ifvqds0","pricing_plan_id":"cebpf4jnsgd1na2vs0mg"},{"bike_id":"ef7028aa-55d4-45ec-be28-f7ed1ac8aa0c","system_id":"levelo_inurba_marseille","lat":43.28615,"lon":5.35102,"is_reserved":false,"is_disabled":false,"rental_uris":{"android":"levelo://app?vid=ef7028aa-55d4-45ec-be28-f7ed1ac8aa0c","ios":"levelo://app?vid=ef7028aa-55d4-45ec-be28-f7ed1ac8aa0c"},"vehicle_type_id":"4","last_reported":1732688063,"current_range_meters":16800,"station_id":"ce4bhch2rcd13ifvqeug","pricing_plan_id":"cebpf4jnsgd1na2vs0mg"},{"bike_id":"4490893b-651f-4a29-8a23-f841e9f73902","system_id":"levelo_inurba_marseille","lat":43.33112,"lon":5.38214,"is_reserved":false,"is_disabled":false,"rental_uris":{"android":"levelo://app?vid=4490893b-651f-4a29-8a23-f841e9f73902","ios":"levelo://app?vid=4490893b-651f-4a29-8a23-f841e9f73902"},"vehicle_type_id":"4","last_reported":1732688063,"current_range_meters":22400,"station_id":"","pricing_plan_id":"cebpf4jnsgd1na2vs0mg"},{"bike_id":"ba9864d3-c286-4638-8ccd-91ad2b066417","system_id":"levelo_inurba_marseille","lat":43.26485,"lon":5.3955,"is_reserved":false,"is_disabled":false,"rental_uris":{"android":"levelo://app?vid=ba9864d3-c286-4638-8ccd-91ad2b066417","ios":"levelo://app?vid=ba9864d3-c286-4638-8ccd-91ad2b066417"},"vehicle_type_id":"4","last_reported":1732688063,"current_range_meters":38800,"station_id":"ce4bhi12rcd13ifvqfq0","pricing_plan_id":"cebpf4jnsgd1na2vs0mg"},{"bike_id":"43746d86-8a13-4845-9faf-ae69b548d714","system_id":"levelo_inurba_marseille","lat":43.29459,"lon":5.37917,"is_reserved":false,"is_disabled":true,"rental_uris":{"android":"levelo://app?vid=43746d86-8a13-4845-9faf-ae69b548d714","ios":"levelo://app?vid=43746d86-8a13-4845-9faf-ae69b548d714"},"vehicle_type_id":"4","last_reported":1732688063,"current_range_meters":0,"station_id":"","pricing_plan_id":"cebpf4jnsgd1na2vs0mg"},{"bike_id":"e6a98e09-efc5-4507-9fb0-a56012aa8712","system_id":"levelo_inurba_marseille","lat":43.28144,"lon":5.42639,"is_reserved":false,"is_disabled":false,"rental_uris":{"android":"levelo://app?vid=e6a98e09-efc5-4507-9fb0-a56012aa8712","ios":"levelo://app?vid=e6a98e09-efc5-4507-9fb0-a56012aa8712"},"vehicle_type_id":"4","last_reported":1732688063,"current_range_meters":36800,"station_id":"ce4bhnh2rcd13ifvqgug","pricing_plan_id":"cebpf4jnsgd1na2vs0mg"},{"bike_id":"49ad9574-b0d7-498d-8456-68bdd40aec93","system_id":"levelo_inurba_marseille","lat":43.24673,"lon":5.38153,"is_reserved":false,"is_disabled":false,"rental_uris":{"android":"levelo://app?vid=49ad9574-b0d7-498d-8456-68bdd40aec93","ios":"levelo://app?vid=49ad9574-b0d7-498d-8456-68bdd40aec93"},"vehicle_type_id":"4","last_reported":1732688063,"current_range_meters":36000,"station_id":"ce4bhih2rcd13ifvqfr0","pricing_plan_id":"cebpf4jnsgd1na2vs0mg"},{"bike_id":"df76b7bf-b879-4e94-9796-439ee296ef0a","system_id":"levelo_inurba_marseille","lat":43.22928,"lon":5.3537,"is_reserved":false,"is_disabled":false,"rental_uris":{"android":"levelo://app?vid=df76b7bf-b879-4e94-9796-439ee296ef0a","ios":"levelo://app?vid=df76b7bf-b879-4e94-9796-439ee296ef0a"},"vehicle_type_id":"4","last_reported":1732688063,"current_range_meters":38400,"station_id":"cpo3532slgdg3j2ikp40","pricing_plan_id":"cebpf4jnsgd1na2vs0mg"},{"bike_id":"f27c9572-3322-4dbe-9f18-e24f1001beb0","system_id":"levelo_inurba_marseille","lat":43.28428,"lon":5.39201,"is_reserved":false,"is_disabled":false,"rental_uris":{"android":"levelo://app?vid=f27c9572-3322-4dbe-9f18-e24f1001beb0","ios":"levelo://app?vid=f27c9572-3322-4dbe-9f18-e24f1001beb0"},"vehicle_type_id":"4","last_reported":1732688063,"current_range_meters":38800,"station_id":"ce4bhoh2rcd13ifvqh5g","pricing_plan_id":"cebpf4jnsgd1na2vs0mg"},{"bike_id":"f971abee-70f8-43dc-afe4-4050ccc8c3f7","system_id":"levelo_inurba_marseille","lat":43.258596,"lon":5.399119,"is_reserved":false,"is_disabled":true,"rental_uris":{"android":"levelo://app?vid=f971abee-70f8-43dc-afe4-4050ccc8c3f7","ios":"levelo://app?vid=f971abee-70f8-43dc-afe4-4050ccc8c3f7"},"vehicle_type_id":"4","last_reported":1732688063,"current_range_meters":38800,"station_id":"ce4bhl92rcd13ifvqghg","pricing_plan_id":"cebpf4jnsgd1na2vs0mg"},{"bike_id":"e429a23d-08fa-43bc-a99f-41dd20232034","system_id":"levelo_inurba_marseille","lat":43.26292,"lon":5.39862,"is_reserved":false,"is_disabled":true,"rental_uris":{"android":"levelo://app?vid=e429a23d-08fa-43bc-a99f-41dd20232034","ios":"levelo://app?vid=e429a23d-08fa-43bc-a99f-41dd20232034"},"vehicle_type_id":"4","last_reported":1732688063,"current_range_meters":0,"station_id":"","pricing_plan_id":"cebpf4jnsgd1na2vs0mg"},{"bike_id":"d8744165-1744-4dd2-b20b-2b96defc15cd","system_id":"levelo_inurba_marseille","lat":43.27809,"lon":5.40706,"is_reserved":false,"is_disabled":false,"rental_uris":{"android":"levelo://app?vid=d8744165-1744-4dd2-b20b-2b96defc15cd","ios":"levelo://app?vid=d8744165-1744-4dd2-b20b-2b96defc15cd"},"vehicle_type_id":"4","last_reported":1732688063,"current_range_meters":25600,"station_id":"ce4bhnh2rcd13ifvqgtg","pricing_plan_id":"cebpf4jnsgd1na2vs0mg"},{"bike_id":"3faf8b2f-845f-4fd3-8bc7-04d1158d9692","system_id":"levelo_inurba_marseille","lat":43.33019,"lon":5.39032,"is_reserved":false,"is_disabled":false,"rental_uris":{"android":"levelo://app?vid=3faf8b2f-845f-4fd3-8bc7-04d1158d9692","ios":"levelo://app?vid=3faf8b2f-845f-4fd3-8bc7-04d1158d9692"},"vehicle_type_id":"4","last_reported":1732688063,"current_range_meters":24800,"station_id":"ce4bhr92rcd13ifvqhrg","pricing_plan_id":"cebpf4jnsgd1na2vs0mg"},{"bike_id":"478bed2a-def0-423e-b6a9-a98146119980","system_id":"levelo_inurba_marseille","lat":43.28277,"lon":5.35078,"is_reserved":false,"is_disabled":false,"rental_uris":{"android":"levelo://app?vid=478bed2a-def0-423e-b6a9-a98146119980","ios":"levelo://app?vid=478bed2a-def0-423e-b6a9-a98146119980"},"vehicle_type_id":"4","last_reported":1732688063,"current_range_meters":33600,"station_id":"ce4bhbp2rcd13ifvqerg","pricing_plan_id":"cebpf4jnsgd1na2vs0mg"},{"bike_id":"543680b5-3173-4d06-aa3d-6f4176403136","system_id":"levelo_inurba_marseille","lat":43.28151,"lon":5.42655,"is_reserved":false,"is_disabled":false,"rental_uris":{"android":"levelo://app?vid=543680b5-3173-4d06-aa3d-6f4176403136","ios":"levelo://app?vid=543680b5-3173-4d06-aa3d-6f4176403136"},"vehicle_type_id":"4","last_reported":1732688063,"current_range_meters":30000,"station_id":"ce4bhnh2rcd13ifvqgug","pricing_plan_id":"cebpf4jnsgd1na2vs0mg"},{"bike_id":"a077a7bd-d44b-4ca0-96c1-49693516b3b4","system_id":"levelo_inurba_marseille","lat":43.33778,"lon":5.37435,"is_reserved":false,"is_disabled":false,"rental_uris":{"android":"levelo://app?vid=a077a7bd-d44b-4ca0-96c1-49693516b3b4","ios":"levelo://app?vid=a077a7bd-d44b-4ca0-96c1-49693516b3b4"},"vehicle_type_id":"4","last_reported":1732688063,"current_range_meters":38400,"station_id":"","pricing_plan_id":"cebpf4jnsgd1na2vs0mg"},{"bike_id":"925d9d68-1b01-45a4-af19-d1a58d7476b9","system_id":"levelo_inurba_marseille","lat":43.312042,"lon":5.367348,"is_reserved":false,"is_disabled":true,"rental_uris":{"android":"levelo://app?vid=925d9d68-1b01-45a4-af19-d1a58d7476b9","ios":"levelo://app?vid=925d9d68-1b01-45a4-af19-d1a58d7476b9"},"vehicle_type_id":"4","last_reported":1732688063,"current_range_meters":0,"station_id":"","pricing_plan_id":"cebpf4jnsgd1na2vs0mg"},{"bike_id":"7d20078b-d52a-46d8-afa9-5d0ea7b2051c","system_id":"levelo_inurba_marseille","lat":43.30876,"lon":5.37181,"is_reserved":false,"is_disabled":false,"rental_uris":{"android":"levelo://app?vid=7d20078b-d52a-46d8-afa9-5d0ea7b2051c","ios":"levelo://app?vid=7d20078b-d52a-46d8-afa9-5d0ea7b2051c"},