{"last_updated":1702012038,"ttl":30,"version":"2.2","data":{"bikes":[{"bike_id":"62fb5385-2c5d-4c9d-b743-187bb4fbb192","system_id":"levelo_inurba_marseille","lat":43.313391,"lon":5.36706,"is_reserved":false,"is_disabled":false,"rental_uris":{"android":"levelo://app?vid=62fb5385-2c5d-4c9d-b743-187bb4fbb192","ios":"levelo://app?vid=62fb5385-2c5d-4c9d-b743-187bb4fbb192"},"vehicle_type_id":"4","last_reported":1702012039,"current_range_meters":28400,"station_id":"ce4bgr92rcd13ifvqc6g","pricing_plan_id":"free"},{"bike_id":"37d58810-4b33-4ef4-9e8f-10318d87dda8","system_id":"levelo_inurba_marseille","lat":43.312239,"lon":5.368562,"is_reserved":false,"is_disabled":false,"rental_uris":{"android":"levelo://app?vid=37d58810-4b33-4ef4-9e8f-10318d87dda8","ios":"levelo://app?vid=37d58810-4b33-4ef4-9e8f-10318d87dda8"},"vehicle_type_id":"4","last_reported":1702012039,"current_range_meters":28400,"station_id":"ce4bgl92rcd13ifvqbq0","pricing_plan_id":"free"},{"bike_id":"478c9a14-8ab3-413f-a56d-35a2869a4741","system_id":"levelo_inurba_marseille","lat":43.314811,"lon":5.373103,"is_reserved":false,"is_disabled":false,"rental_uris":{"android":"levelo://app?vid=478c9a14-8ab3-413f-a56d-35a2869a4741","ios":"levelo://app?vid=478c9a14-8ab3-413f-a56d-35a2869a4741"},"vehicle_type_id":"4","last_reported":1702012039,"current_range_meters":30400,"station_id":"ce4bgt12rcd13ifvqcd0","pricing_plan_id":"free"},{"bike_id":"1e4ef0de-bb3a-486e-922d-d78312fedaf1","system_id":"levelo_inurba_marseille","lat":43.315,"lon":5.37301,"is_reserved":false,"is_disabled":false,"rental_uris":{"android":"levelo://app?vid=1e4ef0de-bb3a-486e-922d-d78312fedaf1","ios":"levelo://app?vid=1e4ef0de-bb3a-486e-922d-d78312fedaf1"},"vehicle_type_id":"4","last_reported":1702012039,"current_range_meters":24400,"station_id":"ce4bgt12rcd13ifvqcd0","pricing_plan_id":"free"},{"bike_id":"fe11964b-3099-494e-a834-04f0eb901fd2","system_id":"levelo_inurba_marseille","lat":43.309039,"lon":5.371797,"is_reserved":false,"is_disabled":false,"rental_uris":{"android":"levelo://app?vid=fe11964b-3099-494e-a834-04f0eb901fd2","ios":"levelo://app?vid=fe11964b-3099-494e-a834-04f0eb901fd2"},"vehicle_type_id":"4","last_reported":1702012039,"current_range_meters":28400,"station_id":"ce4bguh2rcd13ifvqckg","pricing_plan_id":"free"},{"bike_id":"adf146c5-e4e1-4668-9a33-042940925130","system_id":"levelo_inurba_marseille","lat":43.31351,"lon":5.37909,"is_reserved":false,"is_disabled":false,"rental_uris":{"android":"levelo://app?vid=adf146c5-e4e1-4668-9a33-042940925130","ios":"levelo://app?vid=adf146c5-e4e1-4668-9a33-042940925130"},"vehicle_type_id":"4","last_reported":1702012039,"current_range_meters":0,"station_id":"","pricing_plan_id":"free"},{"bike_id":"e88c74d0-ed17-4eb0-89d3-d28ca5a3a033","system_id":"levelo_inurba_marseille","lat":43.315291,"lon":5.380269,"is_reserved":false,"is_disabled":false,"rental_uris":{"android":"levelo://app?vid=e88c74d0-ed17-4eb0-89d3-d28ca5a3a033","ios":"levelo://app?vid=e88c74d0-ed17-4eb0-89d3-d28ca5a3a033"},"vehicle_type_id":"4","last_reported":1702012039,"current_range_meters":28000,"station_id":"ce4bhsp2rcd13ifvqi50","pricing_plan_id":"free"},{"bike_id":"a1869cbe-fb8f-4e4f-8b10-ed09a03ab430","system_id":"levelo_inurba_marseille","lat":43.301939,"lon":5.366286,"is_reserved":false,"is_disabled":false,"rental_uris":{"android":"levelo://app?vid=a1869cbe-fb8f-4e4f-8b10-ed09a03ab430","ios":"levelo://app?vid=a1869cbe-fb8f-4e4f-8b10-ed09a03ab430"},"vehicle_type_id":"4","last_reported":1702012039,"current_range_meters":30000,"station_id":"ce4bgrh2rcd13ifvqc8g","pricing_plan_id":"free"},{"bike_id":"1ea60f58-75f7-4484-b705-1156df4b02ad","system_id":"levelo_inurba_marseille","lat":43.30288,"lon":5.37344,"is_reserved":false,"is_disabled":false,"rental_uris":{"android":"levelo://app?vid=1ea60f58-75f7-4484-b705-1156df4b02ad","ios":"levelo://app?vid=1ea60f58-75f7-4484-b705-1156df4b02ad"},"vehicle_type_id":"4","last_reported":1702012039,"current_range_meters":2400,"station_id":"","pricing_plan_id":"free"},{"bike_id":"d540ae53-80f2-4122-a9c8-23cab7376e58","system_id":"levelo_inurba_marseille","lat":43.304606,"lon":5.379026,"is_reserved":false,"is_disabled":false,"rental_uris":{"android":"levelo://app?vid=d540ae53-80f2-4122-a9c8-23cab7376e58","ios":"levelo://app?vid=d540ae53-80f2-4122-a9c8-23cab7376e58"},"vehicle_type_id":"4","last_reported":1702012039,"current_range_meters":14400,"station_id":"ce4bgup2rcd13ifvqcn0","pricing_plan_id":"free"},{"bike_id":"1ec638c7-bf27-4e92-ad51-5fc75740452c","system_id":"levelo_inurba_marseille","lat":43.304606,"lon":5.379026,"is_reserved":false,"is_disabled":false,"rental_uris":{"android":"levelo://app?vid=1ec638c7-bf27-4e92-ad51-5fc75740452c","ios":"levelo://app?vid=1ec638c7-bf27-4e92-ad51-5fc75740452c"},"vehicle_type_id":"4","last_reported":1702012039,"current_range_meters":9200,"station_id":"ce4bgup2rcd13ifvqcn0","pricing_plan_id":"free"},{"bike_id":"b69d1ca4-d343-44de-b6fa-59ceb787daae","system_id":"levelo_inurba_marseille","lat":43.304606,"lon":5.379026,"is_reserved":false,"is_disabled":false,"rental_uris":{"android":"levelo://app?vid=b69d1ca4-d343-44de-b6fa-59ceb787daae","ios":"levelo://app?vid=b69d1ca4-d343-44de-b6fa-59ceb787daae"},"vehicle_type_id":"4","last_reported":1702012039,"current_range_meters":22000,"station_id":"ce4bgup2rcd13ifvqcn0","pricing_plan_id":"free"},{"bike_id":"6555d424-cf98-452e-80c7-7b40ac7521bf","system_id":"levelo_inurba_marseille","lat":43.324771,"lon":5.36557,"is_reserved":false,"is_disabled":false,"rental_uris":{"android":"levelo://app?vid=6555d424-cf98-452e-80c7-7b40ac7521bf","ios":"levelo://app?vid=6555d424-cf98-452e-80c7-7b40ac7521bf"},"vehicle_type_id":"4","last_reported":1702012039,"current_range_meters":4800,"station_id":"ce4bhs12rcd13ifvqhvg","pricing_plan_id":"free"},{"bike_id":"a1ecd45f-7a9d-40fd-a68d-c8c8c615ae86","system_id":"levelo_inurba_marseille","lat":43.30143,"lon":5.37413,"is_reserved":false,"is_disabled":false,"rental_uris":{"android":"levelo://app?vid=a1ecd45f-7a9d-40fd-a68d-c8c8c615ae86","ios":"levelo://app?vid=a1ecd45f-7a9d-40fd-a68d-c8c8c615ae86"},"vehicle_type_id":"4","last_reported":1702012039,"current_range_meters":30400,"station_id":"ce4bgs92rcd13ifvqcc0","pricing_plan_id":"free"},{"bike_id":"8e6bcc22-26a3-4f21-b99e-ec3014f3e345","system_id":"levelo_inurba_marseille","lat":43.319933,"lon":5.381432,"is_reserved":false,"is_disabled":false,"rental_uris":{"android":"levelo://app?vid=8e6bcc22-26a3-4f21-b99e-ec3014f3e345","ios":"levelo://app?vid=8e6bcc22-26a3-4f21-b99e-ec3014f3e345"},"vehicle_type_id":"4","last_reported":1702012039,"current_range_meters":15200,"station_id":"ce4bhr12rcd13ifvqhpg","pricing_plan_id":"free"},{"bike_id":"7e9b28ca-b290-4623-a504-88527bf521f0","system_id":"levelo_inurba_marseille","lat":43.320014,"lon":5.38153,"is_reserved":false,"is_disabled":false,"rental_uris":{"android":"levelo://app?vid=7e9b28ca-b290-4623-a504-88527bf521f0","ios":"levelo://app?vid=7e9b28ca-b290-4623-a504-88527bf521f0"},"vehicle_type_id":"4","last_reported":1702012039,"current_range_meters":24000,"station_id":"ce4bhr12rcd13ifvqhpg","pricing_plan_id":"free"},{"bike_id":"cb473838-747e-47ca-b07a-3dc20b15e156","system_id":"levelo_inurba_marseille","lat":43.320041,"lon":5.381528,"is_reserved":false,"is_disabled":false,"rental_uris":{"android":"levelo://app?vid=cb473838-747e-47ca-b07a-3dc20b15e156","ios":"levelo://app?vid=cb473838-747e-47ca-b07a-3dc20b15e156"},"vehicle_type_id":"4","last_reported":1702012039,"current_range_meters":22800,"station_id":"ce4bhr12rcd13ifvqhpg","pricing_plan_id":"free"},{"bike_id":"9ee0ef7a-8d9c-4d78-8ae5-64e12b708d26","system_id":"levelo_inurba_marseille","lat":43.319997,"lon":5.381594,"is_reserved":false,"is_disabled":false,"rental_uris":{"android":"levelo://app?vid=9ee0ef7a-8d9c-4d78-8ae5-64e12b708d26","ios":"levelo://app?vid=9ee0ef7a-8d9c-4d78-8ae5-64e12b708d26"},"vehicle_type_id":"4","last_reported":1702012039,"current_range_meters":0,"station_id":"ce4bhr12rcd13ifvqhpg","pricing_plan_id":"free"},{"bike_id":"a88cf5d7-0e4d-4efb-83ba-895743ae7648","system_id":"levelo_inurba_marseille","lat":43.32005,"lon":5.3816,"is_reserved":false,"is_disabled":false,"rental_uris":{"android":"levelo://app?vid=a88cf5d7-0e4d-4efb-83ba-895743ae7648","ios":"levelo://app?vid=a88cf5d7-0e4d-4efb-83ba-895743ae7648"},"vehicle_type_id":"4","last_reported":1702012039,"current_range_meters":16800,"station_id":"ce4bhr12rcd13ifvqhpg","pricing_plan_id":"free"},{"bike_id":"a49b99ee-38eb-49b5-978d-00cf198fff08","system_id":"levelo_inurba_marseille","lat":43.299676,"lon":5.366344,"is_reserved":false,"is_disabled":false,"rental_uris":{"android":"levelo://app?vid=a49b99ee-38eb-49b5-978d-00cf198fff08","ios":"levelo://app?vid=a49b99ee-38eb-49b5-978d-00cf198fff08"},"vehicle_type_id":"4","last_reported":1702012039,"current_range_meters":21200,"station_id":"","pricing_plan_id":"free"},{"bike_id":"5cfab21f-63a9-4679-ae53-c5a40dc1cb84","system_id":"levelo_inurba_marseille","lat":43.31365,"lon":5.384924,"is_reserved":false,"is_disabled":false,"rental_uris":{"android":"levelo://app?vid=5cfab21f-63a9-4679-ae53-c5a40dc1cb84","ios":"levelo://app?vid=5cfab21f-63a9-4679-ae53-c5a40dc1cb84"},"vehicle_type_id":"4","last_reported":1702012039,"current_range_meters":800,"station_id":"ce4bgt92rcd13ifvqcf0","pricing_plan_id":"free"},{"bike_id":"de8310af-3d15-4b4f-a93a-4b3f1436684e","system_id":"levelo_inurba_marseille","lat":43.313571,"lon":5.384829,"is_reserved":false,"is_disabled":false,"rental_uris":{"android":"levelo://app?vid=de8310af-3d15-4b4f-a93a-4b3f1436684e","ios":"levelo://app?vid=de8310af-3d15-4b4f-a93a-4b3f1436684e"},"vehicle_type_id":"4","last_reported":1702012039,"current_range_meters":31200,"station_id":"ce4bgt92rcd13ifvqcf0","pricing_plan_id":"free"},{"bike_id":"9924e259-4de7-46cb-b51a-84f106225e81","system_id":"levelo_inurba_marseille","lat":43.313571,"lon":5.384829,"is_reserved":false,"is_disabled":false,"rental_uris":{"android":"levelo://app?vid=9924e259-4de7-46cb-b51a-84f106225e81","ios":"levelo://app?vid=9924e259-4de7-46cb-b51a-84f106225e81"},"vehicle_type_id":"4","last_reported":1702012039,"current_range_meters":20800,"station_id":"ce4bgt92rcd13ifvqcf0","pricing_plan_id":"free"},{"bike_id":"df0edbe9-7049-4d85-aeef-bab90ff74ad2","system_id":"levelo_inurba_marseille","lat":43.299724,"lon":5.371829,"is_reserved":false,"is_disabled":false,"rental_uris":{"android":"levelo://app?vid=df0edbe9-7049-4d85-aeef-bab90ff74ad2","ios":"levelo://app?vid=df0edbe9-7049-4d85-aeef-bab90ff74ad2"},"vehicle_type_id":"4","last_reported":1702012039,"current_range_meters":27600,"station_id":"ce4bgr92rcd13ifvqc7g","pricing_plan_id":"free"},{"bike_id":"594eb0e1-9cfa-4d74-9777-2a89a9552093","system_id":"levelo_inurba_marseille","lat":43.311722,"lon":5.387247,"is_reserved":false,"is_disabled":false,"rental_uris":{"android":"levelo://app?vid=594eb0e1-9cfa-4d74-9777-2a89a9552093","ios":"levelo://app?vid=594eb0e1-9cfa-4d74-9777-2a89a9552093"},"vehicle_type_id":"4","last_reported":1702012039,"current_range_meters":28400,"station_id":"ce4bgv12rcd13ifvqcp0","pricing_plan_id":"free"},{"bike_id":"14972b17-ba17-4143-90bc-6668837d3d62","system_id":"levelo_inurba_marseille","lat":43.299243,"lon":5.37481,"is_reserved":false,"is_disabled":false,"rental_uris":{"android":"levelo://app?vid=14972b17-ba17-4143-90bc-6668837d3d62","ios":"levelo://app?vid=14972b17-ba17-4143-90bc-6668837d3d62"},"vehicle_type_id":"4","last_reported":1702012039,"current_range_meters":27600,"station_id":"ce4bgjh2rcd13ifvqbg0","pricing_plan_id":"free"},{"bike_id":"0d54d094-e0f1-40b0-976d-4597098b5ddc","system_id":"levelo_inurba_marseille","lat":43.322872,"lon":5.382756,"is_reserved":false,"is_disabled":false,"rental_uris":{"android":"levelo://app?vid=0d54d094-e0f1-40b0-976d-4597098b5ddc","ios":"levelo://app?vid=0d54d094-e0f1-40b0-976d-4597098b5ddc"},"vehicle_type_id":"4","last_reported":1702012039,"current_range_meters":12000,"station_id":"ce4bhr12rcd13ifvqhqg","pricing_plan_id":"free"},{"bike_id":"3dcd4a73-468d-493a-bf11-93ceddd109f8","system_id":"levelo_inurba_marseille","lat":43.322872,"lon":5.382756,"is_reserved":false,"is_disabled":false,"rental_uris":{"android":"levelo://app?vid=3dcd4a73-468d-493a-bf11-93ceddd109f8","ios":"levelo://app?vid=3dcd4a73-468d-493a-bf11-93ceddd109f8"},"vehicle_type_id":"4","last_reported":1702012039,"current_range_meters":31200,"station_id":"ce4bhr12rcd13ifvqhqg","pricing_plan_id":"free"},{"bike_id":"b3b65266-e74a-4945-8b84-359967e3a74b","system_id":"levelo_inurba_marseille","lat":43.328371,"lon":5.366909,"is_reserved":false,"is_disabled":false,"rental_uris":{"android":"levelo://app?vid=b3b65266-e74a-4945-8b84-359967e3a74b","ios":"levelo://app?vid=b3b65266-e74a-4945-8b84-359967e3a74b"},"vehicle_type_id":"4","last_reported":1702012039,"current_range_meters":12000,"station_id":"ce4bhs92rcd13ifvqi0g","pricing_plan_id":"free"},{"bike_id":"92dc65d6-6823-4de3-93d4-056f738f090c","system_id":"levelo_inurba_marseille","lat":43.316538,"lon":5.38954,"is_reserved":false,"is_disabled":false,"rental_uris":{"android":"levelo://app?vid=92dc65d6-6823-4de3-93d4-056f738f090c","ios":"levelo://app?vid=92dc65d6-6823-4de3-93d4-056f738f090c"},"vehicle_type_id":"4","last_reported":1702012039,"current_range_meters":2800,"station_id":"","pricing_plan_id":"free"},{"bike_id":"d23dcc0a-abfe-4795-b2df-643eabe8964a","system_id":"levelo_inurba_marseille","lat":43.33036,"lon":5.370701,"is_reserved":false,"is_disabled":false,"rental_uris":{"android":"levelo://app?vid=d23dcc0a-abfe-4795-b2df-643eabe8964a","ios":"levelo://app?vid=d23dcc0a-abfe-4795-b2df-643eabe8964a"},"vehicle_type_id":"4","last_reported":1702012039,"current_range_meters":0,"station_id":"","pricing_plan_id":"free"},{"bike_id":"dfc79038-2836-4416-a810-665e97f50eee","system_id":"levelo_inurba_marseille","lat":43.299724,"lon":5.384848,"is_reserved":false,"is_disabled":false,"rental_uris":{"android":"levelo://app?vid=dfc79038-2836-4416-a810-665e97f50eee","ios":"levelo://app?vid=dfc79038-2836-4416-a810-665e97f50eee"},"vehicle_type_id":"4","last_reported":1702012039,"current_range_meters":25200,"station_id":"ce4bgj92rcd13ifvqbd0","pricing_plan_id":"free"},{"bike_id":"7579423d-f3b8-4e7f-be59-2ba9da91b549","system_id":"levelo_inurba_marseille","lat":43.314223,"lon":5.393894,"is_reserved":false,"is_disabled":false,"rental_uris":{"android":"levelo://app?vid=7579423d-f3b8-4e7f-be59-2ba9da91b549","ios":"levelo://app?vid=7579423d-f3b8-4e7f-be59-2ba9da91b549"},"vehicle_type_id":"4","last_reported":1702012039,"current_range_meters":6400,"station_id":"","pricing_plan_id":"free"},{"bike_id":"2c70486b-5265-4a93-b251-eea63c7ec650","system_id":"levelo_inurba_marseille","lat":43.292311,"lon":5.360731,"is_reserved":false,"is_disabled":false,"rental_uris":{"android":"levelo://app?vid=2c70486b-5265-4a93-b251-eea63c7ec650","ios":"levelo://app?vid=2c70486b-5265-4a93-b251-eea63c7ec650"},"vehicle_type_id":"4","last_reported":1702012039,"current_range_meters":8400,"station_id":"ce4bhbh2rcd13ifvqeqg","pricing_plan_id":"free"},{"bike_id":"fe1ed339-f8ef-4451-8028-a0ba11ddbe93","system_id":"levelo_inurba_marseille","lat":43.292311,"lon":5.360731,"is_reserved":false,"is_disabled":false,"rental_uris":{"android":"levelo://app?vid=fe1ed339-f8ef-4451-8028-a0ba11ddbe93","ios":"levelo://app?vid=fe1ed339-f8ef-4451-8028-a0ba11ddbe93"},"vehicle_type_id":"4","last_reported":1702012039,"current_range_meters":16400,"station_id":"ce4bhbh2rcd13ifvqeqg","pricing_plan_id":"free"},{"bike_id":"52e3a4e2-1c4a-4d50-98f7-297520a4efb4","system_id":"levelo_inurba_marseille","lat":43.292663,"lon":5.376394,"is_reserved":false,"is_disabled":false,"rental_uris":{"android":"levelo://app?vid=52e3a4e2-1c4a-4d50-98f7-297520a4efb4","ios":"levelo://app?vid=52e3a4e2-1c4a-4d50-98f7-297520a4efb4"},"vehicle_type_id":"4","last_reported":1702012039,"current_range_meters":30000,"station_id":"ce4bgi12rcd13ifvqb80","pricing_plan_id":"free"},{"bike_id":"875cb09b-817d-4893-a2a3-5aab72b4793e","system_id":"levelo_inurba_marseille","lat":43.309047,"lon":5.396551,"is_reserved":false,"is_disabled":false,"rental_uris":{"android":"levelo://app?vid=875cb09b-817d-4893-a2a3-5aab72b4793e","ios":"levelo://app?vid=875cb09b-817d-4893-a2a3-5aab72b4793e"},"vehicle_type_id":"4","last_reported":1702012039,"current_range_meters":26000,"station_id":"ce4bh012rcd13ifvqcv0","pricing_plan_id":"free"},{"bike_id":"b9cf7fab-2e0e-4740-ae12-36f6699ead16","system_id":"levelo_inurba_marseille","lat":43.309038,"lon":5.396546,"is_reserved":false,"is_disabled":false,"rental_uris":{"android":"levelo://app?vid=b9cf7fab-2e0e-4740-ae12-36f6699ead16","ios":"levelo://app?vid=b9cf7fab-2e0e-4740-ae12-36f6699ead16"},"vehicle_type_id":"4","last_reported":1702012039,"current_range_meters":26400,"station_id":"ce4bh012rcd13ifvqcv0","pricing_plan_id":"free"},{"bike_id":"0a13c4d3-a165-4db7-8cd0-be06fa2fa966","system_id":"levelo_inurba_marseille","lat":43.309038,"lon":5.396546,"is_reserved":false,"is_disabled":false,"rental_uris":{"android":"levelo://app?vid=0a13c4d3-a165-4db7-8cd0-be06fa2fa966","ios":"levelo://app?vid=0a13c4d3-a165-4db7-8cd0-be06fa2fa966"},"vehicle_type_id":"4","last_reported":1702012039,"current_range_meters":24000,"station_id":"ce4bh012rcd13ifvqcv0","pricing_plan_id":"free"},{"bike_id":"df5d5068-3213-475c-896a-cc5dcaa7efe9","system_id":"levelo_inurba_marseille","lat":43.309038,"lon":5.396546,"is_reserved":false,"is_disabled":false,"rental_uris":{"android":"levelo://app?vid=df5d5068-3213-475c-896a-cc5dcaa7efe9","ios":"levelo://app?vid=df5d5068-3213-475c-896a-cc5dcaa7efe9"},"vehicle_type_id":"4","last_reported":1702012039,"current_range_meters":31200,"station_id":"ce4bh012rcd13ifvqcv0","pricing_plan_id":"free"},{"bike_id":"24dc85cc-bed4-41e8-9a73-644090118e97","system_id":"levelo_inurba_marseille","lat":43.313291,"lon":5.396838,"is_reserved":false,"is_disabled":false,"rental_uris":{"android":"levelo://app?vid=24dc85cc-bed4-41e8-9a73-644090118e97","ios":"levelo://app?vid=24dc85cc-bed4-41e8-9a73-644090118e97"},"vehicle_type_id":"4","last_reported":1702012039,"current_range_meters":9200,"station_id":"ce4bgvp2rcd13ifvqcu0","pricing_plan_id":"free"},{"bike_id":"3814f3b5-cafa-4033-bb67-ed20152de6b0","system_id":"levelo_inurba_marseille","lat":43.313255,"lon":5.396922,"is_reserved":false,"is_disabled":false,"rental_uris":{"android":"levelo://app?vid=3814f3b5-cafa-4033-bb67-ed20152de6b0","ios":"levelo://app?vid=3814f3b5-cafa-4033-bb67-ed20152de6b0"},"vehicle_type_id":"4","last_reported":1702012039,"current_range_meters":0,"station_id":"ce4bgvp2rcd13ifvqcu0","pricing_plan_id":"free"},{"bike_id":"9cb613b9-023f-4d30-aac3-a3578aaef253","system_id":"levelo_inurba_marseille","lat":43.309038,"lon":5.396546,"is_reserved":false,"is_disabled":false,"rental_uris":{"android":"levelo://app?vid=9cb613b9-023f-4d30-aac3-a3578aaef253","ios":"levelo://app?vid=9cb613b9-023f-4d30-aac3-a3578aaef253"},"vehicle_type_id":"4","last_reported":1702012039,"current_range_meters":31200,"station_id":"ce4bh012rcd13ifvqcv0","pricing_plan_id":"free"},{"bike_id":"0cd13cf8-3b88-4d94-9d61-239048ed2129","system_id":"levelo_inurba_marseille","lat":43.313261,"lon":5.396948,"is_reserved":false,"is_disabled":false,"rental_uris":{"android":"levelo://app?vid=0cd13cf8-3b88-4d94-9d61-239048ed2129","ios":"levelo://app?vid=0cd13cf8-3b88-4d94-9d61-239048ed2129"},"vehicle_type_id":"4","last_reported":1702012039,"current_range_meters":20800,"station_id":"ce4bgvp2rcd13ifvqcu0","pricing_plan_id":"free"},{"bike_id":"126b86dc-3a1c-4cd0-89c9-3b20a8aec7bf","system_id":"levelo_inurba_marseille","lat":43.290624,"lon":5.359245,"is_reserved":false,"is_disabled":false,"rental_uris":{"android":"levelo://app?vid=126b86dc-3a1c-4cd0-89c9-3b20a8aec7bf","ios":"levelo://app?vid=126b86dc-3a1c-4cd0-89c9-3b20a8aec7bf"},"vehicle_type_id":"4","last_reported":1702012039,"current_range_meters":22400,"station_id":"ce4bha92rcd13ifvqeg0","pricing_plan_id":"free"},{"bike_id":"b3412777-7088-4d0a-87b2-d83a274275be","system_id":"levelo_inurba_marseille","lat":43.290624,"lon":5.359245,"is_reserved":false,"is_disabled":false,"rental_uris":{"android":"levelo://app?vid=b3412777-7088-4d0a-87b2-d83a274275be","ios":"levelo://app?vid=b3412777-7088-4d0a-87b2-d83a274275be"},"vehicle_type_id":"4","last_reported":1702012039,"current_range_meters":32000,"station_id":"ce4bha92rcd13ifvqeg0","pricing_plan_id":"free"},{"bike_id":"b8cb4ef6-96e9-4b73-93ea-779edfcc6031","system_id":"levelo_inurba_marseille","lat":43.290624,"lon":5.359245,"is_reserved":false,"is_disabled":false,"rental_uris":{"android":"levelo://app?vid=b8cb4ef6-96e9-4b73-93ea-779edfcc6031","ios":"levelo://app?vid=b8cb4ef6-96e9-4b73-93ea-779edfcc6031"},"vehicle_type_id":"4","last_reported":1702012039,"current_range_meters":30000,"station_id":"ce4bha92rcd13ifvqeg0","pricing_plan_id":"free"},{"bike_id":"c8d637aa-dc50-4f67-a4a9-7d9cf78bed33","system_id":"levelo_inurba_marseille","lat":43.290631,"lon":5.359244,"is_reserved":false,"is_disabled":false,"rental_uris":{"android":"levelo://app?vid=c8d637aa-dc50-4f67-a4a9-7d9cf78bed33","ios":"levelo://app?vid=c8d637aa-dc50-4f67-a4a9-7d9cf78bed33"},"vehicle_type_id":"4","last_reported":1702012039,"current_range_meters":24400,"station_id":"ce4bha92rcd13ifvqeg0","pricing_plan_id":"free"},{"bike_id":"35167050-f909-4250-a110-df5bedfb0a40","system_id":"levelo_inurba_marseille","lat":43.29425,"lon":5.38646,"is_reserved":false,"is_disabled":false,"rental_uris":{"android":"levelo://app?vid=35167050-f909-4250-a110-df5bedfb0a40","ios":"levelo://app?vid=35167050-f909-4250-a110-df5bedfb0a40"},"vehicle_type_id":"4","last_reported":1702012039,"current_range_meters":3200,"station_id":"","pricing_plan_id":"free"},{"bike_id":"6b143fd5-fd51-43e4-b147-b19a835874c2","system_id":"levelo_inurba_marseille","lat":43.289388,"lon":5.363978,"is_reserved":false,"is_disabled":false,"rental_uris":{"android":"levelo://app?vid=6b143fd5-fd51-43e4-b147-b19a835874c2","ios":"levelo://app?vid=6b143fd5-fd51-43e4-b147-b19a835874c2"},"vehicle_type_id":"4","last_reported":1702012039,"current_range_meters":28000,"station_id":"ce4bhc92rcd13ifvqetg","pricing_plan_id":"free"},{"bike_id":"bb4af82b-29ef-44ca-baac-9099077e880f","system_id":"levelo_inurba_marseille","lat":43.290161,"lon":5.375651,"is_reserved":false,"is_disabled":false,"rental_uris":{"android":"levelo://app?vid=bb4af82b-29ef-44ca-baac-9099077e880f","ios":"levelo://app?vid=bb4af82b-29ef-44ca-baac-9099077e880f"},"vehicle_type_id":"4","last_reported":1702012039,"current_range_meters":18400,"station_id":"","pricing_plan_id":"free"},{"bike_id":"a02a1b20-1fb1-4951-988a-77389649024d","system_id":"levelo_inurba_marseille","lat":43.289259,"lon":5.366364,"is_reserved":false,"is_disabled":false,"rental_uris":{"android":"levelo://app?vid=a02a1b20-1fb1-4951-988a-77389649024d","ios":"levelo://app?vid=a02a1b20-1fb1-4951-988a-77389649024d"},"vehicle_type_id":"4","last_reported":1702012039,"current_range_meters":17200,"station_id":"","pricing_plan_id":"free"},{"bike_id":"53ed23d3-cf70-4f75-8691-ca7ce721cd11","system_id":"levelo_inurba_marseille","lat":43.292644,"lon":5.384257,"is_reserved":false,"is_disabled":false,"rental_uris":{"android":"levelo://app?vid=53ed23d3-cf70-4f75-8691-ca7ce721cd11","ios":"levelo://app?vid=53ed23d3-cf70-4f75-8691-ca7ce721cd11"},"vehicle_type_id":"4","last_reported":1702012039,"current_range_meters":29200,"station_id":"ce4bh692rcd13ifvqea0","pricing_plan_id":"free"},{"bike_id":"f3c277cf-b5d0-4b76-b7af-fecb33cc9670","system_id":"levelo_inurba_marseille","lat":43.297911,"lon":5.393401,"is_reserved":false,"is_disabled":false,"rental_uris":{"android":"levelo://app?vid=f3c277cf-b5d0-4b76-b7af-fecb33cc9670","ios":"levelo://app?vid=f3c277cf-b5d0-4b76-b7af-fecb33cc9670"},"vehicle_type_id":"4","last_reported":1702012039,"current_range_meters":12400,"station_id":"chh1huq6cuj3fo74tm60","pricing_plan_id":"free"},{"bike_id":"108696cb-6bfa-4400-aa7a-ab44a5402b00","system_id":"levelo_inurba_marseille","lat":43.288558,"lon":5.358635,"is_reserved":false,"is_disabled":false,"rental_uris":{"android":"levelo://app?vid=108696cb-6bfa-4400-aa7a-ab44a5402b00","ios":"levelo://app?vid=108696cb-6bfa-4400-aa7a-ab44a5402b00"},"vehicle_type_id":"4","last_reported":1702012039,"current_range_meters":25600,"station_id":"","pricing_plan_id":"free"},{"bike_id":"7df0df5e-8835-4286-90a9-aedecdcb32d4","system_id":"levelo_inurba_marseille","lat":43.288533,"lon":5.35868,"is_reserved":false,"is_disabled":false,"rental_uris":{"android":"levelo://app?vid=7df0df5e-8835-4286-90a9-aedecdcb32d4","ios":"levelo://app?vid=7df0df5e-8835-4286-90a9-aedecdcb32d4"},"vehicle_type_id":"4","last_reported":1702012039,"current_range_meters":19200,"station_id":"ce4bhb12rcd13ifvqem0","pricing_plan_id":"free"},{"bike_id":"dd43b581-5276-410a-a115-967d498cae83","system_id":"levelo_inurba_marseille","lat":43.312609,"lon":5.401662,"is_reserved":false,"is_disabled":false,"rental_uris":{"android":"levelo://app?vid=dd43b581-5276-410a-a115-967d498cae83","ios":"levelo://app?vid=dd43b581-5276-410a-a115-967d498cae83"},"vehicle_type_id":"4","last_reported":1702012039,"current_range_meters":1200,"station_id":"ce4bh092rcd13ifvqd30","pricing_plan_id":"free"},{"bike_id":"d8d0d7c2-3aad-4835-92ed-76b80b13a7ab","system_id":"levelo_inurba_marseille","lat":43.312609,"lon":5.401662,"is_reserved":false,"is_disabled":false,"rental_uris":{"android":"levelo://app?vid=d8d0d7c2-3aad-4835-92ed-76b80b13a7ab","ios":"levelo://app?vid=d8d0d7c2-3aad-4835-92ed-76b80b13a7ab"},"vehicle_type_id":"4","last_reported":1702012039,"current_range_meters":7200,"station_id":"ce4bh092rcd13ifvqd30","pricing_plan_id":"free"},{"bike_id":"0194ed0c-d545-462b-ba18-9d6afd9f7c63","system_id":"levelo_inurba_marseille","lat":43.309371,"lon":5.401449,"is_reserved":false,"is_disabled":false,"rental_uris":{"android":"levelo://app?vid=0194ed0c-d545-462b-ba18-9d6afd9f7c63","ios":"levelo://app?vid=0194ed0c-d545-462b-ba18-9d6afd9f7c63"},"vehicle_type_id":"4","last_reported":1702012039,"current_range_meters":22400,"station_id":"ce4bgvp2rcd13ifvqct0","pricing_plan_id":"free"},{"bike_id":"aa7d76a3-ffa1-4937-86e0-0169788c121e","system_id":"levelo_inurba_marseille","lat":43.31271,"lon":5.401779,"is_reserved":false,"is_disabled":false,"rental_uris":{"android":"levelo://app?vid=aa7d76a3-ffa1-4937-86e0-0169788c121e","ios":"levelo://app?vid=aa7d76a3-ffa1-4937-86e0-0169788c121e"},"vehicle_type_id":"4","last_reported":1702012039,"current_range_meters":0,"station_id":"ce4bh092rcd13ifvqd30","pricing_plan_id":"free"},{"bike_id":"1caaef44-cec2-4b08-a2a1-dc78519a0ba0","system_id":"levelo_inurba_marseille","lat":43.309333,"lon":5.40151,"is_reserved":false,"is_disabled":false,"rental_uris":{"android":"levelo://app?vid=1caaef44-cec2-4b08-a2a1-dc78519a0ba0","ios":"levelo://app?vid=1caaef44-cec2-4b08-a2a1-dc78519a0ba0"},"vehicle_type_id":"4","last_reported":1702012039,"current_range_meters":1200,"station_id":"ce4bgvp2rcd13ifvqct0","pricing_plan_id":"free"},{"bike_id":"676243ef-5018-43d8-849f-fa0ee4ad495d","system_id":"levelo_inurba_marseille","lat":43.3093,"lon":5.40155,"is_reserved":false,"is_disabled":false,"rental_uris":{"android":"levelo://app?vid=676243ef-5018-43d8-849f-fa0ee4ad495d","ios":"levelo://app?vid=676243ef-5018-43d8-849f-fa0ee4ad495d"},"vehicle_type_id":"4","last_reported":1702012039,"current_range_meters":20000,"station_id":"ce4bgvp2rcd13ifvqct0","pricing_plan_id":"free"},{"bike_id":"fc95b9e8-4706-4d61-9b73-00ee748d1ccc","system_id":"levelo_inurba_marseille","lat":43.28731,"lon":5.360826,"is_reserved":false,"is_disabled":false,"rental_uris":{"android":"levelo://app?vid=fc95b9e8-4706-4d61-9b73-00ee748d1ccc","ios":"levelo://app?vid=fc95b9e8-4706-4d61-9b73-00ee748d1ccc"},"vehicle_type_id":"4","last_reported":1702012039,"current_range_meters":1600,"station_id":"cki0cbj6b192h4jlfktg","pricing_plan_id":"free"},{"bike_id":"41b37be4-557a-46fc-b825-91f9e7e482f1","system_id":"levelo_inurba_marseille","lat":43.287301,"lon":5.360812,"is_reserved":false,"is_disabled":false,"rental_uris":{"android":"levelo://app?vid=41b37be4-557a-46fc-b825-91f9e7e482f1","ios":"levelo://app?vid=41b37be4-557a-46fc-b825-91f9e7e482f1"},"vehicle_type_id":"4","last_reported":1702012039,"current_range_meters":23200,"station_id":"cki0cbj6b192h4jlfktg","pricing_plan_id":"free"},{"bike_id":"3940c5bb-9072-4e68-81c3-8e2a71ebbbbb","system_id":"levelo_inurba_marseille","lat":43.287256,"lon":5.360958,"is_reserved":false,"is_disabled":false,"rental_uris":{"android":"levelo://app?vid=3940c5bb-9072-4e68-81c3-8e2a71ebbbbb","ios":"levelo://app?vid=3940c5bb-9072-4e68-81c3-8e2a71ebbbbb"},"vehicle_type_id":"4","last_reported":1702012039,"current_range_meters":17200,"station_id":"cki0cbj6b192h4jlfktg","pricing_plan_id":"free"},{"bike_id":"e49cc2a0-6bdb-4e02-8ff1-322541b900cc","system_id":"levelo_inurba_marseille","lat":43.286961,"lon":5.373785,"is_reserved":false,"is_disabled":false,"rental_uris":{"android":"levelo://app?vid=e49cc2a0-6bdb-4e02-8ff1-322541b900cc","ios":"levelo://app?vid=e49cc2a0-6bdb-4e02-8ff1-322541b900cc"},"vehicle_type_id":"4","last_reported":1702012039,"current_range_meters":26800,"station_id":"ce4bh3p2rcd13ifvqdq0","pricing_plan_id":"free"},{"bike_id":"8c3b6769-7b96-49d9-bf01-dd39198c1403","system_id":"levelo_inurba_marseille","lat":43.286961,"lon":5.373785,"is_reserved":false,"is_disabled":false,"rental_uris":{"android":"levelo://app?vid=8c3b6769-7b96-49d9-bf01-dd39198c1403","ios":"levelo://app?vid=8c3b6769-7b96-49d9-bf01-dd39198c1403"},"vehicle_type_id":"4","last_reported":1702012039,"current_range_meters":28800,"station_id":"ce4bh3p2rcd13ifvqdq0","pricing_plan_id":"free"},{"bike_id":"d2662349-4e21-4645-a25d-7d0f3673b0a6","system_id":"levelo_inurba_marseille","lat":43.286591,"lon":5.363346,"is_reserved":false,"is_disabled":false,"rental_uris":{"android":"levelo://app?vid=d2662349-4e21-4645-a25d-7d0f3673b0a6","ios":"levelo://app?vid=d2662349-4e21-4645-a25d-7d0f3673b0a6"},"vehicle_type_id":"4","last_reported":1702012039,"current_range_meters":27200,"station_id":"ce4bhah2rcd13ifvqej0","pricing_plan_id":"free"},{"bike_id":"5ea52aab-657a-4656-b3d1-de566efe819c","system_id":"levelo_inurba_marseille","lat":43.302759,"lon":5.400793,"is_reserved":false,"is_disabled":false,"rental_uris":{"android":"levelo://app?vid=5ea52aab-657a-4656-b3d1-de566efe819c","ios":"levelo://app?vid=5ea52aab-657a-4656-b3d1-de566efe819c"},"vehicle_type_id":"4","last_reported":1702012039,"current_range_meters":29200,"station_id":"ce4bgvh2rcd13ifvqcs0","pricing_plan_id":"free"},{"bike_id":"9771dfd8-017b-477e-9f38-39c8dec9c905","system_id":"levelo_inurba_marseille","lat":43.286039,"lon":5.370679,"is_reserved":false,"is_disabled":false,"rental_uris":{"android":"levelo://app?vid=9771dfd8-017b-477e-9f38-39c8dec9c905","ios":"levelo://app?vid=9771dfd8-017b-477e-9f38-39c8dec9c905"},"vehicle_type_id":"4","last_reported":1702012039,"current_range_meters":31200,"station_id":"ce4bht12rcd13ifvqi60","pricing_plan_id":"free"},{"bike_id":"b9368d4f-73ed-4565-b2ae-63aeb9262fc6","system_id":"levelo_inurba_marseille","lat":43.316974,"lon":5.404694,"is_reserved":false,"is_disabled":false,"rental_uris":{"android":"levelo://app?vid=b9368d4f-73ed-4565-b2ae-63aeb9262fc6","ios":"levelo://app?vid=b9368d4f-73ed-4565-b2ae-63aeb9262fc6"},"vehicle_type_id":"4","last_reported":1702012039,"current_range_meters":17200,"station_id":"","pricing_plan_id":"free"},{"bike_id":"6f3805da-607e-4644-a872-a570d4d7529e","system_id":"levelo_inurba_marseille","lat":43.284538,"lon":5.358657,"is_reserved":false,"is_disabled":false,"rental_uris":{"android":"levelo://app?vid=6f3805da-607e-4644-a872-a570d4d7529e","ios":"levelo://app?vid=6f3805da-607e-4644-a872-a570d4d7529e"},"vehicle_type_id":"4","last_reported":1702012039,"current_range_meters":29600,"station_id":"ce4bhah2rcd13ifvqei0","pricing_plan_id":"free"},{"bike_id":"2b715313-a8a9-4433-9018-d854945294a0","system_id":"levelo_inurba_marseille","lat":43.284538,"lon":5.358657,"is_reserved":false,"is_disabled":false,"rental_uris":{"android":"levelo://app?vid=2b715313-a8a9-4433-9018-d854945294a0","ios":"levelo://app?vid=2b715313-a8a9-4433-9018-d854945294a0"},"vehicle_type_id":"4","last_reported":1702012039,"current_range_meters":23600,"station_id":"ce4bhah2rcd13ifvqei0","pricing_plan_id":"free"},{"bike_id":"fb8129b0-fe0a-4869-8c36-05e027179d11","system_id":"levelo_inurba_marseille","lat":43.284534,"lon":5.358662,"is_reserved":false,"is_disabled":false,"rental_uris":{"android":"levelo://app?vid=fb8129b0-fe0a-4869-8c36-05e027179d11","ios":"levelo://app?vid=fb8129b0-fe0a-4869-8c36-05e027179d11"},"vehicle_type_id":"4","last_reported":1702012039,"current_range_meters":20000,"station_id":"ce4bhah2rcd13ifvqei0","pricing_plan_id":"free"},{"bike_id":"5ce1b9ad-31ec-4a12-9b28-023af262f1a8","system_id":"levelo_inurba_marseille","lat":43.284538,"lon":5.358657,"is_reserved":false,"is_disabled":false,"rental_uris":{"android":"levelo://app?vid=5ce1b9ad-31ec-4a12-9b28-023af262f1a8","ios":"levelo://app?vid=5ce1b9ad-31ec-4a12-9b28-023af262f1a8"},"vehicle_type_id":"4","last_reported":1702012039,"current_range_meters":25600,"station_id":"ce4bhah2rcd13ifvqei0","pricing_plan_id":"free"},{"bike_id":"557f27d4-4580-4278-b89b-6beff88eead5","system_id":"levelo_inurba_marseille","lat":43.284534,"lon":5.358662,"is_reserved":false,"is_disabled":false,"rental_uris":{"android":"levelo://app?vid=557f27d4-4580-4278-b89b-6beff88eead5","ios":"levelo://app?vid=557f27d4-4580-4278-b89b-6beff88eead5"},"vehicle_type_id":"4","last_reported":1702012039,"current_range_meters":1200,"station_id":"ce4bhah2rcd13ifvqei0","pricing_plan_id":"free"},{"bike_id":"843e9123-8b92-48d6-ac1d-949625709a6d","system_id":"levelo_inurba_marseille","lat":43.286203,"lon":5.351001,"is_reserved":false,"is_disabled":false,"rental_uris":{"android":"levelo://app?vid=843e9123-8b92-48d6-ac1d-949625709a6d","ios":"levelo://app?vid=843e9123-8b92-48d6-ac1d-949625709a6d"},"vehicle_type_id":"4","last_reported":1702012039,"current_range_meters":2000,"station_id":"ce4bhch2rcd13ifvqeug","pricing_plan_id":"free"},{"bike_id":"4eec593a-932d-4112-976c-6dab797add3f","system_id":"levelo_inurba_marseille","lat":43.286178,"lon":5.350991,"is_reserved":false,"is_disabled":false,"rental_uris":{"android":"levelo://app?vid=4eec593a-932d-4112-976c-6dab797add3f","ios":"levelo://app?vid=4eec593a-932d-4112-976c-6dab797add3f"},"vehicle_type_id":"4","last_reported":1702012039,"current_range_meters":6800,"station_id":"ce4bhch2rcd13ifvqeug","pricing_plan_id":"free"},{"bike_id":"2c25fcd3-2588-45c0-89c2-fb049d80b402","system_id":"levelo_inurba_marseille","lat":43.295713,"lon":5.399639,"is_reserved":false,"is_disabled":false,"rental_uris":{"android":"levelo://app?vid=2c25fcd3-2588-45c0-89c2-fb049d80b402","ios":"levelo://app?vid=2c25fcd3-2588-45c0-89c2-fb049d80b402"},"vehicle_type_id":"4","last_reported":1702012039,"current_range_meters":28400,"station_id":"ce4bh312rcd13ifvqdj0","pricing_plan_id":"free"},{"bike_id":"06070a5a-4b04-4262-80e6-ef3153c54cac","system_id":"levelo_inurba_marseille","lat":43.319179,"lon":5.407725,"is_reserved":false,"is_disabled":false,"rental_uris":{"android":"levelo://app?vid=06070a5a-4b04-4262-80e6-ef3153c54cac","ios":"levelo://app?vid=06070a5a-4b04-4262-80e6-ef3153c54cac"},"vehicle_type_id":"4","last_reported":1702012039,"current_range_meters":26800,"station_id":"ce4bhq12rcd13ifvqhig","pricing_plan_id":"free"},{"bike_id":"959b2726-ebaa-4267-a00e-ac4459e2bd5b","system_id":"levelo_inurba_marseille","lat":43.319179,"lon":5.407725,"is_reserved":false,"is_disabled":false,"rental_uris":{"android":"levelo://app?vid=959b2726-ebaa-4267-a00e-ac4459e2bd5b","ios":"levelo://app?vid=959b2726-ebaa-4267-a00e-ac4459e2bd5b"},"vehicle_type_id":"4","last_reported":1702012039,"current_range_meters":27200,"station_id":"ce4bhq12rcd13ifvqhig","pricing_plan_id":"free"},{"bike_id":"dec954dc-a8e4-41ac-9b58-8b708582f6c9","system_id":"levelo_inurba_marseille","lat":43.319179,"lon":5.407725,"is_reserved":false,"is_disabled":false,"rental_uris":{"android":"levelo://app?vid=dec954dc-a8e4-41ac-9b58-8b708582f6c9","ios":"levelo://app?vid=dec954dc-a8e4-41ac-9b58-8b708582f6c9"},"vehicle_type_id":"4","last_reported":1702012039,"current_range_meters":28800,"station_id":"ce4bhq12rcd13ifvqhig","pricing_plan_id":"free"},{"bike_id":"c46c94a4-8890-4aaa-9513-b350ff276b17","system_id":"levelo_inurba_marseille","lat":43.319179,"lon":5.407725,"is_reserved":false,"is_disabled":false,"rental_uris":{"android":"levelo://app?vid=c46c94a4-8890-4aaa-9513-b350ff276b17","ios":"levelo://app?vid=c46c94a4-8890-4aaa-9513-b350ff276b17"},"vehicle_type_id":"4","last_reported":1702012039,"current_range_meters":0,"station_id":"ce4bhq12rcd13ifvqhig","pricing_plan_id":"free"},{"bike_id":"35437a3b-546d-4804-a96b-f2464a7a3e3e","system_id":"levelo_inurba_marseille","lat":43.323464,"lon":5.406297,"is_reserved":false,"is_disabled":false,"rental_uris":{"android":"levelo://app?vid=35437a3b-546d-4804-a96b-f2464a7a3e3e","ios":"levelo://app?vid=35437a3b-546d-4804-a96b-f2464a7a3e3e"},"vehicle_type_id":"4","last_reported":1702012039,"current_range_meters":30400,"station_id":"ce4bhq92rcd13ifvqhjg","pricing_plan_id":"free"},{"bike_id":"6a3c4b4d-605d-42e5-8bff-fbe7793f19d5","system_id":"levelo_inurba_marseille","lat":43.323464,"lon":5.406297,"is_reserved":false,"is_disabled":false,"rental_uris":{"android":"levelo://app?vid=6a3c4b4d-605d-42e5-8bff-fbe7793f19d5","ios":"levelo://app?vid=6a3c4b4d-605d-42e5-8bff-fbe7793f19d5"},"vehicle_type_id":"4","last_reported":1702012039,"current_range_meters":30400,"station_id":"ce4bhq92rcd13ifvqhjg","pricing_plan_id":"free"},{"bike_id":"832b33b6-dd00-4c49-af70-6bee0216e7df","system_id":"levelo_inurba_marseille","lat":43.284793,"lon":5.384113,"is_reserved":false,"is_disabled":false,"rental_uris":{"android":"levelo://app?vid=832b33b6-dd00-4c49-af70-6bee0216e7df","ios":"levelo://app?vid=832b33b6-dd00-4c49-af70-6bee0216e7df"},"vehicle_type_id":"4","last_reported":1702012039,"current_range_meters":30000,"station_id":"ce4bh512rcd13ifvqe3g","pricing_plan_id":"free"},{"bike_id":"56ac9cc9-bb61-47d5-bb32-c23299a9fd93","system_id":"levelo_inurba_marseille","lat":43.322521,"lon":5.406871,"is_reserved":false,"is_disabled":false,"rental_uris":{"android":"levelo://app?vid=56ac9cc9-bb61-47d5-bb32-c23299a9fd93","ios":"levelo://app?vid=56ac9cc9-bb61-47d5-bb32-c23299a9fd93"},"vehicle_type_id":"4","last_reported":1702012039,"current_range_meters":25200,"station_id":"","pricing_plan_id":"free"},{"bike_id":"5a8d3062-8d06-48d5-bda2-61015b53b7e3","system_id":"levelo_inurba_marseille","lat":43.283494,"lon":5.380945,"is_reserved":false,"is_disabled":false,"rental_uris":{"android":"levelo://app?vid=5a8d3062-8d06-48d5-bda2-61015b53b7e3","ios":"levelo://app?vid=5a8d3062-8d06-48d5-bda2-61015b53b7e3"},"vehicle_type_id":"4","last_reported":1702012039,"current_range_meters":31200,"station_id":"ce4bh412rcd13ifvqdr0","pricing_plan_id":"free"},{"bike_id":"ac423c55-57d8-416c-bcb9-f17d21effabb","system_id":"levelo_inurba_marseille","lat":43.283494,"lon":5.380945,"is_reserved":false,"is_disabled":false,"rental_uris":{"android":"levelo://app?vid=ac423c55-57d8-416c-bcb9-f17d21effabb","ios":"levelo://app?vid=ac423c55-57d8-416c-bcb9-f17d21effabb"},"vehicle_type_id":"4","last_reported":1702012039,"current_range_meters":29200,"station_id":"ce4bh412rcd13ifvqdr0","pricing_plan_id":"free"},{"bike_id":"f4367223-a6b4-482a-8f45-158534ec2273","system_id":"levelo_inurba_marseille","lat":43.283498,"lon":5.380948,"is_reserved":false,"is_disabled":false,"rental_uris":{"android":"levelo://app?vid=f4367223-a6b4-482a-8f45-158534ec2273","ios":"levelo://app?vid=f4367223-a6b4-482a-8f45-158534ec2273"},"vehicle_type_id":"4","last_reported":1702012039,"current_range_meters":29200,"station_id":"ce4bh412rcd13ifvqdr0","pricing_plan_id":"free"},{"bike_id":"a86346de-a2ca-4997-98ef-f8bc49fa245a","system_id":"levelo_inurba_marseille","lat":43.283498,"lon":5.380948,"is_reserved":false,"is_disabled":false,"rental_uris":{"android":"levelo://app?vid=a86346de-a2ca-4997-98ef-f8bc49fa245a","ios":"levelo://app?vid=a86346de-a2ca-4997-98ef-f8bc49fa245a"},"vehicle_type_id":"4","last_reported":1702012039,"current_range_meters":22800,"station_id":"ce4bh412rcd13ifvqdr0","pricing_plan_id":"free"},{"bike_id":"b14202d5-353e-4d2d-9f1f-51e564c4f2c5","system_id":"levelo_inurba_marseille","lat":43.284219,"lon":5.3497,"is_reserved":false,"is_disabled":false,"rental_uris":{"android":"levelo://app?vid=b14202d5-353e-4d2d-9f1f-51e564c4f2c5","ios":"levelo://app?vid=b14202d5-353e-4d2d-9f1f-51e564c4f2c5"},"vehicle_type_id":"4","last_reported":1702012039,"current_range_meters":27200,"station_id":"ce4bhbh2rcd13ifvqepg","pricing_plan_id":"free"},{"bike_id":"7bcb7c48-2b8f-45f5-84c9-6c48103d9b03","system_id":"levelo_inurba_marseille","lat":43.289363,"lon":5.396322,"is_reserved":false,"is_disabled":false,"rental_uris":{"android":"levelo://app?vid=7bcb7c48-2b8f-45f5-84c9-6c48103d9b03","ios":"levelo://app?vid=7bcb7c48-2b8f-45f5-84c9-6c48103d9b03"},"vehicle_type_id":"4","last_reported":1702012039,"current_range_meters":26800,"station_id":"ce4bh3h2rcd13ifvqdn0","pricing_plan_id":"free"},{"bike_id":"aae2ba7b-8999-4318-878b-a856b7c98bf2","system_id":"levelo_inurba_marseille","lat":43.282754,"lon":5.350519,"is_reserved":false,"is_disabled":false,"rental_uris":{"android":"levelo://app?vid=aae2ba7b-8999-4318-878b-a856b7c98bf2","ios":"levelo://app?vid=aae2ba7b-8999-4318-878b-a856b7c98bf2"},"vehicle_type_id":"4","last_reported":1702012039,"current_range_meters":13600,"station_id":"ce4bhbp2rcd13ifvqerg","pricing_plan_id":"free"},{"bike_id":"e47f7d73-ed0f-45d8-b6e8-c580807ce36f","system_id":"levelo_inurba_marseille","lat":43.282754,"lon":5.350519,"is_reserved":false,"is_disabled":false,"rental_uris":{"android":"levelo://app?vid=e47f7d73-ed0f-45d8-b6e8-c580807ce36f","ios":"levelo://app?vid=e47f7d73-ed0f-45d8-b6e8-c580807ce36f"},"vehicle_type_id":"4","last_reported":1702012039,"current_range_meters":15200,"station_id":"ce4bhbp2rcd13ifvqerg","pricing_plan_id":"free"},{"bike_id":"1a43e9e6-7b54-467a-91a6-a2b9ee56d0c2","system_id":"levelo_inurba_marseille","lat":43.282754,"lon":5.350519,"is_reserved":false,"is_disabled":false,"rental_uris":{"android":"levelo://app?vid=1a43e9e6-7b54-467a-91a6-a2b9ee56d0c2","ios":"levelo://app?vid=1a43e9e6-7b54-467a-91a6-a2b9ee56d0c2"},"vehicle_type_id":"4","last_reported":1702012039,"current_range_meters":4000,"station_id":"ce4bhbp2rcd13ifvqerg","pricing_plan_id":"free"},{"bike_id":"458e9157-2b8c-4e7a-93fa-488dd31146f9","system_id":"levelo_inurba_marseille","lat":43.282744,"lon":5.350533,"is_reserved":false,"is_disabled":false,"rental_uris":{"android":"levelo://app?vid=458e9157-2b8c-4e7a-93fa-488dd31146f9","ios":"levelo://app?vid=458e9157-2b8c-4e7a-93fa-488dd31146f9"},"vehicle_type_id":"4","last_reported":1702012039,"current_range_meters":26400,"station_id":"ce4bhbp2rcd13ifvqerg","pricing_plan_id":"free"},{"bike_id":"89113968-1bef-47de-ba23-a28366af052c","system_id":"levelo_inurba_marseille","lat":43.283502,"lon":5.386471,"is_reserved":false,"is_disabled":false,"rental_uris":{"android":"levelo://app?vid=89113968-1bef-47de-ba23-a28366af052c","ios":"levelo://app?vid=89113968-1bef-47de-ba23-a28366af052c"},"vehicle_type_id":"4","last_reported":1702012039,"current_range_meters":27200,"station_id":"ce4bh492rcd13ifvqdvg","pricing_plan_id":"free"},{"bike_id":"a4df8504-67ed-4d8d-bb9d-b6e6ca24bcea","system_id":"levelo_inurba_marseille","lat":43.28039,"lon":5.369297,"is_reserved":false,"is_disabled":false,"rental_uris":{"android":"levelo://app?vid=a4df8504-67ed-4d8d-bb9d-b6e6ca24bcea","ios":"levelo://app?vid=a4df8504-67ed-4d8d-bb9d-b6e6ca24bcea"},"vehicle_type_id":"4","last_reported":1702012039,"current_range_meters":28400,"station_id":"ce4bha12rcd13ifvqef0","pricing_plan_id":"free"},{"bike_id":"2464d8e8-2b44-4c5b-b558-3288ccee4e57","system_id":"levelo_inurba_marseille","lat":43.280382,"lon":5.369291,"is_reserved":false,"is_disabled":false,"rental_uris":{"android":"levelo://app?vid=2464d8e8-2b44-4c5b-b558-3288ccee4e57","ios":"levelo://app?vid=2464d8e8-2b44-4c5b-b558-3288ccee4e57"},"vehicle_type_id":"4","last_reported":1702012039,"current_range_meters":27600,"station_id":"ce4bha12rcd13ifvqef0","pricing_plan_id":"free"},{"bike_id":"68bf0473-2937-406c-955b-5f92ae61d953","system_id":"levelo_inurba_marseille","lat":43.281044,"lon":5.378308,"is_reserved":false,"is_disabled":false,"rental_uris":{"android":"levelo://app?vid=68bf0473-2937-406c-955b-5f92ae61d953","ios":"levelo://app?vid=68bf0473-2937-406c-955b-5f92ae61d953"},"vehicle_type_id":"4","last_reported":1702012039,"current_range_meters":26800,"station_id":"ce4bha12rcd13ifvqee0","pricing_plan_id":"free"},{"bike_id":"058a9056-ebe9-4ba8-94cb-c650bb959cc9","system_id":"levelo_inurba_marseille","lat":43.28106,"lon":5.37843,"is_reserved":false,"is_disabled":false,"rental_uris":{"android":"levelo://app?vid=058a9056-ebe9-4ba8-94cb-c650bb959cc9","ios":"levelo://app?vid=058a9056-ebe9-4ba8-94cb-c650bb959cc9"},"vehicle_type_id":"4","last_reported":1702012039,"current_range_meters":18000,"station_id":"ce4bha12rcd13ifvqee0","pricing_plan_id":"free"},{"bike_id":"fc50f882-8adf-492c-9f3a-25ce353f59d9","system_id":"levelo_inurba_marseille","lat":43.281044,"lon":5.378308,"is_reserved":false,"is_disabled":false,"rental_uris":{"android":"levelo://app?vid=fc50f882-8adf-492c-9f3a-25ce353f59d9","ios":"levelo://app?vid=fc50f882-8adf-492c-9f3a-25ce353f59d9"},"vehicle_type_id":"4","last_reported":1702012039,"current_range_meters":30000,"station_id":"ce4bha12rcd13ifvqee0","pricing_plan_id":"free"},{"bike_id":"43532f18-fd38-4041-884d-515c14b82ab9","system_id":"levelo_inurba_marseille","lat":43.284462,"lon":5.392121,"is_reserved":false,"is_disabled":false,"rental_uris":{"android":"levelo://app?vid=43532f18-fd38-4041-884d-515c14b82ab9","ios":"levelo://app?vid=43532f18-fd38-4041-884d-515c14b82ab9"},"vehicle_type_id":"4","last_reported":1702012039,"current_range_meters":31200,"station_id":"ce4bhoh2rcd13ifvqh5g","pricing_plan_id":"free"},{"bike_id":"916a7912-188f-4842-a3fd-ab528a439fc9","system_id":"levelo_inurba_marseille","lat":43.284462,"lon":5.392121,"is_reserved":false,"is_disabled":false,"rental_uris":{"android":"levelo://app?vid=916a7912-188f-4842-a3fd-ab528a439fc9","ios":"levelo://app?vid=916a7912-188f-4842-a3fd-ab528a439fc9"},"vehicle_type_id":"4","last_reported":1702012039,"current_range_meters":27200,"station_id":"ce4bhoh2rcd13ifvqh5g","pricing_plan_id":"free"},{"bike_id":"5479ec44-6531-4cd2-a31f-eaf7df8a408e","system_id":"levelo_inurba_marseille","lat":43.28573,"lon":5.394992,"is_reserved":false,"is_disabled":false,"rental_uris":{"android":"levelo://app?vid=5479ec44-6531-4cd2-a31f-eaf7df8a408e","ios":"levelo://app?vid=5479ec44-6531-4cd2-a31f-eaf7df8a408e"},"vehicle_type_id":"4","last_reported":1702012039,"current_range_meters":30000,"station_id":"ce4bh292rcd13ifvqdg0","pricing_plan_id":"free"},{"bike_id":"f14ead39-4f41-4599-9321-f960783c1e12","system_id":"levelo_inurba_marseille","lat":43.326605,"lon":5.409903,"is_reserved":false,"is_disabled":false,"rental_uris":{"android":"levelo://app?vid=f14ead39-4f41-4599-9321-f960783c1e12","ios":"levelo://app?vid=f14ead39-4f41-4599-9321-f960783c1e12"},"vehicle_type_id":"4","last_reported":1702012039,"current_range_meters":28400,"station_id":"ce4bhpp2rcd13ifvqhgg","pricing_plan_id":"free"},{"bike_id":"070a260d-ecc1-46d1-afab-6774750cd900","system_id":"levelo_inurba_marseille","lat":43.326605,"lon":5.409903,"is_reserved":false,"is_disabled":false,"rental_uris":{"android":"levelo://app?vid=070a260d-ecc1-46d1-afab-6774750cd900","ios":"levelo://app?vid=070a260d-ecc1-46d1-afab-6774750cd900"},"vehicle_type_id":"4","last_reported":1702012039,"current_range_meters":28400,"station_id":"ce4bhpp2rcd13ifvqhgg","pricing_plan_id":"free"},{"bike_id":"5fefe554-fe99-4e7c-bf4d-9b8cb69d1b6a","system_id":"levelo_inurba_marseille","lat":43.279087,"lon":5.380114,"is_reserved":false,"is_disabled":false,"rental_uris":{"android":"levelo://app?vid=5fefe554-fe99-4e7c-bf4d-9b8cb69d1b6a","ios":"levelo://app?vid=5fefe554-fe99-4e7c-bf4d-9b8cb69d1b6a"},"vehicle_type_id":"4","last_reported":1702012039,"current_range_meters":4400,"station_id":"ce4bhf92rcd13ifvqf50","pricing_plan_id":"free"},{"bike_id":"bf9c0286-54ca-458d-a58a-9d0d9c0353fb","system_id":"levelo_inurba_marseille","lat":43.279087,"lon":5.380114,"is_reserved":false,"is_disabled":false,"rental_uris":{"android":"levelo://app?vid=bf9c0286-54ca-458d-a58a-9d0d9c0353fb","ios":"levelo://app?vid=bf9c0286-54ca-458d-a58a-9d0d9c0353fb"},"vehicle_type_id":"4","last_reported":1702012039,"current_range_meters":32000,"station_id":"ce4bhf92rcd13ifvqf50","pricing_plan_id":"free"},{"bike_id":"c508499e-0126-400d-9246-9968fd5c763e","system_id":"levelo_inurba_marseille","lat":43.287154,"lon":5.399979,"is_reserved":false,"is_disabled":false,"rental_uris":{"android":"levelo://app?vid=c508499e-0126-400d-9246-9968fd5c763e","ios":"levelo://app?vid=c508499e-0126-400d-9246-9968fd5c763e"},"vehicle_type_id":"4","last_reported":1702012039,"current_range_meters":28000,"station_id":"ce4bho92rcd13ifvqh3g","pricing_plan_id":"free"},{"bike_id":"ada80be2-5af2-491f-86a4-67cd93153724","system_id":"levelo_inurba_marseille","lat":43.292569,"lon":5.409107,"is_reserved":false,"is_disabled":false,"rental_uris":{"android":"levelo://app?vid=ada80be2-5af2-491f-86a4-67cd93153724","ios":"levelo://app?vid=ada80be2-5af2-491f-86a4-67cd93153724"},"vehicle_type_id":"4","last_reported":1702012039,"current_range_meters":21200,"station_id":"ce4bh192rcd13ifvqdc0","pricing_plan_id":"free"},{"bike_id":"8fb042a7-bc38-4a4b-bd74-88529f6638c4","system_id":"levelo_inurba_marseille","lat":43.276143,"lon":5.361124,"is_reserved":false,"is_disabled":false,"rental_uris":{"android":"levelo://app?vid=8fb042a7-bc38-4a4b-bd74-88529f6638c4","ios":"levelo://app?vid=8fb042a7-bc38-4a4b-bd74-88529f6638c4"},"vehicle_type_id":"4","last_reported":1702012039,"current_range_meters":22400,"station_id":"ce4bgj92rcd13ifvqbe0","pricing_plan_id":"free"},{"bike_id":"cf28e55e-951a-4b0e-80ed-914fb42c100f","system_id":"levelo_inurba_marseille","lat":43.280784,"lon":5.396622,"is_reserved":false,"is_disabled":false,"rental_uris":{"android":"levelo://app?vid=cf28e55e-951a-4b0e-80ed-914fb42c100f","ios":"levelo://app?vid=cf28e55e-951a-4b0e-80ed-914fb42c100f"},"vehicle_type_id":"4","last_reported":1702012039,"current_range_meters":32000,"station_id":"ce4bho12rcd13ifvqh2g","pricing_plan_id":"free"},{"bike_id":"604dfced-5a83-4705-9884-9dbeff2c9ad7","system_id":"levelo_inurba_marseille","lat":43.280784,"lon":5.396622,"is_reserved":false,"is_disabled":false,"rental_uris":{"android":"levelo://app?vid=604dfced-5a83-4705-9884-9dbeff2c9ad7","ios":"levelo://app?vid=604dfced-5a83-4705-9884-9dbeff2c9ad7"},"vehicle_type_id":"4","last_reported":1702012039,"current_range_meters":4800,"station_id":"ce4bho12rcd13ifvqh2g","pricing_plan_id":"free"},{"bike_id":"21353717-0ebc-4941-8111-34c7a0b5fb53","system_id":"levelo_inurba_marseille","lat":43.280771,"lon":5.396468,"is_reserved":false,"is_disabled":false,"rental_uris":{"android":"levelo://app?vid=21353717-0ebc-4941-8111-34c7a0b5fb53","ios":"levelo://app?vid=21353717-0ebc-4941-8111-34c7a0b5fb53"},"vehicle_type_id":"4","last_reported":1702012039,"current_range_meters":20800,"station_id":"ce4bho12rcd13ifvqh2g","pricing_plan_id":"free"},{"bike_id":"bc8d2146-2cfc-41e7-ba90-913c3db466c1","system_id":"levelo_inurba_marseille","lat":43.278399,"lon":5.392139,"is_reserved":false,"is_disabled":false,"rental_uris":{"android":"levelo://app?vid=bc8d2146-2cfc-41e7-ba90-913c3db466c1","ios":"levelo://app?vid=bc8d2146-2cfc-41e7-ba90-913c3db466c1"},"vehicle_type_id":"4","last_reported":1702012039,"current_range_meters":27200,"station_id":"ce4bhjp2rcd13ifvqga0","pricing_plan_id":"free"},{"bike_id":"12b2362a-40a6-49e8-87c0-09e1a3c5fc7a","system_id":"levelo_inurba_marseille","lat":43.275625,"lon":5.384392,"is_reserved":false,"is_disabled":false,"rental_uris":{"android":"levelo://app?vid=12b2362a-40a6-49e8-87c0-09e1a3c5fc7a","ios":"levelo://app?vid=12b2362a-40a6-49e8-87c0-09e1a3c5fc7a"},"vehicle_type_id":"4","last_reported":1702012039,"current_range_meters":15200,"station_id":"ce4bhh92rcd13ifvqfi0","pricing_plan_id":"free"},{"bike_id":"cac8a569-f30a-4d52-82cb-e9d6e6d47493","system_id":"levelo_inurba_marseille","lat":43.336134,"lon":5.410341,"is_reserved":false,"is_disabled":false,"rental_uris":{"android":"levelo://app?vid=cac8a569-f30a-4d52-82cb-e9d6e6d47493","ios":"levelo://app?vid=cac8a569-f30a-4d52-82cb-e9d6e6d47493"},"vehicle_type_id":"4","last_reported":1702012039,"current_range_meters":0,"station_id":"ce4bhqh2rcd13ifvqhmg","pricing_plan_id":"free"},{"bike_id":"88b9b921-c290-4f85-b63d-4f79cf832523","system_id":"levelo_inurba_marseille","lat":43.336134,"lon":5.410341,"is_reserved":false,"is_disabled":false,"rental_uris":{"android":"levelo://app?vid=88b9b921-c290-4f85-b63d-4f79cf832523","ios":"levelo://app?vid=88b9b921-c290-4f85-b63d-4f79cf832523"},"vehicle_type_id":"4","last_reported":1702012039,"current_range_meters":32000,"station_id":"ce4bhqh2rcd13ifvqhmg","pricing_plan_id":"free"},{"bike_id":"ef3344aa-2bd3-4696-b46b-ffe4fc8bf41c","system_id":"levelo_inurba_marseille","lat":43.275544,"lon":5.384277,"is_reserved":false,"is_disabled":false,"rental_uris":{"android":"levelo://app?vid=ef3344aa-2bd3-4696-b46b-ffe4fc8bf41c","ios":"levelo://app?vid=ef3344aa-2bd3-4696-b46b-ffe4fc8bf41c"},"vehicle_type_id":"4","last_reported":1702012039,"current_range_meters":6800,"station_id":"ce4bhh92rcd13ifvqfi0","pricing_plan_id":"free"},{"bike_id":"90d6daf0-f742-4c34-87c0-a7b59f585337","system_id":"levelo_inurba_marseille","lat":43.276771,"lon":5.388799,"is_reserved":false,"is_disabled":false,"rental_uris":{"android":"levelo://app?vid=90d6daf0-f742-4c34-87c0-a7b59f585337","ios":"levelo://app?vid=90d6daf0-f742-4c34-87c0-a7b59f585337"},"vehicle_type_id":"4","last_reported":1702012039,"current_range_meters":29200,"station_id":"ce4bhi12rcd13ifvqfo0","pricing_plan_id":"free"},{"bike_id":"5cc7b054-7f74-4799-ba27-acd88dcc15ab","system_id":"levelo_inurba_marseille","lat":43.276341,"lon":5.391876,"is_reserved":false,"is_disabled":false,"rental_uris":{"android":"levelo://app?vid=5cc7b054-7f74-4799-ba27-acd88dcc15ab","ios":"levelo://app?vid=5cc7b054-7f74-4799-ba27-acd88dcc15ab"},"vehicle_type_id":"4","last_reported":1702012039,"current_range_meters":20800,"station_id":"","pricing_plan_id":"free"},{"bike_id":"ac48d04c-c813-4dcb-8013-15216c7aa7de","system_id":"levelo_inurba_marseille","lat":43.340804,"lon":5.410219,"is_reserved":false,"is_disabled":false,"rental_uris":{"android":"levelo://app?vid=ac48d04c-c813-4dcb-8013-15216c7aa7de","ios":"levelo://app?vid=ac48d04c-c813-4dcb-8013-15216c7aa7de"},"vehicle_type_id":"4","last_reported":1702012039,"current_range_meters":17200,"station_id":"ce4bhqh2rcd13ifvqhlg","pricing_plan_id":"free"},{"bike_id":"e7e35992-3a3d-448e-9a9c-48870975c082","system_id":"levelo_inurba_marseille","lat":43.340804,"lon":5.410219,"is_reserved":false,"is_disabled":false,"rental_uris":{"android":"levelo://app?vid=e7e35992-3a3d-448e-9a9c-48870975c082","ios":"levelo://app?vid=e7e35992-3a3d-448e-9a9c-48870975c082"},"vehicle_type_id":"4","last_reported":1702012039,"current_range_meters":27600,"station_id":"ce4bhqh2rcd13ifvqhlg","pricing_plan_id":"free"},{"bike_id":"63133364-316e-458e-b234-bbd4926c63fc","system_id":"levelo_inurba_marseille","lat":43.27583,"lon":5.39474,"is_reserved":false,"is_disabled":false,"rental_uris":{"android":"levelo://app?vid=63133364-316e-458e-b234-bbd4926c63fc","ios":"levelo://app?vid=63133364-316e-458e-b234-bbd4926c63fc"},"vehicle_type_id":"4","last_reported":1702012039,"current_range_meters":16800,"station_id":"","pricing_plan_id":"free"},{"bike_id":"77e2df1b-d75a-48fe-a6ad-744dfbe91f1d","system_id":"levelo_inurba_marseille","lat":43.27214,"lon":5.3925,"is_reserved":false,"is_disabled":false,"rental_uris":{"android":"levelo://app?vid=77e2df1b-d75a-48fe-a6ad-744dfbe91f1d","ios":"levelo://app?vid=77e2df1b-d75a-48fe-a6ad-744dfbe91f1d"},"vehicle_type_id":"4","last_reported":1702012039,"current_range_meters":6800,"station_id":"","pricing_plan_id":"free"},{"bike_id":"2eb7b164-467e-49b0-a554-29c177f95c2a","system_id":"levelo_inurba_marseille","lat":43.278175,"lon":5.407144,"is_reserved":false,"is_disabled":false,"rental_uris":{"android":"levelo://app?vid=2eb7b164-467e-49b0-a554-29c177f95c2a","ios":"levelo://app?vid=2eb7b164-467e-49b0-a554-29c177f95c2a"},"vehicle_type_id":"4","last_reported":1702012039,"current_range_meters":15200,"station_id":"ce4bhnh2rcd13ifvqgtg","pricing_plan_id":"free"},{"bike_id":"7b84562b-f023-458e-9f63-22f52b26a915","system_id":"levelo_inurba_marseille","lat":43.278128,"lon":5.407195,"is_reserved":false,"is_disabled":false,"rental_uris":{"android":"levelo://app?vid=7b84562b-f023-458e-9f63-22f52b26a915","ios":"levelo://app?vid=7b84562b-f023-458e-9f63-22f52b26a915"},"vehicle_type_id":"4","last_reported":1702012039,"current_range_meters":31600,"station_id":"ce4bhnh2rcd13ifvqgtg","pricing_plan_id":"free"},{"bike_id":"507fa7b2-2766-4bb9-8380-8e4477bc99ac","system_id":"levelo_inurba_marseille","lat":43.278128,"lon":5.407195,"is_reserved":false,"is_disabled":false,"rental_uris":{"android":"levelo://app?vid=507fa7b2-2766-4bb9-8380-8e4477bc99ac","ios":"levelo://app?vid=507fa7b2-2766-4bb9-8380-8e4477bc99ac"},"vehicle_type_id":"4","last_reported":1702012039,"current_range_meters":2800,"station_id":"ce4bhnh2rcd13ifvqgtg","pricing_plan_id":"free"},{"bike_id":"8b31974b-a6d6-4174-94cf-24462dd4f80b","system_id":"levelo_inurba_marseille","lat":43.278128,"lon":5.407195,"is_reserved":false,"is_disabled":false,"rental_uris":{"android":"levelo://app?vid=8b31974b-a6d6-4174-94cf-24462dd4f80b","ios":"levelo://app?vid=8b31974b-a6d6-4174-94cf-24462dd4f80b"},"vehicle_type_id":"4","last_reported":1702012039,"current_range_meters":4800,"station_id":"ce4bhnh2rcd13ifvqgtg","pricing_plan_id":"free"},{"bike_id":"8e3ed466-32b5-40fb-9e63-efc51e8e36c0","system_id":"levelo_inurba_marseille","lat":43.278128,"lon":5.407195,"is_reserved":false,"is_disabled":false,"rental_uris":{"android":"levelo://app?vid=8e3ed466-32b5-40fb-9e63-efc51e8e36c0","ios":"levelo://app?vid=8e3ed466-32b5-40fb-9e63-efc51e8e36c0"},"vehicle_type_id":"4","last_reported":1702012039,"current_range_meters":30000,"station_id":"ce4bhnh2rcd13ifvqgtg","pricing_plan_id":"free"},{"bike_id":"047b2809-d835-47fd-841c-0881874b87f0","system_id":"levelo_inurba_marseille","lat":43.269467,"lon":5.386439,"is_reserved":false,"is_disabled":false,"rental_uris":{"android":"levelo://app?vid=047b2809-d835-47fd-841c-0881874b87f0","ios":"levelo://app?vid=047b2809-d835-47fd-841c-0881874b87f0"},"vehicle_type_id":"4","last_reported":1702012039,"current_range_meters":22000,"station_id":"ce4bhh92rcd13ifvqfh0","pricing_plan_id":"free"},{"bike_id":"3b7ae579-9a62-4391-a4bb-a12e03705875","system_id":"levelo_inurba_marseille","lat":43.279465,"lon":5.410561,"is_reserved":false,"is_disabled":false,"rental_uris":{"android":"levelo://app?vid=3b7ae579-9a62-4391-a4bb-a12e03705875","ios":"levelo://app?vid=3b7ae579-9a62-4391-a4bb-a12e03705875"},"vehicle_type_id":"4","last_reported":1702012039,"current_range_meters":15600,"station_id":"ce4bhnp2rcd13ifvqh0g","pricing_plan_id":"free"},{"bike_id":"7c98996b-84bf-4cb7-a399-61f0c30c115d","system_id":"levelo_inurba_marseille","lat":43.279465,"lon":5.410561,"is_reserved":false,"is_disabled":false,"rental_uris":{"android":"levelo://app?vid=7c98996b-84bf-4cb7-a399-61f0c30c115d","ios":"levelo://app?vid=7c98996b-84bf-4cb7-a399-61f0c30c115d"},"vehicle_type_id":"4","last_reported":1702012039,"current_range_meters":14400,"station_id":"ce4bhnp2rcd13ifvqh0g","pricing_plan_id":"free"},{"bike_id":"56e1faa4-f404-40c0-8c46-fdaefc68de0f","system_id":"levelo_inurba_marseille","lat":43.279465,"lon":5.410561,"is_reserved":false,"is_disabled":false,"rental_uris":{"android":"levelo://app?vid=56e1faa4-f404-40c0-8c46-fdaefc68de0f","ios":"levelo://app?vid=56e1faa4-f404-40c0-8c46-fdaefc68de0f"},"vehicle_type_id":"4","last_reported":1702012039,"current_range_meters":19200,"station_id":"ce4bhnp2rcd13ifvqh0g","pricing_plan_id":"free"},{"bike_id":"2ca80d7c-078c-47b1-99b6-d78f453f2284","system_id":"levelo_inurba_marseille","lat":43.27932,"lon":5.41043,"is_reserved":false,"is_disabled":false,"rental_uris":{"android":"levelo://app?vid=2ca80d7c-078c-47b1-99b6-d78f453f2284","ios":"levelo://app?vid=2ca80d7c-078c-47b1-99b6-d78f453f2284"},"vehicle_type_id":"4","last_reported":1702012039,"current_range_meters":18800,"station_id":"ce4bhnp2rcd13ifvqh0g","pricing_plan_id":"free"},{"bike_id":"dffd642e-6acf-43e9-84fd-33fa89f52c00","system_id":"levelo_inurba_marseille","lat":43.27911,"lon":5.4122,"is_reserved":false,"is_disabled":false,"rental_uris":{"android":"levelo://app?vid=dffd642e-6acf-43e9-84fd-33fa89f52c00","ios":"levelo://app?vid=dffd642e-6acf-43e9-84fd-33fa89f52c00"},"vehicle_type_id":"4","last_reported":1702012039,"current_range_meters":12000,"station_id":"","pricing_plan_id":"free"},{"bike_id":"a2a3e6f1-6601-43a5-98ca-3168b6f165c1","system_id":"levelo_inurba_marseille","lat":43.26681,"lon":5.382694,"is_reserved":false,"is_disabled":false,"rental_uris":{"android":"levelo://app?vid=a2a3e6f1-6601-43a5-98ca-3168b6f165c1","ios":"levelo://app?vid=a2a3e6f1-6601-43a5-98ca-3168b6f165c1"},"vehicle_type_id":"4","last_reported":1702012039,"current_range_meters":26400,"station_id":"ce4bhg92rcd13ifvqf90","pricing_plan_id":"free"},{"bike_id":"c8ef85ed-42e9-4e4e-a7d8-b2f306c4616f","system_id":"levelo_inurba_marseille","lat":43.27996,"lon":5.416624,"is_reserved":false,"is_disabled":false,"rental_uris":{"android":"levelo://app?vid=c8ef85ed-42e9-4e4e-a7d8-b2f306c4616f","ios":"levelo://app?vid=c8ef85ed-42e9-4e4e-a7d8-b2f306c4616f"},"vehicle_type_id":"4","last_reported":1702012039,"current_range_meters":30400,"station_id":"ce4bho12rcd13ifvqh1g","pricing_plan_id":"free"},{"bike_id":"5c62f0fe-2a68-4f0e-8c5e-1c3be35b64ff","system_id":"levelo_inurba_marseille","lat":43.291724,"lon":5.427869,"is_reserved":false,"is_disabled":false,"rental_uris":{"android":"levelo://app?vid=5c62f0fe-2a68-4f0e-8c5e-1c3be35b64ff","ios":"levelo://app?vid=5c62f0fe-2a68-4f0e-8c5e-1c3be35b64ff"},"vehicle_type_id":"4","last_reported":1702012039,"current_range_meters":12400,"station_id":"","pricing_plan_id":"free"},{"bike_id":"2f28ed26-7fbc-4ca1-9a96-394d5fb7c29e","system_id":"levelo_inurba_marseille","lat":43.267966,"lon":5.393976,"is_reserved":false,"is_disabled":false,"rental_uris":{"android":"levelo://app?vid=2f28ed26-7fbc-4ca1-9a96-394d5fb7c29e","ios":"levelo://app?vid=2f28ed26-7fbc-4ca1-9a96-394d5fb7c29e"},"vehicle_type_id":"4","last_reported":1702012039,"current_range_meters":30400,"station_id":"ce4bhh12rcd13ifvqfg0","pricing_plan_id":"free"},{"bike_id":"3b1cd462-728f-44f1-b5cf-b3916b351ca9","system_id":"levelo_inurba_marseille","lat":43.308051,"lon":5.43527,"is_reserved":false,"is_disabled":false,"rental_uris":{"android":"levelo://app?vid=3b1cd462-728f-44f1-b5cf-b3916b351ca9","ios":"levelo://app?vid=3b1cd462-728f-44f1-b5cf-b3916b351ca9"},"vehicle_type_id":"4","last_reported":1702012039,"current_range_meters":27200,"station_id":"ce4bhph2rcd13ifvqheg","pricing_plan_id":"free"},{"bike_id":"b2b103ac-0819-4d45-aab7-66487a241d22","system_id":"levelo_inurba_marseille","lat":43.26938,"lon":5.4026,"is_reserved":false,"is_disabled":false,"rental_uris":{"android":"levelo://app?vid=b2b103ac-0819-4d45-aab7-66487a241d22","ios":"levelo://app?vid=b2b103ac-0819-4d45-aab7-66487a241d22"},"vehicle_type_id":"4","last_reported":1702012039,"current_range_meters":0,"station_id":"cjm6bp8fraef2m0cb0m0","pricing_plan_id":"free"},{"bike_id":"f2e5d013-6edb-494d-8e09-78d711cf04a7","system_id":"levelo_inurba_marseille","lat":43.317104,"lon":5.436818,"is_reserved":false,"is_disabled":false,"rental_uris":{"android":"levelo://app?vid=f2e5d013-6edb-494d-8e09-78d711cf04a7","ios":"levelo://app?vid=f2e5d013-6edb-494d-8e09-78d711cf04a7"},"vehicle_type_id":"4","last_reported":1702012039,"current_range_meters":27200,"station_id":"ce4bhp92rcd13ifvqhcg","pricing_plan_id":"free"},{"bike_id":"b351af1f-10d3-4ab4-a43d-e8e87c37bc23","system_id":"levelo_inurba_marseille","lat":43.262012,"lon":5.379307,"is_reserved":false,"is_disabled":false,"rental_uris":{"android":"levelo://app?vid=b351af1f-10d3-4ab4-a43d-e8e87c37bc23","ios":"levelo://app?vid=b351af1f-10d3-4ab4-a43d-e8e87c37bc23"},"vehicle_type_id":"4","last_reported":1702012039,"current_range_meters":4800,"station_id":"ce4bhjp2rcd13ifvqg90","pricing_plan_id":"free"},{"bike_id":"3304d659-2172-4c05-95b9-9ce22aa618b6","system_id":"levelo_inurba_marseille","lat":43.271388,"lon":5.409269,"is_reserved":false,"is_disabled":false,"rental_uris":{"android":"levelo://app?vid=3304d659-2172-4c05-95b9-9ce22aa618b6","ios":"levelo://app?vid=3304d659-2172-4c05-95b9-9ce22aa618b6"},"vehicle_type_id":"4","last_reported":1702012039,"current_range_meters":30000,"station_id":"ce4bhl12rcd13ifvqgf0","pricing_plan_id":"free"},{"bike_id":"ed3d39e3-16d0-4193-b5f3-7d15fa62181e","system_id":"levelo_inurba_marseille","lat":43.262012,"lon":5.379307,"is_reserved":false,"is_disabled":false,"rental_uris":{"android":"levelo://app?vid=ed3d39e3-16d0-4193-b5f3-7d15fa62181e","ios":"levelo://app?vid=ed3d39e3-16d0-4193-b5f3-7d15fa62181e"},"vehicle_type_id":"4","last_reported":1702012039,"current_range_meters":31600,"station_id":"ce4bhjp2rcd13ifvqg90","pricing_plan_id":"free"},{"bike_id":"50b57549-b3da-4393-86c8-d9ab04bd4183","system_id":"levelo_inurba_marseille","lat":43.26202,"lon":5.379299,"is_reserved":false,"is_disabled":false,"rental_uris":{"android":"levelo://app?vid=50b57549-b3da-4393-86c8-d9ab04bd4183","ios":"levelo://app?vid=50b57549-b3da-4393-86c8-d9ab04bd4183"},"vehicle_type_id":"4","last_reported":1702012039,"current_range_meters":29200,"station_id":"ce4bhjp2rcd13ifvqg90","pricing_plan_id":"free"},{"bike_id":"007df34f-7724-4dff-aa9a-49c212a14799","system_id":"levelo_inurba_marseille","lat":43.271368,"lon":5.40928,"is_reserved":false,"is_disabled":false,"rental_uris":{"android":"levelo://app?vid=007df34f-7724-4dff-aa9a-49c212a14799","ios":"levelo://app?vid=007df34f-7724-4dff-aa9a-49c212a14799"},"vehicle_type_id":"4","last_reported":1702012039,"current_range_meters":26800,"station_id":"ce4bhl12rcd13ifvqgf0","pricing_plan_id":"free"},{"bike_id":"c5bd1d69-a92d-4172-a7f3-6c88766eaa3a","system_id":"levelo_inurba_marseille","lat":43.271368,"lon":5.40928,"is_reserved":false,"is_disabled":false,"rental_uris":{"android":"levelo://app?vid=c5bd1d69-a92d-4172-a7f3-6c88766eaa3a","ios":"levelo://app?vid=c5bd1d69-a92d-4172-a7f3-6c88766eaa3a"},"vehicle_type_id":"4","last_reported":1702012039,"current_range_meters":10000,"station_id":"ce4bhl12rcd13ifvqgf0","pricing_plan_id":"free"},{"bike_id":"8941e86a-f4ab-4d9b-b475-ab3859a12714","system_id":"levelo_inurba_marseille","lat":43.271368,"lon":5.40928,"is_reserved":false,"is_disabled":false,"rental_uris":{"android":"levelo://app?vid=8941e86a-f4ab-4d9b-b475-ab3859a12714","ios":"levelo://app?vid=8941e86a-f4ab-4d9b-b475-ab3859a12714"},"vehicle_type_id":"4","last_reported":1702012039,"current_range_meters":22000,"station_id":"ce4bhl12rcd13ifvqgf0","pricing_plan_id":"free"},{"bike_id":"f99c4aef-541a-4352-a884-d4a46464ec6d","system_id":"levelo_inurba_marseille","lat":43.267959,"lon":5.402687,"is_reserved":false,"is_disabled":false,"rental_uris":{"android":"levelo://app?vid=f99c4aef-541a-4352-a884-d4a46464ec6d","ios":"levelo://app?vid=f99c4aef-541a-4352-a884-d4a46464ec6d"},"vehicle_type_id":"4","last_reported":1702012039,"current_range_meters":26000,"station_id":"ce501612rcd8frsf0b60","pricing_plan_id":"free"},{"bike_id":"8a8bc4d6-0029-4fbf-9728-a692a0316877","system_id":"levelo_inurba_marseille","lat":43.27557,"lon":5.41681,"is_reserved":false,"is_disabled":false,"rental_uris":{"android":"levelo://app?vid=8a8bc4d6-0029-4fbf-9728-a692a0316877","ios":"levelo://app?vid=8a8bc4d6-0029-4fbf-9728-a692a0316877"},"vehicle_type_id":"4","last_reported":1702012039,"current_range_meters":3600,"station_id":"","pricing_plan_id":"free"},{"bike_id":"4f68f183-a711-4386-a731-e8ea8e2f115e","system_id":"levelo_inurba_marseille","lat":43.298768,"lon":5.43643,"is_reserved":false,"is_disabled":false,"rental_uris":{"android":"levelo://app?vid=4f68f183-a711-4386-a731-e8ea8e2f115e","ios":"levelo://app?vid=4f68f183-a711-4386-a731-e8ea8e2f115e"},"vehicle_type_id":"4","last_reported":1702012039,"current_range_meters":25600,"station_id":"ce4bhpp2rcd13ifvqhfg","pricing_plan_id":"free"},{"bike_id":"ca4db8a8-5b98-4b78-bc3d-514f38028a3d","system_id":"levelo_inurba_marseille","lat":43.298768,"lon":5.43643,"is_reserved":false,"is_disabled":false,"rental_uris":{"android":"levelo://app?vid=ca4db8a8-5b98-4b78-bc3d-514f38028a3d","ios":"levelo://app?vid=ca4db8a8-5b98-4b78-bc3d-514f38028a3d"},"vehicle_type_id":"4","last_reported":1702012039,"current_range_meters":30000,"station_id":"ce4bhpp2rcd13ifvqhfg","pricing_plan_id":"free"},{"bike_id":"0a3af9fe-4495-4765-a364-07e789cdace4","system_id":"levelo_inurba_marseille","lat":43.298768,"lon":5.43643,"is_reserved":false,"is_disabled":false,"rental_uris":{"android":"levelo://app?vid=0a3af9fe-4495-4765-a364-07e789cdace4","ios":"levelo://app?vid=0a3af9fe-4495-4765-a364-07e789cdace4"},"vehicle_type_id":"4","last_reported":1702012039,"current_range_meters":28000,"station_id":"ce4bhpp2rcd13ifvqhfg","pricing_plan_id":"free"},{"bike_id":"83e2018e-7127-4415-8bbf-2e347a9c6750","system_id":"levelo_inurba_marseille","lat":43.298957,"lon":5.436668,"is_reserved":false,"is_disabled":false,"rental_uris":{"android":"levelo://app?vid=83e2018e-7127-4415-8bbf-2e347a9c6750","ios":"levelo://app?vid=83e2018e-7127-4415-8bbf-2e347a9c6750"},"vehicle_type_id":"4","last_reported":1702012039,"current_range_meters":4800,"station_id":"ce4bhpp2rcd13ifvqhfg","pricing_plan_id":"free"},{"bike_id":"b0b3850b-b073-47e6-aba6-e5a88e8602e2","system_id":"levelo_inurba_marseille","lat":43.281548,"lon":5.42643,"is_reserved":false,"is_disabled":false,"rental_uris":{"android":"levelo://app?vid=b0b3850b-b073-47e6-aba6-e5a88e8602e2","ios":"levelo://app?vid=b0b3850b-b073-47e6-aba6-e5a88e8602e2"},"vehicle_type_id":"4","last_reported":1702012039,"current_range_meters":27600,"station_id":"ce4bhnh2rcd13ifvqgug","pricing_plan_id":"free"},{"bike_id":"81e4ce4f-798f-4faa-b87d-f1187fb850ed","system_id":"levelo_inurba_marseille","lat":43.281548,"lon":5.42643,"is_reserved":false,"is_disabled":false,"rental_uris":{"android":"levelo://app?vid=81e4ce4f-798f-4faa-b87d-f1187fb850ed","ios":"levelo://app?vid=81e4ce4f-798f-4faa-b87d-f1187fb850ed"},"vehicle_type_id":"4","last_reported":1702012039,"current_range_meters":27600,"station_id":"ce4bhnh2rcd13ifvqgug","pricing_plan_id":"free"},{"bike_id":"fee59bde-6126-4a98-a3e0-c862515d1a23","system_id":"levelo_inurba_marseille","lat":43.281548,"lon":5.42643,"is_reserved":false,"is_disabled":false,"rental_uris":{"android":"levelo://app?vid=fee59bde-6126-4a98-a3e0-c862515d1a23","ios":"levelo://app?vid=fee59bde-6126-4a98-a3e0-c862515d1a23"},"vehicle_type_id":"4","last_reported":1702012039,"current_range_meters":30400,"station_id":"ce4bhnh2rcd13ifvqgug","pricing_plan_id":"free"},{"bike_id":"ba7ddf79-ff50-4f5c-8fc6-82d165f47152","system_id":"levelo_inurba_marseille","lat":43.281553,"lon":5.42645,"is_reserved":false,"is_disabled":false,"rental_uris":{"android":"levelo://app?vid=ba7ddf79-ff50-4f5c-8fc6-82d165f47152","ios":"levelo://app?vid=ba7ddf79-ff50-4f5c-8fc6-82d165f47152"},"vehicle_type_id":"4","last_reported":1702012039,"current_range_meters":5200,"station_id":"ce4bhnh2rcd13ifvqgug","pricing_plan_id":"free"},{"bike_id":"6c4a4127-c4de-4571-99d2-c4e93580765c","system_id":"levelo_inurba_marseille","lat":43.281548,"lon":5.42643,"is_reserved":false,"is_disabled":false,"rental_uris":{"android":"levelo://app?vid=6c4a4127-c4de-4571-99d2-c4e93580765c","ios":"levelo://app?vid=6c4a4127-c4de-4571-99d2-c4e93580765c"},"vehicle_type_id":"4","last_reported":1702012039,"current_range_meters":24000,"station_id":"ce4bhnh2rcd13ifvqgug","pricing_plan_id":"free"},{"bike_id":"fd52155b-995f-442f-88f3-33a54808a79f","system_id":"levelo_inurba_marseille","lat":43.2607,"lon":5.393983,"is_reserved":false,"is_disabled":false,"rental_uris":{"android":"levelo://app?vid=fd52155b-995f-442f-88f3-33a54808a79f","ios":"levelo://app?vid=fd52155b-995f-442f-88f3-33a54808a79f"},"vehicle_type_id":"4","last_reported":1702012039,"current_range_meters":27200,"station_id":"ce4bhh92rcd13ifvqfj0","pricing_plan_id":"free"},{"bike_id":"bc3cd7ca-a814-4505-84f2-763c60cf3c8a","system_id":"levelo_inurba_marseille","lat":43.275028,"lon":5.424534,"is_reserved":false,"is_disabled":false,"rental_uris":{"android":"levelo://app?vid=bc3cd7ca-a814-4505-84f2-763c60cf3c8a","ios":"levelo://app?vid=bc3cd7ca-a814-4505-84f2-763c60cf3c8a"},"vehicle_type_id":"4","last_reported":1702012039,"current_range_meters":28400,"station_id":"ce4bhn92rcd13ifvqgrg","pricing_plan_id":"free"},{"bike_id":"15986a00-dc65-4cd8-a2fd-e15000fe8a48","system_id":"levelo_inurba_marseille","lat":43.255778,"lon":5.382394,"is_reserved":false,"is_disabled":false,"rental_uris":{"android":"levelo://app?vid=15986a00-dc65-4cd8-a2fd-e15000fe8a48","ios":"levelo://app?vid=15986a00-dc65-4cd8-a2fd-e15000fe8a48"},"vehicle_type_id":"4","last_reported":1702012039,"current_range_meters":13600,"station_id":"ce4bhih2rcd13ifvqfs0","pricing_plan_id":"free"},{"bike_id":"d3f8d42e-7148-47c9-80b9-54e0739fd8b2","system_id":"levelo_inurba_marseille","lat":43.254947,"lon":5.376454,"is_reserved":false,"is_disabled":false,"rental_uris":{"android":"levelo://app?vid=d3f8d42e-7148-47c9-80b9-54e0739fd8b2","ios":"levelo://app?vid=d3f8d42e-7148-47c9-80b9-54e0739fd8b2"},"vehicle_type_id":"4","last_reported":1702012039,"current_range_meters":22800,"station_id":"ce4bhh12rcd13ifvqff0","pricing_plan_id":"free"},{"bike_id":"7b3c5568-a81d-4b3e-a545-3e6cf8403cc7","system_id":"levelo_inurba_marseille","lat":43.270721,"lon":5.422764,"is_reserved":false,"is_disabled":false,"rental_uris":{"android":"levelo://app?vid=7b3c5568-a81d-4b3e-a545-3e6cf8403cc7","ios":"levelo://app?vid=7b3c5568-a81d-4b3e-a545-3e6cf8403cc7"},"vehicle_type_id":"4","last_reported":1702012039,"current_range_meters":28000,"station_id":"ce4bhk92rcd13ifvqgb0","pricing_plan_id":"free"},{"bike_id":"ea6f15d6-03ac-476d-a535-2e7d3b9eaeef","system_id":"levelo_inurba_marseille","lat":43.257079,"lon":5.411051,"is_reserved":false,"is_disabled":false,"rental_uris":{"android":"levelo://app?vid=ea6f15d6-03ac-476d-a535-2e7d3b9eaeef","ios":"levelo://app?vid=ea6f15d6-03ac-476d-a535-2e7d3b9eaeef"},"vehicle_type_id":"4","last_reported":1702012039,"current_range_meters":0,"station_id":"ce4bhkp2rcd13ifvqgd0","pricing_plan_id":"free"},{"bike_id":"5e28afdb-366a-4ee2-bf4c-72dd44305a45","system_id":"levelo_inurba_marseille","lat":43.257079,"lon":5.411051,"is_reserved":false,"is_disabled":false,"rental_uris":{"android":"levelo://app?vid=5e28afdb-366a-4ee2-bf4c-72dd44305a45","ios":"levelo://app?vid=5e28afdb-366a-4ee2-bf4c-72dd44305a45"},"vehicle_type_id":"4","last_reported":1702012039,"current_range_meters":31600,"station_id":"ce4bhkp2rcd13ifvqgd0","pricing_plan_id":"free"},{"bike_id":"0626450b-ffdf-4d67-8a5c-efdeac99b8bf","system_id":"levelo_inurba_marseille","lat":43.250009,"lon":5.389195,"is_reserved":false,"is_disabled":false,"rental_uris":{"android":"levelo://app?vid=0626450b-ffdf-4d67-8a5c-efdeac99b8bf","ios":"levelo://app?vid=0626450b-ffdf-4d67-8a5c-efdeac99b8bf"},"vehicle_type_id":"4","last_reported":1702012039,"current_range_meters":14400,"station_id":"ce4bhgp2rcd13ifvqfd0","pricing_plan_id":"free"},{"bike_id":"66071b88-224e-474a-bbe6-c2665a390885","system_id":"levelo_inurba_marseille","lat":43.250009,"lon":5.389195,"is_reserved":false,"is_disabled":false,"rental_uris":{"android":"levelo://app?vid=66071b88-224e-474a-bbe6-c2665a390885","ios":"levelo://app?vid=66071b88-224e-474a-bbe6-c2665a390885"},"vehicle_type_id":"4","last_reported":1702012039,"current_range_meters":2400,"station_id":"ce4bhgp2rcd13ifvqfd0","pricing_plan_id":"free"},{"bike_id":"21d4604f-c44d-4ddc-8f4e-8f707589d17d","system_id":"levelo_inurba_marseille","lat":43.250023,"lon":5.38919,"is_reserved":false,"is_disabled":false,"rental_uris":{"android":"levelo://app?vid=21d4604f-c44d-4ddc-8f4e-8f707589d17d","ios":"levelo://app?vid=21d4604f-c44d-4ddc-8f4e-8f707589d17d"},"vehicle_type_id":"4","last_reported":1702012039,"current_range_meters":26400,"station_id":"ce4bhgp2rcd13ifvqfd0","pricing_plan_id":"free"},{"bike_id":"ddf2951b-2b04-424f-9ef1-6d8217c9e48c","system_id":"levelo_inurba_marseille","lat":43.250009,"lon":5.389195,"is_reserved":false,"is_disabled":false,"rental_uris":{"android":"levelo://app?vid=ddf2951b-2b04-424f-9ef1-6d8217c9e48c","ios":"levelo://app?vid=ddf2951b-2b04-424f-9ef1-6d8217c9e48c"},"vehicle_type_id":"4","last_reported":1702012039,"current_range_meters":31600,"station_id":"ce4bhgp2rcd13ifvqfd0","pricing_plan_id":"free"},{"bike_id":"fad639b7-807b-493a-b70a-a34e5f657928","system_id":"levelo_inurba_marseille","lat":43.2479,"lon":5.374457,"is_reserved":false,"is_disabled":false,"rental_uris":{"android":"levelo://app?vid=fad639b7-807b-493a-b70a-a34e5f657928","ios":"levelo://app?vid=fad639b7-807b-493a-b70a-a34e5f657928"},"vehicle_type_id":"4","last_reported":1702012039,"current_range_meters":30000,"station_id":"ce4bhgh2rcd13ifvqfb0","pricing_plan_id":"free"},{"bike_id":"5d2ccc17-fc28-4bfa-bbef-893d88a59d6a","system_id":"levelo_inurba_marseille","lat":43.250966,"lon":5.395186,"is_reserved":false,"is_disabled":false,"rental_uris":{"android":"levelo://app?vid=5d2ccc17-fc28-4bfa-bbef-893d88a59d6a","ios":"levelo://app?vid=5d2ccc17-fc28-4bfa-bbef-893d88a59d6a"},"vehicle_type_id":"4","last_reported":1702012039,"current_range_meters":31600,"station_id":"ce4bhm12rcd13ifvqgkg","pricing_plan_id":"free"},{"bike_id":"3aced251-1058-4a18-8bcc-61d6b363fafc","system_id":"levelo_inurba_marseille","lat":43.250966,"lon":5.395186,"is_reserved":false,"is_disabled":false,"rental_uris":{"android":"levelo://app?vid=3aced251-1058-4a18-8bcc-61d6b363fafc","ios":"levelo://app?vid=3aced251-1058-4a18-8bcc-61d6b363fafc"},"vehicle_type_id":"4","last_reported":1702012039,"current_range_meters":24400,"station_id":"ce4bhm12rcd13ifvqgkg","pricing_plan_id":"free"},{"bike_id":"c7303482-c17d-43b2-a7e0-2e7052a872dd","system_id":"levelo_inurba_marseille","lat":43.25102,"lon":5.403214,"is_reserved":false,"is_disabled":false,"rental_uris":{"android":"levelo://app?vid=c7303482-c17d-43b2-a7e0-2e7052a872dd","ios":"levelo://app?vid=c7303482-c17d-43b2-a7e0-2e7052a872dd"},"vehicle_type_id":"4","last_reported":1702012039,"current_range_meters":32000,"station_id":"ce4bhlh2rcd13ifvqgig","pricing_plan_id":"free"},{"bike_id":"1da55003-4868-4b62-a865-9df266d41606","system_id":"levelo_inurba_marseille","lat":43.25102,"lon":5.403214,"is_reserved":false,"is_disabled":false,"rental_uris":{"android":"levelo://app?vid=1da55003-4868-4b62-a865-9df266d41606","ios":"levelo://app?vid=1da55003-4868-4b62-a865-9df266d41606"},"vehicle_type_id":"4","last_reported":1702012039,"current_range_meters":14800,"station_id":"ce4bhlh2rcd13ifvqgig","pricing_plan_id":"free"},{"bike_id":"09ca0e3d-8993-4c85-ba97-10ce4be56981","system_id":"levelo_inurba_marseille","lat":43.25102,"lon":5.403214,"is_reserved":false,"is_disabled":false,"rental_uris":{"android":"levelo://app?vid=09ca0e3d-8993-4c85-ba97-10ce4be56981","ios":"levelo://app?vid=09ca0e3d-8993-4c85-ba97-10ce4be56981"},"vehicle_type_id":"4","last_reported":1702012039,"current_range_meters":13600,"station_id":"ce4bhlh2rcd13ifvqgig","pricing_plan_id":"free"},{"bike_id":"5687050d-4f5d-4497-8e79-c625c38b49e9","system_id":"levelo_inurba_marseille","lat":43.25102,"lon":5.403214,"is_reserved":false,"is_disabled":false,"rental_uris":{"android":"levelo://app?vid=5687050d-4f5d-4497-8e79-c625c38b49e9","ios":"levelo://app?vid=5687050d-4f5d-4497-8e79-c625c38b49e9"},"vehicle_type_id":"4","last_reported":1702012039,"current_range_meters":1200,"station_id":"ce4bhlh2rcd13ifvqgig","pricing_plan_id":"free"},{"bike_id":"55d4cda2-7880-44c8-8815-1b2f87dd305f","system_id":"levelo_inurba_marseille","lat":43.25109,"lon":5.40329,"is_reserved":false,"is_disabled":false,"rental_uris":{"android":"levelo://app?vid=55d4cda2-7880-44c8-8815-1b2f87dd305f","ios":"levelo://app?vid=55d4cda2-7880-44c8-8815-1b2f87dd305f"},"vehicle_type_id":"4","last_reported":1702012039,"current_range_meters":22400,"station_id":"ce4bhlh2rcd13ifvqgig","pricing_plan_id":"free"},{"bike_id":"fb810cd9-5be7-4e2c-bc9a-d07a385a98a5","system_id":"levelo_inurba_marseille","lat":43.25102,"lon":5.403214,"is_reserved":false,"is_disabled":false,"rental_uris":{"android":"levelo://app?vid=fb810cd9-5be7-4e2c-bc9a-d07a385a98a5","ios":"levelo://app?vid=fb810cd9-5be7-4e2c-bc9a-d07a385a98a5"},"vehicle_type_id":"4","last_reported":1702012039,"current_range_meters":23600,"station_id":"ce4bhlh2rcd13ifvqgig","pricing_plan_id":"free"},{"bike_id":"dc34a95e-6c55-4d91-8718-224a5f1981ce","system_id":"levelo_inurba_marseille","lat":43.245509,"lon":5.373228,"is_reserved":false,"is_disabled":false,"rental_uris":{"android":"levelo://app?vid=dc34a95e-6c55-4d91-8718-224a5f1981ce","ios":"levelo://app?vid=dc34a95e-6c55-4d91-8718-224a5f1981ce"},"vehicle_type_id":"4","last_reported":1702012039,"current_range_meters":0,"station_id":"","pricing_plan_id":"free"},{"bike_id":"a7292fcb-39d7-4f0e-a527-a2b413cdcb9d","system_id":"levelo_inurba_marseille","lat":43.245581,"lon":5.395069,"is_reserved":false,"is_disabled":false,"rental_uris":{"android":"levelo://app?vid=a7292fcb-39d7-4f0e-a527-a2b413cdcb9d","ios":"levelo://app?vid=a7292fcb-39d7-4f0e-a527-a2b413cdcb9d"},"vehicle_type_id":"4","last_reported":1702012039,"current_range_meters":30400,"station_id":"ce4bhlp2rcd13ifvqgjg","pricing_plan_id":"free"},{"bike_id":"2f056394-a08e-4cc5-a179-5bd62c626144","system_id":"levelo_inurba_marseille","lat":43.24078,"lon":5.37756,"is_reserved":false,"is_disabled":false,"rental_uris":{"android":"levelo://app?vid=2f056394-a08e-4cc5-a179-5bd62c626144","ios":"levelo://app?vid=2f056394-a08e-4cc5-a179-5bd62c626144"},"vehicle_type_id":"4","last_reported":1702012039,"current_range_meters":8800,"station_id":"ce4bhnp2rcd13ifvqgvg","pricing_plan_id":"free"},{"bike_id":"7ece5855-fe49-46dd-ba3f-2d015925612a","system_id":"levelo_inurba_marseille","lat":43.239588,"lon":5.366238,"is_reserved":false,"is_disabled":false,"rental_uris":{"android":"levelo://app?vid=7ece5855-fe49-46dd-ba3f-2d015925612a","ios":"levelo://app?vid=7ece5855-fe49-46dd-ba3f-2d015925612a"},"vehicle_type_id":"4","last_reported":1702012039,"current_range_meters":28800,"station_id":"ce4bhi12rcd13ifvqfp0","pricing_plan_id":"free"},{"bike_id":"470a57ff-1763-4604-81b7-6cd298aff3c7","system_id":"levelo_inurba_marseille","lat":43.239588,"lon":5.366238,"is_reserved":false,"is_disabled":false,"rental_uris":{"android":"levelo://app?vid=470a57ff-1763-4604-81b7-6cd298aff3c7","ios":"levelo://app?vid=470a57ff-1763-4604-81b7-6cd298aff3c7"},"vehicle_type_id":"4","last_reported":1702012039,"current_range_meters":29200,"station_id":"ce4bhi12rcd13ifvqfp0","pricing_plan_id":"free"},{"bike_id":"a14c9d06-ef96-4d73-a13a-2b3020e6b5e6","system_id":"levelo_inurba_marseille","lat":43.239588,"lon":5.366238,"is_reserved":false,"is_disabled":false,"rental_uris":{"android":"levelo://app?vid=a14c9d06-ef96-4d73-a13a-2b3020e6b5e6","ios":"levelo://app?vid=a14c9d06-ef96-4d73-a13a-2b3020e6b5e6"},"vehicle_type_id":"4","last_reported":1702012039,"current_range_meters":31600,"station_id":"ce4bhi12rcd13ifvqfp0","pricing_plan_id":"free"},{"bike_id":"6756da97-db2c-4337-aa21-556950095f65","system_id":"levelo_inurba_marseille","lat":43.241792,"lon":5.397309,"is_reserved":false,"is_disabled":false,"rental_uris":{"android":"levelo://app?vid=6756da97-db2c-4337-aa21-556950095f65","ios":"levelo://app?vid=6756da97-db2c-4337-aa21-556950095f65"},"vehicle_type_id":"4","last_reported":1702012039,"current_range_meters":5600,"station_id":"ce4bhn12rcd13ifvqgpg","pricing_plan_id":"free"},{"bike_id":"febb7c6a-3a82-4621-b837-c53042603cf4","system_id":"levelo_inurba_marseille","lat":43.231919,"lon":5.355532,"is_reserved":false,"is_disabled":false,"rental_uris":{"android":"levelo://app?vid=febb7c6a-3a82-4621-b837-c53042603cf4","ios":"levelo://app?vid=febb7c6a-3a82-4621-b837-c53042603cf4"},"vehicle_type_id":"4","last_reported":1702012039,"current_range_meters":26400,"station_id":"ce4bhu92rcd13ifvqi70","pricing_plan_id":"free"},{"bike_id":"6c4620c0-0d4d-493f-9950-4fd3c4457696","system_id":"levelo_inurba_marseille","lat":43.231794,"lon":5.400052,"is_reserved":false,"is_disabled":false,"rental_uris":{"android":"levelo://app?vid=6c4620c0-0d4d-493f-9950-4fd3c4457696","ios":"levelo://app?vid=6c4620c0-0d4d-493f-9950-4fd3c4457696"},"vehicle_type_id":"4","last_reported":1702012039,"current_range_meters":32000,"station_id":"ce4bhn12rcd13ifvqgqg","pricing_plan_id":"free"},{"bike_id":"be845917-f52e-4a9f-83ff-909546a09332","system_id":"levelo_inurba_marseille","lat":43.231794,"lon":5.400052,"is_reserved":false,"is_disabled":false,"rental_uris":{"android":"levelo://app?vid=be845917-f52e-4a9f-83ff-909546a09332","ios":"levelo://app?vid=be845917-f52e-4a9f-83ff-909546a09332"},"vehicle_type_id":"4","last_reported":1702012039,"current_range_meters":32000,"station_id":"ce4bhn12rcd13ifvqgqg","pricing_plan_id":"free"},{"bike_id":"51bd0e75-103f-4c34-a127-bc9329dc93a4","system_id":"levelo_inurba_marseille","lat":43.231794,"lon":5.400052,"is_reserved":false,"is_disabled":false,"rental_uris":{"android":"levelo://app?vid=51bd0e75-103f-4c34-a127-bc9329dc93a4","ios":"levelo://app?vid=51bd0e75-103f-4c34-a127-bc9329dc93a4"},"vehicle_type_id":"4","last_reported":1702012039,"current_range_meters":13600,"station_id":"ce4bhn12rcd13ifvqgqg","pricing_plan_id":"free"},{"bike_id":"db8ee247-5c27-465c-9667-2bac338a063a","system_id":"levelo_inurba_marseille","lat":43.231794,"lon":5.400052,"is_reserved":false,"is_disabled":false,"rental_uris":{"android":"levelo://app?vid=db8ee247-5c27-465c-9667-2bac338a063a","ios":"levelo://app?vid=db8ee247-5c27-465c-9667-2bac338a063a"},"vehicle_type_id":"4","last_reported":1702012039,"current_range_meters":19200,"station_id":"ce4bhn12rcd13ifvqgqg","pricing_plan_id":"free"},{"bike_id":"10da1a3b-e2ae-4935-9987-5ceaccc8f64a","system_id":"levelo_inurba_marseille","lat":43.231794,"lon":5.400052,"is_reserved":false,"is_disabled":false,"rental_uris":{"android":"levelo://app?vid=10da1a3b-e2ae-4935-9987-5ceaccc8f64a","ios":"levelo://app?vid=10da1a3b-e2ae-4935-9987-5ceaccc8f64a"},"vehicle_type_id":"4","last_reported":1702012039,"current_range_meters":1200,"station_id":"ce4bhn12rcd13ifvqgqg","pricing_plan_id":"free"},{"bike_id":"d10e18e5-958b-4f0f-924e-6ab510f4f95c","system_id":"levelo_inurba_marseille","lat":43.231794,"lon":5.400052,"is_reserved":false,"is_disabled":false,"rental_uris":{"android":"levelo://app?vid=d10e18e5-958b-4f0f-924e-6ab510f4f95c","ios":"levelo://app?vid=d10e18e5-958b-4f0f-924e-6ab510f4f95c"},"vehicle_type_id":"4","last_reported":1702012039,"current_range_meters":24000,"station_id":"ce4bhn12rcd13ifvqgqg","pricing_plan_id":"free"},{"bike_id":"6c3e3c9e-4b18-4000-ba39-0358b7d7d901","system_id":"levelo_inurba_marseille","lat":43.231562,"lon":5.436933,"is_reserved":false,"is_disabled":false,"rental_uris":{"android":"levelo://app?vid=6c3e3c9e-4b18-4000-ba39-0358b7d7d901","ios":"levelo://app?vid=6c3e3c9e-4b18-4000-ba39-0358b7d7d901"},"vehicle_type_id":"4","last_reported":1702012039,"current_range_meters":25200,"station_id":"ce4bhmp2rcd13ifvqgog","pricing_plan_id":"free"},{"bike_id":"52185dc8-f8c9-4df9-8092-bb2437fd062c","system_id":"levelo_inurba_marseille","lat":43.231562,"lon":5.436933,"is_reserved":false,"is_disabled":false,"rental_uris":{"android":"levelo://app?vid=52185dc8-f8c9-4df9-8092-bb2437fd062c","ios":"levelo://app?vid=52185dc8-f8c9-4df9-8092-bb2437fd062c"},"vehicle_type_id":"4","last_reported":1702012039,"current_range_meters":28400,"station_id":"ce4bhmp2rcd13ifvqgog","pricing_plan_id":"free"}]}}