{"last_updated":1735236745,"ttl":60,"version":"2.2","data":{"bikes":[{"bike_id":"02f10b7d-aaef-415b-8fe3-cae349f4991b","system_id":"levelo_inurba_marseille","lat":43.29537,"lon":5.38535,"is_reserved":false,"is_disabled":false,"rental_uris":{"android":"levelo://app?vid=02f10b7d-aaef-415b-8fe3-cae349f4991b","ios":"levelo://app?vid=02f10b7d-aaef-415b-8fe3-cae349f4991b"},"vehicle_type_id":"4","last_reported":1735236745,"current_range_meters":19200,"station_id":"ce4bgih2rcd13ifvqba0","pricing_plan_id":"cebpf4jnsgd1na2vs0mg"},{"bike_id":"5238aba4-0817-405d-b4a5-1b647b1d378d","system_id":"levelo_inurba_marseille","lat":43.27904,"lon":5.38004,"is_reserved":false,"is_disabled":false,"rental_uris":{"android":"levelo://app?vid=5238aba4-0817-405d-b4a5-1b647b1d378d","ios":"levelo://app?vid=5238aba4-0817-405d-b4a5-1b647b1d378d"},"vehicle_type_id":"4","last_reported":1735236745,"current_range_meters":35600,"station_id":"ce4bhf92rcd13ifvqf50","pricing_plan_id":"cebpf4jnsgd1na2vs0mg"},{"bike_id":"015f3506-0edf-4591-879e-490275f7a7d2","system_id":"levelo_inurba_marseille","lat":43.23961,"lon":5.36627,"is_reserved":false,"is_disabled":false,"rental_uris":{"android":"levelo://app?vid=015f3506-0edf-4591-879e-490275f7a7d2","ios":"levelo://app?vid=015f3506-0edf-4591-879e-490275f7a7d2"},"vehicle_type_id":"4","last_reported":1735236745,"current_range_meters":29600,"station_id":"ce4bhi12rcd13ifvqfp0","pricing_plan_id":"cebpf4jnsgd1na2vs0mg"},{"bike_id":"1f14806d-ae11-4061-998c-72dada3be529","system_id":"levelo_inurba_marseille","lat":43.28039,"lon":5.36946,"is_reserved":false,"is_disabled":false,"rental_uris":{"android":"levelo://app?vid=1f14806d-ae11-4061-998c-72dada3be529","ios":"levelo://app?vid=1f14806d-ae11-4061-998c-72dada3be529"},"vehicle_type_id":"4","last_reported":1735236745,"current_range_meters":38800,"station_id":"ce4bha12rcd13ifvqef0","pricing_plan_id":"cebpf4jnsgd1na2vs0mg"},{"bike_id":"3991aac2-ec7f-43c8-801f-23e11845f2d6","system_id":"levelo_inurba_marseille","lat":43.281584,"lon":5.426409,"is_reserved":false,"is_disabled":false,"rental_uris":{"android":"levelo://app?vid=3991aac2-ec7f-43c8-801f-23e11845f2d6","ios":"levelo://app?vid=3991aac2-ec7f-43c8-801f-23e11845f2d6"},"vehicle_type_id":"4","last_reported":1735236745,"current_range_meters":28800,"station_id":"ce4bhnh2rcd13ifvqgug","pricing_plan_id":"cebpf4jnsgd1na2vs0mg"},{"bike_id":"824f6596-47f6-4a02-884f-bd30755dd16b","system_id":"levelo_inurba_marseille","lat":43.28396,"lon":5.3863,"is_reserved":false,"is_disabled":false,"rental_uris":{"android":"levelo://app?vid=824f6596-47f6-4a02-884f-bd30755dd16b","ios":"levelo://app?vid=824f6596-47f6-4a02-884f-bd30755dd16b"},"vehicle_type_id":"4","last_reported":1735236745,"current_range_meters":38800,"station_id":"ce4bh492rcd13ifvqdvg","pricing_plan_id":"cebpf4jnsgd1na2vs0mg"},{"bike_id":"aa910906-3ca2-4107-80e1-4fe46d1472a6","system_id":"levelo_inurba_marseille","lat":43.32053,"lon":5.41567,"is_reserved":false,"is_disabled":false,"rental_uris":{"android":"levelo://app?vid=aa910906-3ca2-4107-80e1-4fe46d1472a6","ios":"levelo://app?vid=aa910906-3ca2-4107-80e1-4fe46d1472a6"},"vehicle_type_id":"4","last_reported":1735236745,"current_range_meters":38400,"station_id":"ce4bhq92rcd13ifvqhkg","pricing_plan_id":"cebpf4jnsgd1na2vs0mg"},{"bike_id":"5bfe94d5-2cce-4274-80d3-9bbbc4710bf2","system_id":"levelo_inurba_marseille","lat":43.24549,"lon":5.39523,"is_reserved":false,"is_disabled":false,"rental_uris":{"android":"levelo://app?vid=5bfe94d5-2cce-4274-80d3-9bbbc4710bf2","ios":"levelo://app?vid=5bfe94d5-2cce-4274-80d3-9bbbc4710bf2"},"vehicle_type_id":"4","last_reported":1735236745,"current_range_meters":38800,"station_id":"ce4bhlp2rcd13ifvqgjg","pricing_plan_id":"cebpf4jnsgd1na2vs0mg"},{"bike_id":"a14d744f-7e07-417c-ab27-34286df72687","system_id":"levelo_inurba_marseille","lat":43.23191,"lon":5.35544,"is_reserved":false,"is_disabled":false,"rental_uris":{"android":"levelo://app?vid=a14d744f-7e07-417c-ab27-34286df72687","ios":"levelo://app?vid=a14d744f-7e07-417c-ab27-34286df72687"},"vehicle_type_id":"4","last_reported":1735236745,"current_range_meters":7200,"station_id":"ce4bhu92rcd13ifvqi70","pricing_plan_id":"cebpf4jnsgd1na2vs0mg"},{"bike_id":"62830286-ce4d-4292-a5e5-633153eb8a94","system_id":"levelo_inurba_marseille","lat":43.30535,"lon":5.36722,"is_reserved":false,"is_disabled":false,"rental_uris":{"android":"levelo://app?vid=62830286-ce4d-4292-a5e5-633153eb8a94","ios":"levelo://app?vid=62830286-ce4d-4292-a5e5-633153eb8a94"},"vehicle_type_id":"4","last_reported":1735236745,"current_range_meters":27200,"station_id":"ce4bgrp2rcd13ifvqc9g","pricing_plan_id":"cebpf4jnsgd1na2vs0mg"},{"bike_id":"005093bd-bc75-4130-9b81-85c3a4edf08f","system_id":"levelo_inurba_marseille","lat":43.27212,"lon":5.39175,"is_reserved":false,"is_disabled":false,"rental_uris":{"android":"levelo://app?vid=005093bd-bc75-4130-9b81-85c3a4edf08f","ios":"levelo://app?vid=005093bd-bc75-4130-9b81-85c3a4edf08f"},"vehicle_type_id":"4","last_reported":1735236745,"current_range_meters":34800,"station_id":"ce4bhhp2rcd13ifvqfm0","pricing_plan_id":"cebpf4jnsgd1na2vs0mg"},{"bike_id":"5bee95f1-fdd3-4371-a9d2-156b6c2cb6af","system_id":"levelo_inurba_marseille","lat":43.26949,"lon":5.38626,"is_reserved":false,"is_disabled":false,"rental_uris":{"android":"levelo://app?vid=5bee95f1-fdd3-4371-a9d2-156b6c2cb6af","ios":"levelo://app?vid=5bee95f1-fdd3-4371-a9d2-156b6c2cb6af"},"vehicle_type_id":"4","last_reported":1735236745,"current_range_meters":22800,"station_id":"ce4bhh92rcd13ifvqfh0","pricing_plan_id":"cebpf4jnsgd1na2vs0mg"},{"bike_id":"872535a4-a461-4568-a9f7-bd4abc96066a","system_id":"levelo_inurba_marseille","lat":43.29848,"lon":5.36281,"is_reserved":false,"is_disabled":false,"rental_uris":{"android":"levelo://app?vid=872535a4-a461-4568-a9f7-bd4abc96066a","ios":"levelo://app?vid=872535a4-a461-4568-a9f7-bd4abc96066a"},"vehicle_type_id":"4","last_reported":1735236745,"current_range_meters":38400,"station_id":"ce4bgpp2rcd13ifvqc3g","pricing_plan_id":"cebpf4jnsgd1na2vs0mg"},{"bike_id":"d4663405-bee1-476b-a9e6-b188d9eda682","system_id":"levelo_inurba_marseille","lat":43.30567,"lon":5.36739,"is_reserved":false,"is_disabled":false,"rental_uris":{"android":"levelo://app?vid=d4663405-bee1-476b-a9e6-b188d9eda682","ios":"levelo://app?vid=d4663405-bee1-476b-a9e6-b188d9eda682"},"vehicle_type_id":"4","last_reported":1735236745,"current_range_meters":35600,"station_id":"ce4bgrp2rcd13ifvqc9g","pricing_plan_id":"cebpf4jnsgd1na2vs0mg"},{"bike_id":"29b5973a-1be5-4295-9921-c4c07a270d38","system_id":"levelo_inurba_marseille","lat":43.29266,"lon":5.38447,"is_reserved":false,"is_disabled":false,"rental_uris":{"android":"levelo://app?vid=29b5973a-1be5-4295-9921-c4c07a270d38","ios":"levelo://app?vid=29b5973a-1be5-4295-9921-c4c07a270d38"},"vehicle_type_id":"4","last_reported":1735236745,"current_range_meters":29600,"station_id":"ce4bh692rcd13ifvqea0","pricing_plan_id":"cebpf4jnsgd1na2vs0mg"},{"bike_id":"ff891e39-252b-4d4e-8692-37efe0bea514","system_id":"levelo_inurba_marseille","lat":43.27946,"lon":5.41046,"is_reserved":false,"is_disabled":false,"rental_uris":{"android":"levelo://app?vid=ff891e39-252b-4d4e-8692-37efe0bea514","ios":"levelo://app?vid=ff891e39-252b-4d4e-8692-37efe0bea514"},"vehicle_type_id":"4","last_reported":1735236745,"current_range_meters":38800,"station_id":"ce4bhnp2rcd13ifvqh0g","pricing_plan_id":"cebpf4jnsgd1na2vs0mg"},{"bike_id":"3fcb2f6f-39f4-445d-a829-8626c3812c7e","system_id":"levelo_inurba_marseille","lat":43.27676,"lon":5.38919,"is_reserved":false,"is_disabled":false,"rental_uris":{"android":"levelo://app?vid=3fcb2f6f-39f4-445d-a829-8626c3812c7e","ios":"levelo://app?vid=3fcb2f6f-39f4-445d-a829-8626c3812c7e"},"vehicle_type_id":"4","last_reported":1735236745,"current_range_meters":29600,"station_id":"ce4bhi12rcd13ifvqfo0","pricing_plan_id":"cebpf4jnsgd1na2vs0mg"},{"bike_id":"54e82adf-653a-40bc-8212-b0e67d34d16f","system_id":"levelo_inurba_marseille","lat":43.29926,"lon":5.36521,"is_reserved":false,"is_disabled":false,"rental_uris":{"android":"levelo://app?vid=54e82adf-653a-40bc-8212-b0e67d34d16f","ios":"levelo://app?vid=54e82adf-653a-40bc-8212-b0e67d34d16f"},"vehicle_type_id":"4","last_reported":1735236745,"current_range_meters":11600,"station_id":"ce4bgm92rcd13ifvqbr0","pricing_plan_id":"cebpf4jnsgd1na2vs0mg"},{"bike_id":"7bf56867-f147-4165-89ee-4c8ea1ec9c93","system_id":"levelo_inurba_marseille","lat":43.29912,"lon":5.436537,"is_reserved":false,"is_disabled":false,"rental_uris":{"android":"levelo://app?vid=7bf56867-f147-4165-89ee-4c8ea1ec9c93","ios":"levelo://app?vid=7bf56867-f147-4165-89ee-4c8ea1ec9c93"},"vehicle_type_id":"4","last_reported":1735236745,"current_range_meters":37600,"station_id":"ce4bhpp2rcd13ifvqhfg","pricing_plan_id":"cebpf4jnsgd1na2vs0mg"},{"bike_id":"857344dd-6be1-4d34-90e7-6f62afbbef2e","system_id":"levelo_inurba_marseille","lat":43.32112,"lon":5.36771,"is_reserved":false,"is_disabled":false,"rental_uris":{"android":"levelo://app?vid=857344dd-6be1-4d34-90e7-6f62afbbef2e","ios":"levelo://app?vid=857344dd-6be1-4d34-90e7-6f62afbbef2e"},"vehicle_type_id":"4","last_reported":1735236745,"current_range_meters":10000,"station_id":"ce4bhrh2rcd13ifvqhug","pricing_plan_id":"cebpf4jnsgd1na2vs0mg"},{"bike_id":"8bb784aa-04c9-4996-8ca8-ea4b00c12859","system_id":"levelo_inurba_marseille","lat":43.30144,"lon":5.36645,"is_reserved":false,"is_disabled":false,"rental_uris":{"android":"levelo://app?vid=8bb784aa-04c9-4996-8ca8-ea4b00c12859","ios":"levelo://app?vid=8bb784aa-04c9-4996-8ca8-ea4b00c12859"},"vehicle_type_id":"4","last_reported":1735236745,"current_range_meters":38800,"station_id":"","pricing_plan_id":"cebpf4jnsgd1na2vs0mg"},{"bike_id":"2323b689-4795-4298-a07d-2ce3fc33a22a","system_id":"levelo_inurba_marseille","lat":43.28679,"lon":5.38681,"is_reserved":false,"is_disabled":false,"rental_uris":{"android":"levelo://app?vid=2323b689-4795-4298-a07d-2ce3fc33a22a","ios":"levelo://app?vid=2323b689-4795-4298-a07d-2ce3fc33a22a"},"vehicle_type_id":"4","last_reported":1735236745,"current_range_meters":26800,"station_id":"ce4bh492rcd13ifvqdug","pricing_plan_id":"cebpf4jnsgd1na2vs0mg"},{"bike_id":"4bd7f16b-a13a-408c-8f0b-645b687ee475","system_id":"levelo_inurba_marseille","lat":43.2408,"lon":5.37751,"is_reserved":false,"is_disabled":false,"rental_uris":{"android":"levelo://app?vid=4bd7f16b-a13a-408c-8f0b-645b687ee475","ios":"levelo://app?vid=4bd7f16b-a13a-408c-8f0b-645b687ee475"},"vehicle_type_id":"4","last_reported":1735236745,"current_range_meters":4400,"station_id":"ce4bhnp2rcd13ifvqgvg","pricing_plan_id":"cebpf4jnsgd1na2vs0mg"},{"bike_id":"d8ea974a-4a73-4aa7-892d-99d6b6bac9b7","system_id":"levelo_inurba_marseille","lat":43.29524,"lon":5.38531,"is_reserved":false,"is_disabled":false,"rental_uris":{"android":"levelo://app?vid=d8ea974a-4a73-4aa7-892d-99d6b6bac9b7","ios":"levelo://app?vid=d8ea974a-4a73-4aa7-892d-99d6b6bac9b7"},"vehicle_type_id":"4","last_reported":1735236745,"current_range_meters":24400,"station_id":"ce4bgih2rcd13ifvqba0","pricing_plan_id":"cebpf4jnsgd1na2vs0mg"},{"bike_id":"ad66ce9d-e2b2-4064-ae7f-fe87403c632b","system_id":"levelo_inurba_marseille","lat":43.23068,"lon":5.35492,"is_reserved":false,"is_disabled":false,"rental_uris":{"android":"levelo://app?vid=ad66ce9d-e2b2-4064-ae7f-fe87403c632b","ios":"levelo://app?vid=ad66ce9d-e2b2-4064-ae7f-fe87403c632b"},"vehicle_type_id":"4","last_reported":1735236745,"current_range_meters":28000,"station_id":"cpo3342slgdg3j2ifvpg","pricing_plan_id":"cebpf4jnsgd1na2vs0mg"},{"bike_id":"67bcc128-08c2-4bfd-b7d0-8acd4de18b90","system_id":"levelo_inurba_marseille","lat":43.30528,"lon":5.36702,"is_reserved":false,"is_disabled":false,"rental_uris":{"android":"levelo://app?vid=67bcc128-08c2-4bfd-b7d0-8acd4de18b90","ios":"levelo://app?vid=67bcc128-08c2-4bfd-b7d0-8acd4de18b90"},"vehicle_type_id":"4","last_reported":1735236745,"current_range_meters":36400,"station_id":"ce4bgrp2rcd13ifvqc9g","pricing_plan_id":"cebpf4jnsgd1na2vs0mg"},{"bike_id":"a3a85065-5c0f-4c89-837f-a26b6602dea6","system_id":"levelo_inurba_marseille","lat":43.29614,"lon":5.37724,"is_reserved":false,"is_disabled":false,"rental_uris":{"android":"levelo://app?vid=a3a85065-5c0f-4c89-837f-a26b6602dea6","ios":"levelo://app?vid=a3a85065-5c0f-4c89-837f-a26b6602dea6"},"vehicle_type_id":"4","last_reported":1735236745,"current_range_meters":18000,"station_id":"ce4bgi92rcd13ifvqb90","pricing_plan_id":"cebpf4jnsgd1na2vs0mg"},{"bike_id":"b6177d1e-6d38-4f86-a67a-338ec6123e3f","system_id":"levelo_inurba_marseille","lat":43.30422,"lon":5.41278,"is_reserved":false,"is_disabled":false,"rental_uris":{"android":"levelo://app?vid=b6177d1e-6d38-4f86-a67a-338ec6123e3f","ios":"levelo://app?vid=b6177d1e-6d38-4f86-a67a-338ec6123e3f"},"vehicle_type_id":"4","last_reported":1735236745,"current_range_meters":16800,"station_id":"ce4bhop2rcd13ifvqh8g","pricing_plan_id":"cebpf4jnsgd1na2vs0mg"},{"bike_id":"cde5a6f0-d593-42b1-864e-b923ad3f4516","system_id":"levelo_inurba_marseille","lat":43.30594,"lon":5.39331,"is_reserved":false,"is_disabled":false,"rental_uris":{"android":"levelo://app?vid=cde5a6f0-d593-42b1-864e-b923ad3f4516","ios":"levelo://app?vid=cde5a6f0-d593-42b1-864e-b923ad3f4516"},"vehicle_type_id":"4","last_reported":1735236745,"current_range_meters":38800,"station_id":"ce4bh0p2rcd13ifvqd80","pricing_plan_id":"cebpf4jnsgd1na2vs0mg"},{"bike_id":"d0533ccb-11ce-46dc-9cca-daa9f7a4985a","system_id":"levelo_inurba_marseille","lat":43.29557,"lon":5.42271,"is_reserved":false,"is_disabled":false,"rental_uris":{"android":"levelo://app?vid=d0533ccb-11ce-46dc-9cca-daa9f7a4985a","ios":"levelo://app?vid=d0533ccb-11ce-46dc-9cca-daa9f7a4985a"},"vehicle_type_id":"4","last_reported":1735236745,"current_range_meters":39200,"station_id":"ce4bhph2rcd13ifvqhdg","pricing_plan_id":"cebpf4jnsgd1na2vs0mg"},{"bike_id":"ac95d1cb-d626-48af-93c3-abfa3f2c06b2","system_id":"levelo_inurba_marseille","lat":43.29606,"lon":5.37698,"is_reserved":false,"is_disabled":false,"rental_uris":{"android":"levelo://app?vid=ac95d1cb-d626-48af-93c3-abfa3f2c06b2","ios":"levelo://app?vid=ac95d1cb-d626-48af-93c3-abfa3f2c06b2"},"vehicle_type_id":"4","last_reported":1735236745,"current_range_meters":30800,"station_id":"ce4bgi92rcd13ifvqb90","pricing_plan_id":"cebpf4jnsgd1na2vs0mg"},{"bike_id":"648f7b41-6558-4508-9484-4305a1485141","system_id":"levelo_inurba_marseille","lat":43.30449,"lon":5.3888,"is_reserved":false,"is_disabled":false,"rental_uris":{"android":"levelo://app?vid=648f7b41-6558-4508-9484-4305a1485141","ios":"levelo://app?vid=648f7b41-6558-4508-9484-4305a1485141"},"vehicle_type_id":"4","last_reported":1735236745,"current_range_meters":39200,"station_id":"ce4bgk12rcd13ifvqbi0","pricing_plan_id":"cebpf4jnsgd1na2vs0mg"},{"bike_id":"b32fb18a-c8a8-4404-98aa-9a585746a89d","system_id":"levelo_inurba_marseille","lat":43.32044,"lon":5.41541,"is_reserved":false,"is_disabled":false,"rental_uris":{"android":"levelo://app?vid=b32fb18a-c8a8-4404-98aa-9a585746a89d","ios":"levelo://app?vid=b32fb18a-c8a8-4404-98aa-9a585746a89d"},"vehicle_type_id":"4","last_reported":1735236745,"current_range_meters":32000,"station_id":"ce4bhq92rcd13ifvqhkg","pricing_plan_id":"cebpf4jnsgd1na2vs0mg"},{"bike_id":"77ad1453-2c50-429f-a767-e472764a7a77","system_id":"levelo_inurba_marseille","lat":43.25817,"lon":5.39419,"is_reserved":false,"is_disabled":false,"rental_uris":{"android":"levelo://app?vid=77ad1453-2c50-429f-a767-e472764a7a77","ios":"levelo://app?vid=77ad1453-2c50-429f-a767-e472764a7a77"},"vehicle_type_id":"4","last_reported":1735236745,"current_range_meters":7200,"station_id":"ce4bhip2rcd13ifvqft0","pricing_plan_id":"cebpf4jnsgd1na2vs0mg"},{"bike_id":"61b6d437-e950-46a2-8cbf-76c4bc393d6f","system_id":"levelo_inurba_marseille","lat":43.2708,"lon":5.42267,"is_reserved":false,"is_disabled":false,"rental_uris":{"android":"levelo://app?vid=61b6d437-e950-46a2-8cbf-76c4bc393d6f","ios":"levelo://app?vid=61b6d437-e950-46a2-8cbf-76c4bc393d6f"},"vehicle_type_id":"4","last_reported":1735236745,"current_range_meters":8800,"station_id":"ce4bhk92rcd13ifvqgb0","pricing_plan_id":"cebpf4jnsgd1na2vs0mg"},{"bike_id":"708391b3-36c8-4884-938c-40ac8ddeb2d4","system_id":"levelo_inurba_marseille","lat":43.30211,"lon":5.39468,"is_reserved":false,"is_disabled":false,"rental_uris":{"android":"levelo://app?vid=708391b3-36c8-4884-938c-40ac8ddeb2d4","ios":"levelo://app?vid=708391b3-36c8-4884-938c-40ac8ddeb2d4"},"vehicle_type_id":"4","last_reported":1735236745,"current_range_meters":36800,"station_id":"ce4bh0p2rcd13ifvqd70","pricing_plan_id":"cebpf4jnsgd1na2vs0mg"},{"bike_id":"417a3b93-35ae-43df-b252-fc6e1dccb29d","system_id":"levelo_inurba_marseille","lat":43.30134,"lon":5.39854,"is_reserved":false,"is_disabled":false,"rental_uris":{"android":"levelo://app?vid=417a3b93-35ae-43df-b252-fc6e1dccb29d","ios":"levelo://app?vid=417a3b93-35ae-43df-b252-fc6e1dccb29d"},"vehicle_type_id":"4","last_reported":1735236745,"current_range_meters":38800,"station_id":"ce4bh0h2rcd13ifvqd40","pricing_plan_id":"cebpf4jnsgd1na2vs0mg"},{"bike_id":"41d9a8e5-cfac-4d9e-813b-916758ce5708","system_id":"levelo_inurba_marseille","lat":43.29974,"lon":5.38486,"is_reserved":false,"is_disabled":false,"rental_uris":{"android":"levelo://app?vid=41d9a8e5-cfac-4d9e-813b-916758ce5708","ios":"levelo://app?vid=41d9a8e5-cfac-4d9e-813b-916758ce5708"},"vehicle_type_id":"4","last_reported":1735236745,"current_range_meters":38800,"station_id":"ce4bgj92rcd13ifvqbd0","pricing_plan_id":"cebpf4jnsgd1na2vs0mg"},{"bike_id":"2b08ca99-c6f3-4395-ab2d-aeebc3305aa4","system_id":"levelo_inurba_marseille","lat":43.33747,"lon":5.37502,"is_reserved":false,"is_disabled":false,"rental_uris":{"android":"levelo://app?vid=2b08ca99-c6f3-4395-ab2d-aeebc3305aa4","ios":"levelo://app?vid=2b08ca99-c6f3-4395-ab2d-aeebc3305aa4"},"vehicle_type_id":"4","last_reported":1735236745,"current_range_meters":36000,"station_id":"","pricing_plan_id":"cebpf4jnsgd1na2vs0mg"},{"bike_id":"23e25e04-dd29-4836-8ab5-f117edae0dca","system_id":"levelo_inurba_marseille","lat":43.30132,"lon":5.37411,"is_reserved":false,"is_disabled":false,"rental_uris":{"android":"levelo://app?vid=23e25e04-dd29-4836-8ab5-f117edae0dca","ios":"levelo://app?vid=23e25e04-dd29-4836-8ab5-f117edae0dca"},"vehicle_type_id":"4","last_reported":1735236745,"current_range_meters":39200,"station_id":"ce4bgs92rcd13ifvqcc0","pricing_plan_id":"cebpf4jnsgd1na2vs0mg"},{"bike_id":"dbe70d38-abd2-4f61-8ff9-dab515c26a03","system_id":"levelo_inurba_marseille","lat":43.28682,"lon":5.38662,"is_reserved":false,"is_disabled":false,"rental_uris":{"android":"levelo://app?vid=dbe70d38-abd2-4f61-8ff9-dab515c26a03","ios":"levelo://app?vid=dbe70d38-abd2-4f61-8ff9-dab515c26a03"},"vehicle_type_id":"4","last_reported":1735236745,"current_range_meters":25600,"station_id":"ce4bh492rcd13ifvqdug","pricing_plan_id":"cebpf4jnsgd1na2vs0mg"},{"bike_id":"b127a35d-b7ce-4f77-8d9a-e00b19875b1d","system_id":"levelo_inurba_marseille","lat":43.29539,"lon":5.37507,"is_reserved":false,"is_disabled":false,"rental_uris":{"android":"levelo://app?vid=b127a35d-b7ce-4f77-8d9a-e00b19875b1d","ios":"levelo://app?vid=b127a35d-b7ce-4f77-8d9a-e00b19875b1d"},"vehicle_type_id":"4","last_reported":1735236745,"current_range_meters":30400,"station_id":"ce4bgkp2rcd13ifvqbmg","pricing_plan_id":"cebpf4jnsgd1na2vs0mg"},{"bike_id":"4136efec-4f35-4699-bd97-0d1d0c248792","system_id":"levelo_inurba_marseille","lat":43.30316,"lon":5.36889,"is_reserved":false,"is_disabled":false,"rental_uris":{"android":"levelo://app?vid=4136efec-4f35-4699-bd97-0d1d0c248792","ios":"levelo://app?vid=4136efec-4f35-4699-bd97-0d1d0c248792"},"vehicle_type_id":"4","last_reported":1735236745,"current_range_meters":38800,"station_id":"ce4bgqh2rcd13ifvqc5g","pricing_plan_id":"cebpf4jnsgd1na2vs0mg"},{"bike_id":"33e4c278-497a-4992-9269-3f4bd7a2ca60","system_id":"levelo_inurba_marseille","lat":43.29924,"lon":5.37463,"is_reserved":false,"is_disabled":false,"rental_uris":{"android":"levelo://app?vid=33e4c278-497a-4992-9269-3f4bd7a2ca60","ios":"levelo://app?vid=33e4c278-497a-4992-9269-3f4bd7a2ca60"},"vehicle_type_id":"4","last_reported":1735236745,"current_range_meters":34000,"station_id":"ce4bgjh2rcd13ifvqbg0","pricing_plan_id":"cebpf4jnsgd1na2vs0mg"},{"bike_id":"14d9b2d2-6dc9-4a7b-abf6-fbe9412ed1ce","system_id":"levelo_inurba_marseille","lat":43.32651,"lon":5.40993,"is_reserved":false,"is_disabled":false,"rental_uris":{"android":"levelo://app?vid=14d9b2d2-6dc9-4a7b-abf6-fbe9412ed1ce","ios":"levelo://app?vid=14d9b2d2-6dc9-4a7b-abf6-fbe9412ed1ce"},"vehicle_type_id":"4","last_reported":1735236745,"current_range_meters":11600,"station_id":"ce4bhpp2rcd13ifvqhgg","pricing_plan_id":"cebpf4jnsgd1na2vs0mg"},{"bike_id":"b3933d73-bb2c-4d70-9a68-9ee5804063aa","system_id":"levelo_inurba_marseille","lat":43.32369,"lon":5.38884,"is_reserved":false,"is_disabled":false,"rental_uris":{"android":"levelo://app?vid=b3933d73-bb2c-4d70-9a68-9ee5804063aa","ios":"levelo://app?vid=b3933d73-bb2c-4d70-9a68-9ee5804063aa"},"vehicle_type_id":"4","last_reported":1735236745,"current_range_meters":17600,"station_id":"ce4bhqp2rcd13ifvqhog","pricing_plan_id":"cebpf4jnsgd1na2vs0mg"},{"bike_id":"1f4fd47a-ad3a-4ab3-8d6d-677a74d1c57f","system_id":"levelo_inurba_marseille","lat":43.29529,"lon":5.38537,"is_reserved":false,"is_disabled":false,"rental_uris":{"android":"levelo://app?vid=1f4fd47a-ad3a-4ab3-8d6d-677a74d1c57f","ios":"levelo://app?vid=1f4fd47a-ad3a-4ab3-8d6d-677a74d1c57f"},"vehicle_type_id":"4","last_reported":1735236745,"current_range_meters":27200,"station_id":"ce4bgih2rcd13ifvqba0","pricing_plan_id":"cebpf4jnsgd1na2vs0mg"},{"bike_id":"b5656570-3315-4cb5-bf48-7ff14d1a0a27","system_id":"levelo_inurba_marseille","lat":43.29543,"lon":5.37505,"is_reserved":false,"is_disabled":false,"rental_uris":{"android":"levelo://app?vid=b5656570-3315-4cb5-bf48-7ff14d1a0a27","ios":"levelo://app?vid=b5656570-3315-4cb5-bf48-7ff14d1a0a27"},"vehicle_type_id":"4","last_reported":1735236745,"current_range_meters":16000,"station_id":"ce4bgkp2rcd13ifvqbmg","pricing_plan_id":"cebpf4jnsgd1na2vs0mg"},{"bike_id":"a0898d4b-2086-47da-9ba0-4953b8186d9a","system_id":"levelo_inurba_marseille","lat":43.23963,"lon":5.36623,"is_reserved":false,"is_disabled":false,"rental_uris":{"android":"levelo://app?vid=a0898d4b-2086-47da-9ba0-4953b8186d9a","ios":"levelo://app?vid=a0898d4b-2086-47da-9ba0-4953b8186d9a"},"vehicle_type_id":"4","last_reported":1735236745,"current_range_meters":19600,"station_id":"ce4bhi12rcd13ifvqfp0","pricing_plan_id":"cebpf4jnsgd1na2vs0mg"},{"bike_id":"ec31cf3c-cb5a-4639-89ed-66c774666725","system_id":"levelo_inurba_marseille","lat":43.25721,"lon":5.41111,"is_reserved":false,"is_disabled":false,"rental_uris":{"android":"levelo://app?vid=ec31cf3c-cb5a-4639-89ed-66c774666725","ios":"levelo://app?vid=ec31cf3c-cb5a-4639-89ed-66c774666725"},"vehicle_type_id":"4","last_reported":1735236745,"current_range_meters":28800,"station_id":"ce4bhkp2rcd13ifvqgd0","pricing_plan_id":"cebpf4jnsgd1na2vs0mg"},{"bike_id":"688d0d99-20f1-4fc1-971f-5e39b1819456","system_id":"levelo_inurba_marseille","lat":43.279388,"lon":5.401076,"is_reserved":false,"is_disabled":true,"rental_uris":{"android":"levelo://app?vid=688d0d99-20f1-4fc1-971f-5e39b1819456","ios":"levelo://app?vid=688d0d99-20f1-4fc1-971f-5e39b1819456"},"vehicle_type_id":"4","last_reported":1735236745,"current_range_meters":1600,"station_id":"","pricing_plan_id":"cebpf4jnsgd1na2vs0mg"},{"bike_id":"f6db5ba7-3661-49c0-9dd6-828f8bee9f80","system_id":"levelo_inurba_marseille","lat":43.29967,"lon":5.3851,"is_reserved":false,"is_disabled":false,"rental_uris":{"android":"levelo://app?vid=f6db5ba7-3661-49c0-9dd6-828f8bee9f80","ios":"levelo://app?vid=f6db5ba7-3661-49c0-9dd6-828f8bee9f80"},"vehicle_type_id":"4","last_reported":1735236745,"current_range_meters":24400,"station_id":"ce4bgj92rcd13ifvqbd0","pricing_plan_id":"cebpf4jnsgd1na2vs0mg"},{"bike_id":"0b160e29-7510-40b9-a576-40f76ca5be1a","system_id":"levelo_inurba_marseille","lat":43.25,"lon":5.38921,"is_reserved":false,"is_disabled":false,"rental_uris":{"android":"levelo://app?vid=0b160e29-7510-40b9-a576-40f76ca5be1a","ios":"levelo://app?vid=0b160e29-7510-40b9-a576-40f76ca5be1a"},"vehicle_type_id":"4","last_reported":1735236745,"current_range_meters":32000,"station_id":"ce4bhgp2rcd13ifvqfd0","pricing_plan_id":"cebpf4jnsgd1na2vs0mg"},{"bike_id":"e49de1cd-0acd-4a78-8121-d4a34beac4ee","system_id":"levelo_inurba_marseille","lat":43.29266,"lon":5.38442,"is_reserved":false,"is_disabled":false,"rental_uris":{"android":"levelo://app?vid=e49de1cd-0acd-4a78-8121-d4a34beac4ee","ios":"levelo://app?vid=e49de1cd-0acd-4a78-8121-d4a34beac4ee"},"vehicle_type_id":"4","last_reported":1735236745,"current_range_meters":38000,"station_id":"ce4bh692rcd13ifvqea0","pricing_plan_id":"cebpf4jnsgd1na2vs0mg"},{"bike_id":"590b7c25-ee0d-40fc-8461-b30f501ed803","system_id":"levelo_inurba_marseille","lat":43.28487,"lon":5.38579,"is_reserved":false,"is_disabled":false,"rental_uris":{"android":"levelo://app?vid=590b7c25-ee0d-40fc-8461-b30f501ed803","ios":"levelo://app?vid=590b7c25-ee0d-40fc-8461-b30f501ed803"},"vehicle_type_id":"4","last_reported":1735236745,"current_range_meters":32000,"station_id":"ce4bh8p2rcd13ifvqeb0","pricing_plan_id":"cebpf4jnsgd1na2vs0mg"},{"bike_id":"f349cc7d-3bb2-4ec8-9833-02f92e44fae4","system_id":"levelo_inurba_marseille","lat":43.30881,"lon":5.39632,"is_reserved":false,"is_disabled":false,"rental_uris":{"android":"levelo://app?vid=f349cc7d-3bb2-4ec8-9833-02f92e44fae4","ios":"levelo://app?vid=f349cc7d-3bb2-4ec8-9833-02f92e44fae4"},"vehicle_type_id":"4","last_reported":1735236745,"current_range_meters":37600,"station_id":"ce4bh012rcd13ifvqcv0","pricing_plan_id":"cebpf4jnsgd1na2vs0mg"},{"bike_id":"307e91f2-7eda-4399-8767-f528498164bc","system_id":"levelo_inurba_marseille","lat":43.28702,"lon":5.37394,"is_reserved":false,"is_disabled":false,"rental_uris":{"android":"levelo://app?vid=307e91f2-7eda-4399-8767-f528498164bc","ios":"levelo://app?vid=307e91f2-7eda-4399-8767-f528498164bc"},"vehicle_type_id":"4","last_reported":1735236745,"current_range_meters":30800,"station_id":"ce4bh3p2rcd13ifvqdq0","pricing_plan_id":"cebpf4jnsgd1na2vs0mg"},{"bike_id":"45a39e5d-53bd-464c-aa2f-8ff68f75c34c","system_id":"levelo_inurba_marseille","lat":43.29429,"lon":5.3861,"is_reserved":false,"is_disabled":false,"rental_uris":{"android":"levelo://app?vid=45a39e5d-53bd-464c-aa2f-8ff68f75c34c","ios":"levelo://app?vid=45a39e5d-53bd-464c-aa2f-8ff68f75c34c"},"vehicle_type_id":"4","last_reported":1735236745,"current_range_meters":38800,"station_id":"ce4bh2h2rcd13ifvqdh0","pricing_plan_id":"cebpf4jnsgd1na2vs0mg"},{"bike_id":"d09e3fdb-576a-4d07-98c5-88b1e58a69ba","system_id":"levelo_inurba_marseille","lat":43.30303,"lon":5.39226,"is_reserved":false,"is_disabled":false,"rental_uris":{"android":"levelo://app?vid=d09e3fdb-576a-4d07-98c5-88b1e58a69ba","ios":"levelo://app?vid=d09e3fdb-576a-4d07-98c5-88b1e58a69ba"},"vehicle_type_id":"4","last_reported":1735236745,"current_range_meters":28400,"station_id":"ce4bgkh2rcd13ifvqbk0","pricing_plan_id":"cebpf4jnsgd1na2vs0mg"},{"bike_id":"5f8a76e6-d34b-4171-ae8b-f316ea07c0e1","system_id":"levelo_inurba_marseille","lat":43.25501,"lon":5.3765,"is_reserved":false,"is_disabled":false,"rental_uris":{"android":"levelo://app?vid=5f8a76e6-d34b-4171-ae8b-f316ea07c0e1","ios":"levelo://app?vid=5f8a76e6-d34b-4171-ae8b-f316ea07c0e1"},"vehicle_type_id":"4","last_reported":1735236745,"current_range_meters":28000,"station_id":"ce4bhh12rcd13ifvqff0","pricing_plan_id":"cebpf4jnsgd1na2vs0mg"},{"bike_id":"7b7cf0ee-5f95-4a6c-8fe4-e45f832077e6","system_id":"levelo_inurba_marseille","lat":43.29191,"lon":5.39344,"is_reserved":false,"is_disabled":false,"rental_uris":{"android":"levelo://app?vid=7b7cf0ee-5f95-4a6c-8fe4-e45f832077e6","ios":"levelo://app?vid=7b7cf0ee-5f95-4a6c-8fe4-e45f832077e6"},"vehicle_type_id":"4","last_reported":1735236745,"current_range_meters":38800,"station_id":"ce4bh192rcd13ifvqdd0","pricing_plan_id":"cebpf4jnsgd1na2vs0mg"},{"bike_id":"09898dd2-84ad-4911-a21d-d1f0823964b3","system_id":"levelo_inurba_marseille","lat":43.2964,"lon":5.37742,"is_reserved":false,"is_disabled":false,"rental_uris":{"android":"levelo://app?vid=09898dd2-84ad-4911-a21d-d1f0823964b3","ios":"levelo://app?vid=09898dd2-84ad-4911-a21d-d1f0823964b3"},"vehicle_type_id":"4","last_reported":1735236745,"current_range_meters":38800,"station_id":"ce4bgi92rcd13ifvqb90","pricing_plan_id":"cebpf4jnsgd1na2vs0mg"},{"bike_id":"60968da4-eb7b-45c8-944b-65c3601ac59f","system_id":"levelo_inurba_marseille","lat":43.29585,"lon":5.38084,"is_reserved":false,"is_disabled":false,"rental_uris":{"android":"levelo://app?vid=60968da4-eb7b-45c8-944b-65c3601ac59f","ios":"levelo://app?vid=60968da4-eb7b-45c8-944b-65c3601ac59f"},"vehicle_type_id":"4","last_reported":1735236745,"current_range_meters":26000,"station_id":"ce4bgl12rcd13ifvqbo0","pricing_plan_id":"cebpf4jnsgd1na2vs0mg"},{"bike_id":"40eee063-b95d-4d32-aca8-c581cf8477cf","system_id":"levelo_inurba_marseille","lat":43.25005,"lon":5.38912,"is_reserved":false,"is_disabled":false,"rental_uris":{"android":"levelo://app?vid=40eee063-b95d-4d32-aca8-c581cf8477cf","ios":"levelo://app?vid=40eee063-b95d-4d32-aca8-c581cf8477cf"},"vehicle_type_id":"4","last_reported":1735236745,"current_range_meters":33200,"station_id":"ce4bhgp2rcd13ifvqfd0","pricing_plan_id":"cebpf4jnsgd1na2vs0mg"},{"bike_id":"244d4ade-4fc4-4115-b8a5-196794b226c5","system_id":"levelo_inurba_marseille","lat":43.33025,"lon":5.39034,"is_reserved":false,"is_disabled":false,"rental_uris":{"android":"levelo://app?vid=244d4ade-4fc4-4115-b8a5-196794b226c5","ios":"levelo://app?vid=244d4ade-4fc4-4115-b8a5-196794b226c5"},"vehicle_type_id":"4","last_reported":1735236745,"current_range_meters":39200,"station_id":"ce4bhr92rcd13ifvqhrg","pricing_plan_id":"cebpf4jnsgd1na2vs0mg"},{"bike_id":"5fad56e7-1945-48ed-a9b2-d03df71c5925","system_id":"levelo_inurba_marseille","lat":43.28429,"lon":5.39206,"is_reserved":false,"is_disabled":false,"rental_uris":{"android":"levelo://app?vid=5fad56e7-1945-48ed-a9b2-d03df71c5925","ios":"levelo://app?vid=5fad56e7-1945-48ed-a9b2-d03df71c5925"},"vehicle_type_id":"4","last_reported":1735236745,"current_range_meters":26800,"station_id":"ce4bhoh2rcd13ifvqh5g","pricing_plan_id":"cebpf4jnsgd1na2vs0mg"},{"bike_id":"038af3fc-3082-4aae-94ad-d0ead92a965d","system_id":"levelo_inurba_marseille","lat":43.28106,"lon":5.37829,"is_reserved":false,"is_disabled":false,"rental_uris":{"android":"levelo://app?vid=038af3fc-3082-4aae-94ad-d0ead92a965d","ios":"levelo://app?vid=038af3fc-3082-4aae-94ad-d0ead92a965d"},"vehicle_type_id":"4","last_reported":1735236745,"current_range_meters":38800,"station_id":"ce4bha12rcd13ifvqee0","pricing_plan_id":"cebpf4jnsgd1na2vs0mg"},{"bike_id":"8234143f-b9f7-4ac0-9282-4fef28733928","system_id":"levelo_inurba_marseille","lat":43.27822,"lon":5.39199,"is_reserved":false,"is_disabled":false,"rental_uris":{"android":"levelo://app?vid=8234143f-b9f7-4ac0-9282-4fef28733928","ios":"levelo://app?vid=8234143f-b9f7-4ac0-9282-4fef28733928"},"vehicle_type_id":"4","last_reported":1735236745,"current_range_meters":39200,"station_id":"ce4bhjp2rcd13ifvqga0","pricing_plan_id":"cebpf4jnsgd1na2vs0mg"},{"bike_id":"6fc39219-982d-4feb-9b3b-e1ba4db40afe","system_id":"levelo_inurba_marseille","lat":43.29584,"lon":5.3807,"is_reserved":false,"is_disabled":false,"rental_uris":{"android":"levelo://app?vid=6fc39219-982d-4feb-9b3b-e1ba4db40afe","ios":"levelo://app?vid=6fc39219-982d-4feb-9b3b-e1ba4db40afe"},"vehicle_type_id":"4","last_reported":1735236745,"current_range_meters":38800,"station_id":"ce4bgl12rcd13ifvqbo0","pricing_plan_id":"cebpf4jnsgd1na2vs0mg"},{"bike_id":"e73e6057-e6e9-407b-a17e-f4e119a96aba","system_id":"levelo_inurba_marseille","lat":43.32117,"lon":5.36778,"is_reserved":false,"is_disabled":false,"rental_uris":{"android":"levelo://app?vid=e73e6057-e6e9-407b-a17e-f4e119a96aba","ios":"levelo://app?vid=e73e6057-e6e9-407b-a17e-f4e119a96aba"},"vehicle_type_id":"4","last_reported":1735236745,"current_range_meters":26000,"station_id":"ce4bhrh2rcd13ifvqhug","pricing_plan_id":"cebpf4jnsgd1na2vs0mg"},{"bike_id":"ab22365c-bdba-4f7c-81a5-7e7ddb1ecf11","system_id":"levelo_inurba_marseille","lat":43.29307,"lon":5.37157,"is_reserved":false,"is_disabled":false,"rental_uris":{"android":"levelo://app?vid=ab22365c-bdba-4f7c-81a5-7e7ddb1ecf11","ios":"levelo://app?vid=ab22365c-bdba-4f7c-81a5-7e7ddb1ecf11"},"vehicle_type_id":"4","last_reported":1735236745,"current_range_meters":28000,"station_id":"ce4bgh92rcd13ifvqb40","pricing_plan_id":"cebpf4jnsgd1na2vs0mg"},{"bike_id":"c769c5ae-f70f-441c-a25d-b13b6d05de23","system_id":"levelo_inurba_marseille","lat":43.29534,"lon":5.37499,"is_reserved":false,"is_disabled":false,"rental_uris":{"android":"levelo://app?vid=c769c5ae-f70f-441c-a25d-b13b6d05de23","ios":"levelo://app?vid=c769c5ae-f70f-441c-a25d-b13b6d05de23"},"vehicle_type_id":"4","last_reported":1735236745,"current_range_meters":34000,"station_id":"ce4bgkp2rcd13ifvqbmg","pricing_plan_id":"cebpf4jnsgd1na2vs0mg"},{"bike_id":"4457ac0b-5759-4724-82b6-65c4e675216e","system_id":"levelo_inurba_marseille","lat":43.27806,"lon":5.40708,"is_reserved":false,"is_disabled":false,"rental_uris":{"android":"levelo://app?vid=4457ac0b-5759-4724-82b6-65c4e675216e","ios":"levelo://app?vid=4457ac0b-5759-4724-82b6-65c4e675216e"},"vehicle_type_id":"4","last_reported":1735236745,"current_range_meters":8800,"station_id":"ce4bhnh2rcd13ifvqgtg","pricing_plan_id":"cebpf4jnsgd1na2vs0mg"},{"bike_id":"4ec8a1e3-16df-44e2-8673-74c0731756a1","system_id":"levelo_inurba_marseille","lat":43.29972,"lon":5.37162,"is_reserved":false,"is_disabled":false,"rental_uris":{"android":"levelo://app?vid=4ec8a1e3-16df-44e2-8673-74c0731756a1","ios":"levelo://app?vid=4ec8a1e3-16df-44e2-8673-74c0731756a1"},"vehicle_type_id":"4","last_reported":1735236745,"current_range_meters":38800,"station_id":"ce4bgr92rcd13ifvqc7g","pricing_plan_id":"cebpf4jnsgd1na2vs0mg"},{"bike_id":"90a15985-e414-4303-93ac-d5f4499c7362","system_id":"levelo_inurba_marseille","lat":43.28612,"lon":5.35106,"is_reserved":false,"is_disabled":false,"rental_uris":{"android":"levelo://app?vid=90a15985-e414-4303-93ac-d5f4499c7362","ios":"levelo://app?vid=90a15985-e414-4303-93ac-d5f4499c7362"},"vehicle_type_id":"4","last_reported":1735236745,"current_range_meters":38400,"station_id":"ce4bhch2rcd13ifvqeug","pricing_plan_id":"cebpf4jnsgd1na2vs0mg"},{"bike_id":"3a9c9140-fc22-4e53-8542-00ad1343b6d8","system_id":"levelo_inurba_marseille","lat":43.28269,"lon":5.35061,"is_reserved":false,"is_disabled":false,"rental_uris":{"android":"levelo://app?vid=3a9c9140-fc22-4e53-8542-00ad1343b6d8","ios":"levelo://app?vid=3a9c9140-fc22-4e53-8542-00ad1343b6d8"},"vehicle_type_id":"4","last_reported":1735236745,"current_range_meters":15200,"station_id":"ce4bhbp2rcd13ifvqerg","pricing_plan_id":"cebpf4jnsgd1na2vs0mg"},{"bike_id":"d04d6210-6164-41f5-85e8-a549db863f06","system_id":"levelo_inurba_marseille","lat":43.29301,"lon":5.37175,"is_reserved":false,"is_disabled":false,"rental_uris":{"android":"levelo://app?vid=d04d6210-6164-41f5-85e8-a549db863f06","ios":"levelo://app?vid=d04d6210-6164-41f5-85e8-a549db863f06"},"vehicle_type_id":"4","last_reported":1735236745,"current_range_meters":30400,"station_id":"ce4bgh92rcd13ifvqb40","pricing_plan_id":"cebpf4jnsgd1na2vs0mg"},{"bike_id":"731ba9de-00dd-4cec-ab12-769c3978dcf6","system_id":"levelo_inurba_marseille","lat":43.32035,"lon":5.41574,"is_reserved":false,"is_disabled":false,"rental_uris":{"android":"levelo://app?vid=731ba9de-00dd-4cec-ab12-769c3978dcf6","ios":"levelo://app?vid=731ba9de-00dd-4cec-ab12-769c3978dcf6"},"vehicle_type_id":"4","last_reported":1735236745,"current_range_meters":38800,"station_id":"ce4bhq92rcd13ifvqhkg","pricing_plan_id":"cebpf4jnsgd1na2vs0mg"},{"bike_id":"4cac333c-d1dd-4143-9d9b-28dca58be05d","system_id":"levelo_inurba_marseille","lat":43.28935,"lon":5.36389,"is_reserved":false,"is_disabled":false,"rental_uris":{"android":"levelo://app?vid=4cac333c-d1dd-4143-9d9b-28dca58be05d","ios":"levelo://app?vid=4cac333c-d1dd-4143-9d9b-28dca58be05d"},"vehicle_type_id":"4","last_reported":1735236745,"current_range_meters":28000,"station_id":"ce4bhc92rcd13ifvqetg","pricing_plan_id":"cebpf4jnsgd1na2vs0mg"},{"bike_id":"694cb72d-bc48-47d1-8e9b-ad109356a6ac","system_id":"levelo_inurba_marseille","lat":43.29619,"lon":5.3772,"is_reserved":false,"is_disabled":false,"rental_uris":{"android":"levelo://app?vid=694cb72d-bc48-47d1-8e9b-ad109356a6ac","ios":"levelo://app?vid=694cb72d-bc48-47d1-8e9b-ad109356a6ac"},"vehicle_type_id":"4","last_reported":1735236745,"current_range_meters":4000,"station_id":"ce4bgi92rcd13ifvqb90","pricing_plan_id":"cebpf4jnsgd1na2vs0mg"},{"bike_id":"6d25a30b-30d6-41bb-9eba-44bccb93801a","system_id":"levelo_inurba_marseille","lat":43.29198,"lon":5.39317,"is_reserved":false,"is_disabled":false,"rental_uris":{"android":"levelo://app?vid=6d25a30b-30d6-41bb-9eba-44bccb93801a","ios":"levelo://app?vid=6d25a30b-30d6-41bb-9eba-44bccb93801a"},"vehicle_type_id":"4","last_reported":1735236745,"current_range_meters":38800,"station_id":"ce4bh192rcd13ifvqdd0","pricing_plan_id":"cebpf4jnsgd1na2vs0mg"},{"bike_id":"cf18321e-da48-4bd1-bd4e-dd0ca2626b5b","system_id":"levelo_inurba_marseille","lat":43.28424,"lon":5.34986,"is_reserved":false,"is_disabled":false,"rental_uris":{"android":"levelo://app?vid=cf18321e-da48-4bd1-bd4e-dd0ca2626b5b","ios":"levelo://app?vid=cf18321e-da48-4bd1-bd4e-dd0ca2626b5b"},"vehicle_type_id":"4","last_reported":1735236745,"current_range_meters":3600,"station_id":"ce4bhbh2rcd13ifvqepg","pricing_plan_id":"cebpf4jnsgd1na2vs0mg"},{"bike_id":"8703ddc2-abd8-4ed3-8052-d2dedbc6fd5c","system_id":"levelo_inurba_marseille","lat":43.26957,"lon":5.38629,"is_reserved":false,"is_disabled":false,"rental_uris":{"android":"levelo://app?vid=8703ddc2-abd8-4ed3-8052-d2dedbc6fd5c","ios":"levelo://app?vid=8703ddc2-abd8-4ed3-8052-d2dedbc6fd5c"},"vehicle_type_id":"4","last_reported":1735236745,"current_range_meters":30000,"station_id":"ce4bhh92rcd13ifvqfh0","pricing_plan_id":"cebpf4jnsgd1na2vs0mg"},{"bike_id":"f270a29c-3176-4066-a792-8d2559b9fb30","system_id":"levelo_inurba_marseille","lat":43.30263,"lon":5.40076,"is_reserved":false,"is_disabled":false,"rental_uris":{"android":"levelo://app?vid=f270a29c-3176-4066-a792-8d2559b9fb30","ios":"levelo://app?vid=f270a29c-3176-4066-a792-8d2559b9fb30"},"vehicle_type_id":"4","last_reported":1735236745,"current_range_meters":38800,"station_id":"ce4bgvh2rcd13ifvqcs0","pricing_plan_id":"cebpf4jnsgd1na2vs0mg"},{"bike_id":"d31240d3-9979-449f-a2b4-47db9b31346e","system_id":"levelo_inurba_marseille","lat":43.2847,"lon":5.38549,"is_reserved":false,"is_disabled":false,"rental_uris":{"android":"levelo://app?vid=d31240d3-9979-449f-a2b4-47db9b31346e","ios":"levelo://app?vid=d31240d3-9979-449f-a2b4-47db9b31346e"},"vehicle_type_id":"4","last_reported":1735236745,"current_range_meters":28000,"station_id":"ce4bh8p2rcd13ifvqeb0","pricing_plan_id":"cebpf4jnsgd1na2vs0mg"},{"bike_id":"90bcfe0a-0251-48b9-b280-a465c9bf2e2c","system_id":"levelo_inurba_marseille","lat":43.26208,"lon":5.37444,"is_reserved":false,"is_disabled":false,"rental_uris":{"android":"levelo://app?vid=90bcfe0a-0251-48b9-b280-a465c9bf2e2c","ios":"levelo://app?vid=90bcfe0a-0251-48b9-b280-a465c9bf2e2c"},"vehicle_type_id":"4","last_reported":1735236745,"current_range_meters":12000,"station_id":"ce4bhgp2rcd13ifvqfc0","pricing_plan_id":"cebpf4jnsgd1na2vs0mg"},{"bike_id":"dad6db58-f5bc-4da2-b0b4-3d5d1002166b","system_id":"levelo_inurba_marseille","lat":43.32113,"lon":5.36771,"is_reserved":false,"is_disabled":false,"rental_uris":{"android":"levelo://app?vid=dad6db58-f5bc-4da2-b0b4-3d5d1002166b","ios":"levelo://app?vid=dad6db58-f5bc-4da2-b0b4-3d5d1002166b"},"vehicle_type_id":"4","last_reported":1735236745,"current_range_meters":20000,"station_id":"ce4bhrh2rcd13ifvqhug","pricing_plan_id":"cebpf4jnsgd1na2vs0mg"},{"bike_id":"53de4c91-b843-49c8-a9b8-1f4b2ff43715","system_id":"levelo_inurba_marseille","lat":43.29907,"lon":5.38139,"is_reserved":false,"is_disabled":false,"rental_uris":{"android":"levelo://app?vid=53de4c91-b843-49c8-a9b8-1f4b2ff43715","ios":"levelo://app?vid=53de4c91-b843-49c8-a9b8-1f4b2ff43715"},"vehicle_type_id":"4","last_reported":1735236745,"current_range_meters":37600,"station_id":"ce4bgj12rcd13ifvqbc0","pricing_plan_id":"cebpf4jnsgd1na2vs0mg"},{"bike_id":"f9cb0850-5ace-4138-b2d5-eca55ed379d1","system_id":"levelo_inurba_marseille","lat":43.30315,"lon":5.39198,"is_reserved":false,"is_disabled":false,"rental_uris":{"android":"levelo://app?vid=f9cb0850-5ace-4138-b2d5-eca55ed379d1","ios":"levelo://app?vid=f9cb0850-5ace-4138-b2d5-eca55ed379d1"},"vehicle_type_id":"4","last_reported":1735236745,"current_range_meters":14400,"station_id":"ce4bgkh2rcd13ifvqbk0","pricing_plan_id":"cebpf4jnsgd1na2vs0mg"},{"bike_id":"87617f22-d63f-4159-b76c-20f590ceaa9a","system_id":"levelo_inurba_marseille","lat":43.27194,"lon":5.39178,"is_reserved":false,"is_disabled":false,"rental_uris":{"android":"levelo://app?vid=87617f22-d63f-4159-b76c-20f590ceaa9a","ios":"levelo://app?vid=87617f22-d63f-4159-b76c-20f590ceaa9a"},"vehicle_type_id":"4","last_reported":1735236745,"current_range_meters":39200,"station_id":"ce4bhhp2rcd13ifvqfm0","pricing_plan_id":"cebpf4jnsgd1na2vs0mg"},{"bike_id":"68d0f764-4e60-4ffa-bb7e-a3f6dd548a54","system_id":"levelo_inurba_marseille","lat":43.3051,"lon":5.3735,"is_reserved":false,"is_disabled":false,"rental_uris":{"android":"levelo://app?vid=68d0f764-4e60-4ffa-bb7e-a3f6dd548a54","ios":"levelo://app?vid=68d0f764-4e60-4ffa-bb7e-a3f6dd548a54"},"vehicle_type_id":"4","last_reported":1735236745,"current_range_meters":22000,"station_id":"ce4bgqh2rcd13ifvqc4g","pricing_plan_id":"cebpf4jnsgd1na2vs0mg"},{"bike_id":"ef6a40fe-4235-40df-ae49-af2161ef45b1","system_id":"levelo_inurba_marseille","lat":43.29911,"lon":5.37451,"is_reserved":false,"is_disabled":false,"rental_uris":{"android":"levelo://app?vid=ef6a40fe-4235-40df-ae49-af2161ef45b1","ios":"levelo://app?vid=ef6a40fe-4235-40df-ae49-af2161ef45b1"},"vehicle_type_id":"4","last_reported":1735236745,"current_range_meters":37600,"station_id":"ce4bgjh2rcd13ifvqbg0","pricing_plan_id":"cebpf4jnsgd1na2vs0mg"},{"bike_id":"17cf1496-5504-47f7-9455-c40ac3fc270a","system_id":"levelo_inurba_marseille","lat":43.28096,"lon":5.37837,"is_reserved":false,"is_disabled":false,"rental_uris":{"android":"levelo://app?vid=17cf1496-5504-47f7-9455-c40ac3fc270a","ios":"levelo://app?vid=17cf1496-5504-47f7-9455-c40ac3fc270a"},"vehicle_type_id":"4","last_reported":1735236745,"current_range_meters":26000,"station_id":"ce4bha12rcd13ifvqee0","pricing_plan_id":"cebpf4jnsgd1na2vs0mg"},{"bike_id":"b47db860-784f-4241-8032-0be4111cb35d","system_id":"levelo_inurba_marseille","lat":43.28922,"lon":5.38398,"is_reserved":false,"is_disabled":false,"rental_uris":{"android":"levelo://app?vid=b47db860-784f-4241-8032-0be4111cb35d","ios":"levelo://app?vid=b47db860-784f-4241-8032-0be4111cb35d"},"vehicle_type_id":"4","last_reported":1735236745,"current_range_meters":14400,"station_id":"ce4bh612rcd13ifvqe6g","pricing_plan_id":"cebpf4jnsgd1na2vs0mg"},{"bike_id":"9fcbe1f3-6673-4eff-b8fc-e10a07d4bde9","system_id":"levelo_inurba_marseille","lat":43.29514,"lon":5.39395,"is_reserved":false,"is_disabled":false,"rental_uris":{"android":"levelo://app?vid=9fcbe1f3-6673-4eff-b8fc-e10a07d4bde9","ios":"levelo://app?vid=9fcbe1f3-6673-4eff-b8fc-e10a07d4bde9"},"vehicle_type_id":"4","last_reported":1735236745,"current_range_meters":36000,"station_id":"ce4bh292rcd13ifvqdf0","pricing_plan_id":"cebpf4jnsgd1na2vs0mg"},{"bike_id":"9c99b2b9-cebc-4e69-bb49-8f5a9aa575aa","system_id":"levelo_inurba_marseille","lat":43.29985,"lon":5.38498,"is_reserved":false,"is_disabled":false,"rental_uris":{"android":"levelo://app?vid=9c99b2b9-cebc-4e69-bb49-8f5a9aa575aa","ios":"levelo://app?vid=9c99b2b9-cebc-4e69-bb49-8f5a9aa575aa"},"vehicle_type_id":"4","last_reported":1735236745,"current_range_meters":38400,"station_id":"ce4bgj92rcd13ifvqbd0","pricing_plan_id":"cebpf4jnsgd1na2vs0mg"},{"bike_id":"4fd45fdf-25c9-43bd-bde6-f7b5843456f1","system_id":"levelo_inurba_marseille","lat":43.28153,"lon":5.42637,"is_reserved":false,"is_disabled":false,"rental_uris":{"android":"levelo://app?vid=4fd45fdf-25c9-43bd-bde6-f7b5843456f1","ios":"levelo://app?vid=4fd45fdf-25c9-43bd-bde6-f7b5843456f1"},"vehicle_type_id":"4","last_reported":1735236745,"current_range_meters":20800,"station_id":"ce4bhnh2rcd13ifvqgug","pricing_plan_id":"cebpf4jnsgd1na2vs0mg"},{"bike_id":"c2791464-435d-4609-b2b8-c2ba32814ea4","system_id":"levelo_inurba_marseille","lat":43.28464,"lon":5.35886,"is_reserved":false,"is_disabled":false,"rental_uris":{"android":"levelo://app?vid=c2791464-435d-4609-b2b8-c2ba32814ea4","ios":"levelo://app?vid=c2791464-435d-4609-b2b8-c2ba32814ea4"},"vehicle_type_id":"4","last_reported":1735236745,"current_range_meters":30400,"station_id":"ce4bhah2rcd13ifvqei0","pricing_plan_id":"cebpf4jnsgd1na2vs0mg"},{"bike_id":"356fdf04-5389-4dea-9842-bb9771f47806","system_id":"levelo_inurba_marseille","lat":43.2961,"lon":5.37721,"is_reserved":false,"is_disabled":false,"rental_uris":{"android":"levelo://app?vid=356fdf04-5389-4dea-9842-bb9771f47806","ios":"levelo://app?vid=356fdf04-5389-4dea-9842-bb9771f47806"},"vehicle_type_id":"4","last_reported":1735236745,"current_range_meters":38800,"station_id":"ce4bgi92rcd13ifvqb90","pricing_plan_id":"cebpf4jnsgd1na2vs0mg"},{"bike_id":"17ca5fa3-8ba7-4f38-8ecc-2d8a4a57bba0","system_id":"levelo_inurba_marseille","lat":43.29291,"lon":5.37462,"is_reserved":false,"is_disabled":false,"rental_uris":{"android":"levelo://app?vid=17ca5fa3-8ba7-4f38-8ecc-2d8a4a57bba0","ios":"levelo://app?vid=17ca5fa3-8ba7-4f38-8ecc-2d8a4a57bba0"},"vehicle_type_id":"4","last_reported":1735236745,"current_range_meters":39200,"station_id":"ce4bgi12rcd13ifvqb70","pricing_plan_id":"cebpf4jnsgd1na2vs0mg"},{"bike_id":"e9d6ed50-92c0-490e-845a-06bc6bf23829","system_id":"levelo_inurba_marseille","lat":43.29726,"lon":5.37689,"is_reserved":false,"is_disabled":false,"rental_uris":{"android":"levelo://app?vid=e9d6ed50-92c0-490e-845a-06bc6bf23829","ios":"levelo://app?vid=e9d6ed50-92c0-490e-845a-06bc6bf23829"},"vehicle_type_id":"4","last_reported":1735236745,"current_range_meters":18800,"station_id":"ce4bgkh2rcd13ifvqbl0","pricing_plan_id":"cebpf4jnsgd1na2vs0mg"},{"bike_id":"1f03e07b-50b0-4a9e-bd03-dc766534a5b3","system_id":"levelo_inurba_marseille","lat":43.25577,"lon":5.38237,"is_reserved":false,"is_disabled":false,"rental_uris":{"android":"levelo://app?vid=1f03e07b-50b0-4a9e-bd03-dc766534a5b3","ios":"levelo://app?vid=1f03e07b-50b0-4a9e-bd03-dc766534a5b3"},"vehicle_type_id":"4","last_reported":1735236745,"current_range_meters":35200,"station_id":"ce4bhih2rcd13ifvqfs0","pricing_plan_id":"cebpf4jnsgd1na2vs0mg"},{"bike_id":"72f4433a-b028-4e45-ab59-31d664b14844","system_id":"levelo_inurba_marseille","lat":43.272,"lon":5.39178,"is_reserved":false,"is_disabled":false,"rental_uris":{"android":"levelo://app?vid=72f4433a-b028-4e45-ab59-31d664b14844","ios":"levelo://app?vid=72f4433a-b028-4e45-ab59-31d664b14844"},"vehicle_type_id":"4","last_reported":1735236745,"current_range_meters":39200,"station_id":"ce4bhhp2rcd13ifvqfm0","pricing_plan_id":"cebpf4jnsgd1na2vs0mg"},{"bike_id":"c6834b76-82f1-466a-8b2d-118839d142cc","system_id":"levelo_inurba_marseille","lat":43.299,"lon":5.43678,"is_reserved":false,"is_disabled":false,"rental_uris":{"android":"levelo://app?vid=c6834b76-82f1-466a-8b2d-118839d142cc","ios":"levelo://app?vid=c6834b76-82f1-466a-8b2d-118839d142cc"},"vehicle_type_id":"4","last_reported":1735236745,"current_range_meters":38800,"station_id":"ce4bhpp2rcd13ifvqhfg","pricing_plan_id":"cebpf4jnsgd1na2vs0mg"},{"bike_id":"13c39096-92de-47dd-a9ee-5b5cda0c5bbc","system_id":"levelo_inurba_marseille","lat":43.2465,"lon":5.38894,"is_reserved":false,"is_disabled":false,"rental_uris":{"android":"levelo://app?vid=13c39096-92de-47dd-a9ee-5b5cda0c5bbc","ios":"levelo://app?vid=13c39096-92de-47dd-a9ee-5b5cda0c5bbc"},"vehicle_type_id":"4","last_reported":1735236745,"current_range_meters":22400,"station_id":"ce4bhg12rcd13ifvqf60","pricing_plan_id":"cebpf4jnsgd1na2vs0mg"},{"bike_id":"1107b56a-98a5-4a01-8449-9eba086fee5a","system_id":"levelo_inurba_marseille","lat":43.290617,"lon":5.39872,"is_reserved":false,"is_disabled":false,"rental_uris":{"android":"levelo://app?vid=1107b56a-98a5-4a01-8449-9eba086fee5a","ios":"levelo://app?vid=1107b56a-98a5-4a01-8449-9eba086fee5a"},"vehicle_type_id":"4","last_reported":1735236745,"current_range_meters":20800,"station_id":"","pricing_plan_id":"cebpf4jnsgd1na2vs0mg"},{"bike_id":"4e4277ec-b79e-43a1-bae0-d0f951c20956","system_id":"levelo_inurba_marseille","lat":43.2979,"lon":5.39352,"is_reserved":false,"is_disabled":false,"rental_uris":{"android":"levelo://app?vid=4e4277ec-b79e-43a1-bae0-d0f951c20956","ios":"levelo://app?vid=4e4277ec-b79e-43a1-bae0-d0f951c20956"},"vehicle_type_id":"4","last_reported":1735236745,"current_range_meters":39200,"station_id":"chh1huq6cuj3fo74tm60","pricing_plan_id":"cebpf4jnsgd1na2vs0mg"},{"bike_id":"6f68edfd-fb24-4919-b968-971a44d10505","system_id":"levelo_inurba_marseille","lat":43.33728,"lon":5.39189,"is_reserved":false,"is_disabled":false,"rental_uris":{"android":"levelo://app?vid=6f68edfd-fb24-4919-b968-971a44d10505","ios":"levelo://app?vid=6f68edfd-fb24-4919-b968-971a44d10505"},"vehicle_type_id":"4","last_reported":1735236745,"current_range_meters":38800,"station_id":"ce4bhr92rcd13ifvqhsg","pricing_plan_id":"cebpf4jnsgd1na2vs0mg"},{"bike_id":"2dd25717-1c68-4af7-b291-f2fc3d1461bb","system_id":"levelo_inurba_marseille","lat":43.29541,"lon":5.37511,"is_reserved":false,"is_disabled":false,"rental_uris":{"android":"levelo://app?vid=2dd25717-1c68-4af7-b291-f2fc3d1461bb","ios":"levelo://app?vid=2dd25717-1c68-4af7-b291-f2fc3d1461bb"},"vehicle_type_id":"4","last_reported":1735236745,"current_range_meters":37600,"station_id":"ce4bgkp2rcd13ifvqbmg","pricing_plan_id":"cebpf4jnsgd1na2vs0mg"},{"bike_id":"70bb7d91-2818-40e6-b342-2577862291ed","system_id":"levelo_inurba_marseille","lat":43.28353,"lon":5.38103,"is_reserved":false,"is_disabled":false,"rental_uris":{"android":"levelo://app?vid=70bb7d91-2818-40e6-b342-2577862291ed","ios":"levelo://app?vid=70bb7d91-2818-40e6-b342-2577862291ed"},"vehicle_type_id":"4","last_reported":1735236745,"current_range_meters":17600,"station_id":"ce4bh412rcd13ifvqdr0","pricing_plan_id":"cebpf4jnsgd1na2vs0mg"},{"bike_id":"e00dfb05-17e3-4fe6-bb2e-302de9c485a7","system_id":"levelo_inurba_marseille","lat":43.29603,"lon":5.38099,"is_reserved":false,"is_disabled":false,"rental_uris":{"android":"levelo://app?vid=e00dfb05-17e3-4fe6-bb2e-302de9c485a7","ios":"levelo://app?vid=e00dfb05-17e3-4fe6-bb2e-302de9c485a7"},"vehicle_type_id":"4","last_reported":1735236745,"current_range_meters":36000,"station_id":"ce4bgl12rcd13ifvqbo0","pricing_plan_id":"cebpf4jnsgd1na2vs0mg"},{"bike_id":"5608df94-b66e-460e-9f45-682a8f36b500","system_id":"levelo_inurba_marseille","lat":43.26963,"lon":5.38904,"is_reserved":false,"is_disabled":false,"rental_uris":{"android":"levelo://app?vid=5608df94-b66e-460e-9f45-682a8f36b500","ios":"levelo://app?vid=5608df94-b66e-460e-9f45-682a8f36b500"},"vehicle_type_id":"4","last_reported":1735236745,"current_range_meters":38000,"station_id":"ce4bhhh2rcd13ifvqfl0","pricing_plan_id":"cebpf4jnsgd1na2vs0mg"},{"bike_id":"4e6d0ca2-6374-490a-b48e-6cba90785a4f","system_id":"levelo_inurba_marseille","lat":43.24644,"lon":5.38891,"is_reserved":false,"is_disabled":false,"rental_uris":{"android":"levelo://app?vid=4e6d0ca2-6374-490a-b48e-6cba90785a4f","ios":"levelo://app?vid=4e6d0ca2-6374-490a-b48e-6cba90785a4f"},"vehicle_type_id":"4","last_reported":1735236745,"current_range_meters":10800,"station_id":"ce4bhg12rcd13ifvqf60","pricing_plan_id":"cebpf4jnsgd1na2vs0mg"},{"bike_id":"6e485205-3327-42d4-8169-78730eee35b8","system_id":"levelo_inurba_marseille","lat":43.24805,"lon":5.37455,"is_reserved":false,"is_disabled":false,"rental_uris":{"android":"levelo://app?vid=6e485205-3327-42d4-8169-78730eee35b8","ios":"levelo://app?vid=6e485205-3327-42d4-8169-78730eee35b8"},"vehicle_type_id":"4","last_reported":1735236745,"current_range_meters":4000,"station_id":"ce4bhgh2rcd13ifvqfb0","pricing_plan_id":"cebpf4jnsgd1na2vs0mg"},{"bike_id":"963b50d8-757b-4c39-84ed-9fb9fa9d8d9e","system_id":"levelo_inurba_marseille","lat":43.29216,"lon":5.36032,"is_reserved":false,"is_disabled":false,"rental_uris":{"android":"levelo://app?vid=963b50d8-757b-4c39-84ed-9fb9fa9d8d9e","ios":"levelo://app?vid=963b50d8-757b-4c39-84ed-9fb9fa9d8d9e"},"vehicle_type_id":"4","last_reported":1735236745,"current_range_meters":26800,"station_id":"ce4bhbh2rcd13ifvqeqg","pricing_plan_id":"cebpf4jnsgd1na2vs0mg"},{"bike_id":"cf71366f-be23-4797-93cf-6dfe19a14fb0","system_id":"levelo_inurba_marseille","lat":43.29789,"lon":5.38081,"is_reserved":false,"is_disabled":false,"rental_uris":{"android":"levelo://app?vid=cf71366f-be23-4797-93cf-6dfe19a14fb0","ios":"levelo://app?vid=cf71366f-be23-4797-93cf-6dfe19a14fb0"},"vehicle_type_id":"4","last_reported":1735236745,"current_range_meters":32000,"station_id":"ce4bgip2rcd13ifvqbb0","pricing_plan_id":"cebpf4jnsgd1na2vs0mg"},{"bike_id":"175cf03e-1aa0-4ff5-9170-9a9ddfdb8848","system_id":"levelo_inurba_marseille","lat":43.28942,"lon":5.39629,"is_reserved":false,"is_disabled":false,"rental_uris":{"android":"levelo://app?vid=175cf03e-1aa0-4ff5-9170-9a9ddfdb8848","ios":"levelo://app?vid=175cf03e-1aa0-4ff5-9170-9a9ddfdb8848"},"vehicle_type_id":"4","last_reported":1735236745,"current_range_meters":23200,"station_id":"ce4bh3h2rcd13ifvqdn0","pricing_plan_id":"cebpf4jnsgd1na2vs0mg"},{"bike_id":"40604247-8679-4b68-9682-619d18eba1e2","system_id":"levelo_inurba_marseille","lat":43.26935,"lon":5.40258,"is_reserved":false,"is_disabled":false,"rental_uris":{"android":"levelo://app?vid=40604247-8679-4b68-9682-619d18eba1e2","ios":"levelo://app?vid=40604247-8679-4b68-9682-619d18eba1e2"},"vehicle_type_id":"4","last_reported":1735236745,"current_range_meters":38800,"station_id":"cjm6bp8fraef2m0cb0m0","pricing_plan_id":"cebpf4jnsgd1na2vs0mg"},{"bike_id":"3d9bae57-afb5-4a51-99c4-1c48054188ed","system_id":"levelo_inurba_marseille","lat":43.30799,"lon":5.4352,"is_reserved":false,"is_disabled":false,"rental_uris":{"android":"levelo://app?vid=3d9bae57-afb5-4a51-99c4-1c48054188ed","ios":"levelo://app?vid=3d9bae57-afb5-4a51-99c4-1c48054188ed"},"vehicle_type_id":"4","last_reported":1735236745,"current_range_meters":30400,"station_id":"ce4bhph2rcd13ifvqheg","pricing_plan_id":"cebpf4jnsgd1na2vs0mg"},{"bike_id":"41e441a8-4ad2-4bf0-81ba-96c35feaf6d8","system_id":"levelo_inurba_marseille","lat":43.28153,"lon":5.42638,"is_reserved":false,"is_disabled":false,"rental_uris":{"android":"levelo://app?vid=41e441a8-4ad2-4bf0-81ba-96c35feaf6d8","ios":"levelo://app?vid=41e441a8-4ad2-4bf0-81ba-96c35feaf6d8"},"vehicle_type_id":"4","last_reported":1735236745,"current_range_meters":8400,"station_id":"ce4bhnh2rcd13ifvqgug","pricing_plan_id":"cebpf4jnsgd1na2vs0mg"},{"bike_id":"afaaeea3-9c7e-490e-b33f-56120fc8b0ed","system_id":"levelo_inurba_marseille","lat":43.29723,"lon":5.36614,"is_reserved":false,"is_disabled":false,"rental_uris":{"android":"levelo://app?vid=afaaeea3-9c7e-490e-b33f-56120fc8b0ed","ios":"levelo://app?vid=afaaeea3-9c7e-490e-b33f-56120fc8b0ed"},"vehicle_type_id":"4","last_reported":1735236745,"current_range_meters":38400,"station_id":"ce4bgn12rcd13ifvqbt0","pricing_plan_id":"cebpf4jnsgd1na2vs0mg"},{"bike_id":"1f8a202b-8dbf-4dca-a151-2853a7f4b14f","system_id":"levelo_inurba_marseille","lat":43.28459,"lon":5.38434,"is_reserved":false,"is_disabled":false,"rental_uris":{"android":"levelo://app?vid=1f8a202b-8dbf-4dca-a151-2853a7f4b14f","ios":"levelo://app?vid=1f8a202b-8dbf-4dca-a151-2853a7f4b14f"},"vehicle_type_id":"4","last_reported":1735236745,"current_range_meters":35200,"station_id":"ce4bh512rcd13ifvqe3g","pricing_plan_id":"cebpf4jnsgd1na2vs0mg"},{"bike_id":"74443a71-238f-4b3b-b15d-d6656c115a86","system_id":"levelo_inurba_marseille","lat":43.25004,"lon":5.38933,"is_reserved":false,"is_disabled":false,"rental_uris":{"android":"levelo://app?vid=74443a71-238f-4b3b-b15d-d6656c115a86","ios":"levelo://app?vid=74443a71-238f-4b3b-b15d-d6656c115a86"},"vehicle_type_id":"4","last_reported":1735236745,"current_range_meters":9200,"station_id":"ce4bhgp2rcd13ifvqfd0","pricing_plan_id":"cebpf4jnsgd1na2vs0mg"},{"bike_id":"4e04e3c8-bad8-47c2-a784-0c5eba8b5d4f","system_id":"levelo_inurba_marseille","lat":43.27048,"lon":5.42269,"is_reserved":false,"is_disabled":false,"rental_uris":{"android":"levelo://app?vid=4e04e3c8-bad8-47c2-a784-0c5eba8b5d4f","ios":"levelo://app?vid=4e04e3c8-bad8-47c2-a784-0c5eba8b5d4f"},"vehicle_type_id":"4","last_reported":1735236745,"current_range_meters":34000,"station_id":"ce4bhk92rcd13ifvqgb0","pricing_plan_id":"cebpf4jnsgd1na2vs0mg"},{"bike_id":"b3f7c1d6-8123-4d01-aa9c-fa3c8f407264","system_id":"levelo_inurba_marseille","lat":43.29021,"lon":5.38642,"is_reserved":false,"is_disabled":false,"rental_uris":{"android":"levelo://app?vid=b3f7c1d6-8123-4d01-aa9c-fa3c8f407264","ios":"levelo://app?vid=b3f7c1d6-8123-4d01-aa9c-fa3c8f407264"},"vehicle_type_id":"4","last_reported":1735236745,"current_range_meters":38800,"station_id":"ce4bh4p2rcd13ifvqe0g","pricing_plan_id":"cebpf4jnsgd1na2vs0mg"},{"bike_id":"2ea2828b-4054-4613-b03c-004a3cdbc7d6","system_id":"levelo_inurba_marseille","lat":43.29931,"lon":5.36489,"is_reserved":false,"is_disabled":false,"rental_uris":{"android":"levelo://app?vid=2ea2828b-4054-4613-b03c-004a3cdbc7d6","ios":"levelo://app?vid=2ea2828b-4054-4613-b03c-004a3cdbc7d6"},"vehicle_type_id":"4","last_reported":1735236745,"current_range_meters":36800,"station_id":"","pricing_plan_id":"cebpf4jnsgd1na2vs0mg"},{"bike_id":"1ee6a248-8e32-4f29-bda7-3e0b654a6419","system_id":"levelo_inurba_marseille","lat":43.26057,"lon":5.39398,"is_reserved":false,"is_disabled":false,"rental_uris":{"android":"levelo://app?vid=1ee6a248-8e32-4f29-bda7-3e0b654a6419","ios":"levelo://app?vid=1ee6a248-8e32-4f29-bda7-3e0b654a6419"},"vehicle_type_id":"4","last_reported":1735236745,"current_range_meters":32800,"station_id":"ce4bhh92rcd13ifvqfj0","pricing_plan_id":"cebpf4jnsgd1na2vs0mg"},{"bike_id":"9b0b2307-4ae0-4611-a1e6-95a8401c363e","system_id":"levelo_inurba_marseille","lat":43.2917,"lon":5.37163,"is_reserved":false,"is_disabled":false,"rental_uris":{"android":"levelo://app?vid=9b0b2307-4ae0-4611-a1e6-95a8401c363e","ios":"levelo://app?vid=9b0b2307-4ae0-4611-a1e6-95a8401c363e"},"vehicle_type_id":"4","last_reported":1735236745,"current_range_meters":10800,"station_id":"ce4bha92rcd13ifvqeh0","pricing_plan_id":"cebpf4jnsgd1na2vs0mg"},{"bike_id":"68748034-e5dc-43d6-9c47-2c8088710c68","system_id":"levelo_inurba_marseille","lat":43.29553,"lon":5.42278,"is_reserved":false,"is_disabled":false,"rental_uris":{"android":"levelo://app?vid=68748034-e5dc-43d6-9c47-2c8088710c68","ios":"levelo://app?vid=68748034-e5dc-43d6-9c47-2c8088710c68"},"vehicle_type_id":"4","last_reported":1735236745,"current_range_meters":7200,"station_id":"ce4bhph2rcd13ifvqhdg","pricing_plan_id":"cebpf4jnsgd1na2vs0mg"},{"bike_id":"f2f91b7c-af31-49df-af15-35bc0e323143","system_id":"levelo_inurba_marseille","lat":43.27811,"lon":5.40715,"is_reserved":false,"is_disabled":false,"rental_uris":{"android":"levelo://app?vid=f2f91b7c-af31-49df-af15-35bc0e323143","ios":"levelo://app?vid=f2f91b7c-af31-49df-af15-35bc0e323143"},"vehicle_type_id":"4","last_reported":1735236745,"current_range_meters":13600,"station_id":"ce4bhnh2rcd13ifvqgtg","pricing_plan_id":"cebpf4jnsgd1na2vs0mg"},{"bike_id":"55f367c1-71c1-4390-b4a3-b526235e9e25","system_id":"levelo_inurba_marseille","lat":43.30184,"lon":5.3661,"is_reserved":false,"is_disabled":false,"rental_uris":{"android":"levelo://app?vid=55f367c1-71c1-4390-b4a3-b526235e9e25","ios":"levelo://app?vid=55f367c1-71c1-4390-b4a3-b526235e9e25"},"vehicle_type_id":"4","last_reported":1735236745,"current_range_meters":38800,"station_id":"ce4bgrh2rcd13ifvqc8g","pricing_plan_id":"cebpf4jnsgd1na2vs0mg"},{"bike_id":"093ea325-05ba-493a-9614-250e339137b8","system_id":"levelo_inurba_marseille","lat":43.2481,"lon":5.37459,"is_reserved":false,"is_disabled":false,"rental_uris":{"android":"levelo://app?vid=093ea325-05ba-493a-9614-250e339137b8","ios":"levelo://app?vid=093ea325-05ba-493a-9614-250e339137b8"},"vehicle_type_id":"4","last_reported":1735236745,"current_range_meters":12000,"station_id":"ce4bhgh2rcd13ifvqfb0","pricing_plan_id":"cebpf4jnsgd1na2vs0mg"},{"bike_id":"62e61e4f-c04b-4ed0-9ce5-9ce735ffd318","system_id":"levelo_inurba_marseille","lat":43.2586,"lon":5.39908,"is_reserved":false,"is_disabled":false,"rental_uris":{"android":"levelo://app?vid=62e61e4f-c04b-4ed0-9ce5-9ce735ffd318","ios":"levelo://app?vid=62e61e4f-c04b-4ed0-9ce5-9ce735ffd318"},"vehicle_type_id":"4","last_reported":1735236745,"current_range_meters":39200,"station_id":"ce4bhl92rcd13ifvqghg","pricing_plan_id":"cebpf4jnsgd1na2vs0mg"},{"bike_id":"affaff11-df12-4166-bf6b-e6dfd0c68b23","system_id":"levelo_inurba_marseille","lat":43.30539,"lon":5.36697,"is_reserved":false,"is_disabled":false,"rental_uris":{"android":"levelo://app?vid=affaff11-df12-4166-bf6b-e6dfd0c68b23","ios":"levelo://app?vid=affaff11-df12-4166-bf6b-e6dfd0c68b23"},"vehicle_type_id":"4","last_reported":1735236745,"current_range_meters":27600,"station_id":"ce4bgrp2rcd13ifvqc9g","pricing_plan_id":"cebpf4jnsgd1na2vs0mg"},{"bike_id":"cc679926-49d0-4021-a6d1-8fe3eb2e6bd4","system_id":"levelo_inurba_marseille","lat":43.28697,"lon":5.38662,"is_reserved":false,"is_disabled":false,"rental_uris":{"android":"levelo://app?vid=cc679926-49d0-4021-a6d1-8fe3eb2e6bd4","ios":"levelo://app?vid=cc679926-49d0-4021-a6d1-8fe3eb2e6bd4"},"vehicle_type_id":"4","last_reported":1735236745,"current_range_meters":28000,"station_id":"ce4bh492rcd13ifvqdug","pricing_plan_id":"cebpf4jnsgd1na2vs0mg"},{"bike_id":"f12eb93c-d258-40bc-ba9f-19d77f84b7cd","system_id":"levelo_inurba_marseille","lat":43.302409,"lon":5.400473,"is_reserved":false,"is_disabled":false,"rental_uris":{"android":"levelo://app?vid=f12eb93c-d258-40bc-ba9f-19d77f84b7cd","ios":"levelo://app?vid=f12eb93c-d258-40bc-ba9f-19d77f84b7cd"},"vehicle_type_id":"4","last_reported":1735236745,"current_range_meters":36400,"station_id":"ce4bgvh2rcd13ifvqcs0","pricing_plan_id":"cebpf4jnsgd1na2vs0mg"},{"bike_id":"afa1ff45-7503-4146-b21a-bfc51c88b9da","system_id":"levelo_inurba_marseille","lat":43.29576,"lon":5.3749,"is_reserved":false,"is_disabled":false,"rental_uris":{"android":"levelo://app?vid=afa1ff45-7503-4146-b21a-bfc51c88b9da","ios":"levelo://app?vid=afa1ff45-7503-4146-b21a-bfc51c88b9da"},"vehicle_type_id":"4","last_reported":1735236745,"current_range_meters":22400,"station_id":"ce4bgh92rcd13ifvqb50","pricing_plan_id":"cebpf4jnsgd1na2vs0mg"},{"bike_id":"509d6939-a055-4cab-b606-fdeee6645c66","system_id":"levelo_inurba_marseille","lat":43.26503,"lon":5.39542,"is_reserved":false,"is_disabled":false,"rental_uris":{"android":"levelo://app?vid=509d6939-a055-4cab-b606-fdeee6645c66","ios":"levelo://app?vid=509d6939-a055-4cab-b606-fdeee6645c66"},"vehicle_type_id":"4","last_reported":1735236745,"current_range_meters":25600,"station_id":"ce4bhi12rcd13ifvqfq0","pricing_plan_id":"cebpf4jnsgd1na2vs0mg"},{"bike_id":"f9d7a6aa-83a7-4384-8969-5637dd508436","system_id":"levelo_inurba_marseille","lat":43.27812,"lon":5.40706,"is_reserved":false,"is_disabled":false,"rental_uris":{"android":"levelo://app?vid=f9d7a6aa-83a7-4384-8969-5637dd508436","ios":"levelo://app?vid=f9d7a6aa-83a7-4384-8969-5637dd508436"},"vehicle_type_id":"4","last_reported":1735236745,"current_range_meters":38800,"station_id":"ce4bhnh2rcd13ifvqgtg","pricing_plan_id":"cebpf4jnsgd1na2vs0mg"},{"bike_id":"c592b462-0691-434d-9b2f-e9d5645d1c8e","system_id":"levelo_inurba_marseille","lat":43.30308,"lon":5.39215,"is_reserved":false,"is_disabled":false,"rental_uris":{"android":"levelo://app?vid=c592b462-0691-434d-9b2f-e9d5645d1c8e","ios":"levelo://app?vid=c592b462-0691-434d-9b2f-e9d5645d1c8e"},"vehicle_type_id":"4","last_reported":1735236745,"current_range_meters":28400,"station_id":"ce4bgkh2rcd13ifvqbk0","pricing_plan_id":"cebpf4jnsgd1na2vs0mg"},{"bike_id":"673ed0fe-3027-4e1f-9efc-2804b0e32190","system_id":"levelo_inurba_marseille","lat":43.26687,"lon":5.38272,"is_reserved":false,"is_disabled":false,"rental_uris":{"android":"levelo://app?vid=673ed0fe-3027-4e1f-9efc-2804b0e32190","ios":"levelo://app?vid=673ed0fe-3027-4e1f-9efc-2804b0e32190"},"vehicle_type_id":"4","last_reported":1735236745,"current_range_meters":24000,"station_id":"ce4bhg92rcd13ifvqf90","pricing_plan_id":"cebpf4jnsgd1na2vs0mg"},{"bike_id":"8383b770-0a68-43d5-b3f5-5338128961cb","system_id":"levelo_inurba_marseille","lat":43.2993,"lon":5.365,"is_reserved":false,"is_disabled":false,"rental_uris":{"android":"levelo://app?vid=8383b770-0a68-43d5-b3f5-5338128961cb","ios":"levelo://app?vid=8383b770-0a68-43d5-b3f5-5338128961cb"},"vehicle_type_id":"4","last_reported":1735236745,"current_range_meters":22400,"station_id":"ce4bgm92rcd13ifvqbr0","pricing_plan_id":"cebpf4jnsgd1na2vs0mg"},{"bike_id":"2e48270a-c773-45cd-b6b6-1f931f6c2627","system_id":"levelo_inurba_marseille","lat":43.29893,"lon":5.38895,"is_reserved":false,"is_disabled":false,"rental_uris":{"android":"levelo://app?vid=2e48270a-c773-45cd-b6b6-1f931f6c2627","ios":"levelo://app?vid=2e48270a-c773-45cd-b6b6-1f931f6c2627"},"vehicle_type_id":"4","last_reported":1735236745,"current_range_meters":38800,"station_id":"ce4bh392rcd13ifvqdl0","pricing_plan_id":"cebpf4jnsgd1na2vs0mg"},{"bike_id":"e5da7a22-3d35-4225-a91e-7c6df686c633","system_id":"levelo_inurba_marseille","lat":43.28484,"lon":5.38552,"is_reserved":false,"is_disabled":false,"rental_uris":{"android":"levelo://app?vid=e5da7a22-3d35-4225-a91e-7c6df686c633","ios":"levelo://app?vid=e5da7a22-3d35-4225-a91e-7c6df686c633"},"vehicle_type_id":"4","last_reported":1735236745,"current_range_meters":38000,"station_id":"ce4bh8p2rcd13ifvqeb0","pricing_plan_id":"cebpf4jnsgd1na2vs0mg"},{"bike_id":"a5d526bb-a757-4be3-975b-76bfce10ea48","system_id":"levelo_inurba_marseille","lat":43.28843,"lon":5.35847,"is_reserved":false,"is_disabled":false,"rental_uris":{"android":"levelo://app?vid=a5d526bb-a757-4be3-975b-76bfce10ea48","ios":"levelo://app?vid=a5d526bb-a757-4be3-975b-76bfce10ea48"},"vehicle_type_id":"4","last_reported":1735236745,"current_range_meters":30800,"station_id":"ce4bhb12rcd13ifvqem0","pricing_plan_id":"cebpf4jnsgd1na2vs0mg"},{"bike_id":"4e3ec7a4-2c0f-419c-b4af-b681beb75cc8","system_id":"levelo_inurba_marseille","lat":43.30418,"lon":5.41287,"is_reserved":false,"is_disabled":false,"rental_uris":{"android":"levelo://app?vid=4e3ec7a4-2c0f-419c-b4af-b681beb75cc8","ios":"levelo://app?vid=4e3ec7a4-2c0f-419c-b4af-b681beb75cc8"},"vehicle_type_id":"4","last_reported":1735236745,"current_range_meters":39200,"station_id":"ce4bhop2rcd13ifvqh8g","pricing_plan_id":"cebpf4jnsgd1na2vs0mg"},{"bike_id":"c53b72bf-948a-4b1b-b050-e7ad0639e49c","system_id":"levelo_inurba_marseille","lat":43.2937,"lon":5.37851,"is_reserved":false,"is_disabled":false,"rental_uris":{"android":"levelo://app?vid=c53b72bf-948a-4b1b-b050-e7ad0639e49c","ios":"levelo://app?vid=c53b72bf-948a-4b1b-b050-e7ad0639e49c"},"vehicle_type_id":"4","last_reported":1735236745,"current_range_meters":19600,"station_id":"ce4bgjh2rcd13ifvqbf0","pricing_plan_id":"cebpf4jnsgd1na2vs0mg"},{"bike_id":"cadf8335-6df2-49c1-9678-5228c753266c","system_id":"levelo_inurba_marseille","lat":43.28076,"lon":5.39656,"is_reserved":false,"is_disabled":false,"rental_uris":{"android":"levelo://app?vid=cadf8335-6df2-49c1-9678-5228c753266c","ios":"levelo://app?vid=cadf8335-6df2-49c1-9678-5228c753266c"},"vehicle_type_id":"4","last_reported":1735236745,"current_range_meters":6400,"station_id":"ce4bho12rcd13ifvqh2g","pricing_plan_id":"cebpf4jnsgd1na2vs0mg"},{"bike_id":"28db8ffd-989e-446d-8732-3c319458c8d8","system_id":"levelo_inurba_marseille","lat":43.31494,"lon":5.37311,"is_reserved":false,"is_disabled":false,"rental_uris":{"android":"levelo://app?vid=28db8ffd-989e-446d-8732-3c319458c8d8","ios":"levelo://app?vid=28db8ffd-989e-446d-8732-3c319458c8d8"},"vehicle_type_id":"4","last_reported":1735236745,"current_range_meters":38000,"station_id":"ce4bgt12rcd13ifvqcd0","pricing_plan_id":"cebpf4jnsgd1na2vs0mg"},{"bike_id":"36c94d29-a143-4ca2-8a11-fcf2b617451d","system_id":"levelo_inurba_marseille","lat":43.24804,"lon":5.37453,"is_reserved":false,"is_disabled":false,"rental_uris":{"android":"levelo://app?vid=36c94d29-a143-4ca2-8a11-fcf2b617451d","ios":"levelo://app?vid=36c94d29-a143-4ca2-8a11-fcf2b617451d"},"vehicle_type_id":"4","last_reported":1735236745,"current_range_meters":16800,"station_id":"ce4bhgh2rcd13ifvqfb0","pricing_plan_id":"cebpf4jnsgd1na2vs0mg"},{"bike_id":"0d356a97-93db-4905-a410-a6d23d3b385c","system_id":"levelo_inurba_marseille","lat":43.28855,"lon":5.35856,"is_reserved":false,"is_disabled":false,"rental_uris":{"android":"levelo://app?vid=0d356a97-93db-4905-a410-a6d23d3b385c","ios":"levelo://app?vid=0d356a97-93db-4905-a410-a6d23d3b385c"},"vehicle_type_id":"4","last_reported":1735236745,"current_range_meters":19600,"station_id":"ce4bhb12rcd13ifvqem0","pricing_plan_id":"cebpf4jnsgd1na2vs0mg"},{"bike_id":"6556df2a-0e73-47d2-b43c-151912c9038b","system_id":"levelo_inurba_marseille","lat":43.24559,"lon":5.39503,"is_reserved":false,"is_disabled":false,"rental_uris":{"android":"levelo://app?vid=6556df2a-0e73-47d2-b43c-151912c9038b","ios":"levelo://app?vid=6556df2a-0e73-47d2-b43c-151912c9038b"},"vehicle_type_id":"4","last_reported":1735236745,"current_range_meters":38800,"station_id":"ce4bhlp2rcd13ifvqgjg","pricing_plan_id":"cebpf4jnsgd1na2vs0mg"},{"bike_id":"0089825d-bdd9-4c40-bf0e-57b3cbb36429","system_id":"levelo_inurba_marseille","lat":43.30546,"lon":5.36692,"is_reserved":false,"is_disabled":false,"rental_uris":{"android":"levelo://app?vid=0089825d-bdd9-4c40-bf0e-57b3cbb36429","ios":"levelo://app?vid=0089825d-bdd9-4c40-bf0e-57b3cbb36429"},"vehicle_type_id":"4","last_reported":1735236745,"current_range_meters":38800,"station_id":"ce4bgrp2rcd13ifvqc9g","pricing_plan_id":"cebpf4jnsgd1na2vs0mg"},{"bike_id":"ed723caa-2168-4c55-adfa-85629ce07988","system_id":"levelo_inurba_marseille","lat":43.29367,"lon":5.37851,"is_reserved":false,"is_disabled":false,"rental_uris":{"android":"levelo://app?vid=ed723caa-2168-4c55-adfa-85629ce07988","ios":"levelo://app?vid=ed723caa-2168-4c55-adfa-85629ce07988"},"vehicle_type_id":"4","last_reported":1735236745,"current_range_meters":35600,"station_id":"","pricing_plan_id":"cebpf4jnsgd1na2vs0mg"},{"bike_id":"20d421ba-c6c8-4371-8278-73fac8e7ee94","system_id":"levelo_inurba_marseille","lat":43.29003,"lon":5.35609,"is_reserved":false,"is_disabled":false,"rental_uris":{"android":"levelo://app?vid=20d421ba-c6c8-4371-8278-73fac8e7ee94","ios":"levelo://app?vid=20d421ba-c6c8-4371-8278-73fac8e7ee94"},"vehicle_type_id":"4","last_reported":1735236745,"current_range_meters":39200,"station_id":"ce4bhb92rcd13ifvqen0","pricing_plan_id":"cebpf4jnsgd1na2vs0mg"},{"bike_id":"d36bb8df-822e-49e3-adc4-c36f4503a77d","system_id":"levelo_inurba_marseille","lat":43.27493,"lon":5.42453,"is_reserved":false,"is_disabled":false,"rental_uris":{"android":"levelo://app?vid=d36bb8df-822e-49e3-adc4-c36f4503a77d","ios":"levelo://app?vid=d36bb8df-822e-49e3-adc4-c36f4503a77d"},"vehicle_type_id":"4","last_reported":1735236745,"current_range_meters":8800,"station_id":"ce4bhn92rcd13ifvqgrg","pricing_plan_id":"cebpf4jnsgd1na2vs0mg"},{"bike_id":"c47b3c1c-bd9a-415a-bcde-aff500b5f407","system_id":"levelo_inurba_marseille","lat":43.29258,"lon":5.40907,"is_reserved":false,"is_disabled":false,"rental_uris":{"android":"levelo://app?vid=c47b3c1c-bd9a-415a-bcde-aff500b5f407","ios":"levelo://app?vid=c47b3c1c-bd9a-415a-bcde-aff500b5f407"},"vehicle_type_id":"4","last_reported":1735236745,"current_range_meters":39200,"station_id":"ce4bh192rcd13ifvqdc0","pricing_plan_id":"cebpf4jnsgd1na2vs0mg"},{"bike_id":"4f5db02c-99f9-460e-a880-3ca7100df048","system_id":"levelo_inurba_marseille","lat":43.27395,"lon":5.394,"is_reserved":false,"is_disabled":false,"rental_uris":{"android":"levelo://app?vid=4f5db02c-99f9-460e-a880-3ca7100df048","ios":"levelo://app?vid=4f5db02c-99f9-460e-a880-3ca7100df048"},"vehicle_type_id":"4","last_reported":1735236745,"current_range_meters":38800,"station_id":"ce4bhdp2rcd13ifvqf20","pricing_plan_id":"cebpf4jnsgd1na2vs0mg"},{"bike_id":"8465281d-cb40-4688-856b-6fcf00cb2c12","system_id":"levelo_inurba_marseille","lat":43.29898,"lon":5.43671,"is_reserved":false,"is_disabled":false,"rental_uris":{"android":"levelo://app?vid=8465281d-cb40-4688-856b-6fcf00cb2c12","ios":"levelo://app?vid=8465281d-cb40-4688-856b-6fcf00cb2c12"},"vehicle_type_id":"4","last_reported":1735236745,"current_range_meters":38000,"station_id":"ce4bhpp2rcd13ifvqhfg","pricing_plan_id":"cebpf4jnsgd1na2vs0mg"},{"bike_id":"fe73862b-8c55-4fc9-8d05-70c0d05c8069","system_id":"levelo_inurba_marseille","lat":43.30871,"lon":5.39648,"is_reserved":false,"is_disabled":false,"rental_uris":{"android":"levelo://app?vid=fe73862b-8c55-4fc9-8d05-70c0d05c8069","ios":"levelo://app?vid=fe73862b-8c55-4fc9-8d05-70c0d05c8069"},"vehicle_type_id":"4","last_reported":1735236745,"current_range_meters":38800,"station_id":"ce4bh012rcd13ifvqcv0","pricing_plan_id":"cebpf4jnsgd1na2vs0mg"},{"bike_id":"7a519144-206a-401e-ac5a-51065853ad87","system_id":"levelo_inurba_marseille","lat":43.29575,"lon":5.37511,"is_reserved":false,"is_disabled":false,"rental_uris":{"android":"levelo://app?vid=7a519144-206a-401e-ac5a-51065853ad87","ios":"levelo://app?vid=7a519144-206a-401e-ac5a-51065853ad87"},"vehicle_type_id":"4","last_reported":1735236745,"current_range_meters":38800,"station_id":"ce4bgh92rcd13ifvqb50","pricing_plan_id":"cebpf4jnsgd1na2vs0mg"},{"bike_id":"86c99573-a4a1-470e-9d19-95b2c85f263b","system_id":"levelo_inurba_marseille","lat":43.27916,"lon":5.39576,"is_reserved":false,"is_disabled":false,"rental_uris":{"android":"levelo://app?vid=86c99573-a4a1-470e-9d19-95b2c85f263b","ios":"levelo://app?vid=86c99573-a4a1-470e-9d19-95b2c85f263b"},"vehicle_type_id":"4","last_reported":1735236745,"current_range_meters":35200,"station_id":"ce4bhf92rcd13ifvqf40","pricing_plan_id":"cebpf4jnsgd1na2vs0mg"},{"bike_id":"cc3df857-ae1f-4c17-836f-8e9a80aa5893","system_id":"levelo_inurba_marseille","lat":43.30479,"lon":5.40096,"is_reserved":false,"is_disabled":false,"rental_uris":{"android":"levelo://app?vid=cc3df857-ae1f-4c17-836f-8e9a80aa5893","ios":"levelo://app?vid=cc3df857-ae1f-4c17-836f-8e9a80aa5893"},"vehicle_type_id":"4","last_reported":1735236745,"current_range_meters":38000,"station_id":"ce4bhq92rcd13ifvqhjg","pricing_plan_id":"cebpf4jnsgd1na2vs0mg"},{"bike_id":"f48a31c5-7ac5-4db9-a487-f29d0d3d18d7","system_id":"levelo_inurba_marseille","lat":43.29797,"lon":5.38086,"is_reserved":false,"is_disabled":false,"rental_uris":{"android":"levelo://app?vid=f48a31c5-7ac5-4db9-a487-f29d0d3d18d7","ios":"levelo://app?vid=f48a31c5-7ac5-4db9-a487-f29d0d3d18d7"},"vehicle_type_id":"4","last_reported":1735236745,"current_range_meters":17600,"station_id":"ce4bgip2rcd13ifvqbb0","pricing_plan_id":"cebpf4jnsgd1na2vs0mg"},{"bike_id":"b07e0204-2c57-49d1-a1f7-320de8610e25","system_id":"levelo_inurba_marseille","lat":43.29402,"lon":5.37344,"is_reserved":false,"is_disabled":true,"rental_uris":{"android":"levelo://app?vid=b07e0204-2c57-49d1-a1f7-320de8610e25","ios":"levelo://app?vid=b07e0204-2c57-49d1-a1f7-320de8610e25"},"vehicle_type_id":"4","last_reported":1735236745,"current_range_meters":9600,"station_id":"","pricing_plan_id":"cebpf4jnsgd1na2vs0mg"},{"bike_id":"288a9011-95b6-4421-825b-ee0e5deb880f","system_id":"levelo_inurba_marseille","lat":43.28691,"lon":5.3866,"is_reserved":false,"is_disabled":false,"rental_uris":{"android":"levelo://app?vid=288a9011-95b6-4421-825b-ee0e5deb880f","ios":"levelo://app?vid=288a9011-95b6-4421-825b-ee0e5deb880f"},"vehicle_type_id":"4","last_reported":1735236745,"current_range_meters":39200,"station_id":"ce4bh492rcd13ifvqdug","pricing_plan_id":"cebpf4jnsgd1na2vs0mg"},{"bike_id":"9d49c05f-0fd6-43f7-973f-c7f9dbb8dd66","system_id":"levelo_inurba_marseille","lat":43.3054,"lon":5.36683,"is_reserved":false,"is_disabled":false,"rental_uris":{"android":"levelo://app?vid=9d49c05f-0fd6-43f7-973f-c7f9dbb8dd66","ios":"levelo://app?vid=9d49c05f-0fd6-43f7-973f-c7f9dbb8dd66"},"vehicle_type_id":"4","last_reported":1735236745,"current_range_meters":30000,"station_id":"ce4bgrp2rcd13ifvqc9g","pricing_plan_id":"cebpf4jnsgd1na2vs0mg"},{"bike_id":"cf812e71-891b-4e76-a88f-a2ddc2125c7b","system_id":"levelo_inurba_marseille","lat":43.25001,"lon":5.38923,"is_reserved":false,"is_disabled":false,"rental_uris":{"android":"levelo://app?vid=cf812e71-891b-4e76-a88f-a2ddc2125c7b","ios":"levelo://app?vid=cf812e71-891b-4e76-a88f-a2ddc2125c7b"},"vehicle_type_id":"4","last_reported":1735236745,"current_range_meters":18800,"station_id":"ce4bhgp2rcd13ifvqfd0","pricing_plan_id":"cebpf4jnsgd1na2vs0mg"},{"bike_id":"d051bf13-7445-45ad-86d7-0bc2c858622c","system_id":"levelo_inurba_marseille","lat":43.29222,"lon":5.35787,"is_reserved":false,"is_disabled":false,"rental_uris":{"android":"levelo://app?vid=d051bf13-7445-45ad-86d7-0bc2c858622c","ios":"levelo://app?vid=d051bf13-7445-45ad-86d7-0bc2c858622c"},"vehicle_type_id":"4","last_reported":1735236745,"current_range_meters":27200,"station_id":"ce4bhb12rcd13ifvqel0","pricing_plan_id":"cebpf4jnsgd1na2vs0mg"},{"bike_id":"1786334d-2721-40c5-be60-f94ab6a924f7","system_id":"levelo_inurba_marseille","lat":43.26209,"lon":5.37908,"is_reserved":false,"is_disabled":false,"rental_uris":{"android":"levelo://app?vid=1786334d-2721-40c5-be60-f94ab6a924f7","ios":"levelo://app?vid=1786334d-2721-40c5-be60-f94ab6a924f7"},"vehicle_type_id":"4","last_reported":1735236745,"current_range_meters":38800,"station_id":"ce4bhjp2rcd13ifvqg90","pricing_plan_id":"cebpf4jnsgd1na2vs0mg"},{"bike_id":"43f7e734-263c-460e-a5d5-9f3194a8a7de","system_id":"levelo_inurba_marseille","lat":43.30147,"lon":5.39878,"is_reserved":false,"is_disabled":false,"rental_uris":{"android":"levelo://app?vid=43f7e734-263c-460e-a5d5-9f3194a8a7de","ios":"levelo://app?vid=43f7e734-263c-460e-a5d5-9f3194a8a7de"},"vehicle_type_id":"4","last_reported":1735236745,"current_range_meters":39200,"station_id":"ce4bh0h2rcd13ifvqd40","pricing_plan_id":"cebpf4jnsgd1na2vs0mg"},{"bike_id":"71160096-1f78-4a01-8bd7-5e65b9e0ac95","system_id":"levelo_inurba_marseille","lat":43.26201,"lon":5.37929,"is_reserved":false,"is_disabled":false,"rental_uris":{"android":"levelo://app?vid=71160096-1f78-4a01-8bd7-5e65b9e0ac95","ios":"levelo://app?vid=71160096-1f78-4a01-8bd7-5e65b9e0ac95"},"vehicle_type_id":"4","last_reported":1735236745,"current_range_meters":28400,"station_id":"ce4bhjp2rcd13ifvqg90","pricing_plan_id":"cebpf4jnsgd1na2vs0mg"},{"bike_id":"68ef015b-a000-4724-b44e-03b943ed580c","system_id":"levelo_inurba_marseille","lat":43.29609,"lon":5.37713,"is_reserved":false,"is_disabled":false,"rental_uris":{"android":"levelo://app?vid=68ef015b-a000-4724-b44e-03b943ed580c","ios":"levelo://app?vid=68ef015b-a000-4724-b44e-03b943ed580c"},"vehicle_type_id":"4","last_reported":1735236745,"current_range_meters":22800,"station_id":"ce4bgi92rcd13ifvqb90","pricing_plan_id":"cebpf4jnsgd1na2vs0mg"},{"bike_id":"1db2767a-f1e1-4f0a-b7e3-3e0c4d85a1a9","system_id":"levelo_inurba_marseille","lat":43.29269,"lon":5.3845,"is_reserved":false,"is_disabled":false,"rental_uris":{"android":"levelo://app?vid=1db2767a-f1e1-4f0a-b7e3-3e0c4d85a1a9","ios":"levelo://app?vid=1db2767a-f1e1-4f0a-b7e3-3e0c4d85a1a9"},"vehicle_type_id":"4","last_reported":1735236745,"current_range_meters":17600,"station_id":"ce4bh692rcd13ifvqea0","pricing_plan_id":"cebpf4jnsgd1na2vs0mg"},{"bike_id":"1ea39f45-38dc-48d2-8201-ebf0345ce0cd","system_id":"levelo_inurba_marseille","lat":43.29163,"lon":5.37168,"is_reserved":false,"is_disabled":false,"rental_uris":{"android":"levelo://app?vid=1ea39f45-38dc-48d2-8201-ebf0345ce0cd","ios":"levelo://app?vid=1ea39f45-38dc-48d2-8201-ebf0345ce0cd"},"vehicle_type_id":"4","last_reported":1735236745,"current_range_meters":25200,"station_id":"ce4bha92rcd13ifvqeh0","pricing_plan_id":"cebpf4jnsgd1na2vs0mg"},{"bike_id":"b7d95495-43a7-413c-9947-d7e462a705ea","system_id":"levelo_inurba_marseille","lat":43.289395,"lon":5.36385,"is_reserved":false,"is_disabled":false,"rental_uris":{"android":"levelo://app?vid=b7d95495-43a7-413c-9947-d7e462a705ea","ios":"levelo://app?vid=b7d95495-43a7-413c-9947-d7e462a705ea"},"vehicle_type_id":"4","last_reported":1735236745,"current_range_meters":38800,"station_id":"ce4bhc92rcd13ifvqetg","pricing_plan_id":"cebpf4jnsgd1na2vs0mg"},{"bike_id":"a96d1c51-be58-4c26-ba5f-c3b1562ea593","system_id":"levelo_inurba_marseille","lat":43.27668,"lon":5.38879,"is_reserved":false,"is_disabled":false,"rental_uris":{"android":"levelo://app?vid=a96d1c51-be58-4c26-ba5f-c3b1562ea593","ios":"levelo://app?vid=a96d1c51-be58-4c26-ba5f-c3b1562ea593"},"vehicle_type_id":"4","last_reported":1735236745,"current_range_meters":30000,"station_id":"ce4bhi12rcd13ifvqfo0","pricing_plan_id":"cebpf4jnsgd1na2vs0mg"},{"bike_id":"6e05f6e0-1eda-457a-97a2-c2e6c624c65a","system_id":"levelo_inurba_marseille","lat":43.308,"lon":5.38155,"is_reserved":false,"is_disabled":false,"rental_uris":{"android":"levelo://app?vid=6e05f6e0-1eda-457a-97a2-c2e6c624c65a","ios":"levelo://app?vid=6e05f6e0-1eda-457a-97a2-c2e6c624c65a"},"vehicle_type_id":"4","last_reported":1735236745,"current_range_meters":30000,"station_id":"ce4bgt12rcd13ifvqce0","pricing_plan_id":"cebpf4jnsgd1na2vs0mg"},{"bike_id":"6fddf6a9-b5c4-4b31-ab3d-6a64a29448f0","system_id":"levelo_inurba_marseille","lat":43.29299,"lon":5.37174,"is_reserved":false,"is_disabled":false,"rental_uris":{"android":"levelo://app?vid=6fddf6a9-b5c4-4b31-ab3d-6a64a29448f0","ios":"levelo://app?vid=6fddf6a9-b5c4-4b31-ab3d-6a64a29448f0"},"vehicle_type_id":"4","last_reported":1735236745,"current_range_meters":17200,"station_id":"ce4bgh92rcd13ifvqb40","pricing_plan_id":"cebpf4jnsgd1na2vs0mg"},{"bike_id":"2165c901-39d6-41b0-8734-6d366e63b020","system_id":"levelo_inurba_marseille","lat":43.25822,"lon":5.39433,"is_reserved":false,"is_disabled":false,"rental_uris":{"android":"levelo://app?vid=2165c901-39d6-41b0-8734-6d366e63b020","ios":"levelo://app?vid=2165c901-39d6-41b0-8734-6d366e63b020"},"vehicle_type_id":"4","last_reported":1735236745,"current_range_meters":28800,"station_id":"ce4bhip2rcd13ifvqft0","pricing_plan_id":"cebpf4jnsgd1na2vs0mg"},{"bike_id":"67f9cc59-b46e-43cc-96bb-d5158b089fac","system_id":"levelo_inurba_marseille","lat":43.28943,"lon":5.36639,"is_reserved":false,"is_disabled":false,"rental_uris":{"android":"levelo://app?vid=67f9cc59-b46e-43cc-96bb-d5158b089fac","ios":"levelo://app?vid=67f9cc59-b46e-43cc-96bb-d5158b089fac"},"vehicle_type_id":"4","last_reported":1735236745,"current_range_meters":38800,"station_id":"ce4bhap2rcd13ifvqek0","pricing_plan_id":"cebpf4jnsgd1na2vs0mg"},{"bike_id":"526c3b21-f659-466e-a14d-5675dcf072b5","system_id":"levelo_inurba_marseille","lat":43.27068,"lon":5.42271,"is_reserved":false,"is_disabled":false,"rental_uris":{"android":"levelo://app?vid=526c3b21-f659-466e-a14d-5675dcf072b5","ios":"levelo://app?vid=526c3b21-f659-466e-a14d-5675dcf072b5"},"vehicle_type_id":"4","last_reported":1735236745,"current_range_meters":30000,"station_id":"ce4bhk92rcd13ifvqgb0","pricing_plan_id":"cebpf4jnsgd1na2vs0mg"},{"bike_id":"6882da18-50dc-4a58-b492-e62917a7ffc4","system_id":"levelo_inurba_marseille","lat":43.29624,"lon":5.37158,"is_reserved":false,"is_disabled":false,"rental_uris":{"android":"levelo://app?vid=6882da18-50dc-4a58-b492-e62917a7ffc4","ios":"levelo://app?vid=6882da18-50dc-4a58-b492-e62917a7ffc4"},"vehicle_type_id":"4","last_reported":1735236745,"current_range_meters":38000,"station_id":"ce4bgnh2rcd13ifvqc0g","pricing_plan_id":"cebpf4jnsgd1na2vs0mg"},{"bike_id":"2ce6c293-bd02-40c5-ad6e-d896b772f7cc","system_id":"levelo_inurba_marseille","lat":43.29006,"lon":5.35613,"is_reserved":false,"is_disabled":false,"rental_uris":{"android":"levelo://app?vid=2ce6c293-bd02-40c5-ad6e-d896b772f7cc","ios":"levelo://app?vid=2ce6c293-bd02-40c5-ad6e-d896b772f7cc"},"vehicle_type_id":"4","last_reported":1735236745,"current_range_meters":34000,"station_id":"ce4bhb92rcd13ifvqen0","pricing_plan_id":"cebpf4jnsgd1na2vs0mg"},{"bike_id":"4c195953-5514-46fb-930f-1cb8cc1ead13","system_id":"levelo_inurba_marseille","lat":43.28706,"lon":5.37395,"is_reserved":false,"is_disabled":false,"rental_uris":{"android":"levelo://app?vid=4c195953-5514-46fb-930f-1cb8cc1ead13","ios":"levelo://app?vid=4c195953-5514-46fb-930f-1cb8cc1ead13"},"vehicle_type_id":"4","last_reported":1735236745,"current_range_meters":33600,"station_id":"ce4bh3p2rcd13ifvqdq0","pricing_plan_id":"cebpf4jnsgd1na2vs0mg"},{"bike_id":"abb6f3f1-c9e4-4600-bf62-12f84f815612","system_id":"levelo_inurba_marseille","lat":43.28357,"lon":5.38107,"is_reserved":false,"is_disabled":false,"rental_uris":{"android":"levelo://app?vid=abb6f3f1-c9e4-4600-bf62-12f84f815612","ios":"levelo://app?vid=abb6f3f1-c9e4-4600-bf62-12f84f815612"},"vehicle_type_id":"4","last_reported":1735236745,"current_range_meters":39200,"station_id":"ce4bh412rcd13ifvqdr0","pricing_plan_id":"cebpf4jnsgd1na2vs0mg"},{"bike_id":"e9081ace-5d5c-4eae-9910-c1e01fc02b5e","system_id":"levelo_inurba_marseille","lat":43.28468,"lon":5.3841,"is_reserved":false,"is_disabled":false,"rental_uris":{"android":"levelo://app?vid=e9081ace-5d5c-4eae-9910-c1e01fc02b5e","ios":"levelo://app?vid=e9081ace-5d5c-4eae-9910-c1e01fc02b5e"},"vehicle_type_id":"4","last_reported":1735236745,"current_range_meters":22800,"station_id":"ce4bh512rcd13ifvqe3g","pricing_plan_id":"cebpf4jnsgd1na2vs0mg"},{"bike_id":"6fa05ba4-8a22-468c-a828-c3aee18643bb","system_id":"levelo_inurba_marseille","lat":43.28712,"lon":5.37387,"is_reserved":false,"is_disabled":false,"rental_uris":{"android":"levelo://app?vid=6fa05ba4-8a22-468c-a828-c3aee18643bb","ios":"levelo://app?vid=6fa05ba4-8a22-468c-a828-c3aee18643bb"},"vehicle_type_id":"4","last_reported":1735236745,"current_range_meters":28400,"station_id":"ce4bh3p2rcd13ifvqdq0","pricing_plan_id":"cebpf4jnsgd1na2vs0mg"},{"bike_id":"aaa78394-0f83-4d1b-bc11-2e06bb634e07","system_id":"levelo_inurba_marseille","lat":43.28162,"lon":5.42644,"is_reserved":false,"is_disabled":false,"rental_uris":{"android":"levelo://app?vid=aaa78394-0f83-4d1b-bc11-2e06bb634e07","ios":"levelo://app?vid=aaa78394-0f83-4d1b-bc11-2e06bb634e07"},"vehicle_type_id":"4","last_reported":1735236745,"current_range_meters":19600,"station_id":"ce4bhnh2rcd13ifvqgug","pricing_plan_id":"cebpf4jnsgd1na2vs0mg"},{"bike_id":"9e0ce3af-2e3c-435a-8c4f-d3ce16f81c59","system_id":"levelo_inurba_marseille","lat":43.29217,"lon":5.36048,"is_reserved":false,"is_disabled":true,"rental_uris":{"android":"levelo://app?vid=9e0ce3af-2e3c-435a-8c4f-d3ce16f81c59","ios":"levelo://app?vid=9e0ce3af-2e3c-435a-8c4f-d3ce16f81c59"},"vehicle_type_id":"4","last_reported":1735236745,"current_range_meters":19200,"station_id":"ce4bhbh2rcd13ifvqeqg","pricing_plan_id":"cebpf4jnsgd1na2vs0mg"},{"bike_id":"c376de60-3c95-4c79-9305-e755da7df523","system_id":"levelo_inurba_marseille","lat":43.25122,"lon":5.40304,"is_reserved":false,"is_disabled":false,"rental_uris":{"android":"levelo://app?vid=c376de60-3c95-4c79-9305-e755da7df523","ios":"levelo://app?vid=c376de60-3c95-4c79-9305-e755da7df523"},"vehicle_type_id":"4","last_reported":1735236745,"current_range_meters":39200,"station_id":"ce4bhlh2rcd13ifvqgig","pricing_plan_id":"cebpf4jnsgd1na2vs0mg"},{"bike_id":"28614f0f-83c7-4a5e-aa82-6698d8d0f203","system_id":"levelo_inurba_marseille","lat":43.24808,"lon":5.37451,"is_reserved":false,"is_disabled":false,"rental_uris":{"android":"levelo://app?vid=28614f0f-83c7-4a5e-aa82-6698d8d0f203","ios":"levelo://app?vid=28614f0f-83c7-4a5e-aa82-6698d8d0f203"},"vehicle_type_id":"4","last_reported":1735236745,"current_range_meters":38800,"station_id":"ce4bhgh2rcd13ifvqfb0","pricing_plan_id":"cebpf4jnsgd1na2vs0mg"},{"bike_id":"dd88881d-c942-464c-aad2-87e6d645ff8c","system_id":"levelo_inurba_marseille","lat":43.29033,"lon":5.38648,"is_reserved":false,"is_disabled":false,"rental_uris":{"android":"levelo://app?vid=dd88881d-c942-464c-aad2-87e6d645ff8c","ios":"levelo://app?vid=dd88881d-c942-464c-aad2-87e6d645ff8c"},"vehicle_type_id":"4","last_reported":1735236745,"current_range_meters":29600,"station_id":"ce4bh4p2rcd13ifvqe0g","pricing_plan_id":"cebpf4jnsgd1na2vs0mg"},{"bike_id":"d0176328-ce91-480a-9a59-504aa6dc56be","system_id":"levelo_inurba_marseille","lat":43.26802,"lon":5.4027,"is_reserved":false,"is_disabled":false,"rental_uris":{"android":"levelo://app?vid=d0176328-ce91-480a-9a59-504aa6dc56be","ios":"levelo://app?vid=d0176328-ce91-480a-9a59-504aa6dc56be"},"vehicle_type_id":"4","last_reported":1735236745,"current_range_meters":38000,"station_id":"ce501612rcd8frsf0b60","pricing_plan_id":"cebpf4jnsgd1na2vs0mg"},{"bike_id":"0d5b7fd4-6941-43e0-8419-5c2018b815d2","system_id":"levelo_inurba_marseille","lat":43.29003,"lon":5.35605,"is_reserved":false,"is_disabled":false,"rental_uris":{"android":"levelo://app?vid=0d5b7fd4-6941-43e0-8419-5c2018b815d2","ios":"levelo://app?vid=0d5b7fd4-6941-43e0-8419-5c2018b815d2"},"vehicle_type_id":"4","last_reported":1735236745,"current_range_meters":30000,"station_id":"ce4bhb92rcd13ifvqen0","pricing_plan_id":"cebpf4jnsgd1na2vs0mg"},{"bike_id":"639cab9d-ef64-470e-a59a-2cbdc7a3fca9","system_id":"levelo_inurba_marseille","lat":43.28671,"lon":5.38666,"is_reserved":false,"is_disabled":false,"rental_uris":{"android":"levelo://app?vid=639cab9d-ef64-470e-a59a-2cbdc7a3fca9","ios":"levelo://app?vid=639cab9d-ef64-470e-a59a-2cbdc7a3fca9"},"vehicle_type_id":"4","last_reported":1735236745,"current_range_meters":9200,"station_id":"ce4bh492rcd13ifvqdug","pricing_plan_id":"cebpf4jnsgd1na2vs0mg"},{"bike_id":"37f0a2d8-e826-40ce-b16e-8df2ce49b13d","system_id":"levelo_inurba_marseille","lat":43.31112,"lon":5.37754,"is_reserved":false,"is_disabled":false,"rental_uris":{"android":"levelo://app?vid=37f0a2d8-e826-40ce-b16e-8df2ce49b13d","ios":"levelo://app?vid=37f0a2d8-e826-40ce-b16e-8df2ce49b13d"},"vehicle_type_id":"4","last_reported":1735236745,"current_range_meters":24800,"station_id":"ce4bgt92rcd13ifvqcg0","pricing_plan_id":"cebpf4jnsgd1na2vs0mg"},{"bike_id":"2cca7a4c-2861-4c49-80ab-3fd5edea29ec","system_id":"levelo_inurba_marseille","lat":43.29551,"lon":5.37368,"is_reserved":false,"is_disabled":false,"rental_uris":{"android":"levelo://app?vid=2cca7a4c-2861-4c49-80ab-3fd5edea29ec","ios":"levelo://app?vid=2cca7a4c-2861-4c49-80ab-3fd5edea29ec"},"vehicle_type_id":"4","last_reported":1735236745,"current_range_meters":20800,"station_id":"","pricing_plan_id":"cebpf4jnsgd1na2vs0mg"},{"bike_id":"c885ab47-94e1-42c7-b4a6-0605cecd4097","system_id":"levelo_inurba_marseille","lat":43.28471,"lon":5.35886,"is_reserved":false,"is_disabled":false,"rental_uris":{"android":"levelo://app?vid=c885ab47-94e1-42c7-b4a6-0605cecd4097","ios":"levelo://app?vid=c885ab47-94e1-42c7-b4a6-0605cecd4097"},"vehicle_type_id":"4","last_reported":1735236745,"current_range_meters":38000,"station_id":"ce4bhah2rcd13ifvqei0","pricing_plan_id":"cebpf4jnsgd1na2vs0mg"},{"bike_id":"4e7c8620-84dc-4bc7-8f9b-4ff4d2d3c951","system_id":"levelo_inurba_marseille","lat":43.27372,"lon":5.36257,"is_reserved":false,"is_disabled":false,"rental_uris":{"android":"levelo://app?vid=4e7c8620-84dc-4bc7-8f9b-4ff4d2d3c951","ios":"levelo://app?vid=4e7c8620-84dc-4bc7-8f9b-4ff4d2d3c951"},"vehicle_type_id":"4","last_reported":1735236745,"current_range_meters":33600,"station_id":"ce4bhbh2rcd13ifvqeo0","pricing_plan_id":"cebpf4jnsgd1na2vs0mg"},{"bike_id":"61e423ca-1cdc-4949-a601-5438262c4bcb","system_id":"levelo_inurba_marseille","lat":43.29907,"lon":5.39742,"is_reserved":false,"is_disabled":false,"rental_uris":{"android":"levelo://app?vid=61e423ca-1cdc-4949-a601-5438262c4bcb","ios":"levelo://app?vid=61e423ca-1cdc-4949-a601-5438262c4bcb"},"vehicle_type_id":"4","last_reported":1735236745,"current_range_meters":32400,"station_id":"ce4bh0h2rcd13ifvqd50","pricing_plan_id":"cebpf4jnsgd1na2vs0mg"},{"bike_id":"ccd174af-000a-4ecb-b0e4-7062a855a947","system_id":"levelo_inurba_marseille","lat":43.28849,"lon":5.3585,"is_reserved":false,"is_disabled":false,"rental_uris":{"android":"levelo://app?vid=ccd174af-000a-4ecb-b0e4-7062a855a947","ios":"levelo://app?vid=ccd174af-000a-4ecb-b0e4-7062a855a947"},"vehicle_type_id":"4","last_reported":1735236745,"current_range_meters":16000,"station_id":"ce4bhb12rcd13ifvqem0","pricing_plan_id":"cebpf4jnsgd1na2vs0mg"},{"bike_id":"9558baa7-2a7d-47c9-9553-a4b09aaf772c","system_id":"levelo_inurba_marseille","lat":43.26558,"lon":5.37293,"is_reserved":false,"is_disabled":false,"rental_uris":{"android":"levelo://app?vid=9558baa7-2a7d-47c9-9553-a4b09aaf772c","ios":"levelo://app?vid=9558baa7-2a7d-47c9-9553-a4b09aaf772c"},"vehicle_type_id":"4","last_reported":1735236745,"current_range_meters":34000,"station_id":"ce4bhg12rcd13ifvqf70","pricing_plan_id":"cebpf4jnsgd1na2vs0mg"},{"bike_id":"3a5a0cc7-f31e-4cbc-80af-0889792aef3a","system_id":"levelo_inurba_marseille","lat":43.26026,"lon":5.37548,"is_reserved":false,"is_disabled":false,"rental_uris":{"android":"levelo://app?vid=3a5a0cc7-f31e-4cbc-80af-0889792aef3a","ios":"levelo://app?vid=3a5a0cc7-f31e-4cbc-80af-0889792aef3a"},"vehicle_type_id":"4","last_reported":1735236745,"current_range_meters":39200,"station_id":"ce4bhgh2rcd13ifvqfa0","pricing_plan_id":"cebpf4jnsgd1na2vs0mg"},{"bike_id":"53538ff3-362f-468c-bbf6-884e50e58f3a","system_id":"levelo_inurba_marseille","lat":43.28945,"lon":5.36387,"is_reserved":false,"is_disabled":false,"rental_uris":{"android":"levelo://app?vid=53538ff3-362f-468c-bbf6-884e50e58f3a","ios":"levelo://app?vid=53538ff3-362f-468c-bbf6-884e50e58f3a"},"vehicle_type_id":"4","last_reported":1735236745,"current_range_meters":28000,"station_id":"ce4bhc92rcd13ifvqetg","pricing_plan_id":"cebpf4jnsgd1na2vs0mg"},{"bike_id":"b0a18d06-1002-4baf-906d-b04071543c58","system_id":"levelo_inurba_marseille","lat":43.30512,"lon":5.36489,"is_reserved":false,"is_disabled":false,"rental_uris":{"android":"levelo://app?vid=b0a18d06-1002-4baf-906d-b04071543c58","ios":"levelo://app?vid=b0a18d06-1002-4baf-906d-b04071543c58"},"vehicle_type_id":"4","last_reported":1735236745,"current_range_meters":28800,"station_id":"","pricing_plan_id":"cebpf4jnsgd1na2vs0mg"},{"bike_id":"e0bd784d-ca28-4620-afc9-ab6d9370b0ba","system_id":"levelo_inurba_marseille","lat":43.32043,"lon":5.41573,"is_reserved":false,"is_disabled":false,"rental_uris":{"android":"levelo://app?vid=e0bd784d-ca28-4620-afc9-ab6d9370b0ba","ios":"levelo://app?vid=e0bd784d-ca28-4620-afc9-ab6d9370b0ba"},"vehicle_type_id":"4","last_reported":1735236745,"current_range_meters":31200,"station_id":"ce4bhq92rcd13ifvqhkg","pricing_plan_id":"cebpf4jnsgd1na2vs0mg"},{"bike_id":"c5fabc1a-3ab7-43b8-943e-68ee975cfc9e","system_id":"levelo_inurba_marseille","lat":43.30307,"lon":5.36915,"is_reserved":false,"is_disabled":false,"rental_uris":{"android":"levelo://app?vid=c5fabc1a-3ab7-43b8-943e-68ee975cfc9e","ios":"levelo://app?vid=c5fabc1a-3ab7-43b8-943e-68ee975cfc9e"},"vehicle_type_id":"4","last_reported":1735236745,"current_range_meters":38800,"station_id":"ce4bgqh2rcd13ifvqc5g","pricing_plan_id":"cebpf4jnsgd1na2vs0mg"},{"bike_id":"8489053c-46c5-4e78-9708-8c7f2f0c9a79","system_id":"levelo_inurba_marseille","lat":43.30591,"lon":5.39349,"is_reserved":false,"is_disabled":false,"rental_uris":{"android":"levelo://app?vid=8489053c-46c5-4e78-9708-8c7f2f0c9a79","ios":"levelo://app?vid=8489053c-46c5-4e78-9708-8c7f2f0c9a79"},"vehicle_type_id":"4","last_reported":1735236745,"current_range_meters":36800,"station_id":"ce4bh0p2rcd13ifvqd80","pricing_plan_id":"cebpf4jnsgd1na2vs0mg"},{"bike_id":"95f10e40-019d-48a5-8d54-a226c13f55e8","system_id":"levelo_inurba_marseille","lat":43.29009,"lon":5.35619,"is_reserved":false,"is_disabled":false,"rental_uris":{"android":"levelo://app?vid=95f10e40-019d-48a5-8d54-a226c13f55e8","ios":"levelo://app?vid=95f10e40-019d-48a5-8d54-a226c13f55e8"},"vehicle_type_id":"4","last_reported":1735236745,"current_range_meters":8400,"station_id":"ce4bhb92rcd13ifvqen0","pricing_plan_id":"cebpf4jnsgd1na2vs0mg"},{"bike_id":"a1c9af49-1121-45a0-9403-8da49a14b00d","system_id":"levelo_inurba_marseille","lat":43.26963,"lon":5.38619,"is_reserved":false,"is_disabled":false,"rental_uris":{"android":"levelo://app?vid=a1c9af49-1121-45a0-9403-8da49a14b00d","ios":"levelo://app?vid=a1c9af49-1121-45a0-9403-8da49a14b00d"},"vehicle_type_id":"4","last_reported":1735236745,"current_range_meters":24000,"station_id":"ce4bhh92rcd13ifvqfh0","pricing_plan_id":"cebpf4jnsgd1na2vs0mg"},{"bike_id":"1b732f27-a851-4d12-ac02-3b86e3dc8a61","system_id":"levelo_inurba_marseille","lat":43.26221,"lon":5.37428,"is_reserved":false,"is_disabled":false,"rental_uris":{"android":"levelo://app?vid=1b732f27-a851-4d12-ac02-3b86e3dc8a61","ios":"levelo://app?vid=1b732f27-a851-4d12-ac02-3b86e3dc8a61"},"vehicle_type_id":"4","last_reported":1735236745,"current_range_meters":26000,"station_id":"","pricing_plan_id":"cebpf4jnsgd1na2vs0mg"},{"bike_id":"7b24f2f4-e3c0-4c8f-8ee1-3f46bbf2f116","system_id":"levelo_inurba_marseille","lat":43.317611,"lon":5.390107,"is_reserved":false,"is_disabled":false,"rental_uris":{"android":"levelo://app?vid=7b24f2f4-e3c0-4c8f-8ee1-3f46bbf2f116","ios":"levelo://app?vid=7b24f2f4-e3c0-4c8f-8ee1-3f46bbf2f116"},"vehicle_type_id":"4","last_reported":1735236745,"current_range_meters":38800,"station_id":"ce4bhqp2rcd13ifvqhng","pricing_plan_id":"cebpf4jnsgd1na2vs0mg"},{"bike_id":"491a606a-5a0e-411b-9789-9c74b8b5e4f2","system_id":"levelo_inurba_marseille","lat":43.25822,"lon":5.39425,"is_reserved":false,"is_disabled":false,"rental_uris":{"android":"levelo://app?vid=491a606a-5a0e-411b-9789-9c74b8b5e4f2","ios":"levelo://app?vid=491a606a-5a0e-411b-9789-9c74b8b5e4f2"},"vehicle_type_id":"4","last_reported":1735236745,"current_range_meters":38800,"station_id":"ce4bhip2rcd13ifvqft0","pricing_plan_id":"cebpf4jnsgd1na2vs0mg"},{"bike_id":"dac94ecf-3203-4c89-acc0-21c14e979588","system_id":"levelo_inurba_marseille","lat":43.26679,"lon":5.38269,"is_reserved":false,"is_disabled":false,"rental_uris":{"android":"levelo://app?vid=dac94ecf-3203-4c89-acc0-21c14e979588","ios":"levelo://app?vid=dac94ecf-3203-4c89-acc0-21c14e979588"},"vehicle_type_id":"4","last_reported":1735236745,"current_range_meters":6000,"station_id":"ce4bhg92rcd13ifvqf90","pricing_plan_id":"cebpf4jnsgd1na2vs0mg"},{"bike_id":"f0cafae0-f29d-4301-add9-cbd6aefdfe71","system_id":"levelo_inurba_marseille","lat":43.27078,"lon":5.42275,"is_reserved":false,"is_disabled":false,"rental_uris":{"android":"levelo://app?vid=f0cafae0-f29d-4301-add9-cbd6aefdfe71","ios":"levelo://app?vid=f0cafae0-f29d-4301-add9-cbd6aefdfe71"},"vehicle_type_id":"4","last_reported":1735236745,"current_range_meters":32000,"station_id":"ce4bhk92rcd13ifvqgb0","pricing_plan_id":"cebpf4jnsgd1na2vs0mg"},{"bike_id":"926e00f2-1ae7-452a-97c8-86d0ae773737","system_id":"levelo_inurba_marseille","lat":43.28935,"lon":5.38413,"is_reserved":false,"is_disabled":false,"rental_uris":{"android":"levelo://app?vid=926e00f2-1ae7-452a-97c8-86d0ae773737","ios":"levelo://app?vid=926e00f2-1ae7-452a-97c8-86d0ae773737"},"vehicle_type_id":"4","last_reported":1735236745,"current_range_meters":38800,"station_id":"ce4bh612rcd13ifvqe6g","pricing_plan_id":"cebpf4jnsgd1na2vs0mg"},{"bike_id":"3d57da4d-f3d8-4246-b524-85e84afd0427","system_id":"levelo_inurba_marseille","lat":43.28473,"lon":5.35878,"is_reserved":false,"is_disabled":false,"rental_uris":{"android":"levelo://app?vid=3d57da4d-f3d8-4246-b524-85e84afd0427","ios":"levelo://app?vid=3d57da4d-f3d8-4246-b524-85e84afd0427"},"vehicle_type_id":"4","last_reported":1735236745,"current_range_meters":38800,"station_id":"ce4bhah2rcd13ifvqei0","pricing_plan_id":"cebpf4jnsgd1na2vs0mg"},{"bike_id":"6b7a9439-218c-4ee3-95c5-a8a6bed16d9b","system_id":"levelo_inurba_marseille","lat":43.29621,"lon":5.37168,"is_reserved":false,"is_disabled":false,"rental_uris":{"android":"levelo://app?vid=6b7a9439-218c-4ee3-95c5-a8a6bed16d9b","ios":"levelo://app?vid=6b7a9439-218c-4ee3-95c5-a8a6bed16d9b"},"vehicle_type_id":"4","last_reported":1735236745,"current_range_meters":36800,"station_id":"ce4bgnh2rcd13ifvqc0g","pricing_plan_id":"cebpf4jnsgd1na2vs0mg"},