{"last_updated":1761423042,"ttl":60,"version":"2.2","data":{"bikes":[{"bike_id":"892ad6cd-826f-4ec7-b8dc-d822a82e970f","system_id":"levelo_inurba_marseille","lat":43.2524,"lon":5.38629,"is_reserved":false,"is_disabled":false,"rental_uris":{"android":"levelo://app?vid=892ad6cd-826f-4ec7-b8dc-d822a82e970f","ios":"levelo://app?vid=892ad6cd-826f-4ec7-b8dc-d822a82e970f"},"vehicle_type_id":"4","last_reported":1761423042,"current_range_meters":2800,"station_id":"","pricing_plan_id":"cebpf4jnsgd1na2vs0mg"},{"bike_id":"440714dd-a106-4ecd-a171-eeeb1addf8b1","system_id":"levelo_inurba_marseille","lat":43.23774,"lon":5.43577,"is_reserved":false,"is_disabled":false,"rental_uris":{"android":"levelo://app?vid=440714dd-a106-4ecd-a171-eeeb1addf8b1","ios":"levelo://app?vid=440714dd-a106-4ecd-a171-eeeb1addf8b1"},"vehicle_type_id":"4","last_reported":1761423042,"current_range_meters":2800,"station_id":"st_d2m6c4gdas8pm72e190g","pricing_plan_id":"cebpf4jnsgd1na2vs0mg"},{"bike_id":"2d8b9aab-027c-4fbc-9b07-6f6b906f3cbe","system_id":"levelo_inurba_marseille","lat":43.26215,"lon":5.3744,"is_reserved":false,"is_disabled":false,"rental_uris":{"android":"levelo://app?vid=2d8b9aab-027c-4fbc-9b07-6f6b906f3cbe","ios":"levelo://app?vid=2d8b9aab-027c-4fbc-9b07-6f6b906f3cbe"},"vehicle_type_id":"4","last_reported":1761423042,"current_range_meters":2800,"station_id":"ce4bhgp2rcd13ifvqfc0","pricing_plan_id":"cebpf4jnsgd1na2vs0mg"},{"bike_id":"85afcb9d-9b6c-4a84-8c6c-3218f3337a86","system_id":"levelo_inurba_marseille","lat":43.249041,"lon":5.38943,"is_reserved":false,"is_disabled":false,"rental_uris":{"android":"levelo://app?vid=85afcb9d-9b6c-4a84-8c6c-3218f3337a86","ios":"levelo://app?vid=85afcb9d-9b6c-4a84-8c6c-3218f3337a86"},"vehicle_type_id":"4","last_reported":1761423042,"current_range_meters":3200,"station_id":"","pricing_plan_id":"cebpf4jnsgd1na2vs0mg"},{"bike_id":"e08d4553-4c0b-4986-8aac-0bde0cbffe65","system_id":"levelo_inurba_marseille","lat":43.28951,"lon":5.39611,"is_reserved":false,"is_disabled":true,"rental_uris":{"android":"levelo://app?vid=e08d4553-4c0b-4986-8aac-0bde0cbffe65","ios":"levelo://app?vid=e08d4553-4c0b-4986-8aac-0bde0cbffe65"},"vehicle_type_id":"4","last_reported":1761423042,"current_range_meters":3600,"station_id":"ce4bh3h2rcd13ifvqdn0","pricing_plan_id":"cebpf4jnsgd1na2vs0mg"},{"bike_id":"cf3e7825-edb7-459b-bd61-582427624b31","system_id":"levelo_inurba_marseille","lat":43.29981,"lon":5.38487,"is_reserved":false,"is_disabled":false,"rental_uris":{"android":"levelo://app?vid=cf3e7825-edb7-459b-bd61-582427624b31","ios":"levelo://app?vid=cf3e7825-edb7-459b-bd61-582427624b31"},"vehicle_type_id":"4","last_reported":1761423042,"current_range_meters":3600,"station_id":"","pricing_plan_id":"cebpf4jnsgd1na2vs0mg"},{"bike_id":"323bf2de-3bb4-4b4c-b330-b19ea807dbf5","system_id":"levelo_inurba_marseille","lat":43.32989,"lon":5.42933,"is_reserved":false,"is_disabled":false,"rental_uris":{"android":"levelo://app?vid=323bf2de-3bb4-4b4c-b330-b19ea807dbf5","ios":"levelo://app?vid=323bf2de-3bb4-4b4c-b330-b19ea807dbf5"},"vehicle_type_id":"4","last_reported":1761423042,"current_range_meters":3600,"station_id":"","pricing_plan_id":"cebpf4jnsgd1na2vs0mg"},{"bike_id":"17bd9fff-f8a7-45af-8120-cab272292f42","system_id":"levelo_inurba_marseille","lat":43.28477,"lon":5.4841,"is_reserved":false,"is_disabled":false,"rental_uris":{"android":"levelo://app?vid=17bd9fff-f8a7-45af-8120-cab272292f42","ios":"levelo://app?vid=17bd9fff-f8a7-45af-8120-cab272292f42"},"vehicle_type_id":"4","last_reported":1761423042,"current_range_meters":3600,"station_id":"st_d3svhcjqgbts73a3dn0g","pricing_plan_id":"cebpf4jnsgd1na2vs0mg"},{"bike_id":"faa7a992-14fa-4691-a59a-05f5465f7600","system_id":"levelo_inurba_marseille","lat":43.248,"lon":5.37463,"is_reserved":false,"is_disabled":false,"rental_uris":{"android":"levelo://app?vid=faa7a992-14fa-4691-a59a-05f5465f7600","ios":"levelo://app?vid=faa7a992-14fa-4691-a59a-05f5465f7600"},"vehicle_type_id":"4","last_reported":1761423042,"current_range_meters":4000,"station_id":"ce4bhgh2rcd13ifvqfb0","pricing_plan_id":"cebpf4jnsgd1na2vs0mg"},{"bike_id":"8504096e-568d-467f-a038-ca9bbb9a8300","system_id":"levelo_inurba_marseille","lat":43.29878,"lon":5.37606,"is_reserved":false,"is_disabled":false,"rental_uris":{"android":"levelo://app?vid=8504096e-568d-467f-a038-ca9bbb9a8300","ios":"levelo://app?vid=8504096e-568d-467f-a038-ca9bbb9a8300"},"vehicle_type_id":"4","last_reported":1761423042,"current_range_meters":4000,"station_id":"","pricing_plan_id":"cebpf4jnsgd1na2vs0mg"},{"bike_id":"9fa6395e-c768-468c-8ed3-8eed46c906d7","system_id":"levelo_inurba_marseille","lat":43.30129,"lon":5.39874,"is_reserved":false,"is_disabled":false,"rental_uris":{"android":"levelo://app?vid=9fa6395e-c768-468c-8ed3-8eed46c906d7","ios":"levelo://app?vid=9fa6395e-c768-468c-8ed3-8eed46c906d7"},"vehicle_type_id":"4","last_reported":1761423042,"current_range_meters":4400,"station_id":"ce4bh0h2rcd13ifvqd40","pricing_plan_id":"cebpf4jnsgd1na2vs0mg"},{"bike_id":"d1e4b9a6-0d73-4699-b946-bacfe0253dbc","system_id":"levelo_inurba_marseille","lat":43.270576,"lon":5.383095,"is_reserved":false,"is_disabled":false,"rental_uris":{"android":"levelo://app?vid=d1e4b9a6-0d73-4699-b946-bacfe0253dbc","ios":"levelo://app?vid=d1e4b9a6-0d73-4699-b946-bacfe0253dbc"},"vehicle_type_id":"4","last_reported":1761423042,"current_range_meters":4400,"station_id":"st_d3n2fo6cfp8s73cte1j0","pricing_plan_id":"cebpf4jnsgd1na2vs0mg"},{"bike_id":"6f2958c5-507f-4774-80ee-b0fa9e11c986","system_id":"levelo_inurba_marseille","lat":43.269286,"lon":5.402486,"is_reserved":false,"is_disabled":false,"rental_uris":{"android":"levelo://app?vid=6f2958c5-507f-4774-80ee-b0fa9e11c986","ios":"levelo://app?vid=6f2958c5-507f-4774-80ee-b0fa9e11c986"},"vehicle_type_id":"4","last_reported":1761423042,"current_range_meters":4800,"station_id":"cjm6bp8fraef2m0cb0m0","pricing_plan_id":"cebpf4jnsgd1na2vs0mg"},{"bike_id":"645a2134-62e6-4999-a39e-f5da207de569","system_id":"levelo_inurba_marseille","lat":43.300835,"lon":5.390815,"is_reserved":false,"is_disabled":false,"rental_uris":{"android":"levelo://app?vid=645a2134-62e6-4999-a39e-f5da207de569","ios":"levelo://app?vid=645a2134-62e6-4999-a39e-f5da207de569"},"vehicle_type_id":"4","last_reported":1761423042,"current_range_meters":4800,"station_id":"","pricing_plan_id":"cebpf4jnsgd1na2vs0mg"},{"bike_id":"00fd3c6a-780c-49dc-9993-d4de69c9b57a","system_id":"levelo_inurba_marseille","lat":43.310738,"lon":5.37455,"is_reserved":false,"is_disabled":false,"rental_uris":{"android":"levelo://app?vid=00fd3c6a-780c-49dc-9993-d4de69c9b57a","ios":"levelo://app?vid=00fd3c6a-780c-49dc-9993-d4de69c9b57a"},"vehicle_type_id":"4","last_reported":1761423042,"current_range_meters":4800,"station_id":"","pricing_plan_id":"cebpf4jnsgd1na2vs0mg"},{"bike_id":"8bcacd78-80de-4026-af75-b37ebe3030fe","system_id":"levelo_inurba_marseille","lat":43.334756,"lon":5.404255,"is_reserved":false,"is_disabled":false,"rental_uris":{"android":"levelo://app?vid=8bcacd78-80de-4026-af75-b37ebe3030fe","ios":"levelo://app?vid=8bcacd78-80de-4026-af75-b37ebe3030fe"},"vehicle_type_id":"4","last_reported":1761423042,"current_range_meters":4800,"station_id":"","pricing_plan_id":"cebpf4jnsgd1na2vs0mg"},{"bike_id":"b9764ed2-f91a-421e-b54e-d7527bd8af22","system_id":"levelo_inurba_marseille","lat":43.29811,"lon":5.36588,"is_reserved":false,"is_disabled":false,"rental_uris":{"android":"levelo://app?vid=b9764ed2-f91a-421e-b54e-d7527bd8af22","ios":"levelo://app?vid=b9764ed2-f91a-421e-b54e-d7527bd8af22"},"vehicle_type_id":"4","last_reported":1761423042,"current_range_meters":5600,"station_id":"","pricing_plan_id":"cebpf4jnsgd1na2vs0mg"},{"bike_id":"9bd2d8c7-e88c-4fc1-8dd0-e07ecd8cc4ec","system_id":"levelo_inurba_marseille","lat":43.248121,"lon":5.37461,"is_reserved":false,"is_disabled":false,"rental_uris":{"android":"levelo://app?vid=9bd2d8c7-e88c-4fc1-8dd0-e07ecd8cc4ec","ios":"levelo://app?vid=9bd2d8c7-e88c-4fc1-8dd0-e07ecd8cc4ec"},"vehicle_type_id":"4","last_reported":1761423042,"current_range_meters":5600,"station_id":"ce4bhgh2rcd13ifvqfb0","pricing_plan_id":"cebpf4jnsgd1na2vs0mg"},{"bike_id":"e7bb7b19-03a2-4ce3-98bd-1068778ea96c","system_id":"levelo_inurba_marseille","lat":43.22931,"lon":5.35401,"is_reserved":false,"is_disabled":false,"rental_uris":{"android":"levelo://app?vid=e7bb7b19-03a2-4ce3-98bd-1068778ea96c","ios":"levelo://app?vid=e7bb7b19-03a2-4ce3-98bd-1068778ea96c"},"vehicle_type_id":"4","last_reported":1761423042,"current_range_meters":6000,"station_id":"cpo3532slgdg3j2ikp40","pricing_plan_id":"cebpf4jnsgd1na2vs0mg"},{"bike_id":"3087a1d3-ced4-42c1-9d83-b92a9fbc6953","system_id":"levelo_inurba_marseille","lat":43.30605,"lon":5.39356,"is_reserved":false,"is_disabled":false,"rental_uris":{"android":"levelo://app?vid=3087a1d3-ced4-42c1-9d83-b92a9fbc6953","ios":"levelo://app?vid=3087a1d3-ced4-42c1-9d83-b92a9fbc6953"},"vehicle_type_id":"4","last_reported":1761423042,"current_range_meters":6000,"station_id":"ce4bh0p2rcd13ifvqd80","pricing_plan_id":"cebpf4jnsgd1na2vs0mg"},{"bike_id":"7963bad5-77f0-4bae-94fa-66f1a6d79198","system_id":"levelo_inurba_marseille","lat":43.25089,"lon":5.3952,"is_reserved":false,"is_disabled":false,"rental_uris":{"android":"levelo://app?vid=7963bad5-77f0-4bae-94fa-66f1a6d79198","ios":"levelo://app?vid=7963bad5-77f0-4bae-94fa-66f1a6d79198"},"vehicle_type_id":"4","last_reported":1761423042,"current_range_meters":6000,"station_id":"ce4bhm12rcd13ifvqgkg","pricing_plan_id":"cebpf4jnsgd1na2vs0mg"},{"bike_id":"cb14a91a-e5a7-4fa2-9c1d-b1acec3d3362","system_id":"levelo_inurba_marseille","lat":43.24179,"lon":5.36402,"is_reserved":false,"is_disabled":false,"rental_uris":{"android":"levelo://app?vid=cb14a91a-e5a7-4fa2-9c1d-b1acec3d3362","ios":"levelo://app?vid=cb14a91a-e5a7-4fa2-9c1d-b1acec3d3362"},"vehicle_type_id":"4","last_reported":1761423042,"current_range_meters":6000,"station_id":"cpo36qri1sfpv3e86is0","pricing_plan_id":"cebpf4jnsgd1na2vs0mg"},{"bike_id":"9881c788-42a8-46f5-8ccc-580a73583155","system_id":"levelo_inurba_marseille","lat":43.32058,"lon":5.40885,"is_reserved":false,"is_disabled":false,"rental_uris":{"android":"levelo://app?vid=9881c788-42a8-46f5-8ccc-580a73583155","ios":"levelo://app?vid=9881c788-42a8-46f5-8ccc-580a73583155"},"vehicle_type_id":"4","last_reported":1761423042,"current_range_meters":6000,"station_id":"","pricing_plan_id":"cebpf4jnsgd1na2vs0mg"},{"bike_id":"026b93b4-45e9-4e98-b47e-186f68706ba9","system_id":"levelo_inurba_marseille","lat":43.29261,"lon":5.38462,"is_reserved":false,"is_disabled":false,"rental_uris":{"android":"levelo://app?vid=026b93b4-45e9-4e98-b47e-186f68706ba9","ios":"levelo://app?vid=026b93b4-45e9-4e98-b47e-186f68706ba9"},"vehicle_type_id":"4","last_reported":1761423042,"current_range_meters":6000,"station_id":"ce4bh692rcd13ifvqea0","pricing_plan_id":"cebpf4jnsgd1na2vs0mg"},{"bike_id":"ef9f94b6-49db-4195-b862-563223e2ba3d","system_id":"levelo_inurba_marseille","lat":43.21755,"lon":5.34604,"is_reserved":false,"is_disabled":false,"rental_uris":{"android":"levelo://app?vid=ef9f94b6-49db-4195-b862-563223e2ba3d","ios":"levelo://app?vid=ef9f94b6-49db-4195-b862-563223e2ba3d"},"vehicle_type_id":"4","last_reported":1761423042,"current_range_meters":6400,"station_id":"st_cvj6r9ubvosntc0bgbag","pricing_plan_id":"cebpf4jnsgd1na2vs0mg"},{"bike_id":"2de1644b-5654-4f93-80f1-c0160a02f70e","system_id":"levelo_inurba_marseille","lat":43.30594,"lon":5.39347,"is_reserved":false,"is_disabled":false,"rental_uris":{"android":"levelo://app?vid=2de1644b-5654-4f93-80f1-c0160a02f70e","ios":"levelo://app?vid=2de1644b-5654-4f93-80f1-c0160a02f70e"},"vehicle_type_id":"4","last_reported":1761423042,"current_range_meters":6400,"station_id":"ce4bh0p2rcd13ifvqd80","pricing_plan_id":"cebpf4jnsgd1na2vs0mg"},{"bike_id":"139d020b-78f9-452a-b9f6-07a4ecc161b4","system_id":"levelo_inurba_marseille","lat":43.24544,"lon":5.39517,"is_reserved":false,"is_disabled":false,"rental_uris":{"android":"levelo://app?vid=139d020b-78f9-452a-b9f6-07a4ecc161b4","ios":"levelo://app?vid=139d020b-78f9-452a-b9f6-07a4ecc161b4"},"vehicle_type_id":"4","last_reported":1761423042,"current_range_meters":6400,"station_id":"ce4bhlp2rcd13ifvqgjg","pricing_plan_id":"cebpf4jnsgd1na2vs0mg"},{"bike_id":"af37cf42-0c62-43d0-bb3a-42bf13c7a169","system_id":"levelo_inurba_marseille","lat":43.27916,"lon":5.39584,"is_reserved":false,"is_disabled":false,"rental_uris":{"android":"levelo://app?vid=af37cf42-0c62-43d0-bb3a-42bf13c7a169","ios":"levelo://app?vid=af37cf42-0c62-43d0-bb3a-42bf13c7a169"},"vehicle_type_id":"4","last_reported":1761423042,"current_range_meters":6400,"station_id":"ce4bhf92rcd13ifvqf40","pricing_plan_id":"cebpf4jnsgd1na2vs0mg"},{"bike_id":"7f083fb3-6efa-4024-83e8-8c885a0d1d89","system_id":"levelo_inurba_marseille","lat":43.29265,"lon":5.38435,"is_reserved":false,"is_disabled":false,"rental_uris":{"android":"levelo://app?vid=7f083fb3-6efa-4024-83e8-8c885a0d1d89","ios":"levelo://app?vid=7f083fb3-6efa-4024-83e8-8c885a0d1d89"},"vehicle_type_id":"4","last_reported":1761423042,"current_range_meters":6800,"station_id":"ce4bh692rcd13ifvqea0","pricing_plan_id":"cebpf4jnsgd1na2vs0mg"},{"bike_id":"2842f5fd-7b05-4b47-909c-5ee54d7d3bc5","system_id":"levelo_inurba_marseille","lat":43.32452,"lon":5.42789,"is_reserved":false,"is_disabled":false,"rental_uris":{"android":"levelo://app?vid=2842f5fd-7b05-4b47-909c-5ee54d7d3bc5","ios":"levelo://app?vid=2842f5fd-7b05-4b47-909c-5ee54d7d3bc5"},"vehicle_type_id":"4","last_reported":1761423042,"current_range_meters":6800,"station_id":"","pricing_plan_id":"cebpf4jnsgd1na2vs0mg"},{"bike_id":"da5ec092-2438-4dd2-a625-8fc0f3baf6af","system_id":"levelo_inurba_marseille","lat":43.33722,"lon":5.36287,"is_reserved":false,"is_disabled":false,"rental_uris":{"android":"levelo://app?vid=da5ec092-2438-4dd2-a625-8fc0f3baf6af","ios":"levelo://app?vid=da5ec092-2438-4dd2-a625-8fc0f3baf6af"},"vehicle_type_id":"4","last_reported":1761423042,"current_range_meters":6800,"station_id":"","pricing_plan_id":"cebpf4jnsgd1na2vs0mg"},{"bike_id":"fe657471-856b-41e4-bb82-9c9a81b1b444","system_id":"levelo_inurba_marseille","lat":43.290222,"lon":5.386463,"is_reserved":false,"is_disabled":false,"rental_uris":{"android":"levelo://app?vid=fe657471-856b-41e4-bb82-9c9a81b1b444","ios":"levelo://app?vid=fe657471-856b-41e4-bb82-9c9a81b1b444"},"vehicle_type_id":"4","last_reported":1761423042,"current_range_meters":6800,"station_id":"","pricing_plan_id":"cebpf4jnsgd1na2vs0mg"},{"bike_id":"50a59d8a-1ade-4d64-8f6c-f90fc674d8a8","system_id":"levelo_inurba_marseille","lat":43.27209,"lon":5.39179,"is_reserved":false,"is_disabled":false,"rental_uris":{"android":"levelo://app?vid=50a59d8a-1ade-4d64-8f6c-f90fc674d8a8","ios":"levelo://app?vid=50a59d8a-1ade-4d64-8f6c-f90fc674d8a8"},"vehicle_type_id":"4","last_reported":1761423042,"current_range_meters":6800,"station_id":"ce4bhhp2rcd13ifvqfm0","pricing_plan_id":"cebpf4jnsgd1na2vs0mg"},{"bike_id":"7cd91938-3219-470e-835d-7418891d9874","system_id":"levelo_inurba_marseille","lat":43.26556,"lon":5.3729,"is_reserved":false,"is_disabled":false,"rental_uris":{"android":"levelo://app?vid=7cd91938-3219-470e-835d-7418891d9874","ios":"levelo://app?vid=7cd91938-3219-470e-835d-7418891d9874"},"vehicle_type_id":"4","last_reported":1761423042,"current_range_meters":6800,"station_id":"ce4bhg12rcd13ifvqf70","pricing_plan_id":"cebpf4jnsgd1na2vs0mg"},{"bike_id":"4cc0edfc-ff46-4c96-9438-209e9afb380b","system_id":"levelo_inurba_marseille","lat":43.28243,"lon":5.37243,"is_reserved":false,"is_disabled":false,"rental_uris":{"android":"levelo://app?vid=4cc0edfc-ff46-4c96-9438-209e9afb380b","ios":"levelo://app?vid=4cc0edfc-ff46-4c96-9438-209e9afb380b"},"vehicle_type_id":"4","last_reported":1761423042,"current_range_meters":7200,"station_id":"","pricing_plan_id":"cebpf4jnsgd1na2vs0mg"},{"bike_id":"23eeae47-ea25-4ef9-b222-187873d49cea","system_id":"levelo_inurba_marseille","lat":43.316847,"lon":5.404785,"is_reserved":false,"is_disabled":false,"rental_uris":{"android":"levelo://app?vid=23eeae47-ea25-4ef9-b222-187873d49cea","ios":"levelo://app?vid=23eeae47-ea25-4ef9-b222-187873d49cea"},"vehicle_type_id":"4","last_reported":1761423042,"current_range_meters":7200,"station_id":"","pricing_plan_id":"cebpf4jnsgd1na2vs0mg"},{"bike_id":"fa885e02-f27f-419b-8185-34c4da7189d1","system_id":"levelo_inurba_marseille","lat":43.30426,"lon":5.39741,"is_reserved":false,"is_disabled":false,"rental_uris":{"android":"levelo://app?vid=fa885e02-f27f-419b-8185-34c4da7189d1","ios":"levelo://app?vid=fa885e02-f27f-419b-8185-34c4da7189d1"},"vehicle_type_id":"4","last_reported":1761423042,"current_range_meters":7200,"station_id":"ce4bh092rcd13ifvqd20","pricing_plan_id":"cebpf4jnsgd1na2vs0mg"},{"bike_id":"e35e1247-2ec0-4206-a360-6aaa534a130f","system_id":"levelo_inurba_marseille","lat":43.28492,"lon":5.48389,"is_reserved":false,"is_disabled":false,"rental_uris":{"android":"levelo://app?vid=e35e1247-2ec0-4206-a360-6aaa534a130f","ios":"levelo://app?vid=e35e1247-2ec0-4206-a360-6aaa534a130f"},"vehicle_type_id":"4","last_reported":1761423042,"current_range_meters":7200,"station_id":"st_d3svhcjqgbts73a3dn0g","pricing_plan_id":"cebpf4jnsgd1na2vs0mg"},{"bike_id":"b06742cf-77b2-474e-bb4d-88e55534c9d6","system_id":"levelo_inurba_marseille","lat":43.30343,"lon":5.39196,"is_reserved":false,"is_disabled":false,"rental_uris":{"android":"levelo://app?vid=b06742cf-77b2-474e-bb4d-88e55534c9d6","ios":"levelo://app?vid=b06742cf-77b2-474e-bb4d-88e55534c9d6"},"vehicle_type_id":"4","last_reported":1761423042,"current_range_meters":7200,"station_id":"","pricing_plan_id":"cebpf4jnsgd1na2vs0mg"},{"bike_id":"5f9debc0-c360-4a2e-b517-592e9a0c2818","system_id":"levelo_inurba_marseille","lat":43.32949,"lon":5.42777,"is_reserved":false,"is_disabled":false,"rental_uris":{"android":"levelo://app?vid=5f9debc0-c360-4a2e-b517-592e9a0c2818","ios":"levelo://app?vid=5f9debc0-c360-4a2e-b517-592e9a0c2818"},"vehicle_type_id":"4","last_reported":1761423042,"current_range_meters":8000,"station_id":"","pricing_plan_id":"cebpf4jnsgd1na2vs0mg"},{"bike_id":"6a99ce50-d1ea-49c8-a74a-be2c0ad06139","system_id":"levelo_inurba_marseille","lat":43.29272,"lon":5.38435,"is_reserved":false,"is_disabled":false,"rental_uris":{"android":"levelo://app?vid=6a99ce50-d1ea-49c8-a74a-be2c0ad06139","ios":"levelo://app?vid=6a99ce50-d1ea-49c8-a74a-be2c0ad06139"},"vehicle_type_id":"4","last_reported":1761423042,"current_range_meters":8000,"station_id":"ce4bh692rcd13ifvqea0","pricing_plan_id":"cebpf4jnsgd1na2vs0mg"},{"bike_id":"f8abdd2c-d220-441a-9442-75068a48e917","system_id":"levelo_inurba_marseille","lat":43.26054,"lon":5.39399,"is_reserved":false,"is_disabled":false,"rental_uris":{"android":"levelo://app?vid=f8abdd2c-d220-441a-9442-75068a48e917","ios":"levelo://app?vid=f8abdd2c-d220-441a-9442-75068a48e917"},"vehicle_type_id":"4","last_reported":1761423042,"current_range_meters":8000,"station_id":"ce4bhh92rcd13ifvqfj0","pricing_plan_id":"cebpf4jnsgd1na2vs0mg"},{"bike_id":"4a296afa-1a38-462e-a74c-004b14367763","system_id":"levelo_inurba_marseille","lat":43.24167,"lon":5.39746,"is_reserved":false,"is_disabled":false,"rental_uris":{"android":"levelo://app?vid=4a296afa-1a38-462e-a74c-004b14367763","ios":"levelo://app?vid=4a296afa-1a38-462e-a74c-004b14367763"},"vehicle_type_id":"4","last_reported":1761423042,"current_range_meters":8000,"station_id":"ce4bhn12rcd13ifvqgpg","pricing_plan_id":"cebpf4jnsgd1na2vs0mg"},{"bike_id":"38bae4b3-7406-494f-add6-18310d92b72a","system_id":"levelo_inurba_marseille","lat":43.23213,"lon":5.35563,"is_reserved":false,"is_disabled":false,"rental_uris":{"android":"levelo://app?vid=38bae4b3-7406-494f-add6-18310d92b72a","ios":"levelo://app?vid=38bae4b3-7406-494f-add6-18310d92b72a"},"vehicle_type_id":"4","last_reported":1761423042,"current_range_meters":8400,"station_id":"ce4bhu92rcd13ifvqi70","pricing_plan_id":"cebpf4jnsgd1na2vs0mg"},{"bike_id":"8be5d16d-10d8-4992-9fd8-347e09f85485","system_id":"levelo_inurba_marseille","lat":43.22918,"lon":5.35329,"is_reserved":false,"is_disabled":false,"rental_uris":{"android":"levelo://app?vid=8be5d16d-10d8-4992-9fd8-347e09f85485","ios":"levelo://app?vid=8be5d16d-10d8-4992-9fd8-347e09f85485"},"vehicle_type_id":"4","last_reported":1761423042,"current_range_meters":8400,"station_id":"cpo3532slgdg3j2ikp40","pricing_plan_id":"cebpf4jnsgd1na2vs0mg"},{"bike_id":"fa063608-29c2-42ab-95b5-2fc82231eea9","system_id":"levelo_inurba_marseille","lat":43.21195,"lon":5.35068,"is_reserved":false,"is_disabled":true,"rental_uris":{"android":"levelo://app?vid=fa063608-29c2-42ab-95b5-2fc82231eea9","ios":"levelo://app?vid=fa063608-29c2-42ab-95b5-2fc82231eea9"},"vehicle_type_id":"4","last_reported":1761423042,"current_range_meters":8400,"station_id":"st_cvj6sg6p6f1abm77japg","pricing_plan_id":"cebpf4jnsgd1na2vs0mg"},{"bike_id":"197f73a4-d800-4b31-9153-1d695ae3668b","system_id":"levelo_inurba_marseille","lat":43.31453,"lon":5.39279,"is_reserved":false,"is_disabled":false,"rental_uris":{"android":"levelo://app?vid=197f73a4-d800-4b31-9153-1d695ae3668b","ios":"levelo://app?vid=197f73a4-d800-4b31-9153-1d695ae3668b"},"vehicle_type_id":"4","last_reported":1761423042,"current_range_meters":8400,"station_id":"","pricing_plan_id":"cebpf4jnsgd1na2vs0mg"},{"bike_id":"8c9b6ff5-2419-406d-86c0-e6d373fb3e64","system_id":"levelo_inurba_marseille","lat":43.29255,"lon":5.4091,"is_reserved":false,"is_disabled":false,"rental_uris":{"android":"levelo://app?vid=8c9b6ff5-2419-406d-86c0-e6d373fb3e64","ios":"levelo://app?vid=8c9b6ff5-2419-406d-86c0-e6d373fb3e64"},"vehicle_type_id":"4","last_reported":1761423042,"current_range_meters":8400,"station_id":"ce4bh192rcd13ifvqdc0","pricing_plan_id":"cebpf4jnsgd1na2vs0mg"},{"bike_id":"ada144b2-e4e2-48a8-a8b9-df2877637748","system_id":"levelo_inurba_marseille","lat":43.293056,"lon":5.371726,"is_reserved":false,"is_disabled":false,"rental_uris":{"android":"levelo://app?vid=ada144b2-e4e2-48a8-a8b9-df2877637748","ios":"levelo://app?vid=ada144b2-e4e2-48a8-a8b9-df2877637748"},"vehicle_type_id":"4","last_reported":1761423042,"current_range_meters":8400,"station_id":"ce4bgh92rcd13ifvqb40","pricing_plan_id":"cebpf4jnsgd1na2vs0mg"},{"bike_id":"91b07bac-e3a9-4e84-864b-63b2dad0df59","system_id":"levelo_inurba_marseille","lat":43.31698,"lon":5.40456,"is_reserved":false,"is_disabled":false,"rental_uris":{"android":"levelo://app?vid=91b07bac-e3a9-4e84-864b-63b2dad0df59","ios":"levelo://app?vid=91b07bac-e3a9-4e84-864b-63b2dad0df59"},"vehicle_type_id":"4","last_reported":1761423042,"current_range_meters":8400,"station_id":"ce4bh012rcd13ifvqd00","pricing_plan_id":"cebpf4jnsgd1na2vs0mg"},{"bike_id":"08e142ce-7c20-4229-ae81-8ba3f4114eb6","system_id":"levelo_inurba_marseille","lat":43.29518,"lon":5.39038,"is_reserved":false,"is_disabled":false,"rental_uris":{"android":"levelo://app?vid=08e142ce-7c20-4229-ae81-8ba3f4114eb6","ios":"levelo://app?vid=08e142ce-7c20-4229-ae81-8ba3f4114eb6"},"vehicle_type_id":"4","last_reported":1761423042,"current_range_meters":8800,"station_id":"ce4bh3p2rcd13ifvqdp0","pricing_plan_id":"cebpf4jnsgd1na2vs0mg"},{"bike_id":"6398fd05-47e5-41f8-95bf-116d17d1d757","system_id":"levelo_inurba_marseille","lat":43.292603,"lon":5.384447,"is_reserved":false,"is_disabled":false,"rental_uris":{"android":"levelo://app?vid=6398fd05-47e5-41f8-95bf-116d17d1d757","ios":"levelo://app?vid=6398fd05-47e5-41f8-95bf-116d17d1d757"},"vehicle_type_id":"4","last_reported":1761423042,"current_range_meters":8800,"station_id":"","pricing_plan_id":"cebpf4jnsgd1na2vs0mg"},{"bike_id":"4f5c5045-2f2c-4ab7-ad8b-eeba1d52fe66","system_id":"levelo_inurba_marseille","lat":43.31081,"lon":5.37469,"is_reserved":false,"is_disabled":false,"rental_uris":{"android":"levelo://app?vid=4f5c5045-2f2c-4ab7-ad8b-eeba1d52fe66","ios":"levelo://app?vid=4f5c5045-2f2c-4ab7-ad8b-eeba1d52fe66"},"vehicle_type_id":"4","last_reported":1761423042,"current_range_meters":8800,"station_id":"","pricing_plan_id":"cebpf4jnsgd1na2vs0mg"},{"bike_id":"e94f57f2-601c-4cad-a187-6e953770aa25","system_id":"levelo_inurba_marseille","lat":43.31242,"lon":5.37876,"is_reserved":false,"is_disabled":false,"rental_uris":{"android":"levelo://app?vid=e94f57f2-601c-4cad-a187-6e953770aa25","ios":"levelo://app?vid=e94f57f2-601c-4cad-a187-6e953770aa25"},"vehicle_type_id":"4","last_reported":1761423042,"current_range_meters":9200,"station_id":"","pricing_plan_id":"cebpf4jnsgd1na2vs0mg"},{"bike_id":"df12db7f-d06b-4f32-9106-0cee53886db0","system_id":"levelo_inurba_marseille","lat":43.31547,"lon":5.38923,"is_reserved":false,"is_disabled":false,"rental_uris":{"android":"levelo://app?vid=df12db7f-d06b-4f32-9106-0cee53886db0","ios":"levelo://app?vid=df12db7f-d06b-4f32-9106-0cee53886db0"},"vehicle_type_id":"4","last_reported":1761423042,"current_range_meters":9200,"station_id":"","pricing_plan_id":"cebpf4jnsgd1na2vs0mg"},{"bike_id":"5334db16-532d-447f-bed6-9cfa8d288895","system_id":"levelo_inurba_marseille","lat":43.25341,"lon":5.41589,"is_reserved":false,"is_disabled":false,"rental_uris":{"android":"levelo://app?vid=5334db16-532d-447f-bed6-9cfa8d288895","ios":"levelo://app?vid=5334db16-532d-447f-bed6-9cfa8d288895"},"vehicle_type_id":"4","last_reported":1761423042,"current_range_meters":9600,"station_id":"","pricing_plan_id":"cebpf4jnsgd1na2vs0mg"},{"bike_id":"67edc04a-667c-446f-983c-f0dfe3f0ac76","system_id":"levelo_inurba_marseille","lat":43.23957,"lon":5.36631,"is_reserved":false,"is_disabled":false,"rental_uris":{"android":"levelo://app?vid=67edc04a-667c-446f-983c-f0dfe3f0ac76","ios":"levelo://app?vid=67edc04a-667c-446f-983c-f0dfe3f0ac76"},"vehicle_type_id":"4","last_reported":1761423042,"current_range_meters":9600,"station_id":"ce4bhi12rcd13ifvqfp0","pricing_plan_id":"cebpf4jnsgd1na2vs0mg"},{"bike_id":"a35a4922-b803-4cd9-8623-7e895c294787","system_id":"levelo_inurba_marseille","lat":43.29786,"lon":5.38242,"is_reserved":false,"is_disabled":true,"rental_uris":{"android":"levelo://app?vid=a35a4922-b803-4cd9-8623-7e895c294787","ios":"levelo://app?vid=a35a4922-b803-4cd9-8623-7e895c294787"},"vehicle_type_id":"4","last_reported":1761423042,"current_range_meters":9600,"station_id":"","pricing_plan_id":"cebpf4jnsgd1na2vs0mg"},{"bike_id":"45abe2d2-59b3-462e-a27d-414f0c04c4df","system_id":"levelo_inurba_marseille","lat":43.31113,"lon":5.37774,"is_reserved":false,"is_disabled":false,"rental_uris":{"android":"levelo://app?vid=45abe2d2-59b3-462e-a27d-414f0c04c4df","ios":"levelo://app?vid=45abe2d2-59b3-462e-a27d-414f0c04c4df"},"vehicle_type_id":"4","last_reported":1761423042,"current_range_meters":10000,"station_id":"ce4bgt92rcd13ifvqcg0","pricing_plan_id":"cebpf4jnsgd1na2vs0mg"},{"bike_id":"cf9f53bb-e307-4e51-a201-ca267c56cd33","system_id":"levelo_inurba_marseille","lat":43.30955,"lon":5.39032,"is_reserved":false,"is_disabled":false,"rental_uris":{"android":"levelo://app?vid=cf9f53bb-e307-4e51-a201-ca267c56cd33","ios":"levelo://app?vid=cf9f53bb-e307-4e51-a201-ca267c56cd33"},"vehicle_type_id":"4","last_reported":1761423042,"current_range_meters":10800,"station_id":"ce4bgup2rcd13ifvqco0","pricing_plan_id":"cebpf4jnsgd1na2vs0mg"},{"bike_id":"b44eef94-c716-4c41-b54a-db6138a53830","system_id":"levelo_inurba_marseille","lat":43.28277,"lon":5.35072,"is_reserved":false,"is_disabled":false,"rental_uris":{"android":"levelo://app?vid=b44eef94-c716-4c41-b54a-db6138a53830","ios":"levelo://app?vid=b44eef94-c716-4c41-b54a-db6138a53830"},"vehicle_type_id":"4","last_reported":1761423042,"current_range_meters":10800,"station_id":"ce4bhbp2rcd13ifvqerg","pricing_plan_id":"cebpf4jnsgd1na2vs0mg"},{"bike_id":"9d964ec4-c537-4f1d-b21c-451d3f46b1bf","system_id":"levelo_inurba_marseille","lat":43.29901,"lon":5.37885,"is_reserved":false,"is_disabled":false,"rental_uris":{"android":"levelo://app?vid=9d964ec4-c537-4f1d-b21c-451d3f46b1bf","ios":"levelo://app?vid=9d964ec4-c537-4f1d-b21c-451d3f46b1bf"},"vehicle_type_id":"4","last_reported":1761423042,"current_range_meters":10800,"station_id":"","pricing_plan_id":"cebpf4jnsgd1na2vs0mg"},{"bike_id":"f6430946-11a8-4f56-979b-6af785027b4f","system_id":"levelo_inurba_marseille","lat":43.2979,"lon":5.3935,"is_reserved":false,"is_disabled":false,"rental_uris":{"android":"levelo://app?vid=f6430946-11a8-4f56-979b-6af785027b4f","ios":"levelo://app?vid=f6430946-11a8-4f56-979b-6af785027b4f"},"vehicle_type_id":"4","last_reported":1761423042,"current_range_meters":10800,"station_id":"chh1huq6cuj3fo74tm60","pricing_plan_id":"cebpf4jnsgd1na2vs0mg"},{"bike_id":"8be6a47c-9542-4fed-8109-f6d91a0f2b3f","system_id":"levelo_inurba_marseille","lat":43.29174,"lon":5.37161,"is_reserved":false,"is_disabled":false,"rental_uris":{"android":"levelo://app?vid=8be6a47c-9542-4fed-8109-f6d91a0f2b3f","ios":"levelo://app?vid=8be6a47c-9542-4fed-8109-f6d91a0f2b3f"},"vehicle_type_id":"4","last_reported":1761423042,"current_range_meters":11200,"station_id":"ce4bha92rcd13ifvqeh0","pricing_plan_id":"cebpf4jnsgd1na2vs0mg"},{"bike_id":"c973b2d7-503e-4eb2-bf4a-4af00d3f7fc0","system_id":"levelo_inurba_marseille","lat":43.29265,"lon":5.38435,"is_reserved":false,"is_disabled":false,"rental_uris":{"android":"levelo://app?vid=c973b2d7-503e-4eb2-bf4a-4af00d3f7fc0","ios":"levelo://app?vid=c973b2d7-503e-4eb2-bf4a-4af00d3f7fc0"},"vehicle_type_id":"4","last_reported":1761423042,"current_range_meters":11200,"station_id":"ce4bh692rcd13ifvqea0","pricing_plan_id":"cebpf4jnsgd1na2vs0mg"},{"bike_id":"8f593a40-68ae-46d9-903b-1788d142057b","system_id":"levelo_inurba_marseille","lat":43.29034,"lon":5.37562,"is_reserved":false,"is_disabled":false,"rental_uris":{"android":"levelo://app?vid=8f593a40-68ae-46d9-903b-1788d142057b","ios":"levelo://app?vid=8f593a40-68ae-46d9-903b-1788d142057b"},"vehicle_type_id":"4","last_reported":1761423042,"current_range_meters":11200,"station_id":"ce4bh692rcd13ifvqe90","pricing_plan_id":"cebpf4jnsgd1na2vs0mg"},{"bike_id":"b91d172c-6da4-4d2e-be3b-0dd32a057d94","system_id":"levelo_inurba_marseille","lat":43.2953,"lon":5.38548,"is_reserved":false,"is_disabled":false,"rental_uris":{"android":"levelo://app?vid=b91d172c-6da4-4d2e-be3b-0dd32a057d94","ios":"levelo://app?vid=b91d172c-6da4-4d2e-be3b-0dd32a057d94"},"vehicle_type_id":"4","last_reported":1761423042,"current_range_meters":11600,"station_id":"ce4bgih2rcd13ifvqba0","pricing_plan_id":"cebpf4jnsgd1na2vs0mg"},{"bike_id":"a8d13ff5-397b-4d47-a6c8-59a7c998bba1","system_id":"levelo_inurba_marseille","lat":43.29165,"lon":5.37169,"is_reserved":false,"is_disabled":false,"rental_uris":{"android":"levelo://app?vid=a8d13ff5-397b-4d47-a6c8-59a7c998bba1","ios":"levelo://app?vid=a8d13ff5-397b-4d47-a6c8-59a7c998bba1"},"vehicle_type_id":"4","last_reported":1761423042,"current_range_meters":12000,"station_id":"ce4bha92rcd13ifvqeh0","pricing_plan_id":"cebpf4jnsgd1na2vs0mg"},{"bike_id":"c9f77e6f-0601-4ca6-bbcc-b44404cdcac3","system_id":"levelo_inurba_marseille","lat":43.290306,"lon":5.386492,"is_reserved":false,"is_disabled":false,"rental_uris":{"android":"levelo://app?vid=c9f77e6f-0601-4ca6-bbcc-b44404cdcac3","ios":"levelo://app?vid=c9f77e6f-0601-4ca6-bbcc-b44404cdcac3"},"vehicle_type_id":"4","last_reported":1761423042,"current_range_meters":12000,"station_id":"ce4bh4p2rcd13ifvqe0g","pricing_plan_id":"cebpf4jnsgd1na2vs0mg"},{"bike_id":"43117888-69d1-4bc6-a73a-697554e4a08e","system_id":"levelo_inurba_marseille","lat":43.25268,"lon":5.37806,"is_reserved":false,"is_disabled":false,"rental_uris":{"android":"levelo://app?vid=43117888-69d1-4bc6-a73a-697554e4a08e","ios":"levelo://app?vid=43117888-69d1-4bc6-a73a-697554e4a08e"},"vehicle_type_id":"4","last_reported":1761423042,"current_range_meters":12000,"station_id":"","pricing_plan_id":"cebpf4jnsgd1na2vs0mg"},{"bike_id":"554cb06e-bb05-468a-9a37-3cd0a3f06447","system_id":"levelo_inurba_marseille","lat":43.30294,"lon":5.39213,"is_reserved":false,"is_disabled":false,"rental_uris":{"android":"levelo://app?vid=554cb06e-bb05-468a-9a37-3cd0a3f06447","ios":"levelo://app?vid=554cb06e-bb05-468a-9a37-3cd0a3f06447"},"vehicle_type_id":"4","last_reported":1761423042,"current_range_meters":12000,"station_id":"ce4bgkh2rcd13ifvqbk0","pricing_plan_id":"cebpf4jnsgd1na2vs0mg"},{"bike_id":"cd26ab16-3e3e-43ea-a563-05ea7a953084","system_id":"levelo_inurba_marseille","lat":43.31205,"lon":5.36754,"is_reserved":false,"is_disabled":false,"rental_uris":{"android":"levelo://app?vid=cd26ab16-3e3e-43ea-a563-05ea7a953084","ios":"levelo://app?vid=cd26ab16-3e3e-43ea-a563-05ea7a953084"},"vehicle_type_id":"4","last_reported":1761423042,"current_range_meters":12000,"station_id":"","pricing_plan_id":"cebpf4jnsgd1na2vs0mg"},{"bike_id":"c26d293e-b9c1-4fdf-9aba-a1c9a4c83742","system_id":"levelo_inurba_marseille","lat":43.29174,"lon":5.37163,"is_reserved":false,"is_disabled":false,"rental_uris":{"android":"levelo://app?vid=c26d293e-b9c1-4fdf-9aba-a1c9a4c83742","ios":"levelo://app?vid=c26d293e-b9c1-4fdf-9aba-a1c9a4c83742"},"vehicle_type_id":"4","last_reported":1761423042,"current_range_meters":12000,"station_id":"ce4bha92rcd13ifvqeh0","pricing_plan_id":"cebpf4jnsgd1na2vs0mg"},{"bike_id":"dab36927-4328-48fa-bffb-145a737de07e","system_id":"levelo_inurba_marseille","lat":43.307996,"lon":5.435266,"is_reserved":false,"is_disabled":true,"rental_uris":{"android":"levelo://app?vid=dab36927-4328-48fa-bffb-145a737de07e","ios":"levelo://app?vid=dab36927-4328-48fa-bffb-145a737de07e"},"vehicle_type_id":"4","last_reported":1761423042,"current_range_meters":12400,"station_id":"ce4bhph2rcd13ifvqheg","pricing_plan_id":"cebpf4jnsgd1na2vs0mg"},{"bike_id":"5b91766d-91d0-4602-8be6-6a369c10831e","system_id":"levelo_inurba_marseille","lat":43.23786,"lon":5.36634,"is_reserved":false,"is_disabled":false,"rental_uris":{"android":"levelo://app?vid=5b91766d-91d0-4602-8be6-6a369c10831e","ios":"levelo://app?vid=5b91766d-91d0-4602-8be6-6a369c10831e"},"vehicle_type_id":"4","last_reported":1761423042,"current_range_meters":12400,"station_id":"st_d3nk18o9ro0c73en2l3g","pricing_plan_id":"cebpf4jnsgd1na2vs0mg"},{"bike_id":"52cc822f-d815-4aa7-9109-f69dbe32103d","system_id":"levelo_inurba_marseille","lat":43.29259,"lon":5.38429,"is_reserved":false,"is_disabled":false,"rental_uris":{"android":"levelo://app?vid=52cc822f-d815-4aa7-9109-f69dbe32103d","ios":"levelo://app?vid=52cc822f-d815-4aa7-9109-f69dbe32103d"},"vehicle_type_id":"4","last_reported":1761423042,"current_range_meters":12400,"station_id":"ce4bh692rcd13ifvqea0","pricing_plan_id":"cebpf4jnsgd1na2vs0mg"},{"bike_id":"40f49102-db4f-402e-ac41-38ea9e38d111","system_id":"levelo_inurba_marseille","lat":43.29208,"lon":5.39332,"is_reserved":false,"is_disabled":false,"rental_uris":{"android":"levelo://app?vid=40f49102-db4f-402e-ac41-38ea9e38d111","ios":"levelo://app?vid=40f49102-db4f-402e-ac41-38ea9e38d111"},"vehicle_type_id":"4","last_reported":1761423042,"current_range_meters":12800,"station_id":"ce4bh192rcd13ifvqdd0","pricing_plan_id":"cebpf4jnsgd1na2vs0mg"},{"bike_id":"bd1cf25a-484a-47f9-a8c0-9861aa4ae758","system_id":"levelo_inurba_marseille","lat":43.24694,"lon":5.3813,"is_reserved":false,"is_disabled":false,"rental_uris":{"android":"levelo://app?vid=bd1cf25a-484a-47f9-a8c0-9861aa4ae758","ios":"levelo://app?vid=bd1cf25a-484a-47f9-a8c0-9861aa4ae758"},"vehicle_type_id":"4","last_reported":1761423042,"current_range_meters":12800,"station_id":"ce4bhih2rcd13ifvqfr0","pricing_plan_id":"cebpf4jnsgd1na2vs0mg"},{"bike_id":"04e7f8a2-8c44-482a-9399-c356de77a402","system_id":"levelo_inurba_marseille","lat":43.314841,"lon":5.373091,"is_reserved":false,"is_disabled":false,"rental_uris":{"android":"levelo://app?vid=04e7f8a2-8c44-482a-9399-c356de77a402","ios":"levelo://app?vid=04e7f8a2-8c44-482a-9399-c356de77a402"},"vehicle_type_id":"4","last_reported":1761423042,"current_range_meters":12800,"station_id":"ce4bgt12rcd13ifvqcd0","pricing_plan_id":"cebpf4jnsgd1na2vs0mg"},{"bike_id":"8c35a7e4-8378-4fdf-b42f-02e88b6199ca","system_id":"levelo_inurba_marseille","lat":43.32117,"lon":5.36755,"is_reserved":false,"is_disabled":false,"rental_uris":{"android":"levelo://app?vid=8c35a7e4-8378-4fdf-b42f-02e88b6199ca","ios":"levelo://app?vid=8c35a7e4-8378-4fdf-b42f-02e88b6199ca"},"vehicle_type_id":"4","last_reported":1761423042,"current_range_meters":12800,"station_id":"ce4bhrh2rcd13ifvqhug","pricing_plan_id":"cebpf4jnsgd1na2vs0mg"},{"bike_id":"ea451013-7326-4e7f-a478-90ef18eee2b0","system_id":"levelo_inurba_marseille","lat":43.31704,"lon":5.4047,"is_reserved":false,"is_disabled":false,"rental_uris":{"android":"levelo://app?vid=ea451013-7326-4e7f-a478-90ef18eee2b0","ios":"levelo://app?vid=ea451013-7326-4e7f-a478-90ef18eee2b0"},"vehicle_type_id":"4","last_reported":1761423042,"current_range_meters":12800,"station_id":"ce4bh012rcd13ifvqd00","pricing_plan_id":"cebpf4jnsgd1na2vs0mg"},{"bike_id":"07c5f6f8-eb39-4207-819b-ff5fa443c777","system_id":"levelo_inurba_marseille","lat":43.290344,"lon":5.375675,"is_reserved":false,"is_disabled":false,"rental_uris":{"android":"levelo://app?vid=07c5f6f8-eb39-4207-819b-ff5fa443c777","ios":"levelo://app?vid=07c5f6f8-eb39-4207-819b-ff5fa443c777"},"vehicle_type_id":"4","last_reported":1761423042,"current_range_meters":12800,"station_id":"ce4bh692rcd13ifvqe90","pricing_plan_id":"cebpf4jnsgd1na2vs0mg"},{"bike_id":"79d0da37-84bd-47cc-8f16-7c1b2b586f49","system_id":"levelo_inurba_marseille","lat":43.31691,"lon":5.40463,"is_reserved":false,"is_disabled":false,"rental_uris":{"android":"levelo://app?vid=79d0da37-84bd-47cc-8f16-7c1b2b586f49","ios":"levelo://app?vid=79d0da37-84bd-47cc-8f16-7c1b2b586f49"},"vehicle_type_id":"4","last_reported":1761423042,"current_range_meters":12800,"station_id":"ce4bh012rcd13ifvqd00","pricing_plan_id":"cebpf4jnsgd1na2vs0mg"},{"bike_id":"288c230c-00dc-4aa5-9c9e-c2c990ec6302","system_id":"levelo_inurba_marseille","lat":43.299197,"lon":5.374603,"is_reserved":false,"is_disabled":false,"rental_uris":{"android":"levelo://app?vid=288c230c-00dc-4aa5-9c9e-c2c990ec6302","ios":"levelo://app?vid=288c230c-00dc-4aa5-9c9e-c2c990ec6302"},"vehicle_type_id":"4","last_reported":1761423042,"current_range_meters":13600,"station_id":"ce4bgjh2rcd13ifvqbg0","pricing_plan_id":"cebpf4jnsgd1na2vs0mg"},{"bike_id":"9e7244e1-7ba9-4f49-b482-c04d968d7571","system_id":"levelo_inurba_marseille","lat":43.30284,"lon":5.37705,"is_reserved":false,"is_disabled":false,"rental_uris":{"android":"levelo://app?vid=9e7244e1-7ba9-4f49-b482-c04d968d7571","ios":"levelo://app?vid=9e7244e1-7ba9-4f49-b482-c04d968d7571"},"vehicle_type_id":"4","last_reported":1761423042,"current_range_meters":14000,"station_id":"ce4bguh2rcd13ifvqcj0","pricing_plan_id":"cebpf4jnsgd1na2vs0mg"},{"bike_id":"856e142f-bc05-4738-a75f-30441de6bce3","system_id":"levelo_inurba_marseille","lat":43.3122,"lon":5.36837,"is_reserved":false,"is_disabled":false,"rental_uris":{"android":"levelo://app?vid=856e142f-bc05-4738-a75f-30441de6bce3","ios":"levelo://app?vid=856e142f-bc05-4738-a75f-30441de6bce3"},"vehicle_type_id":"4","last_reported":1761423042,"current_range_meters":14000,"station_id":"ce4bgl92rcd13ifvqbq0","pricing_plan_id":"cebpf4jnsgd1na2vs0mg"},{"bike_id":"aad8920f-23d6-4a17-84f6-d3ef1915d691","system_id":"levelo_inurba_marseille","lat":43.32351,"lon":5.38892,"is_reserved":false,"is_disabled":false,"rental_uris":{"android":"levelo://app?vid=aad8920f-23d6-4a17-84f6-d3ef1915d691","ios":"levelo://app?vid=aad8920f-23d6-4a17-84f6-d3ef1915d691"},"vehicle_type_id":"4","last_reported":1761423042,"current_range_meters":14000,"station_id":"ce4bhqp2rcd13ifvqhog","pricing_plan_id":"cebpf4jnsgd1na2vs0mg"},{"bike_id":"d3145067-3ca0-4e72-b01a-ef78c0959aad","system_id":"levelo_inurba_marseille","lat":43.30235,"lon":5.40059,"is_reserved":false,"is_disabled":true,"rental_uris":{"android":"levelo://app?vid=d3145067-3ca0-4e72-b01a-ef78c0959aad","ios":"levelo://app?vid=d3145067-3ca0-4e72-b01a-ef78c0959aad"},"vehicle_type_id":"4","last_reported":1761423042,"current_range_meters":14000,"station_id":"ce4bgvh2rcd13ifvqcs0","pricing_plan_id":"cebpf4jnsgd1na2vs0mg"},{"bike_id":"1a8a4bd1-ee63-4b53-836d-d34ac5fae822","system_id":"levelo_inurba_marseille","lat":43.29529,"lon":5.3854,"is_reserved":false,"is_disabled":false,"rental_uris":{"android":"levelo://app?vid=1a8a4bd1-ee63-4b53-836d-d34ac5fae822","ios":"levelo://app?vid=1a8a4bd1-ee63-4b53-836d-d34ac5fae822"},"vehicle_type_id":"4","last_reported":1761423042,"current_range_meters":14400,"station_id":"ce4bgih2rcd13ifvqba0","pricing_plan_id":"cebpf4jnsgd1na2vs0mg"},{"bike_id":"51f6b392-8d0d-41b5-9bf6-76a949608beb","system_id":"levelo_inurba_marseille","lat":43.25323,"lon":5.42171,"is_reserved":false,"is_disabled":false,"rental_uris":{"android":"levelo://app?vid=51f6b392-8d0d-41b5-9bf6-76a949608beb","ios":"levelo://app?vid=51f6b392-8d0d-41b5-9bf6-76a949608beb"},"vehicle_type_id":"4","last_reported":1761423042,"current_range_meters":14400,"station_id":"st_d2m65c5bi1j21697t3ng","pricing_plan_id":"cebpf4jnsgd1na2vs0mg"},{"bike_id":"d0d97312-c0ce-4e35-b465-0113c6bd0b31","system_id":"levelo_inurba_marseille","lat":43.23968,"lon":5.36628,"is_reserved":false,"is_disabled":false,"rental_uris":{"android":"levelo://app?vid=d0d97312-c0ce-4e35-b465-0113c6bd0b31","ios":"levelo://app?vid=d0d97312-c0ce-4e35-b465-0113c6bd0b31"},"vehicle_type_id":"4","last_reported":1761423042,"current_range_meters":14400,"station_id":"ce4bhi12rcd13ifvqfp0","pricing_plan_id":"cebpf4jnsgd1na2vs0mg"},{"bike_id":"10801799-7a82-40c9-a283-2cfdf35412b0","system_id":"levelo_inurba_marseille","lat":43.29277,"lon":5.38427,"is_reserved":false,"is_disabled":false,"rental_uris":{"android":"levelo://app?vid=10801799-7a82-40c9-a283-2cfdf35412b0","ios":"levelo://app?vid=10801799-7a82-40c9-a283-2cfdf35412b0"},"vehicle_type_id":"4","last_reported":1761423042,"current_range_meters":14800,"station_id":"ce4bh692rcd13ifvqea0","pricing_plan_id":"cebpf4jnsgd1na2vs0mg"},{"bike_id":"05fdd635-c7dc-48e9-9da1-ac81a4c458a2","system_id":"levelo_inurba_marseille","lat":43.295107,"lon":5.388655,"is_reserved":false,"is_disabled":false,"rental_uris":{"android":"levelo://app?vid=05fdd635-c7dc-48e9-9da1-ac81a4c458a2","ios":"levelo://app?vid=05fdd635-c7dc-48e9-9da1-ac81a4c458a2"},"vehicle_type_id":"4","last_reported":1761423042,"current_range_meters":14800,"station_id":"ce4bh3p2rcd13ifvqdp0","pricing_plan_id":"cebpf4jnsgd1na2vs0mg"},{"bike_id":"1019884c-a520-4da5-bda9-f19d9e58a14d","system_id":"levelo_inurba_marseille","lat":43.29272,"lon":5.38434,"is_reserved":false,"is_disabled":false,"rental_uris":{"android":"levelo://app?vid=1019884c-a520-4da5-bda9-f19d9e58a14d","ios":"levelo://app?vid=1019884c-a520-4da5-bda9-f19d9e58a14d"},"vehicle_type_id":"4","last_reported":1761423042,"current_range_meters":14800,"station_id":"ce4bh692rcd13ifvqea0","pricing_plan_id":"cebpf4jnsgd1na2vs0mg"},{"bike_id":"7e0fd963-943e-4fc1-ac37-d6f692d04850","system_id":"levelo_inurba_marseille","lat":43.28356,"lon":5.38104,"is_reserved":false,"is_disabled":false,"rental_uris":{"android":"levelo://app?vid=7e0fd963-943e-4fc1-ac37-d6f692d04850","ios":"levelo://app?vid=7e0fd963-943e-4fc1-ac37-d6f692d04850"},"vehicle_type_id":"4","last_reported":1761423042,"current_range_meters":15200,"station_id":"ce4bhg12rcd13ifvqf60","pricing_plan_id":"cebpf4jnsgd1na2vs0mg"},{"bike_id":"40fed290-3dea-4c73-bf2e-af05de8161fd","system_id":"levelo_inurba_marseille","lat":43.32111,"lon":5.36746,"is_reserved":false,"is_disabled":false,"rental_uris":{"android":"levelo://app?vid=40fed290-3dea-4c73-bf2e-af05de8161fd","ios":"levelo://app?vid=40fed290-3dea-4c73-bf2e-af05de8161fd"},"vehicle_type_id":"4","last_reported":1761423042,"current_range_meters":15200,"station_id":"ce4bhrh2rcd13ifvqhug","pricing_plan_id":"cebpf4jnsgd1na2vs0mg"},{"bike_id":"1f365cf4-538d-416d-8526-82a6ffb59cb6","system_id":"levelo_inurba_marseille","lat":43.29795,"lon":5.38087,"is_reserved":false,"is_disabled":false,"rental_uris":{"android":"levelo://app?vid=1f365cf4-538d-416d-8526-82a6ffb59cb6","ios":"levelo://app?vid=1f365cf4-538d-416d-8526-82a6ffb59cb6"},"vehicle_type_id":"4","last_reported":1761423042,"current_range_meters":15200,"station_id":"ce4bgip2rcd13ifvqbb0","pricing_plan_id":"cebpf4jnsgd1na2vs0mg"},{"bike_id":"086e41c1-adb0-475d-8d23-b2b1b1afd76a","system_id":"levelo_inurba_marseille","lat":43.26218,"lon":5.40488,"is_reserved":false,"is_disabled":false,"rental_uris":{"android":"levelo://app?vid=086e41c1-adb0-475d-8d23-b2b1b1afd76a","ios":"levelo://app?vid=086e41c1-adb0-475d-8d23-b2b1b1afd76a"},"vehicle_type_id":"4","last_reported":1761423042,"current_range_meters":15200,"station_id":"ce4bhmh2rcd13ifvqgmg","pricing_plan_id":"cebpf4jnsgd1na2vs0mg"},{"bike_id":"ab097f15-aad4-45c1-872b-28a77488204a","system_id":"levelo_inurba_marseille","lat":43.29907,"lon":5.43658,"is_reserved":false,"is_disabled":false,"rental_uris":{"android":"levelo://app?vid=ab097f15-aad4-45c1-872b-28a77488204a","ios":"levelo://app?vid=ab097f15-aad4-45c1-872b-28a77488204a"},"vehicle_type_id":"4","last_reported":1761423042,"current_range_meters":15200,"station_id":"ce4bhpp2rcd13ifvqhfg","pricing_plan_id":"cebpf4jnsgd1na2vs0mg"},{"bike_id":"ce7ccabb-0258-4436-aee1-6c3405f03f4c","system_id":"levelo_inurba_marseille","lat":43.288495,"lon":5.393107,"is_reserved":false,"is_disabled":false,"rental_uris":{"android":"levelo://app?vid=ce7ccabb-0258-4436-aee1-6c3405f03f4c","ios":"levelo://app?vid=ce7ccabb-0258-4436-aee1-6c3405f03f4c"},"vehicle_type_id":"4","last_reported":1761423042,"current_range_meters":15200,"station_id":"ce4bh2p2rcd13ifvqdi0","pricing_plan_id":"cebpf4jnsgd1na2vs0mg"},{"bike_id":"87343782-7fbe-407f-9e2c-5a512f9371a6","system_id":"levelo_inurba_marseille","lat":43.29263,"lon":5.38443,"is_reserved":false,"is_disabled":false,"rental_uris":{"android":"levelo://app?vid=87343782-7fbe-407f-9e2c-5a512f9371a6","ios":"levelo://app?vid=87343782-7fbe-407f-9e2c-5a512f9371a6"},"vehicle_type_id":"4","last_reported":1761423042,"current_range_meters":15200,"station_id":"ce4bh692rcd13ifvqea0","pricing_plan_id":"cebpf4jnsgd1na2vs0mg"},{"bike_id":"875ed736-33ec-4fd9-9ccc-07f69a3506cb","system_id":"levelo_inurba_marseille","lat":43.24556,"lon":5.39518,"is_reserved":false,"is_disabled":false,"rental_uris":{"android":"levelo://app?vid=875ed736-33ec-4fd9-9ccc-07f69a3506cb","ios":"levelo://app?vid=875ed736-33ec-4fd9-9ccc-07f69a3506cb"},"vehicle_type_id":"4","last_reported":1761423042,"current_range_meters":15200,"station_id":"ce4bhlp2rcd13ifvqgjg","pricing_plan_id":"cebpf4jnsgd1na2vs0mg"},{"bike_id":"a4b00dbe-658a-4948-84cf-eaaa58be75dc","system_id":"levelo_inurba_marseille","lat":43.299835,"lon":5.371793,"is_reserved":false,"is_disabled":false,"rental_uris":{"android":"levelo://app?vid=a4b00dbe-658a-4948-84cf-eaaa58be75dc","ios":"levelo://app?vid=a4b00dbe-658a-4948-84cf-eaaa58be75dc"},"vehicle_type_id":"4","last_reported":1761423042,"current_range_meters":15200,"station_id":"ce4bgr92rcd13ifvqc7g","pricing_plan_id":"cebpf4jnsgd1na2vs0mg"},{"bike_id":"b3ff0f8d-6496-4ce8-9950-baf7accbb62b","system_id":"levelo_inurba_marseille","lat":43.27614,"lon":5.36101,"is_reserved":false,"is_disabled":false,"rental_uris":{"android":"levelo://app?vid=b3ff0f8d-6496-4ce8-9950-baf7accbb62b","ios":"levelo://app?vid=b3ff0f8d-6496-4ce8-9950-baf7accbb62b"},"vehicle_type_id":"4","last_reported":1761423042,"current_range_meters":15200,"station_id":"ce4bgj92rcd13ifvqbe0","pricing_plan_id":"cebpf4jnsgd1na2vs0mg"},{"bike_id":"3ad4d97d-497f-4447-841e-5d883753625f","system_id":"levelo_inurba_marseille","lat":43.28278,"lon":5.35075,"is_reserved":false,"is_disabled":false,"rental_uris":{"android":"levelo://app?vid=3ad4d97d-497f-4447-841e-5d883753625f","ios":"levelo://app?vid=3ad4d97d-497f-4447-841e-5d883753625f"},"vehicle_type_id":"4","last_reported":1761423042,"current_range_meters":16000,"station_id":"ce4bhbp2rcd13ifvqerg","pricing_plan_id":"cebpf4jnsgd1na2vs0mg"},{"bike_id":"e42e3f31-fbf7-4040-bb41-121a08b42ff8","system_id":"levelo_inurba_marseille","lat":43.29275,"lon":5.38441,"is_reserved":false,"is_disabled":false,"rental_uris":{"android":"levelo://app?vid=e42e3f31-fbf7-4040-bb41-121a08b42ff8","ios":"levelo://app?vid=e42e3f31-fbf7-4040-bb41-121a08b42ff8"},"vehicle_type_id":"4","last_reported":1761423042,"current_range_meters":16000,"station_id":"ce4bh692rcd13ifvqea0","pricing_plan_id":"cebpf4jnsgd1na2vs0mg"},{"bike_id":"37d5d3c7-5b21-4af5-9cc6-eb8440c64f7e","system_id":"levelo_inurba_marseille","lat":43.29456,"lon":5.39761,"is_reserved":false,"is_disabled":false,"rental_uris":{"android":"levelo://app?vid=37d5d3c7-5b21-4af5-9cc6-eb8440c64f7e","ios":"levelo://app?vid=37d5d3c7-5b21-4af5-9cc6-eb8440c64f7e"},"vehicle_type_id":"4","last_reported":1761423042,"current_range_meters":16000,"station_id":"ce4bh3h2rcd13ifvqdo0","pricing_plan_id":"cebpf4jnsgd1na2vs0mg"},{"bike_id":"59e0e55d-ae93-4c8a-989c-120e6e17d539","system_id":"levelo_inurba_marseille","lat":43.23063,"lon":5.35498,"is_reserved":false,"is_disabled":false,"rental_uris":{"android":"levelo://app?vid=59e0e55d-ae93-4c8a-989c-120e6e17d539","ios":"levelo://app?vid=59e0e55d-ae93-4c8a-989c-120e6e17d539"},"vehicle_type_id":"4","last_reported":1761423042,"current_range_meters":16000,"station_id":"cpo3342slgdg3j2ifvpg","pricing_plan_id":"cebpf4jnsgd1na2vs0mg"},{"bike_id":"2dd98e6f-9b04-409b-bcdc-47a93c2397d4","system_id":"levelo_inurba_marseille","lat":43.29272,"lon":5.38438,"is_reserved":false,"is_disabled":false,"rental_uris":{"android":"levelo://app?vid=2dd98e6f-9b04-409b-bcdc-47a93c2397d4","ios":"levelo://app?vid=2dd98e6f-9b04-409b-bcdc-47a93c2397d4"},"vehicle_type_id":"4","last_reported":1761423042,"current_range_meters":16000,"station_id":"ce4bh692rcd13ifvqea0","pricing_plan_id":"cebpf4jnsgd1na2vs0mg"},{"bike_id":"b7cd284d-3722-47c9-8280-2128a29419fc","system_id":"levelo_inurba_marseille","lat":43.28938,"lon":5.36632,"is_reserved":false,"is_disabled":false,"rental_uris":{"android":"levelo://app?vid=b7cd284d-3722-47c9-8280-2128a29419fc","ios":"levelo://app?vid=b7cd284d-3722-47c9-8280-2128a29419fc"},"vehicle_type_id":"4","last_reported":1761423042,"current_range_meters":16000,"station_id":"ce4bhap2rcd13ifvqek0","pricing_plan_id":"cebpf4jnsgd1na2vs0mg"},{"bike_id":"0b85a8e4-6bf3-4808-99b0-993df2828df7","system_id":"levelo_inurba_marseille","lat":43.29507,"lon":5.39044,"is_reserved":false,"is_disabled":false,"rental_uris":{"android":"levelo://app?vid=0b85a8e4-6bf3-4808-99b0-993df2828df7","ios":"levelo://app?vid=0b85a8e4-6bf3-4808-99b0-993df2828df7"},"vehicle_type_id":"4","last_reported":1761423042,"current_range_meters":16000,"station_id":"ce4bh3p2rcd13ifvqdp0","pricing_plan_id":"cebpf4jnsgd1na2vs0mg"},{"bike_id":"29b38a45-3e07-40c1-b8b1-5f85b487711f","system_id":"levelo_inurba_marseille","lat":43.31242,"lon":5.404,"is_reserved":false,"is_disabled":false,"rental_uris":{"android":"levelo://app?vid=29b38a45-3e07-40c1-b8b1-5f85b487711f","ios":"levelo://app?vid=29b38a45-3e07-40c1-b8b1-5f85b487711f"},"vehicle_type_id":"4","last_reported":1761423042,"current_range_meters":16400,"station_id":"","pricing_plan_id":"cebpf4jnsgd1na2vs0mg"},{"bike_id":"a6f0ed19-8042-4fbc-83cb-73ce2f11e459","system_id":"levelo_inurba_marseille","lat":43.321044,"lon":5.367675,"is_reserved":false,"is_disabled":false,"rental_uris":{"android":"levelo://app?vid=a6f0ed19-8042-4fbc-83cb-73ce2f11e459","ios":"levelo://app?vid=a6f0ed19-8042-4fbc-83cb-73ce2f11e459"},"vehicle_type_id":"4","last_reported":1761423042,"current_range_meters":16400,"station_id":"ce4bhrh2rcd13ifvqhug","pricing_plan_id":"cebpf4jnsgd1na2vs0mg"},{"bike_id":"cbcdd39f-b16b-4830-bef7-1f20f112a7de","system_id":"levelo_inurba_marseille","lat":43.319954,"lon":5.381525,"is_reserved":false,"is_disabled":false,"rental_uris":{"android":"levelo://app?vid=cbcdd39f-b16b-4830-bef7-1f20f112a7de","ios":"levelo://app?vid=cbcdd39f-b16b-4830-bef7-1f20f112a7de"},"vehicle_type_id":"4","last_reported":1761423042,"current_range_meters":16400,"station_id":"ce4bhr12rcd13ifvqhpg","pricing_plan_id":"cebpf4jnsgd1na2vs0mg"},{"bike_id":"f4b45689-f60b-46ec-8d93-fde864eb88cf","system_id":"levelo_inurba_marseille","lat":43.27941,"lon":5.41034,"is_reserved":false,"is_disabled":false,"rental_uris":{"android":"levelo://app?vid=f4b45689-f60b-46ec-8d93-fde864eb88cf","ios":"levelo://app?vid=f4b45689-f60b-46ec-8d93-fde864eb88cf"},"vehicle_type_id":"4","last_reported":1761423042,"current_range_meters":16400,"station_id":"ce4bhnp2rcd13ifvqh0g","pricing_plan_id":"cebpf4jnsgd1na2vs0mg"},{"bike_id":"e82be46c-20d7-441a-9352-cd301f47ee13","system_id":"levelo_inurba_marseille","lat":43.29269,"lon":5.38436,"is_reserved":false,"is_disabled":false,"rental_uris":{"android":"levelo://app?vid=e82be46c-20d7-441a-9352-cd301f47ee13","ios":"levelo://app?vid=e82be46c-20d7-441a-9352-cd301f47ee13"},"vehicle_type_id":"4","last_reported":1761423042,"current_range_meters":16400,"station_id":"ce4bh692rcd13ifvqea0","pricing_plan_id":"cebpf4jnsgd1na2vs0mg"},{"bike_id":"e4746a2d-9cd3-46c8-bf0e-3a10fdb16ced","system_id":"levelo_inurba_marseille","lat":43.32351,"lon":5.36735,"is_reserved":false,"is_disabled":false,"rental_uris":{"android":"levelo://app?vid=e4746a2d-9cd3-46c8-bf0e-3a10fdb16ced","ios":"levelo://app?vid=e4746a2d-9cd3-46c8-bf0e-3a10fdb16ced"},"vehicle_type_id":"4","last_reported":1761423042,"current_range_meters":16400,"station_id":"ce4bhsh2rcd13ifvqi2g","pricing_plan_id":"cebpf4jnsgd1na2vs0mg"},{"bike_id":"3350306d-35d3-41fe-adc2-ac14237ca743","system_id":"levelo_inurba_marseille","lat":43.29047,"lon":5.3864,"is_reserved":false,"is_disabled":false,"rental_uris":{"android":"levelo://app?vid=3350306d-35d3-41fe-adc2-ac14237ca743","ios":"levelo://app?vid=3350306d-35d3-41fe-adc2-ac14237ca743"},"vehicle_type_id":"4","last_reported":1761423042,"current_range_meters":16400,"station_id":"ce4bh4p2rcd13ifvqe0g","pricing_plan_id":"cebpf4jnsgd1na2vs0mg"},{"bike_id":"e5bd73c9-d2fd-429b-a719-e50033314cf7","system_id":"levelo_inurba_marseille","lat":43.22563,"lon":5.41621,"is_reserved":false,"is_disabled":false,"rental_uris":{"android":"levelo://app?vid=e5bd73c9-d2fd-429b-a719-e50033314cf7","ios":"levelo://app?vid=e5bd73c9-d2fd-429b-a719-e50033314cf7"},"vehicle_type_id":"4","last_reported":1761423042,"current_range_meters":16400,"station_id":"st_d2o4gvlbi1j2169b742g","pricing_plan_id":"cebpf4jnsgd1na2vs0mg"},{"bike_id":"54d8d511-6673-4806-8f8e-3e808a31d514","system_id":"levelo_inurba_marseille","lat":43.32288,"lon":5.3827,"is_reserved":false,"is_disabled":false,"rental_uris":{"android":"levelo://app?vid=54d8d511-6673-4806-8f8e-3e808a31d514","ios":"levelo://app?vid=54d8d511-6673-4806-8f8e-3e808a31d514"},"vehicle_type_id":"4","last_reported":1761423042,"current_range_meters":16400,"station_id":"ce4bhr12rcd13ifvqhqg","pricing_plan_id":"cebpf4jnsgd1na2vs0mg"},{"bike_id":"57b2114c-449f-4063-b3fa-9cdb1665b6ea","system_id":"levelo_inurba_marseille","lat":43.29266,"lon":5.38457,"is_reserved":false,"is_disabled":false,"rental_uris":{"android":"levelo://app?vid=57b2114c-449f-4063-b3fa-9cdb1665b6ea","ios":"levelo://app?vid=57b2114c-449f-4063-b3fa-9cdb1665b6ea"},"vehicle_type_id":"4","last_reported":1761423042,"current_range_meters":16800,"station_id":"ce4bh692rcd13ifvqea0","pricing_plan_id":"cebpf4jnsgd1na2vs0mg"},{"bike_id":"c0b81f28-bbba-4247-a74b-c55a34b31846","system_id":"levelo_inurba_marseille","lat":43.33258,"lon":5.41086,"is_reserved":false,"is_disabled":false,"rental_uris":{"android":"levelo://app?vid=c0b81f28-bbba-4247-a74b-c55a34b31846","ios":"levelo://app?vid=c0b81f28-bbba-4247-a74b-c55a34b31846"},"vehicle_type_id":"4","last_reported":1761423042,"current_range_meters":16800,"station_id":"","pricing_plan_id":"cebpf4jnsgd1na2vs0mg"},{"bike_id":"e3c37ef6-fc8d-40f6-aaa7-3e531d410441","system_id":"levelo_inurba_marseille","lat":43.33717,"lon":5.39183,"is_reserved":false,"is_disabled":false,"rental_uris":{"android":"levelo://app?vid=e3c37ef6-fc8d-40f6-aaa7-3e531d410441","ios":"levelo://app?vid=e3c37ef6-fc8d-40f6-aaa7-3e531d410441"},"vehicle_type_id":"4","last_reported":1761423042,"current_range_meters":16800,"station_id":"ce4bhr92rcd13ifvqhsg","pricing_plan_id":"cebpf4jnsgd1na2vs0mg"},{"bike_id":"bf526c33-28dd-4a6a-a10d-b02e3c57c12e","system_id":"levelo_inurba_marseille","lat":43.2396,"lon":5.36621,"is_reserved":false,"is_disabled":false,"rental_uris":{"android":"levelo://app?vid=bf526c33-28dd-4a6a-a10d-b02e3c57c12e","ios":"levelo://app?vid=bf526c33-28dd-4a6a-a10d-b02e3c57c12e"},"vehicle_type_id":"4","last_reported":1761423042,"current_range_meters":16800,"station_id":"ce4bhi12rcd13ifvqfp0","pricing_plan_id":"cebpf4jnsgd1na2vs0mg"},{"bike_id":"f72a00f1-1fed-4f6c-b4b5-8473dfdb4606","system_id":"levelo_inurba_marseille","lat":43.29664,"lon":5.40366,"is_reserved":false,"is_disabled":false,"rental_uris":{"android":"levelo://app?vid=f72a00f1-1fed-4f6c-b4b5-8473dfdb4606","ios":"levelo://app?vid=f72a00f1-1fed-4f6c-b4b5-8473dfdb4606"},"vehicle_type_id":"4","last_reported":1761423042,"current_range_meters":16800,"station_id":"","pricing_plan_id":"cebpf4jnsgd1na2vs0mg"},{"bike_id":"ef3db25f-65c2-434f-bb55-6de6a6266c8c","system_id":"levelo_inurba_marseille","lat":43.280947,"lon":5.399831,"is_reserved":false,"is_disabled":false,"rental_uris":{"android":"levelo://app?vid=ef3db25f-65c2-434f-bb55-6de6a6266c8c","ios":"levelo://app?vid=ef3db25f-65c2-434f-bb55-6de6a6266c8c"},"vehicle_type_id":"4","last_reported":1761423042,"current_range_meters":16800,"station_id":"ce4bho92rcd13ifvqh4g","pricing_plan_id":"cebpf4jnsgd1na2vs0mg"},{"bike_id":"3dae4e58-acf8-461b-bdbd-4903b9e132b1","system_id":"levelo_inurba_marseille","lat":43.31992,"lon":5.38167,"is_reserved":false,"is_disabled":false,"rental_uris":{"android":"levelo://app?vid=3dae4e58-acf8-461b-bdbd-4903b9e132b1","ios":"levelo://app?vid=3dae4e58-acf8-461b-bdbd-4903b9e132b1"},"vehicle_type_id":"4","last_reported":1761423042,"current_range_meters":17200,"station_id":"ce4bhr12rcd13ifvqhpg","pricing_plan_id":"cebpf4jnsgd1na2vs0mg"},{"bike_id":"41d45b45-3a52-4b5a-b2b3-1e62d5490ada","system_id":"levelo_inurba_marseille","lat":43.28532,"lon":5.44084,"is_reserved":false,"is_disabled":false,"rental_uris":{"android":"levelo://app?vid=41d45b45-3a52-4b5a-b2b3-1e62d5490ada","ios":"levelo://app?vid=41d45b45-3a52-4b5a-b2b3-1e62d5490ada"},"vehicle_type_id":"4","last_reported":1761423042,"current_range_meters":17200,"station_id":"st_d3j3df2ikq2c7380ej80","pricing_plan_id":"cebpf4jnsgd1na2vs0mg"},{"bike_id":"ae18170a-78e3-4226-bc11-18e23c871586","system_id":"levelo_inurba_marseille","lat":43.31688,"lon":5.40473,"is_reserved":false,"is_disabled":false,"rental_uris":{"android":"levelo://app?vid=ae18170a-78e3-4226-bc11-18e23c871586","ios":"levelo://app?vid=ae18170a-78e3-4226-bc11-18e23c871586"},"vehicle_type_id":"4","last_reported":1761423042,"current_range_meters":17200,"station_id":"ce4bh012rcd13ifvqd00","pricing_plan_id":"cebpf4jnsgd1na2vs0mg"},{"bike_id":"c6c9646d-f19a-4f50-a6b5-8ff3c417bbeb","system_id":"levelo_inurba_marseille","lat":43.292695,"lon":5.384366,"is_reserved":false,"is_disabled":false,"rental_uris":{"android":"levelo://app?vid=c6c9646d-f19a-4f50-a6b5-8ff3c417bbeb","ios":"levelo://app?vid=c6c9646d-f19a-4f50-a6b5-8ff3c417bbeb"},"vehicle_type_id":"4","last_reported":1761423042,"current_range_meters":17200,"station_id":"","pricing_plan_id":"cebpf4jnsgd1na2vs0mg"},{"bike_id":"c8d63622-c396-4562-993f-1d3bf2c29a2b","system_id":"levelo_inurba_marseille","lat":43.324982,"lon":5.366523,"is_reserved":false,"is_disabled":false,"rental_uris":{"android":"levelo://app?vid=c8d63622-c396-4562-993f-1d3bf2c29a2b","ios":"levelo://app?vid=c8d63622-c396-4562-993f-1d3bf2c29a2b"},"vehicle_type_id":"4","last_reported":1761423042,"current_range_meters":17200,"station_id":"ce4bhs12rcd13ifvqhvg","pricing_plan_id":"cebpf4jnsgd1na2vs0mg"},{"bike_id":"3da36b46-32f0-4723-8f3b-8cba39a84287","system_id":"levelo_inurba_marseille","lat":43.24412,"lon":5.37041,"is_reserved":false,"is_disabled":false,"rental_uris":{"android":"levelo://app?vid=3da36b46-32f0-4723-8f3b-8cba39a84287","ios":"levelo://app?vid=3da36b46-32f0-4723-8f3b-8cba39a84287"},"vehicle_type_id":"4","last_reported":1761423042,"current_range_meters":17200,"station_id":"ce4bhhh2rcd13ifvqfk0","pricing_plan_id":"cebpf4jnsgd1na2vs0mg"},{"bike_id":"e4ccce50-4824-4895-aa8c-033835526f23","system_id":"levelo_inurba_marseille","lat":43.3188,"lon":5.39998,"is_reserved":false,"is_disabled":false,"rental_uris":{"android":"levelo://app?vid=e4ccce50-4824-4895-aa8c-033835526f23","ios":"levelo://app?vid=e4ccce50-4824-4895-aa8c-033835526f23"},"vehicle_type_id":"4","last_reported":1761423042,"current_range_meters":17200,"station_id":"","pricing_plan_id":"cebpf4jnsgd1na2vs0mg"},{"bike_id":"3286c9ca-e41a-4a35-9c40-64d815b47d66","system_id":"levelo_inurba_marseille","lat":43.31699,"lon":5.40471,"is_reserved":false,"is_disabled":false,"rental_uris":{"android":"levelo://app?vid=3286c9ca-e41a-4a35-9c40-64d815b47d66","ios":"levelo://app?vid=3286c9ca-e41a-4a35-9c40-64d815b47d66"},"vehicle_type_id":"4","last_reported":1761423042,"current_range_meters":17200,"station_id":"ce4bh012rcd13ifvqd00","pricing_plan_id":"cebpf4jnsgd1na2vs0mg"},{"bike_id":"fcd8811e-0785-41b2-9550-0583c9d1f716","system_id":"levelo_inurba_marseille","lat":43.28851,"lon":5.35851,"is_reserved":false,"is_disabled":false,"rental_uris":{"android":"levelo://app?vid=fcd8811e-0785-41b2-9550-0583c9d1f716","ios":"levelo://app?vid=fcd8811e-0785-41b2-9550-0583c9d1f716"},"vehicle_type_id":"4","last_reported":1761423042,"current_range_meters":17600,"station_id":"ce4bhb12rcd13ifvqem0","pricing_plan_id":"cebpf4jnsgd1na2vs0mg"},{"bike_id":"466451aa-b2f3-4de9-be8f-5621dcd52422","system_id":"levelo_inurba_marseille","lat":43.26212,"lon":5.37441,"is_reserved":false,"is_disabled":false,"rental_uris":{"android":"levelo://app?vid=466451aa-b2f3-4de9-be8f-5621dcd52422","ios":"levelo://app?vid=466451aa-b2f3-4de9-be8f-5621dcd52422"},"vehicle_type_id":"4","last_reported":1761423042,"current_range_meters":17600,"station_id":"ce4bhgp2rcd13ifvqfc0","pricing_plan_id":"cebpf4jnsgd1na2vs0mg"},{"bike_id":"de5cece4-6186-4ccb-b70e-a25e8bd3fc86","system_id":"levelo_inurba_marseille","lat":43.337444,"lon":5.374475,"is_reserved":false,"is_disabled":false,"rental_uris":{"android":"levelo://app?vid=de5cece4-6186-4ccb-b70e-a25e8bd3fc86","ios":"levelo://app?vid=de5cece4-6186-4ccb-b70e-a25e8bd3fc86"},"vehicle_type_id":"4","last_reported":1761423042,"current_range_meters":17600,"station_id":"","pricing_plan_id":"cebpf4jnsgd1na2vs0mg"},{"bike_id":"21bdcc57-733f-425b-bd24-99c799d60436","system_id":"levelo_inurba_marseille","lat":43.27364,"lon":5.36234,"is_reserved":false,"is_disabled":false,"rental_uris":{"android":"levelo://app?vid=21bdcc57-733f-425b-bd24-99c799d60436","ios":"levelo://app?vid=21bdcc57-733f-425b-bd24-99c799d60436"},"vehicle_type_id":"4","last_reported":1761423042,"current_range_meters":18000,"station_id":"ce4bhbh2rcd13ifvqeo0","pricing_plan_id":"cebpf4jnsgd1na2vs0mg"},{"bike_id":"8847af5d-c1ad-4d8d-a5c1-273c3b41c105","system_id":"levelo_inurba_marseille","lat":43.32254,"lon":5.41949,"is_reserved":false,"is_disabled":false,"rental_uris":{"android":"levelo://app?vid=8847af5d-c1ad-4d8d-a5c1-273c3b41c105","ios":"levelo://app?vid=8847af5d-c1ad-4d8d-a5c1-273c3b41c105"},"vehicle_type_id":"4","last_reported":1761423042,"current_range_meters":18000,"station_id":"","pricing_plan_id":"cebpf4jnsgd1na2vs0mg"},{"bike_id":"933e9118-252f-425b-94a4-2d2542195565","system_id":"levelo_inurba_marseille","lat":43.3168,"lon":5.40468,"is_reserved":false,"is_disabled":false,"rental_uris":{"android":"levelo://app?vid=933e9118-252f-425b-94a4-2d2542195565","ios":"levelo://app?vid=933e9118-252f-425b-94a4-2d2542195565"},"vehicle_type_id":"4","last_reported":1761423042,"current_range_meters":18000,"station_id":"ce4bh012rcd13ifvqd00","pricing_plan_id":"cebpf4jnsgd1na2vs0mg"},{"bike_id":"c22eac92-baa7-4895-833d-9b502fcfd605","system_id":"levelo_inurba_marseille","lat":43.291021,"lon":5.381398,"is_reserved":false,"is_disabled":false,"rental_uris":{"android":"levelo://app?vid=c22eac92-baa7-4895-833d-9b502fcfd605","ios":"levelo://app?vid=c22eac92-baa7-4895-833d-9b502fcfd605"},"vehicle_type_id":"4","last_reported":1761423042,"current_range_meters":18000,"station_id":"ce4bh512rcd13ifvqe2g","pricing_plan_id":"cebpf4jnsgd1na2vs0mg"},{"bike_id":"97533c45-dda9-4e95-a5e5-85a688cc8872","system_id":"levelo_inurba_marseille","lat":43.289191,"lon":5.383852,"is_reserved":false,"is_disabled":false,"rental_uris":{"android":"levelo://app?vid=97533c45-dda9-4e95-a5e5-85a688cc8872","ios":"levelo://app?vid=97533c45-dda9-4e95-a5e5-85a688cc8872"},"vehicle_type_id":"4","last_reported":1761423042,"current_range_meters":18000,"station_id":"ce4bh612rcd13ifvqe6g","pricing_plan_id":"cebpf4jnsgd1na2vs0mg"},{"bike_id":"f759c46e-a067-48f5-aacc-2b66dddb836a","system_id":"levelo_inurba_marseille","lat":43.307388,"lon":5.424474,"is_reserved":false,"is_disabled":false,"rental_uris":{"android":"levelo://app?vid=f759c46e-a067-48f5-aacc-2b66dddb836a","ios":"levelo://app?vid=f759c46e-a067-48f5-aacc-2b66dddb836a"},"vehicle_type_id":"4","last_reported":1761423042,"current_range_meters":18000,"station_id":"st_cvj6ca6bvosntc0bfgr0","pricing_plan_id":"cebpf4jnsgd1na2vs0mg"},{"bike_id":"c5038190-a8e4-4991-9d61-9ade4c64aa77","system_id":"levelo_inurba_marseille","lat":43.28075,"lon":5.39652,"is_reserved":false,"is_disabled":false,"rental_uris":{"android":"levelo://app?vid=c5038190-a8e4-4991-9d61-9ade4c64aa77","ios":"levelo://app?vid=c5038190-a8e4-4991-9d61-9ade4c64aa77"},"vehicle_type_id":"4","last_reported":1761423042,"current_range_meters":18000,"station_id":"ce4bho12rcd13ifvqh2g","pricing_plan_id":"cebpf4jnsgd1na2vs0mg"},{"bike_id":"14f2119b-07cd-4fc8-be12-d51071618c9e","system_id":"levelo_inurba_marseille","lat":43.2396,"lon":5.36622,"is_reserved":false,"is_disabled":false,"rental_uris":{"android":"levelo://app?vid=14f2119b-07cd-4fc8-be12-d51071618c9e","ios":"levelo://app?vid=14f2119b-07cd-4fc8-be12-d51071618c9e"},"vehicle_type_id":"4","last_reported":1761423042,"current_range_meters":18000,"station_id":"ce4bhi12rcd13ifvqfp0","pricing_plan_id":"cebpf4jnsgd1na2vs0mg"},{"bike_id":"7eaa6996-f36f-4371-90e8-dc4bf2a6f7b6","system_id":"levelo_inurba_marseille","lat":43.30135,"lon":5.38774,"is_reserved":false,"is_disabled":false,"rental_uris":{"android":"levelo://app?vid=7eaa6996-f36f-4371-90e8-dc4bf2a6f7b6","ios":"levelo://app?vid=7eaa6996-f36f-4371-90e8-dc4bf2a6f7b6"},"vehicle_type_id":"4","last_reported":1761423042,"current_range_meters":18000,"station_id":"ce4bghh2rcd13ifvqb60","pricing_plan_id":"cebpf4jnsgd1na2vs0mg"},{"bike_id":"67f8857f-0853-46d2-b9ef-96c5ce2639bc","system_id":"levelo_inurba_marseille","lat":43.2305,"lon":5.355058,"is_reserved":false,"is_disabled":false,"rental_uris":{"android":"levelo://app?vid=67f8857f-0853-46d2-b9ef-96c5ce2639bc","ios":"levelo://app?vid=67f8857f-0853-46d2-b9ef-96c5ce2639bc"},"vehicle_type_id":"4","last_reported":1761423042,"current_range_meters":18000,"station_id":"cpo3342slgdg3j2ifvpg","pricing_plan_id":"cebpf4jnsgd1na2vs0mg"},{"bike_id":"67eb60ff-5d72-4790-8e11-e480b49cf7fe","system_id":"levelo_inurba_marseille","lat":43.28843,"lon":5.35862,"is_reserved":false,"is_disabled":false,"rental_uris":{"android":"levelo://app?vid=67eb60ff-5d72-4790-8e11-e480b49cf7fe","ios":"levelo://app?vid=67eb60ff-5d72-4790-8e11-e480b49cf7fe"},"vehicle_type_id":"4","last_reported":1761423042,"current_range_meters":18000,"station_id":"ce4bhb12rcd13ifvqem0","pricing_plan_id":"cebpf4jnsgd1na2vs0mg"},{"bike_id":"e5aafa61-e384-4c69-800b-fe726c41fdc6","system_id":"levelo_inurba_marseille","lat":43.29979,"lon":5.38485,"is_reserved":false,"is_disabled":true,"rental_uris":{"android":"levelo://app?vid=e5aafa61-e384-4c69-800b-fe726c41fdc6","ios":"levelo://app?vid=e5aafa61-e384-4c69-800b-fe726c41fdc6"},"vehicle_type_id":"4","last_reported":1761423042,"current_range_meters":18000,"station_id":"ce4bgj92rcd13ifvqbd0","pricing_plan_id":"cebpf4jnsgd1na2vs0mg"},{"bike_id":"be2aa8cb-51ca-4381-bc53-dca73d27e1ab","system_id":"levelo_inurba_marseille","lat":43.29026,"lon":5.38606,"is_reserved":false,"is_disabled":false,"rental_uris":{"android":"levelo://app?vid=be2aa8cb-51ca-4381-bc53-dca73d27e1ab","ios":"levelo://app?vid=be2aa8cb-51ca-4381-bc53-dca73d27e1ab"},"vehicle_type_id":"4","last_reported":1761423042,"current_range_meters":18800,"station_id":"ce4bh4p2rcd13ifvqe0g","pricing_plan_id":"cebpf4jnsgd1na2vs0mg"},{"bike_id":"317107fa-306d-4b8d-9380-a16cd06486ce","system_id":"levelo_inurba_marseille","lat":43.28468,"lon":5.35884,"is_reserved":false,"is_disabled":true,"rental_uris":{"android":"levelo://app?vid=317107fa-306d-4b8d-9380-a16cd06486ce","ios":"levelo://app?vid=317107fa-306d-4b8d-9380-a16cd06486ce"},"vehicle_type_id":"4","last_reported":1761423042,"current_range_meters":18800,"station_id":"ce4bhah2rcd13ifvqei0","pricing_plan_id":"cebpf4jnsgd1na2vs0mg"},{"bike_id":"46b0db6c-35c8-470b-a45d-db7e7afa9bfd","system_id":"levelo_inurba_marseille","lat":43.28421,"lon":5.37516,"is_reserved":false,"is_disabled":true,"rental_uris":{"android":"levelo://app?vid=46b0db6c-35c8-470b-a45d-db7e7afa9bfd","ios":"levelo://app?vid=46b0db6c-35c8-470b-a45d-db7e7afa9bfd"},"vehicle_type_id":"4","last_reported":1761423042,"current_range_meters":18800,"station_id":"ce4bh412rcd13ifvqds0","pricing_plan_id":"cebpf4jnsgd1na2vs0mg"},{"bike_id":"264da5b3-a4d0-41dc-9d24-00c05cf20128","system_id":"levelo_inurba_marseille","lat":43.23182,"lon":5.39991,"is_reserved":false,"is_disabled":false,"rental_uris":{"android":"levelo://app?vid=264da5b3-a4d0-41dc-9d24-00c05cf20128","ios":"levelo://app?vid=264da5b3-a4d0-41dc-9d24-00c05cf20128"},"vehicle_type_id":"4","last_reported":1761423042,"current_range_meters":18800,"station_id":"ce4bhn12rcd13ifvqgqg","pricing_plan_id":"cebpf4jnsgd1na2vs0mg"},{"bike_id":"7a1877e8-1310-4142-900d-3cea9a2ef65f","system_id":"levelo_inurba_marseille","lat":43.29503,"lon":5.43301,"is_reserved":false,"is_disabled":false,"rental_uris":{"android":"levelo://app?vid=7a1877e8-1310-4142-900d-3cea9a2ef65f","ios":"levelo://app?vid=7a1877e8-1310-4142-900d-3cea9a2ef65f"},"vehicle_type_id":"4","last_reported":1761423042,"current_range_meters":18800,"station_id":"st_d3j5ugp08ojc73fj9d10","pricing_plan_id":"cebpf4jnsgd1na2vs0mg"},{"bike_id":"d2baae2c-7183-4875-a33e-ff83bc980382","system_id":"levelo_inurba_marseille","lat":43.29265,"lon":5.38449,"is_reserved":false,"is_disabled":false,"rental_uris":{"android":"levelo://app?vid=d2baae2c-7183-4875-a33e-ff83bc980382","ios":"levelo://app?vid=d2baae2c-7183-4875-a33e-ff83bc980382"},"vehicle_type_id":"4","last_reported":1761423042,"current_range_meters":18800,"station_id":"ce4bh692rcd13ifvqea0","pricing_plan_id":"cebpf4jnsgd1na2vs0mg"},{"bike_id":"64b75b4a-3497-4861-8cc2-90dd62cd9f5e","system_id":"levelo_inurba_marseille","lat":43.29502,"lon":5.43308,"is_reserved":false,"is_disabled":false,"rental_uris":{"android":"levelo://app?vid=64b75b4a-3497-4861-8cc2-90dd62cd9f5e","ios":"levelo://app?vid=64b75b4a-3497-4861-8cc2-90dd62cd9f5e"},"vehicle_type_id":"4","last_reported":1761423042,"current_range_meters":18800,"station_id":"st_d3j5ugp08ojc73fj9d10","pricing_plan_id":"cebpf4jnsgd1na2vs0mg"},{"bike_id":"c124d4a0-9e47-48ec-ad7a-ea36eb6e5d35","system_id":"levelo_inurba_marseille","lat":43.2439,"lon":5.37049,"is_reserved":false,"is_disabled":false,"rental_uris":{"android":"levelo://app?vid=c124d4a0-9e47-48ec-ad7a-ea36eb6e5d35","ios":"levelo://app?vid=c124d4a0-9e47-48ec-ad7a-ea36eb6e5d35"},"vehicle_type_id":"4","last_reported":1761423042,"current_range_meters":18800,"station_id":"ce4bhhh2rcd13ifvqfk0","pricing_plan_id":"cebpf4jnsgd1na2vs0mg"},{"bike_id":"f181bc0b-308d-41b2-9f0b-58c3dcbc3df6","system_id":"levelo_inurba_marseille","lat":43.317,"lon":5.40463,"is_reserved":false,"is_disabled":false,"rental_uris":{"android":"levelo://app?vid=f181bc0b-308d-41b2-9f0b-58c3dcbc3df6","ios":"levelo://app?vid=f181bc0b-308d-41b2-9f0b-58c3dcbc3df6"},"vehicle_type_id":"4","last_reported":1761423042,"current_range_meters":19200,"station_id":"ce4bh012rcd13ifvqd00","pricing_plan_id":"cebpf4jnsgd1na2vs0mg"},{"bike_id":"72760127-c5c9-4c49-a253-e7e879fb7a2d","system_id":"levelo_inurba_marseille","lat":43.31674,"lon":5.40477,"is_reserved":false,"is_disabled":false,"rental_uris":{"android":"levelo://app?vid=72760127-c5c9-4c49-a253-e7e879fb7a2d","ios":"levelo://app?vid=72760127-c5c9-4c49-a253-e7e879fb7a2d"},"vehicle_type_id":"4","last_reported":1761423042,"current_range_meters":19200,"station_id":"ce4bh012rcd13ifvqd00","pricing_plan_id":"cebpf4jnsgd1na2vs0mg"},{"bike_id":"a70a5c56-54da-4a9c-92ae-4bd04c5f57d9","system_id":"levelo_inurba_marseille","lat":43.29897,"lon":5.43647,"is_reserved":false,"is_disabled":false,"rental_uris":{"android":"levelo://app?vid=a70a5c56-54da-4a9c-92ae-4bd04c5f57d9","ios":"levelo://app?vid=a70a5c56-54da-4a9c-92ae-4bd04c5f57d9"},"vehicle_type_id":"4","last_reported":1761423042,"current_range_meters":19200,"station_id":"ce4bhpp2rcd13ifvqhfg","pricing_plan_id":"cebpf4jnsgd1na2vs0mg"},{"bike_id":"cabe88d3-3629-4519-a770-a69d60736c2d","system_id":"levelo_inurba_marseille","lat":43.31685,"lon":5.40462,"is_reserved":false,"is_disabled":false,"rental_uris":{"android":"levelo://app?vid=cabe88d3-3629-4519-a770-a69d60736c2d","ios":"levelo://app?vid=cabe88d3-3629-4519-a770-a69d60736c2d"},"vehicle_type_id":"4","last_reported":1761423042,"current_range_meters":19200,"station_id":"ce4bh012rcd13ifvqd00","pricing_plan_id":"cebpf4jnsgd1na2vs0mg"},{"bike_id":"ee321285-8f41-4298-8555-d3988119dd73","system_id":"levelo_inurba_marseille","lat":43.2551,"lon":5.37655,"is_reserved":false,"is_disabled":false,"rental_uris":{"android":"levelo://app?vid=ee321285-8f41-4298-8555-d3988119dd73","ios":"levelo://app?vid=ee321285-8f41-4298-8555-d3988119dd73"},"vehicle_type_id":"4","last_reported":1761423042,"current_range_meters":19200,"station_id":"ce4bhh12rcd13ifvqff0","pricing_plan_id":"cebpf4jnsgd1na2vs0mg"},{"bike_id":"6cd83c7f-2c59-41be-b5e9-9062b5657521","system_id":"levelo_inurba_marseille","lat":43.29197,"lon":5.35807,"is_reserved":false,"is_disabled":false,"rental_uris":{"android":"levelo://app?vid=6cd83c7f-2c59-41be-b5e9-9062b5657521","ios":"levelo://app?vid=6cd83c7f-2c59-41be-b5e9-9062b5657521"},"vehicle_type_id":"4","last_reported":1761423042,"current_range_meters":19200,"station_id":"ce4bhb12rcd13ifvqel0","pricing_plan_id":"cebpf4jnsgd1na2vs0mg"},{"bike_id":"bd669768-3f06-4c56-83c6-18e704beb8c4","system_id":"levelo_inurba_marseille","lat":43.284153,"lon":5.349926,"is_reserved":false,"is_disabled":false,"rental_uris":{"android":"levelo://app?vid=bd669768-3f06-4c56-83c6-18e704beb8c4","ios":"levelo://app?vid=bd669768-3f06-4c56-83c6-18e704beb8c4"},"vehicle_type_id":"4","last_reported":1761423042,"current_range_meters":19200,"station_id":"ce4bhbh2rcd13ifvqepg","pricing_plan_id":"cebpf4jnsgd1na2vs0mg"},{"bike_id":"7db71e7c-3b39-4c91-9594-4642c2a73bf0","system_id":"levelo_inurba_marseille","lat":43.305793,"lon":5.393518,"is_reserved":false,"is_disabled":false,"rental_uris":{"android":"levelo://app?vid=7db71e7c-3b39-4c91-9594-4642c2a73bf0","ios":"levelo://app?vid=7db71e7c-3b39-4c91-9594-4642c2a73bf0"},"vehicle_type_id":"4","last_reported":1761423042,"current_range_meters":19200,"station_id":"ce4bh0p2rcd13ifvqd80","pricing_plan_id":"cebpf4jnsgd1na2vs0mg"},{"bike_id":"eb0d9e20-fe6c-486a-9aa2-e7330d4e9d8e","system_id":"levelo_inurba_marseille","lat":43.239656,"lon":5.366313,"is_reserved":false,"is_disabled":false,"rental_uris":{"android":"levelo://app?vid=eb0d9e20-fe6c-486a-9aa2-e7330d4e9d8e","ios":"levelo://app?vid=eb0d9e20-fe6c-486a-9aa2-e7330d4e9d8e"},"vehicle_type_id":"4","last_reported":1761423042,"current_range_meters":19600,"station_id":"ce4bhi12rcd13ifvqfp0","pricing_plan_id":"cebpf4jnsgd1na2vs0mg"},{"bike_id":"af9e12e7-38b8-459b-8665-a09998ee41f3","system_id":"levelo_inurba_marseille","lat":43.24674,"lon":5.38893,"is_reserved":false,"is_disabled":false,"rental_uris":{"android":"levelo://app?vid=af9e12e7-38b8-459b-8665-a09998ee41f3","ios":"levelo://app?vid=af9e12e7-38b8-459b-8665-a09998ee41f3"},"vehicle_type_id":"4","last_reported":1761423042,"current_range_meters":19600,"station_id":"ce4bhg12rcd13ifvqf60","pricing_plan_id":"cebpf4jnsgd1na2vs0mg"},{"bike_id":"22448999-2d5c-41a9-8bf4-9cabf639221a","system_id":"levelo_inurba_marseille","lat":43.27798,"lon":5.39541,"is_reserved":false,"is_disabled":false,"rental_uris":{"android":"levelo://app?vid=22448999-2d5c-41a9-8bf4-9cabf639221a","ios":"levelo://app?vid=22448999-2d5c-41a9-8bf4-9cabf639221a"},"vehicle_type_id":"4","last_reported":1761423042,"current_range_meters":19600,"station_id":"","pricing_plan_id":"cebpf4jnsgd1na2vs0mg"},{"bike_id":"03066392-0d25-4174-8a09-d2927fc1a45a","system_id":"levelo_inurba_marseille","lat":43.31694,"lon":5.40472,"is_reserved":false,"is_disabled":false,"rental_uris":{"android":"levelo://app?vid=03066392-0d25-4174-8a09-d2927fc1a45a","ios":"levelo://app?vid=03066392-0d25-4174-8a09-d2927fc1a45a"},"vehicle_type_id":"4","last_reported":1761423042,"current_range_meters":19600,"station_id":"ce4bh012rcd13ifvqd00","pricing_plan_id":"cebpf4jnsgd1na2vs0mg"},{"bike_id":"26d051bc-bb85-4e59-83f5-aefdbf7466b6","system_id":"levelo_inurba_marseille","lat":43.29029,"lon":5.38616,"is_reserved":false,"is_disabled":false,"rental_uris":{"android":"levelo://app?vid=26d051bc-bb85-4e59-83f5-aefdbf7466b6","ios":"levelo://app?vid=26d051bc-bb85-4e59-83f5-aefdbf7466b6"},"vehicle_type_id":"4","last_reported":1761423042,"current_range_meters":19600,"station_id":"ce4bh4p2rcd13ifvqe0g","pricing_plan_id":"cebpf4jnsgd1na2vs0mg"},{"bike_id":"42cb9341-f763-4839-9a72-1b7aee82bcfe","system_id":"levelo_inurba_marseille","lat":43.29264,"lon":5.38433,"is_reserved":false,"is_disabled":false,"rental_uris":{"android":"levelo://app?vid=42cb9341-f763-4839-9a72-1b7aee82bcfe","ios":"levelo://app?vid=42cb9341-f763-4839-9a72-1b7aee82bcfe"},"vehicle_type_id":"4","last_reported":1761423042,"current_range_meters":19600,"station_id":"ce4bh692rcd13ifvqea0","pricing_plan_id":"cebpf4jnsgd1na2vs0mg"},{"bike_id":"59205725-75d0-4749-aabb-b29493159503","system_id":"levelo_inurba_marseille","lat":43.29364,"lon":5.374375,"is_reserved":false,"is_disabled":false,"rental_uris":{"android":"levelo://app?vid=59205725-75d0-4749-aabb-b29493159503","ios":"levelo://app?vid=59205725-75d0-4749-aabb-b29493159503"},"vehicle_type_id":"4","last_reported":1761423042,"current_range_meters":19600,"station_id":"ce4bgi12rcd13ifvqb70","pricing_plan_id":"cebpf4jnsgd1na2vs0mg"},{"bike_id":"c73c36e8-bcad-4334-954f-82bb6343bb06","system_id":"levelo_inurba_marseille","lat":43.26592,"lon":5.39032,"is_reserved":false,"is_disabled":false,"rental_uris":{"android":"levelo://app?vid=c73c36e8-bcad-4334-954f-82bb6343bb06","ios":"levelo://app?vid=c73c36e8-bcad-4334-954f-82bb6343bb06"},"vehicle_type_id":"4","last_reported":1761423042,"current_range_meters":20000,"station_id":"ce4bhe12rcd13ifvqf30","pricing_plan_id":"cebpf4jnsgd1na2vs0mg"},{"bike_id":"53619b52-f6a4-4a36-9715-aa47e9e64dbc","system_id":"levelo_inurba_marseille","lat":43.2926,"lon":5.384382,"is_reserved":false,"is_disabled":true,"rental_uris":{"android":"levelo://app?vid=53619b52-f6a4-4a36-9715-aa47e9e64dbc","ios":"levelo://app?vid=53619b52-f6a4-4a36-9715-aa47e9e64dbc"},"vehicle_type_id":"4","last_reported":1761423042,"current_range_meters":20000,"station_id":"ce4bh692rcd13ifvqea0","pricing_plan_id":"cebpf4jnsgd1na2vs0mg"},{"bike_id":"fbc99ffc-95d7-4f91-88fd-2a250a3bade1","system_id":"levelo_inurba_marseille","lat":43.29282,"lon":5.38438,"is_reserved":false,"is_disabled":false,"rental_uris":{"android":"levelo://app?vid=fbc99ffc-95d7-4f91-88fd-2a250a3bade1","ios":"levelo://app?vid=fbc99ffc-95d7-4f91-88fd-2a250a3bade1"},"vehicle_type_id":"4","last_reported":1761423042,"current_range_meters":20000,"station_id":"ce4bh692rcd13ifvqea0","pricing_plan_id":"cebpf4jnsgd1na2vs0mg"},{"bike_id":"27b401ab-3e87-4a45-938a-47fa9aacc226","system_id":"levelo_inurba_marseille","lat":43.31691,"lon":5.40446,"is_reserved":false,"is_disabled":false,"rental_uris":{"android":"levelo://app?vid=27b401ab-3e87-4a45-938a-47fa9aacc226","ios":"levelo://app?vid=27b401ab-3e87-4a45-938a-47fa9aacc226"},"vehicle_type_id":"4","last_reported":1761423042,"current_range_meters":20000,"station_id":"ce4bh012rcd13ifvqd00","pricing_plan_id":"cebpf4jnsgd1na2vs0mg"},{"bike_id":"7f389dfa-e0ac-4ffa-a888-5a224a168bfb","system_id":"levelo_inurba_marseille","lat":43.24672,"lon":5.38152,"is_reserved":false,"is_disabled":false,"rental_uris":{"android":"levelo://app?vid=7f389dfa-e0ac-4ffa-a888-5a224a168bfb","ios":"levelo://app?vid=7f389dfa-e0ac-4ffa-a888-5a224a168bfb"},"vehicle_type_id":"4","last_reported":1761423042,"current_range_meters":20000,"station_id":"ce4bhih2rcd13ifvqfr0","pricing_plan_id":"cebpf4jnsgd1na2vs0mg"},{"bike_id":"ef09e573-81f5-4d76-ae21-445bf25f7f26","system_id":"levelo_inurba_marseille","lat":43.29262,"lon":5.38432,"is_reserved":false,"is_disabled":false,"rental_uris":{"android":"levelo://app?vid=ef09e573-81f5-4d76-ae21-445bf25f7f26","ios":"levelo://app?vid=ef09e573-81f5-4d76-ae21-445bf25f7f26"},"vehicle_type_id":"4","last_reported":1761423042,"current_range_meters":20000,"station_id":"ce4bh692rcd13ifvqea0","pricing_plan_id":"cebpf4jnsgd1na2vs0mg"},{"bike_id":"ad166e8d-320f-47c2-bfd9-9e014a946d21","system_id":"levelo_inurba_marseille","lat":43.278164,"lon":5.407197,"is_reserved":false,"is_disabled":true,"rental_uris":{"android":"levelo://app?vid=ad166e8d-320f-47c2-bfd9-9e014a946d21","ios":"levelo://app?vid=ad166e8d-320f-47c2-bfd9-9e014a946d21"},"vehicle_type_id":"4","last_reported":1761423042,"current_range_meters":20000,"station_id":"ce4bhnh2rcd13ifvqgtg","pricing_plan_id":"cebpf4jnsgd1na2vs0mg"},{"bike_id":"1340eed0-beb0-4299-b2c7-c5f67df99d28","system_id":"levelo_inurba_marseille","lat":43.28227,"lon":5.39064,"is_reserved":false,"is_disabled":false,"rental_uris":{"android":"levelo://app?vid=1340eed0-beb0-4299-b2c7-c5f67df99d28","ios":"levelo://app?vid=1340eed0-beb0-4299-b2c7-c5f67df99d28"},"vehicle_type_id":"4","last_reported":1761423042,"current_range_meters":20400,"station_id":"ce4bhn92rcd13ifvqgsg","pricing_plan_id":"cebpf4jnsgd1na2vs0mg"},{"bike_id":"2c0097ca-090c-4a7e-b26c-67d4d8699054","system_id":"levelo_inurba_marseille","lat":43.29545,"lon":5.38541,"is_reserved":false,"is_disabled":false,"rental_uris":{"android":"levelo://app?vid=2c0097ca-090c-4a7e-b26c-67d4d8699054","ios":"levelo://app?vid=2c0097ca-090c-4a7e-b26c-67d4d8699054"},"vehicle_type_id":"4","last_reported":1761423042,"current_range_meters":20400,"station_id":"ce4bgih2rcd13ifvqba0","pricing_plan_id":"cebpf4jnsgd1na2vs0mg"},{"bike_id":"62f124ee-b31f-4999-917a-2d8e5fe6acd1","system_id":"levelo_inurba_marseille","lat":43.29276,"lon":5.3843,"is_reserved":false,"is_disabled":false,"rental_uris":{"android":"levelo://app?vid=62f124ee-b31f-4999-917a-2d8e5fe6acd1","ios":"levelo://app?vid=62f124ee-b31f-4999-917a-2d8e5fe6acd1"},"vehicle_type_id":"4","last_reported":1761423042,"current_range_meters":20400,"station_id":"ce4bh692rcd13ifvqea0","pricing_plan_id":"cebpf4jnsgd1na2vs0mg"},{"bike_id":"2d05c3f4-b99a-41b5-b740-342644ef2e1f","system_id":"levelo_inurba_marseille","lat":43.292515,"lon":5.409059,"is_reserved":false,"is_disabled":false,"rental_uris":{"android":"levelo://app?vid=2d05c3f4-b99a-41b5-b740-342644ef2e1f","ios":"levelo://app?vid=2d05c3f4-b99a-41b5-b740-342644ef2e1f"},"vehicle_type_id":"4","last_reported":1761423042,"current_range_meters":20400,"station_id":"ce4bh192rcd13ifvqdc0","pricing_plan_id":"cebpf4jnsgd1na2vs0mg"},{"bike_id":"69dd92f7-10e3-4e60-b138-8a28ac8eb8b2","system_id":"levelo_inurba_marseille","lat":43.297699,"lon":5.372933,"is_reserved":false,"is_disabled":false,"rental_uris":{"android":"levelo://app?vid=69dd92f7-10e3-4e60-b138-8a28ac8eb8b2","ios":"levelo://app?vid=69dd92f7-10e3-4e60-b138-8a28ac8eb8b2"},"vehicle_type_id":"4","last_reported":1761423042,"current_range_meters":20400,"station_id":"ce4bh4p2rcd13ifvqe0g","pricing_plan_id":"cebpf4jnsgd1na2vs0mg"},{"bike_id":"f9ad92a9-3ce1-4bd3-a291-d1791b8302a9","system_id":"levelo_inurba_marseille","lat":43.29174,"lon":5.37155,"is_reserved":false,"is_disabled":false,"rental_uris":{"android":"levelo://app?vid=f9ad92a9-3ce1-4bd3-a291-d1791b8302a9","ios":"levelo://app?vid=f9ad92a9-3ce1-4bd3-a291-d1791b8302a9"},"vehicle_type_id":"4","last_reported":1761423042,"current_range_meters":20400,"station_id":"ce4bha92rcd13ifvqeh0","pricing_plan_id":"cebpf4jnsgd1na2vs0mg"},{"bike_id":"ce15d64c-7bd4-4017-a01a-0dc353c2995b","system_id":"levelo_inurba_marseille","lat":43.28119,"lon":5.35027,"is_reserved":false,"is_disabled":false,"rental_uris":{"android":"levelo://app?vid=ce15d64c-7bd4-4017-a01a-0dc353c2995b","ios":"levelo://app?vid=ce15d64c-7bd4-4017-a01a-0dc353c2995b"},"vehicle_type_id":"4","last_reported":1761423042,"current_range_meters":20400,"station_id":"","pricing_plan_id":"cebpf4jnsgd1na2vs0mg"},{"bike_id":"c7dc7d8a-05e2-4ea3-8adc-2dd23fbc4f29","system_id":"levelo_inurba_marseille","lat":43.28155,"lon":5.42635,"is_reserved":false,"is_disabled":false,"rental_uris":{"android":"levelo://app?vid=c7dc7d8a-05e2-4ea3-8adc-2dd23fbc4f29","ios":"levelo://app?vid=c7dc7d8a-05e2-4ea3-8adc-2dd23fbc4f29"},"vehicle_type_id":"4","last_reported":1761423042,"current_range_meters":20800,"station_id":"ce4bhnh2rcd13ifvqgug","pricing_plan_id":"cebpf4jnsgd1na2vs0mg"},{"bike_id":"6417a564-a672-44ab-bb8d-57fed4617171","system_id":"levelo_inurba_marseille","lat":43.26054,"lon":5.39392,"is_reserved":false,"is_disabled":false,"rental_uris":{"android":"levelo://app?vid=6417a564-a672-44ab-bb8d-57fed4617171","ios":"levelo://app?vid=6417a564-a672-44ab-bb8d-57fed4617171"},"vehicle_type_id":"4","last_reported":1761423042,"current_range_meters":20800,"station_id":"ce4bhh92rcd13ifvqfj0","pricing_plan_id":"cebpf4jnsgd1na2vs0mg"},{"bike_id":"609e8845-7ae3-4c4f-97f5-856dd3a8b490","system_id":"levelo_inurba_marseille","lat":43.28874,"lon":5.42509,"is_reserved":false,"is_disabled":false,"rental_uris":{"android":"levelo://app?vid=609e8845-7ae3-4c4f-97f5-856dd3a8b490","ios":"levelo://app?vid=609e8845-7ae3-4c4f-97f5-856dd3a8b490"},"vehicle_type_id":"4","last_reported":1761423042,"current_range_meters":20800,"station_id":"st_d3b462108ojc7389ooeg","pricing_plan_id":"cebpf4jnsgd1na2vs0mg"},{"bike_id":"bac1245a-88c1-4fe5-baae-0f4a8b74990b","system_id":"levelo_inurba_marseille","lat":43.24645,"lon":5.38895,"is_reserved":false,"is_disabled":false,"rental_uris":{"android":"levelo://app?vid=bac1245a-88c1-4fe5-baae-0f4a8b74990b","ios":"levelo://app?vid=bac1245a-88c1-4fe5-baae-0f4a8b74990b"},"vehicle_type_id":"4","last_reported":1761423042,"current_range_meters":20800,"station_id":"ce4bhg12rcd13ifvqf60","pricing_plan_id":"cebpf4jnsgd1na2vs0mg"},{"bike_id":"dd49c643-708e-4930-9902-c0a947f622bd","system_id":"levelo_inurba_marseille","lat":43.23064,"lon":5.35471,"is_reserved":false,"is_disabled":false,"rental_uris":{"android":"levelo://app?vid=dd49c643-708e-4930-9902-c0a947f622bd","ios":"levelo://app?vid=dd49c643-708e-4930-9902-c0a947f622bd"},"vehicle_type_id":"4","last_reported":1761423042,"current_range_meters":20800,"station_id":"cpo3342slgdg3j2ifvpg","pricing_plan_id":"cebpf4jnsgd1na2vs0mg"},{"bike_id":"f6f41915-49e3-4fb8-8c5c-96d42e084e15","system_id":"levelo_inurba_marseille","lat":43.32013,"lon":5.37082,"is_reserved":false,"is_disabled":false,"rental_uris":{"android":"levelo://app?vid=f6f41915-49e3-4fb8-8c5c-96d42e084e15","ios":"levelo://app?vid=f6f41915-49e3-4fb8-8c5c-96d42e084e15"},"vehicle_type_id":"4","last_reported":1761423042,"current_range_meters":20800,"station_id":"","pricing_plan_id":"cebpf4jnsgd1na2vs0mg"},{"bike_id":"31749501-02cc-4c9d-89a7-05e23be29082","system_id":"levelo_inurba_marseille","lat":43.29965,"lon":5.37168,"is_reserved":false,"is_disabled":false,"rental_uris":{"android":"levelo://app?vid=31749501-02cc-4c9d-89a7-05e23be29082","ios":"levelo://app?vid=31749501-02cc-4c9d-89a7-05e23be29082"},"vehicle_type_id":"4","last_reported":1761423042,"current_range_meters":20800,"station_id":"ce4bgr92rcd13ifvqc7g","pricing_plan_id":"cebpf4jnsgd1na2vs0mg"},{"bike_id":"242edaf7-7a24-40c8-be52-60d9c12c041b","system_id":"levelo_inurba_marseille","lat":43.292303,"lon":5.361156,"is_reserved":false,"is_disabled":false,"rental_uris":{"android":"levelo://app?vid=242edaf7-7a24-40c8-be52-60d9c12c041b","ios":"levelo://app?vid=242edaf7-7a24-40c8-be52-60d9c12c041b"},"vehicle_type_id":"4","last_reported":1761423042,"current_range_meters":21600,"station_id":"ce4bhbh2rcd13ifvqeqg","pricing_plan_id":"cebpf4jnsgd1na2vs0mg"},{"bike_id":"cc74aa27-5797-484b-88c4-23f8dc532b8d","system_id":"levelo_inurba_marseille","lat":43.29017,"lon":5.38114,"is_reserved":false,"is_disabled":false,"rental_uris":{"android":"levelo://app?vid=cc74aa27-5797-484b-88c4-23f8dc532b8d","ios":"levelo://app?vid=cc74aa27-5797-484b-88c4-23f8dc532b8d"},"vehicle_type_id":"4","last_reported":1761423042,"current_range_meters":21600,"station_id":"ce4bh4p2rcd13ifvqe1g","pricing_plan_id":"cebpf4jnsgd1na2vs0mg"},{"bike_id":"5ee9edc8-dc97-44a6-876e-7a09b34dd265","system_id":"levelo_inurba_marseille","lat":43.29548,"lon":5.42291,"is_reserved":false,"is_disabled":true,"rental_uris":{"android":"levelo://app?vid=5ee9edc8-dc97-44a6-876e-7a09b34dd265","ios":"levelo://app?vid=5ee9edc8-dc97-44a6-876e-7a09b34dd265"},"vehicle_type_id":"4","last_reported":1761423042,"current_range_meters":21600,"station_id":"ce4bhph2rcd13ifvqhdg","pricing_plan_id":"cebpf4jnsgd1na2vs0mg"},{"bike_id":"9a2e8e2d-f984-4dd4-b009-21d4b74e34d8","system_id":"levelo_inurba_marseille","lat":43.2679,"lon":5.39415,"is_reserved":false,"is_disabled":false,"rental_uris":{"android":"levelo://app?vid=9a2e8e2d-f984-4dd4-b009-21d4b74e34d8","ios":"levelo://app?vid=9a2e8e2d-f984-4dd4-b009-21d4b74e34d8"},"vehicle_type_id":"4","last_reported":1761423042,"current_range_meters":21600,"station_id":"","pricing_plan_id":"cebpf4jnsgd1na2vs0mg"},{"bike_id":"8c80b895-9f2c-4bea-9b8d-b5dc64c0f8e0","system_id":"levelo_inurba_marseille","lat":43.27169,"lon":5.40991,"is_reserved":false,"is_disabled":false,"rental_uris":{"android":"levelo://app?vid=8c80b895-9f2c-4bea-9b8d-b5dc64c0f8e0","ios":"levelo://app?vid=8c80b895-9f2c-4bea-9b8d-b5dc64c0f8e0"},"vehicle_type_id":"4","last_reported":1761423042,"current_range_meters":21600,"station_id":"ce4bhl12rcd13ifvqgf0","pricing_plan_id":"cebpf4jnsgd1na2vs0mg"},{"bike_id":"18b12e82-3cdd-499e-80fa-e321f1fd68ee","system_id":"levelo_inurba_marseille","lat":43.286663,"lon":5.386725,"is_reserved":false,"is_disabled":false,"rental_uris":{"android":"levelo://app?vid=18b12e82-3cdd-499e-80fa-e321f1fd68ee","ios":"levelo://app?vid=18b12e82-3cdd-499e-80fa-e321f1fd68ee"},"vehicle_type_id":"4","last_reported":1761423042,"current_range_meters":21600,"station_id":"ce4bh492rcd13ifvqdug","pricing_plan_id":"cebpf4jnsgd1na2vs0mg"},{"bike_id":"0775e65c-21b0-4fe7-98c4-d5b8c0b5d41c","system_id":"levelo_inurba_marseille","lat":43.29794,"lon":5.38094,"is_reserved":false,"is_disabled":false,"rental_uris":{"android":"levelo://app?vid=0775e65c-21b0-4fe7-98c4-d5b8c0b5d41c","ios":"levelo://app?vid=0775e65c-21b0-4fe7-98c4-d5b8c0b5d41c"},"vehicle_type_id":"4","last_reported":1761423042,"current_range_meters":21600,"station_id":"ce4bgip2rcd13ifvqbb0","pricing_plan_id":"cebpf4jnsgd1na2vs0mg"},{"bike_id":"4122d768-69a9-493f-924a-b9ca85c6df61","system_id":"levelo_inurba_marseille","lat":43.29533,"lon":5.38541,"is_reserved":false,"is_disabled":false,"rental_uris":{"android":"levelo://app?vid=4122d768-69a9-493f-924a-b9ca85c6df61","ios":"levelo://app?vid=4122d768-69a9-493f-924a-b9ca85c6df61"},"vehicle_type_id":"4","last_reported":1761423042,"current_range_meters":21600,"station_id":"ce4bgih2rcd13ifvqba0","pricing_plan_id":"cebpf4jnsgd1na2vs0mg"},{"bike_id":"9bb78607-2acc-436c-86ad-d27fc92fa34e","system_id":"levelo_inurba_marseille","lat":43.279392,"lon":5.410318,"is_reserved":false,"is_disabled":false,"rental_uris":{"android":"levelo://app?vid=9bb78607-2acc-436c-86ad-d27fc92fa34e","ios":"levelo://app?vid=9bb78607-2acc-436c-86ad-d27fc92fa34e"},"vehicle_type_id":"4","last_reported":1761423042,"current_range_meters":21600,"station_id":"ce4bhnp2rcd13ifvqh0g","pricing_plan_id":"cebpf4jnsgd1na2vs0mg"},{"bike_id":"957d1808-ba58-4d87-aab8-e534bd228a71","system_id":"levelo_inurba_marseille","lat":43.267853,"lon":5.39415,"is_reserved":false,"is_disabled":false,"rental_uris":{"android":"levelo://app?vid=957d1808-ba58-4d87-aab8-e534bd228a71","ios":"levelo://app?vid=957d1808-ba58-4d87-aab8-e534bd228a71"},"vehicle_type_id":"4","last_reported":1761423042,"current_range_meters":21600,"station_id":"ce4bgi92rcd13ifvqb90","pricing_plan_id":"cebpf4jnsgd1na2vs0mg"},{"bike_id":"90c25120-4e2d-4a97-b57e-90286daf6300","system_id":"levelo_inurba_marseille","lat":43.29543,"lon":5.38554,"is_reserved":false,"is_disabled":false,"rental_uris":{"android":"levelo://app?vid=90c25120-4e2d-4a97-b57e-90286daf6300","ios":"levelo://app?vid=90c25120-4e2d-4a97-b57e-90286daf6300"},"vehicle_type_id":"4","last_reported":1761423042,"current_range_meters":21600,"station_id":"ce4bgih2rcd13ifvqba0","pricing_plan_id":"cebpf4jnsgd1na2vs0mg"},{"bike_id":"2b85d2aa-085a-413f-b693-4d5850e7da6b","system_id":"levelo_inurba_marseille","lat":43.31681,"lon":5.40469,"is_reserved":false,"is_disabled":false,"rental_uris":{"android":"levelo://app?vid=2b85d2aa-085a-413f-b693-4d5850e7da6b","ios":"levelo://app?vid=2b85d2aa-085a-413f-b693-4d5850e7da6b"},"vehicle_type_id":"4","last_reported":1761423042,"current_range_meters":22000,"station_id":"ce4bh012rcd13ifvqd00","pricing_plan_id":"cebpf4jnsgd1na2vs0mg"},{"bike_id":"cc31071a-2064-4870-aa2c-2ce1e069edad","system_id":"levelo_inurba_marseille","lat":43.28416,"lon":5.37516,"is_reserved":false,"is_disabled":false,"rental_uris":{"android":"levelo://app?vid=cc31071a-2064-4870-aa2c-2ce1e069edad","ios":"levelo://app?vid=cc31071a-2064-4870-aa2c-2ce1e069edad"},"vehicle_type_id":"4","last_reported":1761423042,"current_range_meters":22000,"station_id":"ce4bh412rcd13ifvqds0","pricing_plan_id":"cebpf4jnsgd1na2vs0mg"},{"bike_id":"08d45edf-d15c-423d-920b-dadbed8a91ce","system_id":"levelo_inurba_marseille","lat":43.29114,"lon":5.38124,"is_reserved":false,"is_disabled":false,"rental_uris":{"android":"levelo://app?vid=08d45edf-d15c-423d-920b-dadbed8a91ce","ios":"levelo://app?vid=08d45edf-d15c-423d-920b-dadbed8a91ce"},"vehicle_type_id":"4","last_reported":1761423042,"current_range_meters":22000,"station_id":"ce4bh512rcd13ifvqe2g","pricing_plan_id":"cebpf4jnsgd1na2vs0mg"},{"bike_id":"36d7fbc3-e4e1-4b61-8e94-e74b2c6446ca","system_id":"levelo_inurba_marseille","lat":43.25513,"lon":5.37648,"is_reserved":false,"is_disabled":true,"rental_uris":{"android":"levelo://app?vid=36d7fbc3-e4e1-4b61-8e94-e74b2c6446ca","ios":"levelo://app?vid=36d7fbc3-e4e1-4b61-8e94-e74b2c6446ca"},"vehicle_type_id":"4","last_reported":1761423042,"current_range_meters":22000,"station_id":"ce4bhh12rcd13ifvqff0","pricing_plan_id":"cebpf4jnsgd1na2vs0mg"},{"bike_id":"26c48375-1e6e-43b2-9750-bd0ef6e16469","system_id":"levelo_inurba_marseille","lat":43.22566,"lon":5.41614,"is_reserved":false,"is_disabled":false,"rental_uris":{"android":"levelo://app?vid=26c48375-1e6e-43b2-9750-bd0ef6e16469","ios":"levelo://app?vid=26c48375-1e6e-43b2-9750-bd0ef6e16469"},"vehicle_type_id":"4","last_reported":1761423042,"current_range_meters":22000,"station_id":"st_d2o4gvlbi1j2169b742g","pricing_plan_id":"cebpf4jnsgd1na2vs0mg"},{"bike_id":"e92a5181-3093-4535-adde-2230374de0aa","system_id":"levelo_inurba_marseille","lat":43.31349,"lon":5.37685,"is_reserved":false,"is_disabled":false,"rental_uris":{"android":"levelo://app?vid=e92a5181-3093-4535-adde-2230374de0aa","ios":"levelo://app?vid=e92a5181-3093-4535-adde-2230374de0aa"},"vehicle_type_id":"4","last_reported":1761423042,"current_range_meters":22000,"station_id":"","pricing_plan_id":"cebpf4jnsgd1na2vs0mg"},{"bike_id":"da945370-32c7-4765-8b8c-dadee680d38e","system_id":"levelo_inurba_marseille","lat":43.34058,"lon":5.40415,"is_reserved":false,"is_disabled":false,"rental_uris":{"android":"levelo://app?vid=da945370-32c7-4765-8b8c-dadee680d38e","ios":"levelo://app?vid=da945370-32c7-4765-8b8c-dadee680d38e"},"vehicle_type_id":"4","last_reported":1761423042,"current_range_meters":22000,"station_id":"","pricing_plan_id":"cebpf4jnsgd1na2vs0mg"},{"bike_id":"12baa51d-671b-4fe3-98f3-4be0dad55dd7","system_id":"levelo_inurba_marseille","lat":43.29549,"lon":5.3854,"is_reserved":false,"is_disabled":false,"rental_uris":{"android":"levelo://app?vid=12baa51d-671b-4fe3-98f3-4be0dad55dd7","ios":"levelo://app?vid=12baa51d-671b-4fe3-98f3-4be0dad55dd7"},"vehicle_type_id":"4","last_reported":1761423042,"current_range_meters":22000,"station_id":"ce4bgih2rcd13ifvqba0","pricing_plan_id":"cebpf4jnsgd1na2vs0mg"},{"bike_id":"b271dec7-e9c0-4031-a78b-d3a50b11d54a","system_id":"levelo_inurba_marseille","lat":43.24521,"lon":5.43748,"is_reserved":false,"is_disabled":false,"rental_uris":{"android":"levelo://app?vid=b271dec7-e9c0-4031-a78b-d3a50b11d54a","ios":"levelo://app?vid=b271dec7-e9c0-4031-a78b-d3a50b11d54a"},"vehicle_type_id":"4","last_reported":1761423042,"current_range_meters":22000,"station_id":"","pricing_plan_id":"cebpf4jnsgd1na2vs0mg"},{"bike_id":"dea76e1b-a01d-415a-8864-695f90f26959","system_id":"levelo_inurba_marseille","lat":43.26366,"lon":5.39644,"is_reserved":false,"is_disabled":false,"rental_uris":{"android":"levelo://app?vid=dea76e1b-a01d-415a-8864-695f90f26959","ios":"levelo://app?vid=dea76e1b-a01d-415a-8864-695f90f26959"},"vehicle_type_id":"4","last_reported":1761423042,"current_range_meters":22000,"station_id":"","pricing_plan_id":"cebpf4jnsgd1na2vs0mg"},{"bike_id":"94aaf935-55ff-4431-b612-265a39fb330c","system_id":"levelo_inurba_marseille","lat":43.29018,"lon":5.38627,"is_reserved":false,"is_disabled":true,"rental_uris":{"android":"levelo://app?vid=94aaf935-55ff-4431-b612-265a39fb330c","ios":"levelo://app?vid=94aaf935-55ff-4431-b612-265a39fb330c"},"vehicle_type_id":"4","last_reported":1761423042,"current_range_meters":22400,"station_id":"ce4bh4p2rcd13ifvqe0g","pricing_plan_id":"cebpf4jnsgd1na2vs0mg"},{"bike_id":"a8c78f65-bf75-47b6-97e7-8e1efb12d83f","system_id":"levelo_inurba_marseille","lat":43.27062,"lon":5.42276,"is_reserved":false,"is_disabled":false,"rental_uris":{"android":"levelo://app?vid=a8c78f65-bf75-47b6-97e7-8e1efb12d83f","ios":"levelo://app?vid=a8c78f65-bf75-47b6-97e7-8e1efb12d83f"},"vehicle_type_id":"4","last_reported":1761423042,"current_range_meters":22400,"station_id":"ce4bhk92rcd13ifvqgb0","pricing_plan_id":"cebpf4jnsgd1na2vs0mg"},{"bike_id":"611000ca-5aa7-40da-a0d2-9b3c8da9f53a","system_id":"levelo_inurba_marseille","lat":43.2511,"lon":5.39524,"is_reserved":false,"is_disabled":false,"rental_uris":{"android":"levelo://app?vid=611000ca-5aa7-40da-a0d2-9b3c8da9f53a","ios":"levelo://app?vid=611000ca-5aa7-40da-a0d2-9b3c8da9f53a"},"vehicle_type_id":"4","last_reported":1761423042,"current_range_meters":22400,"station_id":"ce4bhm12rcd13ifvqgkg","pricing_plan_id":"cebpf4jnsgd1na2vs0mg"},{"bike_id":"a95ca97f-5250-4549-b83a-0385e3f1499c","system_id":"levelo_inurba_marseille","lat":43.30256,"lon":5.40063,"is_reserved":false,"is_disabled":false,"rental_uris":{"android":"levelo://app?vid=a95ca97f-5250-4549-b83a-0385e3f1499c","ios":"levelo://app?vid=a95ca97f-5250-4549-b83a-0385e3f1499c"},"vehicle_type_id":"4","last_reported":1761423042,"current_range_meters":22400,"station_id":"ce4bgvh2rcd13ifvqcs0","pricing_plan_id":"cebpf4jnsgd1na2vs0mg"},{"bike_id":"e84a40f9-fa58-41a6-9ef8-ee987b73e1cd","system_id":"levelo_inurba_marseille","lat":43.29531,"lon":5.38537,"is_reserved":false,"is_disabled":false,"rental_uris":{"android":"levelo://app?vid=e84a40f9-fa58-41a6-9ef8-ee987b73e1cd","ios":"levelo://app?vid=e84a40f9-fa58-41a6-9ef8-ee987b73e1cd"},"vehicle_type_id":"4","last_reported":1761423042,"current_range_meters":22400,"station_id":"ce4bgih2rcd13ifvqba0","pricing_plan_id":"cebpf4jnsgd1na2vs0mg"},{"bike_id":"12cefd40-c26f-402c-b50f-33cfb17b8e9f","system_id":"levelo_inurba_marseille","lat":43.2596,"lon":5.37541,"is_reserved":false,"is_disabled":false,"rental_uris":{"android":"levelo://app?vid=12cefd40-c26f-402c-b50f-33cfb17b8e9f","ios":"levelo://app?vid=12cefd40-c26f-402c-b50f-33cfb17b8e9f"},"vehicle_type_id":"4","last_reported":1761423042,"current_range_meters":22800,"station_id":"","pricing_plan_id":"cebpf4jnsgd1na2vs0mg"},