{"last_updated":1744989031,"ttl":60,"version":"2.2","data":{"bikes":[{"bike_id":"1a54b998-8be8-459b-93ae-bc9caca011c2","system_id":"levelo_inurba_marseille","lat":43.217509,"lon":5.346013,"is_reserved":false,"is_disabled":false,"rental_uris":{"android":"levelo://app?vid=1a54b998-8be8-459b-93ae-bc9caca011c2","ios":"levelo://app?vid=1a54b998-8be8-459b-93ae-bc9caca011c2"},"vehicle_type_id":"4","last_reported":1744989031,"current_range_meters":2000,"station_id":"ce4bhi12rcd13ifvqfp0","pricing_plan_id":"cebpf4jnsgd1na2vs0mg"},{"bike_id":"71fdb180-aa89-4c61-a652-03f1d6cd6f93","system_id":"levelo_inurba_marseille","lat":43.21744,"lon":5.34603,"is_reserved":false,"is_disabled":false,"rental_uris":{"android":"levelo://app?vid=71fdb180-aa89-4c61-a652-03f1d6cd6f93","ios":"levelo://app?vid=71fdb180-aa89-4c61-a652-03f1d6cd6f93"},"vehicle_type_id":"4","last_reported":1744989031,"current_range_meters":2800,"station_id":"st_cvj6r9ubvosntc0bgbag","pricing_plan_id":"cebpf4jnsgd1na2vs0mg"},{"bike_id":"a1a356a7-eaaf-4471-89df-7295aac5486a","system_id":"levelo_inurba_marseille","lat":43.31675,"lon":5.37734,"is_reserved":false,"is_disabled":true,"rental_uris":{"android":"levelo://app?vid=a1a356a7-eaaf-4471-89df-7295aac5486a","ios":"levelo://app?vid=a1a356a7-eaaf-4471-89df-7295aac5486a"},"vehicle_type_id":"4","last_reported":1744989031,"current_range_meters":2800,"station_id":"ce4bgth2rcd13ifvqch0","pricing_plan_id":"cebpf4jnsgd1na2vs0mg"},{"bike_id":"5b7f6d17-41fd-4871-8e93-5f60162d0560","system_id":"levelo_inurba_marseille","lat":43.29006,"lon":5.35605,"is_reserved":false,"is_disabled":true,"rental_uris":{"android":"levelo://app?vid=5b7f6d17-41fd-4871-8e93-5f60162d0560","ios":"levelo://app?vid=5b7f6d17-41fd-4871-8e93-5f60162d0560"},"vehicle_type_id":"4","last_reported":1744989031,"current_range_meters":3200,"station_id":"ce4bhb92rcd13ifvqen0","pricing_plan_id":"cebpf4jnsgd1na2vs0mg"},{"bike_id":"0f0040b2-34e7-47e8-8898-d71c827e5dfe","system_id":"levelo_inurba_marseille","lat":43.294776,"lon":5.38366,"is_reserved":false,"is_disabled":false,"rental_uris":{"android":"levelo://app?vid=0f0040b2-34e7-47e8-8898-d71c827e5dfe","ios":"levelo://app?vid=0f0040b2-34e7-47e8-8898-d71c827e5dfe"},"vehicle_type_id":"4","last_reported":1744989031,"current_range_meters":3200,"station_id":"","pricing_plan_id":"cebpf4jnsgd1na2vs0mg"},{"bike_id":"3c2888bc-7cf7-46fd-b7fd-9194629fdd78","system_id":"levelo_inurba_marseille","lat":43.27997,"lon":5.41661,"is_reserved":false,"is_disabled":false,"rental_uris":{"android":"levelo://app?vid=3c2888bc-7cf7-46fd-b7fd-9194629fdd78","ios":"levelo://app?vid=3c2888bc-7cf7-46fd-b7fd-9194629fdd78"},"vehicle_type_id":"4","last_reported":1744989031,"current_range_meters":3200,"station_id":"ce4bho12rcd13ifvqh1g","pricing_plan_id":"cebpf4jnsgd1na2vs0mg"},{"bike_id":"3849469d-7b64-4391-86c6-700a097c3069","system_id":"levelo_inurba_marseille","lat":43.2804,"lon":5.36943,"is_reserved":false,"is_disabled":false,"rental_uris":{"android":"levelo://app?vid=3849469d-7b64-4391-86c6-700a097c3069","ios":"levelo://app?vid=3849469d-7b64-4391-86c6-700a097c3069"},"vehicle_type_id":"4","last_reported":1744989031,"current_range_meters":3200,"station_id":"ce4bha12rcd13ifvqef0","pricing_plan_id":"cebpf4jnsgd1na2vs0mg"},{"bike_id":"593f200f-acc6-4515-9b2c-377663e6c433","system_id":"levelo_inurba_marseille","lat":43.217432,"lon":5.346062,"is_reserved":false,"is_disabled":true,"rental_uris":{"android":"levelo://app?vid=593f200f-acc6-4515-9b2c-377663e6c433","ios":"levelo://app?vid=593f200f-acc6-4515-9b2c-377663e6c433"},"vehicle_type_id":"4","last_reported":1744989031,"current_range_meters":3200,"station_id":"st_cvj6r9ubvosntc0bgbag","pricing_plan_id":"cebpf4jnsgd1na2vs0mg"},{"bike_id":"8c26a1a1-d398-4e64-a8cd-9f7ad8dcb223","system_id":"levelo_inurba_marseille","lat":43.27053,"lon":5.40261,"is_reserved":false,"is_disabled":false,"rental_uris":{"android":"levelo://app?vid=8c26a1a1-d398-4e64-a8cd-9f7ad8dcb223","ios":"levelo://app?vid=8c26a1a1-d398-4e64-a8cd-9f7ad8dcb223"},"vehicle_type_id":"4","last_reported":1744989031,"current_range_meters":3600,"station_id":"ce4bhk92rcd13ifvqgc0","pricing_plan_id":"cebpf4jnsgd1na2vs0mg"},{"bike_id":"fcf74b45-7c8a-43f2-94b1-c8b37c591bb6","system_id":"levelo_inurba_marseille","lat":43.28836,"lon":5.38435,"is_reserved":false,"is_disabled":false,"rental_uris":{"android":"levelo://app?vid=fcf74b45-7c8a-43f2-94b1-c8b37c591bb6","ios":"levelo://app?vid=fcf74b45-7c8a-43f2-94b1-c8b37c591bb6"},"vehicle_type_id":"4","last_reported":1744989031,"current_range_meters":3600,"station_id":"","pricing_plan_id":"cebpf4jnsgd1na2vs0mg"},{"bike_id":"d19716b4-91ed-4766-b200-53a5b50f0196","system_id":"levelo_inurba_marseille","lat":43.30892,"lon":5.39637,"is_reserved":false,"is_disabled":false,"rental_uris":{"android":"levelo://app?vid=d19716b4-91ed-4766-b200-53a5b50f0196","ios":"levelo://app?vid=d19716b4-91ed-4766-b200-53a5b50f0196"},"vehicle_type_id":"4","last_reported":1744989031,"current_range_meters":4000,"station_id":"ce4bh012rcd13ifvqcv0","pricing_plan_id":"cebpf4jnsgd1na2vs0mg"},{"bike_id":"ba7ac72f-1918-44a2-936f-add4fd30681c","system_id":"levelo_inurba_marseille","lat":43.25495,"lon":5.37646,"is_reserved":false,"is_disabled":false,"rental_uris":{"android":"levelo://app?vid=ba7ac72f-1918-44a2-936f-add4fd30681c","ios":"levelo://app?vid=ba7ac72f-1918-44a2-936f-add4fd30681c"},"vehicle_type_id":"4","last_reported":1744989031,"current_range_meters":4000,"station_id":"ce4bhh12rcd13ifvqff0","pricing_plan_id":"cebpf4jnsgd1na2vs0mg"},{"bike_id":"c2a87533-e205-4049-b6c0-8f3e626282bb","system_id":"levelo_inurba_marseille","lat":43.25491,"lon":5.37639,"is_reserved":false,"is_disabled":false,"rental_uris":{"android":"levelo://app?vid=c2a87533-e205-4049-b6c0-8f3e626282bb","ios":"levelo://app?vid=c2a87533-e205-4049-b6c0-8f3e626282bb"},"vehicle_type_id":"4","last_reported":1744989031,"current_range_meters":4000,"station_id":"ce4bhh12rcd13ifvqff0","pricing_plan_id":"cebpf4jnsgd1na2vs0mg"},{"bike_id":"206e6eed-90ee-4177-ab5a-4bcb1810ce02","system_id":"levelo_inurba_marseille","lat":43.323561,"lon":5.367712,"is_reserved":false,"is_disabled":false,"rental_uris":{"android":"levelo://app?vid=206e6eed-90ee-4177-ab5a-4bcb1810ce02","ios":"levelo://app?vid=206e6eed-90ee-4177-ab5a-4bcb1810ce02"},"vehicle_type_id":"4","last_reported":1744989031,"current_range_meters":4000,"station_id":"ce4bhsh2rcd13ifvqi2g","pricing_plan_id":"cebpf4jnsgd1na2vs0mg"},{"bike_id":"50dc23ed-5e19-46ee-92cf-f2ca4c445852","system_id":"levelo_inurba_marseille","lat":43.337272,"lon":5.391816,"is_reserved":false,"is_disabled":false,"rental_uris":{"android":"levelo://app?vid=50dc23ed-5e19-46ee-92cf-f2ca4c445852","ios":"levelo://app?vid=50dc23ed-5e19-46ee-92cf-f2ca4c445852"},"vehicle_type_id":"4","last_reported":1744989031,"current_range_meters":4000,"station_id":"ce4bhr92rcd13ifvqhsg","pricing_plan_id":"cebpf4jnsgd1na2vs0mg"},{"bike_id":"a7afb4a2-f90c-4384-b169-84891b055f20","system_id":"levelo_inurba_marseille","lat":43.254968,"lon":5.376477,"is_reserved":false,"is_disabled":false,"rental_uris":{"android":"levelo://app?vid=a7afb4a2-f90c-4384-b169-84891b055f20","ios":"levelo://app?vid=a7afb4a2-f90c-4384-b169-84891b055f20"},"vehicle_type_id":"4","last_reported":1744989031,"current_range_meters":4400,"station_id":"ce4bhh12rcd13ifvqff0","pricing_plan_id":"cebpf4jnsgd1na2vs0mg"},{"bike_id":"d9273e0f-a5d2-4892-972e-7ce35e555b07","system_id":"levelo_inurba_marseille","lat":43.28849,"lon":5.3932,"is_reserved":false,"is_disabled":false,"rental_uris":{"android":"levelo://app?vid=d9273e0f-a5d2-4892-972e-7ce35e555b07","ios":"levelo://app?vid=d9273e0f-a5d2-4892-972e-7ce35e555b07"},"vehicle_type_id":"4","last_reported":1744989031,"current_range_meters":4400,"station_id":"ce4bh2p2rcd13ifvqdi0","pricing_plan_id":"cebpf4jnsgd1na2vs0mg"},{"bike_id":"822cb734-614e-452b-82b3-e2bd9e0dd401","system_id":"levelo_inurba_marseille","lat":43.30384,"lon":5.4249,"is_reserved":false,"is_disabled":false,"rental_uris":{"android":"levelo://app?vid=822cb734-614e-452b-82b3-e2bd9e0dd401","ios":"levelo://app?vid=822cb734-614e-452b-82b3-e2bd9e0dd401"},"vehicle_type_id":"4","last_reported":1744989031,"current_range_meters":4400,"station_id":"ce4bhoh2rcd13ifvqh6g","pricing_plan_id":"cebpf4jnsgd1na2vs0mg"},{"bike_id":"3b20503f-4033-4897-bb2f-f07ee25a398d","system_id":"levelo_inurba_marseille","lat":43.26211,"lon":5.37441,"is_reserved":false,"is_disabled":false,"rental_uris":{"android":"levelo://app?vid=3b20503f-4033-4897-bb2f-f07ee25a398d","ios":"levelo://app?vid=3b20503f-4033-4897-bb2f-f07ee25a398d"},"vehicle_type_id":"4","last_reported":1744989031,"current_range_meters":4400,"station_id":"ce4bhgp2rcd13ifvqfc0","pricing_plan_id":"cebpf4jnsgd1na2vs0mg"},{"bike_id":"af1bcef0-af3f-435e-845c-2b9016ce6c3f","system_id":"levelo_inurba_marseille","lat":43.29379,"lon":5.37861,"is_reserved":false,"is_disabled":false,"rental_uris":{"android":"levelo://app?vid=af1bcef0-af3f-435e-845c-2b9016ce6c3f","ios":"levelo://app?vid=af1bcef0-af3f-435e-845c-2b9016ce6c3f"},"vehicle_type_id":"4","last_reported":1744989031,"current_range_meters":4800,"station_id":"ce4bgjh2rcd13ifvqbf0","pricing_plan_id":"cebpf4jnsgd1na2vs0mg"},{"bike_id":"ef176ac3-54b5-4598-9f0c-2a7881b4fb88","system_id":"levelo_inurba_marseille","lat":43.30884,"lon":5.396141,"is_reserved":false,"is_disabled":false,"rental_uris":{"android":"levelo://app?vid=ef176ac3-54b5-4598-9f0c-2a7881b4fb88","ios":"levelo://app?vid=ef176ac3-54b5-4598-9f0c-2a7881b4fb88"},"vehicle_type_id":"4","last_reported":1744989031,"current_range_meters":4400,"station_id":"ce4bha12rcd13ifvqee0","pricing_plan_id":"cebpf4jnsgd1na2vs0mg"},{"bike_id":"7b6fd8ac-1086-40c6-bd01-9c13865549f5","system_id":"levelo_inurba_marseille","lat":43.292608,"lon":5.376214,"is_reserved":false,"is_disabled":false,"rental_uris":{"android":"levelo://app?vid=7b6fd8ac-1086-40c6-bd01-9c13865549f5","ios":"levelo://app?vid=7b6fd8ac-1086-40c6-bd01-9c13865549f5"},"vehicle_type_id":"4","last_reported":1744989031,"current_range_meters":5600,"station_id":"ce4bhb92rcd13ifvqen0","pricing_plan_id":"cebpf4jnsgd1na2vs0mg"},{"bike_id":"2df22311-bac1-4b8f-abff-11893969de63","system_id":"levelo_inurba_marseille","lat":43.31082,"lon":5.37834,"is_reserved":false,"is_disabled":false,"rental_uris":{"android":"levelo://app?vid=2df22311-bac1-4b8f-abff-11893969de63","ios":"levelo://app?vid=2df22311-bac1-4b8f-abff-11893969de63"},"vehicle_type_id":"4","last_reported":1744989031,"current_range_meters":5600,"station_id":"","pricing_plan_id":"cebpf4jnsgd1na2vs0mg"},{"bike_id":"46d9e359-47ea-41c6-adcf-d807b766ba69","system_id":"levelo_inurba_marseille","lat":43.2411,"lon":5.37762,"is_reserved":false,"is_disabled":false,"rental_uris":{"android":"levelo://app?vid=46d9e359-47ea-41c6-adcf-d807b766ba69","ios":"levelo://app?vid=46d9e359-47ea-41c6-adcf-d807b766ba69"},"vehicle_type_id":"4","last_reported":1744989031,"current_range_meters":5600,"station_id":"ce4bhnp2rcd13ifvqgvg","pricing_plan_id":"cebpf4jnsgd1na2vs0mg"},{"bike_id":"14f132a0-863d-44cd-b735-d5af36cd9fb0","system_id":"levelo_inurba_marseille","lat":43.23966,"lon":5.36632,"is_reserved":false,"is_disabled":false,"rental_uris":{"android":"levelo://app?vid=14f132a0-863d-44cd-b735-d5af36cd9fb0","ios":"levelo://app?vid=14f132a0-863d-44cd-b735-d5af36cd9fb0"},"vehicle_type_id":"4","last_reported":1744989031,"current_range_meters":5600,"station_id":"ce4bhi12rcd13ifvqfp0","pricing_plan_id":"cebpf4jnsgd1na2vs0mg"},{"bike_id":"9d6858cb-4b60-4fea-bf38-5cbf23a6e184","system_id":"levelo_inurba_marseille","lat":43.28445,"lon":5.39204,"is_reserved":false,"is_disabled":false,"rental_uris":{"android":"levelo://app?vid=9d6858cb-4b60-4fea-bf38-5cbf23a6e184","ios":"levelo://app?vid=9d6858cb-4b60-4fea-bf38-5cbf23a6e184"},"vehicle_type_id":"4","last_reported":1744989031,"current_range_meters":5600,"station_id":"ce4bhoh2rcd13ifvqh5g","pricing_plan_id":"cebpf4jnsgd1na2vs0mg"},{"bike_id":"d63eb847-3810-4a2e-aa46-9be62b06b6a5","system_id":"levelo_inurba_marseille","lat":43.29304,"lon":5.3745,"is_reserved":false,"is_disabled":true,"rental_uris":{"android":"levelo://app?vid=d63eb847-3810-4a2e-aa46-9be62b06b6a5","ios":"levelo://app?vid=d63eb847-3810-4a2e-aa46-9be62b06b6a5"},"vehicle_type_id":"4","last_reported":1744989031,"current_range_meters":5600,"station_id":"ce4bgi12rcd13ifvqb70","pricing_plan_id":"cebpf4jnsgd1na2vs0mg"},{"bike_id":"2a297b53-e6c9-4a44-8832-a1535085da75","system_id":"levelo_inurba_marseille","lat":43.31986,"lon":5.38128,"is_reserved":false,"is_disabled":true,"rental_uris":{"android":"levelo://app?vid=2a297b53-e6c9-4a44-8832-a1535085da75","ios":"levelo://app?vid=2a297b53-e6c9-4a44-8832-a1535085da75"},"vehicle_type_id":"4","last_reported":1744989031,"current_range_meters":6000,"station_id":"ce4bhr12rcd13ifvqhpg","pricing_plan_id":"cebpf4jnsgd1na2vs0mg"},{"bike_id":"44d988eb-230b-45a7-acdf-b44382e6285b","system_id":"levelo_inurba_marseille","lat":43.28866,"lon":5.35859,"is_reserved":false,"is_disabled":false,"rental_uris":{"android":"levelo://app?vid=44d988eb-230b-45a7-acdf-b44382e6285b","ios":"levelo://app?vid=44d988eb-230b-45a7-acdf-b44382e6285b"},"vehicle_type_id":"4","last_reported":1744989031,"current_range_meters":6000,"station_id":"ce4bhb12rcd13ifvqem0","pricing_plan_id":"cebpf4jnsgd1na2vs0mg"},{"bike_id":"683727aa-af5c-4a30-b620-923da0da034b","system_id":"levelo_inurba_marseille","lat":43.26839,"lon":5.40459,"is_reserved":false,"is_disabled":false,"rental_uris":{"android":"levelo://app?vid=683727aa-af5c-4a30-b620-923da0da034b","ios":"levelo://app?vid=683727aa-af5c-4a30-b620-923da0da034b"},"vehicle_type_id":"4","last_reported":1744989031,"current_range_meters":6000,"station_id":"cjm6bp8fraef2m0cb0m0","pricing_plan_id":"cebpf4jnsgd1na2vs0mg"},{"bike_id":"9723ff35-c595-468d-9eee-a65ff8e9f14e","system_id":"levelo_inurba_marseille","lat":43.248,"lon":5.37458,"is_reserved":false,"is_disabled":false,"rental_uris":{"android":"levelo://app?vid=9723ff35-c595-468d-9eee-a65ff8e9f14e","ios":"levelo://app?vid=9723ff35-c595-468d-9eee-a65ff8e9f14e"},"vehicle_type_id":"4","last_reported":1744989031,"current_range_meters":6400,"station_id":"ce4bhgh2rcd13ifvqfb0","pricing_plan_id":"cebpf4jnsgd1na2vs0mg"},{"bike_id":"d37e47d7-2c02-47cd-b57e-fe134479a7f6","system_id":"levelo_inurba_marseille","lat":43.29897,"lon":5.43672,"is_reserved":false,"is_disabled":false,"rental_uris":{"android":"levelo://app?vid=d37e47d7-2c02-47cd-b57e-fe134479a7f6","ios":"levelo://app?vid=d37e47d7-2c02-47cd-b57e-fe134479a7f6"},"vehicle_type_id":"4","last_reported":1744989031,"current_range_meters":6400,"station_id":"ce4bhpp2rcd13ifvqhfg","pricing_plan_id":"cebpf4jnsgd1na2vs0mg"},{"bike_id":"7667bb97-6c1d-4f64-a97c-c483529185d3","system_id":"levelo_inurba_marseille","lat":43.27992,"lon":5.41659,"is_reserved":false,"is_disabled":false,"rental_uris":{"android":"levelo://app?vid=7667bb97-6c1d-4f64-a97c-c483529185d3","ios":"levelo://app?vid=7667bb97-6c1d-4f64-a97c-c483529185d3"},"vehicle_type_id":"4","last_reported":1744989031,"current_range_meters":6400,"station_id":"ce4bho12rcd13ifvqh1g","pricing_plan_id":"cebpf4jnsgd1na2vs0mg"},{"bike_id":"22d88f4d-7382-4a6c-b010-d2e03de1b87a","system_id":"levelo_inurba_marseille","lat":43.301333,"lon":5.388088,"is_reserved":false,"is_disabled":false,"rental_uris":{"android":"levelo://app?vid=22d88f4d-7382-4a6c-b010-d2e03de1b87a","ios":"levelo://app?vid=22d88f4d-7382-4a6c-b010-d2e03de1b87a"},"vehicle_type_id":"4","last_reported":1744989031,"current_range_meters":6800,"station_id":"ce4bh112rcd13ifvqda0","pricing_plan_id":"cebpf4jnsgd1na2vs0mg"},{"bike_id":"46e31ba3-959b-474a-ae7a-137da1c70b69","system_id":"levelo_inurba_marseille","lat":43.28423,"lon":5.34991,"is_reserved":false,"is_disabled":false,"rental_uris":{"android":"levelo://app?vid=46e31ba3-959b-474a-ae7a-137da1c70b69","ios":"levelo://app?vid=46e31ba3-959b-474a-ae7a-137da1c70b69"},"vehicle_type_id":"4","last_reported":1744989031,"current_range_meters":6800,"station_id":"ce4bhbh2rcd13ifvqepg","pricing_plan_id":"cebpf4jnsgd1na2vs0mg"},{"bike_id":"2b8b0071-1ac9-4824-88e6-5705b7826618","system_id":"levelo_inurba_marseille","lat":43.23153,"lon":5.43711,"is_reserved":false,"is_disabled":false,"rental_uris":{"android":"levelo://app?vid=2b8b0071-1ac9-4824-88e6-5705b7826618","ios":"levelo://app?vid=2b8b0071-1ac9-4824-88e6-5705b7826618"},"vehicle_type_id":"4","last_reported":1744989031,"current_range_meters":6800,"station_id":"ce4bhmp2rcd13ifvqgog","pricing_plan_id":"cebpf4jnsgd1na2vs0mg"},{"bike_id":"b710fbb1-b765-492e-8cff-58a86822a607","system_id":"levelo_inurba_marseille","lat":43.23187,"lon":5.355635,"is_reserved":false,"is_disabled":true,"rental_uris":{"android":"levelo://app?vid=b710fbb1-b765-492e-8cff-58a86822a607","ios":"levelo://app?vid=b710fbb1-b765-492e-8cff-58a86822a607"},"vehicle_type_id":"4","last_reported":1744989031,"current_range_meters":6800,"station_id":"ce4bhu92rcd13ifvqi70","pricing_plan_id":"cebpf4jnsgd1na2vs0mg"},{"bike_id":"d7af332c-dc05-4fca-8aad-ebb2b399cbd7","system_id":"levelo_inurba_marseille","lat":43.28422,"lon":5.34977,"is_reserved":false,"is_disabled":false,"rental_uris":{"android":"levelo://app?vid=d7af332c-dc05-4fca-8aad-ebb2b399cbd7","ios":"levelo://app?vid=d7af332c-dc05-4fca-8aad-ebb2b399cbd7"},"vehicle_type_id":"4","last_reported":1744989031,"current_range_meters":6800,"station_id":"ce4bhbh2rcd13ifvqepg","pricing_plan_id":"cebpf4jnsgd1na2vs0mg"},{"bike_id":"d1c39ba4-dd65-48b7-8d9f-f7fb55bc7bd3","system_id":"levelo_inurba_marseille","lat":43.30876,"lon":5.39632,"is_reserved":false,"is_disabled":false,"rental_uris":{"android":"levelo://app?vid=d1c39ba4-dd65-48b7-8d9f-f7fb55bc7bd3","ios":"levelo://app?vid=d1c39ba4-dd65-48b7-8d9f-f7fb55bc7bd3"},"vehicle_type_id":"4","last_reported":1744989031,"current_range_meters":6800,"station_id":"ce4bh012rcd13ifvqcv0","pricing_plan_id":"cebpf4jnsgd1na2vs0mg"},{"bike_id":"6c27f8df-2625-4011-a326-1bdad0ce86ac","system_id":"levelo_inurba_marseille","lat":43.310829,"lon":5.424325,"is_reserved":false,"is_disabled":false,"rental_uris":{"android":"levelo://app?vid=6c27f8df-2625-4011-a326-1bdad0ce86ac","ios":"levelo://app?vid=6c27f8df-2625-4011-a326-1bdad0ce86ac"},"vehicle_type_id":"4","last_reported":1744989031,"current_range_meters":7200,"station_id":"ce4bhp92rcd13ifvqhag","pricing_plan_id":"cebpf4jnsgd1na2vs0mg"},{"bike_id":"33427f47-0b0f-44f8-8aa0-76382d619e12","system_id":"levelo_inurba_marseille","lat":43.25495,"lon":5.37647,"is_reserved":false,"is_disabled":false,"rental_uris":{"android":"levelo://app?vid=33427f47-0b0f-44f8-8aa0-76382d619e12","ios":"levelo://app?vid=33427f47-0b0f-44f8-8aa0-76382d619e12"},"vehicle_type_id":"4","last_reported":1744989031,"current_range_meters":7200,"station_id":"ce4bhh12rcd13ifvqff0","pricing_plan_id":"cebpf4jnsgd1na2vs0mg"},{"bike_id":"fdd0b819-e818-4f19-a2cb-dc9f73e8591f","system_id":"levelo_inurba_marseille","lat":43.28621,"lon":5.35106,"is_reserved":false,"is_disabled":false,"rental_uris":{"android":"levelo://app?vid=fdd0b819-e818-4f19-a2cb-dc9f73e8591f","ios":"levelo://app?vid=fdd0b819-e818-4f19-a2cb-dc9f73e8591f"},"vehicle_type_id":"4","last_reported":1744989031,"current_range_meters":7200,"station_id":"ce4bhch2rcd13ifvqeug","pricing_plan_id":"cebpf4jnsgd1na2vs0mg"},{"bike_id":"49816f23-4483-4362-895d-1c072a609534","system_id":"levelo_inurba_marseille","lat":43.2792,"lon":5.39578,"is_reserved":false,"is_disabled":false,"rental_uris":{"android":"levelo://app?vid=49816f23-4483-4362-895d-1c072a609534","ios":"levelo://app?vid=49816f23-4483-4362-895d-1c072a609534"},"vehicle_type_id":"4","last_reported":1744989031,"current_range_meters":7200,"station_id":"ce4bhf92rcd13ifvqf40","pricing_plan_id":"cebpf4jnsgd1na2vs0mg"},{"bike_id":"5583a1cb-ef8e-4930-b38d-8d47fac1b289","system_id":"levelo_inurba_marseille","lat":43.27822,"lon":5.40751,"is_reserved":false,"is_disabled":true,"rental_uris":{"android":"levelo://app?vid=5583a1cb-ef8e-4930-b38d-8d47fac1b289","ios":"levelo://app?vid=5583a1cb-ef8e-4930-b38d-8d47fac1b289"},"vehicle_type_id":"4","last_reported":1744989031,"current_range_meters":7200,"station_id":"ce4bhnh2rcd13ifvqgtg","pricing_plan_id":"cebpf4jnsgd1na2vs0mg"},{"bike_id":"5916c32c-64ac-4b7a-9497-ec28d11f36b9","system_id":"levelo_inurba_marseille","lat":43.27376,"lon":5.36254,"is_reserved":false,"is_disabled":false,"rental_uris":{"android":"levelo://app?vid=5916c32c-64ac-4b7a-9497-ec28d11f36b9","ios":"levelo://app?vid=5916c32c-64ac-4b7a-9497-ec28d11f36b9"},"vehicle_type_id":"4","last_reported":1744989031,"current_range_meters":7200,"station_id":"ce4bhbh2rcd13ifvqeo0","pricing_plan_id":"cebpf4jnsgd1na2vs0mg"},{"bike_id":"9beecbd5-192e-436b-972f-422a9542399c","system_id":"levelo_inurba_marseille","lat":43.28669,"lon":5.3636,"is_reserved":false,"is_disabled":false,"rental_uris":{"android":"levelo://app?vid=9beecbd5-192e-436b-972f-422a9542399c","ios":"levelo://app?vid=9beecbd5-192e-436b-972f-422a9542399c"},"vehicle_type_id":"4","last_reported":1744989031,"current_range_meters":8000,"station_id":"ce4bhah2rcd13ifvqej0","pricing_plan_id":"cebpf4jnsgd1na2vs0mg"},{"bike_id":"919517dd-d3bf-46ab-b056-0a5f39e2ab03","system_id":"levelo_inurba_marseille","lat":43.2418,"lon":5.39732,"is_reserved":false,"is_disabled":false,"rental_uris":{"android":"levelo://app?vid=919517dd-d3bf-46ab-b056-0a5f39e2ab03","ios":"levelo://app?vid=919517dd-d3bf-46ab-b056-0a5f39e2ab03"},"vehicle_type_id":"4","last_reported":1744989031,"current_range_meters":8000,"station_id":"ce4bhn12rcd13ifvqgpg","pricing_plan_id":"cebpf4jnsgd1na2vs0mg"},{"bike_id":"543765fe-3067-4e1f-8d52-4b498dd352f6","system_id":"levelo_inurba_marseille","lat":43.28661,"lon":5.36351,"is_reserved":false,"is_disabled":false,"rental_uris":{"android":"levelo://app?vid=543765fe-3067-4e1f-8d52-4b498dd352f6","ios":"levelo://app?vid=543765fe-3067-4e1f-8d52-4b498dd352f6"},"vehicle_type_id":"4","last_reported":1744989031,"current_range_meters":8000,"station_id":"ce4bhah2rcd13ifvqej0","pricing_plan_id":"cebpf4jnsgd1na2vs0mg"},{"bike_id":"94903b39-b6eb-4b4b-ad7c-5c0e33099e31","system_id":"levelo_inurba_marseille","lat":43.28705,"lon":5.37385,"is_reserved":false,"is_disabled":false,"rental_uris":{"android":"levelo://app?vid=94903b39-b6eb-4b4b-ad7c-5c0e33099e31","ios":"levelo://app?vid=94903b39-b6eb-4b4b-ad7c-5c0e33099e31"},"vehicle_type_id":"4","last_reported":1744989031,"current_range_meters":8000,"station_id":"ce4bh3p2rcd13ifvqdq0","pricing_plan_id":"cebpf4jnsgd1na2vs0mg"},{"bike_id":"67de1007-b158-4a36-87a3-50698fecf127","system_id":"levelo_inurba_marseille","lat":43.28275,"lon":5.35075,"is_reserved":false,"is_disabled":false,"rental_uris":{"android":"levelo://app?vid=67de1007-b158-4a36-87a3-50698fecf127","ios":"levelo://app?vid=67de1007-b158-4a36-87a3-50698fecf127"},"vehicle_type_id":"4","last_reported":1744989031,"current_range_meters":8000,"station_id":"ce4bhbp2rcd13ifvqerg","pricing_plan_id":"cebpf4jnsgd1na2vs0mg"},{"bike_id":"c04edf20-204d-47bd-9535-c95a09b2317b","system_id":"levelo_inurba_marseille","lat":43.27947,"lon":5.41049,"is_reserved":false,"is_disabled":false,"rental_uris":{"android":"levelo://app?vid=c04edf20-204d-47bd-9535-c95a09b2317b","ios":"levelo://app?vid=c04edf20-204d-47bd-9535-c95a09b2317b"},"vehicle_type_id":"4","last_reported":1744989031,"current_range_meters":8400,"station_id":"ce4bhnp2rcd13ifvqh0g","pricing_plan_id":"cebpf4jnsgd1na2vs0mg"},{"bike_id":"c6cfc8b2-108a-425a-b744-573be0897f43","system_id":"levelo_inurba_marseille","lat":43.2885,"lon":5.35849,"is_reserved":false,"is_disabled":false,"rental_uris":{"android":"levelo://app?vid=c6cfc8b2-108a-425a-b744-573be0897f43","ios":"levelo://app?vid=c6cfc8b2-108a-425a-b744-573be0897f43"},"vehicle_type_id":"4","last_reported":1744989031,"current_range_meters":8400,"station_id":"ce4bhb12rcd13ifvqem0","pricing_plan_id":"cebpf4jnsgd1na2vs0mg"},{"bike_id":"dabe34b7-57ea-4d19-ba10-c780094f1e58","system_id":"levelo_inurba_marseille","lat":43.292657,"lon":5.384384,"is_reserved":false,"is_disabled":false,"rental_uris":{"android":"levelo://app?vid=dabe34b7-57ea-4d19-ba10-c780094f1e58","ios":"levelo://app?vid=dabe34b7-57ea-4d19-ba10-c780094f1e58"},"vehicle_type_id":"4","last_reported":1744989031,"current_range_meters":8800,"station_id":"ce4bgk12rcd13ifvqbj0","pricing_plan_id":"cebpf4jnsgd1na2vs0mg"},{"bike_id":"df35b274-2693-4b55-8d81-c98473ebb3ed","system_id":"levelo_inurba_marseille","lat":43.30884,"lon":5.39654,"is_reserved":false,"is_disabled":false,"rental_uris":{"android":"levelo://app?vid=df35b274-2693-4b55-8d81-c98473ebb3ed","ios":"levelo://app?vid=df35b274-2693-4b55-8d81-c98473ebb3ed"},"vehicle_type_id":"4","last_reported":1744989031,"current_range_meters":8800,"station_id":"ce4bh012rcd13ifvqcv0","pricing_plan_id":"cebpf4jnsgd1na2vs0mg"},{"bike_id":"a836461e-46f5-444f-889b-59666986b6a7","system_id":"levelo_inurba_marseille","lat":43.32369,"lon":5.3677,"is_reserved":false,"is_disabled":false,"rental_uris":{"android":"levelo://app?vid=a836461e-46f5-444f-889b-59666986b6a7","ios":"levelo://app?vid=a836461e-46f5-444f-889b-59666986b6a7"},"vehicle_type_id":"4","last_reported":1744989031,"current_range_meters":8800,"station_id":"ce4bhsh2rcd13ifvqi2g","pricing_plan_id":"cebpf4jnsgd1na2vs0mg"},{"bike_id":"ec8c9ac7-1e95-4171-97f3-226ce1e3c951","system_id":"levelo_inurba_marseille","lat":43.32125,"lon":5.36786,"is_reserved":false,"is_disabled":false,"rental_uris":{"android":"levelo://app?vid=ec8c9ac7-1e95-4171-97f3-226ce1e3c951","ios":"levelo://app?vid=ec8c9ac7-1e95-4171-97f3-226ce1e3c951"},"vehicle_type_id":"4","last_reported":1744989031,"current_range_meters":9200,"station_id":"ce4bhrh2rcd13ifvqhug","pricing_plan_id":"cebpf4jnsgd1na2vs0mg"},{"bike_id":"7d432d76-1905-44a5-9cd3-2affa2594d28","system_id":"levelo_inurba_marseille","lat":43.26957,"lon":5.38641,"is_reserved":false,"is_disabled":false,"rental_uris":{"android":"levelo://app?vid=7d432d76-1905-44a5-9cd3-2affa2594d28","ios":"levelo://app?vid=7d432d76-1905-44a5-9cd3-2affa2594d28"},"vehicle_type_id":"4","last_reported":1744989031,"current_range_meters":9200,"station_id":"ce4bhh92rcd13ifvqfh0","pricing_plan_id":"cebpf4jnsgd1na2vs0mg"},{"bike_id":"3f60182c-c5c8-40ca-9437-efb52505c052","system_id":"levelo_inurba_marseille","lat":43.26803,"lon":5.40254,"is_reserved":false,"is_disabled":false,"rental_uris":{"android":"levelo://app?vid=3f60182c-c5c8-40ca-9437-efb52505c052","ios":"levelo://app?vid=3f60182c-c5c8-40ca-9437-efb52505c052"},"vehicle_type_id":"4","last_reported":1744989031,"current_range_meters":9200,"station_id":"ce501612rcd8frsf0b60","pricing_plan_id":"cebpf4jnsgd1na2vs0mg"},{"bike_id":"22209dda-afa5-4a31-9c25-a5d94a331926","system_id":"levelo_inurba_marseille","lat":43.24081,"lon":5.37724,"is_reserved":false,"is_disabled":true,"rental_uris":{"android":"levelo://app?vid=22209dda-afa5-4a31-9c25-a5d94a331926","ios":"levelo://app?vid=22209dda-afa5-4a31-9c25-a5d94a331926"},"vehicle_type_id":"4","last_reported":1744989031,"current_range_meters":9200,"station_id":"ce4bhnp2rcd13ifvqgvg","pricing_plan_id":"cebpf4jnsgd1na2vs0mg"},{"bike_id":"d471936c-565d-498f-bd17-fdae0f73054e","system_id":"levelo_inurba_marseille","lat":43.2306,"lon":5.35488,"is_reserved":false,"is_disabled":false,"rental_uris":{"android":"levelo://app?vid=d471936c-565d-498f-bd17-fdae0f73054e","ios":"levelo://app?vid=d471936c-565d-498f-bd17-fdae0f73054e"},"vehicle_type_id":"4","last_reported":1744989031,"current_range_meters":9200,"station_id":"cpo3342slgdg3j2ifvpg","pricing_plan_id":"cebpf4jnsgd1na2vs0mg"},{"bike_id":"70b6b133-6705-4dfd-b4a7-6e88067904e8","system_id":"levelo_inurba_marseille","lat":43.24171,"lon":5.36413,"is_reserved":false,"is_disabled":false,"rental_uris":{"android":"levelo://app?vid=70b6b133-6705-4dfd-b4a7-6e88067904e8","ios":"levelo://app?vid=70b6b133-6705-4dfd-b4a7-6e88067904e8"},"vehicle_type_id":"4","last_reported":1744989031,"current_range_meters":9200,"station_id":"cpo36qri1sfpv3e86is0","pricing_plan_id":"cebpf4jnsgd1na2vs0mg"},{"bike_id":"8016002c-e266-47cd-a2f1-f735d1255c62","system_id":"levelo_inurba_marseille","lat":43.28662,"lon":5.36348,"is_reserved":false,"is_disabled":false,"rental_uris":{"android":"levelo://app?vid=8016002c-e266-47cd-a2f1-f735d1255c62","ios":"levelo://app?vid=8016002c-e266-47cd-a2f1-f735d1255c62"},"vehicle_type_id":"4","last_reported":1744989031,"current_range_meters":9200,"station_id":"ce4bhah2rcd13ifvqej0","pricing_plan_id":"cebpf4jnsgd1na2vs0mg"},{"bike_id":"fc68d93f-fd2e-4c8f-b58e-35fcbd7f515d","system_id":"levelo_inurba_marseille","lat":43.24394,"lon":5.37065,"is_reserved":false,"is_disabled":false,"rental_uris":{"android":"levelo://app?vid=fc68d93f-fd2e-4c8f-b58e-35fcbd7f515d","ios":"levelo://app?vid=fc68d93f-fd2e-4c8f-b58e-35fcbd7f515d"},"vehicle_type_id":"4","last_reported":1744989031,"current_range_meters":9200,"station_id":"ce4bhhh2rcd13ifvqfk0","pricing_plan_id":"cebpf4jnsgd1na2vs0mg"},{"bike_id":"1d5a29a1-b998-42fa-918a-d98d41fd02bd","system_id":"levelo_inurba_marseille","lat":43.29003,"lon":5.35627,"is_reserved":false,"is_disabled":false,"rental_uris":{"android":"levelo://app?vid=1d5a29a1-b998-42fa-918a-d98d41fd02bd","ios":"levelo://app?vid=1d5a29a1-b998-42fa-918a-d98d41fd02bd"},"vehicle_type_id":"4","last_reported":1744989031,"current_range_meters":9200,"station_id":"ce4bhb92rcd13ifvqen0","pricing_plan_id":"cebpf4jnsgd1na2vs0mg"},{"bike_id":"2a895c35-4086-4742-9b3c-be4132ed1074","system_id":"levelo_inurba_marseille","lat":43.27383,"lon":5.3626,"is_reserved":false,"is_disabled":false,"rental_uris":{"android":"levelo://app?vid=2a895c35-4086-4742-9b3c-be4132ed1074","ios":"levelo://app?vid=2a895c35-4086-4742-9b3c-be4132ed1074"},"vehicle_type_id":"4","last_reported":1744989031,"current_range_meters":9200,"station_id":"ce4bhbh2rcd13ifvqeo0","pricing_plan_id":"cebpf4jnsgd1na2vs0mg"},{"bike_id":"8fea72d7-ffd0-42d8-8fae-135230b7517e","system_id":"levelo_inurba_marseille","lat":43.29051,"lon":5.35906,"is_reserved":false,"is_disabled":false,"rental_uris":{"android":"levelo://app?vid=8fea72d7-ffd0-42d8-8fae-135230b7517e","ios":"levelo://app?vid=8fea72d7-ffd0-42d8-8fae-135230b7517e"},"vehicle_type_id":"4","last_reported":1744989031,"current_range_meters":8800,"station_id":"ce4bha92rcd13ifvqeg0","pricing_plan_id":"cebpf4jnsgd1na2vs0mg"},{"bike_id":"9c6a021b-78e2-44cf-ac3d-6851de950563","system_id":"levelo_inurba_marseille","lat":43.30545,"lon":5.36555,"is_reserved":false,"is_disabled":false,"rental_uris":{"android":"levelo://app?vid=9c6a021b-78e2-44cf-ac3d-6851de950563","ios":"levelo://app?vid=9c6a021b-78e2-44cf-ac3d-6851de950563"},"vehicle_type_id":"4","last_reported":1744989031,"current_range_meters":9200,"station_id":"ce4bgs12rcd13ifvqcag","pricing_plan_id":"cebpf4jnsgd1na2vs0mg"},{"bike_id":"271c8c79-7ca6-4367-80fb-8a0efc84181c","system_id":"levelo_inurba_marseille","lat":43.23193,"lon":5.35564,"is_reserved":false,"is_disabled":false,"rental_uris":{"android":"levelo://app?vid=271c8c79-7ca6-4367-80fb-8a0efc84181c","ios":"levelo://app?vid=271c8c79-7ca6-4367-80fb-8a0efc84181c"},"vehicle_type_id":"4","last_reported":1744989031,"current_range_meters":9200,"station_id":"ce4bhu92rcd13ifvqi70","pricing_plan_id":"cebpf4jnsgd1na2vs0mg"},{"bike_id":"f009c3c6-54eb-40e5-8976-bf66a2bf8787","system_id":"levelo_inurba_marseille","lat":43.27919,"lon":5.39575,"is_reserved":false,"is_disabled":false,"rental_uris":{"android":"levelo://app?vid=f009c3c6-54eb-40e5-8976-bf66a2bf8787","ios":"levelo://app?vid=f009c3c6-54eb-40e5-8976-bf66a2bf8787"},"vehicle_type_id":"4","last_reported":1744989031,"current_range_meters":9600,"station_id":"ce4bhf92rcd13ifvqf40","pricing_plan_id":"cebpf4jnsgd1na2vs0mg"},{"bike_id":"a84c6798-87cc-40f6-ac43-3a8c436bfb21","system_id":"levelo_inurba_marseille","lat":43.28469,"lon":5.358909,"is_reserved":false,"is_disabled":false,"rental_uris":{"android":"levelo://app?vid=a84c6798-87cc-40f6-ac43-3a8c436bfb21","ios":"levelo://app?vid=a84c6798-87cc-40f6-ac43-3a8c436bfb21"},"vehicle_type_id":"4","last_reported":1744989031,"current_range_meters":9600,"station_id":"ce4bhah2rcd13ifvqei0","pricing_plan_id":"cebpf4jnsgd1na2vs0mg"},{"bike_id":"5fddd535-ab4d-402f-9080-0ad0b96c0735","system_id":"levelo_inurba_marseille","lat":43.309077,"lon":5.367077,"is_reserved":false,"is_disabled":false,"rental_uris":{"android":"levelo://app?vid=5fddd535-ab4d-402f-9080-0ad0b96c0735","ios":"levelo://app?vid=5fddd535-ab4d-402f-9080-0ad0b96c0735"},"vehicle_type_id":"4","last_reported":1744989031,"current_range_meters":9600,"station_id":"","pricing_plan_id":"cebpf4jnsgd1na2vs0mg"},{"bike_id":"4b2d3853-ce29-49d3-9b4d-075b11127b60","system_id":"levelo_inurba_marseille","lat":43.29168,"lon":5.37171,"is_reserved":false,"is_disabled":false,"rental_uris":{"android":"levelo://app?vid=4b2d3853-ce29-49d3-9b4d-075b11127b60","ios":"levelo://app?vid=4b2d3853-ce29-49d3-9b4d-075b11127b60"},"vehicle_type_id":"4","last_reported":1744989031,"current_range_meters":9600,"station_id":"ce4bha92rcd13ifvqeh0","pricing_plan_id":"cebpf4jnsgd1na2vs0mg"},{"bike_id":"acadf367-9145-4d75-9b2f-68536ccd8627","system_id":"levelo_inurba_marseille","lat":43.29787,"lon":5.38083,"is_reserved":false,"is_disabled":false,"rental_uris":{"android":"levelo://app?vid=acadf367-9145-4d75-9b2f-68536ccd8627","ios":"levelo://app?vid=acadf367-9145-4d75-9b2f-68536ccd8627"},"vehicle_type_id":"4","last_reported":1744989031,"current_range_meters":9600,"station_id":"ce4bgip2rcd13ifvqbb0","pricing_plan_id":"cebpf4jnsgd1na2vs0mg"},{"bike_id":"207a8a62-c17e-46c5-83d8-045c4e5bd047","system_id":"levelo_inurba_marseille","lat":43.31361,"lon":5.38499,"is_reserved":false,"is_disabled":false,"rental_uris":{"android":"levelo://app?vid=207a8a62-c17e-46c5-83d8-045c4e5bd047","ios":"levelo://app?vid=207a8a62-c17e-46c5-83d8-045c4e5bd047"},"vehicle_type_id":"4","last_reported":1744989031,"current_range_meters":9600,"station_id":"ce4bgt92rcd13ifvqcf0","pricing_plan_id":"cebpf4jnsgd1na2vs0mg"},{"bike_id":"cf4db056-d3f7-4001-aa54-c43d57090a49","system_id":"levelo_inurba_marseille","lat":43.23192,"lon":5.355582,"is_reserved":false,"is_disabled":false,"rental_uris":{"android":"levelo://app?vid=cf4db056-d3f7-4001-aa54-c43d57090a49","ios":"levelo://app?vid=cf4db056-d3f7-4001-aa54-c43d57090a49"},"vehicle_type_id":"4","last_reported":1744989031,"current_range_meters":10000,"station_id":"ce4bhu92rcd13ifvqi70","pricing_plan_id":"cebpf4jnsgd1na2vs0mg"},{"bike_id":"0f0c2c9d-c11a-480f-8137-c5315e4ded3a","system_id":"levelo_inurba_marseille","lat":43.23189,"lon":5.35556,"is_reserved":false,"is_disabled":false,"rental_uris":{"android":"levelo://app?vid=0f0c2c9d-c11a-480f-8137-c5315e4ded3a","ios":"levelo://app?vid=0f0c2c9d-c11a-480f-8137-c5315e4ded3a"},"vehicle_type_id":"4","last_reported":1744989031,"current_range_meters":10000,"station_id":"ce4bhu92rcd13ifvqi70","pricing_plan_id":"cebpf4jnsgd1na2vs0mg"},{"bike_id":"6edae6e8-68d1-447b-bc9a-f33f449be267","system_id":"levelo_inurba_marseille","lat":43.23961,"lon":5.36641,"is_reserved":false,"is_disabled":false,"rental_uris":{"android":"levelo://app?vid=6edae6e8-68d1-447b-bc9a-f33f449be267","ios":"levelo://app?vid=6edae6e8-68d1-447b-bc9a-f33f449be267"},"vehicle_type_id":"4","last_reported":1744989031,"current_range_meters":10000,"station_id":"ce4bhi12rcd13ifvqfp0","pricing_plan_id":"cebpf4jnsgd1na2vs0mg"},{"bike_id":"cd72b8c7-c35d-4581-bc3e-a950cd5a770a","system_id":"levelo_inurba_marseille","lat":43.289492,"lon":5.363893,"is_reserved":false,"is_disabled":false,"rental_uris":{"android":"levelo://app?vid=cd72b8c7-c35d-4581-bc3e-a950cd5a770a","ios":"levelo://app?vid=cd72b8c7-c35d-4581-bc3e-a950cd5a770a"},"vehicle_type_id":"4","last_reported":1744989031,"current_range_meters":10800,"station_id":"ce4bhc92rcd13ifvqetg","pricing_plan_id":"cebpf4jnsgd1na2vs0mg"},{"bike_id":"3737cb74-761b-429f-9d2d-1c31624faab3","system_id":"levelo_inurba_marseille","lat":43.22926,"lon":5.35379,"is_reserved":false,"is_disabled":false,"rental_uris":{"android":"levelo://app?vid=3737cb74-761b-429f-9d2d-1c31624faab3","ios":"levelo://app?vid=3737cb74-761b-429f-9d2d-1c31624faab3"},"vehicle_type_id":"4","last_reported":1744989031,"current_range_meters":10800,"station_id":"cpo3532slgdg3j2ikp40","pricing_plan_id":"cebpf4jnsgd1na2vs0mg"},{"bike_id":"e5765866-0952-4d6e-92f9-1fbf107ad0b6","system_id":"levelo_inurba_marseille","lat":43.26166,"lon":5.39354,"is_reserved":false,"is_disabled":false,"rental_uris":{"android":"levelo://app?vid=e5765866-0952-4d6e-92f9-1fbf107ad0b6","ios":"levelo://app?vid=e5765866-0952-4d6e-92f9-1fbf107ad0b6"},"vehicle_type_id":"4","last_reported":1744989031,"current_range_meters":10800,"station_id":"ce4bhh92rcd13ifvqfj0","pricing_plan_id":"cebpf4jnsgd1na2vs0mg"},{"bike_id":"1210dc72-37b8-49f7-b249-6faa54daba28","system_id":"levelo_inurba_marseille","lat":43.32367,"lon":5.3676,"is_reserved":false,"is_disabled":false,"rental_uris":{"android":"levelo://app?vid=1210dc72-37b8-49f7-b249-6faa54daba28","ios":"levelo://app?vid=1210dc72-37b8-49f7-b249-6faa54daba28"},"vehicle_type_id":"4","last_reported":1744989031,"current_range_meters":10800,"station_id":"ce4bhsh2rcd13ifvqi2g","pricing_plan_id":"cebpf4jnsgd1na2vs0mg"},{"bike_id":"9a5b085c-68ee-4f85-9c4a-bb413820fa2f","system_id":"levelo_inurba_marseille","lat":43.28418,"lon":5.349965,"is_reserved":false,"is_disabled":false,"rental_uris":{"android":"levelo://app?vid=9a5b085c-68ee-4f85-9c4a-bb413820fa2f","ios":"levelo://app?vid=9a5b085c-68ee-4f85-9c4a-bb413820fa2f"},"vehicle_type_id":"4","last_reported":1744989031,"current_range_meters":10800,"station_id":"ce4bhbh2rcd13ifvqepg","pricing_plan_id":"cebpf4jnsgd1na2vs0mg"},{"bike_id":"c55e8328-e94c-4b05-bb62-7859133de99f","system_id":"levelo_inurba_marseille","lat":43.2655,"lon":5.3729,"is_reserved":false,"is_disabled":false,"rental_uris":{"android":"levelo://app?vid=c55e8328-e94c-4b05-bb62-7859133de99f","ios":"levelo://app?vid=c55e8328-e94c-4b05-bb62-7859133de99f"},"vehicle_type_id":"4","last_reported":1744989031,"current_range_meters":10800,"station_id":"ce4bhg12rcd13ifvqf70","pricing_plan_id":"cebpf4jnsgd1na2vs0mg"},{"bike_id":"65486f84-d723-4dce-b6e5-00e086417f1d","system_id":"levelo_inurba_marseille","lat":43.308937,"lon":5.396505,"is_reserved":false,"is_disabled":false,"rental_uris":{"android":"levelo://app?vid=65486f84-d723-4dce-b6e5-00e086417f1d","ios":"levelo://app?vid=65486f84-d723-4dce-b6e5-00e086417f1d"},"vehicle_type_id":"4","last_reported":1744989031,"current_range_meters":10800,"station_id":"ce4bh012rcd13ifvqcv0","pricing_plan_id":"cebpf4jnsgd1na2vs0mg"},{"bike_id":"8fcfab3d-f2e7-4289-a564-b07eb40242de","system_id":"levelo_inurba_marseille","lat":43.28702,"lon":5.39986,"is_reserved":false,"is_disabled":false,"rental_uris":{"android":"levelo://app?vid=8fcfab3d-f2e7-4289-a564-b07eb40242de","ios":"levelo://app?vid=8fcfab3d-f2e7-4289-a564-b07eb40242de"},"vehicle_type_id":"4","last_reported":1744989031,"current_range_meters":10800,"station_id":"ce4bho92rcd13ifvqh3g","pricing_plan_id":"cebpf4jnsgd1na2vs0mg"},{"bike_id":"94a52313-aa5a-4b63-aa0c-2eda511aa0f7","system_id":"levelo_inurba_marseille","lat":43.22934,"lon":5.35373,"is_reserved":false,"is_disabled":false,"rental_uris":{"android":"levelo://app?vid=94a52313-aa5a-4b63-aa0c-2eda511aa0f7","ios":"levelo://app?vid=94a52313-aa5a-4b63-aa0c-2eda511aa0f7"},"vehicle_type_id":"4","last_reported":1744989031,"current_range_meters":10800,"station_id":"cpo3532slgdg3j2ikp40","pricing_plan_id":"cebpf4jnsgd1na2vs0mg"},{"bike_id":"91b0f96d-1a6e-4e28-98b9-2c86f2485aee","system_id":"levelo_inurba_marseille","lat":43.32416,"lon":5.39048,"is_reserved":false,"is_disabled":false,"rental_uris":{"android":"levelo://app?vid=91b0f96d-1a6e-4e28-98b9-2c86f2485aee","ios":"levelo://app?vid=91b0f96d-1a6e-4e28-98b9-2c86f2485aee"},"vehicle_type_id":"4","last_reported":1744989031,"current_range_meters":11200,"station_id":"","pricing_plan_id":"cebpf4jnsgd1na2vs0mg"},{"bike_id":"7ed91d22-3d5b-4254-83bf-64eb2a7d5481","system_id":"levelo_inurba_marseille","lat":43.22499,"lon":5.34781,"is_reserved":false,"is_disabled":false,"rental_uris":{"android":"levelo://app?vid=7ed91d22-3d5b-4254-83bf-64eb2a7d5481","ios":"levelo://app?vid=7ed91d22-3d5b-4254-83bf-64eb2a7d5481"},"vehicle_type_id":"4","last_reported":1744989031,"current_range_meters":11200,"station_id":"","pricing_plan_id":"cebpf4jnsgd1na2vs0mg"},{"bike_id":"9ccc1250-0ff6-4acc-bd2f-67431ef76582","system_id":"levelo_inurba_marseille","lat":43.28422,"lon":5.34982,"is_reserved":false,"is_disabled":false,"rental_uris":{"android":"levelo://app?vid=9ccc1250-0ff6-4acc-bd2f-67431ef76582","ios":"levelo://app?vid=9ccc1250-0ff6-4acc-bd2f-67431ef76582"},"vehicle_type_id":"4","last_reported":1744989031,"current_range_meters":11200,"station_id":"ce4bhbh2rcd13ifvqepg","pricing_plan_id":"cebpf4jnsgd1na2vs0mg"},{"bike_id":"e4a3f346-357a-4a84-aaba-0cd5fdf83085","system_id":"levelo_inurba_marseille","lat":43.32358,"lon":5.38883,"is_reserved":false,"is_disabled":false,"rental_uris":{"android":"levelo://app?vid=e4a3f346-357a-4a84-aaba-0cd5fdf83085","ios":"levelo://app?vid=e4a3f346-357a-4a84-aaba-0cd5fdf83085"},"vehicle_type_id":"4","last_reported":1744989031,"current_range_meters":11200,"station_id":"ce4bhqp2rcd13ifvqhog","pricing_plan_id":"cebpf4jnsgd1na2vs0mg"},{"bike_id":"1e0e100f-41f7-4724-9b71-03634cc3b5fd","system_id":"levelo_inurba_marseille","lat":43.23197,"lon":5.35559,"is_reserved":false,"is_disabled":false,"rental_uris":{"android":"levelo://app?vid=1e0e100f-41f7-4724-9b71-03634cc3b5fd","ios":"levelo://app?vid=1e0e100f-41f7-4724-9b71-03634cc3b5fd"},"vehicle_type_id":"4","last_reported":1744989031,"current_range_meters":11200,"station_id":"ce4bhu92rcd13ifvqi70","pricing_plan_id":"cebpf4jnsgd1na2vs0mg"},{"bike_id":"397aa98a-9e95-44d5-b872-9acc43faf340","system_id":"levelo_inurba_marseille","lat":43.28621,"lon":5.35095,"is_reserved":false,"is_disabled":false,"rental_uris":{"android":"levelo://app?vid=397aa98a-9e95-44d5-b872-9acc43faf340","ios":"levelo://app?vid=397aa98a-9e95-44d5-b872-9acc43faf340"},"vehicle_type_id":"4","last_reported":1744989031,"current_range_meters":11200,"station_id":"ce4bhch2rcd13ifvqeug","pricing_plan_id":"cebpf4jnsgd1na2vs0mg"},{"bike_id":"7e3ef31c-05b4-43b1-b66e-8f23daac4c89","system_id":"levelo_inurba_marseille","lat":43.21194,"lon":5.35071,"is_reserved":false,"is_disabled":false,"rental_uris":{"android":"levelo://app?vid=7e3ef31c-05b4-43b1-b66e-8f23daac4c89","ios":"levelo://app?vid=7e3ef31c-05b4-43b1-b66e-8f23daac4c89"},"vehicle_type_id":"4","last_reported":1744989031,"current_range_meters":11200,"station_id":"st_cvj6sg6p6f1abm77japg","pricing_plan_id":"cebpf4jnsgd1na2vs0mg"},{"bike_id":"221b01dc-3eb1-45db-8729-31d6e7ab636b","system_id":"levelo_inurba_marseille","lat":43.28731,"lon":5.36081,"is_reserved":false,"is_disabled":false,"rental_uris":{"android":"levelo://app?vid=221b01dc-3eb1-45db-8729-31d6e7ab636b","ios":"levelo://app?vid=221b01dc-3eb1-45db-8729-31d6e7ab636b"},"vehicle_type_id":"4","last_reported":1744989031,"current_range_meters":11600,"station_id":"cki0cbj6b192h4jlfktg","pricing_plan_id":"cebpf4jnsgd1na2vs0mg"},{"bike_id":"1c35b428-cf3b-46cd-b5de-8e5393a3a3e2","system_id":"levelo_inurba_marseille","lat":43.28853,"lon":5.35849,"is_reserved":false,"is_disabled":false,"rental_uris":{"android":"levelo://app?vid=1c35b428-cf3b-46cd-b5de-8e5393a3a3e2","ios":"levelo://app?vid=1c35b428-cf3b-46cd-b5de-8e5393a3a3e2"},"vehicle_type_id":"4","last_reported":1744989031,"current_range_meters":11600,"station_id":"ce4bhb12rcd13ifvqem0","pricing_plan_id":"cebpf4jnsgd1na2vs0mg"},{"bike_id":"85ae211f-d006-4562-a861-7fe6362a42e8","system_id":"levelo_inurba_marseille","lat":43.217431,"lon":5.346064,"is_reserved":false,"is_disabled":false,"rental_uris":{"android":"levelo://app?vid=85ae211f-d006-4562-a861-7fe6362a42e8","ios":"levelo://app?vid=85ae211f-d006-4562-a861-7fe6362a42e8"},"vehicle_type_id":"4","last_reported":1744989031,"current_range_meters":11600,"station_id":"st_cvj6r9ubvosntc0bgbag","pricing_plan_id":"cebpf4jnsgd1na2vs0mg"},{"bike_id":"6607fe1f-dd4e-4b81-b22f-079b21d1676a","system_id":"levelo_inurba_marseille","lat":43.26218,"lon":5.37442,"is_reserved":false,"is_disabled":false,"rental_uris":{"android":"levelo://app?vid=6607fe1f-dd4e-4b81-b22f-079b21d1676a","ios":"levelo://app?vid=6607fe1f-dd4e-4b81-b22f-079b21d1676a"},"vehicle_type_id":"4","last_reported":1744989031,"current_range_meters":11600,"station_id":"ce4bhgp2rcd13ifvqfc0","pricing_plan_id":"cebpf4jnsgd1na2vs0mg"},{"bike_id":"1561b91b-a073-4351-b996-35df301e98c8","system_id":"levelo_inurba_marseille","lat":43.31529,"lon":5.38037,"is_reserved":false,"is_disabled":false,"rental_uris":{"android":"levelo://app?vid=1561b91b-a073-4351-b996-35df301e98c8","ios":"levelo://app?vid=1561b91b-a073-4351-b996-35df301e98c8"},"vehicle_type_id":"4","last_reported":1744989031,"current_range_meters":11600,"station_id":"ce4bhsp2rcd13ifvqi50","pricing_plan_id":"cebpf4jnsgd1na2vs0mg"},{"bike_id":"7b53179d-de52-444b-968c-2b01aad2ee87","system_id":"levelo_inurba_marseille","lat":43.30877,"lon":5.39661,"is_reserved":false,"is_disabled":false,"rental_uris":{"android":"levelo://app?vid=7b53179d-de52-444b-968c-2b01aad2ee87","ios":"levelo://app?vid=7b53179d-de52-444b-968c-2b01aad2ee87"},"vehicle_type_id":"4","last_reported":1744989031,"current_range_meters":15200,"station_id":"ce4bh012rcd13ifvqcv0","pricing_plan_id":"cebpf4jnsgd1na2vs0mg"},{"bike_id":"f60ce9df-29e1-400b-b6f7-07652d2d2777","system_id":"levelo_inurba_marseille","lat":43.29028,"lon":5.38186,"is_reserved":false,"is_disabled":false,"rental_uris":{"android":"levelo://app?vid=f60ce9df-29e1-400b-b6f7-07652d2d2777","ios":"levelo://app?vid=f60ce9df-29e1-400b-b6f7-07652d2d2777"},"vehicle_type_id":"4","last_reported":1744989031,"current_range_meters":12000,"station_id":"","pricing_plan_id":"cebpf4jnsgd1na2vs0mg"},{"bike_id":"0da3e4a6-9d07-450f-aecf-24a3e0d337ce","system_id":"levelo_inurba_marseille","lat":43.24808,"lon":5.37458,"is_reserved":false,"is_disabled":false,"rental_uris":{"android":"levelo://app?vid=0da3e4a6-9d07-450f-aecf-24a3e0d337ce","ios":"levelo://app?vid=0da3e4a6-9d07-450f-aecf-24a3e0d337ce"},"vehicle_type_id":"4","last_reported":1744989031,"current_range_meters":12000,"station_id":"ce4bhgh2rcd13ifvqfb0","pricing_plan_id":"cebpf4jnsgd1na2vs0mg"},{"bike_id":"3edd4595-d477-46fb-bc3b-fb076e3d667a","system_id":"levelo_inurba_marseille","lat":43.29297,"lon":5.3746,"is_reserved":false,"is_disabled":false,"rental_uris":{"android":"levelo://app?vid=3edd4595-d477-46fb-bc3b-fb076e3d667a","ios":"levelo://app?vid=3edd4595-d477-46fb-bc3b-fb076e3d667a"},"vehicle_type_id":"4","last_reported":1744989031,"current_range_meters":12000,"station_id":"ce4bgi12rcd13ifvqb70","pricing_plan_id":"cebpf4jnsgd1na2vs0mg"},{"bike_id":"effb955a-fc18-4ef6-a97e-9417186c15b9","system_id":"levelo_inurba_marseille","lat":43.22935,"lon":5.35381,"is_reserved":false,"is_disabled":false,"rental_uris":{"android":"levelo://app?vid=effb955a-fc18-4ef6-a97e-9417186c15b9","ios":"levelo://app?vid=effb955a-fc18-4ef6-a97e-9417186c15b9"},"vehicle_type_id":"4","last_reported":1744989031,"current_range_meters":12000,"station_id":"cpo3532slgdg3j2ikp40","pricing_plan_id":"cebpf4jnsgd1na2vs0mg"},{"bike_id":"1eaca8f5-0017-418a-9bfc-52185bf67513","system_id":"levelo_inurba_marseille","lat":43.33727,"lon":5.39182,"is_reserved":false,"is_disabled":false,"rental_uris":{"android":"levelo://app?vid=1eaca8f5-0017-418a-9bfc-52185bf67513","ios":"levelo://app?vid=1eaca8f5-0017-418a-9bfc-52185bf67513"},"vehicle_type_id":"4","last_reported":1744989031,"current_range_meters":12400,"station_id":"ce4bhr92rcd13ifvqhsg","pricing_plan_id":"cebpf4jnsgd1na2vs0mg"},{"bike_id":"c2514156-6c78-4e88-a616-486b56776670","system_id":"levelo_inurba_marseille","lat":43.30089,"lon":5.39104,"is_reserved":false,"is_disabled":false,"rental_uris":{"android":"levelo://app?vid=c2514156-6c78-4e88-a616-486b56776670","ios":"levelo://app?vid=c2514156-6c78-4e88-a616-486b56776670"},"vehicle_type_id":"4","last_reported":1744989031,"current_range_meters":12400,"station_id":"ce4bh192rcd13ifvqdb0","pricing_plan_id":"cebpf4jnsgd1na2vs0mg"},{"bike_id":"934a8fc0-98f8-4aaf-a145-d485dee937c7","system_id":"levelo_inurba_marseille","lat":43.32373,"lon":5.36781,"is_reserved":false,"is_disabled":false,"rental_uris":{"android":"levelo://app?vid=934a8fc0-98f8-4aaf-a145-d485dee937c7","ios":"levelo://app?vid=934a8fc0-98f8-4aaf-a145-d485dee937c7"},"vehicle_type_id":"4","last_reported":1744989031,"current_range_meters":12400,"station_id":"ce4bhsh2rcd13ifvqi2g","pricing_plan_id":"cebpf4jnsgd1na2vs0mg"},{"bike_id":"210d3669-e710-4cfb-bac4-2059f4fa7eea","system_id":"levelo_inurba_marseille","lat":43.29293,"lon":5.37485,"is_reserved":false,"is_disabled":false,"rental_uris":{"android":"levelo://app?vid=210d3669-e710-4cfb-bac4-2059f4fa7eea","ios":"levelo://app?vid=210d3669-e710-4cfb-bac4-2059f4fa7eea"},"vehicle_type_id":"4","last_reported":1744989031,"current_range_meters":12400,"station_id":"ce4bh2h2rcd13ifvqdh0","pricing_plan_id":"cebpf4jnsgd1na2vs0mg"},{"bike_id":"a0ddb0a5-f7f0-4281-aa27-9e82747cc573","system_id":"levelo_inurba_marseille","lat":43.33754,"lon":5.37491,"is_reserved":false,"is_disabled":false,"rental_uris":{"android":"levelo://app?vid=a0ddb0a5-f7f0-4281-aa27-9e82747cc573","ios":"levelo://app?vid=a0ddb0a5-f7f0-4281-aa27-9e82747cc573"},"vehicle_type_id":"4","last_reported":1744989031,"current_range_meters":12400,"station_id":"","pricing_plan_id":"cebpf4jnsgd1na2vs0mg"},{"bike_id":"3d48f6f2-161b-4037-9ca6-b1a220e72e09","system_id":"levelo_inurba_marseille","lat":43.27388,"lon":5.36267,"is_reserved":false,"is_disabled":false,"rental_uris":{"android":"levelo://app?vid=3d48f6f2-161b-4037-9ca6-b1a220e72e09","ios":"levelo://app?vid=3d48f6f2-161b-4037-9ca6-b1a220e72e09"},"vehicle_type_id":"4","last_reported":1744989031,"current_range_meters":12800,"station_id":"ce4bhbh2rcd13ifvqeo0","pricing_plan_id":"cebpf4jnsgd1na2vs0mg"},{"bike_id":"d90f1740-ac3e-4975-b42b-0c5f4f55b4c8","system_id":"levelo_inurba_marseille","lat":43.27375,"lon":5.36244,"is_reserved":false,"is_disabled":false,"rental_uris":{"android":"levelo://app?vid=d90f1740-ac3e-4975-b42b-0c5f4f55b4c8","ios":"levelo://app?vid=d90f1740-ac3e-4975-b42b-0c5f4f55b4c8"},"vehicle_type_id":"4","last_reported":1744989031,"current_range_meters":12800,"station_id":"ce4bhbh2rcd13ifvqeo0","pricing_plan_id":"cebpf4jnsgd1na2vs0mg"},{"bike_id":"c09b1ff6-1e1f-4cd6-9ee9-4e1b23955bbc","system_id":"levelo_inurba_marseille","lat":43.231965,"lon":5.355517,"is_reserved":false,"is_disabled":true,"rental_uris":{"android":"levelo://app?vid=c09b1ff6-1e1f-4cd6-9ee9-4e1b23955bbc","ios":"levelo://app?vid=c09b1ff6-1e1f-4cd6-9ee9-4e1b23955bbc"},"vehicle_type_id":"4","last_reported":1744989031,"current_range_meters":12800,"station_id":"ce4bhu92rcd13ifvqi70","pricing_plan_id":"cebpf4jnsgd1na2vs0mg"},{"bike_id":"bd492354-2d79-4427-82ee-84e4a12dea30","system_id":"levelo_inurba_marseille","lat":43.21206,"lon":5.35077,"is_reserved":false,"is_disabled":false,"rental_uris":{"android":"levelo://app?vid=bd492354-2d79-4427-82ee-84e4a12dea30","ios":"levelo://app?vid=bd492354-2d79-4427-82ee-84e4a12dea30"},"vehicle_type_id":"4","last_reported":1744989031,"current_range_meters":12800,"station_id":"st_cvj6sg6p6f1abm77japg","pricing_plan_id":"cebpf4jnsgd1na2vs0mg"},{"bike_id":"3809c706-cd53-46c1-958d-7af93f20a204","system_id":"levelo_inurba_marseille","lat":43.29228,"lon":5.36075,"is_reserved":false,"is_disabled":false,"rental_uris":{"android":"levelo://app?vid=3809c706-cd53-46c1-958d-7af93f20a204","ios":"levelo://app?vid=3809c706-cd53-46c1-958d-7af93f20a204"},"vehicle_type_id":"4","last_reported":1744989031,"current_range_meters":12800,"station_id":"ce4bhbh2rcd13ifvqeqg","pricing_plan_id":"cebpf4jnsgd1na2vs0mg"},{"bike_id":"0412a1ca-4def-4ac7-bfaa-effc8cbb5510","system_id":"levelo_inurba_marseille","lat":43.22928,"lon":5.3538,"is_reserved":false,"is_disabled":false,"rental_uris":{"android":"levelo://app?vid=0412a1ca-4def-4ac7-bfaa-effc8cbb5510","ios":"levelo://app?vid=0412a1ca-4def-4ac7-bfaa-effc8cbb5510"},"vehicle_type_id":"4","last_reported":1744989031,"current_range_meters":12800,"station_id":"cpo3532slgdg3j2ikp40","pricing_plan_id":"cebpf4jnsgd1na2vs0mg"},{"bike_id":"cb1cf7e8-7577-4d0f-87c8-0ebf155e98f9","system_id":"levelo_inurba_marseille","lat":43.28615,"lon":5.35103,"is_reserved":false,"is_disabled":false,"rental_uris":{"android":"levelo://app?vid=cb1cf7e8-7577-4d0f-87c8-0ebf155e98f9","ios":"levelo://app?vid=cb1cf7e8-7577-4d0f-87c8-0ebf155e98f9"},"vehicle_type_id":"4","last_reported":1744989031,"current_range_meters":12800,"station_id":"ce4bhch2rcd13ifvqeug","pricing_plan_id":"cebpf4jnsgd1na2vs0mg"},{"bike_id":"ac60cf89-6c94-4516-94a2-0a23147716a3","system_id":"levelo_inurba_marseille","lat":43.27383,"lon":5.36251,"is_reserved":false,"is_disabled":false,"rental_uris":{"android":"levelo://app?vid=ac60cf89-6c94-4516-94a2-0a23147716a3","ios":"levelo://app?vid=ac60cf89-6c94-4516-94a2-0a23147716a3"},"vehicle_type_id":"4","last_reported":1744989031,"current_range_meters":13600,"station_id":"ce4bhbh2rcd13ifvqeo0","pricing_plan_id":"cebpf4jnsgd1na2vs0mg"},{"bike_id":"4a0f415a-7167-481b-a8a8-3a14ba8204d4","system_id":"levelo_inurba_marseille","lat":43.28458,"lon":5.3589,"is_reserved":false,"is_disabled":false,"rental_uris":{"android":"levelo://app?vid=4a0f415a-7167-481b-a8a8-3a14ba8204d4","ios":"levelo://app?vid=4a0f415a-7167-481b-a8a8-3a14ba8204d4"},"vehicle_type_id":"4","last_reported":1744989031,"current_range_meters":13600,"station_id":"ce4bhah2rcd13ifvqei0","pricing_plan_id":"cebpf4jnsgd1na2vs0mg"},{"bike_id":"e4e3b38d-6a05-4651-9b02-52c7201e11e2","system_id":"levelo_inurba_marseille","lat":43.27377,"lon":5.36247,"is_reserved":false,"is_disabled":false,"rental_uris":{"android":"levelo://app?vid=e4e3b38d-6a05-4651-9b02-52c7201e11e2","ios":"levelo://app?vid=e4e3b38d-6a05-4651-9b02-52c7201e11e2"},"vehicle_type_id":"4","last_reported":1744989031,"current_range_meters":13600,"station_id":"","pricing_plan_id":"cebpf4jnsgd1na2vs0mg"},{"bike_id":"f52bbc2e-7689-46ab-b62d-f68b748de8c1","system_id":"levelo_inurba_marseille","lat":43.28269,"lon":5.35071,"is_reserved":false,"is_disabled":false,"rental_uris":{"android":"levelo://app?vid=f52bbc2e-7689-46ab-b62d-f68b748de8c1","ios":"levelo://app?vid=f52bbc2e-7689-46ab-b62d-f68b748de8c1"},"vehicle_type_id":"4","last_reported":1744989031,"current_range_meters":14000,"station_id":"ce4bhbp2rcd13ifvqerg","pricing_plan_id":"cebpf4jnsgd1na2vs0mg"},{"bike_id":"07d08331-3087-4240-b158-a80518e96c06","system_id":"levelo_inurba_marseille","lat":43.25087,"lon":5.39523,"is_reserved":false,"is_disabled":false,"rental_uris":{"android":"levelo://app?vid=07d08331-3087-4240-b158-a80518e96c06","ios":"levelo://app?vid=07d08331-3087-4240-b158-a80518e96c06"},"vehicle_type_id":"4","last_reported":1744989031,"current_range_meters":14000,"station_id":"ce4bhm12rcd13ifvqgkg","pricing_plan_id":"cebpf4jnsgd1na2vs0mg"},{"bike_id":"ef6e9c6f-8f69-4fcf-9727-b556a001e5bc","system_id":"levelo_inurba_marseille","lat":43.29593,"lon":5.42271,"is_reserved":false,"is_disabled":false,"rental_uris":{"android":"levelo://app?vid=ef6e9c6f-8f69-4fcf-9727-b556a001e5bc","ios":"levelo://app?vid=ef6e9c6f-8f69-4fcf-9727-b556a001e5bc"},"vehicle_type_id":"4","last_reported":1744989031,"current_range_meters":14000,"station_id":"ce4bhph2rcd13ifvqhdg","pricing_plan_id":"cebpf4jnsgd1na2vs0mg"},{"bike_id":"33efbe4e-e642-4271-be29-4926b421ca5b","system_id":"levelo_inurba_marseille","lat":43.24168,"lon":5.36439,"is_reserved":false,"is_disabled":false,"rental_uris":{"android":"levelo://app?vid=33efbe4e-e642-4271-be29-4926b421ca5b","ios":"levelo://app?vid=33efbe4e-e642-4271-be29-4926b421ca5b"},"vehicle_type_id":"4","last_reported":1744989031,"current_range_meters":14000,"station_id":"cpo36qri1sfpv3e86is0","pricing_plan_id":"cebpf4jnsgd1na2vs0mg"},{"bike_id":"485d6e01-51b5-4179-87a9-d8f138a35415","system_id":"levelo_inurba_marseille","lat":43.22934,"lon":5.35398,"is_reserved":false,"is_disabled":false,"rental_uris":{"android":"levelo://app?vid=485d6e01-51b5-4179-87a9-d8f138a35415","ios":"levelo://app?vid=485d6e01-51b5-4179-87a9-d8f138a35415"},"vehicle_type_id":"4","last_reported":1744989031,"current_range_meters":14000,"station_id":"cpo3532slgdg3j2ikp40","pricing_plan_id":"cebpf4jnsgd1na2vs0mg"},{"bike_id":"f9d3fbe6-73e5-424e-af02-f446d5b07152","system_id":"levelo_inurba_marseille","lat":43.21739,"lon":5.34598,"is_reserved":false,"is_disabled":false,"rental_uris":{"android":"levelo://app?vid=f9d3fbe6-73e5-424e-af02-f446d5b07152","ios":"levelo://app?vid=f9d3fbe6-73e5-424e-af02-f446d5b07152"},"vehicle_type_id":"4","last_reported":1744989031,"current_range_meters":14000,"station_id":"st_cvj6r9ubvosntc0bgbag","pricing_plan_id":"cebpf4jnsgd1na2vs0mg"},{"bike_id":"1ea16019-49b3-494c-a5ba-6c079e909742","system_id":"levelo_inurba_marseille","lat":43.28466,"lon":5.35893,"is_reserved":false,"is_disabled":false,"rental_uris":{"android":"levelo://app?vid=1ea16019-49b3-494c-a5ba-6c079e909742","ios":"levelo://app?vid=1ea16019-49b3-494c-a5ba-6c079e909742"},"vehicle_type_id":"4","last_reported":1744989031,"current_range_meters":14000,"station_id":"ce4bhah2rcd13ifvqei0","pricing_plan_id":"cebpf4jnsgd1na2vs0mg"},{"bike_id":"36ab45f2-4fe6-46ca-be07-c254b02b64ef","system_id":"levelo_inurba_marseille","lat":43.28433,"lon":5.35014,"is_reserved":false,"is_disabled":false,"rental_uris":{"android":"levelo://app?vid=36ab45f2-4fe6-46ca-be07-c254b02b64ef","ios":"levelo://app?vid=36ab45f2-4fe6-46ca-be07-c254b02b64ef"},"vehicle_type_id":"4","last_reported":1744989031,"current_range_meters":14400,"station_id":"ce4bhbh2rcd13ifvqepg","pricing_plan_id":"cebpf4jnsgd1na2vs0mg"},{"bike_id":"68342d9f-f0b6-47e7-b690-b27078e67a77","system_id":"levelo_inurba_marseille","lat":43.24158,"lon":5.36425,"is_reserved":false,"is_disabled":false,"rental_uris":{"android":"levelo://app?vid=68342d9f-f0b6-47e7-b690-b27078e67a77","ios":"levelo://app?vid=68342d9f-f0b6-47e7-b690-b27078e67a77"},"vehicle_type_id":"4","last_reported":1744989031,"current_range_meters":14400,"station_id":"cpo36qri1sfpv3e86is0","pricing_plan_id":"cebpf4jnsgd1na2vs0mg"},{"bike_id":"072f1cf9-fb52-41cb-93dd-0942e165c5f6","system_id":"levelo_inurba_marseille","lat":43.284172,"lon":5.349799,"is_reserved":false,"is_disabled":false,"rental_uris":{"android":"levelo://app?vid=072f1cf9-fb52-41cb-93dd-0942e165c5f6","ios":"levelo://app?vid=072f1cf9-fb52-41cb-93dd-0942e165c5f6"},"vehicle_type_id":"4","last_reported":1744989031,"current_range_meters":14400,"station_id":"ce4bh392rcd13ifvqdl0","pricing_plan_id":"cebpf4jnsgd1na2vs0mg"},{"bike_id":"3470030f-0ea9-4cf0-9c90-38c75c51bedb","system_id":"levelo_inurba_marseille","lat":43.282725,"lon":5.3507,"is_reserved":false,"is_disabled":false,"rental_uris":{"android":"levelo://app?vid=3470030f-0ea9-4cf0-9c90-38c75c51bedb","ios":"levelo://app?vid=3470030f-0ea9-4cf0-9c90-38c75c51bedb"},"vehicle_type_id":"4","last_reported":1744989031,"current_range_meters":14400,"station_id":"ce4bhbp2rcd13ifvqerg","pricing_plan_id":"cebpf4jnsgd1na2vs0mg"},{"bike_id":"ed52e9ca-8261-4608-80a0-0235ed89d40d","system_id":"levelo_inurba_marseille","lat":43.2958,"lon":5.36737,"is_reserved":false,"is_disabled":false,"rental_uris":{"android":"levelo://app?vid=ed52e9ca-8261-4608-80a0-0235ed89d40d","ios":"levelo://app?vid=ed52e9ca-8261-4608-80a0-0235ed89d40d"},"vehicle_type_id":"4","last_reported":1744989031,"current_range_meters":14400,"station_id":"ce4bgph2rcd13ifvqc2g","pricing_plan_id":"cebpf4jnsgd1na2vs0mg"},{"bike_id":"132ff306-e92b-4b03-aa73-a77f243accbe","system_id":"levelo_inurba_marseille","lat":43.29008,"lon":5.35605,"is_reserved":false,"is_disabled":false,"rental_uris":{"android":"levelo://app?vid=132ff306-e92b-4b03-aa73-a77f243accbe","ios":"levelo://app?vid=132ff306-e92b-4b03-aa73-a77f243accbe"},"vehicle_type_id":"4","last_reported":1744989031,"current_range_meters":14400,"station_id":"ce4bhb92rcd13ifvqen0","pricing_plan_id":"cebpf4jnsgd1na2vs0mg"},{"bike_id":"aac22ce8-e233-45d0-953e-06786b7bb4da","system_id":"levelo_inurba_marseille","lat":43.30525,"lon":5.36531,"is_reserved":false,"is_disabled":false,"rental_uris":{"android":"levelo://app?vid=aac22ce8-e233-45d0-953e-06786b7bb4da","ios":"levelo://app?vid=aac22ce8-e233-45d0-953e-06786b7bb4da"},"vehicle_type_id":"4","last_reported":1744989031,"current_range_meters":14800,"station_id":"ce4bgs12rcd13ifvqcag","pricing_plan_id":"cebpf4jnsgd1na2vs0mg"},{"bike_id":"4e8b253b-decb-4b63-9c28-1277f13435db","system_id":"levelo_inurba_marseille","lat":43.28466,"lon":5.35893,"is_reserved":false,"is_disabled":false,"rental_uris":{"android":"levelo://app?vid=4e8b253b-decb-4b63-9c28-1277f13435db","ios":"levelo://app?vid=4e8b253b-decb-4b63-9c28-1277f13435db"},"vehicle_type_id":"4","last_reported":1744989031,"current_range_meters":14800,"station_id":"ce4bhah2rcd13ifvqei0","pricing_plan_id":"cebpf4jnsgd1na2vs0mg"},{"bike_id":"7eb8853e-3665-40f5-8308-1299f0674652","system_id":"levelo_inurba_marseille","lat":43.3037,"lon":5.42491,"is_reserved":false,"is_disabled":false,"rental_uris":{"android":"levelo://app?vid=7eb8853e-3665-40f5-8308-1299f0674652","ios":"levelo://app?vid=7eb8853e-3665-40f5-8308-1299f0674652"},"vehicle_type_id":"4","last_reported":1744989031,"current_range_meters":14800,"station_id":"ce4bhoh2rcd13ifvqh6g","pricing_plan_id":"cebpf4jnsgd1na2vs0mg"},{"bike_id":"be09bd14-33f4-4a56-b848-6c34e19dbf40","system_id":"levelo_inurba_marseille","lat":43.24387,"lon":5.37062,"is_reserved":false,"is_disabled":false,"rental_uris":{"android":"levelo://app?vid=be09bd14-33f4-4a56-b848-6c34e19dbf40","ios":"levelo://app?vid=be09bd14-33f4-4a56-b848-6c34e19dbf40"},"vehicle_type_id":"4","last_reported":1744989031,"current_range_meters":14800,"station_id":"","pricing_plan_id":"cebpf4jnsgd1na2vs0mg"},{"bike_id":"45d3a127-db90-42a8-ae04-34a544c52a79","system_id":"levelo_inurba_marseille","lat":43.22927,"lon":5.35391,"is_reserved":false,"is_disabled":false,"rental_uris":{"android":"levelo://app?vid=45d3a127-db90-42a8-ae04-34a544c52a79","ios":"levelo://app?vid=45d3a127-db90-42a8-ae04-34a544c52a79"},"vehicle_type_id":"4","last_reported":1744989031,"current_range_meters":14800,"station_id":"cpo3532slgdg3j2ikp40","pricing_plan_id":"cebpf4jnsgd1na2vs0mg"},{"bike_id":"ecc78955-3421-4b79-961f-0cbb19078fcc","system_id":"levelo_inurba_marseille","lat":43.29574,"lon":5.39989,"is_reserved":false,"is_disabled":false,"rental_uris":{"android":"levelo://app?vid=ecc78955-3421-4b79-961f-0cbb19078fcc","ios":"levelo://app?vid=ecc78955-3421-4b79-961f-0cbb19078fcc"},"vehicle_type_id":"4","last_reported":1744989031,"current_range_meters":14800,"station_id":"ce4bh312rcd13ifvqdj0","pricing_plan_id":"cebpf4jnsgd1na2vs0mg"},{"bike_id":"c39f897f-0f4c-4961-9148-decfa7fec7f3","system_id":"levelo_inurba_marseille","lat":43.27845,"lon":5.39217,"is_reserved":false,"is_disabled":false,"rental_uris":{"android":"levelo://app?vid=c39f897f-0f4c-4961-9148-decfa7fec7f3","ios":"levelo://app?vid=c39f897f-0f4c-4961-9148-decfa7fec7f3"},"vehicle_type_id":"4","last_reported":1744989031,"current_range_meters":15200,"station_id":"ce4bhjp2rcd13ifvqga0","pricing_plan_id":"cebpf4jnsgd1na2vs0mg"},{"bike_id":"29e84696-bf1e-4528-b7a5-3b2acd7aa790","system_id":"levelo_inurba_marseille","lat":43.225038,"lon":5.347862,"is_reserved":false,"is_disabled":false,"rental_uris":{"android":"levelo://app?vid=29e84696-bf1e-4528-b7a5-3b2acd7aa790","ios":"levelo://app?vid=29e84696-bf1e-4528-b7a5-3b2acd7aa790"},"vehicle_type_id":"4","last_reported":1744989031,"current_range_meters":15200,"station_id":"","pricing_plan_id":"cebpf4jnsgd1na2vs0mg"},{"bike_id":"83564073-86c1-4e26-8830-e5681249001e","system_id":"levelo_inurba_marseille","lat":43.33723,"lon":5.3919,"is_reserved":false,"is_disabled":false,"rental_uris":{"android":"levelo://app?vid=83564073-86c1-4e26-8830-e5681249001e","ios":"levelo://app?vid=83564073-86c1-4e26-8830-e5681249001e"},"vehicle_type_id":"4","last_reported":1744989031,"current_range_meters":15200,"station_id":"ce4bhr92rcd13ifvqhsg","pricing_plan_id":"cebpf4jnsgd1na2vs0mg"},{"bike_id":"af251996-054a-4b92-9d3c-1a626e7a6a13","system_id":"levelo_inurba_marseille","lat":43.29204,"lon":5.35817,"is_reserved":false,"is_disabled":false,"rental_uris":{"android":"levelo://app?vid=af251996-054a-4b92-9d3c-1a626e7a6a13","ios":"levelo://app?vid=af251996-054a-4b92-9d3c-1a626e7a6a13"},"vehicle_type_id":"4","last_reported":1744989031,"current_range_meters":15200,"station_id":"ce4bhb12rcd13ifvqel0","pricing_plan_id":"cebpf4jnsgd1na2vs0mg"},{"bike_id":"6f523da1-5f60-475c-93df-7a5b709bcac9","system_id":"levelo_inurba_marseille","lat":43.23199,"lon":5.3555,"is_reserved":false,"is_disabled":false,"rental_uris":{"android":"levelo://app?vid=6f523da1-5f60-475c-93df-7a5b709bcac9","ios":"levelo://app?vid=6f523da1-5f60-475c-93df-7a5b709bcac9"},"vehicle_type_id":"4","last_reported":1744989031,"current_range_meters":15200,"station_id":"ce4bhu92rcd13ifvqi70","pricing_plan_id":"cebpf4jnsgd1na2vs0mg"},{"bike_id":"1b988a77-b685-4e9b-89a9-f70e458972b8","system_id":"levelo_inurba_marseille","lat":43.27379,"lon":5.36227,"is_reserved":false,"is_disabled":false,"rental_uris":{"android":"levelo://app?vid=1b988a77-b685-4e9b-89a9-f70e458972b8","ios":"levelo://app?vid=1b988a77-b685-4e9b-89a9-f70e458972b8"},"vehicle_type_id":"4","last_reported":1744989031,"current_range_meters":15200,"station_id":"ce4bhbh2rcd13ifvqeo0","pricing_plan_id":"cebpf4jnsgd1na2vs0mg"},{"bike_id":"eb5d468f-0aac-4c19-9e49-c2e39478b3bb","system_id":"levelo_inurba_marseille","lat":43.24397,"lon":5.37073,"is_reserved":false,"is_disabled":false,"rental_uris":{"android":"levelo://app?vid=eb5d468f-0aac-4c19-9e49-c2e39478b3bb","ios":"levelo://app?vid=eb5d468f-0aac-4c19-9e49-c2e39478b3bb"},"vehicle_type_id":"4","last_reported":1744989031,"current_range_meters":15200,"station_id":"ce4bhhh2rcd13ifvqfk0","pricing_plan_id":"cebpf4jnsgd1na2vs0mg"},{"bike_id":"77d94d48-ad5f-4df8-88ab-9078b4bca718","system_id":"levelo_inurba_marseille","lat":43.2509,"lon":5.39523,"is_reserved":false,"is_disabled":false,"rental_uris":{"android":"levelo://app?vid=77d94d48-ad5f-4df8-88ab-9078b4bca718","ios":"levelo://app?vid=77d94d48-ad5f-4df8-88ab-9078b4bca718"},"vehicle_type_id":"4","last_reported":1744989031,"current_range_meters":15200,"station_id":"ce4bhm12rcd13ifvqgkg","pricing_plan_id":"cebpf4jnsgd1na2vs0mg"},{"bike_id":"110c4abb-ffb8-4fd0-ba35-0e68e73379e5","system_id":"levelo_inurba_marseille","lat":43.22936,"lon":5.35384,"is_reserved":false,"is_disabled":false,"rental_uris":{"android":"levelo://app?vid=110c4abb-ffb8-4fd0-ba35-0e68e73379e5","ios":"levelo://app?vid=110c4abb-ffb8-4fd0-ba35-0e68e73379e5"},"vehicle_type_id":"4","last_reported":1744989031,"current_range_meters":15200,"station_id":"cpo3532slgdg3j2ikp40","pricing_plan_id":"cebpf4jnsgd1na2vs0mg"},{"bike_id":"f11c1877-2531-4187-8a4e-82f9bf9c66d8","system_id":"levelo_inurba_marseille","lat":43.25012,"lon":5.38913,"is_reserved":false,"is_disabled":false,"rental_uris":{"android":"levelo://app?vid=f11c1877-2531-4187-8a4e-82f9bf9c66d8","ios":"levelo://app?vid=f11c1877-2531-4187-8a4e-82f9bf9c66d8"},"vehicle_type_id":"4","last_reported":1744989031,"current_range_meters":16000,"station_id":"ce4bhgp2rcd13ifvqfd0","pricing_plan_id":"cebpf4jnsgd1na2vs0mg"},{"bike_id":"91aa591a-3e56-4092-a295-ecb6aebe69eb","system_id":"levelo_inurba_marseille","lat":43.22505,"lon":5.34781,"is_reserved":false,"is_disabled":false,"rental_uris":{"android":"levelo://app?vid=91aa591a-3e56-4092-a295-ecb6aebe69eb","ios":"levelo://app?vid=91aa591a-3e56-4092-a295-ecb6aebe69eb"},"vehicle_type_id":"4","last_reported":1744989031,"current_range_meters":16000,"station_id":"st_cvj5dfep6f1abm77gieg","pricing_plan_id":"cebpf4jnsgd1na2vs0mg"},{"bike_id":"789c3822-56ca-4769-bcd4-8845bdea2fda","system_id":"levelo_inurba_marseille","lat":43.24163,"lon":5.36405,"is_reserved":false,"is_disabled":false,"rental_uris":{"android":"levelo://app?vid=789c3822-56ca-4769-bcd4-8845bdea2fda","ios":"levelo://app?vid=789c3822-56ca-4769-bcd4-8845bdea2fda"},"vehicle_type_id":"4","last_reported":1744989031,"current_range_meters":16000,"station_id":"cpo36qri1sfpv3e86is0","pricing_plan_id":"cebpf4jnsgd1na2vs0mg"},{"bike_id":"a1183122-2c11-405c-8c55-e035bd8761a2","system_id":"levelo_inurba_marseille","lat":43.27378,"lon":5.36237,"is_reserved":false,"is_disabled":false,"rental_uris":{"android":"levelo://app?vid=a1183122-2c11-405c-8c55-e035bd8761a2","ios":"levelo://app?vid=a1183122-2c11-405c-8c55-e035bd8761a2"},"vehicle_type_id":"4","last_reported":1744989031,"current_range_meters":16000,"station_id":"ce4bhbh2rcd13ifvqeo0","pricing_plan_id":"cebpf4jnsgd1na2vs0mg"},{"bike_id":"dcb4f342-7919-4cbf-939c-b4e0ed90afe7","system_id":"levelo_inurba_marseille","lat":43.28281,"lon":5.351,"is_reserved":false,"is_disabled":false,"rental_uris":{"android":"levelo://app?vid=dcb4f342-7919-4cbf-939c-b4e0ed90afe7","ios":"levelo://app?vid=dcb4f342-7919-4cbf-939c-b4e0ed90afe7"},"vehicle_type_id":"4","last_reported":1744989031,"current_range_meters":16000,"station_id":"ce4bhbp2rcd13ifvqerg","pricing_plan_id":"cebpf4jnsgd1na2vs0mg"},{"bike_id":"186380b9-3dab-457b-b648-71d123fa0368","system_id":"levelo_inurba_marseille","lat":43.25116,"lon":5.40344,"is_reserved":false,"is_disabled":true,"rental_uris":{"android":"levelo://app?vid=186380b9-3dab-457b-b648-71d123fa0368","ios":"levelo://app?vid=186380b9-3dab-457b-b648-71d123fa0368"},"vehicle_type_id":"4","last_reported":1744989031,"current_range_meters":16000,"station_id":"ce4bhlh2rcd13ifvqgig","pricing_plan_id":"cebpf4jnsgd1na2vs0mg"},{"bike_id":"0f357ace-3865-4dcd-a035-1b0360abaaf3","system_id":"levelo_inurba_marseille","lat":43.29533,"lon":5.38539,"is_reserved":false,"is_disabled":false,"rental_uris":{"android":"levelo://app?vid=0f357ace-3865-4dcd-a035-1b0360abaaf3","ios":"levelo://app?vid=0f357ace-3865-4dcd-a035-1b0360abaaf3"},"vehicle_type_id":"4","last_reported":1744989031,"current_range_meters":16000,"station_id":"ce4bgih2rcd13ifvqba0","pricing_plan_id":"cebpf4jnsgd1na2vs0mg"},{"bike_id":"08498039-0c7c-458c-9548-8f613fb59fef","system_id":"levelo_inurba_marseille","lat":43.28633,"lon":5.35108,"is_reserved":false,"is_disabled":false,"rental_uris":{"android":"levelo://app?vid=08498039-0c7c-458c-9548-8f613fb59fef","ios":"levelo://app?vid=08498039-0c7c-458c-9548-8f613fb59fef"},"vehicle_type_id":"4","last_reported":1744989031,"current_range_meters":16400,"station_id":"ce4bhch2rcd13ifvqeug","pricing_plan_id":"cebpf4jnsgd1na2vs0mg"},{"bike_id":"24040b2e-4bcb-49ba-b42e-4808c9652344","system_id":"levelo_inurba_marseille","lat":43.28414,"lon":5.34977,"is_reserved":false,"is_disabled":false,"rental_uris":{"android":"levelo://app?vid=24040b2e-4bcb-49ba-b42e-4808c9652344","ios":"levelo://app?vid=24040b2e-4bcb-49ba-b42e-4808c9652344"},"vehicle_type_id":"4","last_reported":1744989031,"current_range_meters":16400,"station_id":"ce4bhbh2rcd13ifvqepg","pricing_plan_id":"cebpf4jnsgd1na2vs0mg"},{"bike_id":"32114de9-c526-480f-98c0-6ffe2345af1c","system_id":"levelo_inurba_marseille","lat":43.28993,"lon":5.35605,"is_reserved":false,"is_disabled":false,"rental_uris":{"android":"levelo://app?vid=32114de9-c526-480f-98c0-6ffe2345af1c","ios":"levelo://app?vid=32114de9-c526-480f-98c0-6ffe2345af1c"},"vehicle_type_id":"4","last_reported":1744989031,"current_range_meters":16400,"station_id":"ce4bhb92rcd13ifvqen0","pricing_plan_id":"cebpf4jnsgd1na2vs0mg"},{"bike_id":"9daf0d13-66c9-45a0-8235-b30afbe87aae","system_id":"levelo_inurba_marseille","lat":43.29046,"lon":5.38134,"is_reserved":false,"is_disabled":false,"rental_uris":{"android":"levelo://app?vid=9daf0d13-66c9-45a0-8235-b30afbe87aae","ios":"levelo://app?vid=9daf0d13-66c9-45a0-8235-b30afbe87aae"},"vehicle_type_id":"4","last_reported":1744989031,"current_range_meters":16400,"station_id":"ce4bh4p2rcd13ifvqe1g","pricing_plan_id":"cebpf4jnsgd1na2vs0mg"},{"bike_id":"738e5624-557c-427e-ba1e-49a888b447e3","system_id":"levelo_inurba_marseille","lat":43.28273,"lon":5.35071,"is_reserved":false,"is_disabled":false,"rental_uris":{"android":"levelo://app?vid=738e5624-557c-427e-ba1e-49a888b447e3","ios":"levelo://app?vid=738e5624-557c-427e-ba1e-49a888b447e3"},"vehicle_type_id":"4","last_reported":1744989031,"current_range_meters":16400,"station_id":"ce4bhbp2rcd13ifvqerg","pricing_plan_id":"cebpf4jnsgd1na2vs0mg"},{"bike_id":"5296dfd6-b810-4928-90d6-7cc3f4e55abd","system_id":"levelo_inurba_marseille","lat":43.24405,"lon":5.37052,"is_reserved":false,"is_disabled":false,"rental_uris":{"android":"levelo://app?vid=5296dfd6-b810-4928-90d6-7cc3f4e55abd","ios":"levelo://app?vid=5296dfd6-b810-4928-90d6-7cc3f4e55abd"},"vehicle_type_id":"4","last_reported":1744989031,"current_range_meters":16400,"station_id":"ce4bhhh2rcd13ifvqfk0","pricing_plan_id":"cebpf4jnsgd1na2vs0mg"},{"bike_id":"73d349a3-8a77-4d4a-b28b-f340f5d4413e","system_id":"levelo_inurba_marseille","lat":43.33729,"lon":5.39196,"is_reserved":false,"is_disabled":false,"rental_uris":{"android":"levelo://app?vid=73d349a3-8a77-4d4a-b28b-f340f5d4413e","ios":"levelo://app?vid=73d349a3-8a77-4d4a-b28b-f340f5d4413e"},"vehicle_type_id":"4","last_reported":1744989031,"current_range_meters":16800,"station_id":"ce4bhr92rcd13ifvqhsg","pricing_plan_id":"cebpf4jnsgd1na2vs0mg"},{"bike_id":"3b4b2fa0-18dd-4f1b-a170-9839751538d5","system_id":"levelo_inurba_marseille","lat":43.27384,"lon":5.36244,"is_reserved":false,"is_disabled":false,"rental_uris":{"android":"levelo://app?vid=3b4b2fa0-18dd-4f1b-a170-9839751538d5","ios":"levelo://app?vid=3b4b2fa0-18dd-4f1b-a170-9839751538d5"},"vehicle_type_id":"4","last_reported":1744989031,"current_range_meters":16800,"station_id":"ce4bhbh2rcd13ifvqeo0","pricing_plan_id":"cebpf4jnsgd1na2vs0mg"},{"bike_id":"00180857-beb7-4386-8dbc-c6d7377a56a8","system_id":"levelo_inurba_marseille","lat":43.27403,"lon":5.36268,"is_reserved":false,"is_disabled":false,"rental_uris":{"android":"levelo://app?vid=00180857-beb7-4386-8dbc-c6d7377a56a8","ios":"levelo://app?vid=00180857-beb7-4386-8dbc-c6d7377a56a8"},"vehicle_type_id":"4","last_reported":1744989031,"current_range_meters":16800,"station_id":"ce4bhbh2rcd13ifvqeo0","pricing_plan_id":"cebpf4jnsgd1na2vs0mg"},{"bike_id":"7b3e0250-326d-4b8f-aa70-71a7ed115cdc","system_id":"levelo_inurba_marseille","lat":43.27435,"lon":5.39424,"is_reserved":false,"is_disabled":false,"rental_uris":{"android":"levelo://app?vid=7b3e0250-326d-4b8f-aa70-71a7ed115cdc","ios":"levelo://app?vid=7b3e0250-326d-4b8f-aa70-71a7ed115cdc"},"vehicle_type_id":"4","last_reported":1744989031,"current_range_meters":16400,"station_id":"ce4bhdp2rcd13ifvqf20","pricing_plan_id":"cebpf4jnsgd1na2vs0mg"},{"bike_id":"9eb6738d-486c-4d0a-88f4-70b8d81983d1","system_id":"levelo_inurba_marseille","lat":43.21752,"lon":5.34601,"is_reserved":false,"is_disabled":false,"rental_uris":{"android":"levelo://app?vid=9eb6738d-486c-4d0a-88f4-70b8d81983d1","ios":"levelo://app?vid=9eb6738d-486c-4d0a-88f4-70b8d81983d1"},"vehicle_type_id":"4","last_reported":1744989031,"current_range_meters":16800,"station_id":"st_cvj6r9ubvosntc0bgbag","pricing_plan_id":"cebpf4jnsgd1na2vs0mg"},{"bike_id":"76b12a50-6bf7-4c76-bfaf-fb2a46479633","system_id":"levelo_inurba_marseille","lat":43.28424,"lon":5.3499,"is_reserved":false,"is_disabled":false,"rental_uris":{"android":"levelo://app?vid=76b12a50-6bf7-4c76-bfaf-fb2a46479633","ios":"levelo://app?vid=76b12a50-6bf7-4c76-bfaf-fb2a46479633"},"vehicle_type_id":"4","last_reported":1744989031,"current_range_meters":16800,"station_id":"ce4bhbh2rcd13ifvqepg","pricing_plan_id":"cebpf4jnsgd1na2vs0mg"},{"bike_id":"23cc3c21-39d5-401a-998d-6365ef24751a","system_id":"levelo_inurba_marseille","lat":43.2294,"lon":5.35389,"is_reserved":false,"is_disabled":false,"rental_uris":{"android":"levelo://app?vid=23cc3c21-39d5-401a-998d-6365ef24751a","ios":"levelo://app?vid=23cc3c21-39d5-401a-998d-6365ef24751a"},"vehicle_type_id":"4","last_reported":1744989031,"current_range_meters":16800,"station_id":"cpo3532slgdg3j2ikp40","pricing_plan_id":"cebpf4jnsgd1na2vs0mg"},{"bike_id":"1c6b405e-a6e9-4388-9a5d-d49acd0edafe","system_id":"levelo_inurba_marseille","lat":43.28618,"lon":5.35102,"is_reserved":false,"is_disabled":false,"rental_uris":{"android":"levelo://app?vid=1c6b405e-a6e9-4388-9a5d-d49acd0edafe","ios":"levelo://app?vid=1c6b405e-a6e9-4388-9a5d-d49acd0edafe"},"vehicle_type_id":"4","last_reported":1744989031,"current_range_meters":16800,"station_id":"ce4bhch2rcd13ifvqeug","pricing_plan_id":"cebpf4jnsgd1na2vs0mg"},{"bike_id":"9f45b2bf-53d1-4e39-9a64-fb391bdbd395","system_id":"levelo_inurba_marseille","lat":43.33744,"lon":5.39191,"is_reserved":false,"is_disabled":false,"rental_uris":{"android":"levelo://app?vid=9f45b2bf-53d1-4e39-9a64-fb391bdbd395","ios":"levelo://app?vid=9f45b2bf-53d1-4e39-9a64-fb391bdbd395"},"vehicle_type_id":"4","last_reported":1744989031,"current_range_meters":17200,"station_id":"ce4bhr92rcd13ifvqhsg","pricing_plan_id":"cebpf4jnsgd1na2vs0mg"},{"bike_id":"d04f642a-edd9-4995-88ac-6c25a898d63c","system_id":"levelo_inurba_marseille","lat":43.28566,"lon":5.39491,"is_reserved":false,"is_disabled":false,"rental_uris":{"android":"levelo://app?vid=d04f642a-edd9-4995-88ac-6c25a898d63c","ios":"levelo://app?vid=d04f642a-edd9-4995-88ac-6c25a898d63c"},"vehicle_type_id":"4","last_reported":1744989031,"current_range_meters":17200,"station_id":"ce4bh292rcd13ifvqdg0","pricing_plan_id":"cebpf4jnsgd1na2vs0mg"},{"bike_id":"609ff92a-ccc3-48b9-97bb-cd37562323cb","system_id":"levelo_inurba_marseille","lat":43.30121,"lon":5.38808,"is_reserved":false,"is_disabled":false,"rental_uris":{"android":"levelo://app?vid=609ff92a-ccc3-48b9-97bb-cd37562323cb","ios":"levelo://app?vid=609ff92a-ccc3-48b9-97bb-cd37562323cb"},"vehicle_type_id":"4","last_reported":1744989031,"current_range_meters":17200,"station_id":"ce4bghh2rcd13ifvqb60","pricing_plan_id":"cebpf4jnsgd1na2vs0mg"},{"bike_id":"7b967bc8-cd7c-4b1a-91d8-64ec43795f16","system_id":"levelo_inurba_marseille","lat":43.30876,"lon":5.39654,"is_reserved":false,"is_disabled":false,"rental_uris":{"android":"levelo://app?vid=7b967bc8-cd7c-4b1a-91d8-64ec43795f16","ios":"levelo://app?vid=7b967bc8-cd7c-4b1a-91d8-64ec43795f16"},"vehicle_type_id":"4","last_reported":1744989031,"current_range_meters":16800,"station_id":"ce4bh012rcd13ifvqcv0","pricing_plan_id":"cebpf4jnsgd1na2vs0mg"},{"bike_id":"aea2afb6-112e-4c3a-968a-5eb5aa77e9be","system_id":"levelo_inurba_marseille","lat":43.21188,"lon":5.3507,"is_reserved":false,"is_disabled":false,"rental_uris":{"android":"levelo://app?vid=aea2afb6-112e-4c3a-968a-5eb5aa77e9be","ios":"levelo://app?vid=aea2afb6-112e-4c3a-968a-5eb5aa77e9be"},"vehicle_type_id":"4","last_reported":1744989031,"current_range_meters":17200,"station_id":"st_cvj6sg6p6f1abm77japg","pricing_plan_id":"cebpf4jnsgd1na2vs0mg"},{"bike_id":"82a001e1-327f-4a58-b355-bcf2e1a86bf6","system_id":"levelo_inurba_marseille","lat":43.30924,"lon":5.36708,"is_reserved":false,"is_disabled":false,"rental_uris":{"android":"levelo://app?vid=82a001e1-327f-4a58-b355-bcf2e1a86bf6","ios":"levelo://app?vid=82a001e1-327f-4a58-b355-bcf2e1a86bf6"},"vehicle_type_id":"4","last_reported":1744989031,"current_range_meters":17200,"station_id":"","pricing_plan_id":"cebpf4jnsgd1na2vs0mg"},{"bike_id":"d16a9acc-cc2c-485b-92cb-781662e1c8a4","system_id":"levelo_inurba_marseille","lat":43.279341,"lon":5.38764,"is_reserved":false,"is_disabled":false,"rental_uris":{"android":"levelo://app?vid=d16a9acc-cc2c-485b-92cb-781662e1c8a4","ios":"levelo://app?vid=d16a9acc-cc2c-485b-92cb-781662e1c8a4"},"vehicle_type_id":"4","last_reported":1744989031,"current_range_meters":17200,"station_id":"ce4bhg12rcd13ifvqf80","pricing_plan_id":"cebpf4jnsgd1na2vs0mg"},{"bike_id":"bcbc35a1-0945-4c01-81b9-a171bf137dc2","system_id":"levelo_inurba_marseille","lat":43.27419,"lon":5.39409,"is_reserved":false,"is_disabled":false,"rental_uris":{"android":"levelo://app?vid=bcbc35a1-0945-4c01-81b9-a171bf137dc2","ios":"levelo://app?vid=bcbc35a1-0945-4c01-81b9-a171bf137dc2"},"vehicle_type_id":"4","last_reported":1744989031,"current_range_meters":17200,"station_id":"ce4bhdp2rcd13ifvqf20","pricing_plan_id":"cebpf4jnsgd1na2vs0mg"},{"bike_id":"e647a100-ad43-417d-8dff-e993a072fcbd","system_id":"levelo_inurba_marseille","lat":43.28618,"lon":5.35097,"is_reserved":false,"is_disabled":false,"rental_uris":{"android":"levelo://app?vid=e647a100-ad43-417d-8dff-e993a072fcbd","ios":"levelo://app?vid=e647a100-ad43-417d-8dff-e993a072fcbd"},"vehicle_type_id":"4","last_reported":1744989031,"current_range_meters":17200,"station_id":"ce4bhch2rcd13ifvqeug","pricing_plan_id":"cebpf4jnsgd1na2vs0mg"},{"bike_id":"5a006567-376a-4b87-a5f2-673369123e53","system_id":"levelo_inurba_marseille","lat":43.29019,"lon":5.3559,"is_reserved":false,"is_disabled":false,"rental_uris":{"android":"levelo://app?vid=5a006567-376a-4b87-a5f2-673369123e53","ios":"levelo://app?vid=5a006567-376a-4b87-a5f2-673369123e53"},"vehicle_type_id":"4","last_reported":1744989031,"current_range_meters":17200,"station_id":"ce4bhb92rcd13ifvqen0","pricing_plan_id":"cebpf4jnsgd1na2vs0mg"},{"bike_id":"846231f6-6953-4ff8-b8a5-3a085f1dbb55","system_id":"levelo_inurba_marseille","lat":43.29891,"lon":5.43677,"is_reserved":false,"is_disabled":false,"rental_uris":{"android":"levelo://app?vid=846231f6-6953-4ff8-b8a5-3a085f1dbb55","ios":"levelo://app?vid=846231f6-6953-4ff8-b8a5-3a085f1dbb55"},"vehicle_type_id":"4","last_reported":1744989031,"current_range_meters":17200,"station_id":"ce4bhpp2rcd13ifvqhfg","pricing_plan_id":"cebpf4jnsgd1na2vs0mg"},{"bike_id":"59a3749f-f32e-467f-903e-59fc01831bd8","system_id":"levelo_inurba_marseille","lat":43.29081,"lon":5.35936,"is_reserved":false,"is_disabled":false,"rental_uris":{"android":"levelo://app?vid=59a3749f-f32e-467f-903e-59fc01831bd8","ios":"levelo://app?vid=59a3749f-f32e-467f-903e-59fc01831bd8"},"vehicle_type_id":"4","last_reported":1744989031,"current_range_meters":17200,"station_id":"ce4bha92rcd13ifvqeg0","pricing_plan_id":"cebpf4jnsgd1na2vs0mg"},{"bike_id":"a6f66633-ac5e-4faa-88be-0d46a83a9724","system_id":"levelo_inurba_marseille","lat":43.23193,"lon":5.35551,"is_reserved":false,"is_disabled":false,"rental_uris":{"android":"levelo://app?vid=a6f66633-ac5e-4faa-88be-0d46a83a9724","ios":"levelo://app?vid=a6f66633-ac5e-4faa-88be-0d46a83a9724"},"vehicle_type_id":"4","last_reported":1744989031,"current_range_meters":17600,"station_id":"ce4bhu92rcd13ifvqi70","pricing_plan_id":"cebpf4jnsgd1na2vs0mg"},{"bike_id":"343406d9-08d9-46fe-b35a-6f875b542c07","system_id":"levelo_inurba_marseille","lat":43.23055,"lon":5.35496,"is_reserved":false,"is_disabled":true,"rental_uris":{"android":"levelo://app?vid=343406d9-08d9-46fe-b35a-6f875b542c07","ios":"levelo://app?vid=343406d9-08d9-46fe-b35a-6f875b542c07"},"vehicle_type_id":"4","last_reported":1744989031,"current_range_meters":17600,"station_id":"cpo3342slgdg3j2ifvpg","pricing_plan_id":"cebpf4jnsgd1na2vs0mg"},{"bike_id":"3341928e-b00a-43a6-95a8-9dda3323d4e0","system_id":"levelo_inurba_marseille","lat":43.29229,"lon":5.36072,"is_reserved":false,"is_disabled":false,"rental_uris":{"android":"levelo://app?vid=3341928e-b00a-43a6-95a8-9dda3323d4e0","ios":"levelo://app?vid=3341928e-b00a-43a6-95a8-9dda3323d4e0"},"vehicle_type_id":"4","last_reported":1744989031,"current_range_meters":17600,"station_id":"ce4bhbh2rcd13ifvqeqg","pricing_plan_id":"cebpf4jnsgd1na2vs0mg"},{"bike_id":"ecfe3825-7b8e-4541-af90-e09302bcd621","system_id":"levelo_inurba_marseille","lat":43.29418,"lon":5.38634,"is_reserved":false,"is_disabled":false,"rental_uris":{"android":"levelo://app?vid=ecfe3825-7b8e-4541-af90-e09302bcd621","ios":"levelo://app?vid=ecfe3825-7b8e-4541-af90-e09302bcd621"},"vehicle_type_id":"4","last_reported":1744989031,"current_range_meters":17600,"station_id":"ce4bh2h2rcd13ifvqdh0","pricing_plan_id":"cebpf4jnsgd1na2vs0mg"},{"bike_id":"4d6bfda2-255f-4fbd-a4d0-01729b23cce3","system_id":"levelo_inurba_marseille","lat":43.23195,"lon":5.35551,"is_reserved":false,"is_disabled":false,"rental_uris":{"android":"levelo://app?vid=4d6bfda2-255f-4fbd-a4d0-01729b23cce3","ios":"levelo://app?vid=4d6bfda2-255f-4fbd-a4d0-01729b23cce3"},"vehicle_type_id":"4","last_reported":1744989031,"current_range_meters":17600,"station_id":"ce4bhu92rcd13ifvqi70","pricing_plan_id":"cebpf4jnsgd1na2vs0mg"},{"bike_id":"47ac335a-36e2-49e7-abe4-1428c8083e35","system_id":"levelo_inurba_marseille","lat":43.22935,"lon":5.35386,"is_reserved":false,"is_disabled":false,"rental_uris":{"android":"levelo://app?vid=47ac335a-36e2-49e7-abe4-1428c8083e35","ios":"levelo://app?vid=47ac335a-36e2-49e7-abe4-1428c8083e35"},"vehicle_type_id":"4","last_reported":1744989031,"current_range_meters":17600,"station_id":"cpo3532slgdg3j2ikp40","pricing_plan_id":"cebpf4jnsgd1na2vs0mg"},{"bike_id":"bb9cc5b6-0c7a-4871-8383-15ba04455dec","system_id":"levelo_inurba_marseille","lat":43.29898,"lon":5.43654,"is_reserved":false,"is_disabled":false,"rental_uris":{"android":"levelo://app?vid=bb9cc5b6-0c7a-4871-8383-15ba04455dec","ios":"levelo://app?vid=bb9cc5b6-0c7a-4871-8383-15ba04455dec"},"vehicle_type_id":"4","last_reported":1744989031,"current_range_meters":18000,"station_id":"ce4bhpp2rcd13ifvqhfg","pricing_plan_id":"cebpf4jnsgd1na2vs0mg"},{"bike_id":"57e4bf49-afd3-40be-be28-f9c625a8dbad","system_id":"levelo_inurba_marseille","lat":43.27375,"lon":5.36249,"is_reserved":false,"is_disabled":true,"rental_uris":{"android":"levelo://app?vid=57e4bf49-afd3-40be-be28-f9c625a8dbad","ios":"levelo://app?vid=57e4bf49-afd3-40be-be28-f9c625a8dbad"},"vehicle_type_id":"4","last_reported":1744989031,"current_range_meters":18000,"station_id":"ce4bhbh2rcd13ifvqeo0","pricing_plan_id":"cebpf4jnsgd1na2vs0mg"},{"bike_id":"826f8409-4260-4723-8f51-c39fbf040b5b","system_id":"levelo_inurba_marseille","lat":43.291965,"lon":5.357998,"is_reserved":false,"is_disabled":false,"rental_uris":{"android":"levelo://app?vid=826f8409-4260-4723-8f51-c39fbf040b5b","ios":"levelo://app?vid=826f8409-4260-4723-8f51-c39fbf040b5b"},"vehicle_type_id":"4","last_reported":1744989031,"current_range_meters":18000,"station_id":"ce4bhb12rcd13ifvqel0","pricing_plan_id":"cebpf4jnsgd1na2vs0mg"},{"bike_id":"270152e4-99c4-4ca8-bc7a-87b59b88733c","system_id":"levelo_inurba_marseille","lat":43.29517,"lon":5.39403,"is_reserved":false,"is_disabled":false,"rental_uris":{"android":"levelo://app?vid=270152e4-99c4-4ca8-bc7a-87b59b88733c","ios":"levelo://app?vid=270152e4-99c4-4ca8-bc7a-87b59b88733c"},"vehicle_type_id":"4","last_reported":1744989031,"current_range_meters":18000,"station_id":"ce4bh292rcd13ifvqdf0","pricing_plan_id":"cebpf4jnsgd1na2vs0mg"},{"bike_id":"24213b37-b766-4d9c-a174-f6bf34920497","system_id":"levelo_inurba_marseille","lat":43.28469,"lon":5.384178,"is_reserved":false,"is_disabled":false,"rental_uris":{"android":"levelo://app?vid=24213b37-b766-4d9c-a174-f6bf34920497","ios":"levelo://app?vid=24213b37-b766-4d9c-a174-f6bf34920497"},"vehicle_type_id":"4","last_reported":1744989031,"current_range_meters":18000,"station_id":"ce4bh512rcd13ifvqe3g","pricing_plan_id":"cebpf4jnsgd1na2vs0mg"},{"bike_id":"17de6571-3c1c-4621-995b-d445cb9c6f14","system_id":"levelo_inurba_marseille","lat":43.211932,"lon":5.350755,"is_reserved":false,"is_disabled":false,"rental_uris":{"android":"levelo://app?vid=17de6571-3c1c-4621-995b-d445cb9c6f14","ios":"levelo://app?vid=17de6571-3c1c-4621-995b-d445cb9c6f14"},"vehicle_type_id":"4","last_reported":1744989031,"current_range_meters":18000,"station_id":"st_cvj6sg6p6f1abm77japg","pricing_plan_id":"cebpf4jnsgd1na2vs0mg"},{"bike_id":"4755e580-9f77-45ee-9108-beab285665ef","system_id":"levelo_inurba_marseille","lat":43.255875,"lon":5.382365,"is_reserved":false,"is_disabled":true,"rental_uris":{"android":"levelo://app?vid=4755e580-9f77-45ee-9108-beab285665ef","ios":"levelo://app?vid=4755e580-9f77-45ee-9108-beab285665ef"},"vehicle_type_id":"4","last_reported":1744989031,"current_range_meters":18000,"station_id":"ce4bhih2rcd13ifvqfs0","pricing_plan_id":"cebpf4jnsgd1na2vs0mg"},{"bike_id":"032ddc9d-7fa0-4911-998b-15e8eb1243e2","system_id":"levelo_inurba_marseille","lat":43.25492,"lon":5.37653,"is_reserved":false,"is_disabled":false,"rental_uris":{"android":"levelo://app?vid=032ddc9d-7fa0-4911-998b-15e8eb1243e2","ios":"levelo://app?vid=032ddc9d-7fa0-4911-998b-15e8eb1243e2"},"vehicle_type_id":"4","last_reported":1744989031,"current_range_meters":18000,"station_id":"ce4bhh12rcd13ifvqff0","pricing_plan_id":"cebpf4jnsgd1na2vs0mg"},{"bike_id":"1236472b-a17e-4afb-8e47-07a8e4eb9505","system_id":"levelo_inurba_marseille","lat":43.30254,"lon":5.37717,"is_reserved":false,"is_disabled":false,"rental_uris":{"android":"levelo://app?vid=1236472b-a17e-4afb-8e47-07a8e4eb9505","ios":"levelo://app?vid=1236472b-a17e-4afb-8e47-07a8e4eb9505"},"vehicle_type_id":"4","last_reported":1744989031,"current_range_meters":18000,"station_id":"ce4bguh2rcd13ifvqcj0","pricing_plan_id":"cebpf4jnsgd1na2vs0mg"},{"bike_id":"5c87a66e-a468-4c06-bf6a-016059f2b476","system_id":"levelo_inurba_marseille","lat":43.22928,"lon":5.35369,"is_reserved":false,"is_disabled":false,"rental_uris":{"android":"levelo://app?vid=5c87a66e-a468-4c06-bf6a-016059f2b476","ios":"levelo://app?vid=5c87a66e-a468-4c06-bf6a-016059f2b476"},"vehicle_type_id":"4","last_reported":1744989031,"current_range_meters":18000,"station_id":"cpo3532slgdg3j2ikp40","pricing_plan_id":"cebpf4jnsgd1na2vs0mg"},{"bike_id":"495ec7dc-d3f4-41e4-bf12-3060fa793f35","system_id":"levelo_inurba_marseille","lat":43.28425,"lon":5.35013,"is_reserved":false,"is_disabled":false,"rental_uris":{"android":"levelo://app?vid=495ec7dc-d3f4-41e4-bf12-3060fa793f35","ios":"levelo://app?vid=495ec7dc-d3f4-41e4-bf12-3060fa793f35"},"vehicle_type_id":"4","last_reported":1744989031,"current_range_meters":18000,"station_id":"ce4bhbh2rcd13ifvqepg","pricing_plan_id":"cebpf4jnsgd1na2vs0mg"},{"bike_id":"62c70e33-2889-43ca-9253-072649cefa64","system_id":"levelo_inurba_marseille","lat":43.289323,"lon":5.36627,"is_reserved":false,"is_disabled":false,"rental_uris":{"android":"levelo://app?vid=62c70e33-2889-43ca-9253-072649cefa64","ios":"levelo://app?vid=62c70e33-2889-43ca-9253-072649cefa64"},"vehicle_type_id":"4","last_reported":1744989031,"current_range_meters":18000,"station_id":"ce4bhap2rcd13ifvqek0","pricing_plan_id":"cebpf4jnsgd1na2vs0mg"},{"bike_id":"6c7fbf5d-f1b2-4340-9ca8-f93c44a601e5","system_id":"levelo_inurba_marseille","lat":43.27839,"lon":5.39205,"is_reserved":false,"is_disabled":false,"rental_uris":{"android":"levelo://app?vid=6c7fbf5d-f1b2-4340-9ca8-f93c44a601e5","ios":"levelo://app?vid=6c7fbf5d-f1b2-4340-9ca8-f93c44a601e5"},"vehicle_type_id":"4","last_reported":1744989031,"current_range_meters":18000,"station_id":"ce4bhjp2rcd13ifvqga0","pricing_plan_id":"cebpf4jnsgd1na2vs0mg"},{"bike_id":"43570d96-87af-421c-a453-632927f4ef3b","system_id":"levelo_inurba_marseille","lat":43.28615,"lon":5.35078,"is_reserved":false,"is_disabled":false,"rental_uris":{"android":"levelo://app?vid=43570d96-87af-421c-a453-632927f4ef3b","ios":"levelo://app?vid=43570d96-87af-421c-a453-632927f4ef3b"},"vehicle_type_id":"4","last_reported":1744989031,"current_range_meters":18000,"station_id":"ce4bhch2rcd13ifvqeug","pricing_plan_id":"cebpf4jnsgd1na2vs0mg"},{"bike_id":"f1f5522f-34ca-4e87-857c-4768eb8d1176","system_id":"levelo_inurba_marseille","lat":43.29417,"lon":5.38625,"is_reserved":false,"is_disabled":false,"rental_uris":{"android":"levelo://app?vid=f1f5522f-34ca-4e87-857c-4768eb8d1176","ios":"levelo://app?vid=f1f5522f-34ca-4e87-857c-4768eb8d1176"},"vehicle_type_id":"4","last_reported":1744989031,"current_range_meters":18000,"station_id":"ce4bh2h2rcd13ifvqdh0","pricing_plan_id":"cebpf4jnsgd1na2vs0mg"},{"bike_id":"44dbdd80-1aea-4722-9a3a-cd7884f029a6","system_id":"levelo_inurba_marseille","lat":43.30439,"lon":5.38888,"is_reserved":false,"is_disabled":false,"rental_uris":{"android":"levelo://app?vid=44dbdd80-1aea-4722-9a3a-cd7884f029a6","ios":"levelo://app?vid=44dbdd80-1aea-4722-9a3a-cd7884f029a6"},"vehicle_type_id":"4","last_reported":1744989031,"current_range_meters":18000,"station_id":"ce4bgk12rcd13ifvqbi0","pricing_plan_id":"cebpf4jnsgd1na2vs0mg"},{"bike_id":"d05b7cc4-f88b-4d02-ae6c-c344f22c0e5c","system_id":"levelo_inurba_marseille","lat":43.29776,"lon":5.36541,"is_reserved":false,"is_disabled":false,"rental_uris":{"android":"levelo://app?vid=d05b7cc4-f88b-4d02-ae6c-c344f22c0e5c","ios":"levelo://app?vid=d05b7cc4-f88b-4d02-ae6c-c344f22c0e5c"},"vehicle_type_id":"4","last_reported":1744989031,"current_range_meters":18800,"station_id":"","pricing_plan_id":"cebpf4jnsgd1na2vs0mg"},{"bike_id":"78558f54-6a69-4897-89aa-fb2354a7c673","system_id":"levelo_inurba_marseille","lat":43.217431,"lon":5.346064,"is_reserved":false,"is_disabled":true,"rental_uris":{"android":"levelo://app?vid=78558f54-6a69-4897-89aa-fb2354a7c673","ios":"levelo://app?vid=78558f54-6a69-4897-89aa-fb2354a7c673"},"vehicle_type_id":"4","last_reported":1744989031,"current_range_meters":18800,"station_id":"","pricing_plan_id":"cebpf4jnsgd1na2vs0mg"},{"bike_id":"36252537-d0a3-4f3f-93cb-812937dfce87","system_id":"levelo_inurba_marseille","lat":43.28431,"lon":5.35,"is_reserved":false,"is_disabled":false,"rental_uris":{"android":"levelo://app?vid=36252537-d0a3-4f3f-93cb-812937dfce87","ios":"levelo://app?vid=36252537-d0a3-4f3f-93cb-812937dfce87"},"vehicle_type_id":"4","last_reported":1744989031,"current_range_meters":18800,"station_id":"ce4bhbh2rcd13ifvqepg","pricing_plan_id":"cebpf4jnsgd1na2vs0mg"},{"bike_id":"0129a5c5-b024-4c97-a929-38196979ab76","system_id":"levelo_inurba_marseille","lat":43.30552,"lon":5.36551,"is_reserved":false,"is_disabled":false,"rental_uris":{"android":"levelo://app?vid=0129a5c5-b024-4c97-a929-38196979ab76","ios":"levelo://app?vid=0129a5c5-b024-4c97-a929-38196979ab76"},"vehicle_type_id":"4","last_reported":1744989031,"current_range_meters":18000,"station_id":"ce4bgs12rcd13ifvqcag","pricing_plan_id":"cebpf4jnsgd1na2vs0mg"},{"bike_id":"23b9fbc9-9805-4554-9bfd-95c031537047","system_id":"levelo_inurba_marseille","lat":43.28419,"lon":5.34973,"is_reserved":false,"is_disabled":false,"rental_uris":{"android":"levelo://app?vid=23b9fbc9-9805-4554-9bfd-95c031537047","ios":"levelo://app?vid=23b9fbc9-9805-4554-9bfd-95c031537047"},"vehicle_type_id":"4","last_reported":1744989031,"current_range_meters":18800,"station_id":"ce4bhbh2rcd13ifvqepg","pricing_plan_id":"cebpf4jnsgd1na2vs0mg"},{"bike_id":"3ba58bc6-b3c1-4c63-9a5f-3df14eaa208c","system_id":"levelo_inurba_marseille","lat":43.27443,"lon":5.36211,"is_reserved":false,"is_disabled":false,"rental_uris":{"android":"levelo://app?vid=3ba58bc6-b3c1-4c63-9a5f-3df14eaa208c","ios":"levelo://app?vid=3ba58bc6-b3c1-4c63-9a5f-3df14eaa208c"},"vehicle_type_id":"4","last_reported":1744989031,"current_range_meters":18800,"station_id":"","pricing_plan_id":"cebpf4jnsgd1na2vs0mg"},{"bike_id":"49daa281-6170-46a5-9b8d-dbbaaaced2b2","system_id":"levelo_inurba_marseille","lat":43.30942,"lon":5.40141,"is_reserved":false,"is_disabled":false,"rental_uris":{"android":"levelo://app?vid=49daa281-6170-46a5-9b8d-dbbaaaced2b2","ios":"levelo://app?vid=49daa281-6170-46a5-9b8d-dbbaaaced2b2"},"vehicle_type_id":"4","last_reported":1744989031,"current_range_meters":18800,"station_id":"ce4bgvp2rcd13ifvqct0","pricing_plan_id":"cebpf4jnsgd1na2vs0mg"},{"bike_id":"95843000-b16d-4522-bbcb-6a71b4f5d124","system_id":"levelo_inurba_marseille","lat":43.2738,"lon":5.36244,"is_reserved":false,"is_disabled":false,"rental_uris":{"android":"levelo://app?vid=95843000-b16d-4522-bbcb-6a71b4f5d124","ios":"levelo://app?vid=95843000-b16d-4522-bbcb-6a71b4f5d124"},"vehicle_type_id":"4","last_reported":1744989031,"current_range_meters":19200,"station_id":"ce4bhbh2rcd13ifvqeo0","pricing_plan_id":"cebpf4jnsgd1na2vs0mg"},{"bike_id":"4648ad19-5d58-4ce4-8696-d79d0bf833f5","system_id":"levelo_inurba_marseille","lat":43.27371,"lon":5.36238,"is_reserved":false,"is_disabled":false,"rental_uris":{"android":"levelo://app?vid=4648ad19-5d58-4ce4-8696-d79d0bf833f5","ios":"levelo://app?vid=4648ad19-5d58-4ce4-8696-d79d0bf833f5"},"vehicle_type_id":"4","last_reported":1744989031,"current_range_meters":19200,"station_id":"ce4bhbh2rcd13ifvqeo0","pricing_plan_id":"cebpf4jnsgd1na2vs0mg"},{"bike_id":"1fad1949-da2d-4b93-9386-de1f3dc78d1f","system_id":"levelo_inurba_marseille","lat":43.306027,"lon":5.39357,"is_reserved":false,"is_disabled":true,"rental_uris":{"android":"levelo://app?vid=1fad1949-da2d-4b93-9386-de1f3dc78d1f","ios":"levelo://app?vid=1fad1949-da2d-4b93-9386-de1f3dc78d1f"},"vehicle_type_id":"4","last_reported":1744989031,"current_range_meters":19200,"station_id":"ce4bh0p2rcd13ifvqd80","pricing_plan_id":"cebpf4jnsgd1na2vs0mg"},{"bike_id":"b53f76df-bc85-4b46-87aa-89bdeaa30c7f","system_id":"levelo_inurba_marseille","lat":43.23184,"lon":5.39988,"is_reserved":false,"is_disabled":false,"rental_uris":{"android":"levelo://app?vid=b53f76df-bc85-4b46-87aa-89bdeaa30c7f","ios":"levelo://app?vid=b53f76df-bc85-4b46-87aa-89bdeaa30c7f"},"vehicle_type_id":"4","last_reported":1744989031,"current_range_meters":19200,"station_id":"ce4bhn12rcd13ifvqgqg","pricing_plan_id":"cebpf4jnsgd1na2vs0mg"},{"bike_id":"8e4d627d-4ad6-4749-8fcf-601dbabcc81f","system_id":"levelo_inurba_marseille","lat":43.284971,"lon":5.359573,"is_reserved":false,"is_disabled":false,"rental_uris":{"android":"levelo://app?vid=8e4d627d-4ad6-4749-8fcf-601dbabcc81f","ios":"levelo://app?vid=8e4d627d-4ad6-4749-8fcf-601dbabcc81f"},"vehicle_type_id":"4","last_reported":1744989031,"current_range_meters":19200,"station_id":"ce4bhah2rcd13ifvqei0","pricing_plan_id":"cebpf4jnsgd1na2vs0mg"},{"bike_id":"6567e028-fdc0-422e-b54d-669baed5d6fe","system_id":"levelo_inurba_marseille","lat":43.217429,"lon":5.34606,"is_reserved":false,"is_disabled":false,"rental_uris":{"android":"levelo://app?vid=6567e028-fdc0-422e-b54d-669baed5d6fe","ios":"levelo://app?vid=6567e028-fdc0-422e-b54d-669baed5d6fe"},"vehicle_type_id":"4","last_reported":1744989031,"current_range_meters":19200,"station_id":"st_cvj6r9ubvosntc0bgbag","pricing_plan_id":"cebpf4jnsgd1na2vs0mg"},{"bike_id":"4ac5840b-0fde-41ee-b123-1488084f6d21","system_id":"levelo_inurba_marseille","lat":43.28938,"lon":5.36637,"is_reserved":false,"is_disabled":false,"rental_uris":{"android":"levelo://app?vid=4ac5840b-0fde-41ee-b123-1488084f6d21","ios":"levelo://app?vid=4ac5840b-0fde-41ee-b123-1488084f6d21"},"vehicle_type_id":"4","last_reported":1744989031,"current_range_meters":19200,"station_id":"ce4bhap2rcd13ifvqek0","pricing_plan_id":"cebpf4jnsgd1na2vs0mg"},{"bike_id":"dec8c5f8-bd35-4e5b-bb81-7c4aebcbfecc","system_id":"levelo_inurba_marseille","lat":43.280357,"lon":5.369482,"is_reserved":false,"is_disabled":false,"rental_uris":{"android":"levelo://app?vid=dec8c5f8-bd35-4e5b-bb81-7c4aebcbfecc","ios":"levelo://app?vid=dec8c5f8-bd35-4e5b-bb81-7c4aebcbfecc"},"vehicle_type_id":"4","last_reported":1744989031,"current_range_meters":19600,"station_id":"","pricing_plan_id":"cebpf4jnsgd1na2vs0mg"},{"bike_id":"87416e5b-2590-49a7-ada6-1b6e34b97726","system_id":"levelo_inurba_marseille","lat":43.309264,"lon":5.401431,"is_reserved":false,"is_disabled":false,"rental_uris":{"android":"levelo://app?vid=87416e5b-2590-49a7-ada6-1b6e34b97726","ios":"levelo://app?vid=87416e5b-2590-49a7-ada6-1b6e34b97726"},"vehicle_type_id":"4","last_reported":1744989031,"current_range_meters":19600,"station_id":"ce4bgvp2rcd13ifvqct0","pricing_plan_id":"cebpf4jnsgd1na2vs0mg"},{"bike_id":"e497ecd0-c1d8-4c07-9c6f-e8d453edcc68","system_id":"levelo_inurba_marseille","lat":43.28611,"lon":5.37068,"is_reserved":false,"is_disabled":false,"rental_uris":{"android":"levelo://app?vid=e497ecd0-c1d8-4c07-9c6f-e8d453edcc68","ios":"levelo://app?vid=e497ecd0-c1d8-4c07-9c6f-e8d453edcc68"},"vehicle_type_id":"4","last_reported":1744989031,"current_range_meters":19200,"station_id":"ce4bht12rcd13ifvqi60","pricing_plan_id":"cebpf4jnsgd1na2vs0mg"},{"bike_id":"017e587c-cbb7-4d38-b820-0c2e9b7001b2","system_id":"levelo_inurba_marseille","lat":43.27986,"lon":5.38743,"is_reserved":false,"is_disabled":false,"rental_uris":{"android":"levelo://app?vid=017e587c-cbb7-4d38-b820-0c2e9b7001b2","ios":"levelo://app?vid=017e587c-cbb7-4d38-b820-0c2e9b7001b2"},"vehicle_type_id":"4","last_reported":1744989031,"current_range_meters":19600,"station_id":"ce4bhg12rcd13ifvqf80","pricing_plan_id":"cebpf4jnsgd1na2vs0mg"},