{"last_updated":1693253238,"ttl":30,"version":"2.2","data":{"bikes":[{"bike_id":"dc03eea0-136c-4030-a583-1a417f3cc7b9","system_id":"levelo_inurba_marseille","lat":43.313391,"lon":5.36706,"is_reserved":false,"is_disabled":false,"rental_uris":{"android":"levelo://app?vid=dc03eea0-136c-4030-a583-1a417f3cc7b9","ios":"levelo://app?vid=dc03eea0-136c-4030-a583-1a417f3cc7b9"},"vehicle_type_id":"4","last_reported":1693253239,"current_range_meters":22000,"station_id":"ce4bgr92rcd13ifvqc6g","pricing_plan_id":"free"},{"bike_id":"7773cacc-fc7f-4dcb-b9eb-0017f00ec0e4","system_id":"levelo_inurba_marseille","lat":43.312239,"lon":5.368562,"is_reserved":false,"is_disabled":false,"rental_uris":{"android":"levelo://app?vid=7773cacc-fc7f-4dcb-b9eb-0017f00ec0e4","ios":"levelo://app?vid=7773cacc-fc7f-4dcb-b9eb-0017f00ec0e4"},"vehicle_type_id":"4","last_reported":1693253239,"current_range_meters":26400,"station_id":"ce4bgl92rcd13ifvqbq0","pricing_plan_id":"free"},{"bike_id":"336254b3-d974-48d5-bf05-8bc3540f9df2","system_id":"levelo_inurba_marseille","lat":43.312239,"lon":5.368562,"is_reserved":false,"is_disabled":false,"rental_uris":{"android":"levelo://app?vid=336254b3-d974-48d5-bf05-8bc3540f9df2","ios":"levelo://app?vid=336254b3-d974-48d5-bf05-8bc3540f9df2"},"vehicle_type_id":"4","last_reported":1693253239,"current_range_meters":23200,"station_id":"ce4bgl92rcd13ifvqbq0","pricing_plan_id":"free"},{"bike_id":"ab6702d1-9c92-4cde-aec2-a04800c1266f","system_id":"levelo_inurba_marseille","lat":43.309076,"lon":5.368465,"is_reserved":false,"is_disabled":false,"rental_uris":{"android":"levelo://app?vid=ab6702d1-9c92-4cde-aec2-a04800c1266f","ios":"levelo://app?vid=ab6702d1-9c92-4cde-aec2-a04800c1266f"},"vehicle_type_id":"4","last_reported":1693253239,"current_range_meters":2000,"station_id":"ce4bgn92rcd13ifvqbvg","pricing_plan_id":"free"},{"bike_id":"d13921d9-57c7-4958-a425-0b6aef737933","system_id":"levelo_inurba_marseille","lat":43.309076,"lon":5.368465,"is_reserved":false,"is_disabled":false,"rental_uris":{"android":"levelo://app?vid=d13921d9-57c7-4958-a425-0b6aef737933","ios":"levelo://app?vid=d13921d9-57c7-4958-a425-0b6aef737933"},"vehicle_type_id":"4","last_reported":1693253239,"current_range_meters":29200,"station_id":"ce4bgn92rcd13ifvqbvg","pricing_plan_id":"free"},{"bike_id":"8a43db73-9d46-4d00-b4f6-bba37f18b4e2","system_id":"levelo_inurba_marseille","lat":43.31402,"lon":5.37255,"is_reserved":false,"is_disabled":false,"rental_uris":{"android":"levelo://app?vid=8a43db73-9d46-4d00-b4f6-bba37f18b4e2","ios":"levelo://app?vid=8a43db73-9d46-4d00-b4f6-bba37f18b4e2"},"vehicle_type_id":"4","last_reported":1693253239,"current_range_meters":0,"station_id":"","pricing_plan_id":"free"},{"bike_id":"d2be997d-44d2-40a5-bb20-02aeaaf65fa5","system_id":"levelo_inurba_marseille","lat":43.314811,"lon":5.373103,"is_reserved":false,"is_disabled":false,"rental_uris":{"android":"levelo://app?vid=d2be997d-44d2-40a5-bb20-02aeaaf65fa5","ios":"levelo://app?vid=d2be997d-44d2-40a5-bb20-02aeaaf65fa5"},"vehicle_type_id":"4","last_reported":1693253239,"current_range_meters":31200,"station_id":"ce4bgt12rcd13ifvqcd0","pricing_plan_id":"free"},{"bike_id":"f47b32a9-4ac7-482f-ab19-aac8042a7a7b","system_id":"levelo_inurba_marseille","lat":43.309039,"lon":5.371797,"is_reserved":false,"is_disabled":false,"rental_uris":{"android":"levelo://app?vid=f47b32a9-4ac7-482f-ab19-aac8042a7a7b","ios":"levelo://app?vid=f47b32a9-4ac7-482f-ab19-aac8042a7a7b"},"vehicle_type_id":"4","last_reported":1693253239,"current_range_meters":26400,"station_id":"ce4bguh2rcd13ifvqckg","pricing_plan_id":"free"},{"bike_id":"4581d85a-382b-4241-a4b9-baccbf6c0113","system_id":"levelo_inurba_marseille","lat":43.30896,"lon":5.37203,"is_reserved":false,"is_disabled":false,"rental_uris":{"android":"levelo://app?vid=4581d85a-382b-4241-a4b9-baccbf6c0113","ios":"levelo://app?vid=4581d85a-382b-4241-a4b9-baccbf6c0113"},"vehicle_type_id":"4","last_reported":1693253239,"current_range_meters":21600,"station_id":"ce4bguh2rcd13ifvqckg","pricing_plan_id":"free"},{"bike_id":"c4457f4b-babe-411b-884c-41398d313c21","system_id":"levelo_inurba_marseille","lat":43.309039,"lon":5.371797,"is_reserved":false,"is_disabled":false,"rental_uris":{"android":"levelo://app?vid=c4457f4b-babe-411b-884c-41398d313c21","ios":"levelo://app?vid=c4457f4b-babe-411b-884c-41398d313c21"},"vehicle_type_id":"4","last_reported":1693253239,"current_range_meters":14400,"station_id":"ce4bguh2rcd13ifvqckg","pricing_plan_id":"free"},{"bike_id":"c4dcd7c4-9725-4273-bd92-522213842565","system_id":"levelo_inurba_marseille","lat":43.305368,"lon":5.367343,"is_reserved":false,"is_disabled":false,"rental_uris":{"android":"levelo://app?vid=c4dcd7c4-9725-4273-bd92-522213842565","ios":"levelo://app?vid=c4dcd7c4-9725-4273-bd92-522213842565"},"vehicle_type_id":"4","last_reported":1693253239,"current_range_meters":1600,"station_id":"ce4bgrp2rcd13ifvqc9g","pricing_plan_id":"free"},{"bike_id":"c2150bf8-79f6-4019-ae25-d26677e86e57","system_id":"levelo_inurba_marseille","lat":43.305989,"lon":5.37225,"is_reserved":false,"is_disabled":false,"rental_uris":{"android":"levelo://app?vid=c2150bf8-79f6-4019-ae25-d26677e86e57","ios":"levelo://app?vid=c2150bf8-79f6-4019-ae25-d26677e86e57"},"vehicle_type_id":"4","last_reported":1693253239,"current_range_meters":4400,"station_id":"ce4bgqh2rcd13ifvqc4g","pricing_plan_id":"free"},{"bike_id":"5c61b30f-b3e7-49cd-a9e8-b9660bda1b20","system_id":"levelo_inurba_marseille","lat":43.305989,"lon":5.37225,"is_reserved":false,"is_disabled":false,"rental_uris":{"android":"levelo://app?vid=5c61b30f-b3e7-49cd-a9e8-b9660bda1b20","ios":"levelo://app?vid=5c61b30f-b3e7-49cd-a9e8-b9660bda1b20"},"vehicle_type_id":"4","last_reported":1693253239,"current_range_meters":10800,"station_id":"ce4bgqh2rcd13ifvqc4g","pricing_plan_id":"free"},{"bike_id":"251a60f0-f979-4f28-862d-930654a8b64e","system_id":"levelo_inurba_marseille","lat":43.311125,"lon":5.377624,"is_reserved":false,"is_disabled":false,"rental_uris":{"android":"levelo://app?vid=251a60f0-f979-4f28-862d-930654a8b64e","ios":"levelo://app?vid=251a60f0-f979-4f28-862d-930654a8b64e"},"vehicle_type_id":"4","last_reported":1693253239,"current_range_meters":24400,"station_id":"ce4bgt92rcd13ifvqcg0","pricing_plan_id":"free"},{"bike_id":"810f1c49-4ba0-44e2-a63f-e6c7b72e3561","system_id":"levelo_inurba_marseille","lat":43.307945,"lon":5.376487,"is_reserved":false,"is_disabled":false,"rental_uris":{"android":"levelo://app?vid=810f1c49-4ba0-44e2-a63f-e6c7b72e3561","ios":"levelo://app?vid=810f1c49-4ba0-44e2-a63f-e6c7b72e3561"},"vehicle_type_id":"4","last_reported":1693253239,"current_range_meters":0,"station_id":"ce4bgv92rcd13ifvqcq0","pricing_plan_id":"free"},{"bike_id":"48ec8800-0fb8-4471-bd48-bbd6f8d58c85","system_id":"levelo_inurba_marseille","lat":43.31707,"lon":5.37724,"is_reserved":false,"is_disabled":false,"rental_uris":{"android":"levelo://app?vid=48ec8800-0fb8-4471-bd48-bbd6f8d58c85","ios":"levelo://app?vid=48ec8800-0fb8-4471-bd48-bbd6f8d58c85"},"vehicle_type_id":"4","last_reported":1693253239,"current_range_meters":28400,"station_id":"ce4bgth2rcd13ifvqch0","pricing_plan_id":"free"},{"bike_id":"a39a0b05-3e01-44f2-8dad-50f8a7eea39d","system_id":"levelo_inurba_marseille","lat":43.30381,"lon":5.36785,"is_reserved":false,"is_disabled":false,"rental_uris":{"android":"levelo://app?vid=a39a0b05-3e01-44f2-8dad-50f8a7eea39d","ios":"levelo://app?vid=a39a0b05-3e01-44f2-8dad-50f8a7eea39d"},"vehicle_type_id":"4","last_reported":1693253239,"current_range_meters":31600,"station_id":"","pricing_plan_id":"free"},{"bike_id":"2fd27f5c-6d50-4742-960d-64e04c7f5e38","system_id":"levelo_inurba_marseille","lat":43.30305,"lon":5.36894,"is_reserved":false,"is_disabled":false,"rental_uris":{"android":"levelo://app?vid=2fd27f5c-6d50-4742-960d-64e04c7f5e38","ios":"levelo://app?vid=2fd27f5c-6d50-4742-960d-64e04c7f5e38"},"vehicle_type_id":"4","last_reported":1693253239,"current_range_meters":1600,"station_id":"ce4bgqh2rcd13ifvqc5g","pricing_plan_id":"free"},{"bike_id":"622c7480-2f6c-44c6-9a82-56cf8b1bba1b","system_id":"levelo_inurba_marseille","lat":43.30296,"lon":5.36885,"is_reserved":false,"is_disabled":false,"rental_uris":{"android":"levelo://app?vid=622c7480-2f6c-44c6-9a82-56cf8b1bba1b","ios":"levelo://app?vid=622c7480-2f6c-44c6-9a82-56cf8b1bba1b"},"vehicle_type_id":"4","last_reported":1693253239,"current_range_meters":5600,"station_id":"ce4bgqh2rcd13ifvqc5g","pricing_plan_id":"free"},{"bike_id":"3b063b98-585d-4b19-b519-ee63184c0e7e","system_id":"levelo_inurba_marseille","lat":43.315293,"lon":5.380349,"is_reserved":false,"is_disabled":false,"rental_uris":{"android":"levelo://app?vid=3b063b98-585d-4b19-b519-ee63184c0e7e","ios":"levelo://app?vid=3b063b98-585d-4b19-b519-ee63184c0e7e"},"vehicle_type_id":"4","last_reported":1693253239,"current_range_meters":26400,"station_id":"ce4bhsp2rcd13ifvqi50","pricing_plan_id":"free"},{"bike_id":"395521b6-0f10-4f5c-a7df-71869a7ea5a2","system_id":"levelo_inurba_marseille","lat":43.32129,"lon":5.37473,"is_reserved":false,"is_disabled":false,"rental_uris":{"android":"levelo://app?vid=395521b6-0f10-4f5c-a7df-71869a7ea5a2","ios":"levelo://app?vid=395521b6-0f10-4f5c-a7df-71869a7ea5a2"},"vehicle_type_id":"4","last_reported":1693253239,"current_range_meters":20400,"station_id":"","pricing_plan_id":"free"},{"bike_id":"a95f64da-f482-4639-89d0-0f77d0a6404a","system_id":"levelo_inurba_marseille","lat":43.301939,"lon":5.366286,"is_reserved":false,"is_disabled":false,"rental_uris":{"android":"levelo://app?vid=a95f64da-f482-4639-89d0-0f77d0a6404a","ios":"levelo://app?vid=a95f64da-f482-4639-89d0-0f77d0a6404a"},"vehicle_type_id":"4","last_reported":1693253239,"current_range_meters":30400,"station_id":"ce4bgrh2rcd13ifvqc8g","pricing_plan_id":"free"},{"bike_id":"8702de8c-9247-4ffc-bf89-ff245f9494db","system_id":"levelo_inurba_marseille","lat":43.30802,"lon":5.38147,"is_reserved":false,"is_disabled":false,"rental_uris":{"android":"levelo://app?vid=8702de8c-9247-4ffc-bf89-ff245f9494db","ios":"levelo://app?vid=8702de8c-9247-4ffc-bf89-ff245f9494db"},"vehicle_type_id":"4","last_reported":1693253239,"current_range_meters":3600,"station_id":"ce4bgt12rcd13ifvqce0","pricing_plan_id":"free"},{"bike_id":"9a09df39-f74d-4161-8829-837cc3c16c83","system_id":"levelo_inurba_marseille","lat":43.31683,"lon":5.38197,"is_reserved":false,"is_disabled":false,"rental_uris":{"android":"levelo://app?vid=9a09df39-f74d-4161-8829-837cc3c16c83","ios":"levelo://app?vid=9a09df39-f74d-4161-8829-837cc3c16c83"},"vehicle_type_id":"4","last_reported":1693253239,"current_range_meters":8400,"station_id":"","pricing_plan_id":"free"},{"bike_id":"6d5e97f8-ee75-4129-b147-8d3cc82008e5","system_id":"levelo_inurba_marseille","lat":43.30799,"lon":5.38167,"is_reserved":false,"is_disabled":false,"rental_uris":{"android":"levelo://app?vid=6d5e97f8-ee75-4129-b147-8d3cc82008e5","ios":"levelo://app?vid=6d5e97f8-ee75-4129-b147-8d3cc82008e5"},"vehicle_type_id":"4","last_reported":1693253239,"current_range_meters":12000,"station_id":"ce4bgt12rcd13ifvqce0","pricing_plan_id":"free"},{"bike_id":"61547c4c-1adc-4da5-acca-c70d0cb5b22f","system_id":"levelo_inurba_marseille","lat":43.3116,"lon":5.38313,"is_reserved":false,"is_disabled":false,"rental_uris":{"android":"levelo://app?vid=61547c4c-1adc-4da5-acca-c70d0cb5b22f","ios":"levelo://app?vid=61547c4c-1adc-4da5-acca-c70d0cb5b22f"},"vehicle_type_id":"4","last_reported":1693253239,"current_range_meters":26000,"station_id":"","pricing_plan_id":"free"},{"bike_id":"c2bf51b2-eeb8-44b8-9484-141d88ddf2b1","system_id":"levelo_inurba_marseille","lat":43.31495,"lon":5.38382,"is_reserved":false,"is_disabled":false,"rental_uris":{"android":"levelo://app?vid=c2bf51b2-eeb8-44b8-9484-141d88ddf2b1","ios":"levelo://app?vid=c2bf51b2-eeb8-44b8-9484-141d88ddf2b1"},"vehicle_type_id":"4","last_reported":1693253239,"current_range_meters":5200,"station_id":"","pricing_plan_id":"free"},{"bike_id":"84b726cd-4012-4b55-9d38-7a214d830035","system_id":"levelo_inurba_marseille","lat":43.319935,"lon":5.381699,"is_reserved":false,"is_disabled":false,"rental_uris":{"android":"levelo://app?vid=84b726cd-4012-4b55-9d38-7a214d830035","ios":"levelo://app?vid=84b726cd-4012-4b55-9d38-7a214d830035"},"vehicle_type_id":"4","last_reported":1693253239,"current_range_meters":22800,"station_id":"ce4bhr12rcd13ifvqhpg","pricing_plan_id":"free"},{"bike_id":"c7f51d97-af8e-4ea7-bfc1-c04d2c0d30ef","system_id":"levelo_inurba_marseille","lat":43.313571,"lon":5.384829,"is_reserved":false,"is_disabled":false,"rental_uris":{"android":"levelo://app?vid=c7f51d97-af8e-4ea7-bfc1-c04d2c0d30ef","ios":"levelo://app?vid=c7f51d97-af8e-4ea7-bfc1-c04d2c0d30ef"},"vehicle_type_id":"4","last_reported":1693253239,"current_range_meters":13200,"station_id":"ce4bgt92rcd13ifvqcf0","pricing_plan_id":"free"},{"bike_id":"bd4738ff-e50b-4995-89e5-3353428c2ba7","system_id":"levelo_inurba_marseille","lat":43.313571,"lon":5.384829,"is_reserved":false,"is_disabled":false,"rental_uris":{"android":"levelo://app?vid=bd4738ff-e50b-4995-89e5-3353428c2ba7","ios":"levelo://app?vid=bd4738ff-e50b-4995-89e5-3353428c2ba7"},"vehicle_type_id":"4","last_reported":1693253239,"current_range_meters":4000,"station_id":"ce4bgt92rcd13ifvqcf0","pricing_plan_id":"free"},{"bike_id":"0b8da88d-c920-465d-8386-71c1bb7247d2","system_id":"levelo_inurba_marseille","lat":43.31371,"lon":5.38499,"is_reserved":false,"is_disabled":false,"rental_uris":{"android":"levelo://app?vid=0b8da88d-c920-465d-8386-71c1bb7247d2","ios":"levelo://app?vid=0b8da88d-c920-465d-8386-71c1bb7247d2"},"vehicle_type_id":"4","last_reported":1693253239,"current_range_meters":6000,"station_id":"ce4bgt92rcd13ifvqcf0","pricing_plan_id":"free"},{"bike_id":"74fee017-3e99-42eb-8609-3f58210a6fb4","system_id":"levelo_inurba_marseille","lat":43.298433,"lon":5.362774,"is_reserved":false,"is_disabled":false,"rental_uris":{"android":"levelo://app?vid=74fee017-3e99-42eb-8609-3f58210a6fb4","ios":"levelo://app?vid=74fee017-3e99-42eb-8609-3f58210a6fb4"},"vehicle_type_id":"4","last_reported":1693253239,"current_range_meters":28400,"station_id":"ce4bgpp2rcd13ifvqc3g","pricing_plan_id":"free"},{"bike_id":"ea628102-f413-4421-a451-01c3055a1ca3","system_id":"levelo_inurba_marseille","lat":43.30544,"lon":5.38432,"is_reserved":false,"is_disabled":false,"rental_uris":{"android":"levelo://app?vid=ea628102-f413-4421-a451-01c3055a1ca3","ios":"levelo://app?vid=ea628102-f413-4421-a451-01c3055a1ca3"},"vehicle_type_id":"4","last_reported":1693253239,"current_range_meters":29200,"station_id":"ce4bgg92rcd13ifvqb30","pricing_plan_id":"free"},{"bike_id":"11d9ef82-ef11-4d54-a2fc-ca553ead3c85","system_id":"levelo_inurba_marseille","lat":43.298433,"lon":5.362774,"is_reserved":false,"is_disabled":false,"rental_uris":{"android":"levelo://app?vid=11d9ef82-ef11-4d54-a2fc-ca553ead3c85","ios":"levelo://app?vid=11d9ef82-ef11-4d54-a2fc-ca553ead3c85"},"vehicle_type_id":"4","last_reported":1693253239,"current_range_meters":13600,"station_id":"ce4bgpp2rcd13ifvqc3g","pricing_plan_id":"free"},{"bike_id":"4ab4a39d-4c96-4a37-b9d7-e31fcc31aff5","system_id":"levelo_inurba_marseille","lat":43.30528,"lon":5.38425,"is_reserved":false,"is_disabled":false,"rental_uris":{"android":"levelo://app?vid=4ab4a39d-4c96-4a37-b9d7-e31fcc31aff5","ios":"levelo://app?vid=4ab4a39d-4c96-4a37-b9d7-e31fcc31aff5"},"vehicle_type_id":"4","last_reported":1693253239,"current_range_meters":21600,"station_id":"ce4bgg92rcd13ifvqb30","pricing_plan_id":"free"},{"bike_id":"2f9e2def-2173-4eb4-a460-9a385f59debe","system_id":"levelo_inurba_marseille","lat":43.299243,"lon":5.37481,"is_reserved":false,"is_disabled":false,"rental_uris":{"android":"levelo://app?vid=2f9e2def-2173-4eb4-a460-9a385f59debe","ios":"levelo://app?vid=2f9e2def-2173-4eb4-a460-9a385f59debe"},"vehicle_type_id":"4","last_reported":1693253239,"current_range_meters":31200,"station_id":"ce4bgjh2rcd13ifvqbg0","pricing_plan_id":"free"},{"bike_id":"2b80a4d7-1383-48e1-a32d-dacf873fe8ed","system_id":"levelo_inurba_marseille","lat":43.2992,"lon":5.37471,"is_reserved":false,"is_disabled":false,"rental_uris":{"android":"levelo://app?vid=2b80a4d7-1383-48e1-a32d-dacf873fe8ed","ios":"levelo://app?vid=2b80a4d7-1383-48e1-a32d-dacf873fe8ed"},"vehicle_type_id":"4","last_reported":1693253239,"current_range_meters":24000,"station_id":"ce4bgjh2rcd13ifvqbg0","pricing_plan_id":"free"},{"bike_id":"972c9a23-cc7f-4bb5-838e-e93e047df9df","system_id":"levelo_inurba_marseille","lat":43.29917,"lon":5.37466,"is_reserved":false,"is_disabled":false,"rental_uris":{"android":"levelo://app?vid=972c9a23-cc7f-4bb5-838e-e93e047df9df","ios":"levelo://app?vid=972c9a23-cc7f-4bb5-838e-e93e047df9df"},"vehicle_type_id":"4","last_reported":1693253239,"current_range_meters":27200,"station_id":"ce4bgjh2rcd13ifvqbg0","pricing_plan_id":"free"},{"bike_id":"e969ec04-95c9-4ed1-aa06-7e067acb9adf","system_id":"levelo_inurba_marseille","lat":43.29913,"lon":5.37484,"is_reserved":false,"is_disabled":false,"rental_uris":{"android":"levelo://app?vid=e969ec04-95c9-4ed1-aa06-7e067acb9adf","ios":"levelo://app?vid=e969ec04-95c9-4ed1-aa06-7e067acb9adf"},"vehicle_type_id":"4","last_reported":1693253239,"current_range_meters":4400,"station_id":"ce4bgjh2rcd13ifvqbg0","pricing_plan_id":"free"},{"bike_id":"a7075776-1bcd-4d09-8f9d-c0e7f4d3b943","system_id":"levelo_inurba_marseille","lat":43.32645,"lon":5.37487,"is_reserved":false,"is_disabled":false,"rental_uris":{"android":"levelo://app?vid=a7075776-1bcd-4d09-8f9d-c0e7f4d3b943","ios":"levelo://app?vid=a7075776-1bcd-4d09-8f9d-c0e7f4d3b943"},"vehicle_type_id":"4","last_reported":1693253239,"current_range_meters":4800,"station_id":"","pricing_plan_id":"free"},{"bike_id":"d4e3556c-5b02-439e-aade-803b11839d34","system_id":"levelo_inurba_marseille","lat":43.29815,"lon":5.37408,"is_reserved":false,"is_disabled":false,"rental_uris":{"android":"levelo://app?vid=d4e3556c-5b02-439e-aade-803b11839d34","ios":"levelo://app?vid=d4e3556c-5b02-439e-aade-803b11839d34"},"vehicle_type_id":"4","last_reported":1693253239,"current_range_meters":12000,"station_id":"","pricing_plan_id":"free"},{"bike_id":"ce156123-0603-4fff-958d-bf00d71cbf45","system_id":"levelo_inurba_marseille","lat":43.32828,"lon":5.36693,"is_reserved":false,"is_disabled":false,"rental_uris":{"android":"levelo://app?vid=ce156123-0603-4fff-958d-bf00d71cbf45","ios":"levelo://app?vid=ce156123-0603-4fff-958d-bf00d71cbf45"},"vehicle_type_id":"4","last_reported":1693253239,"current_range_meters":22800,"station_id":"ce4bhs92rcd13ifvqi0g","pricing_plan_id":"free"},{"bike_id":"bd0bd295-6ecc-40c4-a4d0-89f645593756","system_id":"levelo_inurba_marseille","lat":43.297163,"lon":5.365866,"is_reserved":false,"is_disabled":false,"rental_uris":{"android":"levelo://app?vid=bd0bd295-6ecc-40c4-a4d0-89f645593756","ios":"levelo://app?vid=bd0bd295-6ecc-40c4-a4d0-89f645593756"},"vehicle_type_id":"4","last_reported":1693253239,"current_range_meters":22800,"station_id":"ce4bgn12rcd13ifvqbt0","pricing_plan_id":"free"},{"bike_id":"dd789220-e7b5-42c1-b9dc-dc4243148021","system_id":"levelo_inurba_marseille","lat":43.297163,"lon":5.365866,"is_reserved":false,"is_disabled":false,"rental_uris":{"android":"levelo://app?vid=dd789220-e7b5-42c1-b9dc-dc4243148021","ios":"levelo://app?vid=dd789220-e7b5-42c1-b9dc-dc4243148021"},"vehicle_type_id":"4","last_reported":1693253239,"current_range_meters":31200,"station_id":"ce4bgn12rcd13ifvqbt0","pricing_plan_id":"free"},{"bike_id":"7ee05066-bcec-4bff-92b6-c145d4cf77f4","system_id":"levelo_inurba_marseille","lat":43.297163,"lon":5.365866,"is_reserved":false,"is_disabled":false,"rental_uris":{"android":"levelo://app?vid=7ee05066-bcec-4bff-92b6-c145d4cf77f4","ios":"levelo://app?vid=7ee05066-bcec-4bff-92b6-c145d4cf77f4"},"vehicle_type_id":"4","last_reported":1693253239,"current_range_meters":27200,"station_id":"ce4bgn12rcd13ifvqbt0","pricing_plan_id":"free"},{"bike_id":"f05cc9f3-36ce-4f23-8a73-5364b2763f2e","system_id":"levelo_inurba_marseille","lat":43.297163,"lon":5.365866,"is_reserved":false,"is_disabled":false,"rental_uris":{"android":"levelo://app?vid=f05cc9f3-36ce-4f23-8a73-5364b2763f2e","ios":"levelo://app?vid=f05cc9f3-36ce-4f23-8a73-5364b2763f2e"},"vehicle_type_id":"4","last_reported":1693253239,"current_range_meters":0,"station_id":"ce4bgn12rcd13ifvqbt0","pricing_plan_id":"free"},{"bike_id":"3779a692-943a-4c37-825c-533901ac2c32","system_id":"levelo_inurba_marseille","lat":43.297163,"lon":5.365866,"is_reserved":false,"is_disabled":false,"rental_uris":{"android":"levelo://app?vid=3779a692-943a-4c37-825c-533901ac2c32","ios":"levelo://app?vid=3779a692-943a-4c37-825c-533901ac2c32"},"vehicle_type_id":"4","last_reported":1693253239,"current_range_meters":21200,"station_id":"ce4bgn12rcd13ifvqbt0","pricing_plan_id":"free"},{"bike_id":"da9b975d-dc7c-456b-a260-6bb7d4a6ae42","system_id":"levelo_inurba_marseille","lat":43.29751,"lon":5.37417,"is_reserved":false,"is_disabled":false,"rental_uris":{"android":"levelo://app?vid=da9b975d-dc7c-456b-a260-6bb7d4a6ae42","ios":"levelo://app?vid=da9b975d-dc7c-456b-a260-6bb7d4a6ae42"},"vehicle_type_id":"4","last_reported":1693253239,"current_range_meters":28800,"station_id":"","pricing_plan_id":"free"},{"bike_id":"a8ebaaf9-20a4-4987-b9f6-576dc6e9faf4","system_id":"levelo_inurba_marseille","lat":43.2968,"lon":5.37291,"is_reserved":false,"is_disabled":false,"rental_uris":{"android":"levelo://app?vid=a8ebaaf9-20a4-4987-b9f6-576dc6e9faf4","ios":"levelo://app?vid=a8ebaaf9-20a4-4987-b9f6-576dc6e9faf4"},"vehicle_type_id":"4","last_reported":1693253239,"current_range_meters":14800,"station_id":"ce4bgk12rcd13ifvqbj0","pricing_plan_id":"free"},{"bike_id":"5d26e4db-c7d0-4e5b-bc24-07cf9005bc99","system_id":"levelo_inurba_marseille","lat":43.2968,"lon":5.37291,"is_reserved":false,"is_disabled":false,"rental_uris":{"android":"levelo://app?vid=5d26e4db-c7d0-4e5b-bc24-07cf9005bc99","ios":"levelo://app?vid=5d26e4db-c7d0-4e5b-bc24-07cf9005bc99"},"vehicle_type_id":"4","last_reported":1693253239,"current_range_meters":0,"station_id":"ce4bgk12rcd13ifvqbj0","pricing_plan_id":"free"},{"bike_id":"ff1cf12d-622b-413f-b013-ffc833441ffc","system_id":"levelo_inurba_marseille","lat":43.30347,"lon":5.38588,"is_reserved":false,"is_disabled":false,"rental_uris":{"android":"levelo://app?vid=ff1cf12d-622b-413f-b013-ffc833441ffc","ios":"levelo://app?vid=ff1cf12d-622b-413f-b013-ffc833441ffc"},"vehicle_type_id":"4","last_reported":1693253239,"current_range_meters":0,"station_id":"ce4bgt12rcd13ifvqce0","pricing_plan_id":"free"},{"bike_id":"6dbb40ee-f712-406e-83a7-1d9a34e25b5e","system_id":"levelo_inurba_marseille","lat":43.32835,"lon":5.37498,"is_reserved":false,"is_disabled":false,"rental_uris":{"android":"levelo://app?vid=6dbb40ee-f712-406e-83a7-1d9a34e25b5e","ios":"levelo://app?vid=6dbb40ee-f712-406e-83a7-1d9a34e25b5e"},"vehicle_type_id":"4","last_reported":1693253239,"current_range_meters":13200,"station_id":"","pricing_plan_id":"free"},{"bike_id":"65d934c8-ea94-404c-b991-a012f59c0b64","system_id":"levelo_inurba_marseille","lat":43.296129,"lon":5.370777,"is_reserved":false,"is_disabled":false,"rental_uris":{"android":"levelo://app?vid=65d934c8-ea94-404c-b991-a012f59c0b64","ios":"levelo://app?vid=65d934c8-ea94-404c-b991-a012f59c0b64"},"vehicle_type_id":"4","last_reported":1693253239,"current_range_meters":25200,"station_id":"ce4bgnh2rcd13ifvqc0g","pricing_plan_id":"free"},{"bike_id":"d3139180-8ba9-4c91-b6e4-8baae3c22113","system_id":"levelo_inurba_marseille","lat":43.296129,"lon":5.370777,"is_reserved":false,"is_disabled":false,"rental_uris":{"android":"levelo://app?vid=d3139180-8ba9-4c91-b6e4-8baae3c22113","ios":"levelo://app?vid=d3139180-8ba9-4c91-b6e4-8baae3c22113"},"vehicle_type_id":"4","last_reported":1693253239,"current_range_meters":30800,"station_id":"ce4bgnh2rcd13ifvqc0g","pricing_plan_id":"free"},{"bike_id":"590d27e3-f313-4faf-a4ab-c1959c75ba99","system_id":"levelo_inurba_marseille","lat":43.299028,"lon":5.381509,"is_reserved":false,"is_disabled":false,"rental_uris":{"android":"levelo://app?vid=590d27e3-f313-4faf-a4ab-c1959c75ba99","ios":"levelo://app?vid=590d27e3-f313-4faf-a4ab-c1959c75ba99"},"vehicle_type_id":"4","last_reported":1693253239,"current_range_meters":24800,"station_id":"ce4bgj12rcd13ifvqbc0","pricing_plan_id":"free"},{"bike_id":"4007dc98-2279-451b-8aa4-b19c89f9b2fc","system_id":"levelo_inurba_marseille","lat":43.296921,"lon":5.376579,"is_reserved":false,"is_disabled":false,"rental_uris":{"android":"levelo://app?vid=4007dc98-2279-451b-8aa4-b19c89f9b2fc","ios":"levelo://app?vid=4007dc98-2279-451b-8aa4-b19c89f9b2fc"},"vehicle_type_id":"4","last_reported":1693253239,"current_range_meters":28000,"station_id":"ce4bgkh2rcd13ifvqbl0","pricing_plan_id":"free"},{"bike_id":"c177a3aa-6504-46be-9f21-d6e014636cf1","system_id":"levelo_inurba_marseille","lat":43.299028,"lon":5.381509,"is_reserved":false,"is_disabled":false,"rental_uris":{"android":"levelo://app?vid=c177a3aa-6504-46be-9f21-d6e014636cf1","ios":"levelo://app?vid=c177a3aa-6504-46be-9f21-d6e014636cf1"},"vehicle_type_id":"4","last_reported":1693253239,"current_range_meters":9200,"station_id":"ce4bgj12rcd13ifvqbc0","pricing_plan_id":"free"},{"bike_id":"629469fa-b2d6-4db9-b9e9-98f6a3415596","system_id":"levelo_inurba_marseille","lat":43.299028,"lon":5.381509,"is_reserved":false,"is_disabled":false,"rental_uris":{"android":"levelo://app?vid=629469fa-b2d6-4db9-b9e9-98f6a3415596","ios":"levelo://app?vid=629469fa-b2d6-4db9-b9e9-98f6a3415596"},"vehicle_type_id":"4","last_reported":1693253239,"current_range_meters":14000,"station_id":"ce4bgj12rcd13ifvqbc0","pricing_plan_id":"free"},{"bike_id":"4c6e440d-4878-4ceb-a1a0-8c759d12f33b","system_id":"levelo_inurba_marseille","lat":43.309589,"lon":5.390258,"is_reserved":false,"is_disabled":false,"rental_uris":{"android":"levelo://app?vid=4c6e440d-4878-4ceb-a1a0-8c759d12f33b","ios":"levelo://app?vid=4c6e440d-4878-4ceb-a1a0-8c759d12f33b"},"vehicle_type_id":"4","last_reported":1693253239,"current_range_meters":11600,"station_id":"ce4bgup2rcd13ifvqco0","pricing_plan_id":"free"},{"bike_id":"9dd855c3-517d-4638-b4f2-4b3db7df5e0a","system_id":"levelo_inurba_marseille","lat":43.299028,"lon":5.381509,"is_reserved":false,"is_disabled":false,"rental_uris":{"android":"levelo://app?vid=9dd855c3-517d-4638-b4f2-4b3db7df5e0a","ios":"levelo://app?vid=9dd855c3-517d-4638-b4f2-4b3db7df5e0a"},"vehicle_type_id":"4","last_reported":1693253239,"current_range_meters":5200,"station_id":"ce4bgj12rcd13ifvqbc0","pricing_plan_id":"free"},{"bike_id":"146e0502-5871-4c43-a6af-3ce985b490f3","system_id":"levelo_inurba_marseille","lat":43.29849,"lon":5.38082,"is_reserved":false,"is_disabled":false,"rental_uris":{"android":"levelo://app?vid=146e0502-5871-4c43-a6af-3ce985b490f3","ios":"levelo://app?vid=146e0502-5871-4c43-a6af-3ce985b490f3"},"vehicle_type_id":"4","last_reported":1693253239,"current_range_meters":9200,"station_id":"ce4bgip2rcd13ifvqbb0","pricing_plan_id":"free"},{"bike_id":"5ab288ef-801e-4a24-80de-acb73047569d","system_id":"levelo_inurba_marseille","lat":43.317557,"lon":5.390173,"is_reserved":false,"is_disabled":false,"rental_uris":{"android":"levelo://app?vid=5ab288ef-801e-4a24-80de-acb73047569d","ios":"levelo://app?vid=5ab288ef-801e-4a24-80de-acb73047569d"},"vehicle_type_id":"4","last_reported":1693253239,"current_range_meters":20400,"station_id":"ce4bhqp2rcd13ifvqhng","pricing_plan_id":"free"},{"bike_id":"1a4092ab-a67d-4c9d-93eb-5ec308430832","system_id":"levelo_inurba_marseille","lat":43.317557,"lon":5.390173,"is_reserved":false,"is_disabled":false,"rental_uris":{"android":"levelo://app?vid=1a4092ab-a67d-4c9d-93eb-5ec308430832","ios":"levelo://app?vid=1a4092ab-a67d-4c9d-93eb-5ec308430832"},"vehicle_type_id":"4","last_reported":1693253239,"current_range_meters":25200,"station_id":"ce4bhqp2rcd13ifvqhng","pricing_plan_id":"free"},{"bike_id":"b12fcb0f-aa7d-4992-80cc-bc7a787c758a","system_id":"levelo_inurba_marseille","lat":43.317557,"lon":5.390173,"is_reserved":false,"is_disabled":false,"rental_uris":{"android":"levelo://app?vid=b12fcb0f-aa7d-4992-80cc-bc7a787c758a","ios":"levelo://app?vid=b12fcb0f-aa7d-4992-80cc-bc7a787c758a"},"vehicle_type_id":"4","last_reported":1693253239,"current_range_meters":31600,"station_id":"ce4bhqp2rcd13ifvqhng","pricing_plan_id":"free"},{"bike_id":"dfeebb66-e413-4a3e-9d46-8cfd7b31baed","system_id":"levelo_inurba_marseille","lat":43.317557,"lon":5.390173,"is_reserved":false,"is_disabled":false,"rental_uris":{"android":"levelo://app?vid=dfeebb66-e413-4a3e-9d46-8cfd7b31baed","ios":"levelo://app?vid=dfeebb66-e413-4a3e-9d46-8cfd7b31baed"},"vehicle_type_id":"4","last_reported":1693253239,"current_range_meters":14400,"station_id":"ce4bhqp2rcd13ifvqhng","pricing_plan_id":"free"},{"bike_id":"2c93ce6f-c5e1-4ec9-9941-ebb7469bb8f2","system_id":"levelo_inurba_marseille","lat":43.317557,"lon":5.390173,"is_reserved":false,"is_disabled":false,"rental_uris":{"android":"levelo://app?vid=2c93ce6f-c5e1-4ec9-9941-ebb7469bb8f2","ios":"levelo://app?vid=2c93ce6f-c5e1-4ec9-9941-ebb7469bb8f2"},"vehicle_type_id":"4","last_reported":1693253239,"current_range_meters":31200,"station_id":"ce4bhqp2rcd13ifvqhng","pricing_plan_id":"free"},{"bike_id":"df7796be-de2d-4114-89af-8b882db12064","system_id":"levelo_inurba_marseille","lat":43.317557,"lon":5.390173,"is_reserved":false,"is_disabled":false,"rental_uris":{"android":"levelo://app?vid=df7796be-de2d-4114-89af-8b882db12064","ios":"levelo://app?vid=df7796be-de2d-4114-89af-8b882db12064"},"vehicle_type_id":"4","last_reported":1693253239,"current_range_meters":4400,"station_id":"ce4bhqp2rcd13ifvqhng","pricing_plan_id":"free"},{"bike_id":"a08d3576-4be2-428d-9a7f-ba2ae669abec","system_id":"levelo_inurba_marseille","lat":43.317557,"lon":5.390173,"is_reserved":false,"is_disabled":false,"rental_uris":{"android":"levelo://app?vid=a08d3576-4be2-428d-9a7f-ba2ae669abec","ios":"levelo://app?vid=a08d3576-4be2-428d-9a7f-ba2ae669abec"},"vehicle_type_id":"4","last_reported":1693253239,"current_range_meters":31200,"station_id":"ce4bhqp2rcd13ifvqhng","pricing_plan_id":"free"},{"bike_id":"121c8fbc-5453-4062-9002-c6c7b5ff34cf","system_id":"levelo_inurba_marseille","lat":43.317557,"lon":5.390173,"is_reserved":false,"is_disabled":false,"rental_uris":{"android":"levelo://app?vid=121c8fbc-5453-4062-9002-c6c7b5ff34cf","ios":"levelo://app?vid=121c8fbc-5453-4062-9002-c6c7b5ff34cf"},"vehicle_type_id":"4","last_reported":1693253239,"current_range_meters":13600,"station_id":"ce4bhqp2rcd13ifvqhng","pricing_plan_id":"free"},{"bike_id":"26e4d56e-e2a3-4df6-b3ca-7728c0a18af5","system_id":"levelo_inurba_marseille","lat":43.317557,"lon":5.390173,"is_reserved":false,"is_disabled":false,"rental_uris":{"android":"levelo://app?vid=26e4d56e-e2a3-4df6-b3ca-7728c0a18af5","ios":"levelo://app?vid=26e4d56e-e2a3-4df6-b3ca-7728c0a18af5"},"vehicle_type_id":"4","last_reported":1693253239,"current_range_meters":2400,"station_id":"ce4bhqp2rcd13ifvqhng","pricing_plan_id":"free"},{"bike_id":"a06848ef-740f-40b4-aa73-bffe9f77e579","system_id":"levelo_inurba_marseille","lat":43.31758,"lon":5.39021,"is_reserved":false,"is_disabled":false,"rental_uris":{"android":"levelo://app?vid=a06848ef-740f-40b4-aa73-bffe9f77e579","ios":"levelo://app?vid=a06848ef-740f-40b4-aa73-bffe9f77e579"},"vehicle_type_id":"4","last_reported":1693253239,"current_range_meters":25200,"station_id":"ce4bhqp2rcd13ifvqhng","pricing_plan_id":"free"},{"bike_id":"7e214b6c-fa6f-4d27-a61b-9ba51ff9484c","system_id":"levelo_inurba_marseille","lat":43.317557,"lon":5.390173,"is_reserved":false,"is_disabled":false,"rental_uris":{"android":"levelo://app?vid=7e214b6c-fa6f-4d27-a61b-9ba51ff9484c","ios":"levelo://app?vid=7e214b6c-fa6f-4d27-a61b-9ba51ff9484c"},"vehicle_type_id":"4","last_reported":1693253239,"current_range_meters":25600,"station_id":"ce4bhqp2rcd13ifvqhng","pricing_plan_id":"free"},{"bike_id":"15e36b42-ba48-43b2-9160-a9802e44fc9a","system_id":"levelo_inurba_marseille","lat":43.298037,"lon":5.381066,"is_reserved":false,"is_disabled":false,"rental_uris":{"android":"levelo://app?vid=15e36b42-ba48-43b2-9160-a9802e44fc9a","ios":"levelo://app?vid=15e36b42-ba48-43b2-9160-a9802e44fc9a"},"vehicle_type_id":"4","last_reported":1693253239,"current_range_meters":29200,"station_id":"ce4bgip2rcd13ifvqbb0","pricing_plan_id":"free"},{"bike_id":"466dd6b5-2028-4407-b519-b14e3181185d","system_id":"levelo_inurba_marseille","lat":43.295748,"lon":5.37522,"is_reserved":false,"is_disabled":false,"rental_uris":{"android":"levelo://app?vid=466dd6b5-2028-4407-b519-b14e3181185d","ios":"levelo://app?vid=466dd6b5-2028-4407-b519-b14e3181185d"},"vehicle_type_id":"4","last_reported":1693253239,"current_range_meters":7600,"station_id":"ce4bgh92rcd13ifvqb50","pricing_plan_id":"free"},{"bike_id":"d3f90e44-ab78-4110-8d45-6503eef48ca8","system_id":"levelo_inurba_marseille","lat":43.304278,"lon":5.388868,"is_reserved":false,"is_disabled":false,"rental_uris":{"android":"levelo://app?vid=d3f90e44-ab78-4110-8d45-6503eef48ca8","ios":"levelo://app?vid=d3f90e44-ab78-4110-8d45-6503eef48ca8"},"vehicle_type_id":"4","last_reported":1693253239,"current_range_meters":0,"station_id":"ce4bgk12rcd13ifvqbi0","pricing_plan_id":"free"},{"bike_id":"fd835d01-19a6-4fdf-a1e9-a284b75579fa","system_id":"levelo_inurba_marseille","lat":43.295748,"lon":5.37522,"is_reserved":false,"is_disabled":false,"rental_uris":{"android":"levelo://app?vid=fd835d01-19a6-4fdf-a1e9-a284b75579fa","ios":"levelo://app?vid=fd835d01-19a6-4fdf-a1e9-a284b75579fa"},"vehicle_type_id":"4","last_reported":1693253239,"current_range_meters":30000,"station_id":"ce4bgh92rcd13ifvqb50","pricing_plan_id":"free"},{"bike_id":"952a19e7-6602-41c3-942f-79cfb514366f","system_id":"levelo_inurba_marseille","lat":43.296263,"lon":5.377094,"is_reserved":false,"is_disabled":false,"rental_uris":{"android":"levelo://app?vid=952a19e7-6602-41c3-942f-79cfb514366f","ios":"levelo://app?vid=952a19e7-6602-41c3-942f-79cfb514366f"},"vehicle_type_id":"4","last_reported":1693253239,"current_range_meters":30400,"station_id":"ce4bgi92rcd13ifvqb90","pricing_plan_id":"free"},{"bike_id":"d408a690-0569-484d-9cc6-b30b91b8a6d4","system_id":"levelo_inurba_marseille","lat":43.296263,"lon":5.377094,"is_reserved":false,"is_disabled":false,"rental_uris":{"android":"levelo://app?vid=d408a690-0569-484d-9cc6-b30b91b8a6d4","ios":"levelo://app?vid=d408a690-0569-484d-9cc6-b30b91b8a6d4"},"vehicle_type_id":"4","last_reported":1693253239,"current_range_meters":13200,"station_id":"ce4bgi92rcd13ifvqb90","pricing_plan_id":"free"},{"bike_id":"e9f74523-6a5b-4fa8-b4fc-9a7e17bf0186","system_id":"levelo_inurba_marseille","lat":43.296263,"lon":5.377094,"is_reserved":false,"is_disabled":false,"rental_uris":{"android":"levelo://app?vid=e9f74523-6a5b-4fa8-b4fc-9a7e17bf0186","ios":"levelo://app?vid=e9f74523-6a5b-4fa8-b4fc-9a7e17bf0186"},"vehicle_type_id":"4","last_reported":1693253239,"current_range_meters":0,"station_id":"ce4bgi92rcd13ifvqb90","pricing_plan_id":"free"},{"bike_id":"df84705f-6fc0-4e76-881c-f5379c6c51f1","system_id":"levelo_inurba_marseille","lat":43.296,"lon":5.37724,"is_reserved":false,"is_disabled":false,"rental_uris":{"android":"levelo://app?vid=df84705f-6fc0-4e76-881c-f5379c6c51f1","ios":"levelo://app?vid=df84705f-6fc0-4e76-881c-f5379c6c51f1"},"vehicle_type_id":"4","last_reported":1693253239,"current_range_meters":4000,"station_id":"ce4bgi92rcd13ifvqb90","pricing_plan_id":"free"},{"bike_id":"3c1d763d-1783-4b07-98d1-a93fd8b2fb5b","system_id":"levelo_inurba_marseille","lat":43.29536,"lon":5.37502,"is_reserved":false,"is_disabled":false,"rental_uris":{"android":"levelo://app?vid=3c1d763d-1783-4b07-98d1-a93fd8b2fb5b","ios":"levelo://app?vid=3c1d763d-1783-4b07-98d1-a93fd8b2fb5b"},"vehicle_type_id":"4","last_reported":1693253239,"current_range_meters":14800,"station_id":"ce4bgkp2rcd13ifvqbmg","pricing_plan_id":"free"},{"bike_id":"4cb13050-0153-46d8-8315-b9012ab94e15","system_id":"levelo_inurba_marseille","lat":43.29511,"lon":5.37405,"is_reserved":false,"is_disabled":false,"rental_uris":{"android":"levelo://app?vid=4cb13050-0153-46d8-8315-b9012ab94e15","ios":"levelo://app?vid=4cb13050-0153-46d8-8315-b9012ab94e15"},"vehicle_type_id":"4","last_reported":1693253239,"current_range_meters":28400,"station_id":"","pricing_plan_id":"free"},{"bike_id":"df79179c-f108-4326-a942-ad60d4ced965","system_id":"levelo_inurba_marseille","lat":43.29532,"lon":5.375,"is_reserved":false,"is_disabled":false,"rental_uris":{"android":"levelo://app?vid=df79179c-f108-4326-a942-ad60d4ced965","ios":"levelo://app?vid=df79179c-f108-4326-a942-ad60d4ced965"},"vehicle_type_id":"4","last_reported":1693253239,"current_range_meters":30000,"station_id":"ce4bgkp2rcd13ifvqbmg","pricing_plan_id":"free"},{"bike_id":"6c408587-214f-4774-97d3-b91e232fd284","system_id":"levelo_inurba_marseille","lat":43.29505,"lon":5.37429,"is_reserved":false,"is_disabled":false,"rental_uris":{"android":"levelo://app?vid=6c408587-214f-4774-97d3-b91e232fd284","ios":"levelo://app?vid=6c408587-214f-4774-97d3-b91e232fd284"},"vehicle_type_id":"4","last_reported":1693253239,"current_range_meters":28800,"station_id":"","pricing_plan_id":"free"},{"bike_id":"18761e68-f3a4-4fee-bc8c-f7b50ec46264","system_id":"levelo_inurba_marseille","lat":43.296277,"lon":5.377108,"is_reserved":false,"is_disabled":false,"rental_uris":{"android":"levelo://app?vid=18761e68-f3a4-4fee-bc8c-f7b50ec46264","ios":"levelo://app?vid=18761e68-f3a4-4fee-bc8c-f7b50ec46264"},"vehicle_type_id":"4","last_reported":1693253239,"current_range_meters":27200,"station_id":"ce4bgi92rcd13ifvqb90","pricing_plan_id":"free"},{"bike_id":"93ccc168-ec2d-4bdd-b6a0-bccbd27120d9","system_id":"levelo_inurba_marseille","lat":43.29497,"lon":5.37424,"is_reserved":false,"is_disabled":false,"rental_uris":{"android":"levelo://app?vid=93ccc168-ec2d-4bdd-b6a0-bccbd27120d9","ios":"levelo://app?vid=93ccc168-ec2d-4bdd-b6a0-bccbd27120d9"},"vehicle_type_id":"4","last_reported":1693253239,"current_range_meters":29200,"station_id":"","pricing_plan_id":"free"},{"bike_id":"92475464-831d-4fbc-819a-fb97fe9d43a9","system_id":"levelo_inurba_marseille","lat":43.2949,"lon":5.37419,"is_reserved":false,"is_disabled":false,"rental_uris":{"android":"levelo://app?vid=92475464-831d-4fbc-819a-fb97fe9d43a9","ios":"levelo://app?vid=92475464-831d-4fbc-819a-fb97fe9d43a9"},"vehicle_type_id":"4","last_reported":1693253239,"current_range_meters":30000,"station_id":"","pricing_plan_id":"free"},{"bike_id":"d10f6085-d9d4-4d40-982e-5f1719439f11","system_id":"levelo_inurba_marseille","lat":43.32367,"lon":5.38879,"is_reserved":false,"is_disabled":false,"rental_uris":{"android":"levelo://app?vid=d10f6085-d9d4-4d40-982e-5f1719439f11","ios":"levelo://app?vid=d10f6085-d9d4-4d40-982e-5f1719439f11"},"vehicle_type_id":"4","last_reported":1693253239,"current_range_meters":20800,"station_id":"ce4bhqp2rcd13ifvqhog","pricing_plan_id":"free"},{"bike_id":"492a2456-a6e9-4324-b9b3-b95aca15394a","system_id":"levelo_inurba_marseille","lat":43.296,"lon":5.38089,"is_reserved":false,"is_disabled":false,"rental_uris":{"android":"levelo://app?vid=492a2456-a6e9-4324-b9b3-b95aca15394a","ios":"levelo://app?vid=492a2456-a6e9-4324-b9b3-b95aca15394a"},"vehicle_type_id":"4","last_reported":1693253239,"current_range_meters":16800,"station_id":"ce4bgl12rcd13ifvqbo0","pricing_plan_id":"free"},{"bike_id":"c08c0c2a-381a-42f6-9c75-ab2592cb4ea0","system_id":"levelo_inurba_marseille","lat":43.29602,"lon":5.381084,"is_reserved":false,"is_disabled":false,"rental_uris":{"android":"levelo://app?vid=c08c0c2a-381a-42f6-9c75-ab2592cb4ea0","ios":"levelo://app?vid=c08c0c2a-381a-42f6-9c75-ab2592cb4ea0"},"vehicle_type_id":"4","last_reported":1693253239,"current_range_meters":31200,"station_id":"ce4bgl12rcd13ifvqbo0","pricing_plan_id":"free"},{"bike_id":"55d8053a-ba73-4d7e-a2c9-7ac9e874288c","system_id":"levelo_inurba_marseille","lat":43.29601,"lon":5.381084,"is_reserved":false,"is_disabled":false,"rental_uris":{"android":"levelo://app?vid=55d8053a-ba73-4d7e-a2c9-7ac9e874288c","ios":"levelo://app?vid=55d8053a-ba73-4d7e-a2c9-7ac9e874288c"},"vehicle_type_id":"4","last_reported":1693253239,"current_range_meters":17200,"station_id":"ce4bgl12rcd13ifvqbo0","pricing_plan_id":"free"},{"bike_id":"8182599b-2d61-402c-bd70-3c52d4e9ce78","system_id":"levelo_inurba_marseille","lat":43.29602,"lon":5.381084,"is_reserved":false,"is_disabled":false,"rental_uris":{"android":"levelo://app?vid=8182599b-2d61-402c-bd70-3c52d4e9ce78","ios":"levelo://app?vid=8182599b-2d61-402c-bd70-3c52d4e9ce78"},"vehicle_type_id":"4","last_reported":1693253239,"current_range_meters":28800,"station_id":"ce4bgl12rcd13ifvqbo0","pricing_plan_id":"free"},{"bike_id":"2e709d16-021e-432c-805b-e0d12be59dca","system_id":"levelo_inurba_marseille","lat":43.29602,"lon":5.381084,"is_reserved":false,"is_disabled":false,"rental_uris":{"android":"levelo://app?vid=2e709d16-021e-432c-805b-e0d12be59dca","ios":"levelo://app?vid=2e709d16-021e-432c-805b-e0d12be59dca"},"vehicle_type_id":"4","last_reported":1693253239,"current_range_meters":8800,"station_id":"ce4bgl12rcd13ifvqbo0","pricing_plan_id":"free"},{"bike_id":"0a96c69a-a19d-4881-9b88-58306a7a857a","system_id":"levelo_inurba_marseille","lat":43.29282,"lon":5.36847,"is_reserved":false,"is_disabled":false,"rental_uris":{"android":"levelo://app?vid=0a96c69a-a19d-4881-9b88-58306a7a857a","ios":"levelo://app?vid=0a96c69a-a19d-4881-9b88-58306a7a857a"},"vehicle_type_id":"4","last_reported":1693253239,"current_range_meters":0,"station_id":"ce4bhbp2rcd13ifvqesg","pricing_plan_id":"free"},{"bike_id":"b526e123-3057-4131-966d-f822d0108b75","system_id":"levelo_inurba_marseille","lat":43.29281,"lon":5.36849,"is_reserved":false,"is_disabled":false,"rental_uris":{"android":"levelo://app?vid=b526e123-3057-4131-966d-f822d0108b75","ios":"levelo://app?vid=b526e123-3057-4131-966d-f822d0108b75"},"vehicle_type_id":"4","last_reported":1693253239,"current_range_meters":21200,"station_id":"ce4bhbp2rcd13ifvqesg","pricing_plan_id":"free"},{"bike_id":"bf324f9d-4bb3-4713-a406-93624329f348","system_id":"levelo_inurba_marseille","lat":43.293249,"lon":5.371578,"is_reserved":false,"is_disabled":false,"rental_uris":{"android":"levelo://app?vid=bf324f9d-4bb3-4713-a406-93624329f348","ios":"levelo://app?vid=bf324f9d-4bb3-4713-a406-93624329f348"},"vehicle_type_id":"4","last_reported":1693253239,"current_range_meters":17600,"station_id":"ce4bgh92rcd13ifvqb40","pricing_plan_id":"free"},{"bike_id":"97e8fc9b-66f2-472b-80dc-7f3b9516dce2","system_id":"levelo_inurba_marseille","lat":43.29307,"lon":5.37174,"is_reserved":false,"is_disabled":false,"rental_uris":{"android":"levelo://app?vid=97e8fc9b-66f2-472b-80dc-7f3b9516dce2","ios":"levelo://app?vid=97e8fc9b-66f2-472b-80dc-7f3b9516dce2"},"vehicle_type_id":"4","last_reported":1693253239,"current_range_meters":24800,"station_id":"ce4bgh92rcd13ifvqb40","pricing_plan_id":"free"},{"bike_id":"206fc0de-9e10-4fd7-9230-fd9795059f9b","system_id":"levelo_inurba_marseille","lat":43.293045,"lon":5.371797,"is_reserved":false,"is_disabled":false,"rental_uris":{"android":"levelo://app?vid=206fc0de-9e10-4fd7-9230-fd9795059f9b","ios":"levelo://app?vid=206fc0de-9e10-4fd7-9230-fd9795059f9b"},"vehicle_type_id":"4","last_reported":1693253239,"current_range_meters":2400,"station_id":"","pricing_plan_id":"free"},{"bike_id":"66843165-1d52-4d50-b515-2fca4cc10725","system_id":"levelo_inurba_marseille","lat":43.29276,"lon":5.36846,"is_reserved":false,"is_disabled":false,"rental_uris":{"android":"levelo://app?vid=66843165-1d52-4d50-b515-2fca4cc10725","ios":"levelo://app?vid=66843165-1d52-4d50-b515-2fca4cc10725"},"vehicle_type_id":"4","last_reported":1693253239,"current_range_meters":4000,"station_id":"ce4bhbp2rcd13ifvqesg","pricing_plan_id":"free"},{"bike_id":"e91a6e3f-97b5-44b0-b1b4-aa10b519f37e","system_id":"levelo_inurba_marseille","lat":43.29299,"lon":5.37172,"is_reserved":false,"is_disabled":false,"rental_uris":{"android":"levelo://app?vid=e91a6e3f-97b5-44b0-b1b4-aa10b519f37e","ios":"levelo://app?vid=e91a6e3f-97b5-44b0-b1b4-aa10b519f37e"},"vehicle_type_id":"4","last_reported":1693253239,"current_range_meters":18800,"station_id":"ce4bgh92rcd13ifvqb40","pricing_plan_id":"free"},{"bike_id":"6533c646-1091-4458-9ef2-bc9d36dce22d","system_id":"levelo_inurba_marseille","lat":43.293009,"lon":5.374584,"is_reserved":false,"is_disabled":false,"rental_uris":{"android":"levelo://app?vid=6533c646-1091-4458-9ef2-bc9d36dce22d","ios":"levelo://app?vid=6533c646-1091-4458-9ef2-bc9d36dce22d"},"vehicle_type_id":"4","last_reported":1693253239,"current_range_meters":31200,"station_id":"ce4bgi12rcd13ifvqb70","pricing_plan_id":"free"},{"bike_id":"38fef587-7cc5-4800-b069-87b8f296a10a","system_id":"levelo_inurba_marseille","lat":43.293009,"lon":5.374584,"is_reserved":false,"is_disabled":false,"rental_uris":{"android":"levelo://app?vid=38fef587-7cc5-4800-b069-87b8f296a10a","ios":"levelo://app?vid=38fef587-7cc5-4800-b069-87b8f296a10a"},"vehicle_type_id":"4","last_reported":1693253239,"current_range_meters":31200,"station_id":"ce4bgi12rcd13ifvqb70","pricing_plan_id":"free"},{"bike_id":"1380dd9c-d742-494e-8860-868918d9e506","system_id":"levelo_inurba_marseille","lat":43.305994,"lon":5.393687,"is_reserved":false,"is_disabled":false,"rental_uris":{"android":"levelo://app?vid=1380dd9c-d742-494e-8860-868918d9e506","ios":"levelo://app?vid=1380dd9c-d742-494e-8860-868918d9e506"},"vehicle_type_id":"4","last_reported":1693253239,"current_range_meters":14000,"station_id":"ce4bh0p2rcd13ifvqd80","pricing_plan_id":"free"},{"bike_id":"9f06f46a-ded4-41ff-90af-22e7210a4c2a","system_id":"levelo_inurba_marseille","lat":43.305994,"lon":5.393687,"is_reserved":false,"is_disabled":false,"rental_uris":{"android":"levelo://app?vid=9f06f46a-ded4-41ff-90af-22e7210a4c2a","ios":"levelo://app?vid=9f06f46a-ded4-41ff-90af-22e7210a4c2a"},"vehicle_type_id":"4","last_reported":1693253239,"current_range_meters":20400,"station_id":"ce4bh0p2rcd13ifvqd80","pricing_plan_id":"free"},{"bike_id":"2b972f26-9f9d-4e38-9f11-2d81a250581e","system_id":"levelo_inurba_marseille","lat":43.30309,"lon":5.39204,"is_reserved":false,"is_disabled":false,"rental_uris":{"android":"levelo://app?vid=2b972f26-9f9d-4e38-9f11-2d81a250581e","ios":"levelo://app?vid=2b972f26-9f9d-4e38-9f11-2d81a250581e"},"vehicle_type_id":"4","last_reported":1693253239,"current_range_meters":30400,"station_id":"ce4bgkh2rcd13ifvqbk0","pricing_plan_id":"free"},{"bike_id":"0724f352-a262-45b7-9b71-9a09ff17d945","system_id":"levelo_inurba_marseille","lat":43.30312,"lon":5.39208,"is_reserved":false,"is_disabled":false,"rental_uris":{"android":"levelo://app?vid=0724f352-a262-45b7-9b71-9a09ff17d945","ios":"levelo://app?vid=0724f352-a262-45b7-9b71-9a09ff17d945"},"vehicle_type_id":"4","last_reported":1693253239,"current_range_meters":22400,"station_id":"ce4bgkh2rcd13ifvqbk0","pricing_plan_id":"free"},{"bike_id":"59d4a7cc-c4d8-47e1-a63f-2e26b5d209c3","system_id":"levelo_inurba_marseille","lat":43.2936,"lon":5.37835,"is_reserved":false,"is_disabled":false,"rental_uris":{"android":"levelo://app?vid=59d4a7cc-c4d8-47e1-a63f-2e26b5d209c3","ios":"levelo://app?vid=59d4a7cc-c4d8-47e1-a63f-2e26b5d209c3"},"vehicle_type_id":"4","last_reported":1693253239,"current_range_meters":29600,"station_id":"ce4bgjh2rcd13ifvqbf0","pricing_plan_id":"free"},{"bike_id":"7d72bc33-6bcb-4820-888b-0ae7aab0bf35","system_id":"levelo_inurba_marseille","lat":43.300852,"lon":5.390859,"is_reserved":false,"is_disabled":false,"rental_uris":{"android":"levelo://app?vid=7d72bc33-6bcb-4820-888b-0ae7aab0bf35","ios":"levelo://app?vid=7d72bc33-6bcb-4820-888b-0ae7aab0bf35"},"vehicle_type_id":"4","last_reported":1693253239,"current_range_meters":22800,"station_id":"ce4bh192rcd13ifvqdb0","pricing_plan_id":"free"},{"bike_id":"c8b920dd-a61c-4aac-91a3-a71c20cfd298","system_id":"levelo_inurba_marseille","lat":43.292288,"lon":5.360817,"is_reserved":false,"is_disabled":false,"rental_uris":{"android":"levelo://app?vid=c8b920dd-a61c-4aac-91a3-a71c20cfd298","ios":"levelo://app?vid=c8b920dd-a61c-4aac-91a3-a71c20cfd298"},"vehicle_type_id":"4","last_reported":1693253239,"current_range_meters":21200,"station_id":"ce4bhbh2rcd13ifvqeqg","pricing_plan_id":"free"},{"bike_id":"37e5f022-43f7-4fee-9ba0-61d57c3e9acf","system_id":"levelo_inurba_marseille","lat":43.2923,"lon":5.36069,"is_reserved":false,"is_disabled":false,"rental_uris":{"android":"levelo://app?vid=37e5f022-43f7-4fee-9ba0-61d57c3e9acf","ios":"levelo://app?vid=37e5f022-43f7-4fee-9ba0-61d57c3e9acf"},"vehicle_type_id":"4","last_reported":1693253239,"current_range_meters":8800,"station_id":"ce4bhbh2rcd13ifvqeqg","pricing_plan_id":"free"},{"bike_id":"f8f50d15-ff0d-456f-b0da-a81b2d19ee1d","system_id":"levelo_inurba_marseille","lat":43.300852,"lon":5.390859,"is_reserved":false,"is_disabled":false,"rental_uris":{"android":"levelo://app?vid=f8f50d15-ff0d-456f-b0da-a81b2d19ee1d","ios":"levelo://app?vid=f8f50d15-ff0d-456f-b0da-a81b2d19ee1d"},"vehicle_type_id":"4","last_reported":1693253239,"current_range_meters":21600,"station_id":"ce4bh192rcd13ifvqdb0","pricing_plan_id":"free"},{"bike_id":"36c383de-6748-48fe-b591-a325adebf8ff","system_id":"levelo_inurba_marseille","lat":43.292326,"lon":5.3604,"is_reserved":false,"is_disabled":false,"rental_uris":{"android":"levelo://app?vid=36c383de-6748-48fe-b591-a325adebf8ff","ios":"levelo://app?vid=36c383de-6748-48fe-b591-a325adebf8ff"},"vehicle_type_id":"4","last_reported":1693253239,"current_range_meters":28800,"station_id":"ce4bhbh2rcd13ifvqeqg","pricing_plan_id":"free"},{"bike_id":"be17df90-0270-4cea-9f34-5a1d6f18bdf2","system_id":"levelo_inurba_marseille","lat":43.292311,"lon":5.360731,"is_reserved":false,"is_disabled":false,"rental_uris":{"android":"levelo://app?vid=be17df90-0270-4cea-9f34-5a1d6f18bdf2","ios":"levelo://app?vid=be17df90-0270-4cea-9f34-5a1d6f18bdf2"},"vehicle_type_id":"4","last_reported":1693253239,"current_range_meters":30400,"station_id":"ce4bhbh2rcd13ifvqeqg","pricing_plan_id":"free"},{"bike_id":"79e33348-3d8d-4e69-af55-a1ebd94007c9","system_id":"levelo_inurba_marseille","lat":43.292311,"lon":5.360731,"is_reserved":false,"is_disabled":false,"rental_uris":{"android":"levelo://app?vid=79e33348-3d8d-4e69-af55-a1ebd94007c9","ios":"levelo://app?vid=79e33348-3d8d-4e69-af55-a1ebd94007c9"},"vehicle_type_id":"4","last_reported":1693253239,"current_range_meters":25600,"station_id":"ce4bhbh2rcd13ifvqeqg","pricing_plan_id":"free"},{"bike_id":"fa9fe9d5-ecd8-48b4-a413-ace87470fabf","system_id":"levelo_inurba_marseille","lat":43.292311,"lon":5.360731,"is_reserved":false,"is_disabled":false,"rental_uris":{"android":"levelo://app?vid=fa9fe9d5-ecd8-48b4-a413-ace87470fabf","ios":"levelo://app?vid=fa9fe9d5-ecd8-48b4-a413-ace87470fabf"},"vehicle_type_id":"4","last_reported":1693253239,"current_range_meters":0,"station_id":"ce4bhbh2rcd13ifvqeqg","pricing_plan_id":"free"},{"bike_id":"0772ce83-82b9-4102-8acb-d97a97b2a2b8","system_id":"levelo_inurba_marseille","lat":43.30085,"lon":5.390856,"is_reserved":false,"is_disabled":false,"rental_uris":{"android":"levelo://app?vid=0772ce83-82b9-4102-8acb-d97a97b2a2b8","ios":"levelo://app?vid=0772ce83-82b9-4102-8acb-d97a97b2a2b8"},"vehicle_type_id":"4","last_reported":1693253239,"current_range_meters":31200,"station_id":"ce4bh192rcd13ifvqdb0","pricing_plan_id":"free"},{"bike_id":"3feff221-be67-4f8a-8cef-2d9d2aaecffe","system_id":"levelo_inurba_marseille","lat":43.292311,"lon":5.360731,"is_reserved":false,"is_disabled":false,"rental_uris":{"android":"levelo://app?vid=3feff221-be67-4f8a-8cef-2d9d2aaecffe","ios":"levelo://app?vid=3feff221-be67-4f8a-8cef-2d9d2aaecffe"},"vehicle_type_id":"4","last_reported":1693253239,"current_range_meters":31200,"station_id":"ce4bhbh2rcd13ifvqeqg","pricing_plan_id":"free"},{"bike_id":"8e9b10fe-6e66-404c-a276-3c19a4f115ff","system_id":"levelo_inurba_marseille","lat":43.30085,"lon":5.390856,"is_reserved":false,"is_disabled":false,"rental_uris":{"android":"levelo://app?vid=8e9b10fe-6e66-404c-a276-3c19a4f115ff","ios":"levelo://app?vid=8e9b10fe-6e66-404c-a276-3c19a4f115ff"},"vehicle_type_id":"4","last_reported":1693253239,"current_range_meters":400,"station_id":"ce4bh192rcd13ifvqdb0","pricing_plan_id":"free"},{"bike_id":"d2e36266-9584-487c-ae1b-0e7585e5e34c","system_id":"levelo_inurba_marseille","lat":43.30085,"lon":5.390856,"is_reserved":false,"is_disabled":false,"rental_uris":{"android":"levelo://app?vid=d2e36266-9584-487c-ae1b-0e7585e5e34c","ios":"levelo://app?vid=d2e36266-9584-487c-ae1b-0e7585e5e34c"},"vehicle_type_id":"4","last_reported":1693253239,"current_range_meters":4800,"station_id":"ce4bh192rcd13ifvqdb0","pricing_plan_id":"free"},{"bike_id":"911d384d-2f17-483c-9941-ccf85bbac20b","system_id":"levelo_inurba_marseille","lat":43.30085,"lon":5.390856,"is_reserved":false,"is_disabled":false,"rental_uris":{"android":"levelo://app?vid=911d384d-2f17-483c-9941-ccf85bbac20b","ios":"levelo://app?vid=911d384d-2f17-483c-9941-ccf85bbac20b"},"vehicle_type_id":"4","last_reported":1693253239,"current_range_meters":6800,"station_id":"ce4bh192rcd13ifvqdb0","pricing_plan_id":"free"},{"bike_id":"7d3c92d0-9448-40fb-979e-6704b1efd46e","system_id":"levelo_inurba_marseille","lat":43.298764,"lon":5.388973,"is_reserved":false,"is_disabled":false,"rental_uris":{"android":"levelo://app?vid=7d3c92d0-9448-40fb-979e-6704b1efd46e","ios":"levelo://app?vid=7d3c92d0-9448-40fb-979e-6704b1efd46e"},"vehicle_type_id":"4","last_reported":1693253239,"current_range_meters":19200,"station_id":"ce4bh392rcd13ifvqdl0","pricing_plan_id":"free"},{"bike_id":"70574fe5-288f-4f50-9e7c-dab2df8d97f1","system_id":"levelo_inurba_marseille","lat":43.291675,"lon":5.371583,"is_reserved":false,"is_disabled":false,"rental_uris":{"android":"levelo://app?vid=70574fe5-288f-4f50-9e7c-dab2df8d97f1","ios":"levelo://app?vid=70574fe5-288f-4f50-9e7c-dab2df8d97f1"},"vehicle_type_id":"4","last_reported":1693253239,"current_range_meters":18800,"station_id":"ce4bha92rcd13ifvqeh0","pricing_plan_id":"free"},{"bike_id":"91f87ac4-ed52-4f52-88ca-c0e1a76cfc58","system_id":"levelo_inurba_marseille","lat":43.298764,"lon":5.388973,"is_reserved":false,"is_disabled":false,"rental_uris":{"android":"levelo://app?vid=91f87ac4-ed52-4f52-88ca-c0e1a76cfc58","ios":"levelo://app?vid=91f87ac4-ed52-4f52-88ca-c0e1a76cfc58"},"vehicle_type_id":"4","last_reported":1693253239,"current_range_meters":31600,"station_id":"ce4bh392rcd13ifvqdl0","pricing_plan_id":"free"},{"bike_id":"82529373-085b-4f2a-91a3-0c7df897a111","system_id":"levelo_inurba_marseille","lat":43.291675,"lon":5.371583,"is_reserved":false,"is_disabled":false,"rental_uris":{"android":"levelo://app?vid=82529373-085b-4f2a-91a3-0c7df897a111","ios":"levelo://app?vid=82529373-085b-4f2a-91a3-0c7df897a111"},"vehicle_type_id":"4","last_reported":1693253239,"current_range_meters":32000,"station_id":"ce4bha92rcd13ifvqeh0","pricing_plan_id":"free"},{"bike_id":"876ec205-25d0-4952-8b54-4d37aeb0a9f3","system_id":"levelo_inurba_marseille","lat":43.29171,"lon":5.37153,"is_reserved":false,"is_disabled":false,"rental_uris":{"android":"levelo://app?vid=876ec205-25d0-4952-8b54-4d37aeb0a9f3","ios":"levelo://app?vid=876ec205-25d0-4952-8b54-4d37aeb0a9f3"},"vehicle_type_id":"4","last_reported":1693253239,"current_range_meters":31200,"station_id":"ce4bha92rcd13ifvqeh0","pricing_plan_id":"free"},{"bike_id":"5f825218-3ec6-4669-8005-26bceddba6c1","system_id":"levelo_inurba_marseille","lat":43.298764,"lon":5.388973,"is_reserved":false,"is_disabled":false,"rental_uris":{"android":"levelo://app?vid=5f825218-3ec6-4669-8005-26bceddba6c1","ios":"levelo://app?vid=5f825218-3ec6-4669-8005-26bceddba6c1"},"vehicle_type_id":"4","last_reported":1693253239,"current_range_meters":20800,"station_id":"ce4bh392rcd13ifvqdl0","pricing_plan_id":"free"},{"bike_id":"606b769e-5300-4519-b929-03e4071bb5a0","system_id":"levelo_inurba_marseille","lat":43.298764,"lon":5.388973,"is_reserved":false,"is_disabled":false,"rental_uris":{"android":"levelo://app?vid=606b769e-5300-4519-b929-03e4071bb5a0","ios":"levelo://app?vid=606b769e-5300-4519-b929-03e4071bb5a0"},"vehicle_type_id":"4","last_reported":1693253239,"current_range_meters":31200,"station_id":"ce4bh392rcd13ifvqdl0","pricing_plan_id":"free"},{"bike_id":"1cc347ed-55ea-4550-9111-3dbbe84e4d06","system_id":"levelo_inurba_marseille","lat":43.29166,"lon":5.37143,"is_reserved":false,"is_disabled":false,"rental_uris":{"android":"levelo://app?vid=1cc347ed-55ea-4550-9111-3dbbe84e4d06","ios":"levelo://app?vid=1cc347ed-55ea-4550-9111-3dbbe84e4d06"},"vehicle_type_id":"4","last_reported":1693253239,"current_range_meters":10000,"station_id":"ce4bha92rcd13ifvqeh0","pricing_plan_id":"free"},{"bike_id":"42966a92-1765-48ea-9228-beba9c0d1316","system_id":"levelo_inurba_marseille","lat":43.298764,"lon":5.388973,"is_reserved":false,"is_disabled":false,"rental_uris":{"android":"levelo://app?vid=42966a92-1765-48ea-9228-beba9c0d1316","ios":"levelo://app?vid=42966a92-1765-48ea-9228-beba9c0d1316"},"vehicle_type_id":"4","last_reported":1693253239,"current_range_meters":13200,"station_id":"ce4bh392rcd13ifvqdl0","pricing_plan_id":"free"},{"bike_id":"34f0ac06-fdb5-480e-bed9-ed1d8cd9b6dd","system_id":"levelo_inurba_marseille","lat":43.29165,"lon":5.37152,"is_reserved":false,"is_disabled":false,"rental_uris":{"android":"levelo://app?vid=34f0ac06-fdb5-480e-bed9-ed1d8cd9b6dd","ios":"levelo://app?vid=34f0ac06-fdb5-480e-bed9-ed1d8cd9b6dd"},"vehicle_type_id":"4","last_reported":1693253239,"current_range_meters":6000,"station_id":"ce4bha92rcd13ifvqeh0","pricing_plan_id":"free"},{"bike_id":"ec646820-4242-40be-b501-97baa4118bbd","system_id":"levelo_inurba_marseille","lat":43.29876,"lon":5.38911,"is_reserved":false,"is_disabled":false,"rental_uris":{"android":"levelo://app?vid=ec646820-4242-40be-b501-97baa4118bbd","ios":"levelo://app?vid=ec646820-4242-40be-b501-97baa4118bbd"},"vehicle_type_id":"4","last_reported":1693253239,"current_range_meters":4800,"station_id":"ce4bh392rcd13ifvqdl0","pricing_plan_id":"free"},{"bike_id":"7f0729b9-9a34-4320-b6ac-a13dd3ec6266","system_id":"levelo_inurba_marseille","lat":43.298764,"lon":5.388973,"is_reserved":false,"is_disabled":false,"rental_uris":{"android":"levelo://app?vid=7f0729b9-9a34-4320-b6ac-a13dd3ec6266","ios":"levelo://app?vid=7f0729b9-9a34-4320-b6ac-a13dd3ec6266"},"vehicle_type_id":"4","last_reported":1693253239,"current_range_meters":7600,"station_id":"ce4bh392rcd13ifvqdl0","pricing_plan_id":"free"},{"bike_id":"53aefbc2-7c0f-4cc5-be95-f92f23ff8028","system_id":"levelo_inurba_marseille","lat":43.298764,"lon":5.388973,"is_reserved":false,"is_disabled":false,"rental_uris":{"android":"levelo://app?vid=53aefbc2-7c0f-4cc5-be95-f92f23ff8028","ios":"levelo://app?vid=53aefbc2-7c0f-4cc5-be95-f92f23ff8028"},"vehicle_type_id":"4","last_reported":1693253239,"current_range_meters":31200,"station_id":"ce4bh392rcd13ifvqdl0","pricing_plan_id":"free"},{"bike_id":"8cf404b9-6787-46af-b753-2684f3b9d30a","system_id":"levelo_inurba_marseille","lat":43.298764,"lon":5.388973,"is_reserved":false,"is_disabled":false,"rental_uris":{"android":"levelo://app?vid=8cf404b9-6787-46af-b753-2684f3b9d30a","ios":"levelo://app?vid=8cf404b9-6787-46af-b753-2684f3b9d30a"},"vehicle_type_id":"4","last_reported":1693253239,"current_range_meters":30000,"station_id":"ce4bh392rcd13ifvqdl0","pricing_plan_id":"free"},{"bike_id":"e3cc9056-d5d5-4025-a550-47d063175be2","system_id":"levelo_inurba_marseille","lat":43.291367,"lon":5.370161,"is_reserved":false,"is_disabled":false,"rental_uris":{"android":"levelo://app?vid=e3cc9056-d5d5-4025-a550-47d063175be2","ios":"levelo://app?vid=e3cc9056-d5d5-4025-a550-47d063175be2"},"vehicle_type_id":"4","last_reported":1693253239,"current_range_meters":20400,"station_id":"","pricing_plan_id":"free"},{"bike_id":"f289e0bc-01c2-4256-b4aa-01f481ada5fa","system_id":"levelo_inurba_marseille","lat":43.29107,"lon":5.36861,"is_reserved":false,"is_disabled":false,"rental_uris":{"android":"levelo://app?vid=f289e0bc-01c2-4256-b4aa-01f481ada5fa","ios":"levelo://app?vid=f289e0bc-01c2-4256-b4aa-01f481ada5fa"},"vehicle_type_id":"4","last_reported":1693253239,"current_range_meters":11600,"station_id":"","pricing_plan_id":"free"},{"bike_id":"73c2e0c0-a939-4bc3-943a-e52094180bff","system_id":"levelo_inurba_marseille","lat":43.291994,"lon":5.357886,"is_reserved":false,"is_disabled":false,"rental_uris":{"android":"levelo://app?vid=73c2e0c0-a939-4bc3-943a-e52094180bff","ios":"levelo://app?vid=73c2e0c0-a939-4bc3-943a-e52094180bff"},"vehicle_type_id":"4","last_reported":1693253239,"current_range_meters":19600,"station_id":"ce4bhb12rcd13ifvqel0","pricing_plan_id":"free"},{"bike_id":"d1bdacf3-b6e2-4037-9913-9d14c667bd4e","system_id":"levelo_inurba_marseille","lat":43.313291,"lon":5.396838,"is_reserved":false,"is_disabled":false,"rental_uris":{"android":"levelo://app?vid=d1bdacf3-b6e2-4037-9913-9d14c667bd4e","ios":"levelo://app?vid=d1bdacf3-b6e2-4037-9913-9d14c667bd4e"},"vehicle_type_id":"4","last_reported":1693253239,"current_range_meters":14800,"station_id":"ce4bgvp2rcd13ifvqcu0","pricing_plan_id":"free"},{"bike_id":"90b784df-5be1-4d6d-8a55-8010d77e1fba","system_id":"levelo_inurba_marseille","lat":43.291994,"lon":5.357886,"is_reserved":false,"is_disabled":false,"rental_uris":{"android":"levelo://app?vid=90b784df-5be1-4d6d-8a55-8010d77e1fba","ios":"levelo://app?vid=90b784df-5be1-4d6d-8a55-8010d77e1fba"},"vehicle_type_id":"4","last_reported":1693253239,"current_range_meters":0,"station_id":"ce4bhb12rcd13ifvqel0","pricing_plan_id":"free"},{"bike_id":"9cb0e1d7-da71-4945-9bd2-1833c134d8de","system_id":"levelo_inurba_marseille","lat":43.31337,"lon":5.39694,"is_reserved":false,"is_disabled":false,"rental_uris":{"android":"levelo://app?vid=9cb0e1d7-da71-4945-9bd2-1833c134d8de","ios":"levelo://app?vid=9cb0e1d7-da71-4945-9bd2-1833c134d8de"},"vehicle_type_id":"4","last_reported":1693253239,"current_range_meters":26000,"station_id":"ce4bgvp2rcd13ifvqcu0","pricing_plan_id":"free"},{"bike_id":"207b9659-5f6a-46d8-bf9c-46c1c1a18301","system_id":"levelo_inurba_marseille","lat":43.309038,"lon":5.396546,"is_reserved":false,"is_disabled":false,"rental_uris":{"android":"levelo://app?vid=207b9659-5f6a-46d8-bf9c-46c1c1a18301","ios":"levelo://app?vid=207b9659-5f6a-46d8-bf9c-46c1c1a18301"},"vehicle_type_id":"4","last_reported":1693253239,"current_range_meters":18400,"station_id":"ce4bh012rcd13ifvqcv0","pricing_plan_id":"free"},{"bike_id":"76fa28ca-5248-4e80-b9f6-685886c1b19c","system_id":"levelo_inurba_marseille","lat":43.30887,"lon":5.39656,"is_reserved":false,"is_disabled":false,"rental_uris":{"android":"levelo://app?vid=76fa28ca-5248-4e80-b9f6-685886c1b19c","ios":"levelo://app?vid=76fa28ca-5248-4e80-b9f6-685886c1b19c"},"vehicle_type_id":"4","last_reported":1693253239,"current_range_meters":31200,"station_id":"ce4bh012rcd13ifvqcv0","pricing_plan_id":"free"},{"bike_id":"93579d44-e182-487d-9a5a-c5d3f1173341","system_id":"levelo_inurba_marseille","lat":43.30874,"lon":5.39656,"is_reserved":false,"is_disabled":false,"rental_uris":{"android":"levelo://app?vid=93579d44-e182-487d-9a5a-c5d3f1173341","ios":"levelo://app?vid=93579d44-e182-487d-9a5a-c5d3f1173341"},"vehicle_type_id":"4","last_reported":1693253239,"current_range_meters":9200,"station_id":"ce4bh012rcd13ifvqcv0","pricing_plan_id":"free"},{"bike_id":"cd6ebff8-fe47-41e4-bde0-703b22c10cc2","system_id":"levelo_inurba_marseille","lat":43.2954,"lon":5.38539,"is_reserved":false,"is_disabled":false,"rental_uris":{"android":"levelo://app?vid=cd6ebff8-fe47-41e4-bde0-703b22c10cc2","ios":"levelo://app?vid=cd6ebff8-fe47-41e4-bde0-703b22c10cc2"},"vehicle_type_id":"4","last_reported":1693253239,"current_range_meters":6000,"station_id":"ce4bgih2rcd13ifvqba0","pricing_plan_id":"free"},{"bike_id":"0cb9fe47-de48-4d64-a5a5-d6c1b8b7fde5","system_id":"levelo_inurba_marseille","lat":43.29535,"lon":5.3854,"is_reserved":false,"is_disabled":false,"rental_uris":{"android":"levelo://app?vid=0cb9fe47-de48-4d64-a5a5-d6c1b8b7fde5","ios":"levelo://app?vid=0cb9fe47-de48-4d64-a5a5-d6c1b8b7fde5"},"vehicle_type_id":"4","last_reported":1693253239,"current_range_meters":6400,"station_id":"ce4bgih2rcd13ifvqba0","pricing_plan_id":"free"},{"bike_id":"adb40cce-65e9-4ab6-8426-d0d77cc04130","system_id":"levelo_inurba_marseille","lat":43.29537,"lon":5.38545,"is_reserved":false,"is_disabled":false,"rental_uris":{"android":"levelo://app?vid=adb40cce-65e9-4ab6-8426-d0d77cc04130","ios":"levelo://app?vid=adb40cce-65e9-4ab6-8426-d0d77cc04130"},"vehicle_type_id":"4","last_reported":1693253239,"current_range_meters":8000,"station_id":"ce4bgih2rcd13ifvqba0","pricing_plan_id":"free"},{"bike_id":"c8076b26-8e14-4d78-bb3e-5b42c5241252","system_id":"levelo_inurba_marseille","lat":43.29529,"lon":5.385581,"is_reserved":false,"is_disabled":false,"rental_uris":{"android":"levelo://app?vid=c8076b26-8e14-4d78-bb3e-5b42c5241252","ios":"levelo://app?vid=c8076b26-8e14-4d78-bb3e-5b42c5241252"},"vehicle_type_id":"4","last_reported":1693253239,"current_range_meters":5200,"station_id":"ce4bgih2rcd13ifvqba0","pricing_plan_id":"free"},{"bike_id":"6256fe3d-7866-4a45-bd02-f698e47acda0","system_id":"levelo_inurba_marseille","lat":43.29529,"lon":5.385581,"is_reserved":false,"is_disabled":false,"rental_uris":{"android":"levelo://app?vid=6256fe3d-7866-4a45-bd02-f698e47acda0","ios":"levelo://app?vid=6256fe3d-7866-4a45-bd02-f698e47acda0"},"vehicle_type_id":"4","last_reported":1693253239,"current_range_meters":11200,"station_id":"ce4bgih2rcd13ifvqba0","pricing_plan_id":"free"},{"bike_id":"319978bc-82e4-481a-a534-1fb283c6edfd","system_id":"levelo_inurba_marseille","lat":43.29529,"lon":5.385581,"is_reserved":false,"is_disabled":false,"rental_uris":{"android":"levelo://app?vid=319978bc-82e4-481a-a534-1fb283c6edfd","ios":"levelo://app?vid=319978bc-82e4-481a-a534-1fb283c6edfd"},"vehicle_type_id":"4","last_reported":1693253239,"current_range_meters":15200,"station_id":"ce4bgih2rcd13ifvqba0","pricing_plan_id":"free"},{"bike_id":"8ccd624e-1dfe-42fb-a5e3-cbbc046c8a43","system_id":"levelo_inurba_marseille","lat":43.29529,"lon":5.385581,"is_reserved":false,"is_disabled":false,"rental_uris":{"android":"levelo://app?vid=8ccd624e-1dfe-42fb-a5e3-cbbc046c8a43","ios":"levelo://app?vid=8ccd624e-1dfe-42fb-a5e3-cbbc046c8a43"},"vehicle_type_id":"4","last_reported":1693253239,"current_range_meters":31200,"station_id":"ce4bgih2rcd13ifvqba0","pricing_plan_id":"free"},{"bike_id":"e0cb8577-0998-409c-bc7b-488ee9979d9b","system_id":"levelo_inurba_marseille","lat":43.29529,"lon":5.385581,"is_reserved":false,"is_disabled":false,"rental_uris":{"android":"levelo://app?vid=e0cb8577-0998-409c-bc7b-488ee9979d9b","ios":"levelo://app?vid=e0cb8577-0998-409c-bc7b-488ee9979d9b"},"vehicle_type_id":"4","last_reported":1693253239,"current_range_meters":10800,"station_id":"ce4bgih2rcd13ifvqba0","pricing_plan_id":"free"},{"bike_id":"fef36b54-9143-4bf9-8847-9af55a100118","system_id":"levelo_inurba_marseille","lat":43.29529,"lon":5.385581,"is_reserved":false,"is_disabled":false,"rental_uris":{"android":"levelo://app?vid=fef36b54-9143-4bf9-8847-9af55a100118","ios":"levelo://app?vid=fef36b54-9143-4bf9-8847-9af55a100118"},"vehicle_type_id":"4","last_reported":1693253239,"current_range_meters":20000,"station_id":"ce4bgih2rcd13ifvqba0","pricing_plan_id":"free"},{"bike_id":"b0270b44-f55f-475e-af3c-5c0c32f9b4de","system_id":"levelo_inurba_marseille","lat":43.29529,"lon":5.385581,"is_reserved":false,"is_disabled":false,"rental_uris":{"android":"levelo://app?vid=b0270b44-f55f-475e-af3c-5c0c32f9b4de","ios":"levelo://app?vid=b0270b44-f55f-475e-af3c-5c0c32f9b4de"},"vehicle_type_id":"4","last_reported":1693253239,"current_range_meters":31200,"station_id":"ce4bgih2rcd13ifvqba0","pricing_plan_id":"free"},{"bike_id":"428d8185-60ab-49df-88a7-0378f9da6dc8","system_id":"levelo_inurba_marseille","lat":43.29525,"lon":5.38538,"is_reserved":false,"is_disabled":false,"rental_uris":{"android":"levelo://app?vid=428d8185-60ab-49df-88a7-0378f9da6dc8","ios":"levelo://app?vid=428d8185-60ab-49df-88a7-0378f9da6dc8"},"vehicle_type_id":"4","last_reported":1693253239,"current_range_meters":23600,"station_id":"ce4bgih2rcd13ifvqba0","pricing_plan_id":"free"},{"bike_id":"f80cc9d6-00a2-41e6-aeca-2c850957c59e","system_id":"levelo_inurba_marseille","lat":43.290779,"lon":5.371482,"is_reserved":false,"is_disabled":false,"rental_uris":{"android":"levelo://app?vid=f80cc9d6-00a2-41e6-aeca-2c850957c59e","ios":"levelo://app?vid=f80cc9d6-00a2-41e6-aeca-2c850957c59e"},"vehicle_type_id":"4","last_reported":1693253239,"current_range_meters":30000,"station_id":"ce4bh5p2rcd13ifvqe4g","pricing_plan_id":"free"},{"bike_id":"393c0cfc-f92b-49ac-b84f-fb04f0135a75","system_id":"levelo_inurba_marseille","lat":43.290779,"lon":5.371482,"is_reserved":false,"is_disabled":false,"rental_uris":{"android":"levelo://app?vid=393c0cfc-f92b-49ac-b84f-fb04f0135a75","ios":"levelo://app?vid=393c0cfc-f92b-49ac-b84f-fb04f0135a75"},"vehicle_type_id":"4","last_reported":1693253239,"current_range_meters":24800,"station_id":"ce4bh5p2rcd13ifvqe4g","pricing_plan_id":"free"},{"bike_id":"088b64a8-ec7c-43a7-b77d-866225a13465","system_id":"levelo_inurba_marseille","lat":43.29051,"lon":5.35914,"is_reserved":false,"is_disabled":false,"rental_uris":{"android":"levelo://app?vid=088b64a8-ec7c-43a7-b77d-866225a13465","ios":"levelo://app?vid=088b64a8-ec7c-43a7-b77d-866225a13465"},"vehicle_type_id":"4","last_reported":1693253239,"current_range_meters":4800,"station_id":"ce4bha92rcd13ifvqeg0","pricing_plan_id":"free"},{"bike_id":"4dab3dcb-c9fb-4d48-a533-18062db1a05e","system_id":"levelo_inurba_marseille","lat":43.290631,"lon":5.359244,"is_reserved":false,"is_disabled":false,"rental_uris":{"android":"levelo://app?vid=4dab3dcb-c9fb-4d48-a533-18062db1a05e","ios":"levelo://app?vid=4dab3dcb-c9fb-4d48-a533-18062db1a05e"},"vehicle_type_id":"4","last_reported":1693253239,"current_range_meters":18800,"station_id":"ce4bha92rcd13ifvqeg0","pricing_plan_id":"free"},{"bike_id":"e75e2683-5607-4a65-81b0-b18d90b2f612","system_id":"levelo_inurba_marseille","lat":43.29423,"lon":5.38625,"is_reserved":false,"is_disabled":false,"rental_uris":{"android":"levelo://app?vid=e75e2683-5607-4a65-81b0-b18d90b2f612","ios":"levelo://app?vid=e75e2683-5607-4a65-81b0-b18d90b2f612"},"vehicle_type_id":"4","last_reported":1693253239,"current_range_meters":19200,"station_id":"ce4bh2h2rcd13ifvqdh0","pricing_plan_id":"free"},{"bike_id":"badcbc32-f6cd-4b39-a009-af35a526e3ed","system_id":"levelo_inurba_marseille","lat":43.28946,"lon":5.3663,"is_reserved":false,"is_disabled":false,"rental_uris":{"android":"levelo://app?vid=badcbc32-f6cd-4b39-a009-af35a526e3ed","ios":"levelo://app?vid=badcbc32-f6cd-4b39-a009-af35a526e3ed"},"vehicle_type_id":"4","last_reported":1693253239,"current_range_meters":1600,"station_id":"ce4bhap2rcd13ifvqek0","pricing_plan_id":"free"},{"bike_id":"f46a698c-22b8-4dc0-8388-b184a7842d54","system_id":"levelo_inurba_marseille","lat":43.289184,"lon":5.366408,"is_reserved":false,"is_disabled":false,"rental_uris":{"android":"levelo://app?vid=f46a698c-22b8-4dc0-8388-b184a7842d54","ios":"levelo://app?vid=f46a698c-22b8-4dc0-8388-b184a7842d54"},"vehicle_type_id":"4","last_reported":1693253239,"current_range_meters":30400,"station_id":"ce4bhap2rcd13ifvqek0","pricing_plan_id":"free"},{"bike_id":"b8396dba-cdeb-4343-8cc0-5b433d0d55f5","system_id":"levelo_inurba_marseille","lat":43.290327,"lon":5.375711,"is_reserved":false,"is_disabled":false,"rental_uris":{"android":"levelo://app?vid=b8396dba-cdeb-4343-8cc0-5b433d0d55f5","ios":"levelo://app?vid=b8396dba-cdeb-4343-8cc0-5b433d0d55f5"},"vehicle_type_id":"4","last_reported":1693253239,"current_range_meters":9200,"station_id":"ce4bh692rcd13ifvqe90","pricing_plan_id":"free"},{"bike_id":"80563939-f3a9-403e-ac7b-ef422ee6232c","system_id":"levelo_inurba_marseille","lat":43.289468,"lon":5.363719,"is_reserved":false,"is_disabled":false,"rental_uris":{"android":"levelo://app?vid=80563939-f3a9-403e-ac7b-ef422ee6232c","ios":"levelo://app?vid=80563939-f3a9-403e-ac7b-ef422ee6232c"},"vehicle_type_id":"4","last_reported":1693253239,"current_range_meters":3200,"station_id":"ce4bhc92rcd13ifvqetg","pricing_plan_id":"free"},{"bike_id":"b89d6ad1-1442-4633-a992-8c503a78f543","system_id":"levelo_inurba_marseille","lat":43.289184,"lon":5.366408,"is_reserved":false,"is_disabled":false,"rental_uris":{"android":"levelo://app?vid=b89d6ad1-1442-4633-a992-8c503a78f543","ios":"levelo://app?vid=b89d6ad1-1442-4633-a992-8c503a78f543"},"vehicle_type_id":"4","last_reported":1693253239,"current_range_meters":4000,"station_id":"ce4bhap2rcd13ifvqek0","pricing_plan_id":"free"},{"bike_id":"887bf475-9160-444e-aec6-656b8ca0b56a","system_id":"levelo_inurba_marseille","lat":43.29415,"lon":5.38627,"is_reserved":false,"is_disabled":false,"rental_uris":{"android":"levelo://app?vid=887bf475-9160-444e-aec6-656b8ca0b56a","ios":"levelo://app?vid=887bf475-9160-444e-aec6-656b8ca0b56a"},"vehicle_type_id":"4","last_reported":1693253239,"current_range_meters":25600,"station_id":"ce4bh2h2rcd13ifvqdh0","pricing_plan_id":"free"},{"bike_id":"ae7d034a-3523-481f-8c97-57a8b203b3d0","system_id":"levelo_inurba_marseille","lat":43.289184,"lon":5.366408,"is_reserved":false,"is_disabled":false,"rental_uris":{"android":"levelo://app?vid=ae7d034a-3523-481f-8c97-57a8b203b3d0","ios":"levelo://app?vid=ae7d034a-3523-481f-8c97-57a8b203b3d0"},"vehicle_type_id":"4","last_reported":1693253239,"current_range_meters":25200,"station_id":"ce4bhap2rcd13ifvqek0","pricing_plan_id":"free"},{"bike_id":"a0faf3e0-0126-47d6-8cfb-babb71596414","system_id":"levelo_inurba_marseille","lat":43.289184,"lon":5.366408,"is_reserved":false,"is_disabled":false,"rental_uris":{"android":"levelo://app?vid=a0faf3e0-0126-47d6-8cfb-babb71596414","ios":"levelo://app?vid=a0faf3e0-0126-47d6-8cfb-babb71596414"},"vehicle_type_id":"4","last_reported":1693253239,"current_range_meters":0,"station_id":"ce4bhap2rcd13ifvqek0","pricing_plan_id":"free"},{"bike_id":"47e7d48e-a58a-4f68-9303-2118bd87ca6c","system_id":"levelo_inurba_marseille","lat":43.29415,"lon":5.38632,"is_reserved":false,"is_disabled":false,"rental_uris":{"android":"levelo://app?vid=47e7d48e-a58a-4f68-9303-2118bd87ca6c","ios":"levelo://app?vid=47e7d48e-a58a-4f68-9303-2118bd87ca6c"},"vehicle_type_id":"4","last_reported":1693253239,"current_range_meters":6400,"station_id":"ce4bh2h2rcd13ifvqdh0","pricing_plan_id":"free"},{"bike_id":"4e631560-3c54-4ffe-80ba-d62ce6049e9d","system_id":"levelo_inurba_marseille","lat":43.28939,"lon":5.36641,"is_reserved":false,"is_disabled":false,"rental_uris":{"android":"levelo://app?vid=4e631560-3c54-4ffe-80ba-d62ce6049e9d","ios":"levelo://app?vid=4e631560-3c54-4ffe-80ba-d62ce6049e9d"},"vehicle_type_id":"4","last_reported":1693253239,"current_range_meters":16800,"station_id":"ce4bhap2rcd13ifvqek0","pricing_plan_id":"free"},{"bike_id":"6d3a4816-0515-4431-8777-4175c062349d","system_id":"levelo_inurba_marseille","lat":43.28939,"lon":5.36638,"is_reserved":false,"is_disabled":false,"rental_uris":{"android":"levelo://app?vid=6d3a4816-0515-4431-8777-4175c062349d","ios":"levelo://app?vid=6d3a4816-0515-4431-8777-4175c062349d"},"vehicle_type_id":"4","last_reported":1693253239,"current_range_meters":28800,"station_id":"ce4bhap2rcd13ifvqek0","pricing_plan_id":"free"},{"bike_id":"aa1e4ad7-04a4-4cf9-9e7b-c19e039a6848","system_id":"levelo_inurba_marseille","lat":43.28937,"lon":5.3664,"is_reserved":false,"is_disabled":false,"rental_uris":{"android":"levelo://app?vid=aa1e4ad7-04a4-4cf9-9e7b-c19e039a6848","ios":"levelo://app?vid=aa1e4ad7-04a4-4cf9-9e7b-c19e039a6848"},"vehicle_type_id":"4","last_reported":1693253239,"current_range_meters":24000,"station_id":"ce4bhap2rcd13ifvqek0","pricing_plan_id":"free"},{"bike_id":"54c822a5-c39f-4dde-aba1-8307123429fb","system_id":"levelo_inurba_marseille","lat":43.28937,"lon":5.36637,"is_reserved":false,"is_disabled":false,"rental_uris":{"android":"levelo://app?vid=54c822a5-c39f-4dde-aba1-8307123429fb","ios":"levelo://app?vid=54c822a5-c39f-4dde-aba1-8307123429fb"},"vehicle_type_id":"4","last_reported":1693253239,"current_range_meters":2800,"station_id":"ce4bhap2rcd13ifvqek0","pricing_plan_id":"free"},{"bike_id":"b0a61843-5655-4b4e-a46b-1da871d6ced2","system_id":"levelo_inurba_marseille","lat":43.289184,"lon":5.366408,"is_reserved":false,"is_disabled":false,"rental_uris":{"android":"levelo://app?vid=b0a61843-5655-4b4e-a46b-1da871d6ced2","ios":"levelo://app?vid=b0a61843-5655-4b4e-a46b-1da871d6ced2"},"vehicle_type_id":"4","last_reported":1693253239,"current_range_meters":12400,"station_id":"ce4bhap2rcd13ifvqek0","pricing_plan_id":"free"},{"bike_id":"2f93318d-a393-4e93-88c9-60d3ec241b0e","system_id":"levelo_inurba_marseille","lat":43.28933,"lon":5.36631,"is_reserved":false,"is_disabled":false,"rental_uris":{"android":"levelo://app?vid=2f93318d-a393-4e93-88c9-60d3ec241b0e","ios":"levelo://app?vid=2f93318d-a393-4e93-88c9-60d3ec241b0e"},"vehicle_type_id":"4","last_reported":1693253239,"current_range_meters":31200,"station_id":"ce4bhap2rcd13ifvqek0","pricing_plan_id":"free"},{"bike_id":"df1f572e-5658-447b-8856-20faa357e668","system_id":"levelo_inurba_marseille","lat":43.28931,"lon":5.36638,"is_reserved":false,"is_disabled":false,"rental_uris":{"android":"levelo://app?vid=df1f572e-5658-447b-8856-20faa357e668","ios":"levelo://app?vid=df1f572e-5658-447b-8856-20faa357e668"},"vehicle_type_id":"4","last_reported":1693253239,"current_range_meters":31200,"station_id":"ce4bhap2rcd13ifvqek0","pricing_plan_id":"free"},{"bike_id":"1d93164e-8cd2-423f-aef3-6380c1123a7e","system_id":"levelo_inurba_marseille","lat":43.289468,"lon":5.363719,"is_reserved":false,"is_disabled":false,"rental_uris":{"android":"levelo://app?vid=1d93164e-8cd2-423f-aef3-6380c1123a7e","ios":"levelo://app?vid=1d93164e-8cd2-423f-aef3-6380c1123a7e"},"vehicle_type_id":"4","last_reported":1693253239,"current_range_meters":31600,"station_id":"ce4bhc92rcd13ifvqetg","pricing_plan_id":"free"},{"bike_id":"534d0ef9-850d-4eda-b4d4-d4ebf2bb0a48","system_id":"levelo_inurba_marseille","lat":43.28919,"lon":5.36383,"is_reserved":false,"is_disabled":false,"rental_uris":{"android":"levelo://app?vid=534d0ef9-850d-4eda-b4d4-d4ebf2bb0a48","ios":"levelo://app?vid=534d0ef9-850d-4eda-b4d4-d4ebf2bb0a48"},"vehicle_type_id":"4","last_reported":1693253239,"current_range_meters":30000,"station_id":"ce4bhc92rcd13ifvqetg","pricing_plan_id":"free"},{"bike_id":"0a705d42-5962-4a4d-b865-97d336910760","system_id":"levelo_inurba_marseille","lat":43.292644,"lon":5.384257,"is_reserved":false,"is_disabled":false,"rental_uris":{"android":"levelo://app?vid=0a705d42-5962-4a4d-b865-97d336910760","ios":"levelo://app?vid=0a705d42-5962-4a4d-b865-97d336910760"},"vehicle_type_id":"4","last_reported":1693253239,"current_range_meters":4000,"station_id":"ce4bh692rcd13ifvqea0","pricing_plan_id":"free"},{"bike_id":"076b90a4-5fa2-4813-8cae-64c2ce3c429c","system_id":"levelo_inurba_marseille","lat":43.289468,"lon":5.363719,"is_reserved":false,"is_disabled":false,"rental_uris":{"android":"levelo://app?vid=076b90a4-5fa2-4813-8cae-64c2ce3c429c","ios":"levelo://app?vid=076b90a4-5fa2-4813-8cae-64c2ce3c429c"},"vehicle_type_id":"4","last_reported":1693253239,"current_range_meters":23600,"station_id":"ce4bhc92rcd13ifvqetg","pricing_plan_id":"free"},{"bike_id":"f9cda1cd-c7b9-4695-8add-1f641fcc7c32","system_id":"levelo_inurba_marseille","lat":43.292642,"lon":5.384254,"is_reserved":false,"is_disabled":false,"rental_uris":{"android":"levelo://app?vid=f9cda1cd-c7b9-4695-8add-1f641fcc7c32","ios":"levelo://app?vid=f9cda1cd-c7b9-4695-8add-1f641fcc7c32"},"vehicle_type_id":"4","last_reported":1693253239,"current_range_meters":31200,"station_id":"ce4bh692rcd13ifvqea0","pricing_plan_id":"free"},{"bike_id":"c8e2ae31-a90a-466e-bd98-d10e629bb246","system_id":"levelo_inurba_marseille","lat":43.292644,"lon":5.384257,"is_reserved":false,"is_disabled":false,"rental_uris":{"android":"levelo://app?vid=c8e2ae31-a90a-466e-bd98-d10e629bb246","ios":"levelo://app?vid=c8e2ae31-a90a-466e-bd98-d10e629bb246"},"vehicle_type_id":"4","last_reported":1693253239,"current_range_meters":24000,"station_id":"ce4bh692rcd13ifvqea0","pricing_plan_id":"free"},{"bike_id":"fe16944e-9122-45ac-8405-fe99692f50d0","system_id":"levelo_inurba_marseille","lat":43.292644,"lon":5.384257,"is_reserved":false,"is_disabled":false,"rental_uris":{"android":"levelo://app?vid=fe16944e-9122-45ac-8405-fe99692f50d0","ios":"levelo://app?vid=fe16944e-9122-45ac-8405-fe99692f50d0"},"vehicle_type_id":"4","last_reported":1693253239,"current_range_meters":31600,"station_id":"ce4bh692rcd13ifvqea0","pricing_plan_id":"free"},{"bike_id":"2f433e22-2771-4736-a903-9c2b3d45cce9","system_id":"levelo_inurba_marseille","lat":43.292642,"lon":5.384254,"is_reserved":false,"is_disabled":false,"rental_uris":{"android":"levelo://app?vid=2f433e22-2771-4736-a903-9c2b3d45cce9","ios":"levelo://app?vid=2f433e22-2771-4736-a903-9c2b3d45cce9"},"vehicle_type_id":"4","last_reported":1693253239,"current_range_meters":30800,"station_id":"ce4bh692rcd13ifvqea0","pricing_plan_id":"free"},{"bike_id":"f8c94f28-0cd7-4fbe-a1e3-4c0ad125fa88","system_id":"levelo_inurba_marseille","lat":43.292644,"lon":5.384257,"is_reserved":false,"is_disabled":false,"rental_uris":{"android":"levelo://app?vid=f8c94f28-0cd7-4fbe-a1e3-4c0ad125fa88","ios":"levelo://app?vid=f8c94f28-0cd7-4fbe-a1e3-4c0ad125fa88"},"vehicle_type_id":"4","last_reported":1693253239,"current_range_meters":22000,"station_id":"ce4bh692rcd13ifvqea0","pricing_plan_id":"free"},{"bike_id":"cd31569f-3b11-4ca1-8912-705fda14a86f","system_id":"levelo_inurba_marseille","lat":43.292644,"lon":5.384257,"is_reserved":false,"is_disabled":false,"rental_uris":{"android":"levelo://app?vid=cd31569f-3b11-4ca1-8912-705fda14a86f","ios":"levelo://app?vid=cd31569f-3b11-4ca1-8912-705fda14a86f"},"vehicle_type_id":"4","last_reported":1693253239,"current_range_meters":13600,"station_id":"ce4bh692rcd13ifvqea0","pricing_plan_id":"free"},{"bike_id":"0739f11c-f125-415d-ab38-e87a81b51d55","system_id":"levelo_inurba_marseille","lat":43.292644,"lon":5.384257,"is_reserved":false,"is_disabled":false,"rental_uris":{"android":"levelo://app?vid=0739f11c-f125-415d-ab38-e87a81b51d55","ios":"levelo://app?vid=0739f11c-f125-415d-ab38-e87a81b51d55"},"vehicle_type_id":"4","last_reported":1693253239,"current_range_meters":2800,"station_id":"ce4bh692rcd13ifvqea0","pricing_plan_id":"free"},{"bike_id":"ae9e0a16-d99d-4d29-ada3-aafea5ae5232","system_id":"levelo_inurba_marseille","lat":43.29271,"lon":5.38444,"is_reserved":false,"is_disabled":false,"rental_uris":{"android":"levelo://app?vid=ae9e0a16-d99d-4d29-ada3-aafea5ae5232","ios":"levelo://app?vid=ae9e0a16-d99d-4d29-ada3-aafea5ae5232"},"vehicle_type_id":"4","last_reported":1693253239,"current_range_meters":5600,"station_id":"ce4bh692rcd13ifvqea0","pricing_plan_id":"free"},{"bike_id":"cea60e51-dae4-4678-88cb-5964cbcefa1b","system_id":"levelo_inurba_marseille","lat":43.292644,"lon":5.384257,"is_reserved":false,"is_disabled":false,"rental_uris":{"android":"levelo://app?vid=cea60e51-dae4-4678-88cb-5964cbcefa1b","ios":"levelo://app?vid=cea60e51-dae4-4678-88cb-5964cbcefa1b"},"vehicle_type_id":"4","last_reported":1693253239,"current_range_meters":13600,"station_id":"ce4bh692rcd13ifvqea0","pricing_plan_id":"free"},{"bike_id":"f9026374-ae1b-4b33-86c0-60c88bb7351f","system_id":"levelo_inurba_marseille","lat":43.292644,"lon":5.384257,"is_reserved":false,"is_disabled":false,"rental_uris":{"android":"levelo://app?vid=f9026374-ae1b-4b33-86c0-60c88bb7351f","ios":"levelo://app?vid=f9026374-ae1b-4b33-86c0-60c88bb7351f"},"vehicle_type_id":"4","last_reported":1693253239,"current_range_meters":20800,"station_id":"ce4bh692rcd13ifvqea0","pricing_plan_id":"free"},{"bike_id":"ff858340-936d-40f1-852d-c811a2b4dfb7","system_id":"levelo_inurba_marseille","lat":43.292644,"lon":5.384257,"is_reserved":false,"is_disabled":false,"rental_uris":{"android":"levelo://app?vid=ff858340-936d-40f1-852d-c811a2b4dfb7","ios":"levelo://app?vid=ff858340-936d-40f1-852d-c811a2b4dfb7"},"vehicle_type_id":"4","last_reported":1693253239,"current_range_meters":0,"station_id":"ce4bh692rcd13ifvqea0","pricing_plan_id":"free"},{"bike_id":"6f62d696-572d-4e3a-9496-d3f8c343492b","system_id":"levelo_inurba_marseille","lat":43.292644,"lon":5.384257,"is_reserved":false,"is_disabled":false,"rental_uris":{"android":"levelo://app?vid=6f62d696-572d-4e3a-9496-d3f8c343492b","ios":"levelo://app?vid=6f62d696-572d-4e3a-9496-d3f8c343492b"},"vehicle_type_id":"4","last_reported":1693253239,"current_range_meters":0,"station_id":"ce4bh692rcd13ifvqea0","pricing_plan_id":"free"},{"bike_id":"f97182dd-360a-4801-b322-36de65fa2568","system_id":"levelo_inurba_marseille","lat":43.30424,"lon":5.39753,"is_reserved":false,"is_disabled":false,"rental_uris":{"android":"levelo://app?vid=f97182dd-360a-4801-b322-36de65fa2568","ios":"levelo://app?vid=f97182dd-360a-4801-b322-36de65fa2568"},"vehicle_type_id":"4","last_reported":1693253239,"current_range_meters":27600,"station_id":"ce4bh092rcd13ifvqd20","pricing_plan_id":"free"},{"bike_id":"18fb6099-d984-4b35-8533-12bb40c51e90","system_id":"levelo_inurba_marseille","lat":43.2911,"lon":5.38117,"is_reserved":false,"is_disabled":false,"rental_uris":{"android":"levelo://app?vid=18fb6099-d984-4b35-8533-12bb40c51e90","ios":"levelo://app?vid=18fb6099-d984-4b35-8533-12bb40c51e90"},"vehicle_type_id":"4","last_reported":1693253239,"current_range_meters":29200,"station_id":"","pricing_plan_id":"free"},{"bike_id":"028b16b4-c861-455c-93e2-214442c48086","system_id":"levelo_inurba_marseille","lat":43.290103,"lon":5.356114,"is_reserved":false,"is_disabled":false,"rental_uris":{"android":"levelo://app?vid=028b16b4-c861-455c-93e2-214442c48086","ios":"levelo://app?vid=028b16b4-c861-455c-93e2-214442c48086"},"vehicle_type_id":"4","last_reported":1693253239,"current_range_meters":30800,"station_id":"ce4bhb92rcd13ifvqen0","pricing_plan_id":"free"},{"bike_id":"1895038e-acdb-4d35-aa35-e1291f23a30a","system_id":"levelo_inurba_marseille","lat":43.290104,"lon":5.356111,"is_reserved":false,"is_disabled":false,"rental_uris":{"android":"levelo://app?vid=1895038e-acdb-4d35-aa35-e1291f23a30a","ios":"levelo://app?vid=1895038e-acdb-4d35-aa35-e1291f23a30a"},"vehicle_type_id":"4","last_reported":1693253239,"current_range_meters":31200,"station_id":"ce4bhb92rcd13ifvqen0","pricing_plan_id":"free"},{"bike_id":"6b2e4544-97a3-438d-856b-a0cb2f7d157b","system_id":"levelo_inurba_marseille","lat":43.290995,"lon":5.381361,"is_reserved":false,"is_disabled":false,"rental_uris":{"android":"levelo://app?vid=6b2e4544-97a3-438d-856b-a0cb2f7d157b","ios":"levelo://app?vid=6b2e4544-97a3-438d-856b-a0cb2f7d157b"},"vehicle_type_id":"4","last_reported":1693253239,"current_range_meters":21600,"station_id":"ce4bh512rcd13ifvqe2g","pricing_plan_id":"free"},{"bike_id":"ebdd008a-f64b-49e7-bbe1-205077bcdea0","system_id":"levelo_inurba_marseille","lat":43.290995,"lon":5.381361,"is_reserved":false,"is_disabled":false,"rental_uris":{"android":"levelo://app?vid=ebdd008a-f64b-49e7-bbe1-205077bcdea0","ios":"levelo://app?vid=ebdd008a-f64b-49e7-bbe1-205077bcdea0"},"vehicle_type_id":"4","last_reported":1693253239,"current_range_meters":30400,"station_id":"ce4bh512rcd13ifvqe2g","pricing_plan_id":"free"},{"bike_id":"46c92aa1-e44e-4cfd-b5bd-bdb75ffe8cb6","system_id":"levelo_inurba_marseille","lat":43.290995,"lon":5.381361,"is_reserved":false,"is_disabled":false,"rental_uris":{"android":"levelo://app?vid=46c92aa1-e44e-4cfd-b5bd-bdb75ffe8cb6","ios":"levelo://app?vid=46c92aa1-e44e-4cfd-b5bd-bdb75ffe8cb6"},"vehicle_type_id":"4","last_reported":1693253239,"current_range_meters":24000,"station_id":"ce4bh512rcd13ifvqe2g","pricing_plan_id":"free"},{"bike_id":"9cab11f6-51d1-4d34-ad66-8a713f70d6e5","system_id":"levelo_inurba_marseille","lat":43.297815,"lon":5.393548,"is_reserved":false,"is_disabled":false,"rental_uris":{"android":"levelo://app?vid=9cab11f6-51d1-4d34-ad66-8a713f70d6e5","ios":"levelo://app?vid=9cab11f6-51d1-4d34-ad66-8a713f70d6e5"},"vehicle_type_id":"4","last_reported":1693253239,"current_range_meters":2800,"station_id":"chh1huq6cuj3fo74tm60","pricing_plan_id":"free"},{"bike_id":"703760fc-dcd5-4d34-9c18-8353ef9b73d9","system_id":"levelo_inurba_marseille","lat":43.295169,"lon":5.390426,"is_reserved":false,"is_disabled":false,"rental_uris":{"android":"levelo://app?vid=703760fc-dcd5-4d34-9c18-8353ef9b73d9","ios":"levelo://app?vid=703760fc-dcd5-4d34-9c18-8353ef9b73d9"},"vehicle_type_id":"4","last_reported":1693253239,"current_range_meters":16400,"station_id":"ce4bh3p2rcd13ifvqdp0","pricing_plan_id":"free"},{"bike_id":"c3b66f04-8989-4930-ac15-baab5dd8f7f5","system_id":"levelo_inurba_marseille","lat":43.297815,"lon":5.393548,"is_reserved":false,"is_disabled":false,"rental_uris":{"android":"levelo://app?vid=c3b66f04-8989-4930-ac15-baab5dd8f7f5","ios":"levelo://app?vid=c3b66f04-8989-4930-ac15-baab5dd8f7f5"},"vehicle_type_id":"4","last_reported":1693253239,"current_range_meters":17200,"station_id":"chh1huq6cuj3fo74tm60","pricing_plan_id":"free"},{"bike_id":"a8f12a65-9259-40d5-aca4-1095e9a25024","system_id":"levelo_inurba_marseille","lat":43.29772,"lon":5.39337,"is_reserved":false,"is_disabled":false,"rental_uris":{"android":"levelo://app?vid=a8f12a65-9259-40d5-aca4-1095e9a25024","ios":"levelo://app?vid=a8f12a65-9259-40d5-aca4-1095e9a25024"},"vehicle_type_id":"4","last_reported":1693253239,"current_range_meters":27200,"station_id":"chh1huq6cuj3fo74tm60","pricing_plan_id":"free"},{"bike_id":"c2189fc2-1149-4105-8519-751abd5fc7f3","system_id":"levelo_inurba_marseille","lat":43.295169,"lon":5.390426,"is_reserved":false,"is_disabled":false,"rental_uris":{"android":"levelo://app?vid=c2189fc2-1149-4105-8519-751abd5fc7f3","ios":"levelo://app?vid=c2189fc2-1149-4105-8519-751abd5fc7f3"},"vehicle_type_id":"4","last_reported":1693253239,"current_range_meters":31600,"station_id":"ce4bh3p2rcd13ifvqdp0","pricing_plan_id":"free"},{"bike_id":"6b68d70e-9a7c-4e8c-8cca-0d5f08cdae39","system_id":"levelo_inurba_marseille","lat":43.295169,"lon":5.390426,"is_reserved":false,"is_disabled":false,"rental_uris":{"android":"levelo://app?vid=6b68d70e-9a7c-4e8c-8cca-0d5f08cdae39","ios":"levelo://app?vid=6b68d70e-9a7c-4e8c-8cca-0d5f08cdae39"},"vehicle_type_id":"4","last_reported":1693253239,"current_range_meters":24400,"station_id":"ce4bh3p2rcd13ifvqdp0","pricing_plan_id":"free"},{"bike_id":"65f188f4-9a9f-4fda-aae4-655fa798b694","system_id":"levelo_inurba_marseille","lat":43.29525,"lon":5.39042,"is_reserved":false,"is_disabled":false,"rental_uris":{"android":"levelo://app?vid=65f188f4-9a9f-4fda-aae4-655fa798b694","ios":"levelo://app?vid=65f188f4-9a9f-4fda-aae4-655fa798b694"},"vehicle_type_id":"4","last_reported":1693253239,"current_range_meters":24800,"station_id":"ce4bh3p2rcd13ifvqdp0","pricing_plan_id":"free"},{"bike_id":"a0fed3cd-664d-405b-b62f-8f764cd77a0b","system_id":"levelo_inurba_marseille","lat":43.295169,"lon":5.390426,"is_reserved":false,"is_disabled":false,"rental_uris":{"android":"levelo://app?vid=a0fed3cd-664d-405b-b62f-8f764cd77a0b","ios":"levelo://app?vid=a0fed3cd-664d-405b-b62f-8f764cd77a0b"},"vehicle_type_id":"4","last_reported":1693253239,"current_range_meters":31200,"station_id":"ce4bh3p2rcd13ifvqdp0","pricing_plan_id":"free"},{"bike_id":"576a1a9c-b482-472d-a8cd-ea78e9bcb55d","system_id":"levelo_inurba_marseille","lat":43.295169,"lon":5.390426,"is_reserved":false,"is_disabled":false,"rental_uris":{"android":"levelo://app?vid=576a1a9c-b482-472d-a8cd-ea78e9bcb55d","ios":"levelo://app?vid=576a1a9c-b482-472d-a8cd-ea78e9bcb55d"},"vehicle_type_id":"4","last_reported":1693253239,"current_range_meters":31600,"station_id":"ce4bh3p2rcd13ifvqdp0","pricing_plan_id":"free"},{"bike_id":"250f6937-904b-40eb-9ecf-5d0a9e6f954c","system_id":"levelo_inurba_marseille","lat":43.295169,"lon":5.390426,"is_reserved":false,"is_disabled":false,"rental_uris":{"android":"levelo://app?vid=250f6937-904b-40eb-9ecf-5d0a9e6f954c","ios":"levelo://app?vid=250f6937-904b-40eb-9ecf-5d0a9e6f954c"},"vehicle_type_id":"4","last_reported":1693253239,"current_range_meters":19200,"station_id":"ce4bh3p2rcd13ifvqdp0","pricing_plan_id":"free"},{"bike_id":"106742ec-0875-4bf7-8863-2469a04f6869","system_id":"levelo_inurba_marseille","lat":43.295169,"lon":5.390426,"is_reserved":false,"is_disabled":false,"rental_uris":{"android":"levelo://app?vid=106742ec-0875-4bf7-8863-2469a04f6869","ios":"levelo://app?vid=106742ec-0875-4bf7-8863-2469a04f6869"},"vehicle_type_id":"4","last_reported":1693253239,"current_range_meters":31200,"station_id":"ce4bh3p2rcd13ifvqdp0","pricing_plan_id":"free"},{"bike_id":"b5bab7c7-d0e9-4202-9dc0-a4da81c7ae0a","system_id":"levelo_inurba_marseille","lat":43.295169,"lon":5.390426,"is_reserved":false,"is_disabled":false,"rental_uris":{"android":"levelo://app?vid=b5bab7c7-d0e9-4202-9dc0-a4da81c7ae0a","ios":"levelo://app?vid=b5bab7c7-d0e9-4202-9dc0-a4da81c7ae0a"},"vehicle_type_id":"4","last_reported":1693253239,"current_range_meters":6400,"station_id":"ce4bh3p2rcd13ifvqdp0","pricing_plan_id":"free"},{"bike_id":"0d171b9b-790a-4fe7-83f1-8697cb452c82","system_id":"levelo_inurba_marseille","lat":43.295169,"lon":5.390426,"is_reserved":false,"is_disabled":false,"rental_uris":{"android":"levelo://app?vid=0d171b9b-790a-4fe7-83f1-8697cb452c82","ios":"levelo://app?vid=0d171b9b-790a-4fe7-83f1-8697cb452c82"},"vehicle_type_id":"4","last_reported":1693253239,"current_range_meters":10800,"station_id":"ce4bh3p2rcd13ifvqdp0","pricing_plan_id":"free"},{"bike_id":"616da765-f630-40d3-8a4a-bb74c42be17b","system_id":"levelo_inurba_marseille","lat":43.28856,"lon":5.358371,"is_reserved":false,"is_disabled":false,"rental_uris":{"android":"levelo://app?vid=616da765-f630-40d3-8a4a-bb74c42be17b","ios":"levelo://app?vid=616da765-f630-40d3-8a4a-bb74c42be17b"},"vehicle_type_id":"4","last_reported":1693253239,"current_range_meters":28800,"station_id":"ce4bhb12rcd13ifvqem0","pricing_plan_id":"free"},{"bike_id":"efc871c5-4a44-46bc-89fd-96c999ba9fda","system_id":"levelo_inurba_marseille","lat":43.29017,"lon":5.38129,"is_reserved":false,"is_disabled":false,"rental_uris":{"android":"levelo://app?vid=efc871c5-4a44-46bc-89fd-96c999ba9fda","ios":"levelo://app?vid=efc871c5-4a44-46bc-89fd-96c999ba9fda"},"vehicle_type_id":"4","last_reported":1693253239,"current_range_meters":22400,"station_id":"ce4bh4p2rcd13ifvqe1g","pricing_plan_id":"free"},{"bike_id":"57abbbc5-6b8e-4a53-9a7e-fb59d7eb3718","system_id":"levelo_inurba_marseille","lat":43.29017,"lon":5.38134,"is_reserved":false,"is_disabled":false,"rental_uris":{"android":"levelo://app?vid=57abbbc5-6b8e-4a53-9a7e-fb59d7eb3718","ios":"levelo://app?vid=57abbbc5-6b8e-4a53-9a7e-fb59d7eb3718"},"vehicle_type_id":"4","last_reported":1693253239,"current_range_meters":13200,"station_id":"ce4bh4p2rcd13ifvqe1g","pricing_plan_id":"free"},{"bike_id":"a8ec6f67-6264-40dc-888a-627fa14a7a51","system_id":"levelo_inurba_marseille","lat":43.28856,"lon":5.358371,"is_reserved":false,"is_disabled":false,"rental_uris":{"android":"levelo://app?vid=a8ec6f67-6264-40dc-888a-627fa14a7a51","ios":"levelo://app?vid=a8ec6f67-6264-40dc-888a-627fa14a7a51"},"vehicle_type_id":"4","last_reported":1693253239,"current_range_meters":19200,"station_id":"ce4bhb12rcd13ifvqem0","pricing_plan_id":"free"},{"bike_id":"6db8f6c1-d1bf-427e-99f8-3aef497007c9","system_id":"levelo_inurba_marseille","lat":43.28856,"lon":5.358371,"is_reserved":false,"is_disabled":false,"rental_uris":{"android":"levelo://app?vid=6db8f6c1-d1bf-427e-99f8-3aef497007c9","ios":"levelo://app?vid=6db8f6c1-d1bf-427e-99f8-3aef497007c9"},"vehicle_type_id":"4","last_reported":1693253239,"current_range_meters":27200,"station_id":"ce4bhb12rcd13ifvqem0","pricing_plan_id":"free"},{"bike_id":"0cc5bfcf-3fa4-4f61-a7d9-0b611ec3c338","system_id":"levelo_inurba_marseille","lat":43.30166,"lon":5.39805,"is_reserved":false,"is_disabled":false,"rental_uris":{"android":"levelo://app?vid=0cc5bfcf-3fa4-4f61-a7d9-0b611ec3c338","ios":"levelo://app?vid=0cc5bfcf-3fa4-4f61-a7d9-0b611ec3c338"},"vehicle_type_id":"4","last_reported":1693253239,"current_range_meters":18400,"station_id":"ce4bh0h2rcd13ifvqd40","pricing_plan_id":"free"},{"bike_id":"4024ab1e-1d7e-4334-9418-114da333278b","system_id":"levelo_inurba_marseille","lat":43.30938,"lon":5.40141,"is_reserved":false,"is_disabled":false,"rental_uris":{"android":"levelo://app?vid=4024ab1e-1d7e-4334-9418-114da333278b","ios":"levelo://app?vid=4024ab1e-1d7e-4334-9418-114da333278b"},"vehicle_type_id":"4","last_reported":1693253239,"current_range_meters":8400,"station_id":"ce4bgvp2rcd13ifvqct0","pricing_plan_id":"free"},{"bike_id":"22fdc9df-fe0a-4fc8-ae7d-90834aa14d31","system_id":"levelo_inurba_marseille","lat":43.309371,"lon":5.401449,"is_reserved":false,"is_disabled":false,"rental_uris":{"android":"levelo://app?vid=22fdc9df-fe0a-4fc8-ae7d-90834aa14d31","ios":"levelo://app?vid=22fdc9df-fe0a-4fc8-ae7d-90834aa14d31"},"vehicle_type_id":"4","last_reported":1693253239,"current_range_meters":3600,"station_id":"ce4bgvp2rcd13ifvqct0","pricing_plan_id":"free"},{"bike_id":"b41b8751-423c-4433-9804-1b9d8dab0637","system_id":"levelo_inurba_marseille","lat":43.30642,"lon":5.401031,"is_reserved":false,"is_disabled":false,"rental_uris":{"android":"levelo://app?vid=b41b8751-423c-4433-9804-1b9d8dab0637","ios":"levelo://app?vid=b41b8751-423c-4433-9804-1b9d8dab0637"},"vehicle_type_id":"4","last_reported":1693253239,"current_range_meters":24000,"station_id":"ce4bh112rcd13ifvqda0","pricing_plan_id":"free"},{"bike_id":"3ba198c6-a30f-4dca-a704-55b1a7f0fd73","system_id":"levelo_inurba_marseille","lat":43.30923,"lon":5.40144,"is_reserved":false,"is_disabled":false,"rental_uris":{"android":"levelo://app?vid=3ba198c6-a30f-4dca-a704-55b1a7f0fd73","ios":"levelo://app?vid=3ba198c6-a30f-4dca-a704-55b1a7f0fd73"},"vehicle_type_id":"4","last_reported":1693253239,"current_range_meters":1200,"station_id":"ce4bgvp2rcd13ifvqct0","pricing_plan_id":"free"},{"bike_id":"66be20ac-6fdf-45c3-8883-24d95e340dae","system_id":"levelo_inurba_marseille","lat":43.30642,"lon":5.401031,"is_reserved":false,"is_disabled":false,"rental_uris":{"android":"levelo://app?vid=66be20ac-6fdf-45c3-8883-24d95e340dae","ios":"levelo://app?vid=66be20ac-6fdf-45c3-8883-24d95e340dae"},"vehicle_type_id":"4","last_reported":1693253239,"current_range_meters":18400,"station_id":"ce4bh112rcd13ifvqda0","pricing_plan_id":"free"},{"bike_id":"6cb3bbb3-c67b-48d0-aa1e-19874d322c6d","system_id":"levelo_inurba_marseille","lat":43.30642,"lon":5.401031,"is_reserved":false,"is_disabled":false,"rental_uris":{"android":"levelo://app?vid=6cb3bbb3-c67b-48d0-aa1e-19874d322c6d","ios":"levelo://app?vid=6cb3bbb3-c67b-48d0-aa1e-19874d322c6d"},"vehicle_type_id":"4","last_reported":1693253239,"current_range_meters":4000,"station_id":"ce4bh112rcd13ifvqda0","pricing_plan_id":"free"},{"bike_id":"109c254e-03f8-4891-b268-6a801679cf47","system_id":"levelo_inurba_marseille","lat":43.30653,"lon":5.40073,"is_reserved":false,"is_disabled":false,"rental_uris":{"android":"levelo://app?vid=109c254e-03f8-4891-b268-6a801679cf47","ios":"levelo://app?vid=109c254e-03f8-4891-b268-6a801679cf47"},"vehicle_type_id":"4","last_reported":1693253239,"current_range_meters":22000,"station_id":"ce4bh112rcd13ifvqda0","pricing_plan_id":"free"},{"bike_id":"fcb57706-b64c-465e-ab6e-a5f528efb87f","system_id":"levelo_inurba_marseille","lat":43.30642,"lon":5.401031,"is_reserved":false,"is_disabled":false,"rental_uris":{"android":"levelo://app?vid=fcb57706-b64c-465e-ab6e-a5f528efb87f","ios":"levelo://app?vid=fcb57706-b64c-465e-ab6e-a5f528efb87f"},"vehicle_type_id":"4","last_reported":1693253239,"current_range_meters":27600,"station_id":"ce4bh112rcd13ifvqda0","pricing_plan_id":"free"},{"bike_id":"a00a3680-8bb5-4c05-ba8d-3b1c15ca9491","system_id":"levelo_inurba_marseille","lat":43.30664,"lon":5.40078,"is_reserved":false,"is_disabled":false,"rental_uris":{"android":"levelo://app?vid=a00a3680-8bb5-4c05-ba8d-3b1c15ca9491","ios":"levelo://app?vid=a00a3680-8bb5-4c05-ba8d-3b1c15ca9491"},"vehicle_type_id":"4","last_reported":1693253239,"current_range_meters":2400,"station_id":"ce4bh112rcd13ifvqda0","pricing_plan_id":"free"},{"bike_id":"31ec8191-54f5-4ca9-ba82-9546bcce612e","system_id":"levelo_inurba_marseille","lat":43.30648,"lon":5.40074,"is_reserved":false,"is_disabled":false,"rental_uris":{"android":"levelo://app?vid=31ec8191-54f5-4ca9-ba82-9546bcce612e","ios":"levelo://app?vid=31ec8191-54f5-4ca9-ba82-9546bcce612e"},"vehicle_type_id":"4","last_reported":1693253239,"current_range_meters":17200,"station_id":"ce4bh112rcd13ifvqda0","pricing_plan_id":"free"},