{"last_updated":1733415147,"ttl":60,"version":"2.2","data":{"bikes":[{"bike_id":"dc01bc52-996a-4e90-a8b4-bb028d8c2d83","system_id":"levelo_inurba_marseille","lat":43.3127,"lon":5.40169,"is_reserved":false,"is_disabled":false,"rental_uris":{"android":"levelo://app?vid=dc01bc52-996a-4e90-a8b4-bb028d8c2d83","ios":"levelo://app?vid=dc01bc52-996a-4e90-a8b4-bb028d8c2d83"},"vehicle_type_id":"4","last_reported":1733415147,"current_range_meters":23200,"station_id":"ce4bh092rcd13ifvqd30","pricing_plan_id":"cebpf4jnsgd1na2vs0mg"},{"bike_id":"3645917e-c91c-424c-bd1f-3d59632ef45f","system_id":"levelo_inurba_marseille","lat":43.28004,"lon":5.41668,"is_reserved":false,"is_disabled":false,"rental_uris":{"android":"levelo://app?vid=3645917e-c91c-424c-bd1f-3d59632ef45f","ios":"levelo://app?vid=3645917e-c91c-424c-bd1f-3d59632ef45f"},"vehicle_type_id":"4","last_reported":1733415147,"current_range_meters":22400,"station_id":"ce4bho12rcd13ifvqh1g","pricing_plan_id":"cebpf4jnsgd1na2vs0mg"},{"bike_id":"df479c2c-35ac-44ad-b9d6-81c89ed769ce","system_id":"levelo_inurba_marseille","lat":43.29699,"lon":5.37054,"is_reserved":false,"is_disabled":true,"rental_uris":{"android":"levelo://app?vid=df479c2c-35ac-44ad-b9d6-81c89ed769ce","ios":"levelo://app?vid=df479c2c-35ac-44ad-b9d6-81c89ed769ce"},"vehicle_type_id":"4","last_reported":1733415147,"current_range_meters":0,"station_id":"","pricing_plan_id":"cebpf4jnsgd1na2vs0mg"},{"bike_id":"8e029eaf-e104-4c5d-858d-6cd39de73d09","system_id":"levelo_inurba_marseille","lat":43.24162,"lon":5.36392,"is_reserved":false,"is_disabled":false,"rental_uris":{"android":"levelo://app?vid=8e029eaf-e104-4c5d-858d-6cd39de73d09","ios":"levelo://app?vid=8e029eaf-e104-4c5d-858d-6cd39de73d09"},"vehicle_type_id":"4","last_reported":1733415147,"current_range_meters":6400,"station_id":"cpo36qri1sfpv3e86is0","pricing_plan_id":"cebpf4jnsgd1na2vs0mg"},{"bike_id":"bc6d1df1-c307-4d6f-9ccf-49fb0c32794a","system_id":"levelo_inurba_marseille","lat":43.25865,"lon":5.39903,"is_reserved":false,"is_disabled":false,"rental_uris":{"android":"levelo://app?vid=bc6d1df1-c307-4d6f-9ccf-49fb0c32794a","ios":"levelo://app?vid=bc6d1df1-c307-4d6f-9ccf-49fb0c32794a"},"vehicle_type_id":"4","last_reported":1733415147,"current_range_meters":38800,"station_id":"ce4bhl92rcd13ifvqghg","pricing_plan_id":"cebpf4jnsgd1na2vs0mg"},{"bike_id":"efaac46c-d946-4360-8674-93c30250c734","system_id":"levelo_inurba_marseille","lat":43.29868,"lon":5.39743,"is_reserved":false,"is_disabled":false,"rental_uris":{"android":"levelo://app?vid=efaac46c-d946-4360-8674-93c30250c734","ios":"levelo://app?vid=efaac46c-d946-4360-8674-93c30250c734"},"vehicle_type_id":"4","last_reported":1733415147,"current_range_meters":38800,"station_id":"ce4bh0h2rcd13ifvqd50","pricing_plan_id":"cebpf4jnsgd1na2vs0mg"},{"bike_id":"d801d4cf-1753-4012-a60f-4cb1e5780b11","system_id":"levelo_inurba_marseille","lat":43.30524,"lon":5.36717,"is_reserved":false,"is_disabled":false,"rental_uris":{"android":"levelo://app?vid=d801d4cf-1753-4012-a60f-4cb1e5780b11","ios":"levelo://app?vid=d801d4cf-1753-4012-a60f-4cb1e5780b11"},"vehicle_type_id":"4","last_reported":1733415147,"current_range_meters":38400,"station_id":"ce4bgrp2rcd13ifvqc9g","pricing_plan_id":"cebpf4jnsgd1na2vs0mg"},{"bike_id":"f7f1177a-9fa2-4c01-9bd7-56528650247f","system_id":"levelo_inurba_marseille","lat":43.26552,"lon":5.37286,"is_reserved":false,"is_disabled":false,"rental_uris":{"android":"levelo://app?vid=f7f1177a-9fa2-4c01-9bd7-56528650247f","ios":"levelo://app?vid=f7f1177a-9fa2-4c01-9bd7-56528650247f"},"vehicle_type_id":"4","last_reported":1733415147,"current_range_meters":10000,"station_id":"ce4bhg12rcd13ifvqf70","pricing_plan_id":"cebpf4jnsgd1na2vs0mg"},{"bike_id":"90152c19-cf52-44a9-a64b-37f3bab4231b","system_id":"levelo_inurba_marseille","lat":43.29515,"lon":5.39047,"is_reserved":false,"is_disabled":false,"rental_uris":{"android":"levelo://app?vid=90152c19-cf52-44a9-a64b-37f3bab4231b","ios":"levelo://app?vid=90152c19-cf52-44a9-a64b-37f3bab4231b"},"vehicle_type_id":"4","last_reported":1733415147,"current_range_meters":28800,"station_id":"ce4bh3p2rcd13ifvqdp0","pricing_plan_id":"cebpf4jnsgd1na2vs0mg"},{"bike_id":"be407bbe-d1ce-48de-8db2-09114af9efd7","system_id":"levelo_inurba_marseille","lat":43.32368,"lon":5.36755,"is_reserved":false,"is_disabled":false,"rental_uris":{"android":"levelo://app?vid=be407bbe-d1ce-48de-8db2-09114af9efd7","ios":"levelo://app?vid=be407bbe-d1ce-48de-8db2-09114af9efd7"},"vehicle_type_id":"4","last_reported":1733415147,"current_range_meters":28400,"station_id":"ce4bhsh2rcd13ifvqi2g","pricing_plan_id":"cebpf4jnsgd1na2vs0mg"},{"bike_id":"6b33edfb-d6d4-4778-9874-3b48eb953f6a","system_id":"levelo_inurba_marseille","lat":43.25917,"lon":5.40891,"is_reserved":false,"is_disabled":false,"rental_uris":{"android":"levelo://app?vid=6b33edfb-d6d4-4778-9874-3b48eb953f6a","ios":"levelo://app?vid=6b33edfb-d6d4-4778-9874-3b48eb953f6a"},"vehicle_type_id":"4","last_reported":1733415147,"current_range_meters":15200,"station_id":"ce4bhm92rcd13ifvqglg","pricing_plan_id":"cebpf4jnsgd1na2vs0mg"},{"bike_id":"a32f6e96-1af8-4b0f-8490-1794da907c5d","system_id":"levelo_inurba_marseille","lat":43.27614,"lon":5.36114,"is_reserved":false,"is_disabled":false,"rental_uris":{"android":"levelo://app?vid=a32f6e96-1af8-4b0f-8490-1794da907c5d","ios":"levelo://app?vid=a32f6e96-1af8-4b0f-8490-1794da907c5d"},"vehicle_type_id":"4","last_reported":1733415147,"current_range_meters":32400,"station_id":"ce4bgj92rcd13ifvqbe0","pricing_plan_id":"cebpf4jnsgd1na2vs0mg"},{"bike_id":"8bd642b2-0279-44c7-9ee2-fc3b57332c83","system_id":"levelo_inurba_marseille","lat":43.27455,"lon":5.40073,"is_reserved":false,"is_disabled":true,"rental_uris":{"android":"levelo://app?vid=8bd642b2-0279-44c7-9ee2-fc3b57332c83","ios":"levelo://app?vid=8bd642b2-0279-44c7-9ee2-fc3b57332c83"},"vehicle_type_id":"4","last_reported":1733415147,"current_range_meters":0,"station_id":"","pricing_plan_id":"cebpf4jnsgd1na2vs0mg"},{"bike_id":"48eeab0e-b9b7-49b2-a55e-4d2733fa9c65","system_id":"levelo_inurba_marseille","lat":43.23973,"lon":5.36622,"is_reserved":false,"is_disabled":false,"rental_uris":{"android":"levelo://app?vid=48eeab0e-b9b7-49b2-a55e-4d2733fa9c65","ios":"levelo://app?vid=48eeab0e-b9b7-49b2-a55e-4d2733fa9c65"},"vehicle_type_id":"4","last_reported":1733415147,"current_range_meters":27600,"station_id":"ce4bhi12rcd13ifvqfp0","pricing_plan_id":"cebpf4jnsgd1na2vs0mg"},{"bike_id":"54c411da-c2d3-46bc-9dca-8068a9dd815e","system_id":"levelo_inurba_marseille","lat":43.2319,"lon":5.3998,"is_reserved":false,"is_disabled":false,"rental_uris":{"android":"levelo://app?vid=54c411da-c2d3-46bc-9dca-8068a9dd815e","ios":"levelo://app?vid=54c411da-c2d3-46bc-9dca-8068a9dd815e"},"vehicle_type_id":"4","last_reported":1733415147,"current_range_meters":24800,"station_id":"ce4bhn12rcd13ifvqgqg","pricing_plan_id":"cebpf4jnsgd1na2vs0mg"},{"bike_id":"972fd47d-7f96-4eb4-9ec7-b0eb4610e6d2","system_id":"levelo_inurba_marseille","lat":43.30175,"lon":5.3661,"is_reserved":false,"is_disabled":false,"rental_uris":{"android":"levelo://app?vid=972fd47d-7f96-4eb4-9ec7-b0eb4610e6d2","ios":"levelo://app?vid=972fd47d-7f96-4eb4-9ec7-b0eb4610e6d2"},"vehicle_type_id":"4","last_reported":1733415147,"current_range_meters":38800,"station_id":"ce4bgrh2rcd13ifvqc8g","pricing_plan_id":"cebpf4jnsgd1na2vs0mg"},{"bike_id":"2d30f57c-61ff-4552-bdfc-3c825b67086e","system_id":"levelo_inurba_marseille","lat":43.25579,"lon":5.38233,"is_reserved":false,"is_disabled":true,"rental_uris":{"android":"levelo://app?vid=2d30f57c-61ff-4552-bdfc-3c825b67086e","ios":"levelo://app?vid=2d30f57c-61ff-4552-bdfc-3c825b67086e"},"vehicle_type_id":"4","last_reported":1733415147,"current_range_meters":2000,"station_id":"ce4bhih2rcd13ifvqfs0","pricing_plan_id":"cebpf4jnsgd1na2vs0mg"},{"bike_id":"1bf211ca-7147-44b8-ac36-689743368a32","system_id":"levelo_inurba_marseille","lat":43.23188,"lon":5.39977,"is_reserved":false,"is_disabled":false,"rental_uris":{"android":"levelo://app?vid=1bf211ca-7147-44b8-ac36-689743368a32","ios":"levelo://app?vid=1bf211ca-7147-44b8-ac36-689743368a32"},"vehicle_type_id":"4","last_reported":1733415147,"current_range_meters":38800,"station_id":"ce4bhn12rcd13ifvqgqg","pricing_plan_id":"cebpf4jnsgd1na2vs0mg"},{"bike_id":"f67dfab3-abcc-4688-bfd7-4284bf8c7187","system_id":"levelo_inurba_marseille","lat":43.33027,"lon":5.39053,"is_reserved":false,"is_disabled":false,"rental_uris":{"android":"levelo://app?vid=f67dfab3-abcc-4688-bfd7-4284bf8c7187","ios":"levelo://app?vid=f67dfab3-abcc-4688-bfd7-4284bf8c7187"},"vehicle_type_id":"4","last_reported":1733415147,"current_range_meters":9600,"station_id":"ce4bhr92rcd13ifvqhrg","pricing_plan_id":"cebpf4jnsgd1na2vs0mg"},{"bike_id":"3174d4cd-190c-48b4-afb8-369bbe1346e3","system_id":"levelo_inurba_marseille","lat":43.28267,"lon":5.35074,"is_reserved":false,"is_disabled":false,"rental_uris":{"android":"levelo://app?vid=3174d4cd-190c-48b4-afb8-369bbe1346e3","ios":"levelo://app?vid=3174d4cd-190c-48b4-afb8-369bbe1346e3"},"vehicle_type_id":"4","last_reported":1733415147,"current_range_meters":9200,"station_id":"ce4bhbp2rcd13ifvqerg","pricing_plan_id":"cebpf4jnsgd1na2vs0mg"},{"bike_id":"28b52837-d828-49e4-b4be-cfbac010c328","system_id":"levelo_inurba_marseille","lat":43.33734,"lon":5.39186,"is_reserved":false,"is_disabled":false,"rental_uris":{"android":"levelo://app?vid=28b52837-d828-49e4-b4be-cfbac010c328","ios":"levelo://app?vid=28b52837-d828-49e4-b4be-cfbac010c328"},"vehicle_type_id":"4","last_reported":1733415147,"current_range_meters":28800,"station_id":"ce4bhr92rcd13ifvqhsg","pricing_plan_id":"cebpf4jnsgd1na2vs0mg"},{"bike_id":"b3f478ac-3b05-4edf-bdbf-76399090f8e9","system_id":"levelo_inurba_marseille","lat":43.29994,"lon":5.37639,"is_reserved":false,"is_disabled":true,"rental_uris":{"android":"levelo://app?vid=b3f478ac-3b05-4edf-bdbf-76399090f8e9","ios":"levelo://app?vid=b3f478ac-3b05-4edf-bdbf-76399090f8e9"},"vehicle_type_id":"4","last_reported":1733415147,"current_range_meters":0,"station_id":"","pricing_plan_id":"cebpf4jnsgd1na2vs0mg"},{"bike_id":"9d90be85-5c6a-41f4-a595-a663de4b93fe","system_id":"levelo_inurba_marseille","lat":43.3211,"lon":5.36772,"is_reserved":false,"is_disabled":false,"rental_uris":{"android":"levelo://app?vid=9d90be85-5c6a-41f4-a595-a663de4b93fe","ios":"levelo://app?vid=9d90be85-5c6a-41f4-a595-a663de4b93fe"},"vehicle_type_id":"4","last_reported":1733415147,"current_range_meters":8000,"station_id":"ce4bhrh2rcd13ifvqhug","pricing_plan_id":"cebpf4jnsgd1na2vs0mg"},{"bike_id":"890e1560-a904-4d0a-b4e0-c3993151a990","system_id":"levelo_inurba_marseille","lat":43.3171,"lon":5.43708,"is_reserved":false,"is_disabled":false,"rental_uris":{"android":"levelo://app?vid=890e1560-a904-4d0a-b4e0-c3993151a990","ios":"levelo://app?vid=890e1560-a904-4d0a-b4e0-c3993151a990"},"vehicle_type_id":"4","last_reported":1733415147,"current_range_meters":20800,"station_id":"ce4bhp92rcd13ifvqhcg","pricing_plan_id":"cebpf4jnsgd1na2vs0mg"},{"bike_id":"38ad5f06-184a-4438-a977-faf1f4f7d69d","system_id":"levelo_inurba_marseille","lat":43.3226,"lon":5.37616,"is_reserved":false,"is_disabled":false,"rental_uris":{"android":"levelo://app?vid=38ad5f06-184a-4438-a977-faf1f4f7d69d","ios":"levelo://app?vid=38ad5f06-184a-4438-a977-faf1f4f7d69d"},"vehicle_type_id":"4","last_reported":1733415147,"current_range_meters":8000,"station_id":"","pricing_plan_id":"cebpf4jnsgd1na2vs0mg"},{"bike_id":"363695cf-7962-46ab-9ca1-bd4e1a3666af","system_id":"levelo_inurba_marseille","lat":43.28157,"lon":5.42628,"is_reserved":false,"is_disabled":false,"rental_uris":{"android":"levelo://app?vid=363695cf-7962-46ab-9ca1-bd4e1a3666af","ios":"levelo://app?vid=363695cf-7962-46ab-9ca1-bd4e1a3666af"},"vehicle_type_id":"4","last_reported":1733415147,"current_range_meters":24800,"station_id":"ce4bhnh2rcd13ifvqgug","pricing_plan_id":"cebpf4jnsgd1na2vs0mg"},{"bike_id":"6ce7b101-3097-47c8-898d-81d18c5d4451","system_id":"levelo_inurba_marseille","lat":43.28267,"lon":5.35063,"is_reserved":false,"is_disabled":false,"rental_uris":{"android":"levelo://app?vid=6ce7b101-3097-47c8-898d-81d18c5d4451","ios":"levelo://app?vid=6ce7b101-3097-47c8-898d-81d18c5d4451"},"vehicle_type_id":"4","last_reported":1733415147,"current_range_meters":4800,"station_id":"ce4bhbp2rcd13ifvqerg","pricing_plan_id":"cebpf4jnsgd1na2vs0mg"},{"bike_id":"47446314-3377-4eeb-ac99-7c7c1d340bea","system_id":"levelo_inurba_marseille","lat":43.27814,"lon":5.40712,"is_reserved":false,"is_disabled":false,"rental_uris":{"android":"levelo://app?vid=47446314-3377-4eeb-ac99-7c7c1d340bea","ios":"levelo://app?vid=47446314-3377-4eeb-ac99-7c7c1d340bea"},"vehicle_type_id":"4","last_reported":1733415147,"current_range_meters":36800,"station_id":"ce4bhnh2rcd13ifvqgtg","pricing_plan_id":"cebpf4jnsgd1na2vs0mg"},{"bike_id":"9d8f201a-0d07-4268-b281-3255f4853455","system_id":"levelo_inurba_marseille","lat":43.26212,"lon":5.3744,"is_reserved":false,"is_disabled":false,"rental_uris":{"android":"levelo://app?vid=9d8f201a-0d07-4268-b281-3255f4853455","ios":"levelo://app?vid=9d8f201a-0d07-4268-b281-3255f4853455"},"vehicle_type_id":"4","last_reported":1733415147,"current_range_meters":36000,"station_id":"ce4bhgp2rcd13ifvqfc0","pricing_plan_id":"cebpf4jnsgd1na2vs0mg"},{"bike_id":"86994610-e066-47a7-a511-1982534cbc16","system_id":"levelo_inurba_marseille","lat":43.31085,"lon":5.42432,"is_reserved":false,"is_disabled":false,"rental_uris":{"android":"levelo://app?vid=86994610-e066-47a7-a511-1982534cbc16","ios":"levelo://app?vid=86994610-e066-47a7-a511-1982534cbc16"},"vehicle_type_id":"4","last_reported":1733415147,"current_range_meters":6000,"station_id":"ce4bhp92rcd13ifvqhag","pricing_plan_id":"cebpf4jnsgd1na2vs0mg"},{"bike_id":"2f3968e7-9336-4ee4-ba78-8e92c0a818cc","system_id":"levelo_inurba_marseille","lat":43.31322,"lon":5.36647,"is_reserved":false,"is_disabled":true,"rental_uris":{"android":"levelo://app?vid=2f3968e7-9336-4ee4-ba78-8e92c0a818cc","ios":"levelo://app?vid=2f3968e7-9336-4ee4-ba78-8e92c0a818cc"},"vehicle_type_id":"4","last_reported":1733415147,"current_range_meters":0,"station_id":"","pricing_plan_id":"cebpf4jnsgd1na2vs0mg"},{"bike_id":"bfaadcb1-40c5-480a-9f0c-a81786673ab7","system_id":"levelo_inurba_marseille","lat":43.30138,"lon":5.38792,"is_reserved":false,"is_disabled":false,"rental_uris":{"android":"levelo://app?vid=bfaadcb1-40c5-480a-9f0c-a81786673ab7","ios":"levelo://app?vid=bfaadcb1-40c5-480a-9f0c-a81786673ab7"},"vehicle_type_id":"4","last_reported":1733415147,"current_range_meters":34800,"station_id":"ce4bghh2rcd13ifvqb60","pricing_plan_id":"cebpf4jnsgd1na2vs0mg"},{"bike_id":"9aded1fd-28b2-485b-aa1d-02cd137f431b","system_id":"levelo_inurba_marseille","lat":43.26504,"lon":5.39541,"is_reserved":false,"is_disabled":true,"rental_uris":{"android":"levelo://app?vid=9aded1fd-28b2-485b-aa1d-02cd137f431b","ios":"levelo://app?vid=9aded1fd-28b2-485b-aa1d-02cd137f431b"},"vehicle_type_id":"4","last_reported":1733415147,"current_range_meters":0,"station_id":"ce4bhi12rcd13ifvqfq0","pricing_plan_id":"cebpf4jnsgd1na2vs0mg"},{"bike_id":"77d0a172-f926-4a59-ae6b-9addec636f80","system_id":"levelo_inurba_marseille","lat":43.28926,"lon":5.38397,"is_reserved":false,"is_disabled":false,"rental_uris":{"android":"levelo://app?vid=77d0a172-f926-4a59-ae6b-9addec636f80","ios":"levelo://app?vid=77d0a172-f926-4a59-ae6b-9addec636f80"},"vehicle_type_id":"4","last_reported":1733415147,"current_range_meters":17200,"station_id":"ce4bh612rcd13ifvqe6g","pricing_plan_id":"cebpf4jnsgd1na2vs0mg"},{"bike_id":"a6f6b77f-6d5a-472c-8e03-99d17a6614a2","system_id":"levelo_inurba_marseille","lat":43.25497,"lon":5.37645,"is_reserved":false,"is_disabled":false,"rental_uris":{"android":"levelo://app?vid=a6f6b77f-6d5a-472c-8e03-99d17a6614a2","ios":"levelo://app?vid=a6f6b77f-6d5a-472c-8e03-99d17a6614a2"},"vehicle_type_id":"4","last_reported":1733415147,"current_range_meters":22800,"station_id":"ce4bhh12rcd13ifvqff0","pricing_plan_id":"cebpf4jnsgd1na2vs0mg"},{"bike_id":"588d48c6-4b33-451e-9751-36dee1e96e41","system_id":"levelo_inurba_marseille","lat":43.26812,"lon":5.40263,"is_reserved":false,"is_disabled":false,"rental_uris":{"android":"levelo://app?vid=588d48c6-4b33-451e-9751-36dee1e96e41","ios":"levelo://app?vid=588d48c6-4b33-451e-9751-36dee1e96e41"},"vehicle_type_id":"4","last_reported":1733415147,"current_range_meters":16400,"station_id":"ce501612rcd8frsf0b60","pricing_plan_id":"cebpf4jnsgd1na2vs0mg"},{"bike_id":"18c465ad-16a0-4d72-a337-11a15929aab8","system_id":"levelo_inurba_marseille","lat":43.23963,"lon":5.36632,"is_reserved":false,"is_disabled":false,"rental_uris":{"android":"levelo://app?vid=18c465ad-16a0-4d72-a337-11a15929aab8","ios":"levelo://app?vid=18c465ad-16a0-4d72-a337-11a15929aab8"},"vehicle_type_id":"4","last_reported":1733415147,"current_range_meters":12000,"station_id":"ce4bhi12rcd13ifvqfp0","pricing_plan_id":"cebpf4jnsgd1na2vs0mg"},{"bike_id":"da9cfd76-5796-4c48-8486-043fb1d4045d","system_id":"levelo_inurba_marseille","lat":43.27062,"lon":5.40271,"is_reserved":false,"is_disabled":false,"rental_uris":{"android":"levelo://app?vid=da9cfd76-5796-4c48-8486-043fb1d4045d","ios":"levelo://app?vid=da9cfd76-5796-4c48-8486-043fb1d4045d"},"vehicle_type_id":"4","last_reported":1733415147,"current_range_meters":38800,"station_id":"ce4bhk92rcd13ifvqgc0","pricing_plan_id":"cebpf4jnsgd1na2vs0mg"},{"bike_id":"b0025f03-f4b7-4e1f-b2ae-d738bfb01f75","system_id":"levelo_inurba_marseille","lat":43.31015,"lon":5.37898,"is_reserved":false,"is_disabled":true,"rental_uris":{"android":"levelo://app?vid=b0025f03-f4b7-4e1f-b2ae-d738bfb01f75","ios":"levelo://app?vid=b0025f03-f4b7-4e1f-b2ae-d738bfb01f75"},"vehicle_type_id":"4","last_reported":1733415147,"current_range_meters":36800,"station_id":"","pricing_plan_id":"cebpf4jnsgd1na2vs0mg"},{"bike_id":"1ffd879e-fccb-4aae-bff6-2e0770d1b924","system_id":"levelo_inurba_marseille","lat":43.25578,"lon":5.38245,"is_reserved":false,"is_disabled":false,"rental_uris":{"android":"levelo://app?vid=1ffd879e-fccb-4aae-bff6-2e0770d1b924","ios":"levelo://app?vid=1ffd879e-fccb-4aae-bff6-2e0770d1b924"},"vehicle_type_id":"4","last_reported":1733415147,"current_range_meters":30000,"station_id":"ce4bhih2rcd13ifvqfs0","pricing_plan_id":"cebpf4jnsgd1na2vs0mg"},{"bike_id":"f10c5e90-601b-4bd4-87e7-4cbb6a13a4fb","system_id":"levelo_inurba_marseille","lat":43.26091,"lon":5.39291,"is_reserved":false,"is_disabled":false,"rental_uris":{"android":"levelo://app?vid=f10c5e90-601b-4bd4-87e7-4cbb6a13a4fb","ios":"levelo://app?vid=f10c5e90-601b-4bd4-87e7-4cbb6a13a4fb"},"vehicle_type_id":"4","last_reported":1733415147,"current_range_meters":5600,"station_id":"","pricing_plan_id":"cebpf4jnsgd1na2vs0mg"},{"bike_id":"609f1141-b084-4311-afaa-08cdd05e9e96","system_id":"levelo_inurba_marseille","lat":43.29045,"lon":5.35917,"is_reserved":false,"is_disabled":false,"rental_uris":{"android":"levelo://app?vid=609f1141-b084-4311-afaa-08cdd05e9e96","ios":"levelo://app?vid=609f1141-b084-4311-afaa-08cdd05e9e96"},"vehicle_type_id":"4","last_reported":1733415147,"current_range_meters":38800,"station_id":"ce4bha92rcd13ifvqeg0","pricing_plan_id":"cebpf4jnsgd1na2vs0mg"},{"bike_id":"d1f8c815-16d1-4fc3-ad0e-ed7a579adc20","system_id":"levelo_inurba_marseille","lat":43.294556,"lon":5.381516,"is_reserved":false,"is_disabled":false,"rental_uris":{"android":"levelo://app?vid=d1f8c815-16d1-4fc3-ad0e-ed7a579adc20","ios":"levelo://app?vid=d1f8c815-16d1-4fc3-ad0e-ed7a579adc20"},"vehicle_type_id":"4","last_reported":1733415147,"current_range_meters":9200,"station_id":"","pricing_plan_id":"cebpf4jnsgd1na2vs0mg"},{"bike_id":"925bdba5-d6af-4d54-8e70-a687a422cb18","system_id":"levelo_inurba_marseille","lat":43.28275,"lon":5.3508,"is_reserved":false,"is_disabled":false,"rental_uris":{"android":"levelo://app?vid=925bdba5-d6af-4d54-8e70-a687a422cb18","ios":"levelo://app?vid=925bdba5-d6af-4d54-8e70-a687a422cb18"},"vehicle_type_id":"4","last_reported":1733415147,"current_range_meters":26000,"station_id":"ce4bhbp2rcd13ifvqerg","pricing_plan_id":"cebpf4jnsgd1na2vs0mg"},{"bike_id":"ec07a98c-a4f9-45e5-9fbe-1ee396ceea4e","system_id":"levelo_inurba_marseille","lat":43.23967,"lon":5.36631,"is_reserved":false,"is_disabled":false,"rental_uris":{"android":"levelo://app?vid=ec07a98c-a4f9-45e5-9fbe-1ee396ceea4e","ios":"levelo://app?vid=ec07a98c-a4f9-45e5-9fbe-1ee396ceea4e"},"vehicle_type_id":"4","last_reported":1733415147,"current_range_meters":2800,"station_id":"ce4bhi12rcd13ifvqfp0","pricing_plan_id":"cebpf4jnsgd1na2vs0mg"},{"bike_id":"0bd556fc-150b-40af-986a-a38f5b9c0ad2","system_id":"levelo_inurba_marseille","lat":43.28616,"lon":5.35106,"is_reserved":false,"is_disabled":false,"rental_uris":{"android":"levelo://app?vid=0bd556fc-150b-40af-986a-a38f5b9c0ad2","ios":"levelo://app?vid=0bd556fc-150b-40af-986a-a38f5b9c0ad2"},"vehicle_type_id":"4","last_reported":1733415147,"current_range_meters":37600,"station_id":"ce4bhch2rcd13ifvqeug","pricing_plan_id":"cebpf4jnsgd1na2vs0mg"},{"bike_id":"c0ecc308-ccc4-492f-bcda-d659d2cd5777","system_id":"levelo_inurba_marseille","lat":43.25109,"lon":5.40324,"is_reserved":false,"is_disabled":true,"rental_uris":{"android":"levelo://app?vid=c0ecc308-ccc4-492f-bcda-d659d2cd5777","ios":"levelo://app?vid=c0ecc308-ccc4-492f-bcda-d659d2cd5777"},"vehicle_type_id":"4","last_reported":1733415147,"current_range_meters":0,"station_id":"ce4bhlh2rcd13ifvqgig","pricing_plan_id":"cebpf4jnsgd1na2vs0mg"},{"bike_id":"f5bd5773-3df4-400a-9c89-e449e0b42a96","system_id":"levelo_inurba_marseille","lat":43.2481,"lon":5.3746,"is_reserved":false,"is_disabled":true,"rental_uris":{"android":"levelo://app?vid=f5bd5773-3df4-400a-9c89-e449e0b42a96","ios":"levelo://app?vid=f5bd5773-3df4-400a-9c89-e449e0b42a96"},"vehicle_type_id":"4","last_reported":1733415147,"current_range_meters":5600,"station_id":"ce4bhgh2rcd13ifvqfb0","pricing_plan_id":"cebpf4jnsgd1na2vs0mg"},{"bike_id":"0e8f143f-e83d-486c-ac0e-3d177db276ae","system_id":"levelo_inurba_marseille","lat":43.3229,"lon":5.38272,"is_reserved":false,"is_disabled":false,"rental_uris":{"android":"levelo://app?vid=0e8f143f-e83d-486c-ac0e-3d177db276ae","ios":"levelo://app?vid=0e8f143f-e83d-486c-ac0e-3d177db276ae"},"vehicle_type_id":"4","last_reported":1733415147,"current_range_meters":35200,"station_id":"ce4bhr12rcd13ifvqhqg","pricing_plan_id":"cebpf4jnsgd1na2vs0mg"},{"bike_id":"f5ba14a5-0e0e-4553-bb3d-771504ad031b","system_id":"levelo_inurba_marseille","lat":43.28479,"lon":5.38408,"is_reserved":false,"is_disabled":true,"rental_uris":{"android":"levelo://app?vid=f5ba14a5-0e0e-4553-bb3d-771504ad031b","ios":"levelo://app?vid=f5ba14a5-0e0e-4553-bb3d-771504ad031b"},"vehicle_type_id":"4","last_reported":1733415147,"current_range_meters":38800,"station_id":"ce4bh512rcd13ifvqe3g","pricing_plan_id":"cebpf4jnsgd1na2vs0mg"},{"bike_id":"f9c47b10-b579-4a84-8a2a-24899cac3269","system_id":"levelo_inurba_marseille","lat":43.31712,"lon":5.37749,"is_reserved":false,"is_disabled":false,"rental_uris":{"android":"levelo://app?vid=f9c47b10-b579-4a84-8a2a-24899cac3269","ios":"levelo://app?vid=f9c47b10-b579-4a84-8a2a-24899cac3269"},"vehicle_type_id":"4","last_reported":1733415147,"current_range_meters":4800,"station_id":"ce4bgth2rcd13ifvqch0","pricing_plan_id":"cebpf4jnsgd1na2vs0mg"},{"bike_id":"cdfe6590-4984-4014-86c8-6dd70747c27a","system_id":"levelo_inurba_marseille","lat":43.29737,"lon":5.37434,"is_reserved":false,"is_disabled":true,"rental_uris":{"android":"levelo://app?vid=cdfe6590-4984-4014-86c8-6dd70747c27a","ios":"levelo://app?vid=cdfe6590-4984-4014-86c8-6dd70747c27a"},"vehicle_type_id":"4","last_reported":1733415147,"current_range_meters":0,"station_id":"","pricing_plan_id":"cebpf4jnsgd1na2vs0mg"},{"bike_id":"4e04831b-e6db-4ee0-9778-911063b342c0","system_id":"levelo_inurba_marseille","lat":43.30601,"lon":5.39373,"is_reserved":false,"is_disabled":false,"rental_uris":{"android":"levelo://app?vid=4e04831b-e6db-4ee0-9778-911063b342c0","ios":"levelo://app?vid=4e04831b-e6db-4ee0-9778-911063b342c0"},"vehicle_type_id":"4","last_reported":1733415147,"current_range_meters":7200,"station_id":"ce4bh0p2rcd13ifvqd80","pricing_plan_id":"cebpf4jnsgd1na2vs0mg"},{"bike_id":"314d2dcd-ab9b-401f-81c1-243659a2dd96","system_id":"levelo_inurba_marseille","lat":43.30209,"lon":5.39466,"is_reserved":false,"is_disabled":false,"rental_uris":{"android":"levelo://app?vid=314d2dcd-ab9b-401f-81c1-243659a2dd96","ios":"levelo://app?vid=314d2dcd-ab9b-401f-81c1-243659a2dd96"},"vehicle_type_id":"4","last_reported":1733415147,"current_range_meters":37600,"station_id":"ce4bh0p2rcd13ifvqd70","pricing_plan_id":"cebpf4jnsgd1na2vs0mg"},{"bike_id":"6fb00969-21f8-4503-a74e-e887bd6407a1","system_id":"levelo_inurba_marseille","lat":43.27491,"lon":5.42458,"is_reserved":false,"is_disabled":true,"rental_uris":{"android":"levelo://app?vid=6fb00969-21f8-4503-a74e-e887bd6407a1","ios":"levelo://app?vid=6fb00969-21f8-4503-a74e-e887bd6407a1"},"vehicle_type_id":"4","last_reported":1733415147,"current_range_meters":0,"station_id":"ce4bhn92rcd13ifvqgrg","pricing_plan_id":"cebpf4jnsgd1na2vs0mg"},{"bike_id":"987a5ab4-d60c-480c-94b6-7cab38975402","system_id":"levelo_inurba_marseille","lat":43.29748,"lon":5.37971,"is_reserved":false,"is_disabled":true,"rental_uris":{"android":"levelo://app?vid=987a5ab4-d60c-480c-94b6-7cab38975402","ios":"levelo://app?vid=987a5ab4-d60c-480c-94b6-7cab38975402"},"vehicle_type_id":"4","last_reported":1733415147,"current_range_meters":0,"station_id":"","pricing_plan_id":"cebpf4jnsgd1na2vs0mg"},{"bike_id":"2c4596ad-0ad9-4016-b92b-0093349de2b4","system_id":"levelo_inurba_marseille","lat":43.30755,"lon":5.38187,"is_reserved":false,"is_disabled":true,"rental_uris":{"android":"levelo://app?vid=2c4596ad-0ad9-4016-b92b-0093349de2b4","ios":"levelo://app?vid=2c4596ad-0ad9-4016-b92b-0093349de2b4"},"vehicle_type_id":"4","last_reported":1733415147,"current_range_meters":0,"station_id":"","pricing_plan_id":"cebpf4jnsgd1na2vs0mg"},{"bike_id":"5d04fdfe-772c-418b-b5a0-96f627842ee4","system_id":"levelo_inurba_marseille","lat":43.29452,"lon":5.39758,"is_reserved":false,"is_disabled":false,"rental_uris":{"android":"levelo://app?vid=5d04fdfe-772c-418b-b5a0-96f627842ee4","ios":"levelo://app?vid=5d04fdfe-772c-418b-b5a0-96f627842ee4"},"vehicle_type_id":"4","last_reported":1733415147,"current_range_meters":38800,"station_id":"ce4bh3h2rcd13ifvqdo0","pricing_plan_id":"cebpf4jnsgd1na2vs0mg"},{"bike_id":"b7ab8c01-033f-4395-8276-23c850ad3d02","system_id":"levelo_inurba_marseille","lat":43.30348,"lon":5.36626,"is_reserved":false,"is_disabled":true,"rental_uris":{"android":"levelo://app?vid=b7ab8c01-033f-4395-8276-23c850ad3d02","ios":"levelo://app?vid=b7ab8c01-033f-4395-8276-23c850ad3d02"},"vehicle_type_id":"4","last_reported":1733415147,"current_range_meters":0,"station_id":"","pricing_plan_id":"cebpf4jnsgd1na2vs0mg"},{"bike_id":"9f513dda-4455-464b-927c-e911f6d7e572","system_id":"levelo_inurba_marseille","lat":43.26688,"lon":5.38274,"is_reserved":false,"is_disabled":true,"rental_uris":{"android":"levelo://app?vid=9f513dda-4455-464b-927c-e911f6d7e572","ios":"levelo://app?vid=9f513dda-4455-464b-927c-e911f6d7e572"},"vehicle_type_id":"4","last_reported":1733415147,"current_range_meters":0,"station_id":"ce4bhg92rcd13ifvqf90","pricing_plan_id":"cebpf4jnsgd1na2vs0mg"},{"bike_id":"dddfe344-1536-4fa0-9fd6-cac214602167","system_id":"levelo_inurba_marseille","lat":43.279938,"lon":5.416658,"is_reserved":false,"is_disabled":false,"rental_uris":{"android":"levelo://app?vid=dddfe344-1536-4fa0-9fd6-cac214602167","ios":"levelo://app?vid=dddfe344-1536-4fa0-9fd6-cac214602167"},"vehicle_type_id":"4","last_reported":1733415147,"current_range_meters":5600,"station_id":"ce4bho12rcd13ifvqh1g","pricing_plan_id":"cebpf4jnsgd1na2vs0mg"},{"bike_id":"b2df497b-e56b-42ef-9270-d5ec1d303dbe","system_id":"levelo_inurba_marseille","lat":43.28266,"lon":5.35069,"is_reserved":false,"is_disabled":false,"rental_uris":{"android":"levelo://app?vid=b2df497b-e56b-42ef-9270-d5ec1d303dbe","ios":"levelo://app?vid=b2df497b-e56b-42ef-9270-d5ec1d303dbe"},"vehicle_type_id":"4","last_reported":1733415147,"current_range_meters":31200,"station_id":"ce4bhbp2rcd13ifvqerg","pricing_plan_id":"cebpf4jnsgd1na2vs0mg"},{"bike_id":"eaca397e-bf13-4245-a040-d39779804355","system_id":"levelo_inurba_marseille","lat":43.25498,"lon":5.37651,"is_reserved":false,"is_disabled":false,"rental_uris":{"android":"levelo://app?vid=eaca397e-bf13-4245-a040-d39779804355","ios":"levelo://app?vid=eaca397e-bf13-4245-a040-d39779804355"},"vehicle_type_id":"4","last_reported":1733415147,"current_range_meters":21600,"station_id":"ce4bhh12rcd13ifvqff0","pricing_plan_id":"cebpf4jnsgd1na2vs0mg"},{"bike_id":"d0fd18c1-3898-46e2-812b-d16b1dad312a","system_id":"levelo_inurba_marseille","lat":43.27881,"lon":5.38828,"is_reserved":false,"is_disabled":false,"rental_uris":{"android":"levelo://app?vid=d0fd18c1-3898-46e2-812b-d16b1dad312a","ios":"levelo://app?vid=d0fd18c1-3898-46e2-812b-d16b1dad312a"},"vehicle_type_id":"4","last_reported":1733415147,"current_range_meters":9200,"station_id":"","pricing_plan_id":"cebpf4jnsgd1na2vs0mg"},{"bike_id":"6cc6805f-c0ca-4585-bdf1-b5a0339762b0","system_id":"levelo_inurba_marseille","lat":43.2902,"lon":5.42796,"is_reserved":false,"is_disabled":true,"rental_uris":{"android":"levelo://app?vid=6cc6805f-c0ca-4585-bdf1-b5a0339762b0","ios":"levelo://app?vid=6cc6805f-c0ca-4585-bdf1-b5a0339762b0"},"vehicle_type_id":"4","last_reported":1733415147,"current_range_meters":0,"station_id":"","pricing_plan_id":"cebpf4jnsgd1na2vs0mg"},{"bike_id":"47aae0d1-9d8d-4209-8ddb-a63ad33560f0","system_id":"levelo_inurba_marseille","lat":43.306,"lon":5.3938,"is_reserved":false,"is_disabled":false,"rental_uris":{"android":"levelo://app?vid=47aae0d1-9d8d-4209-8ddb-a63ad33560f0","ios":"levelo://app?vid=47aae0d1-9d8d-4209-8ddb-a63ad33560f0"},"vehicle_type_id":"4","last_reported":1733415147,"current_range_meters":14400,"station_id":"ce4bh0p2rcd13ifvqd80","pricing_plan_id":"cebpf4jnsgd1na2vs0mg"},{"bike_id":"0bfb3d4e-359d-4927-881b-5e84aa873cc8","system_id":"levelo_inurba_marseille","lat":43.32358,"lon":5.36795,"is_reserved":false,"is_disabled":false,"rental_uris":{"android":"levelo://app?vid=0bfb3d4e-359d-4927-881b-5e84aa873cc8","ios":"levelo://app?vid=0bfb3d4e-359d-4927-881b-5e84aa873cc8"},"vehicle_type_id":"4","last_reported":1733415147,"current_range_meters":14000,"station_id":"ce4bhsh2rcd13ifvqi2g","pricing_plan_id":"cebpf4jnsgd1na2vs0mg"},{"bike_id":"8d1c8b92-79bb-4181-b0d2-5e94db1a14d0","system_id":"levelo_inurba_marseille","lat":43.300115,"lon":5.382636,"is_reserved":false,"is_disabled":true,"rental_uris":{"android":"levelo://app?vid=8d1c8b92-79bb-4181-b0d2-5e94db1a14d0","ios":"levelo://app?vid=8d1c8b92-79bb-4181-b0d2-5e94db1a14d0"},"vehicle_type_id":"4","last_reported":1733415147,"current_range_meters":0,"station_id":"","pricing_plan_id":"cebpf4jnsgd1na2vs0mg"},{"bike_id":"66988d75-a9f0-423c-89be-11e06668ead3","system_id":"levelo_inurba_marseille","lat":43.26555,"lon":5.37295,"is_reserved":false,"is_disabled":false,"rental_uris":{"android":"levelo://app?vid=66988d75-a9f0-423c-89be-11e06668ead3","ios":"levelo://app?vid=66988d75-a9f0-423c-89be-11e06668ead3"},"vehicle_type_id":"4","last_reported":1733415147,"current_range_meters":3600,"station_id":"ce4bhg12rcd13ifvqf70","pricing_plan_id":"cebpf4jnsgd1na2vs0mg"},{"bike_id":"2371e20f-9c66-4012-83e9-87fddbe9ff86","system_id":"levelo_inurba_marseille","lat":43.26944,"lon":5.40247,"is_reserved":false,"is_disabled":false,"rental_uris":{"android":"levelo://app?vid=2371e20f-9c66-4012-83e9-87fddbe9ff86","ios":"levelo://app?vid=2371e20f-9c66-4012-83e9-87fddbe9ff86"},"vehicle_type_id":"4","last_reported":1733415147,"current_range_meters":32400,"station_id":"cjm6bp8fraef2m0cb0m0","pricing_plan_id":"cebpf4jnsgd1na2vs0mg"},{"bike_id":"72702f6b-2af7-4c0f-94ae-e9531fa52f75","system_id":"levelo_inurba_marseille","lat":43.30144,"lon":5.39873,"is_reserved":false,"is_disabled":false,"rental_uris":{"android":"levelo://app?vid=72702f6b-2af7-4c0f-94ae-e9531fa52f75","ios":"levelo://app?vid=72702f6b-2af7-4c0f-94ae-e9531fa52f75"},"vehicle_type_id":"4","last_reported":1733415147,"current_range_meters":3600,"station_id":"ce4bh0h2rcd13ifvqd40","pricing_plan_id":"cebpf4jnsgd1na2vs0mg"},{"bike_id":"001a1b43-2f20-4fcc-a74c-dad5fe68a81f","system_id":"levelo_inurba_marseille","lat":43.29032,"lon":5.3757,"is_reserved":false,"is_disabled":false,"rental_uris":{"android":"levelo://app?vid=001a1b43-2f20-4fcc-a74c-dad5fe68a81f","ios":"levelo://app?vid=001a1b43-2f20-4fcc-a74c-dad5fe68a81f"},"vehicle_type_id":"4","last_reported":1733415147,"current_range_meters":38800,"station_id":"ce4bh692rcd13ifvqe90","pricing_plan_id":"cebpf4jnsgd1na2vs0mg"},{"bike_id":"92602f85-670f-4280-a894-44657ee9ec65","system_id":"levelo_inurba_marseille","lat":43.25127,"lon":5.40325,"is_reserved":false,"is_disabled":false,"rental_uris":{"android":"levelo://app?vid=92602f85-670f-4280-a894-44657ee9ec65","ios":"levelo://app?vid=92602f85-670f-4280-a894-44657ee9ec65"},"vehicle_type_id":"4","last_reported":1733415147,"current_range_meters":5600,"station_id":"ce4bhlh2rcd13ifvqgig","pricing_plan_id":"cebpf4jnsgd1na2vs0mg"},{"bike_id":"7401184e-dcdc-4f69-89e9-1615045c1f8c","system_id":"levelo_inurba_marseille","lat":43.30036,"lon":5.38918,"is_reserved":false,"is_disabled":true,"rental_uris":{"android":"levelo://app?vid=7401184e-dcdc-4f69-89e9-1615045c1f8c","ios":"levelo://app?vid=7401184e-dcdc-4f69-89e9-1615045c1f8c"},"vehicle_type_id":"4","last_reported":1733415147,"current_range_meters":0,"station_id":"","pricing_plan_id":"cebpf4jnsgd1na2vs0mg"},{"bike_id":"c7463e61-ecc0-48f4-afe9-da99e7c007cf","system_id":"levelo_inurba_marseille","lat":43.26214,"lon":5.37448,"is_reserved":false,"is_disabled":false,"rental_uris":{"android":"levelo://app?vid=c7463e61-ecc0-48f4-afe9-da99e7c007cf","ios":"levelo://app?vid=c7463e61-ecc0-48f4-afe9-da99e7c007cf"},"vehicle_type_id":"4","last_reported":1733415147,"current_range_meters":22800,"station_id":"ce4bhgp2rcd13ifvqfc0","pricing_plan_id":"cebpf4jnsgd1na2vs0mg"},{"bike_id":"05f2348b-bbfc-40d1-accf-dfbb16039c20","system_id":"levelo_inurba_marseille","lat":43.29796,"lon":5.40417,"is_reserved":false,"is_disabled":false,"rental_uris":{"android":"levelo://app?vid=05f2348b-bbfc-40d1-accf-dfbb16039c20","ios":"levelo://app?vid=05f2348b-bbfc-40d1-accf-dfbb16039c20"},"vehicle_type_id":"4","last_reported":1733415147,"current_range_meters":38800,"station_id":"ce4bh112rcd13ifvqd90","pricing_plan_id":"cebpf4jnsgd1na2vs0mg"},{"bike_id":"d8db14c5-e75b-4f02-9164-aed6c72f87d6","system_id":"levelo_inurba_marseille","lat":43.3014,"lon":5.39851,"is_reserved":false,"is_disabled":false,"rental_uris":{"android":"levelo://app?vid=d8db14c5-e75b-4f02-9164-aed6c72f87d6","ios":"levelo://app?vid=d8db14c5-e75b-4f02-9164-aed6c72f87d6"},"vehicle_type_id":"4","last_reported":1733415147,"current_range_meters":30000,"station_id":"ce4bh0h2rcd13ifvqd40","pricing_plan_id":"cebpf4jnsgd1na2vs0mg"},{"bike_id":"8cbf4b8c-9daa-40fd-ba18-1f52e550442d","system_id":"levelo_inurba_marseille","lat":43.27617,"lon":5.3611,"is_reserved":false,"is_disabled":false,"rental_uris":{"android":"levelo://app?vid=8cbf4b8c-9daa-40fd-ba18-1f52e550442d","ios":"levelo://app?vid=8cbf4b8c-9daa-40fd-ba18-1f52e550442d"},"vehicle_type_id":"4","last_reported":1733415147,"current_range_meters":14000,"station_id":"ce4bgj92rcd13ifvqbe0","pricing_plan_id":"cebpf4jnsgd1na2vs0mg"},{"bike_id":"dc08eabf-1b59-4004-8055-34faeb95ec28","system_id":"levelo_inurba_marseille","lat":43.25842,"lon":5.39401,"is_reserved":false,"is_disabled":true,"rental_uris":{"android":"levelo://app?vid=dc08eabf-1b59-4004-8055-34faeb95ec28","ios":"levelo://app?vid=dc08eabf-1b59-4004-8055-34faeb95ec28"},"vehicle_type_id":"4","last_reported":1733415147,"current_range_meters":0,"station_id":"ce4bhip2rcd13ifvqft0","pricing_plan_id":"cebpf4jnsgd1na2vs0mg"},{"bike_id":"7c65069b-dc3f-48d2-bc8a-00f5d50846e2","system_id":"levelo_inurba_marseille","lat":43.26216,"lon":5.3744,"is_reserved":false,"is_disabled":false,"rental_uris":{"android":"levelo://app?vid=7c65069b-dc3f-48d2-bc8a-00f5d50846e2","ios":"levelo://app?vid=7c65069b-dc3f-48d2-bc8a-00f5d50846e2"},"vehicle_type_id":"4","last_reported":1733415147,"current_range_meters":30800,"station_id":"ce4bhgp2rcd13ifvqfc0","pricing_plan_id":"cebpf4jnsgd1na2vs0mg"},{"bike_id":"31e6fc3b-f821-47c0-8265-070531f4b97c","system_id":"levelo_inurba_marseille","lat":43.24181,"lon":5.3973,"is_reserved":false,"is_disabled":false,"rental_uris":{"android":"levelo://app?vid=31e6fc3b-f821-47c0-8265-070531f4b97c","ios":"levelo://app?vid=31e6fc3b-f821-47c0-8265-070531f4b97c"},"vehicle_type_id":"4","last_reported":1733415147,"current_range_meters":32800,"station_id":"ce4bhn12rcd13ifvqgpg","pricing_plan_id":"cebpf4jnsgd1na2vs0mg"},{"bike_id":"97caf237-85e4-434f-9ad0-53e6794457f3","system_id":"levelo_inurba_marseille","lat":43.23177,"lon":5.4,"is_reserved":false,"is_disabled":true,"rental_uris":{"android":"levelo://app?vid=97caf237-85e4-434f-9ad0-53e6794457f3","ios":"levelo://app?vid=97caf237-85e4-434f-9ad0-53e6794457f3"},"vehicle_type_id":"4","last_reported":1733415147,"current_range_meters":0,"station_id":"ce4bhn12rcd13ifvqgqg","pricing_plan_id":"cebpf4jnsgd1na2vs0mg"},{"bike_id":"626c7c79-13dd-43ae-872f-122ebb0d9917","system_id":"levelo_inurba_marseille","lat":43.27374,"lon":5.36255,"is_reserved":false,"is_disabled":false,"rental_uris":{"android":"levelo://app?vid=626c7c79-13dd-43ae-872f-122ebb0d9917","ios":"levelo://app?vid=626c7c79-13dd-43ae-872f-122ebb0d9917"},"vehicle_type_id":"4","last_reported":1733415147,"current_range_meters":7200,"station_id":"ce4bhbh2rcd13ifvqeo0","pricing_plan_id":"cebpf4jnsgd1na2vs0mg"},{"bike_id":"ee34e568-687e-410c-ae69-0565b17afd67","system_id":"levelo_inurba_marseille","lat":43.28472,"lon":5.38423,"is_reserved":false,"is_disabled":false,"rental_uris":{"android":"levelo://app?vid=ee34e568-687e-410c-ae69-0565b17afd67","ios":"levelo://app?vid=ee34e568-687e-410c-ae69-0565b17afd67"},"vehicle_type_id":"4","last_reported":1733415147,"current_range_meters":38800,"station_id":"ce4bh512rcd13ifvqe3g","pricing_plan_id":"cebpf4jnsgd1na2vs0mg"},{"bike_id":"9c77a68d-2e99-44e9-b903-950fb6644d35","system_id":"levelo_inurba_marseille","lat":43.25265,"lon":5.39465,"is_reserved":false,"is_disabled":true,"rental_uris":{"android":"levelo://app?vid=9c77a68d-2e99-44e9-b903-950fb6644d35","ios":"levelo://app?vid=9c77a68d-2e99-44e9-b903-950fb6644d35"},"vehicle_type_id":"4","last_reported":1733415147,"current_range_meters":0,"station_id":"","pricing_plan_id":"cebpf4jnsgd1na2vs0mg"},{"bike_id":"e523dc7c-f385-441c-ab62-7b5c537b3bc7","system_id":"levelo_inurba_marseille","lat":43.30783,"lon":5.37658,"is_reserved":false,"is_disabled":false,"rental_uris":{"android":"levelo://app?vid=e523dc7c-f385-441c-ab62-7b5c537b3bc7","ios":"levelo://app?vid=e523dc7c-f385-441c-ab62-7b5c537b3bc7"},"vehicle_type_id":"4","last_reported":1733415147,"current_range_meters":34800,"station_id":"ce4bgv92rcd13ifvqcq0","pricing_plan_id":"cebpf4jnsgd1na2vs0mg"},{"bike_id":"5fd3a644-a652-49dc-a34f-3c7582247439","system_id":"levelo_inurba_marseille","lat":43.31714,"lon":5.43707,"is_reserved":false,"is_disabled":false,"rental_uris":{"android":"levelo://app?vid=5fd3a644-a652-49dc-a34f-3c7582247439","ios":"levelo://app?vid=5fd3a644-a652-49dc-a34f-3c7582247439"},"vehicle_type_id":"4","last_reported":1733415147,"current_range_meters":7200,"station_id":"ce4bhp92rcd13ifvqhcg","pricing_plan_id":"cebpf4jnsgd1na2vs0mg"},{"bike_id":"83985555-c848-4b28-808f-8a7e7cf8519e","system_id":"levelo_inurba_marseille","lat":43.28115,"lon":5.43955,"is_reserved":false,"is_disabled":true,"rental_uris":{"android":"levelo://app?vid=83985555-c848-4b28-808f-8a7e7cf8519e","ios":"levelo://app?vid=83985555-c848-4b28-808f-8a7e7cf8519e"},"vehicle_type_id":"4","last_reported":1733415147,"current_range_meters":0,"station_id":"","pricing_plan_id":"cebpf4jnsgd1na2vs0mg"},{"bike_id":"76f22b2b-4267-4978-afb4-a70105660a0f","system_id":"levelo_inurba_marseille","lat":43.31216,"lon":5.36869,"is_reserved":false,"is_disabled":true,"rental_uris":{"android":"levelo://app?vid=76f22b2b-4267-4978-afb4-a70105660a0f","ios":"levelo://app?vid=76f22b2b-4267-4978-afb4-a70105660a0f"},"vehicle_type_id":"4","last_reported":1733415147,"current_range_meters":0,"station_id":"ce4bgl92rcd13ifvqbq0","pricing_plan_id":"cebpf4jnsgd1na2vs0mg"},{"bike_id":"903ec8f1-f4c3-441f-a117-ff7454fcb959","system_id":"levelo_inurba_marseille","lat":43.29478,"lon":5.39404,"is_reserved":false,"is_disabled":true,"rental_uris":{"android":"levelo://app?vid=903ec8f1-f4c3-441f-a117-ff7454fcb959","ios":"levelo://app?vid=903ec8f1-f4c3-441f-a117-ff7454fcb959"},"vehicle_type_id":"4","last_reported":1733415147,"current_range_meters":0,"station_id":"ce4bh292rcd13ifvqdf0","pricing_plan_id":"cebpf4jnsgd1na2vs0mg"},{"bike_id":"c91d7e7d-8210-4a19-9ed3-3a8c04159826","system_id":"levelo_inurba_marseille","lat":43.28925,"lon":5.38393,"is_reserved":false,"is_disabled":false,"rental_uris":{"android":"levelo://app?vid=c91d7e7d-8210-4a19-9ed3-3a8c04159826","ios":"levelo://app?vid=c91d7e7d-8210-4a19-9ed3-3a8c04159826"},"vehicle_type_id":"4","last_reported":1733415147,"current_range_meters":38400,"station_id":"ce4bh612rcd13ifvqe6g","pricing_plan_id":"cebpf4jnsgd1na2vs0mg"},{"bike_id":"5d4b2ba5-b2dc-49fe-830c-debfd8ccd108","system_id":"levelo_inurba_marseille","lat":43.28268,"lon":5.35075,"is_reserved":false,"is_disabled":false,"rental_uris":{"android":"levelo://app?vid=5d4b2ba5-b2dc-49fe-830c-debfd8ccd108","ios":"levelo://app?vid=5d4b2ba5-b2dc-49fe-830c-debfd8ccd108"},"vehicle_type_id":"4","last_reported":1733415147,"current_range_meters":29600,"station_id":"ce4bhbp2rcd13ifvqerg","pricing_plan_id":"cebpf4jnsgd1na2vs0mg"},{"bike_id":"f01c079e-081d-4d3a-b1fb-1464ed8b3d03","system_id":"levelo_inurba_marseille","lat":43.2558,"lon":5.38231,"is_reserved":false,"is_disabled":false,"rental_uris":{"android":"levelo://app?vid=f01c079e-081d-4d3a-b1fb-1464ed8b3d03","ios":"levelo://app?vid=f01c079e-081d-4d3a-b1fb-1464ed8b3d03"},"vehicle_type_id":"4","last_reported":1733415147,"current_range_meters":3600,"station_id":"ce4bhih2rcd13ifvqfs0","pricing_plan_id":"cebpf4jnsgd1na2vs0mg"},{"bike_id":"75c27c1a-167e-41fa-aaec-5646394217c5","system_id":"levelo_inurba_marseille","lat":43.29532,"lon":5.39399,"is_reserved":false,"is_disabled":false,"rental_uris":{"android":"levelo://app?vid=75c27c1a-167e-41fa-aaec-5646394217c5","ios":"levelo://app?vid=75c27c1a-167e-41fa-aaec-5646394217c5"},"vehicle_type_id":"4","last_reported":1733415147,"current_range_meters":28400,"station_id":"ce4bh292rcd13ifvqdf0","pricing_plan_id":"cebpf4jnsgd1na2vs0mg"},{"bike_id":"76efc336-bc70-4d41-9907-c57c084d6c0c","system_id":"levelo_inurba_marseille","lat":43.2987,"lon":5.39734,"is_reserved":false,"is_disabled":false,"rental_uris":{"android":"levelo://app?vid=76efc336-bc70-4d41-9907-c57c084d6c0c","ios":"levelo://app?vid=76efc336-bc70-4d41-9907-c57c084d6c0c"},"vehicle_type_id":"4","last_reported":1733415147,"current_range_meters":30400,"station_id":"ce4bh0h2rcd13ifvqd50","pricing_plan_id":"cebpf4jnsgd1na2vs0mg"},{"bike_id":"020719d4-c29b-4e35-be4b-81ca932ddaa9","system_id":"levelo_inurba_marseille","lat":43.30238,"lon":5.40079,"is_reserved":false,"is_disabled":true,"rental_uris":{"android":"levelo://app?vid=020719d4-c29b-4e35-be4b-81ca932ddaa9","ios":"levelo://app?vid=020719d4-c29b-4e35-be4b-81ca932ddaa9"},"vehicle_type_id":"4","last_reported":1733415147,"current_range_meters":30400,"station_id":"ce4bgvh2rcd13ifvqcs0","pricing_plan_id":"cebpf4jnsgd1na2vs0mg"},{"bike_id":"74f2c6ad-da2b-41d7-a969-54c1c27f59b8","system_id":"levelo_inurba_marseille","lat":43.2621,"lon":5.37942,"is_reserved":false,"is_disabled":false,"rental_uris":{"android":"levelo://app?vid=74f2c6ad-da2b-41d7-a969-54c1c27f59b8","ios":"levelo://app?vid=74f2c6ad-da2b-41d7-a969-54c1c27f59b8"},"vehicle_type_id":"4","last_reported":1733415147,"current_range_meters":38800,"station_id":"ce4bhjp2rcd13ifvqg90","pricing_plan_id":"cebpf4jnsgd1na2vs0mg"},{"bike_id":"a8264fb2-dad4-4c52-9230-cf80b47302d6","system_id":"levelo_inurba_marseille","lat":43.31998,"lon":5.38159,"is_reserved":false,"is_disabled":true,"rental_uris":{"android":"levelo://app?vid=a8264fb2-dad4-4c52-9230-cf80b47302d6","ios":"levelo://app?vid=a8264fb2-dad4-4c52-9230-cf80b47302d6"},"vehicle_type_id":"4","last_reported":1733415147,"current_range_meters":17200,"station_id":"ce4bhr12rcd13ifvqhpg","pricing_plan_id":"cebpf4jnsgd1na2vs0mg"},{"bike_id":"5edf82fa-e9d0-4d1f-98f1-37c98092771a","system_id":"levelo_inurba_marseille","lat":43.23198,"lon":5.3555,"is_reserved":false,"is_disabled":false,"rental_uris":{"android":"levelo://app?vid=5edf82fa-e9d0-4d1f-98f1-37c98092771a","ios":"levelo://app?vid=5edf82fa-e9d0-4d1f-98f1-37c98092771a"},"vehicle_type_id":"4","last_reported":1733415147,"current_range_meters":38800,"station_id":"ce4bhu92rcd13ifvqi70","pricing_plan_id":"cebpf4jnsgd1na2vs0mg"},{"bike_id":"32165bf8-aff9-4115-81c8-7e11d16bbbe5","system_id":"levelo_inurba_marseille","lat":43.23964,"lon":5.36623,"is_reserved":false,"is_disabled":false,"rental_uris":{"android":"levelo://app?vid=32165bf8-aff9-4115-81c8-7e11d16bbbe5","ios":"levelo://app?vid=32165bf8-aff9-4115-81c8-7e11d16bbbe5"},"vehicle_type_id":"4","last_reported":1733415147,"current_range_meters":17600,"station_id":"ce4bhi12rcd13ifvqfp0","pricing_plan_id":"cebpf4jnsgd1na2vs0mg"},{"bike_id":"8f753f0a-2f10-4092-a331-86096a8eda7e","system_id":"levelo_inurba_marseille","lat":43.25123,"lon":5.40318,"is_reserved":false,"is_disabled":true,"rental_uris":{"android":"levelo://app?vid=8f753f0a-2f10-4092-a331-86096a8eda7e","ios":"levelo://app?vid=8f753f0a-2f10-4092-a331-86096a8eda7e"},"vehicle_type_id":"4","last_reported":1733415147,"current_range_meters":0,"station_id":"ce4bhlh2rcd13ifvqgig","pricing_plan_id":"cebpf4jnsgd1na2vs0mg"},{"bike_id":"9e098bee-1418-4481-b8a8-a701086d52d4","system_id":"levelo_inurba_marseille","lat":43.28363,"lon":5.38636,"is_reserved":false,"is_disabled":false,"rental_uris":{"android":"levelo://app?vid=9e098bee-1418-4481-b8a8-a701086d52d4","ios":"levelo://app?vid=9e098bee-1418-4481-b8a8-a701086d52d4"},"vehicle_type_id":"4","last_reported":1733415147,"current_range_meters":10000,"station_id":"ce4bh492rcd13ifvqdvg","pricing_plan_id":"cebpf4jnsgd1na2vs0mg"},{"bike_id":"506c09f4-6c9b-4fb3-996c-4c7f86dd75a8","system_id":"levelo_inurba_marseille","lat":43.25492,"lon":5.37652,"is_reserved":false,"is_disabled":true,"rental_uris":{"android":"levelo://app?vid=506c09f4-6c9b-4fb3-996c-4c7f86dd75a8","ios":"levelo://app?vid=506c09f4-6c9b-4fb3-996c-4c7f86dd75a8"},"vehicle_type_id":"4","last_reported":1733415147,"current_range_meters":0,"station_id":"","pricing_plan_id":"cebpf4jnsgd1na2vs0mg"},{"bike_id":"91ce04db-2714-450f-b5b6-ab07058eade5","system_id":"levelo_inurba_marseille","lat":43.2963,"lon":5.40603,"is_reserved":false,"is_disabled":false,"rental_uris":{"android":"levelo://app?vid=91ce04db-2714-450f-b5b6-ab07058eade5","ios":"levelo://app?vid=91ce04db-2714-450f-b5b6-ab07058eade5"},"vehicle_type_id":"4","last_reported":1733415147,"current_range_meters":38800,"station_id":"ce4bh0h2rcd13ifvqd60","pricing_plan_id":"cebpf4jnsgd1na2vs0mg"},{"bike_id":"922f3b44-7b9e-4dd1-a700-8b77eb26ab13","system_id":"levelo_inurba_marseille","lat":43.25111,"lon":5.40324,"is_reserved":false,"is_disabled":false,"rental_uris":{"android":"levelo://app?vid=922f3b44-7b9e-4dd1-a700-8b77eb26ab13","ios":"levelo://app?vid=922f3b44-7b9e-4dd1-a700-8b77eb26ab13"},"vehicle_type_id":"4","last_reported":1733415147,"current_range_meters":19200,"station_id":"ce4bhlh2rcd13ifvqgig","pricing_plan_id":"cebpf4jnsgd1na2vs0mg"},{"bike_id":"9202c63e-372c-4469-a5c1-8e35757d1940","system_id":"levelo_inurba_marseille","lat":43.30053,"lon":5.38832,"is_reserved":false,"is_disabled":true,"rental_uris":{"android":"levelo://app?vid=9202c63e-372c-4469-a5c1-8e35757d1940","ios":"levelo://app?vid=9202c63e-372c-4469-a5c1-8e35757d1940"},"vehicle_type_id":"4","last_reported":1733415147,"current_range_meters":0,"station_id":"","pricing_plan_id":"cebpf4jnsgd1na2vs0mg"},{"bike_id":"1d1e223d-f3f8-4945-8923-f4bdebc5ab9c","system_id":"levelo_inurba_marseille","lat":43.3207,"lon":5.41541,"is_reserved":false,"is_disabled":true,"rental_uris":{"android":"levelo://app?vid=1d1e223d-f3f8-4945-8923-f4bdebc5ab9c","ios":"levelo://app?vid=1d1e223d-f3f8-4945-8923-f4bdebc5ab9c"},"vehicle_type_id":"4","last_reported":1733415147,"current_range_meters":38800,"station_id":"ce4bhq92rcd13ifvqhkg","pricing_plan_id":"cebpf4jnsgd1na2vs0mg"},{"bike_id":"489a671c-578c-4db4-8057-054da74d5b50","system_id":"levelo_inurba_marseille","lat":43.32334,"lon":5.40624,"is_reserved":false,"is_disabled":false,"rental_uris":{"android":"levelo://app?vid=489a671c-578c-4db4-8057-054da74d5b50","ios":"levelo://app?vid=489a671c-578c-4db4-8057-054da74d5b50"},"vehicle_type_id":"4","last_reported":1733415147,"current_range_meters":38000,"station_id":"ce4bhq92rcd13ifvqhjg","pricing_plan_id":"cebpf4jnsgd1na2vs0mg"},{"bike_id":"2e58502f-bfcc-4b97-8850-509d97ba4abc","system_id":"levelo_inurba_marseille","lat":43.29298,"lon":5.37443,"is_reserved":false,"is_disabled":false,"rental_uris":{"android":"levelo://app?vid=2e58502f-bfcc-4b97-8850-509d97ba4abc","ios":"levelo://app?vid=2e58502f-bfcc-4b97-8850-509d97ba4abc"},"vehicle_type_id":"4","last_reported":1733415147,"current_range_meters":38800,"station_id":"ce4bgi12rcd13ifvqb70","pricing_plan_id":"cebpf4jnsgd1na2vs0mg"},{"bike_id":"f4baaaf3-5729-45c6-81a9-b069f42d75d5","system_id":"levelo_inurba_marseille","lat":43.2893,"lon":5.39625,"is_reserved":false,"is_disabled":true,"rental_uris":{"android":"levelo://app?vid=f4baaaf3-5729-45c6-81a9-b069f42d75d5","ios":"levelo://app?vid=f4baaaf3-5729-45c6-81a9-b069f42d75d5"},"vehicle_type_id":"4","last_reported":1733415147,"current_range_meters":25200,"station_id":"ce4bh3h2rcd13ifvqdn0","pricing_plan_id":"cebpf4jnsgd1na2vs0mg"},{"bike_id":"cf3e6ea0-09ff-406c-b357-28a6a6117f94","system_id":"levelo_inurba_marseille","lat":43.22935,"lon":5.35381,"is_reserved":false,"is_disabled":false,"rental_uris":{"android":"levelo://app?vid=cf3e6ea0-09ff-406c-b357-28a6a6117f94","ios":"levelo://app?vid=cf3e6ea0-09ff-406c-b357-28a6a6117f94"},"vehicle_type_id":"4","last_reported":1733415147,"current_range_meters":39200,"station_id":"cpo3532slgdg3j2ikp40","pricing_plan_id":"cebpf4jnsgd1na2vs0mg"},{"bike_id":"86c53782-2ee0-41a4-b9e7-0ad492962151","system_id":"levelo_inurba_marseille","lat":43.26206,"lon":5.37928,"is_reserved":false,"is_disabled":false,"rental_uris":{"android":"levelo://app?vid=86c53782-2ee0-41a4-b9e7-0ad492962151","ios":"levelo://app?vid=86c53782-2ee0-41a4-b9e7-0ad492962151"},"vehicle_type_id":"4","last_reported":1733415147,"current_range_meters":37600,"station_id":"ce4bhjp2rcd13ifvqg90","pricing_plan_id":"cebpf4jnsgd1na2vs0mg"},{"bike_id":"c6a39dda-19fc-41d6-aefe-080e4c5990ef","system_id":"levelo_inurba_marseille","lat":43.2707,"lon":5.4228,"is_reserved":false,"is_disabled":false,"rental_uris":{"android":"levelo://app?vid=c6a39dda-19fc-41d6-aefe-080e4c5990ef","ios":"levelo://app?vid=c6a39dda-19fc-41d6-aefe-080e4c5990ef"},"vehicle_type_id":"4","last_reported":1733415147,"current_range_meters":23200,"station_id":"ce4bhk92rcd13ifvqgb0","pricing_plan_id":"cebpf4jnsgd1na2vs0mg"},{"bike_id":"719e509a-25e4-4b1b-9830-f708d85d7593","system_id":"levelo_inurba_marseille","lat":43.29283,"lon":5.37397,"is_reserved":false,"is_disabled":true,"rental_uris":{"android":"levelo://app?vid=719e509a-25e4-4b1b-9830-f708d85d7593","ios":"levelo://app?vid=719e509a-25e4-4b1b-9830-f708d85d7593"},"vehicle_type_id":"4","last_reported":1733415147,"current_range_meters":0,"station_id":"","pricing_plan_id":"cebpf4jnsgd1na2vs0mg"},{"bike_id":"305dde0f-2c1c-4e4a-8da4-b0904b35ca09","system_id":"levelo_inurba_marseille","lat":43.26687,"lon":5.38275,"is_reserved":false,"is_disabled":false,"rental_uris":{"android":"levelo://app?vid=305dde0f-2c1c-4e4a-8da4-b0904b35ca09","ios":"levelo://app?vid=305dde0f-2c1c-4e4a-8da4-b0904b35ca09"},"vehicle_type_id":"4","last_reported":1733415147,"current_range_meters":36400,"station_id":"ce4bhg92rcd13ifvqf90","pricing_plan_id":"cebpf4jnsgd1na2vs0mg"},{"bike_id":"46d0776e-cb28-4131-9809-e2a7b52c20bf","system_id":"levelo_inurba_marseille","lat":43.29,"lon":5.38675,"is_reserved":false,"is_disabled":false,"rental_uris":{"android":"levelo://app?vid=46d0776e-cb28-4131-9809-e2a7b52c20bf","ios":"levelo://app?vid=46d0776e-cb28-4131-9809-e2a7b52c20bf"},"vehicle_type_id":"4","last_reported":1733415147,"current_range_meters":33600,"station_id":"ce4bh512rcd13ifvqe2g","pricing_plan_id":"cebpf4jnsgd1na2vs0mg"},{"bike_id":"8b817ac7-1e1a-4ffb-8fbd-3c49e7da7fd9","system_id":"levelo_inurba_marseille","lat":43.31265,"lon":5.40161,"is_reserved":false,"is_disabled":false,"rental_uris":{"android":"levelo://app?vid=8b817ac7-1e1a-4ffb-8fbd-3c49e7da7fd9","ios":"levelo://app?vid=8b817ac7-1e1a-4ffb-8fbd-3c49e7da7fd9"},"vehicle_type_id":"4","last_reported":1733415147,"current_range_meters":14000,"station_id":"ce4bh092rcd13ifvqd30","pricing_plan_id":"cebpf4jnsgd1na2vs0mg"},{"bike_id":"66620224-8f06-4b4d-83da-c52f962d50a8","system_id":"levelo_inurba_marseille","lat":43.26214,"lon":5.37441,"is_reserved":false,"is_disabled":false,"rental_uris":{"android":"levelo://app?vid=66620224-8f06-4b4d-83da-c52f962d50a8","ios":"levelo://app?vid=66620224-8f06-4b4d-83da-c52f962d50a8"},"vehicle_type_id":"4","last_reported":1733415147,"current_range_meters":26000,"station_id":"ce4bhgp2rcd13ifvqfc0","pricing_plan_id":"cebpf4jnsgd1na2vs0mg"},{"bike_id":"3eac95d3-b5a4-4bbd-8508-0debbfb4ff6c","system_id":"levelo_inurba_marseille","lat":43.28616,"lon":5.35102,"is_reserved":false,"is_disabled":true,"rental_uris":{"android":"levelo://app?vid=3eac95d3-b5a4-4bbd-8508-0debbfb4ff6c","ios":"levelo://app?vid=3eac95d3-b5a4-4bbd-8508-0debbfb4ff6c"},"vehicle_type_id":"4","last_reported":1733415147,"current_range_meters":0,"station_id":"ce4bhch2rcd13ifvqeug","pricing_plan_id":"cebpf4jnsgd1na2vs0mg"},{"bike_id":"3fcaf175-4c90-4582-9215-7da579990224","system_id":"levelo_inurba_marseille","lat":43.28576,"lon":5.39495,"is_reserved":false,"is_disabled":false,"rental_uris":{"android":"levelo://app?vid=3fcaf175-4c90-4582-9215-7da579990224","ios":"levelo://app?vid=3fcaf175-4c90-4582-9215-7da579990224"},"vehicle_type_id":"4","last_reported":1733415147,"current_range_meters":37600,"station_id":"ce4bh292rcd13ifvqdg0","pricing_plan_id":"cebpf4jnsgd1na2vs0mg"},{"bike_id":"3b110cba-3e2f-4cc6-b6be-4bf9fca6ce34","system_id":"levelo_inurba_marseille","lat":43.29868,"lon":5.39747,"is_reserved":false,"is_disabled":false,"rental_uris":{"android":"levelo://app?vid=3b110cba-3e2f-4cc6-b6be-4bf9fca6ce34","ios":"levelo://app?vid=3b110cba-3e2f-4cc6-b6be-4bf9fca6ce34"},"vehicle_type_id":"4","last_reported":1733415147,"current_range_meters":19200,"station_id":"ce4bh0h2rcd13ifvqd50","pricing_plan_id":"cebpf4jnsgd1na2vs0mg"},{"bike_id":"e9ad441a-2b17-42c8-9eeb-fa173b56f4cd","system_id":"levelo_inurba_marseille","lat":43.30462,"lon":5.37914,"is_reserved":false,"is_disabled":false,"rental_uris":{"android":"levelo://app?vid=e9ad441a-2b17-42c8-9eeb-fa173b56f4cd","ios":"levelo://app?vid=e9ad441a-2b17-42c8-9eeb-fa173b56f4cd"},"vehicle_type_id":"4","last_reported":1733415147,"current_range_meters":21600,"station_id":"ce4bgup2rcd13ifvqcn0","pricing_plan_id":"cebpf4jnsgd1na2vs0mg"},{"bike_id":"b01ba929-1580-401b-973d-e4a15d746d4a","system_id":"levelo_inurba_marseille","lat":43.22929,"lon":5.35379,"is_reserved":false,"is_disabled":false,"rental_uris":{"android":"levelo://app?vid=b01ba929-1580-401b-973d-e4a15d746d4a","ios":"levelo://app?vid=b01ba929-1580-401b-973d-e4a15d746d4a"},"vehicle_type_id":"4","last_reported":1733415147,"current_range_meters":14800,"station_id":"cpo3532slgdg3j2ikp40","pricing_plan_id":"cebpf4jnsgd1na2vs0mg"},{"bike_id":"315d029e-ff42-4d99-a239-d388a421ea8c","system_id":"levelo_inurba_marseille","lat":43.30462,"lon":5.37904,"is_reserved":false,"is_disabled":true,"rental_uris":{"android":"levelo://app?vid=315d029e-ff42-4d99-a239-d388a421ea8c","ios":"levelo://app?vid=315d029e-ff42-4d99-a239-d388a421ea8c"},"vehicle_type_id":"4","last_reported":1733415147,"current_range_meters":0,"station_id":"ce4bgup2rcd13ifvqcn0","pricing_plan_id":"cebpf4jnsgd1na2vs0mg"},{"bike_id":"8c1e28b4-904f-48d7-ba6d-d3b5b5d05922","system_id":"levelo_inurba_marseille","lat":43.29272,"lon":5.40113,"is_reserved":false,"is_disabled":true,"rental_uris":{"android":"levelo://app?vid=8c1e28b4-904f-48d7-ba6d-d3b5b5d05922","ios":"levelo://app?vid=8c1e28b4-904f-48d7-ba6d-d3b5b5d05922"},"vehicle_type_id":"4","last_reported":1733415147,"current_range_meters":34800,"station_id":"ce4bh312rcd13ifvqdk0","pricing_plan_id":"cebpf4jnsgd1na2vs0mg"},{"bike_id":"60325c57-f7ef-4949-bd3e-5db6281130ef","system_id":"levelo_inurba_marseille","lat":43.25822,"lon":5.39428,"is_reserved":false,"is_disabled":false,"rental_uris":{"android":"levelo://app?vid=60325c57-f7ef-4949-bd3e-5db6281130ef","ios":"levelo://app?vid=60325c57-f7ef-4949-bd3e-5db6281130ef"},"vehicle_type_id":"4","last_reported":1733415147,"current_range_meters":11600,"station_id":"ce4bhip2rcd13ifvqft0","pricing_plan_id":"cebpf4jnsgd1na2vs0mg"},{"bike_id":"1d9a4b4c-056a-4257-82be-cdf0089ad0fc","system_id":"levelo_inurba_marseille","lat":43.26943,"lon":5.40254,"is_reserved":false,"is_disabled":false,"rental_uris":{"android":"levelo://app?vid=1d9a4b4c-056a-4257-82be-cdf0089ad0fc","ios":"levelo://app?vid=1d9a4b4c-056a-4257-82be-cdf0089ad0fc"},"vehicle_type_id":"4","last_reported":1733415147,"current_range_meters":39200,"station_id":"cjm6bp8fraef2m0cb0m0","pricing_plan_id":"cebpf4jnsgd1na2vs0mg"},{"bike_id":"010f1ddc-a5dd-4595-9905-ebf82317a65f","system_id":"levelo_inurba_marseille","lat":43.33032,"lon":5.39045,"is_reserved":false,"is_disabled":false,"rental_uris":{"android":"levelo://app?vid=010f1ddc-a5dd-4595-9905-ebf82317a65f","ios":"levelo://app?vid=010f1ddc-a5dd-4595-9905-ebf82317a65f"},"vehicle_type_id":"4","last_reported":1733415147,"current_range_meters":38800,"station_id":"ce4bhr92rcd13ifvqhrg","pricing_plan_id":"cebpf4jnsgd1na2vs0mg"},{"bike_id":"a06318c4-753f-49c7-ac79-e26a1382faba","system_id":"levelo_inurba_marseille","lat":43.28674,"lon":5.38672,"is_reserved":false,"is_disabled":false,"rental_uris":{"android":"levelo://app?vid=a06318c4-753f-49c7-ac79-e26a1382faba","ios":"levelo://app?vid=a06318c4-753f-49c7-ac79-e26a1382faba"},"vehicle_type_id":"4","last_reported":1733415147,"current_range_meters":8400,"station_id":"ce4bh492rcd13ifvqdug","pricing_plan_id":"cebpf4jnsgd1na2vs0mg"},{"bike_id":"27c28732-8864-42aa-ad2a-eb132bf8af3c","system_id":"levelo_inurba_marseille","lat":43.2512,"lon":5.40321,"is_reserved":false,"is_disabled":false,"rental_uris":{"android":"levelo://app?vid=27c28732-8864-42aa-ad2a-eb132bf8af3c","ios":"levelo://app?vid=27c28732-8864-42aa-ad2a-eb132bf8af3c"},"vehicle_type_id":"4","last_reported":1733415147,"current_range_meters":28400,"station_id":"ce4bhlh2rcd13ifvqgig","pricing_plan_id":"cebpf4jnsgd1na2vs0mg"},{"bike_id":"28bab570-bdc1-468d-96dd-acdf4af145b4","system_id":"levelo_inurba_marseille","lat":43.27898,"lon":5.3801,"is_reserved":false,"is_disabled":false,"rental_uris":{"android":"levelo://app?vid=28bab570-bdc1-468d-96dd-acdf4af145b4","ios":"levelo://app?vid=28bab570-bdc1-468d-96dd-acdf4af145b4"},"vehicle_type_id":"4","last_reported":1733415147,"current_range_meters":35600,"station_id":"ce4bhf92rcd13ifvqf50","pricing_plan_id":"cebpf4jnsgd1na2vs0mg"},{"bike_id":"0ac04cca-6098-4356-8d64-b468a7e92f43","system_id":"levelo_inurba_marseille","lat":43.28426,"lon":5.34993,"is_reserved":false,"is_disabled":false,"rental_uris":{"android":"levelo://app?vid=0ac04cca-6098-4356-8d64-b468a7e92f43","ios":"levelo://app?vid=0ac04cca-6098-4356-8d64-b468a7e92f43"},"vehicle_type_id":"4","last_reported":1733415147,"current_range_meters":22000,"station_id":"ce4bhbh2rcd13ifvqepg","pricing_plan_id":"cebpf4jnsgd1na2vs0mg"},{"bike_id":"14757c55-869a-4b0b-afac-0faeea29372b","system_id":"levelo_inurba_marseille","lat":43.330292,"lon":5.390349,"is_reserved":false,"is_disabled":false,"rental_uris":{"android":"levelo://app?vid=14757c55-869a-4b0b-afac-0faeea29372b","ios":"levelo://app?vid=14757c55-869a-4b0b-afac-0faeea29372b"},"vehicle_type_id":"4","last_reported":1733415147,"current_range_meters":39200,"station_id":"ce4bhr92rcd13ifvqhrg","pricing_plan_id":"cebpf4jnsgd1na2vs0mg"},{"bike_id":"3e592e74-64b6-427b-a9f3-9c85b0d07de7","system_id":"levelo_inurba_marseille","lat":43.2319,"lon":5.39993,"is_reserved":false,"is_disabled":false,"rental_uris":{"android":"levelo://app?vid=3e592e74-64b6-427b-a9f3-9c85b0d07de7","ios":"levelo://app?vid=3e592e74-64b6-427b-a9f3-9c85b0d07de7"},"vehicle_type_id":"4","last_reported":1733415147,"current_range_meters":28800,"station_id":"ce4bhn12rcd13ifvqgqg","pricing_plan_id":"cebpf4jnsgd1na2vs0mg"},{"bike_id":"43f4cf78-b921-4a4d-b773-f9160156db19","system_id":"levelo_inurba_marseille","lat":43.2926,"lon":5.40899,"is_reserved":false,"is_disabled":false,"rental_uris":{"android":"levelo://app?vid=43f4cf78-b921-4a4d-b773-f9160156db19","ios":"levelo://app?vid=43f4cf78-b921-4a4d-b773-f9160156db19"},"vehicle_type_id":"4","last_reported":1733415147,"current_range_meters":38800,"station_id":"ce4bh192rcd13ifvqdc0","pricing_plan_id":"cebpf4jnsgd1na2vs0mg"},{"bike_id":"704edf0a-9774-4ca2-8fd4-44a2b86045e9","system_id":"levelo_inurba_marseille","lat":43.27377,"lon":5.36256,"is_reserved":false,"is_disabled":false,"rental_uris":{"android":"levelo://app?vid=704edf0a-9774-4ca2-8fd4-44a2b86045e9","ios":"levelo://app?vid=704edf0a-9774-4ca2-8fd4-44a2b86045e9"},"vehicle_type_id":"4","last_reported":1733415147,"current_range_meters":18000,"station_id":"ce4bhbh2rcd13ifvqeo0","pricing_plan_id":"cebpf4jnsgd1na2vs0mg"},{"bike_id":"710c9d13-8a64-4ca7-ba64-fd3194714b19","system_id":"levelo_inurba_marseille","lat":43.30803,"lon":5.37334,"is_reserved":false,"is_disabled":false,"rental_uris":{"android":"levelo://app?vid=710c9d13-8a64-4ca7-ba64-fd3194714b19","ios":"levelo://app?vid=710c9d13-8a64-4ca7-ba64-fd3194714b19"},"vehicle_type_id":"4","last_reported":1733415147,"current_range_meters":30000,"station_id":"","pricing_plan_id":"cebpf4jnsgd1na2vs0mg"},{"bike_id":"a4b9e425-64b8-4ce2-a5ab-5fcc5d1230a4","system_id":"levelo_inurba_marseille","lat":43.32104,"lon":5.3678,"is_reserved":false,"is_disabled":false,"rental_uris":{"android":"levelo://app?vid=a4b9e425-64b8-4ce2-a5ab-5fcc5d1230a4","ios":"levelo://app?vid=a4b9e425-64b8-4ce2-a5ab-5fcc5d1230a4"},"vehicle_type_id":"4","last_reported":1733415147,"current_range_meters":35600,"station_id":"ce4bhrh2rcd13ifvqhug","pricing_plan_id":"cebpf4jnsgd1na2vs0mg"},{"bike_id":"9a97843f-20be-4095-834b-6487c535291d","system_id":"levelo_inurba_marseille","lat":43.30136,"lon":5.39863,"is_reserved":false,"is_disabled":false,"rental_uris":{"android":"levelo://app?vid=9a97843f-20be-4095-834b-6487c535291d","ios":"levelo://app?vid=9a97843f-20be-4095-834b-6487c535291d"},"vehicle_type_id":"4","last_reported":1733415147,"current_range_meters":27200,"station_id":"ce4bh0h2rcd13ifvqd40","pricing_plan_id":"cebpf4jnsgd1na2vs0mg"},{"bike_id":"fd98eaa9-4d55-4e7b-aa90-0d14707466d9","system_id":"levelo_inurba_marseille","lat":43.337444,"lon":5.374475,"is_reserved":false,"is_disabled":true,"rental_uris":{"android":"levelo://app?vid=fd98eaa9-4d55-4e7b-aa90-0d14707466d9","ios":"levelo://app?vid=fd98eaa9-4d55-4e7b-aa90-0d14707466d9"},"vehicle_type_id":"4","last_reported":1733415147,"current_range_meters":0,"station_id":"","pricing_plan_id":"cebpf4jnsgd1na2vs0mg"},{"bike_id":"0f02a70a-6228-44db-9c46-c09af84bc564","system_id":"levelo_inurba_marseille","lat":43.30321,"lon":5.40435,"is_reserved":false,"is_disabled":false,"rental_uris":{"android":"levelo://app?vid=0f02a70a-6228-44db-9c46-c09af84bc564","ios":"levelo://app?vid=0f02a70a-6228-44db-9c46-c09af84bc564"},"vehicle_type_id":"4","last_reported":1733415147,"current_range_meters":38000,"station_id":"ce4bh012rcd13ifvqd10","pricing_plan_id":"cebpf4jnsgd1na2vs0mg"},{"bike_id":"7739e7e5-bcce-43a6-9d41-f90a9ba836ed","system_id":"levelo_inurba_marseille","lat":43.29621,"lon":5.38107,"is_reserved":false,"is_disabled":true,"rental_uris":{"android":"levelo://app?vid=7739e7e5-bcce-43a6-9d41-f90a9ba836ed","ios":"levelo://app?vid=7739e7e5-bcce-43a6-9d41-f90a9ba836ed"},"vehicle_type_id":"4","last_reported":1733415147,"current_range_meters":800,"station_id":"ce4bgl12rcd13ifvqbo0","pricing_plan_id":"cebpf4jnsgd1na2vs0mg"},{"bike_id":"e25dc6e3-1f83-4e32-ad60-7f8ea4cb5b47","system_id":"levelo_inurba_marseille","lat":43.29794,"lon":5.39351,"is_reserved":false,"is_disabled":true,"rental_uris":{"android":"levelo://app?vid=e25dc6e3-1f83-4e32-ad60-7f8ea4cb5b47","ios":"levelo://app?vid=e25dc6e3-1f83-4e32-ad60-7f8ea4cb5b47"},"vehicle_type_id":"4","last_reported":1733415147,"current_range_meters":0,"station_id":"chh1huq6cuj3fo74tm60","pricing_plan_id":"cebpf4jnsgd1na2vs0mg"},{"bike_id":"9f166179-3cc0-42ca-860b-06242525cca2","system_id":"levelo_inurba_marseille","lat":43.32004,"lon":5.4157,"is_reserved":false,"is_disabled":false,"rental_uris":{"android":"levelo://app?vid=9f166179-3cc0-42ca-860b-06242525cca2","ios":"levelo://app?vid=9f166179-3cc0-42ca-860b-06242525cca2"},"vehicle_type_id":"4","last_reported":1733415147,"current_range_meters":33200,"station_id":"ce4bhq92rcd13ifvqhkg","pricing_plan_id":"cebpf4jnsgd1na2vs0mg"},{"bike_id":"cbf578cc-cc2f-4189-9de2-b212a0c21f11","system_id":"levelo_inurba_marseille","lat":43.29536,"lon":5.39036,"is_reserved":false,"is_disabled":false,"rental_uris":{"android":"levelo://app?vid=cbf578cc-cc2f-4189-9de2-b212a0c21f11","ios":"levelo://app?vid=cbf578cc-cc2f-4189-9de2-b212a0c21f11"},"vehicle_type_id":"4","last_reported":1733415147,"current_range_meters":24000,"station_id":"ce4bh3p2rcd13ifvqdp0","pricing_plan_id":"cebpf4jnsgd1na2vs0mg"},{"bike_id":"c2d8a1c2-d166-4a36-b32f-beec95c93bd5","system_id":"levelo_inurba_marseille","lat":43.33756,"lon":5.37459,"is_reserved":false,"is_disabled":false,"rental_uris":{"android":"levelo://app?vid=c2d8a1c2-d166-4a36-b32f-beec95c93bd5","ios":"levelo://app?vid=c2d8a1c2-d166-4a36-b32f-beec95c93bd5"},"vehicle_type_id":"4","last_reported":1733415147,"current_range_meters":8800,"station_id":"","pricing_plan_id":"cebpf4jnsgd1na2vs0mg"},{"bike_id":"37d8295a-5ca3-485d-9b20-b0ca929d7974","system_id":"levelo_inurba_marseille","lat":43.28577,"lon":5.39501,"is_reserved":false,"is_disabled":false,"rental_uris":{"android":"levelo://app?vid=37d8295a-5ca3-485d-9b20-b0ca929d7974","ios":"levelo://app?vid=37d8295a-5ca3-485d-9b20-b0ca929d7974"},"vehicle_type_id":"4","last_reported":1733415147,"current_range_meters":38800,"station_id":"ce4bh292rcd13ifvqdg0","pricing_plan_id":"cebpf4jnsgd1na2vs0mg"},{"bike_id":"7b0b07a7-2b69-4e38-9e05-cff91fce8fd4","system_id":"levelo_inurba_marseille","lat":43.26786,"lon":5.39413,"is_reserved":false,"is_disabled":false,"rental_uris":{"android":"levelo://app?vid=7b0b07a7-2b69-4e38-9e05-cff91fce8fd4","ios":"levelo://app?vid=7b0b07a7-2b69-4e38-9e05-cff91fce8fd4"},"vehicle_type_id":"4","last_reported":1733415147,"current_range_meters":32000,"station_id":"ce4bhh12rcd13ifvqfg0","pricing_plan_id":"cebpf4jnsgd1na2vs0mg"},{"bike_id":"0cd79847-768d-43a1-b9f4-3aa77fd39910","system_id":"levelo_inurba_marseille","lat":43.30916,"lon":5.36846,"is_reserved":false,"is_disabled":false,"rental_uris":{"android":"levelo://app?vid=0cd79847-768d-43a1-b9f4-3aa77fd39910","ios":"levelo://app?vid=0cd79847-768d-43a1-b9f4-3aa77fd39910"},"vehicle_type_id":"4","last_reported":1733415147,"current_range_meters":36000,"station_id":"ce4bgn92rcd13ifvqbvg","pricing_plan_id":"cebpf4jnsgd1na2vs0mg"},{"bike_id":"5605d362-7a6b-439d-b82f-b1eebcb406f8","system_id":"levelo_inurba_marseille","lat":43.26686,"lon":5.38271,"is_reserved":false,"is_disabled":false,"rental_uris":{"android":"levelo://app?vid=5605d362-7a6b-439d-b82f-b1eebcb406f8","ios":"levelo://app?vid=5605d362-7a6b-439d-b82f-b1eebcb406f8"},"vehicle_type_id":"4","last_reported":1733415147,"current_range_meters":38800,"station_id":"ce4bhg92rcd13ifvqf90","pricing_plan_id":"cebpf4jnsgd1na2vs0mg"},{"bike_id":"dce35d6a-08b0-4b4c-b89b-7b5e69e85874","system_id":"levelo_inurba_marseille","lat":43.32487,"lon":5.36572,"is_reserved":false,"is_disabled":false,"rental_uris":{"android":"levelo://app?vid=dce35d6a-08b0-4b4c-b89b-7b5e69e85874","ios":"levelo://app?vid=dce35d6a-08b0-4b4c-b89b-7b5e69e85874"},"vehicle_type_id":"4","last_reported":1733415147,"current_range_meters":9600,"station_id":"ce4bhs12rcd13ifvqhvg","pricing_plan_id":"cebpf4jnsgd1na2vs0mg"},{"bike_id":"37727576-2d28-4525-b065-40affdaee0f8","system_id":"levelo_inurba_marseille","lat":43.32385,"lon":5.38877,"is_reserved":false,"is_disabled":false,"rental_uris":{"android":"levelo://app?vid=37727576-2d28-4525-b065-40affdaee0f8","ios":"levelo://app?vid=37727576-2d28-4525-b065-40affdaee0f8"},"vehicle_type_id":"4","last_reported":1733415147,"current_range_meters":38800,"station_id":"ce4bhqp2rcd13ifvqhog","pricing_plan_id":"cebpf4jnsgd1na2vs0mg"},{"bike_id":"737bdef3-e4f9-4d42-9b3b-45164c8dc58f","system_id":"levelo_inurba_marseille","lat":43.24081,"lon":5.37742,"is_reserved":false,"is_disabled":true,"rental_uris":{"android":"levelo://app?vid=737bdef3-e4f9-4d42-9b3b-45164c8dc58f","ios":"levelo://app?vid=737bdef3-e4f9-4d42-9b3b-45164c8dc58f"},"vehicle_type_id":"4","last_reported":1733415147,"current_range_meters":12000,"station_id":"ce4bhnp2rcd13ifvqgvg","pricing_plan_id":"cebpf4jnsgd1na2vs0mg"},{"bike_id":"7d17b023-36ab-4c61-a766-3d7376951ed8","system_id":"levelo_inurba_marseille","lat":43.25497,"lon":5.37644,"is_reserved":false,"is_disabled":false,"rental_uris":{"android":"levelo://app?vid=7d17b023-36ab-4c61-a766-3d7376951ed8","ios":"levelo://app?vid=7d17b023-36ab-4c61-a766-3d7376951ed8"},"vehicle_type_id":"4","last_reported":1733415147,"current_range_meters":28000,"station_id":"ce4bhh12rcd13ifvqff0","pricing_plan_id":"cebpf4jnsgd1na2vs0mg"},{"bike_id":"bd019733-b285-43d6-9d13-b5c534a12ecb","system_id":"levelo_inurba_marseille","lat":43.31049,"lon":5.38747,"is_reserved":false,"is_disabled":true,"rental_uris":{"android":"levelo://app?vid=bd019733-b285-43d6-9d13-b5c534a12ecb","ios":"levelo://app?vid=bd019733-b285-43d6-9d13-b5c534a12ecb"},"vehicle_type_id":"4","last_reported":1733415147,"current_range_meters":2800,"station_id":"","pricing_plan_id":"cebpf4jnsgd1na2vs0mg"},{"bike_id":"f159690f-4e2d-4fd0-adc7-7d6f1793f1f0","system_id":"levelo_inurba_marseille","lat":43.29631,"lon":5.40592,"is_reserved":false,"is_disabled":false,"rental_uris":{"android":"levelo://app?vid=f159690f-4e2d-4fd0-adc7-7d6f1793f1f0","ios":"levelo://app?vid=f159690f-4e2d-4fd0-adc7-7d6f1793f1f0"},"vehicle_type_id":"4","last_reported":1733415147,"current_range_meters":30400,"station_id":"ce4bh0h2rcd13ifvqd60","pricing_plan_id":"cebpf4jnsgd1na2vs0mg"},{"bike_id":"f94783ef-be2a-4636-8187-4cc38a186074","system_id":"levelo_inurba_marseille","lat":43.30913,"lon":5.36848,"is_reserved":false,"is_disabled":false,"rental_uris":{"android":"levelo://app?vid=f94783ef-be2a-4636-8187-4cc38a186074","ios":"levelo://app?vid=f94783ef-be2a-4636-8187-4cc38a186074"},"vehicle_type_id":"4","last_reported":1733415147,"current_range_meters":35200,"station_id":"ce4bgn92rcd13ifvqbvg","pricing_plan_id":"cebpf4jnsgd1na2vs0mg"},{"bike_id":"6c32b505-eee5-4379-8cea-340152f349d5","system_id":"levelo_inurba_marseille","lat":43.29416,"lon":5.38622,"is_reserved":false,"is_disabled":false,"rental_uris":{"android":"levelo://app?vid=6c32b505-eee5-4379-8cea-340152f349d5","ios":"levelo://app?vid=6c32b505-eee5-4379-8cea-340152f349d5"},"vehicle_type_id":"4","last_reported":1733415147,"current_range_meters":9200,"station_id":"ce4bh2h2rcd13ifvqdh0","pricing_plan_id":"cebpf4jnsgd1na2vs0mg"},{"bike_id":"97697ece-320c-4aaf-97ae-7ee094a77b54","system_id":"levelo_inurba_marseille","lat":43.25944,"lon":5.40903,"is_reserved":false,"is_disabled":false,"rental_uris":{"android":"levelo://app?vid=97697ece-320c-4aaf-97ae-7ee094a77b54","ios":"levelo://app?vid=97697ece-320c-4aaf-97ae-7ee094a77b54"},"vehicle_type_id":"4","last_reported":1733415147,"current_range_meters":8800,"station_id":"ce4bhm92rcd13ifvqglg","pricing_plan_id":"cebpf4jnsgd1na2vs0mg"},{"bike_id":"05b79cbe-9484-46ee-9ee1-bf3bad3ae80e","system_id":"levelo_inurba_marseille","lat":43.28614,"lon":5.35102,"is_reserved":false,"is_disabled":false,"rental_uris":{"android":"levelo://app?vid=05b79cbe-9484-46ee-9ee1-bf3bad3ae80e","ios":"levelo://app?vid=05b79cbe-9484-46ee-9ee1-bf3bad3ae80e"},"vehicle_type_id":"4","last_reported":1733415147,"current_range_meters":3600,"station_id":"ce4bhch2rcd13ifvqeug","pricing_plan_id":"cebpf4jnsgd1na2vs0mg"},{"bike_id":"55993fce-6a3c-4944-b365-61e19c6fe4f5","system_id":"levelo_inurba_marseille","lat":43.25503,"lon":5.3765,"is_reserved":false,"is_disabled":false,"rental_uris":{"android":"levelo://app?vid=55993fce-6a3c-4944-b365-61e19c6fe4f5","ios":"levelo://app?vid=55993fce-6a3c-4944-b365-61e19c6fe4f5"},"vehicle_type_id":"4","last_reported":1733415147,"current_range_meters":9200,"station_id":"ce4bhh12rcd13ifvqff0","pricing_plan_id":"cebpf4jnsgd1na2vs0mg"},{"bike_id":"21c61b3f-2ae1-41ed-96e8-21fc1b01a387","system_id":"levelo_inurba_marseille","lat":43.30082,"lon":5.37258,"is_reserved":false,"is_disabled":false,"rental_uris":{"android":"levelo://app?vid=21c61b3f-2ae1-41ed-96e8-21fc1b01a387","ios":"levelo://app?vid=21c61b3f-2ae1-41ed-96e8-21fc1b01a387"},"vehicle_type_id":"4","last_reported":1733415147,"current_range_meters":16000,"station_id":"","pricing_plan_id":"cebpf4jnsgd1na2vs0mg"},{"bike_id":"10df4efc-0525-4612-8b96-4d0e2bd79f9b","system_id":"levelo_inurba_marseille","lat":43.24383,"lon":5.37052,"is_reserved":false,"is_disabled":false,"rental_uris":{"android":"levelo://app?vid=10df4efc-0525-4612-8b96-4d0e2bd79f9b","ios":"levelo://app?vid=10df4efc-0525-4612-8b96-4d0e2bd79f9b"},"vehicle_type_id":"4","last_reported":1733415147,"current_range_meters":27600,"station_id":"ce4bhhh2rcd13ifvqfk0","pricing_plan_id":"cebpf4jnsgd1na2vs0mg"},{"bike_id":"3a9149f3-357c-4d0a-859b-18382ef024a5","system_id":"levelo_inurba_marseille","lat":43.32112,"lon":5.36769,"is_reserved":false,"is_disabled":false,"rental_uris":{"android":"levelo://app?vid=3a9149f3-357c-4d0a-859b-18382ef024a5","ios":"levelo://app?vid=3a9149f3-357c-4d0a-859b-18382ef024a5"},"vehicle_type_id":"4","last_reported":1733415147,"current_range_meters":23200,"station_id":"ce4bhrh2rcd13ifvqhug","pricing_plan_id":"cebpf4jnsgd1na2vs0mg"},{"bike_id":"bbcbfa71-d8f5-4b8e-9040-d67356b9ece4","system_id":"levelo_inurba_marseille","lat":43.31355,"lon":5.38507,"is_reserved":false,"is_disabled":true,"rental_uris":{"android":"levelo://app?vid=bbcbfa71-d8f5-4b8e-9040-d67356b9ece4","ios":"levelo://app?vid=bbcbfa71-d8f5-4b8e-9040-d67356b9ece4"},"vehicle_type_id":"4","last_reported":1733415147,"current_range_meters":10000,"station_id":"ce4bgt92rcd13ifvqcf0","pricing_plan_id":"cebpf4jnsgd1na2vs0mg"},{"bike_id":"2b31ee04-854c-494a-96a0-3d7d5ff4c4dc","system_id":"levelo_inurba_marseille","lat":43.2923,"lon":5.36071,"is_reserved":false,"is_disabled":false,"rental_uris":{"android":"levelo://app?vid=2b31ee04-854c-494a-96a0-3d7d5ff4c4dc","ios":"levelo://app?vid=2b31ee04-854c-494a-96a0-3d7d5ff4c4dc"},"vehicle_type_id":"4","last_reported":1733415147,"current_range_meters":37600,"station_id":"ce4bhbh2rcd13ifvqeqg","pricing_plan_id":"cebpf4jnsgd1na2vs0mg"},{"bike_id":"07ed8964-4458-4d58-8abd-6f3ec89cc37f","system_id":"levelo_inurba_marseille","lat":43.26786,"lon":5.39412,"is_reserved":false,"is_disabled":false,"rental_uris":{"android":"levelo://app?vid=07ed8964-4458-4d58-8abd-6f3ec89cc37f","ios":"levelo://app?vid=07ed8964-4458-4d58-8abd-6f3ec89cc37f"},"vehicle_type_id":"4","last_reported":1733415147,"current_range_meters":14000,"station_id":"ce4bhh12rcd13ifvqfg0","pricing_plan_id":"cebpf4jnsgd1na2vs0mg"},{"bike_id":"d2e5c4b9-e3b8-4ba4-ae3f-7ba36aaff0be","system_id":"levelo_inurba_marseille","lat":43.30142,"lon":5.38073,"is_reserved":false,"is_disabled":false,"rental_uris":{"android":"levelo://app?vid=d2e5c4b9-e3b8-4ba4-ae3f-7ba36aaff0be","ios":"levelo://app?vid=d2e5c4b9-e3b8-4ba4-ae3f-7ba36aaff0be"},"vehicle_type_id":"4","last_reported":1733415147,"current_range_meters":34800,"station_id":"ce4bgjp2rcd13ifvqbh0","pricing_plan_id":"cebpf4jnsgd1na2vs0mg"},{"bike_id":"721f5feb-b378-4dac-af39-7801c98d73b6","system_id":"levelo_inurba_marseille","lat":43.30142,"lon":5.38101,"is_reserved":false,"is_disabled":true,"rental_uris":{"android":"levelo://app?vid=721f5feb-b378-4dac-af39-7801c98d73b6","ios":"levelo://app?vid=721f5feb-b378-4dac-af39-7801c98d73b6"},"vehicle_type_id":"4","last_reported":1733415147,"current_range_meters":0,"station_id":"ce4bgjp2rcd13ifvqbh0","pricing_plan_id":"cebpf4jnsgd1na2vs0mg"},{"bike_id":"da6a7a1d-e653-4950-af8c-8137b06f7d40","system_id":"levelo_inurba_marseille","lat":43.3004,"lon":5.37551,"is_reserved":false,"is_disabled":true,"rental_uris":{"android":"levelo://app?vid=da6a7a1d-e653-4950-af8c-8137b06f7d40","ios":"levelo://app?vid=da6a7a1d-e653-4950-af8c-8137b06f7d40"},"vehicle_type_id":"4","last_reported":1733415147,"current_range_meters":0,"station_id":"","pricing_plan_id":"cebpf4jnsgd1na2vs0mg"},{"bike_id":"30325550-3818-4efa-9771-6461afc09b47","system_id":"levelo_inurba_marseille","lat":43.25937,"lon":5.40908,"is_reserved":false,"is_disabled":false,"rental_uris":{"android":"levelo://app?vid=30325550-3818-4efa-9771-6461afc09b47","ios":"levelo://app?vid=30325550-3818-4efa-9771-6461afc09b47"},"vehicle_type_id":"4","last_reported":1733415147,"current_range_meters":8400,"station_id":"ce4bhm92rcd13ifvqglg","pricing_plan_id":"cebpf4jnsgd1na2vs0mg"},{"bike_id":"055f094c-d378-4f0a-bb86-072811811d59","system_id":"levelo_inurba_marseille","lat":43.25952,"lon":5.4093,"is_reserved":false,"is_disabled":false,"rental_uris":{"android":"levelo://app?vid=055f094c-d378-4f0a-bb86-072811811d59","ios":"levelo://app?vid=055f094c-d378-4f0a-bb86-072811811d59"},"vehicle_type_id":"4","last_reported":1733415147,"current_range_meters":36400,"station_id":"ce4bhm92rcd13ifvqglg","pricing_plan_id":"cebpf4jnsgd1na2vs0mg"},{"bike_id":"4d6c3386-2214-4cfa-bf90-651ffa07d0c7","system_id":"levelo_inurba_marseille","lat":43.31159,"lon":5.38727,"is_reserved":false,"is_disabled":false,"rental_uris":{"android":"levelo://app?vid=4d6c3386-2214-4cfa-bf90-651ffa07d0c7","ios":"levelo://app?vid=4d6c3386-2214-4cfa-bf90-651ffa07d0c7"},"vehicle_type_id":"4","last_reported":1733415147,"current_range_meters":38800,"station_id":"ce4bgv12rcd13ifvqcp0","pricing_plan_id":"cebpf4jnsgd1na2vs0mg"},{"bike_id":"51ce032a-8a99-4609-9244-61ceef9466c8","system_id":"levelo_inurba_marseille","lat":43.299358,"lon":5.36551,"is_reserved":false,"is_disabled":false,"rental_uris":{"android":"levelo://app?vid=51ce032a-8a99-4609-9244-61ceef9466c8","ios":"levelo://app?vid=51ce032a-8a99-4609-9244-61ceef9466c8"},"vehicle_type_id":"4","last_reported":1733415147,"current_range_meters":23200,"station_id":"ce4bgm92rcd13ifvqbr0","pricing_plan_id":"cebpf4jnsgd1na2vs0mg"},{"bike_id":"2db7f5fd-afd5-494c-99fe-e965dfdef234","system_id":"levelo_inurba_marseille","lat":43.324758,"lon":5.365778,"is_reserved":false,"is_disabled":false,"rental_uris":{"android":"levelo://app?vid=2db7f5fd-afd5-494c-99fe-e965dfdef234","ios":"levelo://app?vid=2db7f5fd-afd5-494c-99fe-e965dfdef234"},"vehicle_type_id":"4","last_reported":1733415147,"current_range_meters":37600,"station_id":"ce4bhs12rcd13ifvqhvg","pricing_plan_id":"cebpf4jnsgd1na2vs0mg"},{"bike_id":"b983f700-39e1-418f-84a3-1c3c95a84b96","system_id":"levelo_inurba_marseille","lat":43.33771,"lon":5.37497,"is_reserved":false,"is_disabled":false,"rental_uris":{"android":"levelo://app?vid=b983f700-39e1-418f-84a3-1c3c95a84b96","ios":"levelo://app?vid=b983f700-39e1-418f-84a3-1c3c95a84b96"},"vehicle_type_id":"4","last_reported":1733415147,"current_range_meters":37600,"station_id":"","pricing_plan_id":"cebpf4jnsgd1na2vs0mg"},{"bike_id":"30de221a-4ae9-44c8-af60-f5843b67f535","system_id":"levelo_inurba_marseille","lat":43.337444,"lon":5.374475,"is_reserved":false,"is_disabled":false,"rental_uris":{"android":"levelo://app?vid=30de221a-4ae9-44c8-af60-f5843b67f535","ios":"levelo://app?vid=30de221a-4ae9-44c8-af60-f5843b67f535"},"vehicle_type_id":"4","last_reported":1733415147,"current_range_meters":37600,"station_id":"","pricing_plan_id":"cebpf4jnsgd1na2vs0mg"},{"bike_id":"06356277-203f-4936-971a-7c54b85005b2","system_id":"levelo_inurba_marseille","lat":43.25827,"lon":5.39436,"is_reserved":false,"is_disabled":false,"rental_uris":{"android":"levelo://app?vid=06356277-203f-4936-971a-7c54b85005b2","ios":"levelo://app?vid=06356277-203f-4936-971a-7c54b85005b2"},"vehicle_type_id":"4","last_reported":1733415147,"current_range_meters":36800,"station_id":"ce4bhip2rcd13ifvqft0","pricing_plan_id":"cebpf4jnsgd1na2vs0mg"},{"bike_id":"be028c74-5a60-427e-99d6-789946504076","system_id":"levelo_inurba_marseille","lat":43.30541,"lon":5.3672,"is_reserved":false,"is_disabled":false,"rental_uris":{"android":"levelo://app?vid=be028c74-5a60-427e-99d6-789946504076","ios":"levelo://app?vid=be028c74-5a60-427e-99d6-789946504076"},"vehicle_type_id":"4","last_reported":1733415147,"current_range_meters":14800,"station_id":"ce4bgrp2rcd13ifvqc9g","pricing_plan_id":"cebpf4jnsgd1na2vs0mg"},{"bike_id":"cbc97cba-70d6-4205-9b5e-5da35f4c8cb3","system_id":"levelo_inurba_marseille","lat":43.28153,"lon":5.42643,"is_reserved":false,"is_disabled":false,"rental_uris":{"android":"levelo://app?vid=cbc97cba-70d6-4205-9b5e-5da35f4c8cb3","ios":"levelo://app?vid=cbc97cba-70d6-4205-9b5e-5da35f4c8cb3"},"vehicle_type_id":"4","last_reported":1733415147,"current_range_meters":6800,"station_id":"ce4bhnh2rcd13ifvqgug","pricing_plan_id":"cebpf4jnsgd1na2vs0mg"},{"bike_id":"5ee984fd-ad4a-4905-a134-6c56ecba5028","system_id":"levelo_inurba_marseille","lat":43.32483,"lon":5.36587,"is_reserved":false,"is_disabled":false,"rental_uris":{"android":"levelo://app?vid=5ee984fd-ad4a-4905-a134-6c56ecba5028","ios":"levelo://app?vid=5ee984fd-ad4a-4905-a134-6c56ecba5028"},"vehicle_type_id":"4","last_reported":1733415147,"current_range_meters":20800,"station_id":"ce4bhs12rcd13ifvqhvg","pricing_plan_id":"cebpf4jnsgd1na2vs0mg"},{"bike_id":"babf160a-142b-4d63-9219-989862a6b8d8","system_id":"levelo_inurba_marseille","lat":43.2967,"lon":5.37172,"is_reserved":false,"is_disabled":false,"rental_uris":{"android":"levelo://app?vid=babf160a-142b-4d63-9219-989862a6b8d8","ios":"levelo://app?vid=babf160a-142b-4d63-9219-989862a6b8d8"},"vehicle_type_id":"4","last_reported":1733415147,"current_range_meters":13600,"station_id":"","pricing_plan_id":"cebpf4jnsgd1na2vs0mg"},{"bike_id":"7714ce30-465c-426d-9621-0f0245a19ff8","system_id":"levelo_inurba_marseille","lat":43.2718,"lon":5.41,"is_reserved":false,"is_disabled":false,"rental_uris":{"android":"levelo://app?vid=7714ce30-465c-426d-9621-0f0245a19ff8","ios":"levelo://app?vid=7714ce30-465c-426d-9621-0f0245a19ff8"},"vehicle_type_id":"4","last_reported":1733415147,"current_range_meters":26800,"station_id":"ce4bhl12rcd13ifvqgf0","pricing_plan_id":"cebpf4jnsgd1na2vs0mg"},{"bike_id":"8c93071a-3320-40fe-8205-d5c60ca2a220","system_id":"levelo_inurba_marseille","lat":43.27565,"lon":5.38428,"is_reserved":false,"is_disabled":false,"rental_uris":{"android":"levelo://app?vid=8c93071a-3320-40fe-8205-d5c60ca2a220","ios":"levelo://app?vid=8c93071a-3320-40fe-8205-d5c60ca2a220"},"vehicle_type_id":"4","last_reported":1733415147,"current_range_meters":38000,"station_id":"ce4bhh92rcd13ifvqfi0","pricing_plan_id":"cebpf4jnsgd1na2vs0mg"},{"bike_id":"d06ef7a9-b977-48f0-b891-f48fe4ecb0cb","system_id":"levelo_inurba_marseille","lat":43.24076,"lon":5.37758,"is_reserved":false,"is_disabled":false,"rental_uris":{"android":"levelo://app?vid=d06ef7a9-b977-48f0-b891-f48fe4ecb0cb","ios":"levelo://app?vid=d06ef7a9-b977-48f0-b891-f48fe4ecb0cb"},"vehicle_type_id":"4","last_reported":1733415147,"current_range_meters":7200,"station_id":"ce4bhnp2rcd13ifvqgvg","pricing_plan_id":"cebpf4jnsgd1na2vs0mg"},{"bike_id":"90043a6d-0a3d-4d14-a530-fe79711b10e6","system_id":"levelo_inurba_marseille","lat":43.31489,"lon":5.37307,"is_reserved":false,"is_disabled":false,"rental_uris":{"android":"levelo://app?vid=90043a6d-0a3d-4d14-a530-fe79711b10e6","ios":"levelo://app?vid=90043a6d-0a3d-4d14-a530-fe79711b10e6"},"vehicle_type_id":"4","last_reported":1733415147,"current_range_meters":2800,"station_id":"ce4bgt12rcd13ifvqcd0","pricing_plan_id":"cebpf4jnsgd1na2vs0mg"},{"bike_id":"914e2da6-b203-455d-bab7-6e3debbf268a","system_id":"levelo_inurba_marseille","lat":43.26553,"lon":5.373,"is_reserved":false,"is_disabled":false,"rental_uris":{"android":"levelo://app?vid=914e2da6-b203-455d-bab7-6e3debbf268a","ios":"levelo://app?vid=914e2da6-b203-455d-bab7-6e3debbf268a"},"vehicle_type_id":"4","last_reported":1733415147,"current_range_meters":15200,"station_id":"ce4bhg12rcd13ifvqf70","pricing_plan_id":"cebpf4jnsgd1na2vs0mg"},{"bike_id":"53e14e96-c6c5-48fa-b5a6-cb4f6384b444","system_id":"levelo_inurba_marseille","lat":43.26065,"lon":5.39396,"is_reserved":false,"is_disabled":true,"rental_uris":{"android":"levelo://app?vid=53e14e96-c6c5-48fa-b5a6-cb4f6384b444","ios":"levelo://app?vid=53e14e96-c6c5-48fa-b5a6-cb4f6384b444"},"vehicle_type_id":"4","last_reported":1733415147,"current_range_meters":1200,"station_id":"ce4bhh92rcd13ifvqfj0","pricing_plan_id":"cebpf4jnsgd1na2vs0mg"},{"bike_id":"eaba7670-b58d-4da3-98e2-9aa758641e7c","system_id":"levelo_inurba_marseille","lat":43.29575,"lon":5.39963,"is_reserved":false,"is_disabled":true,"rental_uris":{"android":"levelo://app?vid=eaba7670-b58d-4da3-98e2-9aa758641e7c","ios":"levelo://app?vid=eaba7670-b58d-4da3-98e2-9aa758641e7c"},"vehicle_type_id":"4","last_reported":1733415147,"current_range_meters":0,"station_id":"ce4bh312rcd13ifvqdj0","pricing_plan_id":"cebpf4jnsgd1na2vs0mg"},{"bike_id":"a7de9e87-b975-4c9f-a9be-a0864e40c098","system_id":"levelo_inurba_marseille","lat":43.29965,"lon":5.37184,"is_reserved":false,"is_disabled":false,"rental_uris":{"android":"levelo://app?vid=a7de9e87-b975-4c9f-a9be-a0864e40c098","ios":"levelo://app?vid=a7de9e87-b975-4c9f-a9be-a0864e40c098"},"vehicle_type_id":"4","last_reported":1733415147,"current_range_meters":16000,"station_id":"ce4bgr92rcd13ifvqc7g","pricing_plan_id":"cebpf4jnsgd1na2vs0mg"},{"bike_id":"1b2bb580-e842-4257-a024-a071922bfde8","system_id":"levelo_inurba_marseille","lat":43.296233,"lon":5.373292,"is_reserved":false,"is_disabled":false,"rental_uris":{"android":"levelo://app?vid=1b2bb580-e842-4257-a024-a071922bfde8","ios":"levelo://app?vid=1b2bb580-e842-4257-a024-a071922bfde8"},"vehicle_type_id":"4","last_reported":1733415147,"current_range_meters":10800,"station_id":"ce4bgnh2rcd13ifvqc0g","pricing_plan_id":"cebpf4jnsgd1na2vs0mg"},{"bike_id":"857083f4-09d6-47a1-824d-533a6877be41","system_id":"levelo_inurba_marseille","lat":43.29226,"lon":5.36074,"is_reserved":false,"is_disabled":false,"rental_uris":{"android":"levelo://app?vid=857083f4-09d6-47a1-824d-533a6877be41","ios":"levelo://app?vid=857083f4-09d6-47a1-824d-533a6877be41"},"vehicle_type_id":"4","last_reported":1733415147,"current_range_meters":14400,"station_id":"ce4bhbh2rcd13ifvqeqg","pricing_plan_id":"cebpf4jnsgd1na2vs0mg"},{"bike_id":"be8cd377-bf58-414c-876c-45495911bc5b","system_id":"levelo_inurba_marseille","lat":43.286882,"lon":5.410806,"is_reserved":false,"is_disabled":true,"rental_uris":{"android":"levelo://app?vid=be8cd377-bf58-414c-876c-45495911bc5b","ios":"levelo://app?vid=be8cd377-bf58-414c-876c-45495911bc5b"},"vehicle_type_id":"4","last_reported":1733415147,"current_range_meters":4800,"station_id":"","pricing_plan_id":"cebpf4jnsgd1na2vs0mg"},{"bike_id":"f40b62bf-c280-4518-a3f4-b31c36526f6a","system_id":"levelo_inurba_marseille","lat":43.31203,"lon":5.37509,"is_reserved":false,"is_disabled":false,"rental_uris":{"android":"levelo://app?vid=f40b62bf-c280-4518-a3f4-b31c36526f6a","ios":"levelo://app?vid=f40b62bf-c280-4518-a3f4-b31c36526f6a"},"vehicle_type_id":"4","last_reported":1733415147,"current_range_meters":22800,"station_id":"","pricing_plan_id":"cebpf4jnsgd1na2vs0mg"},{"bike_id":"0770995c-964d-42cb-80de-55f4fd5ee79a","system_id":"levelo_inurba_marseille","lat":43.337444,"lon":5.374475,"is_reserved":false,"is_disabled":false,"rental_uris":{"android":"levelo://app?vid=0770995c-964d-42cb-80de-55f4fd5ee79a","ios":"levelo://app?vid=0770995c-964d-42cb-80de-55f4fd5ee79a"},"vehicle_type_id":"4","last_reported":1733415147,"current_range_meters":22400,"station_id":"","pricing_plan_id":"cebpf4jnsgd1na2vs0mg"},{"bike_id":"20e9db8d-d68b-4418-94af-d9d63f8c2b96","system_id":"levelo_inurba_marseille","lat":43.337444,"lon":5.374475,"is_reserved":false,"is_disabled":true,"rental_uris":{"android":"levelo://app?vid=20e9db8d-d68b-4418-94af-d9d63f8c2b96","ios":"levelo://app?vid=20e9db8d-d68b-4418-94af-d9d63f8c2b96"},"vehicle_type_id":"4","last_reported":1733415147,"current_range_meters":0,"station_id":"","pricing_plan_id":"cebpf4jnsgd1na2vs0mg"},{"bike_id":"88bd4630-1684-48a2-b33a-f80d98b6825f","system_id":"levelo_inurba_marseille","lat":43.33756,"lon":5.37433,"is_reserved":false,"is_disabled":false,"rental_uris":{"android":"levelo://app?vid=88bd4630-1684-48a2-b33a-f80d98b6825f","ios":"levelo://app?vid=88bd4630-1684-48a2-b33a-f80d98b6825f"},"vehicle_type_id":"4","last_reported":1733415147,"current_range_meters":35200,"station_id":"","pricing_plan_id":"cebpf4jnsgd1na2vs0mg"},{"bike_id":"92a8d19f-82cb-413a-aa37-b0ea9cb72a84","system_id":"levelo_inurba_marseille","lat":43.27056,"lon":5.40262,"is_reserved":false,"is_disabled":false,"rental_uris":{"android":"levelo://app?vid=92a8d19f-82cb-413a-aa37-b0ea9cb72a84","ios":"levelo://app?vid=92a8d19f-82cb-413a-aa37-b0ea9cb72a84"},"vehicle_type_id":"4","last_reported":1733415147,"current_range_meters":8400,"station_id":"ce4bhk92rcd13ifvqgc0","pricing_plan_id":"cebpf4jnsgd1na2vs0mg"},{"bike_id":"ab74d258-8d56-4ed9-9cb7-57ae1639ee73","system_id":"levelo_inurba_marseille","lat":43.26312,"lon":5.40146,"is_reserved":false,"is_disabled":true,"rental_uris":{"android":"levelo://app?vid=ab74d258-8d56-4ed9-9cb7-57ae1639ee73","ios":"levelo://app?vid=ab74d258-8d56-4ed9-9cb7-57ae1639ee73"},"vehicle_type_id":"4","last_reported":1733415147,"current_range_meters":0,"station_id":"","pricing_plan_id":"cebpf4jnsgd1na2vs0mg"},{"bike_id":"0277c2d2-95b6-4983-bfea-df2c7f79aa2f","system_id":"levelo_inurba_marseille","lat":43.26574,"lon":5.39019,"is_reserved":false,"is_disabled":true,"rental_uris":{"android":"levelo://app?vid=0277c2d2-95b6-4983-bfea-df2c7f79aa2f","ios":"levelo://app?vid=0277c2d2-95b6-4983-bfea-df2c7f79aa2f"},"vehicle_type_id":"4","last_reported":1733415147,"current_range_meters":0,"station_id":"ce4bhe12rcd13ifvqf30","pricing_plan_id":"cebpf4jnsgd1na2vs0mg"},{"bike_id":"6c65b9ca-6039-4a1c-b5d7-5f55684b6a12","system_id":"levelo_inurba_marseille","lat":43.25724,"lon":5.41112,"is_reserved":false,"is_disabled":false,"rental_uris":{"android":"levelo://app?vid=6c65b9ca-6039-4a1c-b5d7-5f55684b6a12","ios":"levelo://app?vid=6c65b9ca-6039-4a1c-b5d7-5f55684b6a12"},"vehicle_type_id":"4","last_reported":1733415147,"current_range_meters":9200,"station_id":"ce4bhkp2rcd13ifvqgd0","pricing_plan_id":"cebpf4jnsgd1na2vs0mg"},{"bike_id":"c343aaef-49c9-4d9f-90f2-6b006117260b","system_id":"levelo_inurba_marseille","lat":43.2979,"lon":5.4041,"is_reserved":false,"is_disabled":false,"rental_uris":{"android":"levelo://app?vid=c343aaef-49c9-4d9f-90f2-6b006117260b","ios":"levelo://app?vid=c343aaef-49c9-4d9f-90f2-6b006117260b"},"vehicle_type_id":"4","last_reported":1733415147,"current_range_meters":38800,"station_id":"ce4bh112rcd13ifvqd90","pricing_plan_id":"cebpf4jnsgd1na2vs0mg"},{"bike_id":"2dc96063-b29a-4b01-b6f8-d8faac49410d","system_id":"levelo_inurba_marseille","lat":43.29041,"lon":5.36371,"is_reserved":false,"is_disabled":false,"rental_uris":{"android":"levelo://app?vid=2dc96063-b29a-4b01-b6f8-d8faac49410d","ios":"levelo://app?vid=2dc96063-b29a-4b01-b6f8-d8faac49410d"},"vehicle_type_id":"4","last_reported":1733415147,"current_range_meters":34000,"station_id":"","pricing_plan_id":"cebpf4jnsgd1na2vs0mg"},{"bike_id":"f6f6210d-5e07-46dd-93e4-3e102dd7cb0e","system_id":"levelo_inurba_marseille","lat":43.29393,"lon":5.38896,"is_reserved":false,"is_disabled":false,"rental_uris":{"android":"levelo://app?vid=f6f6210d-5e07-46dd-93e4-3e102dd7cb0e","ios":"levelo://app?vid=f6f6210d-5e07-46dd-93e4-3e102dd7cb0e"},"vehicle_type_id":"4","last_reported":1733415147,"current_range_meters":6800,"station_id":"","pricing_plan_id":"cebpf4jnsgd1na2vs0mg"},{"bike_id":"5171da7f-7b69-4fa9-a5ac-912417b93cef","system_id":"levelo_inurba_marseille","lat":43.23065,"lon":5.35493,"is_reserved":false,"is_disabled":false,"rental_uris":{"android":"levelo://app?vid=5171da7f-7b69-4fa9-a5ac-912417b93cef","ios":"levelo://app?vid=5171da7f-7b69-4fa9-a5ac-912417b93cef"},"vehicle_type_id":"4","last_reported":1733415147,"current_range_meters":29600,"station_id":"cpo3342slgdg3j2ifvpg","pricing_plan_id":"cebpf4jnsgd1na2vs0mg"},{"bike_id":"beb0bdaa-24a3-44f8-82fd-adac9b216c35","system_id":"levelo_inurba_marseille","lat":43.27895,"lon":5.38002,"is_reserved":false,"is_disabled":false,"rental_uris":{"android":"levelo://app?vid=beb0bdaa-24a3-44f8-82fd-adac9b216c35","ios":"levelo://app?vid=beb0bdaa-24a3-44f8-82fd-adac9b216c35"},"vehicle_type_id":"4","last_reported":1733415147,"current_range_meters":38800,"station_id":"ce4bhf92rcd13ifvqf50","pricing_plan_id":"cebpf4jnsgd1na2vs0mg"},{"bike_id":"0b174a84-3fa7-4d5b-922f-83f570d65adb","system_id":"levelo_inurba_marseille","lat":43.28115,"lon":5.43914,"is_reserved":false,"is_disabled":false,"rental_uris":{"android":"levelo://app?vid=0b174a84-3fa7-4d5b-922f-83f570d65adb","ios":"levelo://app?vid=0b174a84-3fa7-4d5b-922f-83f570d65adb"},"vehicle_type_id":"4","last_reported":1733415147,"current_range_meters":24000,"station_id":"","pricing_plan_id":"cebpf4jnsgd1na2vs0mg"},{"bike_id":"49bca373-4dd5-4542-922c-543875e8a2e4","system_id":"levelo_inurba_marseille","lat":43.26066,"lon":5.39396,"is_reserved":false,"is_disabled":false,"rental_uris":{"android":"levelo://app?vid=49bca373-4dd5-4542-922c-543875e8a2e4","ios":"levelo://app?vid=49bca373-4dd5-4542-922c-543875e8a2e4"},"vehicle_type_id":"4","last_reported":1733415147,"current_range_meters":25200,"station_id":"ce4bhh92rcd13ifvqfj0","pricing_plan_id":"cebpf4jnsgd1na2vs0mg"},{"bike_id":"6a0414a7-883e-4a8b-b9a4-a636d58a7bd6","system_id":"levelo_inurba_marseille","lat":43.27915,"lon":5.39582,"is_reserved":false,"is_disabled":false,"rental_uris":{"android":"levelo://app?vid=6a0414a7-883e-4a8b-b9a4-a636d58a7bd6","ios":"levelo://app?vid=6a0414a7-883e-4a8b-b9a4-a636d58a7bd6"},"vehicle_type_id":"4","last_reported":1733415147,"current_range_meters":21600,"station_id":"ce4bhf92rcd13ifvqf40","pricing_plan_id":"cebpf4jnsgd1na2vs0mg"},{"bike_id":"3454bb34-a7c5-4769-8403-8a1b28c0fec9","system_id":"levelo_inurba_marseille","lat":43.29615,"lon":5.3773,"is_reserved":false,"is_disabled":true,"rental_uris":{"android":"levelo://app?vid=3454bb34-a7c5-4769-8403-8a1b28c0fec9","ios":"levelo://app?vid=3454bb34-a7c5-4769-8403-8a1b28c0fec9"},"vehicle_type_id":"4","last_reported":1733415147,"current_range_meters":0,"station_id":"ce4bgi92rcd13ifvqb90","pricing_plan_id":"cebpf4jnsgd1na2vs0mg"},{"bike_id":"ab4c21d4-a275-4527-bec0-e4890ed042ae","system_id":"levelo_inurba_marseille","lat":43.29671,"lon":5.36883,"is_reserved":false,"is_disabled":true,"rental_uris":{"android":"levelo://app?vid=ab4c21d4-a275-4527-bec0-e4890ed042ae","ios":"levelo://app?vid=ab4c21d4-a275-4527-bec0-e4890ed042ae"},"vehicle_type_id":"4","last_reported":1733415147,"current_range_meters":0,"station_id":"","pricing_plan_id":"cebpf4jnsgd1na2vs0mg"},{"bike_id":"d4ed0ca9-19dd-47ae-8fe9-293ff2ae1458","system_id":"levelo_inurba_marseille","lat":43.337444,"lon":5.374475,"is_reserved":false,"is_disabled":false,"rental_uris":{"android":"levelo://app?vid=d4ed0ca9-19dd-47ae-8fe9-293ff2ae1458","ios":"levelo://app?vid=d4ed0ca9-19dd-47ae-8fe9-293ff2ae1458"},"vehicle_type_id":"4","last_reported":1733415147,"current_range_meters":36800,"station_id":"","pricing_plan_id":"cebpf4jnsgd1na2vs0mg"},{"bike_id":"0fc7856d-3865-4209-9c37-bddcf2feee66","system_id":"levelo_inurba_marseille","lat":43.25496,"lon":5.37653,"is_reserved":false,"is_disabled":false,"rental_uris":{"android":"levelo://app?vid=0fc7856d-3865-4209-9c37-bddcf2feee66","ios":"levelo://app?vid=0fc7856d-3865-4209-9c37-bddcf2feee66"},"vehicle_type_id":"4","last_reported":1733415147,"current_range_meters":11600,"station_id":"ce4bhh12rcd13ifvqff0","pricing_plan_id":"cebpf4jnsgd1na2vs0mg"},{"bike_id":"e74e2d3c-1c09-47f7-a534-974f9dc27165","system_id":"levelo_inurba_marseille","lat":43.26217,"lon":5.3744,"is_reserved":false,"is_disabled":true,"rental_uris":{"android":"levelo://app?vid=e74e2d3c-1c09-47f7-a534-974f9dc27165","ios":"levelo://app?vid=e74e2d3c-1c09-47f7-a534-974f9dc27165"},"vehicle_type_id":"4","last_reported":1733415147,"current_range_meters":0,"station_id":"ce4bhgp2rcd13ifvqfc0","pricing_plan_id":"cebpf4jnsgd1na2vs0mg"},{"bike_id":"3b9c8bbc-6a8a-4909-b3b4-5a2817261cc5","system_id":"levelo_inurba_marseille","lat":43.24182,"lon":5.39732,"is_reserved":false,"is_disabled":false,"rental_uris":{"android":"levelo://app?vid=3b9c8bbc-6a8a-4909-b3b4-5a2817261cc5","ios":"levelo://app?vid=3b9c8bbc-6a8a-4909-b3b4-5a2817261cc5"},"vehicle_type_id":"4","last_reported":1733415147,"current_range_meters":38400,"station_id":"ce4bhn12rcd13ifvqgpg","pricing_plan_id":"cebpf4jnsgd1na2vs0mg"},{"bike_id":"2ba9d83c-4e41-4950-97d7-2cc0812cebd2","system_id":"levelo_inurba_marseille","lat":43.30148,"lon":5.3984,"is_reserved":false,"is_disabled":false,"rental_uris":{"android":"levelo://app?vid=2ba9d83c-4e41-4950-97d7-2cc0812cebd2","ios":"levelo://app?vid=2ba9d83c-4e41-4950-97d7-2cc0812cebd2"},"vehicle_type_id":"4","last_reported":1733415147,"current_range_meters":22400,"station_id":"ce4bh0h2rcd13ifvqd40","pricing_plan_id":"cebpf4jnsgd1na2vs0mg"},{"bike_id":"f7e0f85b-df2d-488b-8e46-1cfe25a71773","system_id":"levelo_inurba_marseille","lat":43.32356,"lon":5.36763,"is_reserved":false,"is_disabled":false,"rental_uris":{"android":"levelo://app?vid=f7e0f85b-df2d-488b-8e46-1cfe25a71773","ios":"levelo://app?vid=f7e0f85b-df2d-488b-8e46-1cfe25a71773"},"vehicle_type_id":"4","last_reported":1733415147,"current_range_meters":27600,"station_id":"ce4bhsh2rcd13ifvqi2g","pricing_plan_id":"cebpf4jnsgd1na2vs0mg"},{"bike_id":"6a339f6e-3497-4100-b71e-3d107603726b","system_id":"levelo_inurba_marseille","lat":43.27185,"lon":5.40996,"is_reserved":false,"is_disabled":false,"rental_uris":{"android":"levelo://app?vid=6a339f6e-3497-4100-b71e-3d107603726b","ios":"levelo://app?vid=6a339f6e-3497-4100-b71e-3d107603726b"},"vehicle_type_id":"4","last_reported":1733415147,"current_range_meters":34800,"station_id":"ce4bhl12rcd13ifvqgf0","pricing_plan_id":"cebpf4jnsgd1na2vs0mg"},{"bike_id":"b78e650f-90e7-4956-8f47-cc99a0b12db2","system_id":"levelo_inurba_marseille","lat":43.284115,"lon":5.350015,"is_reserved":false,"is_disabled":false,"rental_uris":{"android":"levelo://app?vid=b78e650f-90e7-4956-8f47-cc99a0b12db2","ios":"levelo://app?vid=b78e650f-90e7-4956-8f47-cc99a0b12db2"},"vehicle_type_id":"4","last_reported":1733415147,"current_range_meters":12000,"station_id":"ce4bhbh2rcd13ifvqepg","pricing_plan_id":"cebpf4jnsgd1na2vs0mg"},{"bike_id":"c276c730-67c2-465d-b028-810a2f7bce52","system_id":"levelo_inurba_marseille","lat":43.26214,"lon":5.37444,"is_reserved":false,"is_disabled":false,"rental_uris":{"android":"levelo://app?vid=c276c730-67c2-465d-b028-810a2f7bce52","ios":"levelo://app?vid=c276c730-67c2-465d-b028-810a2f7bce52"},"vehicle_type_id":"4","last_reported":1733415147,"current_range_meters":34000,"station_id":"ce4bhgp2rcd13ifvqfc0","pricing_plan_id":"cebpf4jnsgd1na2vs0mg"},{"bike_id":"b8cbc01f-6561-4d43-9a4e-7d90102cf3e2","system_id":"levelo_inurba_marseille","lat":43.25828,"lon":5.39431,"is_reserved":false,"is_disabled":false,"rental_uris":{"android":"levelo://app?vid=b8cbc01f-6561-4d43-9a4e-7d90102cf3e2","ios":"levelo://app?vid=b8cbc01f-6561-4d43-9a4e-7d90102cf3e2"},"vehicle_type_id":"4","last_reported":1733415147,"current_range_meters":12000,"station_id":"ce4bhip2rcd13ifvqft0","pricing_plan_id":"cebpf4jnsgd1na2vs0mg"},