{"last_updated":1744844946,"ttl":60,"version":"2.2","data":{"bikes":[{"bike_id":"5b77a833-8185-45c2-9fe3-07eb40df54ca","system_id":"levelo_inurba_marseille","lat":43.33995,"lon":5.38057,"is_reserved":false,"is_disabled":true,"rental_uris":{"android":"levelo://app?vid=5b77a833-8185-45c2-9fe3-07eb40df54ca","ios":"levelo://app?vid=5b77a833-8185-45c2-9fe3-07eb40df54ca"},"vehicle_type_id":"4","last_reported":1744844946,"current_range_meters":0,"station_id":"","pricing_plan_id":"cebpf4jnsgd1na2vs0mg"},{"bike_id":"64a406cb-fc9e-42c8-aa26-a3bf16f67839","system_id":"levelo_inurba_marseille","lat":43.33777,"lon":5.37489,"is_reserved":false,"is_disabled":true,"rental_uris":{"android":"levelo://app?vid=64a406cb-fc9e-42c8-aa26-a3bf16f67839","ios":"levelo://app?vid=64a406cb-fc9e-42c8-aa26-a3bf16f67839"},"vehicle_type_id":"4","last_reported":1744844946,"current_range_meters":0,"station_id":"","pricing_plan_id":"cebpf4jnsgd1na2vs0mg"},{"bike_id":"2c59312c-3075-4778-941b-a07c5c400065","system_id":"levelo_inurba_marseille","lat":43.25,"lon":5.3893,"is_reserved":false,"is_disabled":true,"rental_uris":{"android":"levelo://app?vid=2c59312c-3075-4778-941b-a07c5c400065","ios":"levelo://app?vid=2c59312c-3075-4778-941b-a07c5c400065"},"vehicle_type_id":"4","last_reported":1744844946,"current_range_meters":1200,"station_id":"ce4bhgp2rcd13ifvqfd0","pricing_plan_id":"cebpf4jnsgd1na2vs0mg"},{"bike_id":"61dff680-210a-4fbc-91d1-26383ef79a33","system_id":"levelo_inurba_marseille","lat":43.23155,"lon":5.43717,"is_reserved":false,"is_disabled":true,"rental_uris":{"android":"levelo://app?vid=61dff680-210a-4fbc-91d1-26383ef79a33","ios":"levelo://app?vid=61dff680-210a-4fbc-91d1-26383ef79a33"},"vehicle_type_id":"4","last_reported":1744844946,"current_range_meters":1600,"station_id":"ce4bhmp2rcd13ifvqgog","pricing_plan_id":"cebpf4jnsgd1na2vs0mg"},{"bike_id":"5ff4a267-dd4b-4f48-8a0c-427c1ff032aa","system_id":"levelo_inurba_marseille","lat":43.25483,"lon":5.3766,"is_reserved":false,"is_disabled":false,"rental_uris":{"android":"levelo://app?vid=5ff4a267-dd4b-4f48-8a0c-427c1ff032aa","ios":"levelo://app?vid=5ff4a267-dd4b-4f48-8a0c-427c1ff032aa"},"vehicle_type_id":"4","last_reported":1744844946,"current_range_meters":3600,"station_id":"ce4bhh12rcd13ifvqff0","pricing_plan_id":"cebpf4jnsgd1na2vs0mg"},{"bike_id":"829f3683-c287-4d6f-92bc-edf58824bda1","system_id":"levelo_inurba_marseille","lat":43.28569,"lon":5.395,"is_reserved":false,"is_disabled":false,"rental_uris":{"android":"levelo://app?vid=829f3683-c287-4d6f-92bc-edf58824bda1","ios":"levelo://app?vid=829f3683-c287-4d6f-92bc-edf58824bda1"},"vehicle_type_id":"4","last_reported":1744844946,"current_range_meters":4400,"station_id":"ce4bh292rcd13ifvqdg0","pricing_plan_id":"cebpf4jnsgd1na2vs0mg"},{"bike_id":"7da39aba-455e-4163-9c62-41262016c1a1","system_id":"levelo_inurba_marseille","lat":43.283415,"lon":5.381131,"is_reserved":false,"is_disabled":false,"rental_uris":{"android":"levelo://app?vid=7da39aba-455e-4163-9c62-41262016c1a1","ios":"levelo://app?vid=7da39aba-455e-4163-9c62-41262016c1a1"},"vehicle_type_id":"4","last_reported":1744844946,"current_range_meters":4800,"station_id":"ce4bh412rcd13ifvqdr0","pricing_plan_id":"cebpf4jnsgd1na2vs0mg"},{"bike_id":"4be423fc-b49d-4203-8abc-985b45dfd65e","system_id":"levelo_inurba_marseille","lat":43.329109,"lon":5.433757,"is_reserved":false,"is_disabled":false,"rental_uris":{"android":"levelo://app?vid=4be423fc-b49d-4203-8abc-985b45dfd65e","ios":"levelo://app?vid=4be423fc-b49d-4203-8abc-985b45dfd65e"},"vehicle_type_id":"4","last_reported":1744844946,"current_range_meters":6400,"station_id":"","pricing_plan_id":"cebpf4jnsgd1na2vs0mg"},{"bike_id":"9b05ae88-f004-4720-ac90-3eaa65eae0c6","system_id":"levelo_inurba_marseille","lat":43.30636,"lon":5.4007,"is_reserved":false,"is_disabled":false,"rental_uris":{"android":"levelo://app?vid=9b05ae88-f004-4720-ac90-3eaa65eae0c6","ios":"levelo://app?vid=9b05ae88-f004-4720-ac90-3eaa65eae0c6"},"vehicle_type_id":"4","last_reported":1744844946,"current_range_meters":6800,"station_id":"ce4bh112rcd13ifvqda0","pricing_plan_id":"cebpf4jnsgd1na2vs0mg"},{"bike_id":"bbc22841-832a-489c-90a6-2cac4a12221a","system_id":"levelo_inurba_marseille","lat":43.2846,"lon":5.35883,"is_reserved":false,"is_disabled":false,"rental_uris":{"android":"levelo://app?vid=bbc22841-832a-489c-90a6-2cac4a12221a","ios":"levelo://app?vid=bbc22841-832a-489c-90a6-2cac4a12221a"},"vehicle_type_id":"4","last_reported":1744844946,"current_range_meters":7200,"station_id":"ce4bhah2rcd13ifvqei0","pricing_plan_id":"cebpf4jnsgd1na2vs0mg"},{"bike_id":"27d65429-e235-4ad4-8e99-624219bf772a","system_id":"levelo_inurba_marseille","lat":43.30737,"lon":5.4238,"is_reserved":false,"is_disabled":false,"rental_uris":{"android":"levelo://app?vid=27d65429-e235-4ad4-8e99-624219bf772a","ios":"levelo://app?vid=27d65429-e235-4ad4-8e99-624219bf772a"},"vehicle_type_id":"4","last_reported":1744844946,"current_range_meters":7200,"station_id":"st_cvj6ca6bvosntc0bfgr0","pricing_plan_id":"cebpf4jnsgd1na2vs0mg"},{"bike_id":"b69156c9-6a49-4ab5-9612-623049b026dd","system_id":"levelo_inurba_marseille","lat":43.265501,"lon":5.372876,"is_reserved":false,"is_disabled":false,"rental_uris":{"android":"levelo://app?vid=b69156c9-6a49-4ab5-9612-623049b026dd","ios":"levelo://app?vid=b69156c9-6a49-4ab5-9612-623049b026dd"},"vehicle_type_id":"4","last_reported":1744844946,"current_range_meters":8000,"station_id":"ce4bhg12rcd13ifvqf70","pricing_plan_id":"cebpf4jnsgd1na2vs0mg"},{"bike_id":"51875e50-7830-42ab-87b5-bc339625ae5c","system_id":"levelo_inurba_marseille","lat":43.23968,"lon":5.3663,"is_reserved":false,"is_disabled":false,"rental_uris":{"android":"levelo://app?vid=51875e50-7830-42ab-87b5-bc339625ae5c","ios":"levelo://app?vid=51875e50-7830-42ab-87b5-bc339625ae5c"},"vehicle_type_id":"4","last_reported":1744844946,"current_range_meters":8000,"station_id":"ce4bhi12rcd13ifvqfp0","pricing_plan_id":"cebpf4jnsgd1na2vs0mg"},{"bike_id":"2797dcdb-c4e1-48b2-82d6-5677d371fa39","system_id":"levelo_inurba_marseille","lat":43.24175,"lon":5.36382,"is_reserved":false,"is_disabled":false,"rental_uris":{"android":"levelo://app?vid=2797dcdb-c4e1-48b2-82d6-5677d371fa39","ios":"levelo://app?vid=2797dcdb-c4e1-48b2-82d6-5677d371fa39"},"vehicle_type_id":"4","last_reported":1744844946,"current_range_meters":8000,"station_id":"cpo36qri1sfpv3e86is0","pricing_plan_id":"cebpf4jnsgd1na2vs0mg"},{"bike_id":"1f9d796b-2995-4e98-aabe-a2a03a19ec04","system_id":"levelo_inurba_marseille","lat":43.30336,"lon":5.40435,"is_reserved":false,"is_disabled":false,"rental_uris":{"android":"levelo://app?vid=1f9d796b-2995-4e98-aabe-a2a03a19ec04","ios":"levelo://app?vid=1f9d796b-2995-4e98-aabe-a2a03a19ec04"},"vehicle_type_id":"4","last_reported":1744844946,"current_range_meters":8400,"station_id":"ce4bh012rcd13ifvqd10","pricing_plan_id":"cebpf4jnsgd1na2vs0mg"},{"bike_id":"29d892ff-396f-4d0b-a265-444cbe69d0d6","system_id":"levelo_inurba_marseille","lat":43.29882,"lon":5.38918,"is_reserved":false,"is_disabled":false,"rental_uris":{"android":"levelo://app?vid=29d892ff-396f-4d0b-a265-444cbe69d0d6","ios":"levelo://app?vid=29d892ff-396f-4d0b-a265-444cbe69d0d6"},"vehicle_type_id":"4","last_reported":1744844946,"current_range_meters":8800,"station_id":"ce4bh392rcd13ifvqdl0","pricing_plan_id":"cebpf4jnsgd1na2vs0mg"},{"bike_id":"13212ea6-c79f-428f-bf88-2ce269adcaff","system_id":"levelo_inurba_marseille","lat":43.24805,"lon":5.37444,"is_reserved":false,"is_disabled":false,"rental_uris":{"android":"levelo://app?vid=13212ea6-c79f-428f-bf88-2ce269adcaff","ios":"levelo://app?vid=13212ea6-c79f-428f-bf88-2ce269adcaff"},"vehicle_type_id":"4","last_reported":1744844946,"current_range_meters":8800,"station_id":"ce4bhgh2rcd13ifvqfb0","pricing_plan_id":"cebpf4jnsgd1na2vs0mg"},{"bike_id":"613dd6ef-98e9-4602-95a8-908e8fddce9f","system_id":"levelo_inurba_marseille","lat":43.29411,"lon":5.3976,"is_reserved":false,"is_disabled":false,"rental_uris":{"android":"levelo://app?vid=613dd6ef-98e9-4602-95a8-908e8fddce9f","ios":"levelo://app?vid=613dd6ef-98e9-4602-95a8-908e8fddce9f"},"vehicle_type_id":"4","last_reported":1744844946,"current_range_meters":9200,"station_id":"ce4bh3h2rcd13ifvqdo0","pricing_plan_id":"cebpf4jnsgd1na2vs0mg"},{"bike_id":"537684c3-5bc8-4ea1-b42e-19d8f4cbce12","system_id":"levelo_inurba_marseille","lat":43.26683,"lon":5.38274,"is_reserved":false,"is_disabled":false,"rental_uris":{"android":"levelo://app?vid=537684c3-5bc8-4ea1-b42e-19d8f4cbce12","ios":"levelo://app?vid=537684c3-5bc8-4ea1-b42e-19d8f4cbce12"},"vehicle_type_id":"4","last_reported":1744844946,"current_range_meters":9200,"station_id":"ce4bhg92rcd13ifvqf90","pricing_plan_id":"cebpf4jnsgd1na2vs0mg"},{"bike_id":"847a57e8-0129-4285-b6be-15d7d295a3b2","system_id":"levelo_inurba_marseille","lat":43.29859,"lon":5.39724,"is_reserved":false,"is_disabled":false,"rental_uris":{"android":"levelo://app?vid=847a57e8-0129-4285-b6be-15d7d295a3b2","ios":"levelo://app?vid=847a57e8-0129-4285-b6be-15d7d295a3b2"},"vehicle_type_id":"4","last_reported":1744844946,"current_range_meters":9600,"station_id":"ce4bh0h2rcd13ifvqd50","pricing_plan_id":"cebpf4jnsgd1na2vs0mg"},{"bike_id":"f813d5ea-a9c6-48a7-be5d-f7b6ce5328e6","system_id":"levelo_inurba_marseille","lat":43.24663,"lon":5.38161,"is_reserved":false,"is_disabled":false,"rental_uris":{"android":"levelo://app?vid=f813d5ea-a9c6-48a7-be5d-f7b6ce5328e6","ios":"levelo://app?vid=f813d5ea-a9c6-48a7-be5d-f7b6ce5328e6"},"vehicle_type_id":"4","last_reported":1744844946,"current_range_meters":9600,"station_id":"ce4bhih2rcd13ifvqfr0","pricing_plan_id":"cebpf4jnsgd1na2vs0mg"},{"bike_id":"561936ef-54e4-4d15-b2a7-dfd018b9e12e","system_id":"levelo_inurba_marseille","lat":43.29796,"lon":5.39344,"is_reserved":false,"is_disabled":false,"rental_uris":{"android":"levelo://app?vid=561936ef-54e4-4d15-b2a7-dfd018b9e12e","ios":"levelo://app?vid=561936ef-54e4-4d15-b2a7-dfd018b9e12e"},"vehicle_type_id":"4","last_reported":1744844946,"current_range_meters":9600,"station_id":"chh1huq6cuj3fo74tm60","pricing_plan_id":"cebpf4jnsgd1na2vs0mg"},{"bike_id":"56d75ea2-b8f3-4ca3-8522-3237f041fe6b","system_id":"levelo_inurba_marseille","lat":43.29256,"lon":5.40158,"is_reserved":false,"is_disabled":false,"rental_uris":{"android":"levelo://app?vid=56d75ea2-b8f3-4ca3-8522-3237f041fe6b","ios":"levelo://app?vid=56d75ea2-b8f3-4ca3-8522-3237f041fe6b"},"vehicle_type_id":"4","last_reported":1744844946,"current_range_meters":10000,"station_id":"ce4bh312rcd13ifvqdk0","pricing_plan_id":"cebpf4jnsgd1na2vs0mg"},{"bike_id":"57758a02-2e61-4253-8d62-3d1aa1b54ab1","system_id":"levelo_inurba_marseille","lat":43.25585,"lon":5.38239,"is_reserved":false,"is_disabled":false,"rental_uris":{"android":"levelo://app?vid=57758a02-2e61-4253-8d62-3d1aa1b54ab1","ios":"levelo://app?vid=57758a02-2e61-4253-8d62-3d1aa1b54ab1"},"vehicle_type_id":"4","last_reported":1744844946,"current_range_meters":10000,"station_id":"ce4bhih2rcd13ifvqfs0","pricing_plan_id":"cebpf4jnsgd1na2vs0mg"},{"bike_id":"e8412f40-a8dc-44ee-bbc2-e01b1cf2ab9a","system_id":"levelo_inurba_marseille","lat":43.27833,"lon":5.392,"is_reserved":false,"is_disabled":false,"rental_uris":{"android":"levelo://app?vid=e8412f40-a8dc-44ee-bbc2-e01b1cf2ab9a","ios":"levelo://app?vid=e8412f40-a8dc-44ee-bbc2-e01b1cf2ab9a"},"vehicle_type_id":"4","last_reported":1744844946,"current_range_meters":10000,"station_id":"ce4bhjp2rcd13ifvqga0","pricing_plan_id":"cebpf4jnsgd1na2vs0mg"},{"bike_id":"14541b4c-c4ff-4f48-b140-23313b771198","system_id":"levelo_inurba_marseille","lat":43.27818,"lon":5.39215,"is_reserved":false,"is_disabled":false,"rental_uris":{"android":"levelo://app?vid=14541b4c-c4ff-4f48-b140-23313b771198","ios":"levelo://app?vid=14541b4c-c4ff-4f48-b140-23313b771198"},"vehicle_type_id":"4","last_reported":1744844946,"current_range_meters":10000,"station_id":"ce4bhjp2rcd13ifvqga0","pricing_plan_id":"cebpf4jnsgd1na2vs0mg"},{"bike_id":"141f2209-2858-4bb6-9131-24bc3711131e","system_id":"levelo_inurba_marseille","lat":43.29012,"lon":5.38589,"is_reserved":false,"is_disabled":false,"rental_uris":{"android":"levelo://app?vid=141f2209-2858-4bb6-9131-24bc3711131e","ios":"levelo://app?vid=141f2209-2858-4bb6-9131-24bc3711131e"},"vehicle_type_id":"4","last_reported":1744844946,"current_range_meters":10800,"station_id":"","pricing_plan_id":"cebpf4jnsgd1na2vs0mg"},{"bike_id":"ca4e1f9d-1ba6-4c9a-88af-8978a8ef4daa","system_id":"levelo_inurba_marseille","lat":43.30881,"lon":5.39634,"is_reserved":false,"is_disabled":false,"rental_uris":{"android":"levelo://app?vid=ca4e1f9d-1ba6-4c9a-88af-8978a8ef4daa","ios":"levelo://app?vid=ca4e1f9d-1ba6-4c9a-88af-8978a8ef4daa"},"vehicle_type_id":"4","last_reported":1744844946,"current_range_meters":10800,"station_id":"ce4bh012rcd13ifvqcv0","pricing_plan_id":"cebpf4jnsgd1na2vs0mg"},{"bike_id":"b1203870-4d45-4676-8ec7-5019ca28aac8","system_id":"levelo_inurba_marseille","lat":43.30102,"lon":5.39082,"is_reserved":false,"is_disabled":false,"rental_uris":{"android":"levelo://app?vid=b1203870-4d45-4676-8ec7-5019ca28aac8","ios":"levelo://app?vid=b1203870-4d45-4676-8ec7-5019ca28aac8"},"vehicle_type_id":"4","last_reported":1744844946,"current_range_meters":10800,"station_id":"ce4bh192rcd13ifvqdb0","pricing_plan_id":"cebpf4jnsgd1na2vs0mg"},{"bike_id":"4884bb8d-14e1-4756-91f3-0fcdfa58e034","system_id":"levelo_inurba_marseille","lat":43.29279,"lon":5.40123,"is_reserved":false,"is_disabled":false,"rental_uris":{"android":"levelo://app?vid=4884bb8d-14e1-4756-91f3-0fcdfa58e034","ios":"levelo://app?vid=4884bb8d-14e1-4756-91f3-0fcdfa58e034"},"vehicle_type_id":"4","last_reported":1744844946,"current_range_meters":10800,"station_id":"ce4bh312rcd13ifvqdk0","pricing_plan_id":"cebpf4jnsgd1na2vs0mg"},{"bike_id":"aafece41-771c-4727-9330-23c42c863e6d","system_id":"levelo_inurba_marseille","lat":43.28621,"lon":5.35086,"is_reserved":false,"is_disabled":false,"rental_uris":{"android":"levelo://app?vid=aafece41-771c-4727-9330-23c42c863e6d","ios":"levelo://app?vid=aafece41-771c-4727-9330-23c42c863e6d"},"vehicle_type_id":"4","last_reported":1744844946,"current_range_meters":10800,"station_id":"ce4bhch2rcd13ifvqeug","pricing_plan_id":"cebpf4jnsgd1na2vs0mg"},{"bike_id":"2c032a6e-a514-4c75-ac58-67d0e95dcf42","system_id":"levelo_inurba_marseille","lat":43.28632,"lon":5.35111,"is_reserved":false,"is_disabled":false,"rental_uris":{"android":"levelo://app?vid=2c032a6e-a514-4c75-ac58-67d0e95dcf42","ios":"levelo://app?vid=2c032a6e-a514-4c75-ac58-67d0e95dcf42"},"vehicle_type_id":"4","last_reported":1744844946,"current_range_meters":10800,"station_id":"ce4bhch2rcd13ifvqeug","pricing_plan_id":"cebpf4jnsgd1na2vs0mg"},{"bike_id":"dfc90e23-a51a-46c2-9aff-a5e54b4a553f","system_id":"levelo_inurba_marseille","lat":43.26221,"lon":5.4047,"is_reserved":false,"is_disabled":false,"rental_uris":{"android":"levelo://app?vid=dfc90e23-a51a-46c2-9aff-a5e54b4a553f","ios":"levelo://app?vid=dfc90e23-a51a-46c2-9aff-a5e54b4a553f"},"vehicle_type_id":"4","last_reported":1744844946,"current_range_meters":10800,"station_id":"ce4bhmh2rcd13ifvqgmg","pricing_plan_id":"cebpf4jnsgd1na2vs0mg"},{"bike_id":"84b58d90-bb57-4bdb-8485-62b6e661a441","system_id":"levelo_inurba_marseille","lat":43.24198,"lon":5.39726,"is_reserved":false,"is_disabled":false,"rental_uris":{"android":"levelo://app?vid=84b58d90-bb57-4bdb-8485-62b6e661a441","ios":"levelo://app?vid=84b58d90-bb57-4bdb-8485-62b6e661a441"},"vehicle_type_id":"4","last_reported":1744844946,"current_range_meters":10800,"station_id":"ce4bhn12rcd13ifvqgpg","pricing_plan_id":"cebpf4jnsgd1na2vs0mg"},{"bike_id":"257cd67d-848f-46ff-a9b4-b9d60cab96e4","system_id":"levelo_inurba_marseille","lat":43.29789,"lon":5.39356,"is_reserved":false,"is_disabled":false,"rental_uris":{"android":"levelo://app?vid=257cd67d-848f-46ff-a9b4-b9d60cab96e4","ios":"levelo://app?vid=257cd67d-848f-46ff-a9b4-b9d60cab96e4"},"vehicle_type_id":"4","last_reported":1744844946,"current_range_meters":10800,"station_id":"chh1huq6cuj3fo74tm60","pricing_plan_id":"cebpf4jnsgd1na2vs0mg"},{"bike_id":"834ec9e1-9d50-4bee-85ae-d1db335c55e5","system_id":"levelo_inurba_marseille","lat":43.31803,"lon":5.36804,"is_reserved":false,"is_disabled":false,"rental_uris":{"android":"levelo://app?vid=834ec9e1-9d50-4bee-85ae-d1db335c55e5","ios":"levelo://app?vid=834ec9e1-9d50-4bee-85ae-d1db335c55e5"},"vehicle_type_id":"4","last_reported":1744844946,"current_range_meters":11200,"station_id":"","pricing_plan_id":"cebpf4jnsgd1na2vs0mg"},{"bike_id":"1bc1ffd9-ea68-4189-8b4c-99816b896b8c","system_id":"levelo_inurba_marseille","lat":43.30595,"lon":5.39361,"is_reserved":false,"is_disabled":false,"rental_uris":{"android":"levelo://app?vid=1bc1ffd9-ea68-4189-8b4c-99816b896b8c","ios":"levelo://app?vid=1bc1ffd9-ea68-4189-8b4c-99816b896b8c"},"vehicle_type_id":"4","last_reported":1744844946,"current_range_meters":11200,"station_id":"ce4bh0p2rcd13ifvqd80","pricing_plan_id":"cebpf4jnsgd1na2vs0mg"},{"bike_id":"693abb56-2440-4e46-a9de-d094d1b968f7","system_id":"levelo_inurba_marseille","lat":43.28441,"lon":5.3589,"is_reserved":false,"is_disabled":false,"rental_uris":{"android":"levelo://app?vid=693abb56-2440-4e46-a9de-d094d1b968f7","ios":"levelo://app?vid=693abb56-2440-4e46-a9de-d094d1b968f7"},"vehicle_type_id":"4","last_reported":1744844946,"current_range_meters":11200,"station_id":"ce4bhah2rcd13ifvqei0","pricing_plan_id":"cebpf4jnsgd1na2vs0mg"},{"bike_id":"76332156-cb3a-4e22-af8d-bb13db9ead2e","system_id":"levelo_inurba_marseille","lat":43.30318,"lon":5.40443,"is_reserved":false,"is_disabled":false,"rental_uris":{"android":"levelo://app?vid=76332156-cb3a-4e22-af8d-bb13db9ead2e","ios":"levelo://app?vid=76332156-cb3a-4e22-af8d-bb13db9ead2e"},"vehicle_type_id":"4","last_reported":1744844946,"current_range_meters":11600,"station_id":"ce4bh012rcd13ifvqd10","pricing_plan_id":"cebpf4jnsgd1na2vs0mg"},{"bike_id":"5eccede5-a092-4c79-861e-9ba408b79172","system_id":"levelo_inurba_marseille","lat":43.32105,"lon":5.36764,"is_reserved":false,"is_disabled":false,"rental_uris":{"android":"levelo://app?vid=5eccede5-a092-4c79-861e-9ba408b79172","ios":"levelo://app?vid=5eccede5-a092-4c79-861e-9ba408b79172"},"vehicle_type_id":"4","last_reported":1744844946,"current_range_meters":11600,"station_id":"ce4bhrh2rcd13ifvqhug","pricing_plan_id":"cebpf4jnsgd1na2vs0mg"},{"bike_id":"2e4df3f8-36a0-4aaa-a40e-25b01eb78413","system_id":"levelo_inurba_marseille","lat":43.31126,"lon":5.3776,"is_reserved":false,"is_disabled":false,"rental_uris":{"android":"levelo://app?vid=2e4df3f8-36a0-4aaa-a40e-25b01eb78413","ios":"levelo://app?vid=2e4df3f8-36a0-4aaa-a40e-25b01eb78413"},"vehicle_type_id":"4","last_reported":1744844946,"current_range_meters":12000,"station_id":"ce4bgt92rcd13ifvqcg0","pricing_plan_id":"cebpf4jnsgd1na2vs0mg"},{"bike_id":"367f01cf-3209-4951-b89b-8264c8668817","system_id":"levelo_inurba_marseille","lat":43.306429,"lon":5.400643,"is_reserved":false,"is_disabled":false,"rental_uris":{"android":"levelo://app?vid=367f01cf-3209-4951-b89b-8264c8668817","ios":"levelo://app?vid=367f01cf-3209-4951-b89b-8264c8668817"},"vehicle_type_id":"4","last_reported":1744844946,"current_range_meters":12000,"station_id":"ce4bh112rcd13ifvqda0","pricing_plan_id":"cebpf4jnsgd1na2vs0mg"},{"bike_id":"75fe1ac9-0713-4597-92fb-c4b09207ec9e","system_id":"levelo_inurba_marseille","lat":43.29248,"lon":5.40904,"is_reserved":false,"is_disabled":false,"rental_uris":{"android":"levelo://app?vid=75fe1ac9-0713-4597-92fb-c4b09207ec9e","ios":"levelo://app?vid=75fe1ac9-0713-4597-92fb-c4b09207ec9e"},"vehicle_type_id":"4","last_reported":1744844946,"current_range_meters":12000,"station_id":"ce4bh192rcd13ifvqdc0","pricing_plan_id":"cebpf4jnsgd1na2vs0mg"},{"bike_id":"cff7e17d-4349-4ec1-aff9-05067a138474","system_id":"levelo_inurba_marseille","lat":43.29215,"lon":5.39317,"is_reserved":false,"is_disabled":false,"rental_uris":{"android":"levelo://app?vid=cff7e17d-4349-4ec1-aff9-05067a138474","ios":"levelo://app?vid=cff7e17d-4349-4ec1-aff9-05067a138474"},"vehicle_type_id":"4","last_reported":1744844946,"current_range_meters":12000,"station_id":"ce4bh192rcd13ifvqdd0","pricing_plan_id":"cebpf4jnsgd1na2vs0mg"},{"bike_id":"df3eeb20-14cf-4be2-911f-5e93ad57ddc0","system_id":"levelo_inurba_marseille","lat":43.28085,"lon":5.39672,"is_reserved":false,"is_disabled":false,"rental_uris":{"android":"levelo://app?vid=df3eeb20-14cf-4be2-911f-5e93ad57ddc0","ios":"levelo://app?vid=df3eeb20-14cf-4be2-911f-5e93ad57ddc0"},"vehicle_type_id":"4","last_reported":1744844946,"current_range_meters":12000,"station_id":"ce4bho12rcd13ifvqh2g","pricing_plan_id":"cebpf4jnsgd1na2vs0mg"},{"bike_id":"9002d50e-d6d6-46d0-9f04-b56806ecb3e7","system_id":"levelo_inurba_marseille","lat":43.28622,"lon":5.37061,"is_reserved":false,"is_disabled":false,"rental_uris":{"android":"levelo://app?vid=9002d50e-d6d6-46d0-9f04-b56806ecb3e7","ios":"levelo://app?vid=9002d50e-d6d6-46d0-9f04-b56806ecb3e7"},"vehicle_type_id":"4","last_reported":1744844946,"current_range_meters":12000,"station_id":"ce4bht12rcd13ifvqi60","pricing_plan_id":"cebpf4jnsgd1na2vs0mg"},{"bike_id":"e42a459d-16cc-4bfd-9a18-79c9ced580f3","system_id":"levelo_inurba_marseille","lat":43.23194,"lon":5.35538,"is_reserved":false,"is_disabled":false,"rental_uris":{"android":"levelo://app?vid=e42a459d-16cc-4bfd-9a18-79c9ced580f3","ios":"levelo://app?vid=e42a459d-16cc-4bfd-9a18-79c9ced580f3"},"vehicle_type_id":"4","last_reported":1744844946,"current_range_meters":12000,"station_id":"ce4bhu92rcd13ifvqi70","pricing_plan_id":"cebpf4jnsgd1na2vs0mg"},{"bike_id":"736c7bdc-b98a-4581-a5dc-1bee5f63147b","system_id":"levelo_inurba_marseille","lat":43.30626,"lon":5.4007,"is_reserved":false,"is_disabled":false,"rental_uris":{"android":"levelo://app?vid=736c7bdc-b98a-4581-a5dc-1bee5f63147b","ios":"levelo://app?vid=736c7bdc-b98a-4581-a5dc-1bee5f63147b"},"vehicle_type_id":"4","last_reported":1744844946,"current_range_meters":12400,"station_id":"ce4bh112rcd13ifvqda0","pricing_plan_id":"cebpf4jnsgd1na2vs0mg"},{"bike_id":"93be371e-f079-4065-9c94-f1bd2172cfd1","system_id":"levelo_inurba_marseille","lat":43.28608,"lon":5.37067,"is_reserved":false,"is_disabled":false,"rental_uris":{"android":"levelo://app?vid=93be371e-f079-4065-9c94-f1bd2172cfd1","ios":"levelo://app?vid=93be371e-f079-4065-9c94-f1bd2172cfd1"},"vehicle_type_id":"4","last_reported":1744844946,"current_range_meters":12400,"station_id":"ce4bht12rcd13ifvqi60","pricing_plan_id":"cebpf4jnsgd1na2vs0mg"},{"bike_id":"1bdba7a7-a82e-4252-906c-80db6beb180e","system_id":"levelo_inurba_marseille","lat":43.24898,"lon":5.39389,"is_reserved":false,"is_disabled":false,"rental_uris":{"android":"levelo://app?vid=1bdba7a7-a82e-4252-906c-80db6beb180e","ios":"levelo://app?vid=1bdba7a7-a82e-4252-906c-80db6beb180e"},"vehicle_type_id":"4","last_reported":1744844946,"current_range_meters":12800,"station_id":"","pricing_plan_id":"cebpf4jnsgd1na2vs0mg"},{"bike_id":"9032f14c-fd09-4b52-bf50-b879d730ed1b","system_id":"levelo_inurba_marseille","lat":43.25713,"lon":5.41104,"is_reserved":false,"is_disabled":false,"rental_uris":{"android":"levelo://app?vid=9032f14c-fd09-4b52-bf50-b879d730ed1b","ios":"levelo://app?vid=9032f14c-fd09-4b52-bf50-b879d730ed1b"},"vehicle_type_id":"4","last_reported":1744844946,"current_range_meters":12800,"station_id":"ce4bhkp2rcd13ifvqgd0","pricing_plan_id":"cebpf4jnsgd1na2vs0mg"},{"bike_id":"4b9b1e69-af86-4122-8d46-0d52505b1cab","system_id":"levelo_inurba_marseille","lat":43.27487,"lon":5.42479,"is_reserved":false,"is_disabled":false,"rental_uris":{"android":"levelo://app?vid=4b9b1e69-af86-4122-8d46-0d52505b1cab","ios":"levelo://app?vid=4b9b1e69-af86-4122-8d46-0d52505b1cab"},"vehicle_type_id":"4","last_reported":1744844946,"current_range_meters":12800,"station_id":"ce4bhn92rcd13ifvqgrg","pricing_plan_id":"cebpf4jnsgd1na2vs0mg"},{"bike_id":"6bf5a380-400e-4cd6-bc1e-356afac9ee45","system_id":"levelo_inurba_marseille","lat":43.24161,"lon":5.36403,"is_reserved":false,"is_disabled":false,"rental_uris":{"android":"levelo://app?vid=6bf5a380-400e-4cd6-bc1e-356afac9ee45","ios":"levelo://app?vid=6bf5a380-400e-4cd6-bc1e-356afac9ee45"},"vehicle_type_id":"4","last_reported":1744844946,"current_range_meters":12800,"station_id":"cpo36qri1sfpv3e86is0","pricing_plan_id":"cebpf4jnsgd1na2vs0mg"},{"bike_id":"88a0cb80-a51d-46bc-8228-c9a9fb028348","system_id":"levelo_inurba_marseille","lat":43.256237,"lon":5.420078,"is_reserved":false,"is_disabled":false,"rental_uris":{"android":"levelo://app?vid=88a0cb80-a51d-46bc-8228-c9a9fb028348","ios":"levelo://app?vid=88a0cb80-a51d-46bc-8228-c9a9fb028348"},"vehicle_type_id":"4","last_reported":1744844946,"current_range_meters":13600,"station_id":"","pricing_plan_id":"cebpf4jnsgd1na2vs0mg"},{"bike_id":"478c28af-83c2-4fd5-b57f-f927fe52c007","system_id":"levelo_inurba_marseille","lat":43.23156,"lon":5.4372,"is_reserved":false,"is_disabled":false,"rental_uris":{"android":"levelo://app?vid=478c28af-83c2-4fd5-b57f-f927fe52c007","ios":"levelo://app?vid=478c28af-83c2-4fd5-b57f-f927fe52c007"},"vehicle_type_id":"4","last_reported":1744844946,"current_range_meters":13600,"station_id":"ce4bhmp2rcd13ifvqgog","pricing_plan_id":"cebpf4jnsgd1na2vs0mg"},{"bike_id":"96b3cd09-0bfe-4125-8dcf-c4bdc8601e42","system_id":"levelo_inurba_marseille","lat":43.31177,"lon":5.38714,"is_reserved":false,"is_disabled":false,"rental_uris":{"android":"levelo://app?vid=96b3cd09-0bfe-4125-8dcf-c4bdc8601e42","ios":"levelo://app?vid=96b3cd09-0bfe-4125-8dcf-c4bdc8601e42"},"vehicle_type_id":"4","last_reported":1744844946,"current_range_meters":14000,"station_id":"ce4bgv12rcd13ifvqcp0","pricing_plan_id":"cebpf4jnsgd1na2vs0mg"},{"bike_id":"a5dcdcdd-bf90-4188-b000-5abff8fcd560","system_id":"levelo_inurba_marseille","lat":43.30931,"lon":5.40137,"is_reserved":false,"is_disabled":false,"rental_uris":{"android":"levelo://app?vid=a5dcdcdd-bf90-4188-b000-5abff8fcd560","ios":"levelo://app?vid=a5dcdcdd-bf90-4188-b000-5abff8fcd560"},"vehicle_type_id":"4","last_reported":1744844946,"current_range_meters":14000,"station_id":"ce4bgvp2rcd13ifvqct0","pricing_plan_id":"cebpf4jnsgd1na2vs0mg"},{"bike_id":"417e3a7a-0095-495e-9b83-1bc73bffd8f5","system_id":"levelo_inurba_marseille","lat":43.30897,"lon":5.39627,"is_reserved":false,"is_disabled":false,"rental_uris":{"android":"levelo://app?vid=417e3a7a-0095-495e-9b83-1bc73bffd8f5","ios":"levelo://app?vid=417e3a7a-0095-495e-9b83-1bc73bffd8f5"},"vehicle_type_id":"4","last_reported":1744844946,"current_range_meters":14000,"station_id":"ce4bh012rcd13ifvqcv0","pricing_plan_id":"cebpf4jnsgd1na2vs0mg"},{"bike_id":"6695fc0d-b7c2-4b76-9759-125a5558ce82","system_id":"levelo_inurba_marseille","lat":43.306557,"lon":5.400793,"is_reserved":false,"is_disabled":false,"rental_uris":{"android":"levelo://app?vid=6695fc0d-b7c2-4b76-9759-125a5558ce82","ios":"levelo://app?vid=6695fc0d-b7c2-4b76-9759-125a5558ce82"},"vehicle_type_id":"4","last_reported":1744844946,"current_range_meters":14000,"station_id":"ce4bh112rcd13ifvqda0","pricing_plan_id":"cebpf4jnsgd1na2vs0mg"},{"bike_id":"ef365bd2-a34b-4049-a6ca-88aa62e24e6c","system_id":"levelo_inurba_marseille","lat":43.2834,"lon":5.38096,"is_reserved":false,"is_disabled":false,"rental_uris":{"android":"levelo://app?vid=ef365bd2-a34b-4049-a6ca-88aa62e24e6c","ios":"levelo://app?vid=ef365bd2-a34b-4049-a6ca-88aa62e24e6c"},"vehicle_type_id":"4","last_reported":1744844946,"current_range_meters":14000,"station_id":"ce4bh412rcd13ifvqdr0","pricing_plan_id":"cebpf4jnsgd1na2vs0mg"},{"bike_id":"4f3dfbf4-d1ae-44db-8110-b28c7d24107a","system_id":"levelo_inurba_marseille","lat":43.27058,"lon":5.40253,"is_reserved":false,"is_disabled":false,"rental_uris":{"android":"levelo://app?vid=4f3dfbf4-d1ae-44db-8110-b28c7d24107a","ios":"levelo://app?vid=4f3dfbf4-d1ae-44db-8110-b28c7d24107a"},"vehicle_type_id":"4","last_reported":1744844946,"current_range_meters":14000,"station_id":"ce4bhk92rcd13ifvqgc0","pricing_plan_id":"cebpf4jnsgd1na2vs0mg"},{"bike_id":"6032e738-f012-4275-92a6-1c203e24e4cd","system_id":"levelo_inurba_marseille","lat":43.29892,"lon":5.43654,"is_reserved":false,"is_disabled":false,"rental_uris":{"android":"levelo://app?vid=6032e738-f012-4275-92a6-1c203e24e4cd","ios":"levelo://app?vid=6032e738-f012-4275-92a6-1c203e24e4cd"},"vehicle_type_id":"4","last_reported":1744844946,"current_range_meters":14000,"station_id":"ce4bhpp2rcd13ifvqhfg","pricing_plan_id":"cebpf4jnsgd1na2vs0mg"},{"bike_id":"c03ca11e-6bb5-4273-b6a6-171b93fa0cf8","system_id":"levelo_inurba_marseille","lat":43.29261,"lon":5.38373,"is_reserved":false,"is_disabled":false,"rental_uris":{"android":"levelo://app?vid=c03ca11e-6bb5-4273-b6a6-171b93fa0cf8","ios":"levelo://app?vid=c03ca11e-6bb5-4273-b6a6-171b93fa0cf8"},"vehicle_type_id":"4","last_reported":1744844946,"current_range_meters":14400,"station_id":"ce4bh692rcd13ifvqea0","pricing_plan_id":"cebpf4jnsgd1na2vs0mg"},{"bike_id":"78639c4a-dfa5-4f82-b777-6fd3b58b5770","system_id":"levelo_inurba_marseille","lat":43.280982,"lon":5.378416,"is_reserved":false,"is_disabled":false,"rental_uris":{"android":"levelo://app?vid=78639c4a-dfa5-4f82-b777-6fd3b58b5770","ios":"levelo://app?vid=78639c4a-dfa5-4f82-b777-6fd3b58b5770"},"vehicle_type_id":"4","last_reported":1744844946,"current_range_meters":14400,"station_id":"ce4bha12rcd13ifvqee0","pricing_plan_id":"cebpf4jnsgd1na2vs0mg"},{"bike_id":"0bdb9c44-4315-4d6b-9cba-3d8155b8f804","system_id":"levelo_inurba_marseille","lat":43.26847,"lon":5.40207,"is_reserved":false,"is_disabled":false,"rental_uris":{"android":"levelo://app?vid=0bdb9c44-4315-4d6b-9cba-3d8155b8f804","ios":"levelo://app?vid=0bdb9c44-4315-4d6b-9cba-3d8155b8f804"},"vehicle_type_id":"4","last_reported":1744844946,"current_range_meters":14400,"station_id":"ce501612rcd8frsf0b60","pricing_plan_id":"cebpf4jnsgd1na2vs0mg"},{"bike_id":"89e815d1-0846-4579-9897-513270f0e4d6","system_id":"levelo_inurba_marseille","lat":43.28275,"lon":5.35075,"is_reserved":false,"is_disabled":false,"rental_uris":{"android":"levelo://app?vid=89e815d1-0846-4579-9897-513270f0e4d6","ios":"levelo://app?vid=89e815d1-0846-4579-9897-513270f0e4d6"},"vehicle_type_id":"4","last_reported":1744844946,"current_range_meters":14800,"station_id":"ce4bhbp2rcd13ifvqerg","pricing_plan_id":"cebpf4jnsgd1na2vs0mg"},{"bike_id":"482d7f53-ba94-4319-bdfb-94ad5dc0e6c3","system_id":"levelo_inurba_marseille","lat":43.295744,"lon":5.399729,"is_reserved":false,"is_disabled":false,"rental_uris":{"android":"levelo://app?vid=482d7f53-ba94-4319-bdfb-94ad5dc0e6c3","ios":"levelo://app?vid=482d7f53-ba94-4319-bdfb-94ad5dc0e6c3"},"vehicle_type_id":"4","last_reported":1744844946,"current_range_meters":15200,"station_id":"ce4bh312rcd13ifvqdj0","pricing_plan_id":"cebpf4jnsgd1na2vs0mg"},{"bike_id":"53976967-6581-4301-a459-377b540d5e4f","system_id":"levelo_inurba_marseille","lat":43.290032,"lon":5.356218,"is_reserved":false,"is_disabled":false,"rental_uris":{"android":"levelo://app?vid=53976967-6581-4301-a459-377b540d5e4f","ios":"levelo://app?vid=53976967-6581-4301-a459-377b540d5e4f"},"vehicle_type_id":"4","last_reported":1744844946,"current_range_meters":15200,"station_id":"ce4bhb92rcd13ifvqen0","pricing_plan_id":"cebpf4jnsgd1na2vs0mg"},{"bike_id":"35100e48-d85e-4592-93bf-b13bb8464f4f","system_id":"levelo_inurba_marseille","lat":43.279849,"lon":5.416501,"is_reserved":false,"is_disabled":false,"rental_uris":{"android":"levelo://app?vid=35100e48-d85e-4592-93bf-b13bb8464f4f","ios":"levelo://app?vid=35100e48-d85e-4592-93bf-b13bb8464f4f"},"vehicle_type_id":"4","last_reported":1744844946,"current_range_meters":15200,"station_id":"ce4bho12rcd13ifvqh1g","pricing_plan_id":"cebpf4jnsgd1na2vs0mg"},{"bike_id":"a8f0bc92-4e6b-4d62-92c1-696ba5138149","system_id":"levelo_inurba_marseille","lat":43.28613,"lon":5.37067,"is_reserved":false,"is_disabled":false,"rental_uris":{"android":"levelo://app?vid=a8f0bc92-4e6b-4d62-92c1-696ba5138149","ios":"levelo://app?vid=a8f0bc92-4e6b-4d62-92c1-696ba5138149"},"vehicle_type_id":"4","last_reported":1744844946,"current_range_meters":15200,"station_id":"ce4bht12rcd13ifvqi60","pricing_plan_id":"cebpf4jnsgd1na2vs0mg"},{"bike_id":"394181cf-d138-4b85-a28e-7228cf97ac19","system_id":"levelo_inurba_marseille","lat":43.320039,"lon":5.381551,"is_reserved":false,"is_disabled":false,"rental_uris":{"android":"levelo://app?vid=394181cf-d138-4b85-a28e-7228cf97ac19","ios":"levelo://app?vid=394181cf-d138-4b85-a28e-7228cf97ac19"},"vehicle_type_id":"4","last_reported":1744844946,"current_range_meters":16000,"station_id":"","pricing_plan_id":"cebpf4jnsgd1na2vs0mg"},{"bike_id":"baf04868-3ad9-4949-b39a-063b0d0c8334","system_id":"levelo_inurba_marseille","lat":43.309293,"lon":5.401343,"is_reserved":false,"is_disabled":false,"rental_uris":{"android":"levelo://app?vid=baf04868-3ad9-4949-b39a-063b0d0c8334","ios":"levelo://app?vid=baf04868-3ad9-4949-b39a-063b0d0c8334"},"vehicle_type_id":"4","last_reported":1744844946,"current_range_meters":16000,"station_id":"ce4bgvp2rcd13ifvqct0","pricing_plan_id":"cebpf4jnsgd1na2vs0mg"},{"bike_id":"35442b16-33d9-4b20-92cf-b6f6d3bd2f31","system_id":"levelo_inurba_marseille","lat":43.2847,"lon":5.3588,"is_reserved":false,"is_disabled":false,"rental_uris":{"android":"levelo://app?vid=35442b16-33d9-4b20-92cf-b6f6d3bd2f31","ios":"levelo://app?vid=35442b16-33d9-4b20-92cf-b6f6d3bd2f31"},"vehicle_type_id":"4","last_reported":1744844946,"current_range_meters":16000,"station_id":"ce4bhah2rcd13ifvqei0","pricing_plan_id":"cebpf4jnsgd1na2vs0mg"},{"bike_id":"d9a74604-4e04-4138-8f3c-bfc766e9e048","system_id":"levelo_inurba_marseille","lat":43.25866,"lon":5.39899,"is_reserved":false,"is_disabled":false,"rental_uris":{"android":"levelo://app?vid=d9a74604-4e04-4138-8f3c-bfc766e9e048","ios":"levelo://app?vid=d9a74604-4e04-4138-8f3c-bfc766e9e048"},"vehicle_type_id":"4","last_reported":1744844946,"current_range_meters":16000,"station_id":"ce4bhl92rcd13ifvqghg","pricing_plan_id":"cebpf4jnsgd1na2vs0mg"},{"bike_id":"0b7b9afc-b2db-43f5-aeb8-7a1248a5408e","system_id":"levelo_inurba_marseille","lat":43.3128,"lon":5.3775,"is_reserved":false,"is_disabled":false,"rental_uris":{"android":"levelo://app?vid=0b7b9afc-b2db-43f5-aeb8-7a1248a5408e","ios":"levelo://app?vid=0b7b9afc-b2db-43f5-aeb8-7a1248a5408e"},"vehicle_type_id":"4","last_reported":1744844946,"current_range_meters":16400,"station_id":"","pricing_plan_id":"cebpf4jnsgd1na2vs0mg"},{"bike_id":"da0699e6-fffb-42fd-bda2-fa249cfedfd8","system_id":"levelo_inurba_marseille","lat":43.31506,"lon":5.37237,"is_reserved":false,"is_disabled":false,"rental_uris":{"android":"levelo://app?vid=da0699e6-fffb-42fd-bda2-fa249cfedfd8","ios":"levelo://app?vid=da0699e6-fffb-42fd-bda2-fa249cfedfd8"},"vehicle_type_id":"4","last_reported":1744844946,"current_range_meters":16400,"station_id":"ce4bgt12rcd13ifvqcd0","pricing_plan_id":"cebpf4jnsgd1na2vs0mg"},{"bike_id":"14a3d506-628e-48f2-b07c-94b13cdd3352","system_id":"levelo_inurba_marseille","lat":43.3042,"lon":5.39752,"is_reserved":false,"is_disabled":false,"rental_uris":{"android":"levelo://app?vid=14a3d506-628e-48f2-b07c-94b13cdd3352","ios":"levelo://app?vid=14a3d506-628e-48f2-b07c-94b13cdd3352"},"vehicle_type_id":"4","last_reported":1744844946,"current_range_meters":16400,"station_id":"ce4bh092rcd13ifvqd20","pricing_plan_id":"cebpf4jnsgd1na2vs0mg"},{"bike_id":"974cf393-d59c-4ccf-9c21-bf75b7796645","system_id":"levelo_inurba_marseille","lat":43.28979,"lon":5.37839,"is_reserved":false,"is_disabled":false,"rental_uris":{"android":"levelo://app?vid=974cf393-d59c-4ccf-9c21-bf75b7796645","ios":"levelo://app?vid=974cf393-d59c-4ccf-9c21-bf75b7796645"},"vehicle_type_id":"4","last_reported":1744844946,"current_range_meters":16400,"station_id":"ce4bh9p2rcd13ifvqed0","pricing_plan_id":"cebpf4jnsgd1na2vs0mg"},{"bike_id":"fe552450-c0a0-482b-ad4d-745c7e3315b5","system_id":"levelo_inurba_marseille","lat":43.23955,"lon":5.36624,"is_reserved":false,"is_disabled":false,"rental_uris":{"android":"levelo://app?vid=fe552450-c0a0-482b-ad4d-745c7e3315b5","ios":"levelo://app?vid=fe552450-c0a0-482b-ad4d-745c7e3315b5"},"vehicle_type_id":"4","last_reported":1744844946,"current_range_meters":16400,"station_id":"ce4bhi12rcd13ifvqfp0","pricing_plan_id":"cebpf4jnsgd1na2vs0mg"},{"bike_id":"15d893b5-c05d-42c2-8fcb-c5f33968f5f5","system_id":"levelo_inurba_marseille","lat":43.28698,"lon":5.39978,"is_reserved":false,"is_disabled":false,"rental_uris":{"android":"levelo://app?vid=15d893b5-c05d-42c2-8fcb-c5f33968f5f5","ios":"levelo://app?vid=15d893b5-c05d-42c2-8fcb-c5f33968f5f5"},"vehicle_type_id":"4","last_reported":1744844946,"current_range_meters":16400,"station_id":"ce4bho92rcd13ifvqh3g","pricing_plan_id":"cebpf4jnsgd1na2vs0mg"},{"bike_id":"a18cb8d9-96c6-4075-8847-b5d6e1c0066d","system_id":"levelo_inurba_marseille","lat":43.29841,"lon":5.36266,"is_reserved":false,"is_disabled":false,"rental_uris":{"android":"levelo://app?vid=a18cb8d9-96c6-4075-8847-b5d6e1c0066d","ios":"levelo://app?vid=a18cb8d9-96c6-4075-8847-b5d6e1c0066d"},"vehicle_type_id":"4","last_reported":1744844946,"current_range_meters":16800,"station_id":"ce4bgpp2rcd13ifvqc3g","pricing_plan_id":"cebpf4jnsgd1na2vs0mg"},{"bike_id":"02d21972-fec1-40b1-b30a-48e3b7202348","system_id":"levelo_inurba_marseille","lat":43.3089,"lon":5.39613,"is_reserved":false,"is_disabled":false,"rental_uris":{"android":"levelo://app?vid=02d21972-fec1-40b1-b30a-48e3b7202348","ios":"levelo://app?vid=02d21972-fec1-40b1-b30a-48e3b7202348"},"vehicle_type_id":"4","last_reported":1744844946,"current_range_meters":16800,"station_id":"ce4bh012rcd13ifvqcv0","pricing_plan_id":"cebpf4jnsgd1na2vs0mg"},{"bike_id":"0e7f3c1c-5749-4ea0-8c4b-38be5bb50b3a","system_id":"levelo_inurba_marseille","lat":43.3066,"lon":5.40076,"is_reserved":false,"is_disabled":false,"rental_uris":{"android":"levelo://app?vid=0e7f3c1c-5749-4ea0-8c4b-38be5bb50b3a","ios":"levelo://app?vid=0e7f3c1c-5749-4ea0-8c4b-38be5bb50b3a"},"vehicle_type_id":"4","last_reported":1744844946,"current_range_meters":16800,"station_id":"ce4bh112rcd13ifvqda0","pricing_plan_id":"cebpf4jnsgd1na2vs0mg"},{"bike_id":"69cfcd50-444a-4061-bc35-7d0c950adb68","system_id":"levelo_inurba_marseille","lat":43.287,"lon":5.38668,"is_reserved":false,"is_disabled":false,"rental_uris":{"android":"levelo://app?vid=69cfcd50-444a-4061-bc35-7d0c950adb68","ios":"levelo://app?vid=69cfcd50-444a-4061-bc35-7d0c950adb68"},"vehicle_type_id":"4","last_reported":1744844946,"current_range_meters":16800,"station_id":"ce4bh492rcd13ifvqdug","pricing_plan_id":"cebpf4jnsgd1na2vs0mg"},{"bike_id":"ec8c9ac7-1e95-4171-97f3-226ce1e3c951","system_id":"levelo_inurba_marseille","lat":43.32131,"lon":5.36765,"is_reserved":false,"is_disabled":false,"rental_uris":{"android":"levelo://app?vid=ec8c9ac7-1e95-4171-97f3-226ce1e3c951","ios":"levelo://app?vid=ec8c9ac7-1e95-4171-97f3-226ce1e3c951"},"vehicle_type_id":"4","last_reported":1744844946,"current_range_meters":16800,"station_id":"ce4bhrh2rcd13ifvqhug","pricing_plan_id":"cebpf4jnsgd1na2vs0mg"},{"bike_id":"dc88ca14-385b-47d2-8f34-ba0ff66a2869","system_id":"levelo_inurba_marseille","lat":43.30933,"lon":5.37873,"is_reserved":false,"is_disabled":false,"rental_uris":{"android":"levelo://app?vid=dc88ca14-385b-47d2-8f34-ba0ff66a2869","ios":"levelo://app?vid=dc88ca14-385b-47d2-8f34-ba0ff66a2869"},"vehicle_type_id":"4","last_reported":1744844946,"current_range_meters":17200,"station_id":"","pricing_plan_id":"cebpf4jnsgd1na2vs0mg"},{"bike_id":"b86b724e-376e-45a4-a88f-c409bfcfa380","system_id":"levelo_inurba_marseille","lat":43.30892,"lon":5.39629,"is_reserved":false,"is_disabled":false,"rental_uris":{"android":"levelo://app?vid=b86b724e-376e-45a4-a88f-c409bfcfa380","ios":"levelo://app?vid=b86b724e-376e-45a4-a88f-c409bfcfa380"},"vehicle_type_id":"4","last_reported":1744844946,"current_range_meters":17200,"station_id":"ce4bh012rcd13ifvqcv0","pricing_plan_id":"cebpf4jnsgd1na2vs0mg"},{"bike_id":"aa1c9e01-5061-491c-b98f-93c201b50d31","system_id":"levelo_inurba_marseille","lat":43.28483,"lon":5.38565,"is_reserved":false,"is_disabled":false,"rental_uris":{"android":"levelo://app?vid=aa1c9e01-5061-491c-b98f-93c201b50d31","ios":"levelo://app?vid=aa1c9e01-5061-491c-b98f-93c201b50d31"},"vehicle_type_id":"4","last_reported":1744844946,"current_range_meters":17200,"station_id":"ce4bh8p2rcd13ifvqeb0","pricing_plan_id":"cebpf4jnsgd1na2vs0mg"},{"bike_id":"fd004068-7161-4dbb-a955-dc3b29ce8ef2","system_id":"levelo_inurba_marseille","lat":43.298735,"lon":5.389122,"is_reserved":false,"is_disabled":false,"rental_uris":{"android":"levelo://app?vid=fd004068-7161-4dbb-a955-dc3b29ce8ef2","ios":"levelo://app?vid=fd004068-7161-4dbb-a955-dc3b29ce8ef2"},"vehicle_type_id":"4","last_reported":1744844946,"current_range_meters":17600,"station_id":"ce4bh392rcd13ifvqdl0","pricing_plan_id":"cebpf4jnsgd1na2vs0mg"},{"bike_id":"927e7dc3-fe22-45a3-9137-be86ccd6ca89","system_id":"levelo_inurba_marseille","lat":43.28684,"lon":5.38664,"is_reserved":false,"is_disabled":false,"rental_uris":{"android":"levelo://app?vid=927e7dc3-fe22-45a3-9137-be86ccd6ca89","ios":"levelo://app?vid=927e7dc3-fe22-45a3-9137-be86ccd6ca89"},"vehicle_type_id":"4","last_reported":1744844946,"current_range_meters":17600,"station_id":"ce4bh492rcd13ifvqdug","pricing_plan_id":"cebpf4jnsgd1na2vs0mg"},{"bike_id":"8bc01458-e04d-4e1e-9f4f-473a9ad28594","system_id":"levelo_inurba_marseille","lat":43.27924,"lon":5.39594,"is_reserved":false,"is_disabled":false,"rental_uris":{"android":"levelo://app?vid=8bc01458-e04d-4e1e-9f4f-473a9ad28594","ios":"levelo://app?vid=8bc01458-e04d-4e1e-9f4f-473a9ad28594"},"vehicle_type_id":"4","last_reported":1744844946,"current_range_meters":17600,"station_id":"ce4bhf92rcd13ifvqf40","pricing_plan_id":"cebpf4jnsgd1na2vs0mg"},{"bike_id":"7202a930-c528-41c4-b09a-234eef0ae5be","system_id":"levelo_inurba_marseille","lat":43.3265,"lon":5.40992,"is_reserved":false,"is_disabled":false,"rental_uris":{"android":"levelo://app?vid=7202a930-c528-41c4-b09a-234eef0ae5be","ios":"levelo://app?vid=7202a930-c528-41c4-b09a-234eef0ae5be"},"vehicle_type_id":"4","last_reported":1744844946,"current_range_meters":17600,"station_id":"ce4bhpp2rcd13ifvqhgg","pricing_plan_id":"cebpf4jnsgd1na2vs0mg"},{"bike_id":"0291b7a7-5f86-48ec-8437-eba04e7bafe8","system_id":"levelo_inurba_marseille","lat":43.32366,"lon":5.36746,"is_reserved":false,"is_disabled":false,"rental_uris":{"android":"levelo://app?vid=0291b7a7-5f86-48ec-8437-eba04e7bafe8","ios":"levelo://app?vid=0291b7a7-5f86-48ec-8437-eba04e7bafe8"},"vehicle_type_id":"4","last_reported":1744844946,"current_range_meters":17600,"station_id":"ce4bhsh2rcd13ifvqi2g","pricing_plan_id":"cebpf4jnsgd1na2vs0mg"},{"bike_id":"a0ddb0a5-f7f0-4281-aa27-9e82747cc573","system_id":"levelo_inurba_marseille","lat":43.337619,"lon":5.374828,"is_reserved":false,"is_disabled":false,"rental_uris":{"android":"levelo://app?vid=a0ddb0a5-f7f0-4281-aa27-9e82747cc573","ios":"levelo://app?vid=a0ddb0a5-f7f0-4281-aa27-9e82747cc573"},"vehicle_type_id":"4","last_reported":1744844946,"current_range_meters":18000,"station_id":"","pricing_plan_id":"cebpf4jnsgd1na2vs0mg"},{"bike_id":"0f2f13a0-6a8d-44d3-bc7e-ecbee79e2e90","system_id":"levelo_inurba_marseille","lat":43.28663,"lon":5.36355,"is_reserved":false,"is_disabled":false,"rental_uris":{"android":"levelo://app?vid=0f2f13a0-6a8d-44d3-bc7e-ecbee79e2e90","ios":"levelo://app?vid=0f2f13a0-6a8d-44d3-bc7e-ecbee79e2e90"},"vehicle_type_id":"4","last_reported":1744844946,"current_range_meters":18000,"station_id":"ce4bhah2rcd13ifvqej0","pricing_plan_id":"cebpf4jnsgd1na2vs0mg"},{"bike_id":"f637015a-f468-4470-b7ec-72a0f3fb0055","system_id":"levelo_inurba_marseille","lat":43.303763,"lon":5.424837,"is_reserved":false,"is_disabled":false,"rental_uris":{"android":"levelo://app?vid=f637015a-f468-4470-b7ec-72a0f3fb0055","ios":"levelo://app?vid=f637015a-f468-4470-b7ec-72a0f3fb0055"},"vehicle_type_id":"4","last_reported":1744844946,"current_range_meters":18000,"station_id":"ce4bhoh2rcd13ifvqh6g","pricing_plan_id":"cebpf4jnsgd1na2vs0mg"},{"bike_id":"b652bdb7-a4d5-4927-bd0c-73ce3a2e3721","system_id":"levelo_inurba_marseille","lat":43.268023,"lon":5.402665,"is_reserved":false,"is_disabled":false,"rental_uris":{"android":"levelo://app?vid=b652bdb7-a4d5-4927-bd0c-73ce3a2e3721","ios":"levelo://app?vid=b652bdb7-a4d5-4927-bd0c-73ce3a2e3721"},"vehicle_type_id":"4","last_reported":1744844946,"current_range_meters":18000,"station_id":"ce501612rcd8frsf0b60","pricing_plan_id":"cebpf4jnsgd1na2vs0mg"},{"bike_id":"bbb1c662-cc65-4c72-8489-de78d2f0f12f","system_id":"levelo_inurba_marseille","lat":43.230629,"lon":5.355032,"is_reserved":false,"is_disabled":false,"rental_uris":{"android":"levelo://app?vid=bbb1c662-cc65-4c72-8489-de78d2f0f12f","ios":"levelo://app?vid=bbb1c662-cc65-4c72-8489-de78d2f0f12f"},"vehicle_type_id":"4","last_reported":1744844946,"current_range_meters":18000,"station_id":"cpo3342slgdg3j2ifvpg","pricing_plan_id":"cebpf4jnsgd1na2vs0mg"},{"bike_id":"6b48c4dc-fcc8-4c31-a128-6067f014b45e","system_id":"levelo_inurba_marseille","lat":43.286989,"lon":5.399935,"is_reserved":false,"is_disabled":false,"rental_uris":{"android":"levelo://app?vid=6b48c4dc-fcc8-4c31-a128-6067f014b45e","ios":"levelo://app?vid=6b48c4dc-fcc8-4c31-a128-6067f014b45e"},"vehicle_type_id":"4","last_reported":1744844946,"current_range_meters":18800,"station_id":"ce4bh692rcd13ifvqea0","pricing_plan_id":"cebpf4jnsgd1na2vs0mg"},{"bike_id":"87cde924-2a81-438b-a29c-971b9fe65d0b","system_id":"levelo_inurba_marseille","lat":43.28114,"lon":5.37848,"is_reserved":false,"is_disabled":false,"rental_uris":{"android":"levelo://app?vid=87cde924-2a81-438b-a29c-971b9fe65d0b","ios":"levelo://app?vid=87cde924-2a81-438b-a29c-971b9fe65d0b"},"vehicle_type_id":"4","last_reported":1744844946,"current_range_meters":18800,"station_id":"ce4bha12rcd13ifvqee0","pricing_plan_id":"cebpf4jnsgd1na2vs0mg"},{"bike_id":"d750596a-6ac6-4755-84cc-45acd4464f3d","system_id":"levelo_inurba_marseille","lat":43.244061,"lon":5.370778,"is_reserved":false,"is_disabled":false,"rental_uris":{"android":"levelo://app?vid=d750596a-6ac6-4755-84cc-45acd4464f3d","ios":"levelo://app?vid=d750596a-6ac6-4755-84cc-45acd4464f3d"},"vehicle_type_id":"4","last_reported":1744844946,"current_range_meters":18800,"station_id":"ce4bhhh2rcd13ifvqfk0","pricing_plan_id":"cebpf4jnsgd1na2vs0mg"},{"bike_id":"5e1950f1-3570-4e07-a7cc-3dbf8a21d845","system_id":"levelo_inurba_marseille","lat":43.28165,"lon":5.4265,"is_reserved":false,"is_disabled":false,"rental_uris":{"android":"levelo://app?vid=5e1950f1-3570-4e07-a7cc-3dbf8a21d845","ios":"levelo://app?vid=5e1950f1-3570-4e07-a7cc-3dbf8a21d845"},"vehicle_type_id":"4","last_reported":1744844946,"current_range_meters":18800,"station_id":"ce4bhnh2rcd13ifvqgug","pricing_plan_id":"cebpf4jnsgd1na2vs0mg"},{"bike_id":"a9a13b2f-e2de-4f40-968c-4382de62974d","system_id":"levelo_inurba_marseille","lat":43.27949,"lon":5.41039,"is_reserved":false,"is_disabled":false,"rental_uris":{"android":"levelo://app?vid=a9a13b2f-e2de-4f40-968c-4382de62974d","ios":"levelo://app?vid=a9a13b2f-e2de-4f40-968c-4382de62974d"},"vehicle_type_id":"4","last_reported":1744844946,"current_range_meters":18800,"station_id":"ce4bhnp2rcd13ifvqh0g","pricing_plan_id":"cebpf4jnsgd1na2vs0mg"},{"bike_id":"7c837a71-8b88-4110-b4a8-e48d657c442f","system_id":"levelo_inurba_marseille","lat":43.32349,"lon":5.4062,"is_reserved":false,"is_disabled":false,"rental_uris":{"android":"levelo://app?vid=7c837a71-8b88-4110-b4a8-e48d657c442f","ios":"levelo://app?vid=7c837a71-8b88-4110-b4a8-e48d657c442f"},"vehicle_type_id":"4","last_reported":1744844946,"current_range_meters":18800,"station_id":"ce4bhq92rcd13ifvqhjg","pricing_plan_id":"cebpf4jnsgd1na2vs0mg"},{"bike_id":"08f4dcee-7656-4957-9022-f13783bb2667","system_id":"levelo_inurba_marseille","lat":43.29708,"lon":5.37273,"is_reserved":false,"is_disabled":false,"rental_uris":{"android":"levelo://app?vid=08f4dcee-7656-4957-9022-f13783bb2667","ios":"levelo://app?vid=08f4dcee-7656-4957-9022-f13783bb2667"},"vehicle_type_id":"4","last_reported":1744844946,"current_range_meters":19200,"station_id":"ce4bgk12rcd13ifvqbj0","pricing_plan_id":"cebpf4jnsgd1na2vs0mg"},{"bike_id":"d486101b-072f-470b-a885-f5f95c61cd86","system_id":"levelo_inurba_marseille","lat":43.314804,"lon":5.373018,"is_reserved":false,"is_disabled":false,"rental_uris":{"android":"levelo://app?vid=d486101b-072f-470b-a885-f5f95c61cd86","ios":"levelo://app?vid=d486101b-072f-470b-a885-f5f95c61cd86"},"vehicle_type_id":"4","last_reported":1744844946,"current_range_meters":19200,"station_id":"ce4bgt12rcd13ifvqcd0","pricing_plan_id":"cebpf4jnsgd1na2vs0mg"},{"bike_id":"2b0b4af8-8b6f-489a-93f8-1b4ec9ffba4d","system_id":"levelo_inurba_marseille","lat":43.31123,"lon":5.37755,"is_reserved":false,"is_disabled":false,"rental_uris":{"android":"levelo://app?vid=2b0b4af8-8b6f-489a-93f8-1b4ec9ffba4d","ios":"levelo://app?vid=2b0b4af8-8b6f-489a-93f8-1b4ec9ffba4d"},"vehicle_type_id":"4","last_reported":1744844946,"current_range_meters":19200,"station_id":"ce4bgt92rcd13ifvqcg0","pricing_plan_id":"cebpf4jnsgd1na2vs0mg"},{"bike_id":"1248a782-dcf8-4248-90f3-2ec1d986d179","system_id":"levelo_inurba_marseille","lat":43.28714,"lon":5.3998,"is_reserved":false,"is_disabled":false,"rental_uris":{"android":"levelo://app?vid=1248a782-dcf8-4248-90f3-2ec1d986d179","ios":"levelo://app?vid=1248a782-dcf8-4248-90f3-2ec1d986d179"},"vehicle_type_id":"4","last_reported":1744844946,"current_range_meters":19200,"station_id":"ce4bho92rcd13ifvqh3g","pricing_plan_id":"cebpf4jnsgd1na2vs0mg"},{"bike_id":"d39e5537-c00a-4bf8-9f22-53966b448679","system_id":"levelo_inurba_marseille","lat":43.29565,"lon":5.42307,"is_reserved":false,"is_disabled":false,"rental_uris":{"android":"levelo://app?vid=d39e5537-c00a-4bf8-9f22-53966b448679","ios":"levelo://app?vid=d39e5537-c00a-4bf8-9f22-53966b448679"},"vehicle_type_id":"4","last_reported":1744844946,"current_range_meters":19200,"station_id":"ce4bhph2rcd13ifvqhdg","pricing_plan_id":"cebpf4jnsgd1na2vs0mg"},{"bike_id":"2984cec8-23de-4a73-97a3-c0829eb8b5c7","system_id":"levelo_inurba_marseille","lat":43.27919,"lon":5.39606,"is_reserved":false,"is_disabled":false,"rental_uris":{"android":"levelo://app?vid=2984cec8-23de-4a73-97a3-c0829eb8b5c7","ios":"levelo://app?vid=2984cec8-23de-4a73-97a3-c0829eb8b5c7"},"vehicle_type_id":"4","last_reported":1744844946,"current_range_meters":19600,"station_id":"ce4bhf92rcd13ifvqf40","pricing_plan_id":"cebpf4jnsgd1na2vs0mg"},{"bike_id":"bfe5d35a-fd31-453a-add0-2a926a22a6d8","system_id":"levelo_inurba_marseille","lat":43.28713,"lon":5.3998,"is_reserved":false,"is_disabled":false,"rental_uris":{"android":"levelo://app?vid=bfe5d35a-fd31-453a-add0-2a926a22a6d8","ios":"levelo://app?vid=bfe5d35a-fd31-453a-add0-2a926a22a6d8"},"vehicle_type_id":"4","last_reported":1744844946,"current_range_meters":19600,"station_id":"ce4bho92rcd13ifvqh3g","pricing_plan_id":"cebpf4jnsgd1na2vs0mg"},{"bike_id":"04fb422e-0aec-4205-8e11-f392462c55c3","system_id":"levelo_inurba_marseille","lat":43.2681,"lon":5.40256,"is_reserved":false,"is_disabled":false,"rental_uris":{"android":"levelo://app?vid=04fb422e-0aec-4205-8e11-f392462c55c3","ios":"levelo://app?vid=04fb422e-0aec-4205-8e11-f392462c55c3"},"vehicle_type_id":"4","last_reported":1744844946,"current_range_meters":19600,"station_id":"ce501612rcd8frsf0b60","pricing_plan_id":"cebpf4jnsgd1na2vs0mg"},{"bike_id":"b557e27d-0f32-4a0a-b488-e6933e60a2bf","system_id":"levelo_inurba_marseille","lat":43.29795,"lon":5.39341,"is_reserved":false,"is_disabled":false,"rental_uris":{"android":"levelo://app?vid=b557e27d-0f32-4a0a-b488-e6933e60a2bf","ios":"levelo://app?vid=b557e27d-0f32-4a0a-b488-e6933e60a2bf"},"vehicle_type_id":"4","last_reported":1744844946,"current_range_meters":19600,"station_id":"chh1huq6cuj3fo74tm60","pricing_plan_id":"cebpf4jnsgd1na2vs0mg"},{"bike_id":"653749e8-30e0-4c48-aa00-f9b072b9dd97","system_id":"levelo_inurba_marseille","lat":43.30892,"lon":5.39635,"is_reserved":false,"is_disabled":false,"rental_uris":{"android":"levelo://app?vid=653749e8-30e0-4c48-aa00-f9b072b9dd97","ios":"levelo://app?vid=653749e8-30e0-4c48-aa00-f9b072b9dd97"},"vehicle_type_id":"4","last_reported":1744844946,"current_range_meters":20000,"station_id":"ce4bh012rcd13ifvqcv0","pricing_plan_id":"cebpf4jnsgd1na2vs0mg"},{"bike_id":"d539324f-6b6b-4525-b920-ac614066a0d9","system_id":"levelo_inurba_marseille","lat":43.30882,"lon":5.39625,"is_reserved":false,"is_disabled":false,"rental_uris":{"android":"levelo://app?vid=d539324f-6b6b-4525-b920-ac614066a0d9","ios":"levelo://app?vid=d539324f-6b6b-4525-b920-ac614066a0d9"},"vehicle_type_id":"4","last_reported":1744844946,"current_range_meters":20000,"station_id":"ce4bh012rcd13ifvqcv0","pricing_plan_id":"cebpf4jnsgd1na2vs0mg"},{"bike_id":"31281794-86da-43f1-be4d-cec41a15e4cd","system_id":"levelo_inurba_marseille","lat":43.28117,"lon":5.37875,"is_reserved":false,"is_disabled":false,"rental_uris":{"android":"levelo://app?vid=31281794-86da-43f1-be4d-cec41a15e4cd","ios":"levelo://app?vid=31281794-86da-43f1-be4d-cec41a15e4cd"},"vehicle_type_id":"4","last_reported":1744844946,"current_range_meters":20000,"station_id":"ce4bha12rcd13ifvqee0","pricing_plan_id":"cebpf4jnsgd1na2vs0mg"},{"bike_id":"84ad3fe7-f181-4334-ae1e-26549de53940","system_id":"levelo_inurba_marseille","lat":43.28457,"lon":5.35878,"is_reserved":false,"is_disabled":false,"rental_uris":{"android":"levelo://app?vid=84ad3fe7-f181-4334-ae1e-26549de53940","ios":"levelo://app?vid=84ad3fe7-f181-4334-ae1e-26549de53940"},"vehicle_type_id":"4","last_reported":1744844946,"current_range_meters":20000,"station_id":"ce4bhah2rcd13ifvqei0","pricing_plan_id":"cebpf4jnsgd1na2vs0mg"},{"bike_id":"d0ea97a0-822d-4e50-ad21-95eb2e1560c0","system_id":"levelo_inurba_marseille","lat":43.2583,"lon":5.39423,"is_reserved":false,"is_disabled":false,"rental_uris":{"android":"levelo://app?vid=d0ea97a0-822d-4e50-ad21-95eb2e1560c0","ios":"levelo://app?vid=d0ea97a0-822d-4e50-ad21-95eb2e1560c0"},"vehicle_type_id":"4","last_reported":1744844946,"current_range_meters":20000,"station_id":"ce4bhip2rcd13ifvqft0","pricing_plan_id":"cebpf4jnsgd1na2vs0mg"},{"bike_id":"c469ad3f-77ba-4f88-848e-bf9de29c8a72","system_id":"levelo_inurba_marseille","lat":43.31461,"lon":5.37386,"is_reserved":false,"is_disabled":false,"rental_uris":{"android":"levelo://app?vid=c469ad3f-77ba-4f88-848e-bf9de29c8a72","ios":"levelo://app?vid=c469ad3f-77ba-4f88-848e-bf9de29c8a72"},"vehicle_type_id":"4","last_reported":1744844946,"current_range_meters":20400,"station_id":"","pricing_plan_id":"cebpf4jnsgd1na2vs0mg"},{"bike_id":"4a8f1535-eefd-4bde-a773-183990d1cdd4","system_id":"levelo_inurba_marseille","lat":43.30252,"lon":5.40087,"is_reserved":false,"is_disabled":false,"rental_uris":{"android":"levelo://app?vid=4a8f1535-eefd-4bde-a773-183990d1cdd4","ios":"levelo://app?vid=4a8f1535-eefd-4bde-a773-183990d1cdd4"},"vehicle_type_id":"4","last_reported":1744844946,"current_range_meters":20400,"station_id":"ce4bgvh2rcd13ifvqcs0","pricing_plan_id":"cebpf4jnsgd1na2vs0mg"},{"bike_id":"c8622233-5825-4cce-ad31-9ac0f6854c02","system_id":"levelo_inurba_marseille","lat":43.28854,"lon":5.35841,"is_reserved":false,"is_disabled":false,"rental_uris":{"android":"levelo://app?vid=c8622233-5825-4cce-ad31-9ac0f6854c02","ios":"levelo://app?vid=c8622233-5825-4cce-ad31-9ac0f6854c02"},"vehicle_type_id":"4","last_reported":1744844946,"current_range_meters":20400,"station_id":"ce4bhb12rcd13ifvqem0","pricing_plan_id":"cebpf4jnsgd1na2vs0mg"},{"bike_id":"7d4a7fce-596b-40a1-bf8e-35f954a39aba","system_id":"levelo_inurba_marseille","lat":43.24797,"lon":5.37454,"is_reserved":false,"is_disabled":false,"rental_uris":{"android":"levelo://app?vid=7d4a7fce-596b-40a1-bf8e-35f954a39aba","ios":"levelo://app?vid=7d4a7fce-596b-40a1-bf8e-35f954a39aba"},"vehicle_type_id":"4","last_reported":1744844946,"current_range_meters":20400,"station_id":"ce4bhgh2rcd13ifvqfb0","pricing_plan_id":"cebpf4jnsgd1na2vs0mg"},{"bike_id":"4b766682-d2f8-40ff-99c8-adabc4d6c4a8","system_id":"levelo_inurba_marseille","lat":43.2979,"lon":5.39354,"is_reserved":false,"is_disabled":false,"rental_uris":{"android":"levelo://app?vid=4b766682-d2f8-40ff-99c8-adabc4d6c4a8","ios":"levelo://app?vid=4b766682-d2f8-40ff-99c8-adabc4d6c4a8"},"vehicle_type_id":"4","last_reported":1744844946,"current_range_meters":20400,"station_id":"chh1huq6cuj3fo74tm60","pricing_plan_id":"cebpf4jnsgd1na2vs0mg"},{"bike_id":"92194084-ec06-47a7-83e4-0f79cd022e22","system_id":"levelo_inurba_marseille","lat":43.31269,"lon":5.40166,"is_reserved":false,"is_disabled":false,"rental_uris":{"android":"levelo://app?vid=92194084-ec06-47a7-83e4-0f79cd022e22","ios":"levelo://app?vid=92194084-ec06-47a7-83e4-0f79cd022e22"},"vehicle_type_id":"4","last_reported":1744844946,"current_range_meters":20800,"station_id":"ce4bh092rcd13ifvqd30","pricing_plan_id":"cebpf4jnsgd1na2vs0mg"},{"bike_id":"8fb8db65-2b1d-4ee2-a4a9-94f09782265d","system_id":"levelo_inurba_marseille","lat":43.29794,"lon":5.40405,"is_reserved":false,"is_disabled":false,"rental_uris":{"android":"levelo://app?vid=8fb8db65-2b1d-4ee2-a4a9-94f09782265d","ios":"levelo://app?vid=8fb8db65-2b1d-4ee2-a4a9-94f09782265d"},"vehicle_type_id":"4","last_reported":1744844946,"current_range_meters":20800,"station_id":"ce4bh112rcd13ifvqd90","pricing_plan_id":"cebpf4jnsgd1na2vs0mg"},{"bike_id":"d730f088-69e0-4a92-ad04-1d1ab5c466b5","system_id":"levelo_inurba_marseille","lat":43.294544,"lon":5.400971,"is_reserved":false,"is_disabled":false,"rental_uris":{"android":"levelo://app?vid=d730f088-69e0-4a92-ad04-1d1ab5c466b5","ios":"levelo://app?vid=d730f088-69e0-4a92-ad04-1d1ab5c466b5"},"vehicle_type_id":"4","last_reported":1744844946,"current_range_meters":20800,"station_id":"ce4bhip2rcd13ifvqft0","pricing_plan_id":"cebpf4jnsgd1na2vs0mg"},{"bike_id":"3eb8d19d-dc63-48a7-802c-6f59b7f4ce2f","system_id":"levelo_inurba_marseille","lat":43.26231,"lon":5.40469,"is_reserved":false,"is_disabled":false,"rental_uris":{"android":"levelo://app?vid=3eb8d19d-dc63-48a7-802c-6f59b7f4ce2f","ios":"levelo://app?vid=3eb8d19d-dc63-48a7-802c-6f59b7f4ce2f"},"vehicle_type_id":"4","last_reported":1744844946,"current_range_meters":20800,"station_id":"ce4bhmh2rcd13ifvqgmg","pricing_plan_id":"cebpf4jnsgd1na2vs0mg"},{"bike_id":"da7fa63f-899a-4485-a3ea-7992bb7acbb1","system_id":"levelo_inurba_marseille","lat":43.29531,"lon":5.38538,"is_reserved":false,"is_disabled":false,"rental_uris":{"android":"levelo://app?vid=da7fa63f-899a-4485-a3ea-7992bb7acbb1","ios":"levelo://app?vid=da7fa63f-899a-4485-a3ea-7992bb7acbb1"},"vehicle_type_id":"4","last_reported":1744844946,"current_range_meters":21600,"station_id":"ce4bgih2rcd13ifvqba0","pricing_plan_id":"cebpf4jnsgd1na2vs0mg"},{"bike_id":"0113ed11-7a29-404c-8c2e-46e6b3486f36","system_id":"levelo_inurba_marseille","lat":43.31077,"lon":5.38346,"is_reserved":false,"is_disabled":false,"rental_uris":{"android":"levelo://app?vid=0113ed11-7a29-404c-8c2e-46e6b3486f36","ios":"levelo://app?vid=0113ed11-7a29-404c-8c2e-46e6b3486f36"},"vehicle_type_id":"4","last_reported":1744844946,"current_range_meters":21600,"station_id":"ce4bgv92rcd13ifvqcr0","pricing_plan_id":"cebpf4jnsgd1na2vs0mg"},{"bike_id":"d7676a18-4d03-4a89-8def-d9f87f68b92b","system_id":"levelo_inurba_marseille","lat":43.30887,"lon":5.39626,"is_reserved":false,"is_disabled":false,"rental_uris":{"android":"levelo://app?vid=d7676a18-4d03-4a89-8def-d9f87f68b92b","ios":"levelo://app?vid=d7676a18-4d03-4a89-8def-d9f87f68b92b"},"vehicle_type_id":"4","last_reported":1744844946,"current_range_meters":21600,"station_id":"ce4bh012rcd13ifvqcv0","pricing_plan_id":"cebpf4jnsgd1na2vs0mg"},{"bike_id":"f1e90bd1-7b15-4d73-9cf8-b8bcae41f5fb","system_id":"levelo_inurba_marseille","lat":43.29262,"lon":5.409073,"is_reserved":false,"is_disabled":false,"rental_uris":{"android":"levelo://app?vid=f1e90bd1-7b15-4d73-9cf8-b8bcae41f5fb","ios":"levelo://app?vid=f1e90bd1-7b15-4d73-9cf8-b8bcae41f5fb"},"vehicle_type_id":"4","last_reported":1744844946,"current_range_meters":21600,"station_id":"ce4bh192rcd13ifvqdc0","pricing_plan_id":"cebpf4jnsgd1na2vs0mg"},{"bike_id":"1d00456f-29c8-4f2b-94ca-209c3cd1138b","system_id":"levelo_inurba_marseille","lat":43.29447,"lon":5.39752,"is_reserved":false,"is_disabled":false,"rental_uris":{"android":"levelo://app?vid=1d00456f-29c8-4f2b-94ca-209c3cd1138b","ios":"levelo://app?vid=1d00456f-29c8-4f2b-94ca-209c3cd1138b"},"vehicle_type_id":"4","last_reported":1744844946,"current_range_meters":21600,"station_id":"ce4bh3h2rcd13ifvqdo0","pricing_plan_id":"cebpf4jnsgd1na2vs0mg"},{"bike_id":"ef6e9c6f-8f69-4fcf-9727-b556a001e5bc","system_id":"levelo_inurba_marseille","lat":43.29557,"lon":5.4228,"is_reserved":false,"is_disabled":false,"rental_uris":{"android":"levelo://app?vid=ef6e9c6f-8f69-4fcf-9727-b556a001e5bc","ios":"levelo://app?vid=ef6e9c6f-8f69-4fcf-9727-b556a001e5bc"},"vehicle_type_id":"4","last_reported":1744844946,"current_range_meters":21600,"station_id":"ce4bhph2rcd13ifvqhdg","pricing_plan_id":"cebpf4jnsgd1na2vs0mg"},{"bike_id":"2d9b72bb-af7d-431d-9cde-4a3fe902ebe7","system_id":"levelo_inurba_marseille","lat":43.31168,"lon":5.38721,"is_reserved":false,"is_disabled":false,"rental_uris":{"android":"levelo://app?vid=2d9b72bb-af7d-431d-9cde-4a3fe902ebe7","ios":"levelo://app?vid=2d9b72bb-af7d-431d-9cde-4a3fe902ebe7"},"vehicle_type_id":"4","last_reported":1744844946,"current_range_meters":22000,"station_id":"ce4bgv12rcd13ifvqcp0","pricing_plan_id":"cebpf4jnsgd1na2vs0mg"},{"bike_id":"926d437c-ff30-43a8-befb-7e373c75d533","system_id":"levelo_inurba_marseille","lat":43.28452,"lon":5.35885,"is_reserved":false,"is_disabled":false,"rental_uris":{"android":"levelo://app?vid=926d437c-ff30-43a8-befb-7e373c75d533","ios":"levelo://app?vid=926d437c-ff30-43a8-befb-7e373c75d533"},"vehicle_type_id":"4","last_reported":1744844946,"current_range_meters":22000,"station_id":"ce4bhah2rcd13ifvqei0","pricing_plan_id":"cebpf4jnsgd1na2vs0mg"},{"bike_id":"c6adad30-032b-402c-8fa1-3ac335d6b404","system_id":"levelo_inurba_marseille","lat":43.27983,"lon":5.38738,"is_reserved":false,"is_disabled":false,"rental_uris":{"android":"levelo://app?vid=c6adad30-032b-402c-8fa1-3ac335d6b404","ios":"levelo://app?vid=c6adad30-032b-402c-8fa1-3ac335d6b404"},"vehicle_type_id":"4","last_reported":1744844946,"current_range_meters":22000,"station_id":"ce4bhg12rcd13ifvqf80","pricing_plan_id":"cebpf4jnsgd1na2vs0mg"},{"bike_id":"7eb8853e-3665-40f5-8308-1299f0674652","system_id":"levelo_inurba_marseille","lat":43.30385,"lon":5.42499,"is_reserved":false,"is_disabled":false,"rental_uris":{"android":"levelo://app?vid=7eb8853e-3665-40f5-8308-1299f0674652","ios":"levelo://app?vid=7eb8853e-3665-40f5-8308-1299f0674652"},"vehicle_type_id":"4","last_reported":1744844946,"current_range_meters":22000,"station_id":"ce4bhoh2rcd13ifvqh6g","pricing_plan_id":"cebpf4jnsgd1na2vs0mg"},{"bike_id":"7ed91d22-3d5b-4254-83bf-64eb2a7d5481","system_id":"levelo_inurba_marseille","lat":43.22501,"lon":5.34777,"is_reserved":false,"is_disabled":false,"rental_uris":{"android":"levelo://app?vid=7ed91d22-3d5b-4254-83bf-64eb2a7d5481","ios":"levelo://app?vid=7ed91d22-3d5b-4254-83bf-64eb2a7d5481"},"vehicle_type_id":"4","last_reported":1744844946,"current_range_meters":22400,"station_id":"","pricing_plan_id":"cebpf4jnsgd1na2vs0mg"},{"bike_id":"88ff5eb1-99b3-4756-8b5e-280ffad10818","system_id":"levelo_inurba_marseille","lat":43.31072,"lon":5.38344,"is_reserved":false,"is_disabled":false,"rental_uris":{"android":"levelo://app?vid=88ff5eb1-99b3-4756-8b5e-280ffad10818","ios":"levelo://app?vid=88ff5eb1-99b3-4756-8b5e-280ffad10818"},"vehicle_type_id":"4","last_reported":1744844946,"current_range_meters":22400,"station_id":"ce4bgv92rcd13ifvqcr0","pricing_plan_id":"cebpf4jnsgd1na2vs0mg"},{"bike_id":"21f826db-5070-49f5-892f-84f485b6e13f","system_id":"levelo_inurba_marseille","lat":43.30595,"lon":5.393619,"is_reserved":false,"is_disabled":false,"rental_uris":{"android":"levelo://app?vid=21f826db-5070-49f5-892f-84f485b6e13f","ios":"levelo://app?vid=21f826db-5070-49f5-892f-84f485b6e13f"},"vehicle_type_id":"4","last_reported":1744844946,"current_range_meters":22400,"station_id":"ce4bh0p2rcd13ifvqd80","pricing_plan_id":"cebpf4jnsgd1na2vs0mg"},{"bike_id":"421b8527-ab9a-4d48-8e78-647564edc005","system_id":"levelo_inurba_marseille","lat":43.28327,"lon":5.38115,"is_reserved":false,"is_disabled":false,"rental_uris":{"android":"levelo://app?vid=421b8527-ab9a-4d48-8e78-647564edc005","ios":"levelo://app?vid=421b8527-ab9a-4d48-8e78-647564edc005"},"vehicle_type_id":"4","last_reported":1744844946,"current_range_meters":22400,"station_id":"ce4bh412rcd13ifvqdr0","pricing_plan_id":"cebpf4jnsgd1na2vs0mg"},{"bike_id":"345f3b88-e34e-4d48-9f0c-6592661ae354","system_id":"levelo_inurba_marseille","lat":43.2795,"lon":5.41046,"is_reserved":false,"is_disabled":false,"rental_uris":{"android":"levelo://app?vid=345f3b88-e34e-4d48-9f0c-6592661ae354","ios":"levelo://app?vid=345f3b88-e34e-4d48-9f0c-6592661ae354"},"vehicle_type_id":"4","last_reported":1744844946,"current_range_meters":22400,"station_id":"ce4bhnp2rcd13ifvqh0g","pricing_plan_id":"cebpf4jnsgd1na2vs0mg"},{"bike_id":"cc250298-de78-48ca-910c-a354646c94bb","system_id":"levelo_inurba_marseille","lat":43.32013,"lon":5.38163,"is_reserved":false,"is_disabled":false,"rental_uris":{"android":"levelo://app?vid=cc250298-de78-48ca-910c-a354646c94bb","ios":"levelo://app?vid=cc250298-de78-48ca-910c-a354646c94bb"},"vehicle_type_id":"4","last_reported":1744844946,"current_range_meters":22400,"station_id":"ce4bhr12rcd13ifvqhpg","pricing_plan_id":"cebpf4jnsgd1na2vs0mg"},{"bike_id":"74cde955-2aca-408e-b399-855c23c35e00","system_id":"levelo_inurba_marseille","lat":43.29785,"lon":5.39349,"is_reserved":false,"is_disabled":false,"rental_uris":{"android":"levelo://app?vid=74cde955-2aca-408e-b399-855c23c35e00","ios":"levelo://app?vid=74cde955-2aca-408e-b399-855c23c35e00"},"vehicle_type_id":"4","last_reported":1744844946,"current_range_meters":22400,"station_id":"chh1huq6cuj3fo74tm60","pricing_plan_id":"cebpf4jnsgd1na2vs0mg"},{"bike_id":"789c3822-56ca-4769-bcd4-8845bdea2fda","system_id":"levelo_inurba_marseille","lat":43.24168,"lon":5.36389,"is_reserved":false,"is_disabled":false,"rental_uris":{"android":"levelo://app?vid=789c3822-56ca-4769-bcd4-8845bdea2fda","ios":"levelo://app?vid=789c3822-56ca-4769-bcd4-8845bdea2fda"},"vehicle_type_id":"4","last_reported":1744844946,"current_range_meters":22400,"station_id":"cpo36qri1sfpv3e86is0","pricing_plan_id":"cebpf4jnsgd1na2vs0mg"},{"bike_id":"33efbe4e-e642-4271-be29-4926b421ca5b","system_id":"levelo_inurba_marseille","lat":43.241644,"lon":5.363999,"is_reserved":false,"is_disabled":false,"rental_uris":{"android":"levelo://app?vid=33efbe4e-e642-4271-be29-4926b421ca5b","ios":"levelo://app?vid=33efbe4e-e642-4271-be29-4926b421ca5b"},"vehicle_type_id":"4","last_reported":1744844946,"current_range_meters":22400,"station_id":"cpo36qri1sfpv3e86is0","pricing_plan_id":"cebpf4jnsgd1na2vs0mg"},{"bike_id":"3b15e86a-6b6f-4ec6-9418-eeb3ac36c10f","system_id":"levelo_inurba_marseille","lat":43.317475,"lon":5.388425,"is_reserved":false,"is_disabled":false,"rental_uris":{"android":"levelo://app?vid=3b15e86a-6b6f-4ec6-9418-eeb3ac36c10f","ios":"levelo://app?vid=3b15e86a-6b6f-4ec6-9418-eeb3ac36c10f"},"vehicle_type_id":"4","last_reported":1744844946,"current_range_meters":22800,"station_id":"","pricing_plan_id":"cebpf4jnsgd1na2vs0mg"},{"bike_id":"502be047-37e4-42c6-8bec-83a2b4a76b98","system_id":"levelo_inurba_marseille","lat":43.30252,"lon":5.40085,"is_reserved":false,"is_disabled":false,"rental_uris":{"android":"levelo://app?vid=502be047-37e4-42c6-8bec-83a2b4a76b98","ios":"levelo://app?vid=502be047-37e4-42c6-8bec-83a2b4a76b98"},"vehicle_type_id":"4","last_reported":1744844946,"current_range_meters":22800,"station_id":"ce4bgvh2rcd13ifvqcs0","pricing_plan_id":"cebpf4jnsgd1na2vs0mg"},{"bike_id":"0f4056ac-eb73-4412-997d-5d670d6a2981","system_id":"levelo_inurba_marseille","lat":43.2835,"lon":5.38102,"is_reserved":false,"is_disabled":false,"rental_uris":{"android":"levelo://app?vid=0f4056ac-eb73-4412-997d-5d670d6a2981","ios":"levelo://app?vid=0f4056ac-eb73-4412-997d-5d670d6a2981"},"vehicle_type_id":"4","last_reported":1744844946,"current_range_meters":22800,"station_id":"ce4bh412rcd13ifvqdr0","pricing_plan_id":"cebpf4jnsgd1na2vs0mg"},{"bike_id":"49656461-bedc-4f0f-a69f-7ac8c555c02a","system_id":"levelo_inurba_marseille","lat":43.243882,"lon":5.370561,"is_reserved":false,"is_disabled":false,"rental_uris":{"android":"levelo://app?vid=49656461-bedc-4f0f-a69f-7ac8c555c02a","ios":"levelo://app?vid=49656461-bedc-4f0f-a69f-7ac8c555c02a"},"vehicle_type_id":"4","last_reported":1744844946,"current_range_meters":22800,"station_id":"ce4bhhh2rcd13ifvqfk0","pricing_plan_id":"cebpf4jnsgd1na2vs0mg"},{"bike_id":"2a3df68e-728a-4b9c-bbc2-4259a4448e26","system_id":"levelo_inurba_marseille","lat":43.279905,"lon":5.400106,"is_reserved":false,"is_disabled":false,"rental_uris":{"android":"levelo://app?vid=2a3df68e-728a-4b9c-bbc2-4259a4448e26","ios":"levelo://app?vid=2a3df68e-728a-4b9c-bbc2-4259a4448e26"},"vehicle_type_id":"4","last_reported":1744844946,"current_range_meters":22800,"station_id":"ce4bho92rcd13ifvqh4g","pricing_plan_id":"cebpf4jnsgd1na2vs0mg"},{"bike_id":"f9d3fbe6-73e5-424e-af02-f446d5b07152","system_id":"levelo_inurba_marseille","lat":43.21784,"lon":5.34593,"is_reserved":false,"is_disabled":false,"rental_uris":{"android":"levelo://app?vid=f9d3fbe6-73e5-424e-af02-f446d5b07152","ios":"levelo://app?vid=f9d3fbe6-73e5-424e-af02-f446d5b07152"},"vehicle_type_id":"4","last_reported":1744844946,"current_range_meters":23200,"station_id":"","pricing_plan_id":"cebpf4jnsgd1na2vs0mg"},{"bike_id":"e87617ae-6b99-40b9-85b1-d3c6923a68ac","system_id":"levelo_inurba_marseille","lat":43.3033,"lon":5.40439,"is_reserved":false,"is_disabled":false,"rental_uris":{"android":"levelo://app?vid=e87617ae-6b99-40b9-85b1-d3c6923a68ac","ios":"levelo://app?vid=e87617ae-6b99-40b9-85b1-d3c6923a68ac"},"vehicle_type_id":"4","last_reported":1744844946,"current_range_meters":23200,"station_id":"ce4bh012rcd13ifvqd10","pricing_plan_id":"cebpf4jnsgd1na2vs0mg"},{"bike_id":"c2b0291e-bbf6-42ba-9e6a-ba571be0ae46","system_id":"levelo_inurba_marseille","lat":43.30647,"lon":5.40101,"is_reserved":false,"is_disabled":false,"rental_uris":{"android":"levelo://app?vid=c2b0291e-bbf6-42ba-9e6a-ba571be0ae46","ios":"levelo://app?vid=c2b0291e-bbf6-42ba-9e6a-ba571be0ae46"},"vehicle_type_id":"4","last_reported":1744844946,"current_range_meters":23200,"station_id":"ce4bh112rcd13ifvqda0","pricing_plan_id":"cebpf4jnsgd1na2vs0mg"},{"bike_id":"21bbfa58-e5b6-4b2e-b6db-84067baec66b","system_id":"levelo_inurba_marseille","lat":43.29568,"lon":5.39961,"is_reserved":false,"is_disabled":false,"rental_uris":{"android":"levelo://app?vid=21bbfa58-e5b6-4b2e-b6db-84067baec66b","ios":"levelo://app?vid=21bbfa58-e5b6-4b2e-b6db-84067baec66b"},"vehicle_type_id":"4","last_reported":1744844946,"current_range_meters":23200,"station_id":"ce4bh312rcd13ifvqdj0","pricing_plan_id":"cebpf4jnsgd1na2vs0mg"},{"bike_id":"5fda126a-22f8-41ba-814e-a3e97f7a3c4e","system_id":"levelo_inurba_marseille","lat":43.28666,"lon":5.36351,"is_reserved":false,"is_disabled":false,"rental_uris":{"android":"levelo://app?vid=5fda126a-22f8-41ba-814e-a3e97f7a3c4e","ios":"levelo://app?vid=5fda126a-22f8-41ba-814e-a3e97f7a3c4e"},"vehicle_type_id":"4","last_reported":1744844946,"current_range_meters":23200,"station_id":"ce4bhah2rcd13ifvqej0","pricing_plan_id":"cebpf4jnsgd1na2vs0mg"},{"bike_id":"483d38bd-5582-4051-a00e-12dde87472ef","system_id":"levelo_inurba_marseille","lat":43.26058,"lon":5.394,"is_reserved":false,"is_disabled":false,"rental_uris":{"android":"levelo://app?vid=483d38bd-5582-4051-a00e-12dde87472ef","ios":"levelo://app?vid=483d38bd-5582-4051-a00e-12dde87472ef"},"vehicle_type_id":"4","last_reported":1744844946,"current_range_meters":23200,"station_id":"ce4bhh92rcd13ifvqfj0","pricing_plan_id":"cebpf4jnsgd1na2vs0mg"},{"bike_id":"f49b23d8-f4bc-47a8-96e7-11a27acaa310","system_id":"levelo_inurba_marseille","lat":43.28692,"lon":5.39983,"is_reserved":false,"is_disabled":false,"rental_uris":{"android":"levelo://app?vid=f49b23d8-f4bc-47a8-96e7-11a27acaa310","ios":"levelo://app?vid=f49b23d8-f4bc-47a8-96e7-11a27acaa310"},"vehicle_type_id":"4","last_reported":1744844946,"current_range_meters":23200,"station_id":"ce4bho92rcd13ifvqh3g","pricing_plan_id":"cebpf4jnsgd1na2vs0mg"},{"bike_id":"88bfa4d6-b033-456c-a8d9-b51526e39406","system_id":"levelo_inurba_marseille","lat":43.29902,"lon":5.4366,"is_reserved":false,"is_disabled":false,"rental_uris":{"android":"levelo://app?vid=88bfa4d6-b033-456c-a8d9-b51526e39406","ios":"levelo://app?vid=88bfa4d6-b033-456c-a8d9-b51526e39406"},"vehicle_type_id":"4","last_reported":1744844946,"current_range_meters":23200,"station_id":"ce4bhpp2rcd13ifvqhfg","pricing_plan_id":"cebpf4jnsgd1na2vs0mg"},{"bike_id":"68342d9f-f0b6-47e7-b690-b27078e67a77","system_id":"levelo_inurba_marseille","lat":43.241605,"lon":5.364091,"is_reserved":false,"is_disabled":false,"rental_uris":{"android":"levelo://app?vid=68342d9f-f0b6-47e7-b690-b27078e67a77","ios":"levelo://app?vid=68342d9f-f0b6-47e7-b690-b27078e67a77"},"vehicle_type_id":"4","last_reported":1744844946,"current_range_meters":23200,"station_id":"cpo36qri1sfpv3e86is0","pricing_plan_id":"cebpf4jnsgd1na2vs0mg"},{"bike_id":"04cd718a-739b-4f09-8fdf-74e445452766","system_id":"levelo_inurba_marseille","lat":43.31483,"lon":5.37284,"is_reserved":false,"is_disabled":false,"rental_uris":{"android":"levelo://app?vid=04cd718a-739b-4f09-8fdf-74e445452766","ios":"levelo://app?vid=04cd718a-739b-4f09-8fdf-74e445452766"},"vehicle_type_id":"4","last_reported":1744844946,"current_range_meters":24000,"station_id":"ce4bgt12rcd13ifvqcd0","pricing_plan_id":"cebpf4jnsgd1na2vs0mg"},{"bike_id":"79e58b79-0b6b-4842-aa6b-b9cbe4151290","system_id":"levelo_inurba_marseille","lat":43.31115,"lon":5.37777,"is_reserved":false,"is_disabled":false,"rental_uris":{"android":"levelo://app?vid=79e58b79-0b6b-4842-aa6b-b9cbe4151290","ios":"levelo://app?vid=79e58b79-0b6b-4842-aa6b-b9cbe4151290"},"vehicle_type_id":"4","last_reported":1744844946,"current_range_meters":24000,"station_id":"ce4bgt92rcd13ifvqcg0","pricing_plan_id":"cebpf4jnsgd1na2vs0mg"},{"bike_id":"b83e6fab-95bf-4bba-9a56-a617511c4b78","system_id":"levelo_inurba_marseille","lat":43.3026,"lon":5.40058,"is_reserved":false,"is_disabled":false,"rental_uris":{"android":"levelo://app?vid=b83e6fab-95bf-4bba-9a56-a617511c4b78","ios":"levelo://app?vid=b83e6fab-95bf-4bba-9a56-a617511c4b78"},"vehicle_type_id":"4","last_reported":1744844946,"current_range_meters":24000,"station_id":"ce4bgvh2rcd13ifvqcs0","pricing_plan_id":"cebpf4jnsgd1na2vs0mg"},{"bike_id":"96b0ee13-4242-40f6-ab89-563fac05b70c","system_id":"levelo_inurba_marseille","lat":43.30934,"lon":5.40165,"is_reserved":false,"is_disabled":false,"rental_uris":{"android":"levelo://app?vid=96b0ee13-4242-40f6-ab89-563fac05b70c","ios":"levelo://app?vid=96b0ee13-4242-40f6-ab89-563fac05b70c"},"vehicle_type_id":"4","last_reported":1744844946,"current_range_meters":24000,"station_id":"ce4bgvp2rcd13ifvqct0","pricing_plan_id":"cebpf4jnsgd1na2vs0mg"},{"bike_id":"bc9b4d95-5a32-4e67-8662-d0d55606d996","system_id":"levelo_inurba_marseille","lat":43.309,"lon":5.39617,"is_reserved":false,"is_disabled":false,"rental_uris":{"android":"levelo://app?vid=bc9b4d95-5a32-4e67-8662-d0d55606d996","ios":"levelo://app?vid=bc9b4d95-5a32-4e67-8662-d0d55606d996"},"vehicle_type_id":"4","last_reported":1744844946,"current_range_meters":24000,"station_id":"ce4bh012rcd13ifvqcv0","pricing_plan_id":"cebpf4jnsgd1na2vs0mg"},{"bike_id":"4cf9816a-d3d2-47a3-b1bd-70998bd96aff","system_id":"levelo_inurba_marseille","lat":43.29442,"lon":5.39752,"is_reserved":false,"is_disabled":false,"rental_uris":{"android":"levelo://app?vid=4cf9816a-d3d2-47a3-b1bd-70998bd96aff","ios":"levelo://app?vid=4cf9816a-d3d2-47a3-b1bd-70998bd96aff"},"vehicle_type_id":"4","last_reported":1744844946,"current_range_meters":24000,"station_id":"ce4bh3h2rcd13ifvqdo0","pricing_plan_id":"cebpf4jnsgd1na2vs0mg"},{"bike_id":"f47d0f94-8da3-44a8-aa47-8e9634ca35cd","system_id":"levelo_inurba_marseille","lat":43.29223,"lon":5.36066,"is_reserved":false,"is_disabled":false,"rental_uris":{"android":"levelo://app?vid=f47d0f94-8da3-44a8-aa47-8e9634ca35cd","ios":"levelo://app?vid=f47d0f94-8da3-44a8-aa47-8e9634ca35cd"},"vehicle_type_id":"4","last_reported":1744844946,"current_range_meters":24000,"station_id":"ce4bhbh2rcd13ifvqeqg","pricing_plan_id":"cebpf4jnsgd1na2vs0mg"},{"bike_id":"bfc0f2bb-f1f4-4fed-b9af-c547a21d1d5d","system_id":"levelo_inurba_marseille","lat":43.28629,"lon":5.35097,"is_reserved":false,"is_disabled":false,"rental_uris":{"android":"levelo://app?vid=bfc0f2bb-f1f4-4fed-b9af-c547a21d1d5d","ios":"levelo://app?vid=bfc0f2bb-f1f4-4fed-b9af-c547a21d1d5d"},"vehicle_type_id":"4","last_reported":1744844946,"current_range_meters":24000,"station_id":"ce4bhch2rcd13ifvqeug","pricing_plan_id":"cebpf4jnsgd1na2vs0mg"},{"bike_id":"39cdcda5-1688-4ef8-a8ba-562ba29d65b6","system_id":"levelo_inurba_marseille","lat":43.279167,"lon":5.395804,"is_reserved":false,"is_disabled":false,"rental_uris":{"android":"levelo://app?vid=39cdcda5-1688-4ef8-a8ba-562ba29d65b6","ios":"levelo://app?vid=39cdcda5-1688-4ef8-a8ba-562ba29d65b6"},"vehicle_type_id":"4","last_reported":1744844946,"current_range_meters":24000,"station_id":"ce4bhf92rcd13ifvqf40","pricing_plan_id":"cebpf4jnsgd1na2vs0mg"},{"bike_id":"d4a81af1-8a84-4539-aa58-616bfb5c9f39","system_id":"levelo_inurba_marseille","lat":43.24805,"lon":5.37449,"is_reserved":false,"is_disabled":false,"rental_uris":{"android":"levelo://app?vid=d4a81af1-8a84-4539-aa58-616bfb5c9f39","ios":"levelo://app?vid=d4a81af1-8a84-4539-aa58-616bfb5c9f39"},"vehicle_type_id":"4","last_reported":1744844946,"current_range_meters":24000,"station_id":"ce4bhgh2rcd13ifvqfb0","pricing_plan_id":"cebpf4jnsgd1na2vs0mg"},{"bike_id":"7bce0807-93f9-4e13-8b17-c78186d378c3","system_id":"levelo_inurba_marseille","lat":43.26243,"lon":5.40443,"is_reserved":false,"is_disabled":false,"rental_uris":{"android":"levelo://app?vid=7bce0807-93f9-4e13-8b17-c78186d378c3","ios":"levelo://app?vid=7bce0807-93f9-4e13-8b17-c78186d378c3"},"vehicle_type_id":"4","last_reported":1744844946,"current_range_meters":24000,"station_id":"ce4bhmh2rcd13ifvqgmg","pricing_plan_id":"cebpf4jnsgd1na2vs0mg"},{"bike_id":"829ce4a6-dd7c-4bdf-8d60-b533479cab14","system_id":"levelo_inurba_marseille","lat":43.26228,"lon":5.40471,"is_reserved":false,"is_disabled":false,"rental_uris":{"android":"levelo://app?vid=829ce4a6-dd7c-4bdf-8d60-b533479cab14","ios":"levelo://app?vid=829ce4a6-dd7c-4bdf-8d60-b533479cab14"},"vehicle_type_id":"4","last_reported":1744844946,"current_range_meters":24000,"station_id":"ce4bhmh2rcd13ifvqgmg","pricing_plan_id":"cebpf4jnsgd1na2vs0mg"},{"bike_id":"5e6be620-a3d0-49c3-9ff0-b85332cde817","system_id":"levelo_inurba_marseille","lat":43.23199,"lon":5.35562,"is_reserved":false,"is_disabled":false,"rental_uris":{"android":"levelo://app?vid=5e6be620-a3d0-49c3-9ff0-b85332cde817","ios":"levelo://app?vid=5e6be620-a3d0-49c3-9ff0-b85332cde817"},"vehicle_type_id":"4","last_reported":1744844946,"current_range_meters":24000,"station_id":"ce4bhu92rcd13ifvqi70","pricing_plan_id":"cebpf4jnsgd1na2vs0mg"},{"bike_id":"c305c827-8b59-4e6c-91de-4d8a3fcbcac2","system_id":"levelo_inurba_marseille","lat":43.24168,"lon":5.36393,"is_reserved":false,"is_disabled":false,"rental_uris":{"android":"levelo://app?vid=c305c827-8b59-4e6c-91de-4d8a3fcbcac2","ios":"levelo://app?vid=c305c827-8b59-4e6c-91de-4d8a3fcbcac2"},"vehicle_type_id":"4","last_reported":1744844946,"current_range_meters":24000,"station_id":"cpo36qri1sfpv3e86is0","pricing_plan_id":"cebpf4jnsgd1na2vs0mg"},{"bike_id":"111a9116-5ac2-4b6d-93d2-b92f401f8e89","system_id":"levelo_inurba_marseille","lat":43.31863,"lon":5.37472,"is_reserved":false,"is_disabled":false,"rental_uris":{"android":"levelo://app?vid=111a9116-5ac2-4b6d-93d2-b92f401f8e89","ios":"levelo://app?vid=111a9116-5ac2-4b6d-93d2-b92f401f8e89"},"vehicle_type_id":"4","last_reported":1744844946,"current_range_meters":24400,"station_id":"","pricing_plan_id":"cebpf4jnsgd1na2vs0mg"},{"bike_id":"6e2da659-c772-4fec-90dd-b2825c787cb8","system_id":"levelo_inurba_marseille","lat":43.30428,"lon":5.3888,"is_reserved":false,"is_disabled":false,"rental_uris":{"android":"levelo://app?vid=6e2da659-c772-4fec-90dd-b2825c787cb8","ios":"levelo://app?vid=6e2da659-c772-4fec-90dd-b2825c787cb8"},"vehicle_type_id":"4","last_reported":1744844946,"current_range_meters":24400,"station_id":"ce4bgk12rcd13ifvqbi0","pricing_plan_id":"cebpf4jnsgd1na2vs0mg"},{"bike_id":"814988dc-980f-4745-a8c2-a795429afce5","system_id":"levelo_inurba_marseille","lat":43.29713,"lon":5.3661,"is_reserved":false,"is_disabled":false,"rental_uris":{"android":"levelo://app?vid=814988dc-980f-4745-a8c2-a795429afce5","ios":"levelo://app?vid=814988dc-980f-4745-a8c2-a795429afce5"},"vehicle_type_id":"4","last_reported":1744844946,"current_range_meters":24400,"station_id":"ce4bgn12rcd13ifvqbt0","pricing_plan_id":"cebpf4jnsgd1na2vs0mg"},{"bike_id":"2bf4fdfe-fc61-43a8-81f9-f2c1f5848721","system_id":"levelo_inurba_marseille","lat":43.29863,"lon":5.39738,"is_reserved":false,"is_disabled":false,"rental_uris":{"android":"levelo://app?vid=2bf4fdfe-fc61-43a8-81f9-f2c1f5848721","ios":"levelo://app?vid=2bf4fdfe-fc61-43a8-81f9-f2c1f5848721"},"vehicle_type_id":"4","last_reported":1744844946,"current_range_meters":24400,"station_id":"ce4bh0h2rcd13ifvqd50","pricing_plan_id":"cebpf4jnsgd1na2vs0mg"},{"bike_id":"b920fb53-5599-4334-916b-871ce1233830","system_id":"levelo_inurba_marseille","lat":43.26592,"lon":5.39034,"is_reserved":false,"is_disabled":false,"rental_uris":{"android":"levelo://app?vid=b920fb53-5599-4334-916b-871ce1233830","ios":"levelo://app?vid=b920fb53-5599-4334-916b-871ce1233830"},"vehicle_type_id":"4","last_reported":1744844946,"current_range_meters":24400,"station_id":"ce4bhe12rcd13ifvqf30","pricing_plan_id":"cebpf4jnsgd1na2vs0mg"},{"bike_id":"d1a2b493-7d30-4a9c-a02b-dfad0b4f73f7","system_id":"levelo_inurba_marseille","lat":43.24831,"lon":5.37446,"is_reserved":false,"is_disabled":false,"rental_uris":{"android":"levelo://app?vid=d1a2b493-7d30-4a9c-a02b-dfad0b4f73f7","ios":"levelo://app?vid=d1a2b493-7d30-4a9c-a02b-dfad0b4f73f7"},"vehicle_type_id":"4","last_reported":1744844946,"current_range_meters":24400,"station_id":"ce4bhgh2rcd13ifvqfb0","pricing_plan_id":"cebpf4jnsgd1na2vs0mg"},{"bike_id":"b1a40dc4-be56-4cd8-809a-03d48e89c946","system_id":"levelo_inurba_marseille","lat":43.32371,"lon":5.36765,"is_reserved":false,"is_disabled":false,"rental_uris":{"android":"levelo://app?vid=b1a40dc4-be56-4cd8-809a-03d48e89c946","ios":"levelo://app?vid=b1a40dc4-be56-4cd8-809a-03d48e89c946"},"vehicle_type_id":"4","last_reported":1744844946,"current_range_meters":24400,"station_id":"ce4bhsh2rcd13ifvqi2g","pricing_plan_id":"cebpf4jnsgd1na2vs0mg"},{"bike_id":"d05b7cc4-f88b-4d02-ae6c-c344f22c0e5c","system_id":"levelo_inurba_marseille","lat":43.29797,"lon":5.36595,"is_reserved":false,"is_disabled":false,"rental_uris":{"android":"levelo://app?vid=d05b7cc4-f88b-4d02-ae6c-c344f22c0e5c","ios":"levelo://app?vid=d05b7cc4-f88b-4d02-ae6c-c344f22c0e5c"},"vehicle_type_id":"4","last_reported":1744844946,"current_range_meters":24800,"station_id":"","pricing_plan_id":"cebpf4jnsgd1na2vs0mg"},{"bike_id":"91aa591a-3e56-4092-a295-ecb6aebe69eb","system_id":"levelo_inurba_marseille","lat":43.22588,"lon":5.34749,"is_reserved":false,"is_disabled":false,"rental_uris":{"android":"levelo://app?vid=91aa591a-3e56-4092-a295-ecb6aebe69eb","ios":"levelo://app?vid=91aa591a-3e56-4092-a295-ecb6aebe69eb"},"vehicle_type_id":"4","last_reported":1744844946,"current_range_meters":24800,"station_id":"","pricing_plan_id":"cebpf4jnsgd1na2vs0mg"},{"bike_id":"b1e43dc7-e4f8-4d61-a976-0ed9ce29bbb5","system_id":"levelo_inurba_marseille","lat":43.30526,"lon":5.36711,"is_reserved":false,"is_disabled":false,"rental_uris":{"android":"levelo://app?vid=b1e43dc7-e4f8-4d61-a976-0ed9ce29bbb5","ios":"levelo://app?vid=b1e43dc7-e4f8-4d61-a976-0ed9ce29bbb5"},"vehicle_type_id":"4","last_reported":1744844946,"current_range_meters":24800,"station_id":"ce4bgrp2rcd13ifvqc9g","pricing_plan_id":"cebpf4jnsgd1na2vs0mg"},{"bike_id":"873bcab6-b973-48ed-b129-34762c209441","system_id":"levelo_inurba_marseille","lat":43.31473,"lon":5.37275,"is_reserved":false,"is_disabled":false,"rental_uris":{"android":"levelo://app?vid=873bcab6-b973-48ed-b129-34762c209441","ios":"levelo://app?vid=873bcab6-b973-48ed-b129-34762c209441"},"vehicle_type_id":"4","last_reported":1744844946,"current_range_meters":24800,"station_id":"ce4bgt12rcd13ifvqcd0","pricing_plan_id":"cebpf4jnsgd1na2vs0mg"},{"bike_id":"c5324c02-d55e-4a74-98a9-c504f2719cba","system_id":"levelo_inurba_marseille","lat":43.30891,"lon":5.39642,"is_reserved":false,"is_disabled":false,"rental_uris":{"android":"levelo://app?vid=c5324c02-d55e-4a74-98a9-c504f2719cba","ios":"levelo://app?vid=c5324c02-d55e-4a74-98a9-c504f2719cba"},"vehicle_type_id":"4","last_reported":1744844946,"current_range_meters":24800,"station_id":"ce4bh012rcd13ifvqcv0","pricing_plan_id":"cebpf4jnsgd1na2vs0mg"},{"bike_id":"dc8f699c-e3e7-4669-ba42-be1dbdb422ba","system_id":"levelo_inurba_marseille","lat":43.306,"lon":5.39346,"is_reserved":false,"is_disabled":false,"rental_uris":{"android":"levelo://app?vid=dc8f699c-e3e7-4669-ba42-be1dbdb422ba","ios":"levelo://app?vid=dc8f699c-e3e7-4669-ba42-be1dbdb422ba"},"vehicle_type_id":"4","last_reported":1744844946,"current_range_meters":24800,"station_id":"ce4bh0p2rcd13ifvqd80","pricing_plan_id":"cebpf4jnsgd1na2vs0mg"},{"bike_id":"f97a32d6-d529-4d2f-9372-f8d028ee2b18","system_id":"levelo_inurba_marseille","lat":43.28108,"lon":5.37843,"is_reserved":false,"is_disabled":false,"rental_uris":{"android":"levelo://app?vid=f97a32d6-d529-4d2f-9372-f8d028ee2b18","ios":"levelo://app?vid=f97a32d6-d529-4d2f-9372-f8d028ee2b18"},"vehicle_type_id":"4","last_reported":1744844946,"current_range_meters":24800,"station_id":"ce4bha12rcd13ifvqee0","pricing_plan_id":"cebpf4jnsgd1na2vs0mg"},{"bike_id":"e7418951-ceeb-404d-a2d7-c47bf109d0ee","system_id":"levelo_inurba_marseille","lat":43.28461,"lon":5.358857,"is_reserved":false,"is_disabled":false,"rental_uris":{"android":"levelo://app?vid=e7418951-ceeb-404d-a2d7-c47bf109d0ee","ios":"levelo://app?vid=e7418951-ceeb-404d-a2d7-c47bf109d0ee"},"vehicle_type_id":"4","last_reported":1744844946,"current_range_meters":24800,"station_id":"ce4bhah2rcd13ifvqei0","pricing_plan_id":"cebpf4jnsgd1na2vs0mg"},{"bike_id":"c211eda0-2bf1-4f64-a659-aad36c81259a","system_id":"levelo_inurba_marseille","lat":43.28841,"lon":5.35855,"is_reserved":false,"is_disabled":false,"rental_uris":{"android":"levelo://app?vid=c211eda0-2bf1-4f64-a659-aad36c81259a","ios":"levelo://app?vid=c211eda0-2bf1-4f64-a659-aad36c81259a"},"vehicle_type_id":"4","last_reported":1744844946,"current_range_meters":24800,"station_id":"ce4bhb12rcd13ifvqem0","pricing_plan_id":"cebpf4jnsgd1na2vs0mg"},{"bike_id":"1a9aac4e-3d91-4274-a239-65896c06ebd8","system_id":"levelo_inurba_marseille","lat":43.26576,"lon":5.373,"is_reserved":false,"is_disabled":false,"rental_uris":{"android":"levelo://app?vid=1a9aac4e-3d91-4274-a239-65896c06ebd8","ios":"levelo://app?vid=1a9aac4e-3d91-4274-a239-65896c06ebd8"},"vehicle_type_id":"4","last_reported":1744844946,"current_range_meters":24800,"station_id":"ce4bhg12rcd13ifvqf70","pricing_plan_id":"cebpf4jnsgd1na2vs0mg"},{"bike_id":"ef8262a8-de81-4051-b9be-3278dfbce932","system_id":"levelo_inurba_marseille","lat":43.32293,"lon":5.38265,"is_reserved":false,"is_disabled":false,"rental_uris":{"android":"levelo://app?vid=ef8262a8-de81-4051-b9be-3278dfbce932","ios":"levelo://app?vid=ef8262a8-de81-4051-b9be-3278dfbce932"},"vehicle_type_id":"4","last_reported":1744844946,"current_range_meters":24800,"station_id":"ce4bhr12rcd13ifvqhqg","pricing_plan_id":"cebpf4jnsgd1na2vs0mg"},{"bike_id":"80bac1fe-218c-4068-937c-4aa733df023f","system_id":"levelo_inurba_marseille","lat":43.28603,"lon":5.3705,"is_reserved":false,"is_disabled":false,"rental_uris":{"android":"levelo://app?vid=80bac1fe-218c-4068-937c-4aa733df023f","ios":"levelo://app?vid=80bac1fe-218c-4068-937c-4aa733df023f"},"vehicle_type_id":"4","last_reported":1744844946,"current_range_meters":24800,"station_id":"ce4bht12rcd13ifvqi60","pricing_plan_id":"cebpf4jnsgd1na2vs0mg"},{"bike_id":"aea2afb6-112e-4c3a-968a-5eb5aa77e9be","system_id":"levelo_inurba_marseille","lat":43.21189,"lon":5.35089,"is_reserved":false,"is_disabled":false,"rental_uris":{"android":"levelo://app?vid=aea2afb6-112e-4c3a-968a-5eb5aa77e9be","ios":"levelo://app?vid=aea2afb6-112e-4c3a-968a-5eb5aa77e9be"},"vehicle_type_id":"4","last_reported":1744844946,"current_range_meters":24800,"station_id":"st_cvj6sg6p6f1abm77japg","pricing_plan_id":"cebpf4jnsgd1na2vs0mg"},{"bike_id":"afde6100-ca62-4186-95be-e21b648440a3","system_id":"levelo_inurba_marseille","lat":43.29934,"lon":5.36555,"is_reserved":false,"is_disabled":false,"rental_uris":{"android":"levelo://app?vid=afde6100-ca62-4186-95be-e21b648440a3","ios":"levelo://app?vid=afde6100-ca62-4186-95be-e21b648440a3"},"vehicle_type_id":"4","last_reported":1744844946,"current_range_meters":25200,"station_id":"ce4bgm92rcd13ifvqbr0","pricing_plan_id":"cebpf4jnsgd1na2vs0mg"},{"bike_id":"43b7bafb-0f04-4c24-87f7-2058ad461533","system_id":"levelo_inurba_marseille","lat":43.30522,"lon":5.36708,"is_reserved":false,"is_disabled":false,"rental_uris":{"android":"levelo://app?vid=43b7bafb-0f04-4c24-87f7-2058ad461533","ios":"levelo://app?vid=43b7bafb-0f04-4c24-87f7-2058ad461533"},"vehicle_type_id":"4","last_reported":1744844946,"current_range_meters":25200,"station_id":"ce4bgrp2rcd13ifvqc9g","pricing_plan_id":"cebpf4jnsgd1na2vs0mg"},{"bike_id":"ca1ac32f-daa3-46e9-879b-68321276778e","system_id":"levelo_inurba_marseille","lat":43.31126,"lon":5.3776,"is_reserved":false,"is_disabled":false,"rental_uris":{"android":"levelo://app?vid=ca1ac32f-daa3-46e9-879b-68321276778e","ios":"levelo://app?vid=ca1ac32f-daa3-46e9-879b-68321276778e"},"vehicle_type_id":"4","last_reported":1744844946,"current_range_meters":25200,"station_id":"ce4bgt92rcd13ifvqcg0","pricing_plan_id":"cebpf4jnsgd1na2vs0mg"},{"bike_id":"0cf51ce3-d1a9-40a2-80e5-0ff373881409","system_id":"levelo_inurba_marseille","lat":43.31066,"lon":5.38367,"is_reserved":false,"is_disabled":false,"rental_uris":{"android":"levelo://app?vid=0cf51ce3-d1a9-40a2-80e5-0ff373881409","ios":"levelo://app?vid=0cf51ce3-d1a9-40a2-80e5-0ff373881409"},"vehicle_type_id":"4","last_reported":1744844946,"current_range_meters":25200,"station_id":"ce4bgv92rcd13ifvqcr0","pricing_plan_id":"cebpf4jnsgd1na2vs0mg"},{"bike_id":"f1439bbf-3f90-4d8a-b558-ba1d984b3cc6","system_id":"levelo_inurba_marseille","lat":43.30882,"lon":5.39634,"is_reserved":false,"is_disabled":false,"rental_uris":{"android":"levelo://app?vid=f1439bbf-3f90-4d8a-b558-ba1d984b3cc6","ios":"levelo://app?vid=f1439bbf-3f90-4d8a-b558-ba1d984b3cc6"},"vehicle_type_id":"4","last_reported":1744844946,"current_range_meters":25200,"station_id":"ce4bh012rcd13ifvqcv0","pricing_plan_id":"cebpf4jnsgd1na2vs0mg"},{"bike_id":"f0ad0340-2706-495b-9aa6-2660a8a4d5c0","system_id":"levelo_inurba_marseille","lat":43.292558,"lon":5.409128,"is_reserved":false,"is_disabled":false,"rental_uris":{"android":"levelo://app?vid=f0ad0340-2706-495b-9aa6-2660a8a4d5c0","ios":"levelo://app?vid=f0ad0340-2706-495b-9aa6-2660a8a4d5c0"},"vehicle_type_id":"4","last_reported":1744844946,"current_range_meters":25200,"station_id":"ce4bh192rcd13ifvqdc0","pricing_plan_id":"cebpf4jnsgd1na2vs0mg"},{"bike_id":"3447a6b6-8238-4cd4-bed5-f18919495330","system_id":"levelo_inurba_marseille","lat":43.29464,"lon":5.39752,"is_reserved":false,"is_disabled":false,"rental_uris":{"android":"levelo://app?vid=3447a6b6-8238-4cd4-bed5-f18919495330","ios":"levelo://app?vid=3447a6b6-8238-4cd4-bed5-f18919495330"},"vehicle_type_id":"4","last_reported":1744844946,"current_range_meters":25200,"station_id":"ce4bh3h2rcd13ifvqdo0","pricing_plan_id":"cebpf4jnsgd1na2vs0mg"},{"bike_id":"a12fcb40-6a57-41e4-93cc-27db680785df","system_id":"levelo_inurba_marseille","lat":43.28458,"lon":5.35884,"is_reserved":false,"is_disabled":false,"rental_uris":{"android":"levelo://app?vid=a12fcb40-6a57-41e4-93cc-27db680785df","ios":"levelo://app?vid=a12fcb40-6a57-41e4-93cc-27db680785df"},"vehicle_type_id":"4","last_reported":1744844946,"current_range_meters":25200,"station_id":"ce4bhah2rcd13ifvqei0","pricing_plan_id":"cebpf4jnsgd1na2vs0mg"},{"bike_id":"9eb6738d-486c-4d0a-88f4-70b8d81983d1","system_id":"levelo_inurba_marseille","lat":43.21756,"lon":5.346,"is_reserved":false,"is_disabled":false,"rental_uris":{"android":"levelo://app?vid=9eb6738d-486c-4d0a-88f4-70b8d81983d1","ios":"levelo://app?vid=9eb6738d-486c-4d0a-88f4-70b8d81983d1"},"vehicle_type_id":"4","last_reported":1744844946,"current_range_meters":25200,"station_id":"st_cvj6r9ubvosntc0bgbag","pricing_plan_id":"cebpf4jnsgd1na2vs0mg"},{"bike_id":"532963c4-36d6-4595-b3ff-eb9b797f9912","system_id":"levelo_inurba_marseille","lat":43.32034,"lon":5.36797,"is_reserved":false,"is_disabled":false,"rental_uris":{"android":"levelo://app?vid=532963c4-36d6-4595-b3ff-eb9b797f9912","ios":"levelo://app?vid=532963c4-36d6-4595-b3ff-eb9b797f9912"},"vehicle_type_id":"4","last_reported":1744844946,"current_range_meters":25600,"station_id":"","pricing_plan_id":"cebpf4jnsgd1na2vs0mg"},{"bike_id":"c205edf5-cc11-4037-b51a-c04fd0fac98e","system_id":"levelo_inurba_marseille","lat":43.23543,"lon":5.40329,"is_reserved":false,"is_disabled":false,"rental_uris":{"android":"levelo://app?vid=c205edf5-cc11-4037-b51a-c04fd0fac98e","ios":"levelo://app?vid=c205edf5-cc11-4037-b51a-c04fd0fac98e"},"vehicle_type_id":"4","last_reported":1744844946,"current_range_meters":25600,"station_id":"","pricing_plan_id":"cebpf4jnsgd1na2vs0mg"},{"bike_id":"5e9aba98-7f2a-46bc-92ca-62cdc3d12e72","system_id":"levelo_inurba_marseille","lat":43.3107,"lon":5.38349,"is_reserved":false,"is_disabled":false,"rental_uris":{"android":"levelo://app?vid=5e9aba98-7f2a-46bc-92ca-62cdc3d12e72","ios":"levelo://app?vid=5e9aba98-7f2a-46bc-92ca-62cdc3d12e72"},"vehicle_type_id":"4","last_reported":1744844946,"current_range_meters":25600,"station_id":"ce4bgv92rcd13ifvqcr0","pricing_plan_id":"cebpf4jnsgd1na2vs0mg"},{"bike_id":"e17fb8f6-7851-4a7a-be31-c6d1d98e0415","system_id":"levelo_inurba_marseille","lat":43.317,"lon":5.40472,"is_reserved":false,"is_disabled":false,"rental_uris":{"android":"levelo://app?vid=e17fb8f6-7851-4a7a-be31-c6d1d98e0415","ios":"levelo://app?vid=e17fb8f6-7851-4a7a-be31-c6d1d98e0415"},"vehicle_type_id":"4","last_reported":1744844946,"current_range_meters":25600,"station_id":"ce4bh012rcd13ifvqd00","pricing_plan_id":"cebpf4jnsgd1na2vs0mg"},{"bike_id":"502cdd58-3738-4fdd-93ed-6435f3ced9d8","system_id":"levelo_inurba_marseille","lat":43.291912,"lon":5.39324,"is_reserved":false,"is_disabled":false,"rental_uris":{"android":"levelo://app?vid=502cdd58-3738-4fdd-93ed-6435f3ced9d8","ios":"levelo://app?vid=502cdd58-3738-4fdd-93ed-6435f3ced9d8"},"vehicle_type_id":"4","last_reported":1744844946,"current_range_meters":25600,"station_id":"ce4bh192rcd13ifvqdd0","pricing_plan_id":"cebpf4jnsgd1na2vs0mg"},{"bike_id":"24213b37-b766-4d9c-a174-f6bf34920497","system_id":"levelo_inurba_marseille","lat":43.28469,"lon":5.384178,"is_reserved":false,"is_disabled":false,"rental_uris":{"android":"levelo://app?vid=24213b37-b766-4d9c-a174-f6bf34920497","ios":"levelo://app?vid=24213b37-b766-4d9c-a174-f6bf34920497"},"vehicle_type_id":"4","last_reported":1744844946,"current_range_meters":25600,"station_id":"ce4bh512rcd13ifvqe3g","pricing_plan_id":"cebpf4jnsgd1na2vs0mg"},{"bike_id":"29e35a8d-d2f2-425d-b20e-677684371f54","system_id":"levelo_inurba_marseille","lat":43.28458,"lon":5.35894,"is_reserved":false,"is_disabled":false,"rental_uris":{"android":"levelo://app?vid=29e35a8d-d2f2-425d-b20e-677684371f54","ios":"levelo://app?vid=29e35a8d-d2f2-425d-b20e-677684371f54"},"vehicle_type_id":"4","last_reported":1744844946,"current_range_meters":25600,"station_id":"ce4bhah2rcd13ifvqei0","pricing_plan_id":"cebpf4jnsgd1na2vs0mg"},{"bike_id":"9b6a0450-86fd-400d-a03a-c181f56bc070","system_id":"levelo_inurba_marseille","lat":43.27941,"lon":5.41039,"is_reserved":false,"is_disabled":false,"rental_uris":{"android":"levelo://app?vid=9b6a0450-86fd-400d-a03a-c181f56bc070","ios":"levelo://app?vid=9b6a0450-86fd-400d-a03a-c181f56bc070"},"vehicle_type_id":"4","last_reported":1744844946,"current_range_meters":25600,"station_id":"ce4bhnp2rcd13ifvqh0g","pricing_plan_id":"cebpf4jnsgd1na2vs0mg"},{"bike_id":"297ab134-5703-40a9-86e2-f5fd3a89e9e1","system_id":"levelo_inurba_marseille","lat":43.29552,"lon":5.42285,"is_reserved":false,"is_disabled":false,"rental_uris":{"android":"levelo://app?vid=297ab134-5703-40a9-86e2-f5fd3a89e9e1","ios":"levelo://app?vid=297ab134-5703-40a9-86e2-f5fd3a89e9e1"},"vehicle_type_id":"4","last_reported":1744844946,"current_range_meters":25600,"station_id":"ce4bhph2rcd13ifvqhdg","pricing_plan_id":"cebpf4jnsgd1na2vs0mg"},{"bike_id":"7e9fbd33-cfb6-44a6-96fc-1f60d0c215f7","system_id":"levelo_inurba_marseille","lat":43.32354,"lon":5.36741,"is_reserved":false,"is_disabled":false,"rental_uris":{"android":"levelo://app?vid=7e9fbd33-cfb6-44a6-96fc-1f60d0c215f7","ios":"levelo://app?vid=7e9fbd33-cfb6-44a6-96fc-1f60d0c215f7"},"vehicle_type_id":"4","last_reported":1744844946,"current_range_meters":25600,"station_id":"ce4bhsh2rcd13ifvqi2g","pricing_plan_id":"cebpf4jnsgd1na2vs0mg"},{"bike_id":"8006db0e-11a9-4516-bc35-9c143e39ac6a","system_id":"levelo_inurba_marseille","lat":43.31166,"lon":5.38703,"is_reserved":false,"is_disabled":false,"rental_uris":{"android":"levelo://app?vid=8006db0e-11a9-4516-bc35-9c143e39ac6a","ios":"levelo://app?vid=8006db0e-11a9-4516-bc35-9c143e39ac6a"},"vehicle_type_id":"4","last_reported":1744844946,"current_range_meters":26000,"station_id":"ce4bgv12rcd13ifvqcp0","pricing_plan_id":"cebpf4jnsgd1na2vs0mg"},{"bike_id":"83ffd0b3-b21f-4dc0-af4e-07b2180e08bd","system_id":"levelo_inurba_marseille","lat":43.3107,"lon":5.38344,"is_reserved":false,"is_disabled":false,"rental_uris":{"android":"levelo://app?vid=83ffd0b3-b21f-4dc0-af4e-07b2180e08bd","ios":"levelo://app?vid=83ffd0b3-b21f-4dc0-af4e-07b2180e08bd"},"vehicle_type_id":"4","last_reported":1744844946,"current_range_meters":26000,"station_id":"ce4bgv92rcd13ifvqcr0","pricing_plan_id":"cebpf4jnsgd1na2vs0mg"},{"bike_id":"7a23c487-8d24-4cb4-a2a0-e97999baac57","system_id":"levelo_inurba_marseille","lat":43.31333,"lon":5.39693,"is_reserved":false,"is_disabled":false,"rental_uris":{"android":"levelo://app?vid=7a23c487-8d24-4cb4-a2a0-e97999baac57","ios":"levelo://app?vid=7a23c487-8d24-4cb4-a2a0-e97999baac57"},"vehicle_type_id":"4","last_reported":1744844946,"current_range_meters":26000,"station_id":"ce4bgvp2rcd13ifvqcu0","pricing_plan_id":"cebpf4jnsgd1na2vs0mg"},{"bike_id":"db7516eb-08da-4d2c-9d08-33663d6dec22","system_id":"levelo_inurba_marseille","lat":43.29876,"lon":5.39729,"is_reserved":false,"is_disabled":false,"rental_uris":{"android":"levelo://app?vid=db7516eb-08da-4d2c-9d08-33663d6dec22","ios":"levelo://app?vid=db7516eb-08da-4d2c-9d08-33663d6dec22"},"vehicle_type_id":"4","last_reported":1744844946,"current_range_meters":26000,"station_id":"ce4bh0h2rcd13ifvqd50","pricing_plan_id":"cebpf4jnsgd1na2vs0mg"},{"bike_id":"cdab0bda-bc51-4925-be56-ee684e64e114","system_id":"levelo_inurba_marseille","lat":43.29878,"lon":5.39742,"is_reserved":false,"is_disabled":false,"rental_uris":{"android":"levelo://app?vid=cdab0bda-bc51-4925-be56-ee684e64e114","ios":"levelo://app?vid=cdab0bda-bc51-4925-be56-ee684e64e114"},"vehicle_type_id":"4","last_reported":1744844946,"current_range_meters":26000,"station_id":"ce4bh0h2rcd13ifvqd50","pricing_plan_id":"cebpf4jnsgd1na2vs0mg"},{"bike_id":"996490fc-0531-45ec-b114-322c3f65ffba","system_id":"levelo_inurba_marseille","lat":43.28423,"lon":5.37509,"is_reserved":false,"is_disabled":false,"rental_uris":{"android":"levelo://app?vid=996490fc-0531-45ec-b114-322c3f65ffba","ios":"levelo://app?vid=996490fc-0531-45ec-b114-322c3f65ffba"},"vehicle_type_id":"4","last_reported":1744844946,"current_range_meters":26000,"station_id":"ce4bh412rcd13ifvqds0","pricing_plan_id":"cebpf4jnsgd1na2vs0mg"},