{"last_updated":1742905147,"ttl":60,"version":"2.2","data":{"bikes":[{"bike_id":"838eeddc-2dd3-404e-9b2d-54d797c4ec6a","system_id":"levelo_inurba_marseille","lat":43.29901,"lon":5.37668,"is_reserved":false,"is_disabled":false,"rental_uris":{"android":"levelo://app?vid=838eeddc-2dd3-404e-9b2d-54d797c4ec6a","ios":"levelo://app?vid=838eeddc-2dd3-404e-9b2d-54d797c4ec6a"},"vehicle_type_id":"4","last_reported":1742905147,"current_range_meters":2800,"station_id":"","pricing_plan_id":"cebpf4jnsgd1na2vs0mg"},{"bike_id":"0814c752-717d-4d82-8dc2-7eb7f3b777fb","system_id":"levelo_inurba_marseille","lat":43.2314,"lon":5.43718,"is_reserved":false,"is_disabled":false,"rental_uris":{"android":"levelo://app?vid=0814c752-717d-4d82-8dc2-7eb7f3b777fb","ios":"levelo://app?vid=0814c752-717d-4d82-8dc2-7eb7f3b777fb"},"vehicle_type_id":"4","last_reported":1742905147,"current_range_meters":2800,"station_id":"ce4bhmp2rcd13ifvqgog","pricing_plan_id":"cebpf4jnsgd1na2vs0mg"},{"bike_id":"85e3b648-8dd7-4edc-a13f-7b859fabecbd","system_id":"levelo_inurba_marseille","lat":43.2572,"lon":5.41112,"is_reserved":false,"is_disabled":false,"rental_uris":{"android":"levelo://app?vid=85e3b648-8dd7-4edc-a13f-7b859fabecbd","ios":"levelo://app?vid=85e3b648-8dd7-4edc-a13f-7b859fabecbd"},"vehicle_type_id":"4","last_reported":1742905147,"current_range_meters":2800,"station_id":"ce4bhkp2rcd13ifvqgd0","pricing_plan_id":"cebpf4jnsgd1na2vs0mg"},{"bike_id":"634c433d-3db3-4fd8-8be9-8b653dae530e","system_id":"levelo_inurba_marseille","lat":43.28042,"lon":5.3899,"is_reserved":false,"is_disabled":true,"rental_uris":{"android":"levelo://app?vid=634c433d-3db3-4fd8-8be9-8b653dae530e","ios":"levelo://app?vid=634c433d-3db3-4fd8-8be9-8b653dae530e"},"vehicle_type_id":"4","last_reported":1742905147,"current_range_meters":2800,"station_id":"","pricing_plan_id":"cebpf4jnsgd1na2vs0mg"},{"bike_id":"63d4ea12-56ec-427a-a889-7e31e63df7d7","system_id":"levelo_inurba_marseille","lat":43.24077,"lon":5.37762,"is_reserved":false,"is_disabled":false,"rental_uris":{"android":"levelo://app?vid=63d4ea12-56ec-427a-a889-7e31e63df7d7","ios":"levelo://app?vid=63d4ea12-56ec-427a-a889-7e31e63df7d7"},"vehicle_type_id":"4","last_reported":1742905147,"current_range_meters":2800,"station_id":"ce4bhnp2rcd13ifvqgvg","pricing_plan_id":"cebpf4jnsgd1na2vs0mg"},{"bike_id":"b171da26-119e-41e1-b2cd-afb442ce6a35","system_id":"levelo_inurba_marseille","lat":43.32357,"lon":5.36759,"is_reserved":false,"is_disabled":false,"rental_uris":{"android":"levelo://app?vid=b171da26-119e-41e1-b2cd-afb442ce6a35","ios":"levelo://app?vid=b171da26-119e-41e1-b2cd-afb442ce6a35"},"vehicle_type_id":"4","last_reported":1742905147,"current_range_meters":3200,"station_id":"ce4bhsh2rcd13ifvqi2g","pricing_plan_id":"cebpf4jnsgd1na2vs0mg"},{"bike_id":"d1257018-446a-4772-b636-eb92013c3d00","system_id":"levelo_inurba_marseille","lat":43.295229,"lon":5.375042,"is_reserved":false,"is_disabled":true,"rental_uris":{"android":"levelo://app?vid=d1257018-446a-4772-b636-eb92013c3d00","ios":"levelo://app?vid=d1257018-446a-4772-b636-eb92013c3d00"},"vehicle_type_id":"4","last_reported":1742905147,"current_range_meters":3200,"station_id":"","pricing_plan_id":"cebpf4jnsgd1na2vs0mg"},{"bike_id":"affeaf50-a083-4582-9c8b-74a50077eefa","system_id":"levelo_inurba_marseille","lat":43.28939,"lon":5.36647,"is_reserved":false,"is_disabled":false,"rental_uris":{"android":"levelo://app?vid=affeaf50-a083-4582-9c8b-74a50077eefa","ios":"levelo://app?vid=affeaf50-a083-4582-9c8b-74a50077eefa"},"vehicle_type_id":"4","last_reported":1742905147,"current_range_meters":3200,"station_id":"ce4bhap2rcd13ifvqek0","pricing_plan_id":"cebpf4jnsgd1na2vs0mg"},{"bike_id":"aaa18adb-908c-4cf3-bd4e-cf29cc62b118","system_id":"levelo_inurba_marseille","lat":43.2501,"lon":5.38938,"is_reserved":false,"is_disabled":false,"rental_uris":{"android":"levelo://app?vid=aaa18adb-908c-4cf3-bd4e-cf29cc62b118","ios":"levelo://app?vid=aaa18adb-908c-4cf3-bd4e-cf29cc62b118"},"vehicle_type_id":"4","last_reported":1742905147,"current_range_meters":2800,"station_id":"ce4bhgp2rcd13ifvqfd0","pricing_plan_id":"cebpf4jnsgd1na2vs0mg"},{"bike_id":"b89d5c58-0d7b-4f4f-8e36-d3e693accc3c","system_id":"levelo_inurba_marseille","lat":43.32368,"lon":5.3677,"is_reserved":false,"is_disabled":false,"rental_uris":{"android":"levelo://app?vid=b89d5c58-0d7b-4f4f-8e36-d3e693accc3c","ios":"levelo://app?vid=b89d5c58-0d7b-4f4f-8e36-d3e693accc3c"},"vehicle_type_id":"4","last_reported":1742905147,"current_range_meters":3600,"station_id":"ce4bhsh2rcd13ifvqi2g","pricing_plan_id":"cebpf4jnsgd1na2vs0mg"},{"bike_id":"de4c04d0-3d47-4849-a84f-a1e3eaac9a85","system_id":"levelo_inurba_marseille","lat":43.29617,"lon":5.37717,"is_reserved":false,"is_disabled":false,"rental_uris":{"android":"levelo://app?vid=de4c04d0-3d47-4849-a84f-a1e3eaac9a85","ios":"levelo://app?vid=de4c04d0-3d47-4849-a84f-a1e3eaac9a85"},"vehicle_type_id":"4","last_reported":1742905147,"current_range_meters":3600,"station_id":"ce4bgi92rcd13ifvqb90","pricing_plan_id":"cebpf4jnsgd1na2vs0mg"},{"bike_id":"e8a8681a-90be-4ab3-80a0-95a4b8b4cbd9","system_id":"levelo_inurba_marseille","lat":43.3122,"lon":5.36842,"is_reserved":false,"is_disabled":false,"rental_uris":{"android":"levelo://app?vid=e8a8681a-90be-4ab3-80a0-95a4b8b4cbd9","ios":"levelo://app?vid=e8a8681a-90be-4ab3-80a0-95a4b8b4cbd9"},"vehicle_type_id":"4","last_reported":1742905147,"current_range_meters":3600,"station_id":"ce4bgl92rcd13ifvqbq0","pricing_plan_id":"cebpf4jnsgd1na2vs0mg"},{"bike_id":"763cfa5b-c33b-448e-9f64-07102448a732","system_id":"levelo_inurba_marseille","lat":43.25852,"lon":5.39954,"is_reserved":false,"is_disabled":true,"rental_uris":{"android":"levelo://app?vid=763cfa5b-c33b-448e-9f64-07102448a732","ios":"levelo://app?vid=763cfa5b-c33b-448e-9f64-07102448a732"},"vehicle_type_id":"4","last_reported":1742905147,"current_range_meters":3600,"station_id":"","pricing_plan_id":"cebpf4jnsgd1na2vs0mg"},{"bike_id":"f1ce7d8f-3deb-4419-9d42-f2afe614a0d2","system_id":"levelo_inurba_marseille","lat":43.303749,"lon":5.406588,"is_reserved":false,"is_disabled":false,"rental_uris":{"android":"levelo://app?vid=f1ce7d8f-3deb-4419-9d42-f2afe614a0d2","ios":"levelo://app?vid=f1ce7d8f-3deb-4419-9d42-f2afe614a0d2"},"vehicle_type_id":"4","last_reported":1742905147,"current_range_meters":4000,"station_id":"ce4bgvh2rcd13ifvqcs0","pricing_plan_id":"cebpf4jnsgd1na2vs0mg"},{"bike_id":"2d8e04ac-9ef7-4394-b98b-ba45d700d364","system_id":"levelo_inurba_marseille","lat":43.29852,"lon":5.36285,"is_reserved":false,"is_disabled":false,"rental_uris":{"android":"levelo://app?vid=2d8e04ac-9ef7-4394-b98b-ba45d700d364","ios":"levelo://app?vid=2d8e04ac-9ef7-4394-b98b-ba45d700d364"},"vehicle_type_id":"4","last_reported":1742905147,"current_range_meters":4000,"station_id":"ce4bgpp2rcd13ifvqc3g","pricing_plan_id":"cebpf4jnsgd1na2vs0mg"},{"bike_id":"92bb1fc5-118c-4033-a95f-6adcd1202a13","system_id":"levelo_inurba_marseille","lat":43.28265,"lon":5.35061,"is_reserved":false,"is_disabled":false,"rental_uris":{"android":"levelo://app?vid=92bb1fc5-118c-4033-a95f-6adcd1202a13","ios":"levelo://app?vid=92bb1fc5-118c-4033-a95f-6adcd1202a13"},"vehicle_type_id":"4","last_reported":1742905147,"current_range_meters":4000,"station_id":"ce4bhbp2rcd13ifvqerg","pricing_plan_id":"cebpf4jnsgd1na2vs0mg"},{"bike_id":"9fc87cb3-4f61-4e11-a37d-bb25cfffc8b7","system_id":"levelo_inurba_marseille","lat":43.23143,"lon":5.43721,"is_reserved":false,"is_disabled":false,"rental_uris":{"android":"levelo://app?vid=9fc87cb3-4f61-4e11-a37d-bb25cfffc8b7","ios":"levelo://app?vid=9fc87cb3-4f61-4e11-a37d-bb25cfffc8b7"},"vehicle_type_id":"4","last_reported":1742905147,"current_range_meters":4400,"station_id":"ce4bhmp2rcd13ifvqgog","pricing_plan_id":"cebpf4jnsgd1na2vs0mg"},{"bike_id":"47e3c75a-3223-4f15-930a-cfddc0b9a272","system_id":"levelo_inurba_marseille","lat":43.29367,"lon":5.3786,"is_reserved":false,"is_disabled":false,"rental_uris":{"android":"levelo://app?vid=47e3c75a-3223-4f15-930a-cfddc0b9a272","ios":"levelo://app?vid=47e3c75a-3223-4f15-930a-cfddc0b9a272"},"vehicle_type_id":"4","last_reported":1742905147,"current_range_meters":4400,"station_id":"ce4bgjh2rcd13ifvqbf0","pricing_plan_id":"cebpf4jnsgd1na2vs0mg"},{"bike_id":"a4a053cd-a415-4c3e-b8a4-84b73cd16b11","system_id":"levelo_inurba_marseille","lat":43.2933,"lon":5.41179,"is_reserved":false,"is_disabled":false,"rental_uris":{"android":"levelo://app?vid=a4a053cd-a415-4c3e-b8a4-84b73cd16b11","ios":"levelo://app?vid=a4a053cd-a415-4c3e-b8a4-84b73cd16b11"},"vehicle_type_id":"4","last_reported":1742905147,"current_range_meters":4400,"station_id":"","pricing_plan_id":"cebpf4jnsgd1na2vs0mg"},{"bike_id":"a0a460eb-34d7-43d6-85ef-87b30455cbf0","system_id":"levelo_inurba_marseille","lat":43.2396,"lon":5.36633,"is_reserved":false,"is_disabled":false,"rental_uris":{"android":"levelo://app?vid=a0a460eb-34d7-43d6-85ef-87b30455cbf0","ios":"levelo://app?vid=a0a460eb-34d7-43d6-85ef-87b30455cbf0"},"vehicle_type_id":"4","last_reported":1742905147,"current_range_meters":4800,"station_id":"ce4bhi12rcd13ifvqfp0","pricing_plan_id":"cebpf4jnsgd1na2vs0mg"},{"bike_id":"38c86b9d-9dd3-4ede-a2a3-f44b312eecca","system_id":"levelo_inurba_marseille","lat":43.31317,"lon":5.36832,"is_reserved":false,"is_disabled":false,"rental_uris":{"android":"levelo://app?vid=38c86b9d-9dd3-4ede-a2a3-f44b312eecca","ios":"levelo://app?vid=38c86b9d-9dd3-4ede-a2a3-f44b312eecca"},"vehicle_type_id":"4","last_reported":1742905147,"current_range_meters":4800,"station_id":"","pricing_plan_id":"cebpf4jnsgd1na2vs0mg"},{"bike_id":"df7dd7d7-ff13-4ea8-ac90-902edbbf44de","system_id":"levelo_inurba_marseille","lat":43.302522,"lon":5.400699,"is_reserved":false,"is_disabled":false,"rental_uris":{"android":"levelo://app?vid=df7dd7d7-ff13-4ea8-ac90-902edbbf44de","ios":"levelo://app?vid=df7dd7d7-ff13-4ea8-ac90-902edbbf44de"},"vehicle_type_id":"4","last_reported":1742905147,"current_range_meters":4800,"station_id":"ce4bgvh2rcd13ifvqcs0","pricing_plan_id":"cebpf4jnsgd1na2vs0mg"},{"bike_id":"ebf86de8-a3f7-4563-b9cd-62f5316ef4ec","system_id":"levelo_inurba_marseille","lat":43.30923,"lon":5.40168,"is_reserved":false,"is_disabled":true,"rental_uris":{"android":"levelo://app?vid=ebf86de8-a3f7-4563-b9cd-62f5316ef4ec","ios":"levelo://app?vid=ebf86de8-a3f7-4563-b9cd-62f5316ef4ec"},"vehicle_type_id":"4","last_reported":1742905147,"current_range_meters":5600,"station_id":"ce4bgvp2rcd13ifvqct0","pricing_plan_id":"cebpf4jnsgd1na2vs0mg"},{"bike_id":"b00ff642-be2e-436c-937d-290e7ef11bc5","system_id":"levelo_inurba_marseille","lat":43.25834,"lon":5.39437,"is_reserved":false,"is_disabled":false,"rental_uris":{"android":"levelo://app?vid=b00ff642-be2e-436c-937d-290e7ef11bc5","ios":"levelo://app?vid=b00ff642-be2e-436c-937d-290e7ef11bc5"},"vehicle_type_id":"4","last_reported":1742905147,"current_range_meters":5600,"station_id":"ce4bhip2rcd13ifvqft0","pricing_plan_id":"cebpf4jnsgd1na2vs0mg"},{"bike_id":"f02a77b8-f810-41ff-bf5b-5ab742b469a7","system_id":"levelo_inurba_marseille","lat":43.23142,"lon":5.43716,"is_reserved":false,"is_disabled":false,"rental_uris":{"android":"levelo://app?vid=f02a77b8-f810-41ff-bf5b-5ab742b469a7","ios":"levelo://app?vid=f02a77b8-f810-41ff-bf5b-5ab742b469a7"},"vehicle_type_id":"4","last_reported":1742905147,"current_range_meters":5600,"station_id":"ce4bhmp2rcd13ifvqgog","pricing_plan_id":"cebpf4jnsgd1na2vs0mg"},{"bike_id":"ffee49a7-9f0c-41f2-8acb-9a1d87caf75b","system_id":"levelo_inurba_marseille","lat":43.24067,"lon":5.37758,"is_reserved":false,"is_disabled":false,"rental_uris":{"android":"levelo://app?vid=ffee49a7-9f0c-41f2-8acb-9a1d87caf75b","ios":"levelo://app?vid=ffee49a7-9f0c-41f2-8acb-9a1d87caf75b"},"vehicle_type_id":"4","last_reported":1742905147,"current_range_meters":5600,"station_id":"ce4bhnp2rcd13ifvqgvg","pricing_plan_id":"cebpf4jnsgd1na2vs0mg"},{"bike_id":"db446e97-cec3-41e0-87fe-cd067f1fc6fd","system_id":"levelo_inurba_marseille","lat":43.29305,"lon":5.37159,"is_reserved":false,"is_disabled":false,"rental_uris":{"android":"levelo://app?vid=db446e97-cec3-41e0-87fe-cd067f1fc6fd","ios":"levelo://app?vid=db446e97-cec3-41e0-87fe-cd067f1fc6fd"},"vehicle_type_id":"4","last_reported":1742905147,"current_range_meters":4800,"station_id":"ce4bgh92rcd13ifvqb40","pricing_plan_id":"cebpf4jnsgd1na2vs0mg"},{"bike_id":"a97d53ca-5a55-4558-a1a6-c8295f2a75ba","system_id":"levelo_inurba_marseille","lat":43.2937,"lon":5.37857,"is_reserved":false,"is_disabled":false,"rental_uris":{"android":"levelo://app?vid=a97d53ca-5a55-4558-a1a6-c8295f2a75ba","ios":"levelo://app?vid=a97d53ca-5a55-4558-a1a6-c8295f2a75ba"},"vehicle_type_id":"4","last_reported":1742905147,"current_range_meters":5600,"station_id":"ce4bgjh2rcd13ifvqbf0","pricing_plan_id":"cebpf4jnsgd1na2vs0mg"},{"bike_id":"2f08ba24-c017-4334-8cd8-6cb49eab4771","system_id":"levelo_inurba_marseille","lat":43.31677,"lon":5.37242,"is_reserved":false,"is_disabled":false,"rental_uris":{"android":"levelo://app?vid=2f08ba24-c017-4334-8cd8-6cb49eab4771","ios":"levelo://app?vid=2f08ba24-c017-4334-8cd8-6cb49eab4771"},"vehicle_type_id":"4","last_reported":1742905147,"current_range_meters":5600,"station_id":"","pricing_plan_id":"cebpf4jnsgd1na2vs0mg"},{"bike_id":"ff2e60d0-cc5d-485b-8b45-8f58e1016574","system_id":"levelo_inurba_marseille","lat":43.26673,"lon":5.38288,"is_reserved":false,"is_disabled":false,"rental_uris":{"android":"levelo://app?vid=ff2e60d0-cc5d-485b-8b45-8f58e1016574","ios":"levelo://app?vid=ff2e60d0-cc5d-485b-8b45-8f58e1016574"},"vehicle_type_id":"4","last_reported":1742905147,"current_range_meters":6000,"station_id":"ce4bhg92rcd13ifvqf90","pricing_plan_id":"cebpf4jnsgd1na2vs0mg"},{"bike_id":"d3d2afd3-f030-4411-814c-6903d408373d","system_id":"levelo_inurba_marseille","lat":43.2782,"lon":5.39224,"is_reserved":false,"is_disabled":false,"rental_uris":{"android":"levelo://app?vid=d3d2afd3-f030-4411-814c-6903d408373d","ios":"levelo://app?vid=d3d2afd3-f030-4411-814c-6903d408373d"},"vehicle_type_id":"4","last_reported":1742905147,"current_range_meters":5600,"station_id":"ce4bhjp2rcd13ifvqga0","pricing_plan_id":"cebpf4jnsgd1na2vs0mg"},{"bike_id":"c0332c51-539f-4436-8122-259d17a5b0db","system_id":"levelo_inurba_marseille","lat":43.240758,"lon":5.377622,"is_reserved":false,"is_disabled":false,"rental_uris":{"android":"levelo://app?vid=c0332c51-539f-4436-8122-259d17a5b0db","ios":"levelo://app?vid=c0332c51-539f-4436-8122-259d17a5b0db"},"vehicle_type_id":"4","last_reported":1742905147,"current_range_meters":6000,"station_id":"ce4bhnp2rcd13ifvqgvg","pricing_plan_id":"cebpf4jnsgd1na2vs0mg"},{"bike_id":"829c7ed3-482a-4d12-8ff9-ca8905c84d22","system_id":"levelo_inurba_marseille","lat":43.305359,"lon":5.384239,"is_reserved":false,"is_disabled":false,"rental_uris":{"android":"levelo://app?vid=829c7ed3-482a-4d12-8ff9-ca8905c84d22","ios":"levelo://app?vid=829c7ed3-482a-4d12-8ff9-ca8905c84d22"},"vehicle_type_id":"4","last_reported":1742905147,"current_range_meters":6400,"station_id":"ce4bgg92rcd13ifvqb30","pricing_plan_id":"cebpf4jnsgd1na2vs0mg"},{"bike_id":"19c4d38c-721f-4a6d-8de0-ad162aee3dc3","system_id":"levelo_inurba_marseille","lat":43.29869,"lon":5.38927,"is_reserved":false,"is_disabled":true,"rental_uris":{"android":"levelo://app?vid=19c4d38c-721f-4a6d-8de0-ad162aee3dc3","ios":"levelo://app?vid=19c4d38c-721f-4a6d-8de0-ad162aee3dc3"},"vehicle_type_id":"4","last_reported":1742905147,"current_range_meters":6400,"station_id":"ce4bh392rcd13ifvqdl0","pricing_plan_id":"cebpf4jnsgd1na2vs0mg"},{"bike_id":"d0de300c-b25d-4431-929e-879e18667c2d","system_id":"levelo_inurba_marseille","lat":43.33082,"lon":5.38696,"is_reserved":false,"is_disabled":false,"rental_uris":{"android":"levelo://app?vid=d0de300c-b25d-4431-929e-879e18667c2d","ios":"levelo://app?vid=d0de300c-b25d-4431-929e-879e18667c2d"},"vehicle_type_id":"4","last_reported":1742905147,"current_range_meters":6400,"station_id":"","pricing_plan_id":"cebpf4jnsgd1na2vs0mg"},{"bike_id":"14845d2c-67e0-4d95-8017-6657bac438ea","system_id":"levelo_inurba_marseille","lat":43.29275,"lon":5.36853,"is_reserved":false,"is_disabled":false,"rental_uris":{"android":"levelo://app?vid=14845d2c-67e0-4d95-8017-6657bac438ea","ios":"levelo://app?vid=14845d2c-67e0-4d95-8017-6657bac438ea"},"vehicle_type_id":"4","last_reported":1742905147,"current_range_meters":6400,"station_id":"ce4bhbp2rcd13ifvqesg","pricing_plan_id":"cebpf4jnsgd1na2vs0mg"},{"bike_id":"1e6667e4-a408-4fde-bc08-2dbe61acaaf1","system_id":"levelo_inurba_marseille","lat":43.28614,"lon":5.35109,"is_reserved":false,"is_disabled":false,"rental_uris":{"android":"levelo://app?vid=1e6667e4-a408-4fde-bc08-2dbe61acaaf1","ios":"levelo://app?vid=1e6667e4-a408-4fde-bc08-2dbe61acaaf1"},"vehicle_type_id":"4","last_reported":1742905147,"current_range_meters":6400,"station_id":"ce4bhch2rcd13ifvqeug","pricing_plan_id":"cebpf4jnsgd1na2vs0mg"},{"bike_id":"7fe9a385-3cb1-429e-bc3b-abab1a23a3a2","system_id":"levelo_inurba_marseille","lat":43.2306,"lon":5.35492,"is_reserved":false,"is_disabled":false,"rental_uris":{"android":"levelo://app?vid=7fe9a385-3cb1-429e-bc3b-abab1a23a3a2","ios":"levelo://app?vid=7fe9a385-3cb1-429e-bc3b-abab1a23a3a2"},"vehicle_type_id":"4","last_reported":1742905147,"current_range_meters":6400,"station_id":"cpo3342slgdg3j2ifvpg","pricing_plan_id":"cebpf4jnsgd1na2vs0mg"},{"bike_id":"df632c8e-92f6-4b8a-9524-6d142d68aad1","system_id":"levelo_inurba_marseille","lat":43.25577,"lon":5.38217,"is_reserved":false,"is_disabled":false,"rental_uris":{"android":"levelo://app?vid=df632c8e-92f6-4b8a-9524-6d142d68aad1","ios":"levelo://app?vid=df632c8e-92f6-4b8a-9524-6d142d68aad1"},"vehicle_type_id":"4","last_reported":1742905147,"current_range_meters":6400,"station_id":"","pricing_plan_id":"cebpf4jnsgd1na2vs0mg"},{"bike_id":"25c2d60a-2a9c-41c9-bd70-7dcc78fdc1f0","system_id":"levelo_inurba_marseille","lat":43.24073,"lon":5.37756,"is_reserved":false,"is_disabled":false,"rental_uris":{"android":"levelo://app?vid=25c2d60a-2a9c-41c9-bd70-7dcc78fdc1f0","ios":"levelo://app?vid=25c2d60a-2a9c-41c9-bd70-7dcc78fdc1f0"},"vehicle_type_id":"4","last_reported":1742905147,"current_range_meters":6000,"station_id":"ce4bhnp2rcd13ifvqgvg","pricing_plan_id":"cebpf4jnsgd1na2vs0mg"},{"bike_id":"0ddc82fe-7fb3-4823-954d-f779883301be","system_id":"levelo_inurba_marseille","lat":43.3119,"lon":5.36805,"is_reserved":false,"is_disabled":false,"rental_uris":{"android":"levelo://app?vid=0ddc82fe-7fb3-4823-954d-f779883301be","ios":"levelo://app?vid=0ddc82fe-7fb3-4823-954d-f779883301be"},"vehicle_type_id":"4","last_reported":1742905147,"current_range_meters":6400,"station_id":"","pricing_plan_id":"cebpf4jnsgd1na2vs0mg"},{"bike_id":"953d76c2-d178-4af5-a877-86a9dcc03ea3","system_id":"levelo_inurba_marseille","lat":43.301453,"lon":5.380823,"is_reserved":false,"is_disabled":false,"rental_uris":{"android":"levelo://app?vid=953d76c2-d178-4af5-a877-86a9dcc03ea3","ios":"levelo://app?vid=953d76c2-d178-4af5-a877-86a9dcc03ea3"},"vehicle_type_id":"4","last_reported":1742905147,"current_range_meters":6800,"station_id":"ce4bhbh2rcd13ifvqeqg","pricing_plan_id":"cebpf4jnsgd1na2vs0mg"},{"bike_id":"1cdb5e5f-6bda-4e07-b645-0554ed59cc39","system_id":"levelo_inurba_marseille","lat":43.25829,"lon":5.39437,"is_reserved":false,"is_disabled":false,"rental_uris":{"android":"levelo://app?vid=1cdb5e5f-6bda-4e07-b645-0554ed59cc39","ios":"levelo://app?vid=1cdb5e5f-6bda-4e07-b645-0554ed59cc39"},"vehicle_type_id":"4","last_reported":1742905147,"current_range_meters":6800,"station_id":"ce4bhip2rcd13ifvqft0","pricing_plan_id":"cebpf4jnsgd1na2vs0mg"},{"bike_id":"a1467c8d-d458-48fa-ae2a-398452ffafde","system_id":"levelo_inurba_marseille","lat":43.31754,"lon":5.39006,"is_reserved":false,"is_disabled":false,"rental_uris":{"android":"levelo://app?vid=a1467c8d-d458-48fa-ae2a-398452ffafde","ios":"levelo://app?vid=a1467c8d-d458-48fa-ae2a-398452ffafde"},"vehicle_type_id":"4","last_reported":1742905147,"current_range_meters":6800,"station_id":"ce4bhqp2rcd13ifvqhng","pricing_plan_id":"cebpf4jnsgd1na2vs0mg"},{"bike_id":"8723922e-320e-4649-af0a-8190d390afa0","system_id":"levelo_inurba_marseille","lat":43.32077,"lon":5.36799,"is_reserved":false,"is_disabled":false,"rental_uris":{"android":"levelo://app?vid=8723922e-320e-4649-af0a-8190d390afa0","ios":"levelo://app?vid=8723922e-320e-4649-af0a-8190d390afa0"},"vehicle_type_id":"4","last_reported":1742905147,"current_range_meters":6800,"station_id":"ce4bhrh2rcd13ifvqhug","pricing_plan_id":"cebpf4jnsgd1na2vs0mg"},{"bike_id":"077f2b93-8f43-4f08-8ace-a02b56488cac","system_id":"levelo_inurba_marseille","lat":43.26222,"lon":5.40453,"is_reserved":false,"is_disabled":false,"rental_uris":{"android":"levelo://app?vid=077f2b93-8f43-4f08-8ace-a02b56488cac","ios":"levelo://app?vid=077f2b93-8f43-4f08-8ace-a02b56488cac"},"vehicle_type_id":"4","last_reported":1742905147,"current_range_meters":6800,"station_id":"ce4bhmh2rcd13ifvqgmg","pricing_plan_id":"cebpf4jnsgd1na2vs0mg"},{"bike_id":"423ece53-0c9a-4215-8bcc-b9583ef0fa65","system_id":"levelo_inurba_marseille","lat":43.26673,"lon":5.38267,"is_reserved":false,"is_disabled":false,"rental_uris":{"android":"levelo://app?vid=423ece53-0c9a-4215-8bcc-b9583ef0fa65","ios":"levelo://app?vid=423ece53-0c9a-4215-8bcc-b9583ef0fa65"},"vehicle_type_id":"4","last_reported":1742905147,"current_range_meters":6800,"station_id":"ce4bhg92rcd13ifvqf90","pricing_plan_id":"cebpf4jnsgd1na2vs0mg"},{"bike_id":"e4088ee9-1819-4edb-a33f-be6e30714bd1","system_id":"levelo_inurba_marseille","lat":43.299,"lon":5.43681,"is_reserved":false,"is_disabled":false,"rental_uris":{"android":"levelo://app?vid=e4088ee9-1819-4edb-a33f-be6e30714bd1","ios":"levelo://app?vid=e4088ee9-1819-4edb-a33f-be6e30714bd1"},"vehicle_type_id":"4","last_reported":1742905147,"current_range_meters":6800,"station_id":"ce4bhpp2rcd13ifvqhfg","pricing_plan_id":"cebpf4jnsgd1na2vs0mg"},{"bike_id":"2462aff4-312c-46a9-ae18-d864ef42c20c","system_id":"levelo_inurba_marseille","lat":43.24179,"lon":5.36398,"is_reserved":false,"is_disabled":false,"rental_uris":{"android":"levelo://app?vid=2462aff4-312c-46a9-ae18-d864ef42c20c","ios":"levelo://app?vid=2462aff4-312c-46a9-ae18-d864ef42c20c"},"vehicle_type_id":"4","last_reported":1742905147,"current_range_meters":7200,"station_id":"cpo36qri1sfpv3e86is0","pricing_plan_id":"cebpf4jnsgd1na2vs0mg"},{"bike_id":"1b8779ee-15bd-411f-8230-66fb3b9d06b8","system_id":"levelo_inurba_marseille","lat":43.29896,"lon":5.43673,"is_reserved":false,"is_disabled":false,"rental_uris":{"android":"levelo://app?vid=1b8779ee-15bd-411f-8230-66fb3b9d06b8","ios":"levelo://app?vid=1b8779ee-15bd-411f-8230-66fb3b9d06b8"},"vehicle_type_id":"4","last_reported":1742905147,"current_range_meters":7200,"station_id":"ce4bhpp2rcd13ifvqhfg","pricing_plan_id":"cebpf4jnsgd1na2vs0mg"},{"bike_id":"7dc2ce58-2478-4a86-96f6-6739fb8065a9","system_id":"levelo_inurba_marseille","lat":43.3095,"lon":5.39032,"is_reserved":false,"is_disabled":false,"rental_uris":{"android":"levelo://app?vid=7dc2ce58-2478-4a86-96f6-6739fb8065a9","ios":"levelo://app?vid=7dc2ce58-2478-4a86-96f6-6739fb8065a9"},"vehicle_type_id":"4","last_reported":1742905147,"current_range_meters":7200,"station_id":"ce4bgup2rcd13ifvqco0","pricing_plan_id":"cebpf4jnsgd1na2vs0mg"},{"bike_id":"bd19e553-e5f5-4b5c-8770-02920f14b999","system_id":"levelo_inurba_marseille","lat":43.31376,"lon":5.36687,"is_reserved":false,"is_disabled":false,"rental_uris":{"android":"levelo://app?vid=bd19e553-e5f5-4b5c-8770-02920f14b999","ios":"levelo://app?vid=bd19e553-e5f5-4b5c-8770-02920f14b999"},"vehicle_type_id":"4","last_reported":1742905147,"current_range_meters":7200,"station_id":"ce4bgr92rcd13ifvqc6g","pricing_plan_id":"cebpf4jnsgd1na2vs0mg"},{"bike_id":"a1088024-3078-40cb-aa97-0e6851c8a91b","system_id":"levelo_inurba_marseille","lat":43.271757,"lon":5.410022,"is_reserved":false,"is_disabled":false,"rental_uris":{"android":"levelo://app?vid=a1088024-3078-40cb-aa97-0e6851c8a91b","ios":"levelo://app?vid=a1088024-3078-40cb-aa97-0e6851c8a91b"},"vehicle_type_id":"4","last_reported":1742905147,"current_range_meters":7200,"station_id":"ce4bhnp2rcd13ifvqgvg","pricing_plan_id":"cebpf4jnsgd1na2vs0mg"},{"bike_id":"7e12ca1b-36c9-4b93-92c0-3a4589cc9871","system_id":"levelo_inurba_marseille","lat":43.28032,"lon":5.36937,"is_reserved":false,"is_disabled":false,"rental_uris":{"android":"levelo://app?vid=7e12ca1b-36c9-4b93-92c0-3a4589cc9871","ios":"levelo://app?vid=7e12ca1b-36c9-4b93-92c0-3a4589cc9871"},"vehicle_type_id":"4","last_reported":1742905147,"current_range_meters":7200,"station_id":"ce4bha12rcd13ifvqef0","pricing_plan_id":"cebpf4jnsgd1na2vs0mg"},{"bike_id":"60a4bfdd-976f-4f2f-a21a-68c4e333ecd6","system_id":"levelo_inurba_marseille","lat":43.23071,"lon":5.35482,"is_reserved":false,"is_disabled":false,"rental_uris":{"android":"levelo://app?vid=60a4bfdd-976f-4f2f-a21a-68c4e333ecd6","ios":"levelo://app?vid=60a4bfdd-976f-4f2f-a21a-68c4e333ecd6"},"vehicle_type_id":"4","last_reported":1742905147,"current_range_meters":7200,"station_id":"cpo3342slgdg3j2ifvpg","pricing_plan_id":"cebpf4jnsgd1na2vs0mg"},{"bike_id":"fbfecbb6-5794-4d9a-9176-1810e4b4a7ef","system_id":"levelo_inurba_marseille","lat":43.23081,"lon":5.35483,"is_reserved":false,"is_disabled":false,"rental_uris":{"android":"levelo://app?vid=fbfecbb6-5794-4d9a-9176-1810e4b4a7ef","ios":"levelo://app?vid=fbfecbb6-5794-4d9a-9176-1810e4b4a7ef"},"vehicle_type_id":"4","last_reported":1742905147,"current_range_meters":7200,"station_id":"cpo3342slgdg3j2ifvpg","pricing_plan_id":"cebpf4jnsgd1na2vs0mg"},{"bike_id":"0abca822-1d14-4526-8289-19b53f2c9bc0","system_id":"levelo_inurba_marseille","lat":43.29421,"lon":5.38619,"is_reserved":false,"is_disabled":false,"rental_uris":{"android":"levelo://app?vid=0abca822-1d14-4526-8289-19b53f2c9bc0","ios":"levelo://app?vid=0abca822-1d14-4526-8289-19b53f2c9bc0"},"vehicle_type_id":"4","last_reported":1742905147,"current_range_meters":7200,"station_id":"ce4bh2h2rcd13ifvqdh0","pricing_plan_id":"cebpf4jnsgd1na2vs0mg"},{"bike_id":"3e089a20-86d8-4244-979c-5b7762bbd749","system_id":"levelo_inurba_marseille","lat":43.32364,"lon":5.38883,"is_reserved":false,"is_disabled":false,"rental_uris":{"android":"levelo://app?vid=3e089a20-86d8-4244-979c-5b7762bbd749","ios":"levelo://app?vid=3e089a20-86d8-4244-979c-5b7762bbd749"},"vehicle_type_id":"4","last_reported":1742905147,"current_range_meters":8000,"station_id":"ce4bhqp2rcd13ifvqhog","pricing_plan_id":"cebpf4jnsgd1na2vs0mg"},{"bike_id":"74d5caef-4f0a-4dd1-8ccd-cedd3cd8ec58","system_id":"levelo_inurba_marseille","lat":43.23158,"lon":5.43704,"is_reserved":false,"is_disabled":false,"rental_uris":{"android":"levelo://app?vid=74d5caef-4f0a-4dd1-8ccd-cedd3cd8ec58","ios":"levelo://app?vid=74d5caef-4f0a-4dd1-8ccd-cedd3cd8ec58"},"vehicle_type_id":"4","last_reported":1742905147,"current_range_meters":8000,"station_id":"ce4bhmp2rcd13ifvqgog","pricing_plan_id":"cebpf4jnsgd1na2vs0mg"},{"bike_id":"3db50893-67a3-44ca-8b6d-9cbedead82bf","system_id":"levelo_inurba_marseille","lat":43.29175,"lon":5.35806,"is_reserved":false,"is_disabled":false,"rental_uris":{"android":"levelo://app?vid=3db50893-67a3-44ca-8b6d-9cbedead82bf","ios":"levelo://app?vid=3db50893-67a3-44ca-8b6d-9cbedead82bf"},"vehicle_type_id":"4","last_reported":1742905147,"current_range_meters":8000,"station_id":"ce4bhb12rcd13ifvqel0","pricing_plan_id":"cebpf4jnsgd1na2vs0mg"},{"bike_id":"f1681b6a-7497-4c7b-a00f-0c281574068a","system_id":"levelo_inurba_marseille","lat":43.30992,"lon":5.37445,"is_reserved":false,"is_disabled":false,"rental_uris":{"android":"levelo://app?vid=f1681b6a-7497-4c7b-a00f-0c281574068a","ios":"levelo://app?vid=f1681b6a-7497-4c7b-a00f-0c281574068a"},"vehicle_type_id":"4","last_reported":1742905147,"current_range_meters":8000,"station_id":"","pricing_plan_id":"cebpf4jnsgd1na2vs0mg"},{"bike_id":"21be2ddd-a33f-4821-9edb-0782de7ee7c9","system_id":"levelo_inurba_marseille","lat":43.23146,"lon":5.43723,"is_reserved":false,"is_disabled":false,"rental_uris":{"android":"levelo://app?vid=21be2ddd-a33f-4821-9edb-0782de7ee7c9","ios":"levelo://app?vid=21be2ddd-a33f-4821-9edb-0782de7ee7c9"},"vehicle_type_id":"4","last_reported":1742905147,"current_range_meters":8000,"station_id":"ce4bhmp2rcd13ifvqgog","pricing_plan_id":"cebpf4jnsgd1na2vs0mg"},{"bike_id":"32562b14-e5d6-4eb6-b7ec-b9b74854824d","system_id":"levelo_inurba_marseille","lat":43.27375,"lon":5.36255,"is_reserved":false,"is_disabled":false,"rental_uris":{"android":"levelo://app?vid=32562b14-e5d6-4eb6-b7ec-b9b74854824d","ios":"levelo://app?vid=32562b14-e5d6-4eb6-b7ec-b9b74854824d"},"vehicle_type_id":"4","last_reported":1742905147,"current_range_meters":8000,"station_id":"ce4bhbh2rcd13ifvqeo0","pricing_plan_id":"cebpf4jnsgd1na2vs0mg"},{"bike_id":"7c38745a-8363-430a-9038-95e058b32091","system_id":"levelo_inurba_marseille","lat":43.27912,"lon":5.38,"is_reserved":false,"is_disabled":false,"rental_uris":{"android":"levelo://app?vid=7c38745a-8363-430a-9038-95e058b32091","ios":"levelo://app?vid=7c38745a-8363-430a-9038-95e058b32091"},"vehicle_type_id":"4","last_reported":1742905147,"current_range_meters":8000,"station_id":"ce4bhf92rcd13ifvqf50","pricing_plan_id":"cebpf4jnsgd1na2vs0mg"},{"bike_id":"cdcf6838-d090-4dac-b0a3-1d1d22543b34","system_id":"levelo_inurba_marseille","lat":43.30527,"lon":5.36703,"is_reserved":false,"is_disabled":false,"rental_uris":{"android":"levelo://app?vid=cdcf6838-d090-4dac-b0a3-1d1d22543b34","ios":"levelo://app?vid=cdcf6838-d090-4dac-b0a3-1d1d22543b34"},"vehicle_type_id":"4","last_reported":1742905147,"current_range_meters":8000,"station_id":"ce4bgrp2rcd13ifvqc9g","pricing_plan_id":"cebpf4jnsgd1na2vs0mg"},{"bike_id":"34e91606-24ea-46ca-9d30-96542033fa41","system_id":"levelo_inurba_marseille","lat":43.29042,"lon":5.356,"is_reserved":false,"is_disabled":false,"rental_uris":{"android":"levelo://app?vid=34e91606-24ea-46ca-9d30-96542033fa41","ios":"levelo://app?vid=34e91606-24ea-46ca-9d30-96542033fa41"},"vehicle_type_id":"4","last_reported":1742905147,"current_range_meters":8000,"station_id":"","pricing_plan_id":"cebpf4jnsgd1na2vs0mg"},{"bike_id":"0dfb0d89-73f2-49b8-91e9-15d856e46939","system_id":"levelo_inurba_marseille","lat":43.24181,"lon":5.3973,"is_reserved":false,"is_disabled":false,"rental_uris":{"android":"levelo://app?vid=0dfb0d89-73f2-49b8-91e9-15d856e46939","ios":"levelo://app?vid=0dfb0d89-73f2-49b8-91e9-15d856e46939"},"vehicle_type_id":"4","last_reported":1742905147,"current_range_meters":8000,"station_id":"ce4bhn12rcd13ifvqgpg","pricing_plan_id":"cebpf4jnsgd1na2vs0mg"},{"bike_id":"11146d89-280c-4ffa-9e2e-3ca463658b6b","system_id":"levelo_inurba_marseille","lat":43.26965,"lon":5.38614,"is_reserved":false,"is_disabled":false,"rental_uris":{"android":"levelo://app?vid=11146d89-280c-4ffa-9e2e-3ca463658b6b","ios":"levelo://app?vid=11146d89-280c-4ffa-9e2e-3ca463658b6b"},"vehicle_type_id":"4","last_reported":1742905147,"current_range_meters":8400,"station_id":"ce4bhh92rcd13ifvqfh0","pricing_plan_id":"cebpf4jnsgd1na2vs0mg"},{"bike_id":"70b493df-b165-4d1e-961d-98ec64c5e50c","system_id":"levelo_inurba_marseille","lat":43.32543,"lon":5.41428,"is_reserved":false,"is_disabled":false,"rental_uris":{"android":"levelo://app?vid=70b493df-b165-4d1e-961d-98ec64c5e50c","ios":"levelo://app?vid=70b493df-b165-4d1e-961d-98ec64c5e50c"},"vehicle_type_id":"4","last_reported":1742905147,"current_range_meters":8400,"station_id":"ce4bhq12rcd13ifvqhhg","pricing_plan_id":"cebpf4jnsgd1na2vs0mg"},{"bike_id":"c9f35259-8a71-4755-b134-b0004533aed9","system_id":"levelo_inurba_marseille","lat":43.3095,"lon":5.39031,"is_reserved":false,"is_disabled":false,"rental_uris":{"android":"levelo://app?vid=c9f35259-8a71-4755-b134-b0004533aed9","ios":"levelo://app?vid=c9f35259-8a71-4755-b134-b0004533aed9"},"vehicle_type_id":"4","last_reported":1742905147,"current_range_meters":8400,"station_id":"ce4bgup2rcd13ifvqco0","pricing_plan_id":"cebpf4jnsgd1na2vs0mg"},{"bike_id":"999d99ba-ef4d-4c97-bb06-c1dc7c5d8e8e","system_id":"levelo_inurba_marseille","lat":43.24079,"lon":5.3776,"is_reserved":false,"is_disabled":false,"rental_uris":{"android":"levelo://app?vid=999d99ba-ef4d-4c97-bb06-c1dc7c5d8e8e","ios":"levelo://app?vid=999d99ba-ef4d-4c97-bb06-c1dc7c5d8e8e"},"vehicle_type_id":"4","last_reported":1742905147,"current_range_meters":8400,"station_id":"ce4bhnp2rcd13ifvqgvg","pricing_plan_id":"cebpf4jnsgd1na2vs0mg"},{"bike_id":"fca94f9d-f3f2-475c-b50b-9b9a5258abff","system_id":"levelo_inurba_marseille","lat":43.29334,"lon":5.41184,"is_reserved":false,"is_disabled":false,"rental_uris":{"android":"levelo://app?vid=fca94f9d-f3f2-475c-b50b-9b9a5258abff","ios":"levelo://app?vid=fca94f9d-f3f2-475c-b50b-9b9a5258abff"},"vehicle_type_id":"4","last_reported":1742905147,"current_range_meters":8400,"station_id":"","pricing_plan_id":"cebpf4jnsgd1na2vs0mg"},{"bike_id":"12dd29f9-5a69-44a7-a6f8-70c66e3f0622","system_id":"levelo_inurba_marseille","lat":43.2848,"lon":5.38401,"is_reserved":false,"is_disabled":false,"rental_uris":{"android":"levelo://app?vid=12dd29f9-5a69-44a7-a6f8-70c66e3f0622","ios":"levelo://app?vid=12dd29f9-5a69-44a7-a6f8-70c66e3f0622"},"vehicle_type_id":"4","last_reported":1742905147,"current_range_meters":8800,"station_id":"ce4bh512rcd13ifvqe3g","pricing_plan_id":"cebpf4jnsgd1na2vs0mg"},{"bike_id":"a0d4632a-7a87-4031-aeeb-061ca0feaca6","system_id":"levelo_inurba_marseille","lat":43.23948,"lon":5.3663,"is_reserved":false,"is_disabled":false,"rental_uris":{"android":"levelo://app?vid=a0d4632a-7a87-4031-aeeb-061ca0feaca6","ios":"levelo://app?vid=a0d4632a-7a87-4031-aeeb-061ca0feaca6"},"vehicle_type_id":"4","last_reported":1742905147,"current_range_meters":8800,"station_id":"ce4bhi12rcd13ifvqfp0","pricing_plan_id":"cebpf4jnsgd1na2vs0mg"},{"bike_id":"fc7dec05-9c04-4a7a-8a7d-4d50d3d4616d","system_id":"levelo_inurba_marseille","lat":43.28365,"lon":5.38635,"is_reserved":false,"is_disabled":false,"rental_uris":{"android":"levelo://app?vid=fc7dec05-9c04-4a7a-8a7d-4d50d3d4616d","ios":"levelo://app?vid=fc7dec05-9c04-4a7a-8a7d-4d50d3d4616d"},"vehicle_type_id":"4","last_reported":1742905147,"current_range_meters":8800,"station_id":"ce4bh492rcd13ifvqdvg","pricing_plan_id":"cebpf4jnsgd1na2vs0mg"},{"bike_id":"ae79105d-199d-4161-9442-d125a615bfc5","system_id":"levelo_inurba_marseille","lat":43.26204,"lon":5.37934,"is_reserved":false,"is_disabled":false,"rental_uris":{"android":"levelo://app?vid=ae79105d-199d-4161-9442-d125a615bfc5","ios":"levelo://app?vid=ae79105d-199d-4161-9442-d125a615bfc5"},"vehicle_type_id":"4","last_reported":1742905147,"current_range_meters":8800,"station_id":"ce4bhjp2rcd13ifvqg90","pricing_plan_id":"cebpf4jnsgd1na2vs0mg"},{"bike_id":"072ba0bb-b661-4d5f-8486-64c950c586a5","system_id":"levelo_inurba_marseille","lat":43.28459,"lon":5.36288,"is_reserved":false,"is_disabled":false,"rental_uris":{"android":"levelo://app?vid=072ba0bb-b661-4d5f-8486-64c950c586a5","ios":"levelo://app?vid=072ba0bb-b661-4d5f-8486-64c950c586a5"},"vehicle_type_id":"4","last_reported":1742905147,"current_range_meters":8800,"station_id":"","pricing_plan_id":"cebpf4jnsgd1na2vs0mg"},{"bike_id":"ef43d9bd-e531-4a59-b8a9-fdc80b41fa34","system_id":"levelo_inurba_marseille","lat":43.31271,"lon":5.40169,"is_reserved":false,"is_disabled":true,"rental_uris":{"android":"levelo://app?vid=ef43d9bd-e531-4a59-b8a9-fdc80b41fa34","ios":"levelo://app?vid=ef43d9bd-e531-4a59-b8a9-fdc80b41fa34"},"vehicle_type_id":"4","last_reported":1742905147,"current_range_meters":8800,"station_id":"ce4bh092rcd13ifvqd30","pricing_plan_id":"cebpf4jnsgd1na2vs0mg"},{"bike_id":"549a4413-cc39-46f9-97a0-45a7dcb723da","system_id":"levelo_inurba_marseille","lat":43.25581,"lon":5.38246,"is_reserved":false,"is_disabled":false,"rental_uris":{"android":"levelo://app?vid=549a4413-cc39-46f9-97a0-45a7dcb723da","ios":"levelo://app?vid=549a4413-cc39-46f9-97a0-45a7dcb723da"},"vehicle_type_id":"4","last_reported":1742905147,"current_range_meters":8800,"station_id":"ce4bhih2rcd13ifvqfs0","pricing_plan_id":"cebpf4jnsgd1na2vs0mg"},{"bike_id":"9e98dd5b-24d0-40b4-b7f1-b2bce7ea64a0","system_id":"levelo_inurba_marseille","lat":43.26946,"lon":5.40267,"is_reserved":false,"is_disabled":false,"rental_uris":{"android":"levelo://app?vid=9e98dd5b-24d0-40b4-b7f1-b2bce7ea64a0","ios":"levelo://app?vid=9e98dd5b-24d0-40b4-b7f1-b2bce7ea64a0"},"vehicle_type_id":"4","last_reported":1742905147,"current_range_meters":8800,"station_id":"cjm6bp8fraef2m0cb0m0","pricing_plan_id":"cebpf4jnsgd1na2vs0mg"},{"bike_id":"16d1a1e8-6833-46ef-8ac2-dd05daf383fb","system_id":"levelo_inurba_marseille","lat":43.23161,"lon":5.43699,"is_reserved":false,"is_disabled":false,"rental_uris":{"android":"levelo://app?vid=16d1a1e8-6833-46ef-8ac2-dd05daf383fb","ios":"levelo://app?vid=16d1a1e8-6833-46ef-8ac2-dd05daf383fb"},"vehicle_type_id":"4","last_reported":1742905147,"current_range_meters":8800,"station_id":"ce4bhmp2rcd13ifvqgog","pricing_plan_id":"cebpf4jnsgd1na2vs0mg"},{"bike_id":"a12928e8-2ec5-48bb-9fe6-e4726f6a2ad5","system_id":"levelo_inurba_marseille","lat":43.23061,"lon":5.35496,"is_reserved":false,"is_disabled":false,"rental_uris":{"android":"levelo://app?vid=a12928e8-2ec5-48bb-9fe6-e4726f6a2ad5","ios":"levelo://app?vid=a12928e8-2ec5-48bb-9fe6-e4726f6a2ad5"},"vehicle_type_id":"4","last_reported":1742905147,"current_range_meters":8800,"station_id":"cpo3342slgdg3j2ifvpg","pricing_plan_id":"cebpf4jnsgd1na2vs0mg"},{"bike_id":"cdeb7ba1-328b-4e47-a5e4-7ff18f4dff25","system_id":"levelo_inurba_marseille","lat":43.31714,"lon":5.43702,"is_reserved":false,"is_disabled":false,"rental_uris":{"android":"levelo://app?vid=cdeb7ba1-328b-4e47-a5e4-7ff18f4dff25","ios":"levelo://app?vid=cdeb7ba1-328b-4e47-a5e4-7ff18f4dff25"},"vehicle_type_id":"4","last_reported":1742905147,"current_range_meters":9200,"station_id":"ce4bhp92rcd13ifvqhcg","pricing_plan_id":"cebpf4jnsgd1na2vs0mg"},{"bike_id":"d0ce6a4c-8c1a-4117-b620-bb8816808dbc","system_id":"levelo_inurba_marseille","lat":43.23967,"lon":5.36628,"is_reserved":false,"is_disabled":false,"rental_uris":{"android":"levelo://app?vid=d0ce6a4c-8c1a-4117-b620-bb8816808dbc","ios":"levelo://app?vid=d0ce6a4c-8c1a-4117-b620-bb8816808dbc"},"vehicle_type_id":"4","last_reported":1742905147,"current_range_meters":9200,"station_id":"ce4bhi12rcd13ifvqfp0","pricing_plan_id":"cebpf4jnsgd1na2vs0mg"},{"bike_id":"397771a1-4912-48f9-b8e1-4cd0cdff55af","system_id":"levelo_inurba_marseille","lat":43.27972,"lon":5.38748,"is_reserved":false,"is_disabled":false,"rental_uris":{"android":"levelo://app?vid=397771a1-4912-48f9-b8e1-4cd0cdff55af","ios":"levelo://app?vid=397771a1-4912-48f9-b8e1-4cd0cdff55af"},"vehicle_type_id":"4","last_reported":1742905147,"current_range_meters":9200,"station_id":"ce4bhg12rcd13ifvqf80","pricing_plan_id":"cebpf4jnsgd1na2vs0mg"},{"bike_id":"715a9bd9-2109-4f59-9c48-0a4306adea55","system_id":"levelo_inurba_marseille","lat":43.3095,"lon":5.39033,"is_reserved":false,"is_disabled":false,"rental_uris":{"android":"levelo://app?vid=715a9bd9-2109-4f59-9c48-0a4306adea55","ios":"levelo://app?vid=715a9bd9-2109-4f59-9c48-0a4306adea55"},"vehicle_type_id":"4","last_reported":1742905147,"current_range_meters":9200,"station_id":"ce4bgup2rcd13ifvqco0","pricing_plan_id":"cebpf4jnsgd1na2vs0mg"},{"bike_id":"ee04d213-c04b-4c4b-a1ad-a8b1135393b4","system_id":"levelo_inurba_marseille","lat":43.30328,"lon":5.40428,"is_reserved":false,"is_disabled":false,"rental_uris":{"android":"levelo://app?vid=ee04d213-c04b-4c4b-a1ad-a8b1135393b4","ios":"levelo://app?vid=ee04d213-c04b-4c4b-a1ad-a8b1135393b4"},"vehicle_type_id":"4","last_reported":1742905147,"current_range_meters":9200,"station_id":"ce4bh012rcd13ifvqd10","pricing_plan_id":"cebpf4jnsgd1na2vs0mg"},{"bike_id":"938c0f4e-65bf-479a-ba6e-fe7a68ff9b08","system_id":"levelo_inurba_marseille","lat":43.26527,"lon":5.37321,"is_reserved":false,"is_disabled":false,"rental_uris":{"android":"levelo://app?vid=938c0f4e-65bf-479a-ba6e-fe7a68ff9b08","ios":"levelo://app?vid=938c0f4e-65bf-479a-ba6e-fe7a68ff9b08"},"vehicle_type_id":"4","last_reported":1742905147,"current_range_meters":9200,"station_id":"","pricing_plan_id":"cebpf4jnsgd1na2vs0mg"},{"bike_id":"c353c957-fbb8-408a-9097-46c8d6b68074","system_id":"levelo_inurba_marseille","lat":43.24187,"lon":5.39726,"is_reserved":false,"is_disabled":false,"rental_uris":{"android":"levelo://app?vid=c353c957-fbb8-408a-9097-46c8d6b68074","ios":"levelo://app?vid=c353c957-fbb8-408a-9097-46c8d6b68074"},"vehicle_type_id":"4","last_reported":1742905147,"current_range_meters":9200,"station_id":"ce4bhn12rcd13ifvqgpg","pricing_plan_id":"cebpf4jnsgd1na2vs0mg"},{"bike_id":"2a99ecb7-4bf0-4c00-89bb-11ff019b8a6d","system_id":"levelo_inurba_marseille","lat":43.22945,"lon":5.35383,"is_reserved":false,"is_disabled":false,"rental_uris":{"android":"levelo://app?vid=2a99ecb7-4bf0-4c00-89bb-11ff019b8a6d","ios":"levelo://app?vid=2a99ecb7-4bf0-4c00-89bb-11ff019b8a6d"},"vehicle_type_id":"4","last_reported":1742905147,"current_range_meters":9600,"station_id":"cpo3532slgdg3j2ikp40","pricing_plan_id":"cebpf4jnsgd1na2vs0mg"},{"bike_id":"1848cf99-7a86-429c-a1af-abe291b1144c","system_id":"levelo_inurba_marseille","lat":43.32483,"lon":5.36607,"is_reserved":false,"is_disabled":false,"rental_uris":{"android":"levelo://app?vid=1848cf99-7a86-429c-a1af-abe291b1144c","ios":"levelo://app?vid=1848cf99-7a86-429c-a1af-abe291b1144c"},"vehicle_type_id":"4","last_reported":1742905147,"current_range_meters":9600,"station_id":"ce4bhs12rcd13ifvqhvg","pricing_plan_id":"cebpf4jnsgd1na2vs0mg"},{"bike_id":"17e74052-fed6-430f-bd20-0cd014fae766","system_id":"levelo_inurba_marseille","lat":43.3108,"lon":5.42428,"is_reserved":false,"is_disabled":false,"rental_uris":{"android":"levelo://app?vid=17e74052-fed6-430f-bd20-0cd014fae766","ios":"levelo://app?vid=17e74052-fed6-430f-bd20-0cd014fae766"},"vehicle_type_id":"4","last_reported":1742905147,"current_range_meters":9600,"station_id":"ce4bhp92rcd13ifvqhag","pricing_plan_id":"cebpf4jnsgd1na2vs0mg"},{"bike_id":"2f9d4598-56e4-4af1-bb48-a9a94a1245e2","system_id":"levelo_inurba_marseille","lat":43.28606,"lon":5.37066,"is_reserved":false,"is_disabled":false,"rental_uris":{"android":"levelo://app?vid=2f9d4598-56e4-4af1-bb48-a9a94a1245e2","ios":"levelo://app?vid=2f9d4598-56e4-4af1-bb48-a9a94a1245e2"},"vehicle_type_id":"4","last_reported":1742905147,"current_range_meters":9600,"station_id":"ce4bht12rcd13ifvqi60","pricing_plan_id":"cebpf4jnsgd1na2vs0mg"},{"bike_id":"b6fd1ec3-47b2-486f-8b84-f71e2b87ecef","system_id":"levelo_inurba_marseille","lat":43.310818,"lon":5.424364,"is_reserved":false,"is_disabled":true,"rental_uris":{"android":"levelo://app?vid=b6fd1ec3-47b2-486f-8b84-f71e2b87ecef","ios":"levelo://app?vid=b6fd1ec3-47b2-486f-8b84-f71e2b87ecef"},"vehicle_type_id":"4","last_reported":1742905147,"current_range_meters":9600,"station_id":"ce4bhp92rcd13ifvqhag","pricing_plan_id":"cebpf4jnsgd1na2vs0mg"},{"bike_id":"826c7459-0189-481e-a049-4c8148533c2d","system_id":"levelo_inurba_marseille","lat":43.24077,"lon":5.37758,"is_reserved":false,"is_disabled":false,"rental_uris":{"android":"levelo://app?vid=826c7459-0189-481e-a049-4c8148533c2d","ios":"levelo://app?vid=826c7459-0189-481e-a049-4c8148533c2d"},"vehicle_type_id":"4","last_reported":1742905147,"current_range_meters":9600,"station_id":"ce4bhnp2rcd13ifvqgvg","pricing_plan_id":"cebpf4jnsgd1na2vs0mg"},{"bike_id":"87f23dd5-8cac-4ce2-ae83-e6065d5f5824","system_id":"levelo_inurba_marseille","lat":43.28273,"lon":5.35067,"is_reserved":false,"is_disabled":false,"rental_uris":{"android":"levelo://app?vid=87f23dd5-8cac-4ce2-ae83-e6065d5f5824","ios":"levelo://app?vid=87f23dd5-8cac-4ce2-ae83-e6065d5f5824"},"vehicle_type_id":"4","last_reported":1742905147,"current_range_meters":9600,"station_id":"ce4bhbp2rcd13ifvqerg","pricing_plan_id":"cebpf4jnsgd1na2vs0mg"},{"bike_id":"d9305c2d-6eea-49f0-8115-5dadef2351a5","system_id":"levelo_inurba_marseille","lat":43.3017,"lon":5.36612,"is_reserved":false,"is_disabled":false,"rental_uris":{"android":"levelo://app?vid=d9305c2d-6eea-49f0-8115-5dadef2351a5","ios":"levelo://app?vid=d9305c2d-6eea-49f0-8115-5dadef2351a5"},"vehicle_type_id":"4","last_reported":1742905147,"current_range_meters":10000,"station_id":"ce4bgrh2rcd13ifvqc8g","pricing_plan_id":"cebpf4jnsgd1na2vs0mg"},{"bike_id":"8871fee1-c30f-4721-bb9f-022f22051a94","system_id":"levelo_inurba_marseille","lat":43.2419,"lon":5.39726,"is_reserved":false,"is_disabled":false,"rental_uris":{"android":"levelo://app?vid=8871fee1-c30f-4721-bb9f-022f22051a94","ios":"levelo://app?vid=8871fee1-c30f-4721-bb9f-022f22051a94"},"vehicle_type_id":"4","last_reported":1742905147,"current_range_meters":10000,"station_id":"ce4bhn12rcd13ifvqgpg","pricing_plan_id":"cebpf4jnsgd1na2vs0mg"},{"bike_id":"c92ac62d-2e46-4289-843a-c760d8da0c94","system_id":"levelo_inurba_marseille","lat":43.25748,"lon":5.41105,"is_reserved":false,"is_disabled":false,"rental_uris":{"android":"levelo://app?vid=c92ac62d-2e46-4289-843a-c760d8da0c94","ios":"levelo://app?vid=c92ac62d-2e46-4289-843a-c760d8da0c94"},"vehicle_type_id":"4","last_reported":1742905147,"current_range_meters":10000,"station_id":"ce4bhkp2rcd13ifvqgd0","pricing_plan_id":"cebpf4jnsgd1na2vs0mg"},{"bike_id":"e3f76d45-4904-44a7-aac2-e04832e991bb","system_id":"levelo_inurba_marseille","lat":43.29974,"lon":5.41324,"is_reserved":false,"is_disabled":true,"rental_uris":{"android":"levelo://app?vid=e3f76d45-4904-44a7-aac2-e04832e991bb","ios":"levelo://app?vid=e3f76d45-4904-44a7-aac2-e04832e991bb"},"vehicle_type_id":"4","last_reported":1742905147,"current_range_meters":10000,"station_id":"ce4bhp12rcd13ifvqh9g","pricing_plan_id":"cebpf4jnsgd1na2vs0mg"},{"bike_id":"0accb7fb-5f16-43fe-acbe-e093ae1cc81b","system_id":"levelo_inurba_marseille","lat":43.25501,"lon":5.3765,"is_reserved":false,"is_disabled":false,"rental_uris":{"android":"levelo://app?vid=0accb7fb-5f16-43fe-acbe-e093ae1cc81b","ios":"levelo://app?vid=0accb7fb-5f16-43fe-acbe-e093ae1cc81b"},"vehicle_type_id":"4","last_reported":1742905147,"current_range_meters":10000,"station_id":"ce4bhh12rcd13ifvqff0","pricing_plan_id":"cebpf4jnsgd1na2vs0mg"},{"bike_id":"ee8a3e81-c753-4ae0-979e-9d66da5cfd09","system_id":"levelo_inurba_marseille","lat":43.29013,"lon":5.35602,"is_reserved":false,"is_disabled":false,"rental_uris":{"android":"levelo://app?vid=ee8a3e81-c753-4ae0-979e-9d66da5cfd09","ios":"levelo://app?vid=ee8a3e81-c753-4ae0-979e-9d66da5cfd09"},"vehicle_type_id":"4","last_reported":1742905147,"current_range_meters":10000,"station_id":"ce4bhb92rcd13ifvqen0","pricing_plan_id":"cebpf4jnsgd1na2vs0mg"},{"bike_id":"df9ca7d4-4051-4f2e-8c84-46c5685400eb","system_id":"levelo_inurba_marseille","lat":43.24075,"lon":5.3776,"is_reserved":false,"is_disabled":false,"rental_uris":{"android":"levelo://app?vid=df9ca7d4-4051-4f2e-8c84-46c5685400eb","ios":"levelo://app?vid=df9ca7d4-4051-4f2e-8c84-46c5685400eb"},"vehicle_type_id":"4","last_reported":1742905147,"current_range_meters":10000,"station_id":"ce4bhnp2rcd13ifvqgvg","pricing_plan_id":"cebpf4jnsgd1na2vs0mg"},{"bike_id":"2f3e2a92-1301-4a27-8eaa-7b0ea525530e","system_id":"levelo_inurba_marseille","lat":43.31697,"lon":5.43699,"is_reserved":false,"is_disabled":false,"rental_uris":{"android":"levelo://app?vid=2f3e2a92-1301-4a27-8eaa-7b0ea525530e","ios":"levelo://app?vid=2f3e2a92-1301-4a27-8eaa-7b0ea525530e"},"vehicle_type_id":"4","last_reported":1742905147,"current_range_meters":10000,"station_id":"","pricing_plan_id":"cebpf4jnsgd1na2vs0mg"},{"bike_id":"1cea0345-5203-450f-a795-3f854fd4a8ad","system_id":"levelo_inurba_marseille","lat":43.28425,"lon":5.35004,"is_reserved":false,"is_disabled":false,"rental_uris":{"android":"levelo://app?vid=1cea0345-5203-450f-a795-3f854fd4a8ad","ios":"levelo://app?vid=1cea0345-5203-450f-a795-3f854fd4a8ad"},"vehicle_type_id":"4","last_reported":1742905147,"current_range_meters":10000,"station_id":"ce4bhbh2rcd13ifvqepg","pricing_plan_id":"cebpf4jnsgd1na2vs0mg"},{"bike_id":"0ead97df-461c-400f-8188-6f4148e09277","system_id":"levelo_inurba_marseille","lat":43.30143,"lon":5.37432,"is_reserved":false,"is_disabled":false,"rental_uris":{"android":"levelo://app?vid=0ead97df-461c-400f-8188-6f4148e09277","ios":"levelo://app?vid=0ead97df-461c-400f-8188-6f4148e09277"},"vehicle_type_id":"4","last_reported":1742905147,"current_range_meters":10000,"station_id":"ce4bgs92rcd13ifvqcc0","pricing_plan_id":"cebpf4jnsgd1na2vs0mg"},{"bike_id":"6556462f-a0bd-41d0-bcdf-82e5a74acd74","system_id":"levelo_inurba_marseille","lat":43.31682,"lon":5.40478,"is_reserved":false,"is_disabled":false,"rental_uris":{"android":"levelo://app?vid=6556462f-a0bd-41d0-bcdf-82e5a74acd74","ios":"levelo://app?vid=6556462f-a0bd-41d0-bcdf-82e5a74acd74"},"vehicle_type_id":"4","last_reported":1742905147,"current_range_meters":10000,"station_id":"ce4bh012rcd13ifvqd00","pricing_plan_id":"cebpf4jnsgd1na2vs0mg"},{"bike_id":"8f208df7-81e0-45c5-bd98-a49c85a38fa2","system_id":"levelo_inurba_marseille","lat":43.30311,"lon":5.36908,"is_reserved":false,"is_disabled":false,"rental_uris":{"android":"levelo://app?vid=8f208df7-81e0-45c5-bd98-a49c85a38fa2","ios":"levelo://app?vid=8f208df7-81e0-45c5-bd98-a49c85a38fa2"},"vehicle_type_id":"4","last_reported":1742905147,"current_range_meters":10000,"station_id":"ce4bgqh2rcd13ifvqc5g","pricing_plan_id":"cebpf4jnsgd1na2vs0mg"},{"bike_id":"b72438e9-2390-4111-af9e-292065faca84","system_id":"levelo_inurba_marseille","lat":43.30291,"lon":5.37719,"is_reserved":false,"is_disabled":false,"rental_uris":{"android":"levelo://app?vid=b72438e9-2390-4111-af9e-292065faca84","ios":"levelo://app?vid=b72438e9-2390-4111-af9e-292065faca84"},"vehicle_type_id":"4","last_reported":1742905147,"current_range_meters":10000,"station_id":"ce4bguh2rcd13ifvqcj0","pricing_plan_id":"cebpf4jnsgd1na2vs0mg"},{"bike_id":"abcbcc0c-a5a3-4163-a648-c084daf34522","system_id":"levelo_inurba_marseille","lat":43.3169,"lon":5.40465,"is_reserved":false,"is_disabled":false,"rental_uris":{"android":"levelo://app?vid=abcbcc0c-a5a3-4163-a648-c084daf34522","ios":"levelo://app?vid=abcbcc0c-a5a3-4163-a648-c084daf34522"},"vehicle_type_id":"4","last_reported":1742905147,"current_range_meters":10000,"station_id":"ce4bh012rcd13ifvqd00","pricing_plan_id":"cebpf4jnsgd1na2vs0mg"},{"bike_id":"bf9315d0-8503-43cc-be5d-2a0d8d6ed54e","system_id":"levelo_inurba_marseille","lat":43.25585,"lon":5.38234,"is_reserved":false,"is_disabled":false,"rental_uris":{"android":"levelo://app?vid=bf9315d0-8503-43cc-be5d-2a0d8d6ed54e","ios":"levelo://app?vid=bf9315d0-8503-43cc-be5d-2a0d8d6ed54e"},"vehicle_type_id":"4","last_reported":1742905147,"current_range_meters":10000,"station_id":"ce4bhih2rcd13ifvqfs0","pricing_plan_id":"cebpf4jnsgd1na2vs0mg"},{"bike_id":"6bb6f1fc-5b4f-4f3d-97c1-f093e7e9a8ef","system_id":"levelo_inurba_marseille","lat":43.23051,"lon":5.35498,"is_reserved":false,"is_disabled":false,"rental_uris":{"android":"levelo://app?vid=6bb6f1fc-5b4f-4f3d-97c1-f093e7e9a8ef","ios":"levelo://app?vid=6bb6f1fc-5b4f-4f3d-97c1-f093e7e9a8ef"},"vehicle_type_id":"4","last_reported":1742905147,"current_range_meters":10000,"station_id":"cpo3342slgdg3j2ifvpg","pricing_plan_id":"cebpf4jnsgd1na2vs0mg"},{"bike_id":"f8d9e271-1395-4359-b702-1bb66f9e2939","system_id":"levelo_inurba_marseille","lat":43.25561,"lon":5.38245,"is_reserved":false,"is_disabled":false,"rental_uris":{"android":"levelo://app?vid=f8d9e271-1395-4359-b702-1bb66f9e2939","ios":"levelo://app?vid=f8d9e271-1395-4359-b702-1bb66f9e2939"},"vehicle_type_id":"4","last_reported":1742905147,"current_range_meters":10800,"station_id":"ce4bhih2rcd13ifvqfs0","pricing_plan_id":"cebpf4jnsgd1na2vs0mg"},{"bike_id":"011be59f-3f7f-4a16-aece-1ff4bbdf6e60","system_id":"levelo_inurba_marseille","lat":43.30141,"lon":5.37425,"is_reserved":false,"is_disabled":false,"rental_uris":{"android":"levelo://app?vid=011be59f-3f7f-4a16-aece-1ff4bbdf6e60","ios":"levelo://app?vid=011be59f-3f7f-4a16-aece-1ff4bbdf6e60"},"vehicle_type_id":"4","last_reported":1742905147,"current_range_meters":10800,"station_id":"ce4bgs92rcd13ifvqcc0","pricing_plan_id":"cebpf4jnsgd1na2vs0mg"},{"bike_id":"225cbe9d-4f8e-432e-b5e7-cd7e14da2d62","system_id":"levelo_inurba_marseille","lat":43.28161,"lon":5.42644,"is_reserved":false,"is_disabled":false,"rental_uris":{"android":"levelo://app?vid=225cbe9d-4f8e-432e-b5e7-cd7e14da2d62","ios":"levelo://app?vid=225cbe9d-4f8e-432e-b5e7-cd7e14da2d62"},"vehicle_type_id":"4","last_reported":1742905147,"current_range_meters":10800,"station_id":"ce4bhnh2rcd13ifvqgug","pricing_plan_id":"cebpf4jnsgd1na2vs0mg"},{"bike_id":"f2f535b6-e0f4-46d6-930e-557eea45b206","system_id":"levelo_inurba_marseille","lat":43.309592,"lon":5.390324,"is_reserved":false,"is_disabled":false,"rental_uris":{"android":"levelo://app?vid=f2f535b6-e0f4-46d6-930e-557eea45b206","ios":"levelo://app?vid=f2f535b6-e0f4-46d6-930e-557eea45b206"},"vehicle_type_id":"4","last_reported":1742905147,"current_range_meters":10800,"station_id":"ce4bgup2rcd13ifvqco0","pricing_plan_id":"cebpf4jnsgd1na2vs0mg"},{"bike_id":"2b60856e-c0e6-4865-8699-341cc1216c76","system_id":"levelo_inurba_marseille","lat":43.23154,"lon":5.43709,"is_reserved":false,"is_disabled":false,"rental_uris":{"android":"levelo://app?vid=2b60856e-c0e6-4865-8699-341cc1216c76","ios":"levelo://app?vid=2b60856e-c0e6-4865-8699-341cc1216c76"},"vehicle_type_id":"4","last_reported":1742905147,"current_range_meters":10800,"station_id":"ce4bhmp2rcd13ifvqgog","pricing_plan_id":"cebpf4jnsgd1na2vs0mg"},{"bike_id":"fdcc714d-c762-4a16-91da-437181feabf2","system_id":"levelo_inurba_marseille","lat":43.26675,"lon":5.38266,"is_reserved":false,"is_disabled":false,"rental_uris":{"android":"levelo://app?vid=fdcc714d-c762-4a16-91da-437181feabf2","ios":"levelo://app?vid=fdcc714d-c762-4a16-91da-437181feabf2"},"vehicle_type_id":"4","last_reported":1742905147,"current_range_meters":10800,"station_id":"ce4bhg92rcd13ifvqf90","pricing_plan_id":"cebpf4jnsgd1na2vs0mg"},{"bike_id":"74406c35-ee35-437d-be26-2d7711378046","system_id":"levelo_inurba_marseille","lat":43.32362,"lon":5.3677,"is_reserved":false,"is_disabled":false,"rental_uris":{"android":"levelo://app?vid=74406c35-ee35-437d-be26-2d7711378046","ios":"levelo://app?vid=74406c35-ee35-437d-be26-2d7711378046"},"vehicle_type_id":"4","last_reported":1742905147,"current_range_meters":10800,"station_id":"ce4bhsh2rcd13ifvqi2g","pricing_plan_id":"cebpf4jnsgd1na2vs0mg"},{"bike_id":"d7c9b119-99cc-4acd-80c4-6ecaf67a26b1","system_id":"levelo_inurba_marseille","lat":43.23054,"lon":5.35514,"is_reserved":false,"is_disabled":false,"rental_uris":{"android":"levelo://app?vid=d7c9b119-99cc-4acd-80c4-6ecaf67a26b1","ios":"levelo://app?vid=d7c9b119-99cc-4acd-80c4-6ecaf67a26b1"},"vehicle_type_id":"4","last_reported":1742905147,"current_range_meters":10800,"station_id":"cpo3342slgdg3j2ifvpg","pricing_plan_id":"cebpf4jnsgd1na2vs0mg"},{"bike_id":"46774e41-cc26-42e2-8ed3-a8ea17d2f850","system_id":"levelo_inurba_marseille","lat":43.31364,"lon":5.36739,"is_reserved":false,"is_disabled":false,"rental_uris":{"android":"levelo://app?vid=46774e41-cc26-42e2-8ed3-a8ea17d2f850","ios":"levelo://app?vid=46774e41-cc26-42e2-8ed3-a8ea17d2f850"},"vehicle_type_id":"4","last_reported":1742905147,"current_range_meters":10800,"station_id":"ce4bgr92rcd13ifvqc6g","pricing_plan_id":"cebpf4jnsgd1na2vs0mg"},{"bike_id":"7075638c-a811-4f0c-9c8d-ffce6dab6f7c","system_id":"levelo_inurba_marseille","lat":43.295721,"lon":5.399988,"is_reserved":false,"is_disabled":false,"rental_uris":{"android":"levelo://app?vid=7075638c-a811-4f0c-9c8d-ffce6dab6f7c","ios":"levelo://app?vid=7075638c-a811-4f0c-9c8d-ffce6dab6f7c"},"vehicle_type_id":"4","last_reported":1742905147,"current_range_meters":10800,"station_id":"ce4bgvh2rcd13ifvqcs0","pricing_plan_id":"cebpf4jnsgd1na2vs0mg"},{"bike_id":"bb58f931-d39b-4674-bcbc-5096c1d815e7","system_id":"levelo_inurba_marseille","lat":43.24167,"lon":5.39732,"is_reserved":false,"is_disabled":false,"rental_uris":{"android":"levelo://app?vid=bb58f931-d39b-4674-bcbc-5096c1d815e7","ios":"levelo://app?vid=bb58f931-d39b-4674-bcbc-5096c1d815e7"},"vehicle_type_id":"4","last_reported":1742905147,"current_range_meters":10800,"station_id":"ce4bhn12rcd13ifvqgpg","pricing_plan_id":"cebpf4jnsgd1na2vs0mg"},{"bike_id":"73a0a519-39af-4e71-b448-297bf556378c","system_id":"levelo_inurba_marseille","lat":43.28004,"lon":5.41667,"is_reserved":false,"is_disabled":false,"rental_uris":{"android":"levelo://app?vid=73a0a519-39af-4e71-b448-297bf556378c","ios":"levelo://app?vid=73a0a519-39af-4e71-b448-297bf556378c"},"vehicle_type_id":"4","last_reported":1742905147,"current_range_meters":10000,"station_id":"ce4bho12rcd13ifvqh1g","pricing_plan_id":"cebpf4jnsgd1na2vs0mg"},{"bike_id":"89e75ed9-7f20-48f7-ad37-e0033e47c633","system_id":"levelo_inurba_marseille","lat":43.24649,"lon":5.38884,"is_reserved":false,"is_disabled":false,"rental_uris":{"android":"levelo://app?vid=89e75ed9-7f20-48f7-ad37-e0033e47c633","ios":"levelo://app?vid=89e75ed9-7f20-48f7-ad37-e0033e47c633"},"vehicle_type_id":"4","last_reported":1742905147,"current_range_meters":10800,"station_id":"ce4bhg12rcd13ifvqf60","pricing_plan_id":"cebpf4jnsgd1na2vs0mg"},{"bike_id":"40541a64-3aa6-45dc-a535-6408706005b3","system_id":"levelo_inurba_marseille","lat":43.2511,"lon":5.40341,"is_reserved":false,"is_disabled":false,"rental_uris":{"android":"levelo://app?vid=40541a64-3aa6-45dc-a535-6408706005b3","ios":"levelo://app?vid=40541a64-3aa6-45dc-a535-6408706005b3"},"vehicle_type_id":"4","last_reported":1742905147,"current_range_meters":11200,"station_id":"ce4bhlh2rcd13ifvqgig","pricing_plan_id":"cebpf4jnsgd1na2vs0mg"},{"bike_id":"69c37b85-792c-471f-afcd-cc8862cd50d8","system_id":"levelo_inurba_marseille","lat":43.27033,"lon":5.40285,"is_reserved":false,"is_disabled":false,"rental_uris":{"android":"levelo://app?vid=69c37b85-792c-471f-afcd-cc8862cd50d8","ios":"levelo://app?vid=69c37b85-792c-471f-afcd-cc8862cd50d8"},"vehicle_type_id":"4","last_reported":1742905147,"current_range_meters":11200,"station_id":"ce4bhk92rcd13ifvqgc0","pricing_plan_id":"cebpf4jnsgd1na2vs0mg"},{"bike_id":"0db522cf-6931-4040-96e3-e6dc59dc2856","system_id":"levelo_inurba_marseille","lat":43.25508,"lon":5.3765,"is_reserved":false,"is_disabled":false,"rental_uris":{"android":"levelo://app?vid=0db522cf-6931-4040-96e3-e6dc59dc2856","ios":"levelo://app?vid=0db522cf-6931-4040-96e3-e6dc59dc2856"},"vehicle_type_id":"4","last_reported":1742905147,"current_range_meters":11200,"station_id":"ce4bhh12rcd13ifvqff0","pricing_plan_id":"cebpf4jnsgd1na2vs0mg"},{"bike_id":"8583bcae-e817-4db7-ab92-448c595780ea","system_id":"levelo_inurba_marseille","lat":43.33029,"lon":5.39029,"is_reserved":false,"is_disabled":false,"rental_uris":{"android":"levelo://app?vid=8583bcae-e817-4db7-ab92-448c595780ea","ios":"levelo://app?vid=8583bcae-e817-4db7-ab92-448c595780ea"},"vehicle_type_id":"4","last_reported":1742905147,"current_range_meters":11200,"station_id":"ce4bhr92rcd13ifvqhrg","pricing_plan_id":"cebpf4jnsgd1na2vs0mg"},{"bike_id":"60f65e09-390c-400f-9737-d490d5270c71","system_id":"levelo_inurba_marseille","lat":43.31086,"lon":5.42432,"is_reserved":false,"is_disabled":false,"rental_uris":{"android":"levelo://app?vid=60f65e09-390c-400f-9737-d490d5270c71","ios":"levelo://app?vid=60f65e09-390c-400f-9737-d490d5270c71"},"vehicle_type_id":"4","last_reported":1742905147,"current_range_meters":11600,"station_id":"ce4bhp92rcd13ifvqhag","pricing_plan_id":"cebpf4jnsgd1na2vs0mg"},{"bike_id":"b10d9903-1c90-4c76-8169-4a0e8b51c3e8","system_id":"levelo_inurba_marseille","lat":43.31234,"lon":5.36885,"is_reserved":false,"is_disabled":false,"rental_uris":{"android":"levelo://app?vid=b10d9903-1c90-4c76-8169-4a0e8b51c3e8","ios":"levelo://app?vid=b10d9903-1c90-4c76-8169-4a0e8b51c3e8"},"vehicle_type_id":"4","last_reported":1742905147,"current_range_meters":11600,"station_id":"ce4bgl92rcd13ifvqbq0","pricing_plan_id":"cebpf4jnsgd1na2vs0mg"},{"bike_id":"5aeb641c-8c67-430e-bd09-77076d22412d","system_id":"levelo_inurba_marseille","lat":43.31049,"lon":5.37568,"is_reserved":false,"is_disabled":false,"rental_uris":{"android":"levelo://app?vid=5aeb641c-8c67-430e-bd09-77076d22412d","ios":"levelo://app?vid=5aeb641c-8c67-430e-bd09-77076d22412d"},"vehicle_type_id":"4","last_reported":1742905147,"current_range_meters":11600,"station_id":"","pricing_plan_id":"cebpf4jnsgd1na2vs0mg"},{"bike_id":"6633349b-54ae-41b8-88d5-61ec5d012302","system_id":"levelo_inurba_marseille","lat":43.32091,"lon":5.36796,"is_reserved":false,"is_disabled":false,"rental_uris":{"android":"levelo://app?vid=6633349b-54ae-41b8-88d5-61ec5d012302","ios":"levelo://app?vid=6633349b-54ae-41b8-88d5-61ec5d012302"},"vehicle_type_id":"4","last_reported":1742905147,"current_range_meters":11600,"station_id":"ce4bhrh2rcd13ifvqhug","pricing_plan_id":"cebpf4jnsgd1na2vs0mg"},{"bike_id":"94de1c6e-0b89-4e10-af39-e361e179ef2e","system_id":"levelo_inurba_marseille","lat":43.30427,"lon":5.39759,"is_reserved":false,"is_disabled":false,"rental_uris":{"android":"levelo://app?vid=94de1c6e-0b89-4e10-af39-e361e179ef2e","ios":"levelo://app?vid=94de1c6e-0b89-4e10-af39-e361e179ef2e"},"vehicle_type_id":"4","last_reported":1742905147,"current_range_meters":11600,"station_id":"ce4bh092rcd13ifvqd20","pricing_plan_id":"cebpf4jnsgd1na2vs0mg"},{"bike_id":"8eefde25-af04-4206-8672-1d6b97905cd3","system_id":"levelo_inurba_marseille","lat":43.27713,"lon":5.40827,"is_reserved":false,"is_disabled":false,"rental_uris":{"android":"levelo://app?vid=8eefde25-af04-4206-8672-1d6b97905cd3","ios":"levelo://app?vid=8eefde25-af04-4206-8672-1d6b97905cd3"},"vehicle_type_id":"4","last_reported":1742905147,"current_range_meters":11600,"station_id":"","pricing_plan_id":"cebpf4jnsgd1na2vs0mg"},{"bike_id":"47eb5d2b-5c47-4f2a-97f9-ce8e4f2bdf3a","system_id":"levelo_inurba_marseille","lat":43.2738,"lon":5.36245,"is_reserved":false,"is_disabled":false,"rental_uris":{"android":"levelo://app?vid=47eb5d2b-5c47-4f2a-97f9-ce8e4f2bdf3a","ios":"levelo://app?vid=47eb5d2b-5c47-4f2a-97f9-ce8e4f2bdf3a"},"vehicle_type_id":"4","last_reported":1742905147,"current_range_meters":11600,"station_id":"ce4bhbh2rcd13ifvqeo0","pricing_plan_id":"cebpf4jnsgd1na2vs0mg"},{"bike_id":"50e3359a-15f1-4f66-bbc8-eed7afb5cb08","system_id":"levelo_inurba_marseille","lat":43.25925,"lon":5.40875,"is_reserved":false,"is_disabled":false,"rental_uris":{"android":"levelo://app?vid=50e3359a-15f1-4f66-bbc8-eed7afb5cb08","ios":"levelo://app?vid=50e3359a-15f1-4f66-bbc8-eed7afb5cb08"},"vehicle_type_id":"4","last_reported":1742905147,"current_range_meters":11600,"station_id":"ce4bhm92rcd13ifvqglg","pricing_plan_id":"cebpf4jnsgd1na2vs0mg"},{"bike_id":"c7955522-9178-4db6-b71f-fb25dd5bc75d","system_id":"levelo_inurba_marseille","lat":43.29227,"lon":5.36065,"is_reserved":false,"is_disabled":false,"rental_uris":{"android":"levelo://app?vid=c7955522-9178-4db6-b71f-fb25dd5bc75d","ios":"levelo://app?vid=c7955522-9178-4db6-b71f-fb25dd5bc75d"},"vehicle_type_id":"4","last_reported":1742905147,"current_range_meters":11600,"station_id":"ce4bhbh2rcd13ifvqeqg","pricing_plan_id":"cebpf4jnsgd1na2vs0mg"},{"bike_id":"1b41d84b-df1c-46c3-8b7b-d788f40946be","system_id":"levelo_inurba_marseille","lat":43.28267,"lon":5.35061,"is_reserved":false,"is_disabled":false,"rental_uris":{"android":"levelo://app?vid=1b41d84b-df1c-46c3-8b7b-d788f40946be","ios":"levelo://app?vid=1b41d84b-df1c-46c3-8b7b-d788f40946be"},"vehicle_type_id":"4","last_reported":1742905147,"current_range_meters":11600,"station_id":"ce4bhbp2rcd13ifvqerg","pricing_plan_id":"cebpf4jnsgd1na2vs0mg"},{"bike_id":"9661cb80-d2e4-424e-874f-80079202a659","system_id":"levelo_inurba_marseille","lat":43.29441,"lon":5.385706,"is_reserved":false,"is_disabled":false,"rental_uris":{"android":"levelo://app?vid=9661cb80-d2e4-424e-874f-80079202a659","ios":"levelo://app?vid=9661cb80-d2e4-424e-874f-80079202a659"},"vehicle_type_id":"4","last_reported":1742905147,"current_range_meters":11600,"station_id":"ce4bh2h2rcd13ifvqdh0","pricing_plan_id":"cebpf4jnsgd1na2vs0mg"},{"bike_id":"c47ac3fb-aba8-4e1f-93e0-08a46f14b974","system_id":"levelo_inurba_marseille","lat":43.3126,"lon":5.4019,"is_reserved":false,"is_disabled":false,"rental_uris":{"android":"levelo://app?vid=c47ac3fb-aba8-4e1f-93e0-08a46f14b974","ios":"levelo://app?vid=c47ac3fb-aba8-4e1f-93e0-08a46f14b974"},"vehicle_type_id":"4","last_reported":1742905147,"current_range_meters":11600,"station_id":"ce4bh092rcd13ifvqd30","pricing_plan_id":"cebpf4jnsgd1na2vs0mg"},{"bike_id":"844d3370-21e5-4de2-9d45-2b091e1157d6","system_id":"levelo_inurba_marseille","lat":43.23975,"lon":5.36635,"is_reserved":false,"is_disabled":false,"rental_uris":{"android":"levelo://app?vid=844d3370-21e5-4de2-9d45-2b091e1157d6","ios":"levelo://app?vid=844d3370-21e5-4de2-9d45-2b091e1157d6"},"vehicle_type_id":"4","last_reported":1742905147,"current_range_meters":12000,"station_id":"ce4bhi12rcd13ifvqfp0","pricing_plan_id":"cebpf4jnsgd1na2vs0mg"},{"bike_id":"b599ec8c-9116-4cb3-980c-d0a7d1e83114","system_id":"levelo_inurba_marseille","lat":43.32484,"lon":5.36534,"is_reserved":false,"is_disabled":false,"rental_uris":{"android":"levelo://app?vid=b599ec8c-9116-4cb3-980c-d0a7d1e83114","ios":"levelo://app?vid=b599ec8c-9116-4cb3-980c-d0a7d1e83114"},"vehicle_type_id":"4","last_reported":1742905147,"current_range_meters":12000,"station_id":"ce4bhs12rcd13ifvqhvg","pricing_plan_id":"cebpf4jnsgd1na2vs0mg"},{"bike_id":"b0bc3509-c0b2-4259-bc66-5e2864c1aba7","system_id":"levelo_inurba_marseille","lat":43.29897,"lon":5.4367,"is_reserved":false,"is_disabled":false,"rental_uris":{"android":"levelo://app?vid=b0bc3509-c0b2-4259-bc66-5e2864c1aba7","ios":"levelo://app?vid=b0bc3509-c0b2-4259-bc66-5e2864c1aba7"},"vehicle_type_id":"4","last_reported":1742905147,"current_range_meters":12400,"station_id":"","pricing_plan_id":"cebpf4jnsgd1na2vs0mg"},{"bike_id":"e58a4208-0527-41af-9e1f-62a9e316f004","system_id":"levelo_inurba_marseille","lat":43.29706,"lon":5.36625,"is_reserved":false,"is_disabled":false,"rental_uris":{"android":"levelo://app?vid=e58a4208-0527-41af-9e1f-62a9e316f004","ios":"levelo://app?vid=e58a4208-0527-41af-9e1f-62a9e316f004"},"vehicle_type_id":"4","last_reported":1742905147,"current_range_meters":12000,"station_id":"ce4bgn12rcd13ifvqbt0","pricing_plan_id":"cebpf4jnsgd1na2vs0mg"},{"bike_id":"8c6e8454-00af-4fef-b622-bd45e80650a9","system_id":"levelo_inurba_marseille","lat":43.27813,"lon":5.40711,"is_reserved":false,"is_disabled":false,"rental_uris":{"android":"levelo://app?vid=8c6e8454-00af-4fef-b622-bd45e80650a9","ios":"levelo://app?vid=8c6e8454-00af-4fef-b622-bd45e80650a9"},"vehicle_type_id":"4","last_reported":1742905147,"current_range_meters":12400,"station_id":"ce4bhnh2rcd13ifvqgtg","pricing_plan_id":"cebpf4jnsgd1na2vs0mg"},{"bike_id":"38351309-2dec-417c-a558-74c8bc991036","system_id":"levelo_inurba_marseille","lat":43.30833,"lon":5.40612,"is_reserved":false,"is_disabled":true,"rental_uris":{"android":"levelo://app?vid=38351309-2dec-417c-a558-74c8bc991036","ios":"levelo://app?vid=38351309-2dec-417c-a558-74c8bc991036"},"vehicle_type_id":"4","last_reported":1742905147,"current_range_meters":12400,"station_id":"","pricing_plan_id":"cebpf4jnsgd1na2vs0mg"},{"bike_id":"2324881d-211d-4628-bf76-ac9043ceed49","system_id":"levelo_inurba_marseille","lat":43.29618,"lon":5.37726,"is_reserved":false,"is_disabled":false,"rental_uris":{"android":"levelo://app?vid=2324881d-211d-4628-bf76-ac9043ceed49","ios":"levelo://app?vid=2324881d-211d-4628-bf76-ac9043ceed49"},"vehicle_type_id":"4","last_reported":1742905147,"current_range_meters":12400,"station_id":"ce4bgi92rcd13ifvqb90","pricing_plan_id":"cebpf4jnsgd1na2vs0mg"},{"bike_id":"8c800b00-3d65-4e3b-bb2e-24fda6a64f5a","system_id":"levelo_inurba_marseille","lat":43.27948,"lon":5.41039,"is_reserved":false,"is_disabled":false,"rental_uris":{"android":"levelo://app?vid=8c800b00-3d65-4e3b-bb2e-24fda6a64f5a","ios":"levelo://app?vid=8c800b00-3d65-4e3b-bb2e-24fda6a64f5a"},"vehicle_type_id":"4","last_reported":1742905147,"current_range_meters":12400,"station_id":"ce4bhnp2rcd13ifvqh0g","pricing_plan_id":"cebpf4jnsgd1na2vs0mg"},{"bike_id":"9268b7b5-a022-4600-bae5-1f4ed9cfc9a0","system_id":"levelo_inurba_marseille","lat":43.3171,"lon":5.43702,"is_reserved":false,"is_disabled":false,"rental_uris":{"android":"levelo://app?vid=9268b7b5-a022-4600-bae5-1f4ed9cfc9a0","ios":"levelo://app?vid=9268b7b5-a022-4600-bae5-1f4ed9cfc9a0"},"vehicle_type_id":"4","last_reported":1742905147,"current_range_meters":12800,"station_id":"ce4bhp92rcd13ifvqhcg","pricing_plan_id":"cebpf4jnsgd1na2vs0mg"},{"bike_id":"9de4e7f7-5494-4080-828b-3ee9a14b4e2a","system_id":"levelo_inurba_marseille","lat":43.31355,"lon":5.38519,"is_reserved":false,"is_disabled":false,"rental_uris":{"android":"levelo://app?vid=9de4e7f7-5494-4080-828b-3ee9a14b4e2a","ios":"levelo://app?vid=9de4e7f7-5494-4080-828b-3ee9a14b4e2a"},"vehicle_type_id":"4","last_reported":1742905147,"current_range_meters":12800,"station_id":"ce4bgt92rcd13ifvqcf0","pricing_plan_id":"cebpf4jnsgd1na2vs0mg"},{"bike_id":"4a3cef67-7854-486a-96a1-875577c9d100","system_id":"levelo_inurba_marseille","lat":43.280941,"lon":5.396651,"is_reserved":false,"is_disabled":true,"rental_uris":{"android":"levelo://app?vid=4a3cef67-7854-486a-96a1-875577c9d100","ios":"levelo://app?vid=4a3cef67-7854-486a-96a1-875577c9d100"},"vehicle_type_id":"4","last_reported":1742905147,"current_range_meters":12800,"station_id":"ce4bho12rcd13ifvqh2g","pricing_plan_id":"cebpf4jnsgd1na2vs0mg"},{"bike_id":"2aa0d563-b84e-403f-b228-6fdaa25d30cb","system_id":"levelo_inurba_marseille","lat":43.29894,"lon":5.43682,"is_reserved":false,"is_disabled":false,"rental_uris":{"android":"levelo://app?vid=2aa0d563-b84e-403f-b228-6fdaa25d30cb","ios":"levelo://app?vid=2aa0d563-b84e-403f-b228-6fdaa25d30cb"},"vehicle_type_id":"4","last_reported":1742905147,"current_range_meters":13600,"station_id":"ce4bhpp2rcd13ifvqhfg","pricing_plan_id":"cebpf4jnsgd1na2vs0mg"},{"bike_id":"736f241e-a390-46a6-ba4e-91d7dad6aeac","system_id":"levelo_inurba_marseille","lat":43.23151,"lon":5.43712,"is_reserved":false,"is_disabled":false,"rental_uris":{"android":"levelo://app?vid=736f241e-a390-46a6-ba4e-91d7dad6aeac","ios":"levelo://app?vid=736f241e-a390-46a6-ba4e-91d7dad6aeac"},"vehicle_type_id":"4","last_reported":1742905147,"current_range_meters":13600,"station_id":"ce4bhmp2rcd13ifvqgog","pricing_plan_id":"cebpf4jnsgd1na2vs0mg"},{"bike_id":"31563003-40be-4ef0-a881-aeb60fd996c5","system_id":"levelo_inurba_marseille","lat":43.33771,"lon":5.37477,"is_reserved":false,"is_disabled":false,"rental_uris":{"android":"levelo://app?vid=31563003-40be-4ef0-a881-aeb60fd996c5","ios":"levelo://app?vid=31563003-40be-4ef0-a881-aeb60fd996c5"},"vehicle_type_id":"4","last_reported":1742905147,"current_range_meters":13600,"station_id":"","pricing_plan_id":"cebpf4jnsgd1na2vs0mg"},{"bike_id":"ae28b6a8-1e71-4ca7-8f75-989b501d7e08","system_id":"levelo_inurba_marseille","lat":43.30242,"lon":5.40048,"is_reserved":false,"is_disabled":false,"rental_uris":{"android":"levelo://app?vid=ae28b6a8-1e71-4ca7-8f75-989b501d7e08","ios":"levelo://app?vid=ae28b6a8-1e71-4ca7-8f75-989b501d7e08"},"vehicle_type_id":"4","last_reported":1742905147,"current_range_meters":13600,"station_id":"ce4bgvh2rcd13ifvqcs0","pricing_plan_id":"cebpf4jnsgd1na2vs0mg"},{"bike_id":"28dc0c8a-542b-45f8-a521-988655cfc900","system_id":"levelo_inurba_marseille","lat":43.31357,"lon":5.36708,"is_reserved":false,"is_disabled":false,"rental_uris":{"android":"levelo://app?vid=28dc0c8a-542b-45f8-a521-988655cfc900","ios":"levelo://app?vid=28dc0c8a-542b-45f8-a521-988655cfc900"},"vehicle_type_id":"4","last_reported":1742905147,"current_range_meters":13600,"station_id":"ce4bgr92rcd13ifvqc6g","pricing_plan_id":"cebpf4jnsgd1na2vs0mg"},{"bike_id":"7fdecdeb-36cb-4cf4-9c98-d803f5809435","system_id":"levelo_inurba_marseille","lat":43.26144,"lon":5.39852,"is_reserved":false,"is_disabled":false,"rental_uris":{"android":"levelo://app?vid=7fdecdeb-36cb-4cf4-9c98-d803f5809435","ios":"levelo://app?vid=7fdecdeb-36cb-4cf4-9c98-d803f5809435"},"vehicle_type_id":"4","last_reported":1742905147,"current_range_meters":13600,"station_id":"","pricing_plan_id":"cebpf4jnsgd1na2vs0mg"},{"bike_id":"3da8dd75-5f21-478a-a2c7-94c80d63f1ac","system_id":"levelo_inurba_marseille","lat":43.24078,"lon":5.37757,"is_reserved":false,"is_disabled":false,"rental_uris":{"android":"levelo://app?vid=3da8dd75-5f21-478a-a2c7-94c80d63f1ac","ios":"levelo://app?vid=3da8dd75-5f21-478a-a2c7-94c80d63f1ac"},"vehicle_type_id":"4","last_reported":1742905147,"current_range_meters":13600,"station_id":"ce4bhnp2rcd13ifvqgvg","pricing_plan_id":"cebpf4jnsgd1na2vs0mg"},{"bike_id":"fc3eec86-5c89-461a-b54f-15ec4ee366fd","system_id":"levelo_inurba_marseille","lat":43.26553,"lon":5.39035,"is_reserved":false,"is_disabled":false,"rental_uris":{"android":"levelo://app?vid=fc3eec86-5c89-461a-b54f-15ec4ee366fd","ios":"levelo://app?vid=fc3eec86-5c89-461a-b54f-15ec4ee366fd"},"vehicle_type_id":"4","last_reported":1742905147,"current_range_meters":13600,"station_id":"ce4bhe12rcd13ifvqf30","pricing_plan_id":"cebpf4jnsgd1na2vs0mg"},{"bike_id":"e834c2a8-29da-4e91-8a5b-cbcf7984efba","system_id":"levelo_inurba_marseille","lat":43.27812,"lon":5.40713,"is_reserved":false,"is_disabled":false,"rental_uris":{"android":"levelo://app?vid=e834c2a8-29da-4e91-8a5b-cbcf7984efba","ios":"levelo://app?vid=e834c2a8-29da-4e91-8a5b-cbcf7984efba"},"vehicle_type_id":"4","last_reported":1742905147,"current_range_meters":12800,"station_id":"ce4bhnh2rcd13ifvqgtg","pricing_plan_id":"cebpf4jnsgd1na2vs0mg"},{"bike_id":"f2ab9062-5664-4364-95e5-08399310a4d6","system_id":"levelo_inurba_marseille","lat":43.28446,"lon":5.39206,"is_reserved":false,"is_disabled":false,"rental_uris":{"android":"levelo://app?vid=f2ab9062-5664-4364-95e5-08399310a4d6","ios":"levelo://app?vid=f2ab9062-5664-4364-95e5-08399310a4d6"},"vehicle_type_id":"4","last_reported":1742905147,"current_range_meters":14000,"station_id":"ce4bhoh2rcd13ifvqh5g","pricing_plan_id":"cebpf4jnsgd1na2vs0mg"},{"bike_id":"e58835a3-f480-40f6-b839-4b6984e93851","system_id":"levelo_inurba_marseille","lat":43.27947,"lon":5.41029,"is_reserved":false,"is_disabled":false,"rental_uris":{"android":"levelo://app?vid=e58835a3-f480-40f6-b839-4b6984e93851","ios":"levelo://app?vid=e58835a3-f480-40f6-b839-4b6984e93851"},"vehicle_type_id":"4","last_reported":1742905147,"current_range_meters":14000,"station_id":"ce4bhnp2rcd13ifvqh0g","pricing_plan_id":"cebpf4jnsgd1na2vs0mg"},{"bike_id":"0a76000f-8808-4b7c-afc9-bf0e8391421c","system_id":"levelo_inurba_marseille","lat":43.24079,"lon":5.37763,"is_reserved":false,"is_disabled":false,"rental_uris":{"android":"levelo://app?vid=0a76000f-8808-4b7c-afc9-bf0e8391421c","ios":"levelo://app?vid=0a76000f-8808-4b7c-afc9-bf0e8391421c"},"vehicle_type_id":"4","last_reported":1742905147,"current_range_meters":14000,"station_id":"ce4bhnp2rcd13ifvqgvg","pricing_plan_id":"cebpf4jnsgd1na2vs0mg"},{"bike_id":"eb96f3ce-10e1-4ac0-a432-1305a4673577","system_id":"levelo_inurba_marseille","lat":43.3125,"lon":5.36893,"is_reserved":false,"is_disabled":false,"rental_uris":{"android":"levelo://app?vid=eb96f3ce-10e1-4ac0-a432-1305a4673577","ios":"levelo://app?vid=eb96f3ce-10e1-4ac0-a432-1305a4673577"},"vehicle_type_id":"4","last_reported":1742905147,"current_range_meters":14000,"station_id":"ce4bgl92rcd13ifvqbq0","pricing_plan_id":"cebpf4jnsgd1na2vs0mg"},{"bike_id":"46a39abf-69b1-45a5-b3f3-0542fcb179cc","system_id":"levelo_inurba_marseille","lat":43.29027,"lon":5.38651,"is_reserved":false,"is_disabled":false,"rental_uris":{"android":"levelo://app?vid=46a39abf-69b1-45a5-b3f3-0542fcb179cc","ios":"levelo://app?vid=46a39abf-69b1-45a5-b3f3-0542fcb179cc"},"vehicle_type_id":"4","last_reported":1742905147,"current_range_meters":14000,"station_id":"ce4bh4p2rcd13ifvqe0g","pricing_plan_id":"cebpf4jnsgd1na2vs0mg"},{"bike_id":"0d86ee8d-a71a-4be6-88ba-b48ccf44613d","system_id":"levelo_inurba_marseille","lat":43.29423,"lon":5.3863,"is_reserved":false,"is_disabled":false,"rental_uris":{"android":"levelo://app?vid=0d86ee8d-a71a-4be6-88ba-b48ccf44613d","ios":"levelo://app?vid=0d86ee8d-a71a-4be6-88ba-b48ccf44613d"},"vehicle_type_id":"4","last_reported":1742905147,"current_range_meters":14400,"station_id":"ce4bh2h2rcd13ifvqdh0","pricing_plan_id":"cebpf4jnsgd1na2vs0mg"},{"bike_id":"9262a8ff-16ca-4188-9d6c-1e6bc3e695e0","system_id":"levelo_inurba_marseille","lat":43.292581,"lon":5.36761,"is_reserved":false,"is_disabled":false,"rental_uris":{"android":"levelo://app?vid=9262a8ff-16ca-4188-9d6c-1e6bc3e695e0","ios":"levelo://app?vid=9262a8ff-16ca-4188-9d6c-1e6bc3e695e0"},"vehicle_type_id":"4","last_reported":1742905147,"current_range_meters":14400,"station_id":"ce4bhbp2rcd13ifvqerg","pricing_plan_id":"cebpf4jnsgd1na2vs0mg"},{"bike_id":"699e007d-bb14-4acb-857b-77bf39bdadc1","system_id":"levelo_inurba_marseille","lat":43.28154,"lon":5.42642,"is_reserved":false,"is_disabled":false,"rental_uris":{"android":"levelo://app?vid=699e007d-bb14-4acb-857b-77bf39bdadc1","ios":"levelo://app?vid=699e007d-bb14-4acb-857b-77bf39bdadc1"},"vehicle_type_id":"4","last_reported":1742905147,"current_range_meters":14400,"station_id":"ce4bhnh2rcd13ifvqgug","pricing_plan_id":"cebpf4jnsgd1na2vs0mg"},{"bike_id":"754a42d9-ebe2-408b-82b5-f5ebc633fa93","system_id":"levelo_inurba_marseille","lat":43.24075,"lon":5.37757,"is_reserved":false,"is_disabled":false,"rental_uris":{"android":"levelo://app?vid=754a42d9-ebe2-408b-82b5-f5ebc633fa93","ios":"levelo://app?vid=754a42d9-ebe2-408b-82b5-f5ebc633fa93"},"vehicle_type_id":"4","last_reported":1742905147,"current_range_meters":14400,"station_id":"ce4bhnp2rcd13ifvqgvg","pricing_plan_id":"cebpf4jnsgd1na2vs0mg"},{"bike_id":"32ec6e68-27b0-4641-bd8b-e69ac057e22d","system_id":"levelo_inurba_marseille","lat":43.30304,"lon":5.39203,"is_reserved":false,"is_disabled":false,"rental_uris":{"android":"levelo://app?vid=32ec6e68-27b0-4641-bd8b-e69ac057e22d","ios":"levelo://app?vid=32ec6e68-27b0-4641-bd8b-e69ac057e22d"},"vehicle_type_id":"4","last_reported":1742905147,"current_range_meters":14400,"station_id":"ce4bgkh2rcd13ifvqbk0","pricing_plan_id":"cebpf4jnsgd1na2vs0mg"},{"bike_id":"a612eecb-9220-41a8-a352-6c2cb1a4212e","system_id":"levelo_inurba_marseille","lat":43.28346,"lon":5.3811,"is_reserved":false,"is_disabled":false,"rental_uris":{"android":"levelo://app?vid=a612eecb-9220-41a8-a352-6c2cb1a4212e","ios":"levelo://app?vid=a612eecb-9220-41a8-a352-6c2cb1a4212e"},"vehicle_type_id":"4","last_reported":1742905147,"current_range_meters":14400,"station_id":"ce4bh412rcd13ifvqdr0","pricing_plan_id":"cebpf4jnsgd1na2vs0mg"},{"bike_id":"25b11347-fd74-4f55-bab5-03dbc3ea2ad8","system_id":"levelo_inurba_marseille","lat":43.27061,"lon":5.40259,"is_reserved":false,"is_disabled":false,"rental_uris":{"android":"levelo://app?vid=25b11347-fd74-4f55-bab5-03dbc3ea2ad8","ios":"levelo://app?vid=25b11347-fd74-4f55-bab5-03dbc3ea2ad8"},"vehicle_type_id":"4","last_reported":1742905147,"current_range_meters":14800,"station_id":"ce4bhk92rcd13ifvqgc0","pricing_plan_id":"cebpf4jnsgd1na2vs0mg"},{"bike_id":"ecdf2228-2f39-46cc-b376-4da7301f20ea","system_id":"levelo_inurba_marseille","lat":43.29008,"lon":5.37585,"is_reserved":false,"is_disabled":false,"rental_uris":{"android":"levelo://app?vid=ecdf2228-2f39-46cc-b376-4da7301f20ea","ios":"levelo://app?vid=ecdf2228-2f39-46cc-b376-4da7301f20ea"},"vehicle_type_id":"4","last_reported":1742905147,"current_range_meters":14400,"station_id":"ce4bh692rcd13ifvqe90","pricing_plan_id":"cebpf4jnsgd1na2vs0mg"},{"bike_id":"ed234b8c-3251-4af0-b97a-d2f8b3537e38","system_id":"levelo_inurba_marseille","lat":43.29605,"lon":5.37724,"is_reserved":false,"is_disabled":false,"rental_uris":{"android":"levelo://app?vid=ed234b8c-3251-4af0-b97a-d2f8b3537e38","ios":"levelo://app?vid=ed234b8c-3251-4af0-b97a-d2f8b3537e38"},"vehicle_type_id":"4","last_reported":1742905147,"current_range_meters":14800,"station_id":"ce4bgi92rcd13ifvqb90","pricing_plan_id":"cebpf4jnsgd1na2vs0mg"},{"bike_id":"0737ea8b-6ae1-4e0e-aaf3-c29048f4f353","system_id":"levelo_inurba_marseille","lat":43.30559,"lon":5.36717,"is_reserved":false,"is_disabled":false,"rental_uris":{"android":"levelo://app?vid=0737ea8b-6ae1-4e0e-aaf3-c29048f4f353","ios":"levelo://app?vid=0737ea8b-6ae1-4e0e-aaf3-c29048f4f353"},"vehicle_type_id":"4","last_reported":1742905147,"current_range_meters":14800,"station_id":"ce4bgrp2rcd13ifvqc9g","pricing_plan_id":"cebpf4jnsgd1na2vs0mg"},{"bike_id":"6c7d541a-921f-45bb-ad44-5acfac56ffb2","system_id":"levelo_inurba_marseille","lat":43.30893,"lon":5.37199,"is_reserved":false,"is_disabled":false,"rental_uris":{"android":"levelo://app?vid=6c7d541a-921f-45bb-ad44-5acfac56ffb2","ios":"levelo://app?vid=6c7d541a-921f-45bb-ad44-5acfac56ffb2"},"vehicle_type_id":"4","last_reported":1742905147,"current_range_meters":14800,"station_id":"","pricing_plan_id":"cebpf4jnsgd1na2vs0mg"},{"bike_id":"da43d894-069e-486e-a738-14255c3635ad","system_id":"levelo_inurba_marseille","lat":43.2606,"lon":5.39412,"is_reserved":false,"is_disabled":false,"rental_uris":{"android":"levelo://app?vid=da43d894-069e-486e-a738-14255c3635ad","ios":"levelo://app?vid=da43d894-069e-486e-a738-14255c3635ad"},"vehicle_type_id":"4","last_reported":1742905147,"current_range_meters":14800,"station_id":"ce4bhh92rcd13ifvqfj0","pricing_plan_id":"cebpf4jnsgd1na2vs0mg"},{"bike_id":"b052d2e2-e875-4904-a7e7-4c54f441a36b","system_id":"levelo_inurba_marseille","lat":43.31228,"lon":5.36868,"is_reserved":false,"is_disabled":false,"rental_uris":{"android":"levelo://app?vid=b052d2e2-e875-4904-a7e7-4c54f441a36b","ios":"levelo://app?vid=b052d2e2-e875-4904-a7e7-4c54f441a36b"},"vehicle_type_id":"4","last_reported":1742905147,"current_range_meters":14800,"station_id":"","pricing_plan_id":"cebpf4jnsgd1na2vs0mg"},{"bike_id":"a7ba97f8-94fd-49ae-9006-ab2c383704cb","system_id":"levelo_inurba_marseille","lat":43.30127,"lon":5.37446,"is_reserved":false,"is_disabled":false,"rental_uris":{"android":"levelo://app?vid=a7ba97f8-94fd-49ae-9006-ab2c383704cb","ios":"levelo://app?vid=a7ba97f8-94fd-49ae-9006-ab2c383704cb"},"vehicle_type_id":"4","last_reported":1742905147,"current_range_meters":14800,"station_id":"ce4bgs92rcd13ifvqcc0","pricing_plan_id":"cebpf4jnsgd1na2vs0mg"},{"bike_id":"7aac1fa6-8563-4483-89a1-e00634e9c45b","system_id":"levelo_inurba_marseille","lat":43.30325,"lon":5.36905,"is_reserved":false,"is_disabled":false,"rental_uris":{"android":"levelo://app?vid=7aac1fa6-8563-4483-89a1-e00634e9c45b","ios":"levelo://app?vid=7aac1fa6-8563-4483-89a1-e00634e9c45b"},"vehicle_type_id":"4","last_reported":1742905147,"current_range_meters":14800,"station_id":"ce4bgqh2rcd13ifvqc5g","pricing_plan_id":"cebpf4jnsgd1na2vs0mg"},{"bike_id":"0aea2c8b-a3f7-47d3-88d0-95fbd5fe692b","system_id":"levelo_inurba_marseille","lat":43.26685,"lon":5.38275,"is_reserved":false,"is_disabled":false,"rental_uris":{"android":"levelo://app?vid=0aea2c8b-a3f7-47d3-88d0-95fbd5fe692b","ios":"levelo://app?vid=0aea2c8b-a3f7-47d3-88d0-95fbd5fe692b"},"vehicle_type_id":"4","last_reported":1742905147,"current_range_meters":14800,"station_id":"ce4bhg92rcd13ifvqf90","pricing_plan_id":"cebpf4jnsgd1na2vs0mg"},{"bike_id":"84a7a785-5392-42bc-8088-fb903bcc7f5c","system_id":"levelo_inurba_marseille","lat":43.23067,"lon":5.35503,"is_reserved":false,"is_disabled":false,"rental_uris":{"android":"levelo://app?vid=84a7a785-5392-42bc-8088-fb903bcc7f5c","ios":"levelo://app?vid=84a7a785-5392-42bc-8088-fb903bcc7f5c"},"vehicle_type_id":"4","last_reported":1742905147,"current_range_meters":15200,"station_id":"cpo3342slgdg3j2ifvpg","pricing_plan_id":"cebpf4jnsgd1na2vs0mg"},{"bike_id":"ad0dc610-c76e-4a42-ab44-60b6192b8550","system_id":"levelo_inurba_marseille","lat":43.30145,"lon":5.37413,"is_reserved":false,"is_disabled":false,"rental_uris":{"android":"levelo://app?vid=ad0dc610-c76e-4a42-ab44-60b6192b8550","ios":"levelo://app?vid=ad0dc610-c76e-4a42-ab44-60b6192b8550"},"vehicle_type_id":"4","last_reported":1742905147,"current_range_meters":15200,"station_id":"ce4bgs92rcd13ifvqcc0","pricing_plan_id":"cebpf4jnsgd1na2vs0mg"},{"bike_id":"4a032cd9-b537-46fb-b785-c17dc1540720","system_id":"levelo_inurba_marseille","lat":43.24072,"lon":5.37759,"is_reserved":false,"is_disabled":false,"rental_uris":{"android":"levelo://app?vid=4a032cd9-b537-46fb-b785-c17dc1540720","ios":"levelo://app?vid=4a032cd9-b537-46fb-b785-c17dc1540720"},"vehicle_type_id":"4","last_reported":1742905147,"current_range_meters":15200,"station_id":"ce4bhnp2rcd13ifvqgvg","pricing_plan_id":"cebpf4jnsgd1na2vs0mg"},{"bike_id":"e188127a-982e-47e7-a38c-97a0d95e1457","system_id":"levelo_inurba_marseille","lat":43.25871,"lon":5.39372,"is_reserved":false,"is_disabled":false,"rental_uris":{"android":"levelo://app?vid=e188127a-982e-47e7-a38c-97a0d95e1457","ios":"levelo://app?vid=e188127a-982e-47e7-a38c-97a0d95e1457"},"vehicle_type_id":"4","last_reported":1742905147,"current_range_meters":15200,"station_id":"ce4bhip2rcd13ifvqft0","pricing_plan_id":"cebpf4jnsgd1na2vs0mg"},{"bike_id":"211b5eaa-1566-42a6-ba7f-79a2f52d3fb1","system_id":"levelo_inurba_marseille","lat":43.27995,"lon":5.41659,"is_reserved":false,"is_disabled":false,"rental_uris":{"android":"levelo://app?vid=211b5eaa-1566-42a6-ba7f-79a2f52d3fb1","ios":"levelo://app?vid=211b5eaa-1566-42a6-ba7f-79a2f52d3fb1"},"vehicle_type_id":"4","last_reported":1742905147,"current_range_meters":15200,"station_id":"ce4bho12rcd13ifvqh1g","pricing_plan_id":"cebpf4jnsgd1na2vs0mg"},{"bike_id":"0b44f3a1-3d2c-4e42-b536-e00d7b80cce7","system_id":"levelo_inurba_marseille","lat":43.27816,"lon":5.40713,"is_reserved":false,"is_disabled":false,"rental_uris":{"android":"levelo://app?vid=0b44f3a1-3d2c-4e42-b536-e00d7b80cce7","ios":"levelo://app?vid=0b44f3a1-3d2c-4e42-b536-e00d7b80cce7"},"vehicle_type_id":"4","last_reported":1742905147,"current_range_meters":16000,"station_id":"ce4bhnh2rcd13ifvqgtg","pricing_plan_id":"cebpf4jnsgd1na2vs0mg"},{"bike_id":"0c9cada4-2764-4013-a528-15089818cb84","system_id":"levelo_inurba_marseille","lat":43.2771,"lon":5.41162,"is_reserved":false,"is_disabled":false,"rental_uris":{"android":"levelo://app?vid=0c9cada4-2764-4013-a528-15089818cb84","ios":"levelo://app?vid=0c9cada4-2764-4013-a528-15089818cb84"},"vehicle_type_id":"4","last_reported":1742905147,"current_range_meters":16000,"station_id":"","pricing_plan_id":"cebpf4jnsgd1na2vs0mg"},{"bike_id":"8ba11d0e-dc45-4bc3-a15d-ccf081ccb3e7","system_id":"levelo_inurba_marseille","lat":43.23067,"lon":5.35489,"is_reserved":false,"is_disabled":false,"rental_uris":{"android":"levelo://app?vid=8ba11d0e-dc45-4bc3-a15d-ccf081ccb3e7","ios":"levelo://app?vid=8ba11d0e-dc45-4bc3-a15d-ccf081ccb3e7"},"vehicle_type_id":"4","last_reported":1742905147,"current_range_meters":16000,"station_id":"cpo3342slgdg3j2ifvpg","pricing_plan_id":"cebpf4jnsgd1na2vs0mg"},{"bike_id":"b6b09f1e-aff5-4874-9bcf-607b083d39df","system_id":"levelo_inurba_marseille","lat":43.2904,"lon":5.3591,"is_reserved":false,"is_disabled":true,"rental_uris":{"android":"levelo://app?vid=b6b09f1e-aff5-4874-9bcf-607b083d39df","ios":"levelo://app?vid=b6b09f1e-aff5-4874-9bcf-607b083d39df"},"vehicle_type_id":"4","last_reported":1742905147,"current_range_meters":16000,"station_id":"ce4bha92rcd13ifvqeg0","pricing_plan_id":"cebpf4jnsgd1na2vs0mg"},{"bike_id":"32da8814-a7b5-4ece-930c-22fa04b7c80b","system_id":"levelo_inurba_marseille","lat":43.30909,"lon":5.36862,"is_reserved":false,"is_disabled":false,"rental_uris":{"android":"levelo://app?vid=32da8814-a7b5-4ece-930c-22fa04b7c80b","ios":"levelo://app?vid=32da8814-a7b5-4ece-930c-22fa04b7c80b"},"vehicle_type_id":"4","last_reported":1742905147,"current_range_meters":16000,"station_id":"ce4bgn92rcd13ifvqbvg","pricing_plan_id":"cebpf4jnsgd1na2vs0mg"},{"bike_id":"dcaa9e68-40a4-43a6-871a-263bcf53d619","system_id":"levelo_inurba_marseille","lat":43.305359,"lon":5.365118,"is_reserved":false,"is_disabled":false,"rental_uris":{"android":"levelo://app?vid=dcaa9e68-40a4-43a6-871a-263bcf53d619","ios":"levelo://app?vid=dcaa9e68-40a4-43a6-871a-263bcf53d619"},"vehicle_type_id":"4","last_reported":1742905147,"current_range_meters":16000,"station_id":"ce4bgs12rcd13ifvqcag","pricing_plan_id":"cebpf4jnsgd1na2vs0mg"},{"bike_id":"974f5876-effd-44d0-911c-76ea7a107a8c","system_id":"levelo_inurba_marseille","lat":43.33286,"lon":5.35861,"is_reserved":false,"is_disabled":false,"rental_uris":{"android":"levelo://app?vid=974f5876-effd-44d0-911c-76ea7a107a8c","ios":"levelo://app?vid=974f5876-effd-44d0-911c-76ea7a107a8c"},"vehicle_type_id":"4","last_reported":1742905147,"current_range_meters":16000,"station_id":"","pricing_plan_id":"cebpf4jnsgd1na2vs0mg"},{"bike_id":"82219511-549c-4b63-baf5-ff8405cca9d7","system_id":"levelo_inurba_marseille","lat":43.31723,"lon":5.43694,"is_reserved":false,"is_disabled":false,"rental_uris":{"android":"levelo://app?vid=82219511-549c-4b63-baf5-ff8405cca9d7","ios":"levelo://app?vid=82219511-549c-4b63-baf5-ff8405cca9d7"},"vehicle_type_id":"4","last_reported":1742905147,"current_range_meters":16000,"station_id":"ce4bhp92rcd13ifvqhcg","pricing_plan_id":"cebpf4jnsgd1na2vs0mg"},{"bike_id":"db155323-10e2-47ea-9125-e28d0ab37d96","system_id":"levelo_inurba_marseille","lat":43.28432,"lon":5.392,"is_reserved":false,"is_disabled":false,"rental_uris":{"android":"levelo://app?vid=db155323-10e2-47ea-9125-e28d0ab37d96","ios":"levelo://app?vid=db155323-10e2-47ea-9125-e28d0ab37d96"},"vehicle_type_id":"4","last_reported":1742905147,"current_range_meters":16000,"station_id":"ce4bhoh2rcd13ifvqh5g","pricing_plan_id":"cebpf4jnsgd1na2vs0mg"},{"bike_id":"48844298-e040-4ef6-8a39-e65ba1d078c0","system_id":"levelo_inurba_marseille","lat":43.22103,"lon":5.41836,"is_reserved":false,"is_disabled":false,"rental_uris":{"android":"levelo://app?vid=48844298-e040-4ef6-8a39-e65ba1d078c0","ios":"levelo://app?vid=48844298-e040-4ef6-8a39-e65ba1d078c0"},"vehicle_type_id":"4","last_reported":1742905147,"current_range_meters":16000,"station_id":"","pricing_plan_id":"cebpf4jnsgd1na2vs0mg"},{"bike_id":"a818961d-5f1c-4a77-8216-5fd27d2d139f","system_id":"levelo_inurba_marseille","lat":43.31311,"lon":5.36677,"is_reserved":false,"is_disabled":false,"rental_uris":{"android":"levelo://app?vid=a818961d-5f1c-4a77-8216-5fd27d2d139f","ios":"levelo://app?vid=a818961d-5f1c-4a77-8216-5fd27d2d139f"},"vehicle_type_id":"4","last_reported":1742905147,"current_range_meters":16000,"station_id":"ce4bgr92rcd13ifvqc6g","pricing_plan_id":"cebpf4jnsgd1na2vs0mg"},{"bike_id":"0d20b273-875a-432a-ba76-d960497c4a6a","system_id":"levelo_inurba_marseille","lat":43.30523,"lon":5.36537,"is_reserved":false,"is_disabled":false,"rental_uris":{"android":"levelo://app?vid=0d20b273-875a-432a-ba76-d960497c4a6a","ios":"levelo://app?vid=0d20b273-875a-432a-ba76-d960497c4a6a"},"vehicle_type_id":"4","last_reported":1742905147,"current_range_meters":16400,"station_id":"ce4bgs12rcd13ifvqcag","pricing_plan_id":"cebpf4jnsgd1na2vs0mg"},{"bike_id":"3721b4cb-71aa-4e30-b609-90ee53c26d0d","system_id":"levelo_inurba_marseille","lat":43.2409,"lon":5.37773,"is_reserved":false,"is_disabled":false,"rental_uris":{"android":"levelo://app?vid=3721b4cb-71aa-4e30-b609-90ee53c26d0d","ios":"levelo://app?vid=3721b4cb-71aa-4e30-b609-90ee53c26d0d"},"vehicle_type_id":"4","last_reported":1742905147,"current_range_meters":16400,"station_id":"ce4bhnp2rcd13ifvqgvg","pricing_plan_id":"cebpf4jnsgd1na2vs0mg"},{"bike_id":"c541ef1a-225b-4ae1-9d71-6b3636c2d42f","system_id":"levelo_inurba_marseille","lat":43.23178,"lon":5.39958,"is_reserved":false,"is_disabled":false,"rental_uris":{"android":"levelo://app?vid=c541ef1a-225b-4ae1-9d71-6b3636c2d42f","ios":"levelo://app?vid=c541ef1a-225b-4ae1-9d71-6b3636c2d42f"},"vehicle_type_id":"4","last_reported":1742905147,"current_range_meters":16400,"station_id":"","pricing_plan_id":"cebpf4jnsgd1na2vs0mg"},{"bike_id":"a579dccc-f158-4264-8887-994138e3a3d0","system_id":"levelo_inurba_marseille","lat":43.30471,"lon":5.37916,"is_reserved":false,"is_disabled":false,"rental_uris":{"android":"levelo://app?vid=a579dccc-f158-4264-8887-994138e3a3d0","ios":"levelo://app?vid=a579dccc-f158-4264-8887-994138e3a3d0"},"vehicle_type_id":"4","last_reported":1742905147,"current_range_meters":16400,"station_id":"ce4bgup2rcd13ifvqcn0","pricing_plan_id":"cebpf4jnsgd1na2vs0mg"},{"bike_id":"dee5fe67-e62d-465a-89b1-1ce8fbf7d166","system_id":"levelo_inurba_marseille","lat":43.31759,"lon":5.39008,"is_reserved":false,"is_disabled":false,"rental_uris":{"android":"levelo://app?vid=dee5fe67-e62d-465a-89b1-1ce8fbf7d166","ios":"levelo://app?vid=dee5fe67-e62d-465a-89b1-1ce8fbf7d166"},"vehicle_type_id":"4","last_reported":1742905147,"current_range_meters":16400,"station_id":"ce4bhqp2rcd13ifvqhng","pricing_plan_id":"cebpf4jnsgd1na2vs0mg"},{"bike_id":"ff88f3e7-d68a-4151-8dff-c4b3ba2d17ca","system_id":"levelo_inurba_marseille","lat":43.2985,"lon":5.36288,"is_reserved":false,"is_disabled":false,"rental_uris":{"android":"levelo://app?vid=ff88f3e7-d68a-4151-8dff-c4b3ba2d17ca","ios":"levelo://app?vid=ff88f3e7-d68a-4151-8dff-c4b3ba2d17ca"},"vehicle_type_id":"4","last_reported":1742905147,"current_range_meters":16400,"station_id":"ce4bgpp2rcd13ifvqc3g","pricing_plan_id":"cebpf4jnsgd1na2vs0mg"},{"bike_id":"9839bc64-286c-40dd-88d2-027f4a7b9520","system_id":"levelo_inurba_marseille","lat":43.27829,"lon":5.40683,"is_reserved":false,"is_disabled":false,"rental_uris":{"android":"levelo://app?vid=9839bc64-286c-40dd-88d2-027f4a7b9520","ios":"levelo://app?vid=9839bc64-286c-40dd-88d2-027f4a7b9520"},"vehicle_type_id":"4","last_reported":1742905147,"current_range_meters":16400,"station_id":"ce4bhnh2rcd13ifvqgtg","pricing_plan_id":"cebpf4jnsgd1na2vs0mg"},{"bike_id":"c0100702-6b7d-4543-baca-aad44e2249e2","system_id":"levelo_inurba_marseille","lat":43.28433,"lon":5.34998,"is_reserved":false,"is_disabled":false,"rental_uris":{"android":"levelo://app?vid=c0100702-6b7d-4543-baca-aad44e2249e2","ios":"levelo://app?vid=c0100702-6b7d-4543-baca-aad44e2249e2"},"vehicle_type_id":"4","last_reported":1742905147,"current_range_meters":16400,"station_id":"ce4bhbh2rcd13ifvqepg","pricing_plan_id":"cebpf4jnsgd1na2vs0mg"},{"bike_id":"1216b1c4-da57-4374-9499-d425aa59021f","system_id":"levelo_inurba_marseille","lat":43.27993,"lon":5.41666,"is_reserved":false,"is_disabled":false,"rental_uris":{"android":"levelo://app?vid=1216b1c4-da57-4374-9499-d425aa59021f","ios":"levelo://app?vid=1216b1c4-da57-4374-9499-d425aa59021f"},"vehicle_type_id":"4","last_reported":1742905147,"current_range_meters":16800,"station_id":"ce4bho12rcd13ifvqh1g","pricing_plan_id":"cebpf4jnsgd1na2vs0mg"},{"bike_id":"8af38c37-bc17-405b-98a2-af568450d66a","system_id":"levelo_inurba_marseille","lat":43.30173,"lon":5.374,"is_reserved":false,"is_disabled":false,"rental_uris":{"android":"levelo://app?vid=8af38c37-bc17-405b-98a2-af568450d66a","ios":"levelo://app?vid=8af38c37-bc17-405b-98a2-af568450d66a"},"vehicle_type_id":"4","last_reported":1742905147,"current_range_meters":16800,"station_id":"ce4bgs92rcd13ifvqcc0","pricing_plan_id":"cebpf4jnsgd1na2vs0mg"},{"bike_id":"f400e397-23b9-4bcd-84fa-6d572f96228a","system_id":"levelo_inurba_marseille","lat":43.311353,"lon":5.388408,"is_reserved":false,"is_disabled":false,"rental_uris":{"android":"levelo://app?vid=f400e397-23b9-4bcd-84fa-6d572f96228a","ios":"levelo://app?vid=f400e397-23b9-4bcd-84fa-6d572f96228a"},"vehicle_type_id":"4","last_reported":1742905147,"current_range_meters":16800,"station_id":"ce4bgv12rcd13ifvqcp0","pricing_plan_id":"cebpf4jnsgd1na2vs0mg"},{"bike_id":"1f8eb693-fa65-437d-a974-6f47973f68d7","system_id":"levelo_inurba_marseille","lat":43.25954,"lon":5.40905,"is_reserved":false,"is_disabled":false,"rental_uris":{"android":"levelo://app?vid=1f8eb693-fa65-437d-a974-6f47973f68d7","ios":"levelo://app?vid=1f8eb693-fa65-437d-a974-6f47973f68d7"},"vehicle_type_id":"4","last_reported":1742905147,"current_range_meters":16800,"station_id":"ce4bhm92rcd13ifvqglg","pricing_plan_id":"cebpf4jnsgd1na2vs0mg"},{"bike_id":"a0988ee5-6315-49eb-afc7-cc7f612369b3","system_id":"levelo_inurba_marseille","lat":43.26952,"lon":5.38635,"is_reserved":false,"is_disabled":false,"rental_uris":{"android":"levelo://app?vid=a0988ee5-6315-49eb-afc7-cc7f612369b3","ios":"levelo://app?vid=a0988ee5-6315-49eb-afc7-cc7f612369b3"},"vehicle_type_id":"4","last_reported":1742905147,"current_range_meters":16800,"station_id":"ce4bhh92rcd13ifvqfh0","pricing_plan_id":"cebpf4jnsgd1na2vs0mg"},{"bike_id":"2349ea78-e5ff-44c1-8a9d-5755df83b4b0","system_id":"levelo_inurba_marseille","lat":43.28129,"lon":5.42722,"is_reserved":false,"is_disabled":false,"rental_uris":{"android":"levelo://app?vid=2349ea78-e5ff-44c1-8a9d-5755df83b4b0","ios":"levelo://app?vid=2349ea78-e5ff-44c1-8a9d-5755df83b4b0"},"vehicle_type_id":"4","last_reported":1742905147,"current_range_meters":16800,"station_id":"","pricing_plan_id":"cebpf4jnsgd1na2vs0mg"},{"bike_id":"1bfb707a-47e2-41d5-beaa-11dd438698a9","system_id":"levelo_inurba_marseille","lat":43.24167,"lon":5.39733,"is_reserved":false,"is_disabled":false,"rental_uris":{"android":"levelo://app?vid=1bfb707a-47e2-41d5-beaa-11dd438698a9","ios":"levelo://app?vid=1bfb707a-47e2-41d5-beaa-11dd438698a9"},"vehicle_type_id":"4","last_reported":1742905147,"current_range_meters":16800,"station_id":"ce4bhn12rcd13ifvqgpg","pricing_plan_id":"cebpf4jnsgd1na2vs0mg"},{"bike_id":"91c77281-e7ee-452c-a100-f120d915edd4","system_id":"levelo_inurba_marseille","lat":43.25088,"lon":5.39523,"is_reserved":false,"is_disabled":false,"rental_uris":{"android":"levelo://app?vid=91c77281-e7ee-452c-a100-f120d915edd4","ios":"levelo://app?vid=91c77281-e7ee-452c-a100-f120d915edd4"},"vehicle_type_id":"4","last_reported":1742905147,"current_range_meters":16800,"station_id":"ce4bhm12rcd13ifvqgkg","pricing_plan_id":"cebpf4jnsgd1na2vs0mg"},{"bike_id":"ed59d1fd-ec81-4db1-b832-ff437d063d88","system_id":"levelo_inurba_marseille","lat":43.29089,"lon":5.38128,"is_reserved":false,"is_disabled":false,"rental_uris":{"android":"levelo://app?vid=ed59d1fd-ec81-4db1-b832-ff437d063d88","ios":"levelo://app?vid=ed59d1fd-ec81-4db1-b832-ff437d063d88"},"vehicle_type_id":"4","last_reported":1742905147,"current_range_meters":16800,"station_id":"ce4bh512rcd13ifvqe2g","pricing_plan_id":"cebpf4jnsgd1na2vs0mg"},{"bike_id":"3e4ce8fc-d1a8-47e5-8b1e-c64006bac375","system_id":"levelo_inurba_marseille","lat":43.31085,"lon":5.4243,"is_reserved":false,"is_disabled":false,"rental_uris":{"android":"levelo://app?vid=3e4ce8fc-d1a8-47e5-8b1e-c64006bac375","ios":"levelo://app?vid=3e4ce8fc-d1a8-47e5-8b1e-c64006bac375"},"vehicle_type_id":"4","last_reported":1742905147,"current_range_meters":16800,"station_id":"ce4bhp92rcd13ifvqhag","pricing_plan_id":"cebpf4jnsgd1na2vs0mg"},{"bike_id":"9c23b3c2-c990-4dbf-aa18-6e694601de23","system_id":"levelo_inurba_marseille","lat":43.30412,"lon":5.41284,"is_reserved":false,"is_disabled":true,"rental_uris":{"android":"levelo://app?vid=9c23b3c2-c990-4dbf-aa18-6e694601de23","ios":"levelo://app?vid=9c23b3c2-c990-4dbf-aa18-6e694601de23"},"vehicle_type_id":"4","last_reported":1742905147,"current_range_meters":17200,"station_id":"ce4bhop2rcd13ifvqh8g","pricing_plan_id":"cebpf4jnsgd1na2vs0mg"},{"bike_id":"046f982b-769b-4f96-b14f-4e8ec294fd36","system_id":"levelo_inurba_marseille","lat":43.24543,"lon":5.39525,"is_reserved":false,"is_disabled":false,"rental_uris":{"android":"levelo://app?vid=046f982b-769b-4f96-b14f-4e8ec294fd36","ios":"levelo://app?vid=046f982b-769b-4f96-b14f-4e8ec294fd36"},"vehicle_type_id":"4","last_reported":1742905147,"current_range_meters":17200,"station_id":"ce4bhlp2rcd13ifvqgjg","pricing_plan_id":"cebpf4jnsgd1na2vs0mg"},{"bike_id":"d6bd15ca-d699-436b-aba7-e560dc7bc11c","system_id":"levelo_inurba_marseille","lat":43.28265,"lon":5.3506,"is_reserved":false,"is_disabled":false,"rental_uris":{"android":"levelo://app?vid=d6bd15ca-d699-436b-aba7-e560dc7bc11c","ios":"levelo://app?vid=d6bd15ca-d699-436b-aba7-e560dc7bc11c"},"vehicle_type_id":"4","last_reported":1742905147,"current_range_meters":17200,"station_id":"ce4bhbp2rcd13ifvqerg","pricing_plan_id":"cebpf4jnsgd1na2vs0mg"},{"bike_id":"898c4e21-725a-4835-a03f-e159dd0090c3","system_id":"levelo_inurba_marseille","lat":43.29278,"lon":5.36843,"is_reserved":false,"is_disabled":true,"rental_uris":{"android":"levelo://app?vid=898c4e21-725a-4835-a03f-e159dd0090c3","ios":"levelo://app?vid=898c4e21-725a-4835-a03f-e159dd0090c3"},"vehicle_type_id":"4","last_reported":1742905147,"current_range_meters":17200,"station_id":"ce4bhbp2rcd13ifvqesg","pricing_plan_id":"cebpf4jnsgd1na2vs0mg"},