{"last_updated":1701324597,"ttl":30,"version":"2.2","data":{"bikes":[{"bike_id":"de6fc00f-35ef-4ecc-ac8f-233d13501e24","system_id":"levelo_inurba_marseille","lat":43.313391,"lon":5.36706,"is_reserved":false,"is_disabled":false,"rental_uris":{"android":"levelo://app?vid=de6fc00f-35ef-4ecc-ac8f-233d13501e24","ios":"levelo://app?vid=de6fc00f-35ef-4ecc-ac8f-233d13501e24"},"vehicle_type_id":"4","last_reported":1701324597,"current_range_meters":29200,"station_id":"ce4bgr92rcd13ifvqc6g","pricing_plan_id":"free"},{"bike_id":"e0ed4152-83c6-48a0-8da6-adae3254e07e","system_id":"levelo_inurba_marseille","lat":43.309076,"lon":5.368465,"is_reserved":false,"is_disabled":false,"rental_uris":{"android":"levelo://app?vid=e0ed4152-83c6-48a0-8da6-adae3254e07e","ios":"levelo://app?vid=e0ed4152-83c6-48a0-8da6-adae3254e07e"},"vehicle_type_id":"4","last_reported":1701324597,"current_range_meters":28400,"station_id":"ce4bgn92rcd13ifvqbvg","pricing_plan_id":"free"},{"bike_id":"69907837-c36c-4c49-b90d-f2943933288a","system_id":"levelo_inurba_marseille","lat":43.309076,"lon":5.368465,"is_reserved":false,"is_disabled":false,"rental_uris":{"android":"levelo://app?vid=69907837-c36c-4c49-b90d-f2943933288a","ios":"levelo://app?vid=69907837-c36c-4c49-b90d-f2943933288a"},"vehicle_type_id":"4","last_reported":1701324597,"current_range_meters":31600,"station_id":"ce4bgn92rcd13ifvqbvg","pricing_plan_id":"free"},{"bike_id":"e91dd0b2-14dd-416c-a23d-37268b10d3a3","system_id":"levelo_inurba_marseille","lat":43.309076,"lon":5.368465,"is_reserved":false,"is_disabled":false,"rental_uris":{"android":"levelo://app?vid=e91dd0b2-14dd-416c-a23d-37268b10d3a3","ios":"levelo://app?vid=e91dd0b2-14dd-416c-a23d-37268b10d3a3"},"vehicle_type_id":"4","last_reported":1701324597,"current_range_meters":22400,"station_id":"ce4bgn92rcd13ifvqbvg","pricing_plan_id":"free"},{"bike_id":"1cb09dde-85ff-45c2-baab-e3a770aa0ca9","system_id":"levelo_inurba_marseille","lat":43.309076,"lon":5.368465,"is_reserved":false,"is_disabled":false,"rental_uris":{"android":"levelo://app?vid=1cb09dde-85ff-45c2-baab-e3a770aa0ca9","ios":"levelo://app?vid=1cb09dde-85ff-45c2-baab-e3a770aa0ca9"},"vehicle_type_id":"4","last_reported":1701324597,"current_range_meters":30800,"station_id":"ce4bgn92rcd13ifvqbvg","pricing_plan_id":"free"},{"bike_id":"4c990c7a-97c8-45e4-aad6-5aa5064c1e5b","system_id":"levelo_inurba_marseille","lat":43.314811,"lon":5.373103,"is_reserved":false,"is_disabled":false,"rental_uris":{"android":"levelo://app?vid=4c990c7a-97c8-45e4-aad6-5aa5064c1e5b","ios":"levelo://app?vid=4c990c7a-97c8-45e4-aad6-5aa5064c1e5b"},"vehicle_type_id":"4","last_reported":1701324597,"current_range_meters":27600,"station_id":"ce4bgt12rcd13ifvqcd0","pricing_plan_id":"free"},{"bike_id":"811dc8e5-6f7b-463e-a1e2-91c1120014f6","system_id":"levelo_inurba_marseille","lat":43.314811,"lon":5.373103,"is_reserved":false,"is_disabled":false,"rental_uris":{"android":"levelo://app?vid=811dc8e5-6f7b-463e-a1e2-91c1120014f6","ios":"levelo://app?vid=811dc8e5-6f7b-463e-a1e2-91c1120014f6"},"vehicle_type_id":"4","last_reported":1701324597,"current_range_meters":26400,"station_id":"ce4bgt12rcd13ifvqcd0","pricing_plan_id":"free"},{"bike_id":"74f66dfb-bcc8-4554-a9e3-733b1eff479a","system_id":"levelo_inurba_marseille","lat":43.309039,"lon":5.371797,"is_reserved":false,"is_disabled":false,"rental_uris":{"android":"levelo://app?vid=74f66dfb-bcc8-4554-a9e3-733b1eff479a","ios":"levelo://app?vid=74f66dfb-bcc8-4554-a9e3-733b1eff479a"},"vehicle_type_id":"4","last_reported":1701324597,"current_range_meters":30000,"station_id":"ce4bguh2rcd13ifvqckg","pricing_plan_id":"free"},{"bike_id":"c7c48787-3d7e-43b9-b81f-84fb064e67f4","system_id":"levelo_inurba_marseille","lat":43.30547,"lon":5.367013,"is_reserved":false,"is_disabled":false,"rental_uris":{"android":"levelo://app?vid=c7c48787-3d7e-43b9-b81f-84fb064e67f4","ios":"levelo://app?vid=c7c48787-3d7e-43b9-b81f-84fb064e67f4"},"vehicle_type_id":"4","last_reported":1701324597,"current_range_meters":27200,"station_id":"ce4bgrp2rcd13ifvqc9g","pricing_plan_id":"free"},{"bike_id":"4018703d-6392-4991-a38b-9aa527259db0","system_id":"levelo_inurba_marseille","lat":43.305461,"lon":5.367106,"is_reserved":false,"is_disabled":false,"rental_uris":{"android":"levelo://app?vid=4018703d-6392-4991-a38b-9aa527259db0","ios":"levelo://app?vid=4018703d-6392-4991-a38b-9aa527259db0"},"vehicle_type_id":"4","last_reported":1701324597,"current_range_meters":28800,"station_id":"ce4bgrp2rcd13ifvqc9g","pricing_plan_id":"free"},{"bike_id":"c26c883e-256f-4721-a6ed-b6b2646ceba3","system_id":"levelo_inurba_marseille","lat":43.305423,"lon":5.367103,"is_reserved":false,"is_disabled":false,"rental_uris":{"android":"levelo://app?vid=c26c883e-256f-4721-a6ed-b6b2646ceba3","ios":"levelo://app?vid=c26c883e-256f-4721-a6ed-b6b2646ceba3"},"vehicle_type_id":"4","last_reported":1701324597,"current_range_meters":26400,"station_id":"ce4bgrp2rcd13ifvqc9g","pricing_plan_id":"free"},{"bike_id":"b37793da-4b84-433d-a71d-83f1a8fe24de","system_id":"levelo_inurba_marseille","lat":43.30541,"lon":5.36732,"is_reserved":false,"is_disabled":false,"rental_uris":{"android":"levelo://app?vid=b37793da-4b84-433d-a71d-83f1a8fe24de","ios":"levelo://app?vid=b37793da-4b84-433d-a71d-83f1a8fe24de"},"vehicle_type_id":"4","last_reported":1701324597,"current_range_meters":25200,"station_id":"ce4bgrp2rcd13ifvqc9g","pricing_plan_id":"free"},{"bike_id":"25a7966d-18b8-4331-a19c-926a59620a84","system_id":"levelo_inurba_marseille","lat":43.305369,"lon":5.367139,"is_reserved":false,"is_disabled":false,"rental_uris":{"android":"levelo://app?vid=25a7966d-18b8-4331-a19c-926a59620a84","ios":"levelo://app?vid=25a7966d-18b8-4331-a19c-926a59620a84"},"vehicle_type_id":"4","last_reported":1701324597,"current_range_meters":24400,"station_id":"ce4bgrp2rcd13ifvqc9g","pricing_plan_id":"free"},{"bike_id":"f5c04a62-9dbd-4902-86f8-18c17e44d12b","system_id":"levelo_inurba_marseille","lat":43.305989,"lon":5.37225,"is_reserved":false,"is_disabled":false,"rental_uris":{"android":"levelo://app?vid=f5c04a62-9dbd-4902-86f8-18c17e44d12b","ios":"levelo://app?vid=f5c04a62-9dbd-4902-86f8-18c17e44d12b"},"vehicle_type_id":"4","last_reported":1701324597,"current_range_meters":26800,"station_id":"ce4bgqh2rcd13ifvqc4g","pricing_plan_id":"free"},{"bike_id":"b5129530-3639-47e5-92b6-d358b01a2cff","system_id":"levelo_inurba_marseille","lat":43.308151,"lon":5.37659,"is_reserved":false,"is_disabled":false,"rental_uris":{"android":"levelo://app?vid=b5129530-3639-47e5-92b6-d358b01a2cff","ios":"levelo://app?vid=b5129530-3639-47e5-92b6-d358b01a2cff"},"vehicle_type_id":"4","last_reported":1701324597,"current_range_meters":22000,"station_id":"ce4bgv92rcd13ifvqcq0","pricing_plan_id":"free"},{"bike_id":"f427a2c3-6e4a-446b-ae2f-9be8aa7f4122","system_id":"levelo_inurba_marseille","lat":43.31719,"lon":5.376813,"is_reserved":false,"is_disabled":false,"rental_uris":{"android":"levelo://app?vid=f427a2c3-6e4a-446b-ae2f-9be8aa7f4122","ios":"levelo://app?vid=f427a2c3-6e4a-446b-ae2f-9be8aa7f4122"},"vehicle_type_id":"4","last_reported":1701324597,"current_range_meters":6800,"station_id":"ce4bgth2rcd13ifvqch0","pricing_plan_id":"free"},{"bike_id":"e913f328-1e31-4c22-bd87-f809ea246de4","system_id":"levelo_inurba_marseille","lat":43.317168,"lon":5.376883,"is_reserved":false,"is_disabled":false,"rental_uris":{"android":"levelo://app?vid=e913f328-1e31-4c22-bd87-f809ea246de4","ios":"levelo://app?vid=e913f328-1e31-4c22-bd87-f809ea246de4"},"vehicle_type_id":"4","last_reported":1701324597,"current_range_meters":9200,"station_id":"ce4bgth2rcd13ifvqch0","pricing_plan_id":"free"},{"bike_id":"073e5f28-931f-49b1-b30b-a52b579e61f5","system_id":"levelo_inurba_marseille","lat":43.307945,"lon":5.376487,"is_reserved":false,"is_disabled":false,"rental_uris":{"android":"levelo://app?vid=073e5f28-931f-49b1-b30b-a52b579e61f5","ios":"levelo://app?vid=073e5f28-931f-49b1-b30b-a52b579e61f5"},"vehicle_type_id":"4","last_reported":1701324597,"current_range_meters":30000,"station_id":"ce4bgv92rcd13ifvqcq0","pricing_plan_id":"free"},{"bike_id":"b672c96f-58e6-4971-9ff0-8597eb8e9328","system_id":"levelo_inurba_marseille","lat":43.317075,"lon":5.377367,"is_reserved":false,"is_disabled":false,"rental_uris":{"android":"levelo://app?vid=b672c96f-58e6-4971-9ff0-8597eb8e9328","ios":"levelo://app?vid=b672c96f-58e6-4971-9ff0-8597eb8e9328"},"vehicle_type_id":"4","last_reported":1701324597,"current_range_meters":23200,"station_id":"ce4bgth2rcd13ifvqch0","pricing_plan_id":"free"},{"bike_id":"43f2c56c-e419-4afd-a9d3-226846802988","system_id":"levelo_inurba_marseille","lat":43.317075,"lon":5.377367,"is_reserved":false,"is_disabled":false,"rental_uris":{"android":"levelo://app?vid=43f2c56c-e419-4afd-a9d3-226846802988","ios":"levelo://app?vid=43f2c56c-e419-4afd-a9d3-226846802988"},"vehicle_type_id":"4","last_reported":1701324597,"current_range_meters":30000,"station_id":"ce4bgth2rcd13ifvqch0","pricing_plan_id":"free"},{"bike_id":"1bcb5dd2-15cc-43e2-9f2f-f106a0074e63","system_id":"levelo_inurba_marseille","lat":43.315387,"lon":5.380292,"is_reserved":false,"is_disabled":false,"rental_uris":{"android":"levelo://app?vid=1bcb5dd2-15cc-43e2-9f2f-f106a0074e63","ios":"levelo://app?vid=1bcb5dd2-15cc-43e2-9f2f-f106a0074e63"},"vehicle_type_id":"4","last_reported":1701324597,"current_range_meters":7600,"station_id":"ce4bhsp2rcd13ifvqi50","pricing_plan_id":"free"},{"bike_id":"8624531c-50aa-4d2e-a1e1-3b1f3e5bf86e","system_id":"levelo_inurba_marseille","lat":43.301939,"lon":5.366286,"is_reserved":false,"is_disabled":false,"rental_uris":{"android":"levelo://app?vid=8624531c-50aa-4d2e-a1e1-3b1f3e5bf86e","ios":"levelo://app?vid=8624531c-50aa-4d2e-a1e1-3b1f3e5bf86e"},"vehicle_type_id":"4","last_reported":1701324597,"current_range_meters":29200,"station_id":"ce4bgrh2rcd13ifvqc8g","pricing_plan_id":"free"},{"bike_id":"d371d2ae-ba63-4f15-a9a4-faaff7173407","system_id":"levelo_inurba_marseille","lat":43.304606,"lon":5.379026,"is_reserved":false,"is_disabled":false,"rental_uris":{"android":"levelo://app?vid=d371d2ae-ba63-4f15-a9a4-faaff7173407","ios":"levelo://app?vid=d371d2ae-ba63-4f15-a9a4-faaff7173407"},"vehicle_type_id":"4","last_reported":1701324597,"current_range_meters":30800,"station_id":"ce4bgup2rcd13ifvqcn0","pricing_plan_id":"free"},{"bike_id":"6639ae4d-4269-4b5b-9426-c9e56d79bc2b","system_id":"levelo_inurba_marseille","lat":43.304606,"lon":5.379026,"is_reserved":false,"is_disabled":false,"rental_uris":{"android":"levelo://app?vid=6639ae4d-4269-4b5b-9426-c9e56d79bc2b","ios":"levelo://app?vid=6639ae4d-4269-4b5b-9426-c9e56d79bc2b"},"vehicle_type_id":"4","last_reported":1701324597,"current_range_meters":14400,"station_id":"ce4bgup2rcd13ifvqcn0","pricing_plan_id":"free"},{"bike_id":"52b240cd-859f-4d08-aeac-1bc539eec2de","system_id":"levelo_inurba_marseille","lat":43.304606,"lon":5.379026,"is_reserved":false,"is_disabled":false,"rental_uris":{"android":"levelo://app?vid=52b240cd-859f-4d08-aeac-1bc539eec2de","ios":"levelo://app?vid=52b240cd-859f-4d08-aeac-1bc539eec2de"},"vehicle_type_id":"4","last_reported":1701324597,"current_range_meters":17600,"station_id":"ce4bgup2rcd13ifvqcn0","pricing_plan_id":"free"},{"bike_id":"6154598d-086e-4bb0-ab40-969e62e799f8","system_id":"levelo_inurba_marseille","lat":43.304606,"lon":5.379026,"is_reserved":false,"is_disabled":false,"rental_uris":{"android":"levelo://app?vid=6154598d-086e-4bb0-ab40-969e62e799f8","ios":"levelo://app?vid=6154598d-086e-4bb0-ab40-969e62e799f8"},"vehicle_type_id":"4","last_reported":1701324597,"current_range_meters":4000,"station_id":"ce4bgup2rcd13ifvqcn0","pricing_plan_id":"free"},{"bike_id":"626b375a-3b68-430c-bc87-21672a9bad8a","system_id":"levelo_inurba_marseille","lat":43.304606,"lon":5.379026,"is_reserved":false,"is_disabled":false,"rental_uris":{"android":"levelo://app?vid=626b375a-3b68-430c-bc87-21672a9bad8a","ios":"levelo://app?vid=626b375a-3b68-430c-bc87-21672a9bad8a"},"vehicle_type_id":"4","last_reported":1701324597,"current_range_meters":24000,"station_id":"ce4bgup2rcd13ifvqcn0","pricing_plan_id":"free"},{"bike_id":"8f514f4d-00ae-412e-9fc7-a5f328355377","system_id":"levelo_inurba_marseille","lat":43.304606,"lon":5.379026,"is_reserved":false,"is_disabled":false,"rental_uris":{"android":"levelo://app?vid=8f514f4d-00ae-412e-9fc7-a5f328355377","ios":"levelo://app?vid=8f514f4d-00ae-412e-9fc7-a5f328355377"},"vehicle_type_id":"4","last_reported":1701324597,"current_range_meters":22800,"station_id":"ce4bgup2rcd13ifvqcn0","pricing_plan_id":"free"},{"bike_id":"e8308f7f-e8ce-4c3a-8226-369ec33f1aba","system_id":"levelo_inurba_marseille","lat":43.304606,"lon":5.379026,"is_reserved":false,"is_disabled":false,"rental_uris":{"android":"levelo://app?vid=e8308f7f-e8ce-4c3a-8226-369ec33f1aba","ios":"levelo://app?vid=e8308f7f-e8ce-4c3a-8226-369ec33f1aba"},"vehicle_type_id":"4","last_reported":1701324597,"current_range_meters":17200,"station_id":"ce4bgup2rcd13ifvqcn0","pricing_plan_id":"free"},{"bike_id":"50b40bb0-0f88-41df-8c25-d5574bd4cc82","system_id":"levelo_inurba_marseille","lat":43.304606,"lon":5.379026,"is_reserved":false,"is_disabled":false,"rental_uris":{"android":"levelo://app?vid=50b40bb0-0f88-41df-8c25-d5574bd4cc82","ios":"levelo://app?vid=50b40bb0-0f88-41df-8c25-d5574bd4cc82"},"vehicle_type_id":"4","last_reported":1701324597,"current_range_meters":30400,"station_id":"ce4bgup2rcd13ifvqcn0","pricing_plan_id":"free"},{"bike_id":"8f7877d3-fdf2-4121-9903-81cc2589ee5f","system_id":"levelo_inurba_marseille","lat":43.304606,"lon":5.379026,"is_reserved":false,"is_disabled":false,"rental_uris":{"android":"levelo://app?vid=8f7877d3-fdf2-4121-9903-81cc2589ee5f","ios":"levelo://app?vid=8f7877d3-fdf2-4121-9903-81cc2589ee5f"},"vehicle_type_id":"4","last_reported":1701324597,"current_range_meters":30400,"station_id":"ce4bgup2rcd13ifvqcn0","pricing_plan_id":"free"},{"bike_id":"5f0dcc7e-fe2f-41ae-b9b7-07b5430b86ee","system_id":"levelo_inurba_marseille","lat":43.324771,"lon":5.36557,"is_reserved":false,"is_disabled":false,"rental_uris":{"android":"levelo://app?vid=5f0dcc7e-fe2f-41ae-b9b7-07b5430b86ee","ios":"levelo://app?vid=5f0dcc7e-fe2f-41ae-b9b7-07b5430b86ee"},"vehicle_type_id":"4","last_reported":1701324597,"current_range_meters":15600,"station_id":"ce4bhs12rcd13ifvqhvg","pricing_plan_id":"free"},{"bike_id":"7698e9c3-cba2-4208-95d6-52b07709b8a8","system_id":"levelo_inurba_marseille","lat":43.324771,"lon":5.36557,"is_reserved":false,"is_disabled":false,"rental_uris":{"android":"levelo://app?vid=7698e9c3-cba2-4208-95d6-52b07709b8a8","ios":"levelo://app?vid=7698e9c3-cba2-4208-95d6-52b07709b8a8"},"vehicle_type_id":"4","last_reported":1701324597,"current_range_meters":17600,"station_id":"ce4bhs12rcd13ifvqhvg","pricing_plan_id":"free"},{"bike_id":"5a281fd0-efde-4685-b515-d8ad126d902c","system_id":"levelo_inurba_marseille","lat":43.302784,"lon":5.377158,"is_reserved":false,"is_disabled":false,"rental_uris":{"android":"levelo://app?vid=5a281fd0-efde-4685-b515-d8ad126d902c","ios":"levelo://app?vid=5a281fd0-efde-4685-b515-d8ad126d902c"},"vehicle_type_id":"4","last_reported":1701324597,"current_range_meters":30000,"station_id":"ce4bguh2rcd13ifvqcj0","pricing_plan_id":"free"},{"bike_id":"ee5ec98d-f950-4624-a5ef-e0005a4bf5ac","system_id":"levelo_inurba_marseille","lat":43.30143,"lon":5.37413,"is_reserved":false,"is_disabled":false,"rental_uris":{"android":"levelo://app?vid=ee5ec98d-f950-4624-a5ef-e0005a4bf5ac","ios":"levelo://app?vid=ee5ec98d-f950-4624-a5ef-e0005a4bf5ac"},"vehicle_type_id":"4","last_reported":1701324597,"current_range_meters":13600,"station_id":"ce4bgs92rcd13ifvqcc0","pricing_plan_id":"free"},{"bike_id":"111dc163-9df0-4c3f-a6c2-82c836985a71","system_id":"levelo_inurba_marseille","lat":43.30143,"lon":5.37413,"is_reserved":false,"is_disabled":false,"rental_uris":{"android":"levelo://app?vid=111dc163-9df0-4c3f-a6c2-82c836985a71","ios":"levelo://app?vid=111dc163-9df0-4c3f-a6c2-82c836985a71"},"vehicle_type_id":"4","last_reported":1701324597,"current_range_meters":25600,"station_id":"ce4bgs92rcd13ifvqcc0","pricing_plan_id":"free"},{"bike_id":"4c1d2c9c-b702-463f-a8e8-cbb9ddd56b0b","system_id":"levelo_inurba_marseille","lat":43.30143,"lon":5.37413,"is_reserved":false,"is_disabled":false,"rental_uris":{"android":"levelo://app?vid=4c1d2c9c-b702-463f-a8e8-cbb9ddd56b0b","ios":"levelo://app?vid=4c1d2c9c-b702-463f-a8e8-cbb9ddd56b0b"},"vehicle_type_id":"4","last_reported":1701324597,"current_range_meters":29600,"station_id":"ce4bgs92rcd13ifvqcc0","pricing_plan_id":"free"},{"bike_id":"9ea36c81-035c-4b29-9c4b-dc4f03e55be4","system_id":"levelo_inurba_marseille","lat":43.301429,"lon":5.37413,"is_reserved":false,"is_disabled":false,"rental_uris":{"android":"levelo://app?vid=9ea36c81-035c-4b29-9c4b-dc4f03e55be4","ios":"levelo://app?vid=9ea36c81-035c-4b29-9c4b-dc4f03e55be4"},"vehicle_type_id":"4","last_reported":1701324597,"current_range_meters":22000,"station_id":"ce4bgs92rcd13ifvqcc0","pricing_plan_id":"free"},{"bike_id":"565095b7-316d-4677-b34c-7054bea3c533","system_id":"levelo_inurba_marseille","lat":43.31995,"lon":5.38142,"is_reserved":false,"is_disabled":false,"rental_uris":{"android":"levelo://app?vid=565095b7-316d-4677-b34c-7054bea3c533","ios":"levelo://app?vid=565095b7-316d-4677-b34c-7054bea3c533"},"vehicle_type_id":"4","last_reported":1701324597,"current_range_meters":18800,"station_id":"ce4bhr12rcd13ifvqhpg","pricing_plan_id":"free"},{"bike_id":"3e01df68-27f0-42b4-ac09-2ec4a13acda6","system_id":"levelo_inurba_marseille","lat":43.319977,"lon":5.38143,"is_reserved":false,"is_disabled":false,"rental_uris":{"android":"levelo://app?vid=3e01df68-27f0-42b4-ac09-2ec4a13acda6","ios":"levelo://app?vid=3e01df68-27f0-42b4-ac09-2ec4a13acda6"},"vehicle_type_id":"4","last_reported":1701324597,"current_range_meters":9200,"station_id":"ce4bhr12rcd13ifvqhpg","pricing_plan_id":"free"},{"bike_id":"2275aca5-3158-4c2c-8022-ca5d2714bc86","system_id":"levelo_inurba_marseille","lat":43.319997,"lon":5.381594,"is_reserved":false,"is_disabled":false,"rental_uris":{"android":"levelo://app?vid=2275aca5-3158-4c2c-8022-ca5d2714bc86","ios":"levelo://app?vid=2275aca5-3158-4c2c-8022-ca5d2714bc86"},"vehicle_type_id":"4","last_reported":1701324597,"current_range_meters":24000,"station_id":"ce4bhr12rcd13ifvqhpg","pricing_plan_id":"free"},{"bike_id":"a701b73d-3c23-40f8-915a-bc61bd35564e","system_id":"levelo_inurba_marseille","lat":43.313571,"lon":5.384829,"is_reserved":false,"is_disabled":false,"rental_uris":{"android":"levelo://app?vid=a701b73d-3c23-40f8-915a-bc61bd35564e","ios":"levelo://app?vid=a701b73d-3c23-40f8-915a-bc61bd35564e"},"vehicle_type_id":"4","last_reported":1701324597,"current_range_meters":5200,"station_id":"ce4bgt92rcd13ifvqcf0","pricing_plan_id":"free"},{"bike_id":"c34c5b24-27cc-4568-9c4f-8442b0eb6289","system_id":"levelo_inurba_marseille","lat":43.299222,"lon":5.365554,"is_reserved":false,"is_disabled":false,"rental_uris":{"android":"levelo://app?vid=c34c5b24-27cc-4568-9c4f-8442b0eb6289","ios":"levelo://app?vid=c34c5b24-27cc-4568-9c4f-8442b0eb6289"},"vehicle_type_id":"4","last_reported":1701324597,"current_range_meters":400,"station_id":"ce4bgm92rcd13ifvqbr0","pricing_plan_id":"free"},{"bike_id":"435de91f-e0a5-47cd-b117-aa8a7bc73de0","system_id":"levelo_inurba_marseille","lat":43.299222,"lon":5.365554,"is_reserved":false,"is_disabled":false,"rental_uris":{"android":"levelo://app?vid=435de91f-e0a5-47cd-b117-aa8a7bc73de0","ios":"levelo://app?vid=435de91f-e0a5-47cd-b117-aa8a7bc73de0"},"vehicle_type_id":"4","last_reported":1701324597,"current_range_meters":7200,"station_id":"ce4bgm92rcd13ifvqbr0","pricing_plan_id":"free"},{"bike_id":"30e155ec-3ca0-4d06-82cf-e5748ac19e6b","system_id":"levelo_inurba_marseille","lat":43.311722,"lon":5.387247,"is_reserved":false,"is_disabled":false,"rental_uris":{"android":"levelo://app?vid=30e155ec-3ca0-4d06-82cf-e5748ac19e6b","ios":"levelo://app?vid=30e155ec-3ca0-4d06-82cf-e5748ac19e6b"},"vehicle_type_id":"4","last_reported":1701324597,"current_range_meters":27600,"station_id":"ce4bgv12rcd13ifvqcp0","pricing_plan_id":"free"},{"bike_id":"aebb5f1f-3a1e-4323-a4f0-ae83e0b78d14","system_id":"levelo_inurba_marseille","lat":43.327603,"lon":5.36705,"is_reserved":false,"is_disabled":false,"rental_uris":{"android":"levelo://app?vid=aebb5f1f-3a1e-4323-a4f0-ae83e0b78d14","ios":"levelo://app?vid=aebb5f1f-3a1e-4323-a4f0-ae83e0b78d14"},"vehicle_type_id":"4","last_reported":1701324597,"current_range_meters":25600,"station_id":"","pricing_plan_id":"free"},{"bike_id":"54e930f2-3c1e-4bc3-86f3-a276ab4fd435","system_id":"levelo_inurba_marseille","lat":43.297774,"lon":5.370875,"is_reserved":false,"is_disabled":false,"rental_uris":{"android":"levelo://app?vid=54e930f2-3c1e-4bc3-86f3-a276ab4fd435","ios":"levelo://app?vid=54e930f2-3c1e-4bc3-86f3-a276ab4fd435"},"vehicle_type_id":"4","last_reported":1701324597,"current_range_meters":28800,"station_id":"ce4bgop2rcd13ifvqc1g","pricing_plan_id":"free"},{"bike_id":"b1f1c99b-ffc0-4368-813e-ae4d547f1040","system_id":"levelo_inurba_marseille","lat":43.32811,"lon":5.36689,"is_reserved":false,"is_disabled":false,"rental_uris":{"android":"levelo://app?vid=b1f1c99b-ffc0-4368-813e-ae4d547f1040","ios":"levelo://app?vid=b1f1c99b-ffc0-4368-813e-ae4d547f1040"},"vehicle_type_id":"4","last_reported":1701324597,"current_range_meters":24800,"station_id":"ce4bhs92rcd13ifvqi0g","pricing_plan_id":"free"},{"bike_id":"80161041-4fde-43fb-92bd-e0888f9d143a","system_id":"levelo_inurba_marseille","lat":43.328371,"lon":5.366909,"is_reserved":false,"is_disabled":false,"rental_uris":{"android":"levelo://app?vid=80161041-4fde-43fb-92bd-e0888f9d143a","ios":"levelo://app?vid=80161041-4fde-43fb-92bd-e0888f9d143a"},"vehicle_type_id":"4","last_reported":1701324597,"current_range_meters":19200,"station_id":"ce4bhs92rcd13ifvqi0g","pricing_plan_id":"free"},{"bike_id":"56768e4e-9386-4af4-86a9-5511352d419c","system_id":"levelo_inurba_marseille","lat":43.295918,"lon":5.36728,"is_reserved":false,"is_disabled":false,"rental_uris":{"android":"levelo://app?vid=56768e4e-9386-4af4-86a9-5511352d419c","ios":"levelo://app?vid=56768e4e-9386-4af4-86a9-5511352d419c"},"vehicle_type_id":"4","last_reported":1701324597,"current_range_meters":8800,"station_id":"ce4bgph2rcd13ifvqc2g","pricing_plan_id":"free"},{"bike_id":"f3449596-e9b3-46af-9337-6058b9c8cebb","system_id":"levelo_inurba_marseille","lat":43.29573,"lon":5.367355,"is_reserved":false,"is_disabled":false,"rental_uris":{"android":"levelo://app?vid=f3449596-e9b3-46af-9337-6058b9c8cebb","ios":"levelo://app?vid=f3449596-e9b3-46af-9337-6058b9c8cebb"},"vehicle_type_id":"4","last_reported":1701324597,"current_range_meters":27600,"station_id":"ce4bgph2rcd13ifvqc2g","pricing_plan_id":"free"},{"bike_id":"7a15b5ab-0736-402f-8e68-5faedbfa40db","system_id":"levelo_inurba_marseille","lat":43.299028,"lon":5.381509,"is_reserved":false,"is_disabled":false,"rental_uris":{"android":"levelo://app?vid=7a15b5ab-0736-402f-8e68-5faedbfa40db","ios":"levelo://app?vid=7a15b5ab-0736-402f-8e68-5faedbfa40db"},"vehicle_type_id":"4","last_reported":1701324597,"current_range_meters":27600,"station_id":"ce4bgj12rcd13ifvqbc0","pricing_plan_id":"free"},{"bike_id":"df78cd82-1370-4f57-8424-2543bd78e71f","system_id":"levelo_inurba_marseille","lat":43.309525,"lon":5.390248,"is_reserved":false,"is_disabled":false,"rental_uris":{"android":"levelo://app?vid=df78cd82-1370-4f57-8424-2543bd78e71f","ios":"levelo://app?vid=df78cd82-1370-4f57-8424-2543bd78e71f"},"vehicle_type_id":"4","last_reported":1701324597,"current_range_meters":22000,"station_id":"ce4bgup2rcd13ifvqco0","pricing_plan_id":"free"},{"bike_id":"d90f30d7-11b0-469c-a580-6482cbde2e44","system_id":"levelo_inurba_marseille","lat":43.30954,"lon":5.39041,"is_reserved":false,"is_disabled":false,"rental_uris":{"android":"levelo://app?vid=d90f30d7-11b0-469c-a580-6482cbde2e44","ios":"levelo://app?vid=d90f30d7-11b0-469c-a580-6482cbde2e44"},"vehicle_type_id":"4","last_reported":1701324597,"current_range_meters":0,"station_id":"ce4bgup2rcd13ifvqco0","pricing_plan_id":"free"},{"bike_id":"43eb693a-7731-4c2c-a684-7c11c428570c","system_id":"levelo_inurba_marseille","lat":43.298037,"lon":5.381066,"is_reserved":false,"is_disabled":false,"rental_uris":{"android":"levelo://app?vid=43eb693a-7731-4c2c-a684-7c11c428570c","ios":"levelo://app?vid=43eb693a-7731-4c2c-a684-7c11c428570c"},"vehicle_type_id":"4","last_reported":1701324597,"current_range_meters":26800,"station_id":"ce4bgip2rcd13ifvqbb0","pricing_plan_id":"free"},{"bike_id":"f1f89844-1587-475d-936a-489c128b9623","system_id":"levelo_inurba_marseille","lat":43.296263,"lon":5.377094,"is_reserved":false,"is_disabled":false,"rental_uris":{"android":"levelo://app?vid=f1f89844-1587-475d-936a-489c128b9623","ios":"levelo://app?vid=f1f89844-1587-475d-936a-489c128b9623"},"vehicle_type_id":"4","last_reported":1701324597,"current_range_meters":23200,"station_id":"ce4bgi92rcd13ifvqb90","pricing_plan_id":"free"},{"bike_id":"b5b6d74a-fdd1-42ed-b97d-b79f0fbf1f9d","system_id":"levelo_inurba_marseille","lat":43.293009,"lon":5.374584,"is_reserved":false,"is_disabled":false,"rental_uris":{"android":"levelo://app?vid=b5b6d74a-fdd1-42ed-b97d-b79f0fbf1f9d","ios":"levelo://app?vid=b5b6d74a-fdd1-42ed-b97d-b79f0fbf1f9d"},"vehicle_type_id":"4","last_reported":1701324597,"current_range_meters":26000,"station_id":"ce4bgi12rcd13ifvqb70","pricing_plan_id":"free"},{"bike_id":"1e4db16d-ee71-44a8-a01c-a7b9952fb11e","system_id":"levelo_inurba_marseille","lat":43.302992,"lon":5.392136,"is_reserved":false,"is_disabled":false,"rental_uris":{"android":"levelo://app?vid=1e4db16d-ee71-44a8-a01c-a7b9952fb11e","ios":"levelo://app?vid=1e4db16d-ee71-44a8-a01c-a7b9952fb11e"},"vehicle_type_id":"4","last_reported":1701324597,"current_range_meters":14400,"station_id":"ce4bgkh2rcd13ifvqbk0","pricing_plan_id":"free"},{"bike_id":"3e7ed083-e97a-4c08-a1ba-bd6708800fc4","system_id":"levelo_inurba_marseille","lat":43.30085,"lon":5.390856,"is_reserved":false,"is_disabled":false,"rental_uris":{"android":"levelo://app?vid=3e7ed083-e97a-4c08-a1ba-bd6708800fc4","ios":"levelo://app?vid=3e7ed083-e97a-4c08-a1ba-bd6708800fc4"},"vehicle_type_id":"4","last_reported":1701324597,"current_range_meters":29200,"station_id":"ce4bh192rcd13ifvqdb0","pricing_plan_id":"free"},{"bike_id":"bfd3884b-3a94-4cd4-87e3-c07a3c24d07c","system_id":"levelo_inurba_marseille","lat":43.30085,"lon":5.390856,"is_reserved":false,"is_disabled":false,"rental_uris":{"android":"levelo://app?vid=bfd3884b-3a94-4cd4-87e3-c07a3c24d07c","ios":"levelo://app?vid=bfd3884b-3a94-4cd4-87e3-c07a3c24d07c"},"vehicle_type_id":"4","last_reported":1701324597,"current_range_meters":27200,"station_id":"ce4bh192rcd13ifvqdb0","pricing_plan_id":"free"},{"bike_id":"5065875c-05cf-4751-9199-730b4b85ab55","system_id":"levelo_inurba_marseille","lat":43.30085,"lon":5.390856,"is_reserved":false,"is_disabled":false,"rental_uris":{"android":"levelo://app?vid=5065875c-05cf-4751-9199-730b4b85ab55","ios":"levelo://app?vid=5065875c-05cf-4751-9199-730b4b85ab55"},"vehicle_type_id":"4","last_reported":1701324597,"current_range_meters":28400,"station_id":"ce4bh192rcd13ifvqdb0","pricing_plan_id":"free"},{"bike_id":"ed8ebb71-f2f8-48ca-8f7a-00053913057e","system_id":"levelo_inurba_marseille","lat":43.292311,"lon":5.360731,"is_reserved":false,"is_disabled":false,"rental_uris":{"android":"levelo://app?vid=ed8ebb71-f2f8-48ca-8f7a-00053913057e","ios":"levelo://app?vid=ed8ebb71-f2f8-48ca-8f7a-00053913057e"},"vehicle_type_id":"4","last_reported":1701324597,"current_range_meters":24000,"station_id":"ce4bhbh2rcd13ifvqeqg","pricing_plan_id":"free"},{"bike_id":"0a1dbef4-5087-49b0-bdc7-88994f38ccda","system_id":"levelo_inurba_marseille","lat":43.291675,"lon":5.371583,"is_reserved":false,"is_disabled":false,"rental_uris":{"android":"levelo://app?vid=0a1dbef4-5087-49b0-bdc7-88994f38ccda","ios":"levelo://app?vid=0a1dbef4-5087-49b0-bdc7-88994f38ccda"},"vehicle_type_id":"4","last_reported":1701324597,"current_range_meters":18000,"station_id":"ce4bha92rcd13ifvqeh0","pricing_plan_id":"free"},{"bike_id":"3ab0657b-ffa6-4b7b-8e7f-15b5b391b91f","system_id":"levelo_inurba_marseille","lat":43.309047,"lon":5.396551,"is_reserved":false,"is_disabled":false,"rental_uris":{"android":"levelo://app?vid=3ab0657b-ffa6-4b7b-8e7f-15b5b391b91f","ios":"levelo://app?vid=3ab0657b-ffa6-4b7b-8e7f-15b5b391b91f"},"vehicle_type_id":"4","last_reported":1701324597,"current_range_meters":31200,"station_id":"ce4bh012rcd13ifvqcv0","pricing_plan_id":"free"},{"bike_id":"ca514639-382e-49c2-adf8-4bfa06ee29e9","system_id":"levelo_inurba_marseille","lat":43.309038,"lon":5.396546,"is_reserved":false,"is_disabled":false,"rental_uris":{"android":"levelo://app?vid=ca514639-382e-49c2-adf8-4bfa06ee29e9","ios":"levelo://app?vid=ca514639-382e-49c2-adf8-4bfa06ee29e9"},"vehicle_type_id":"4","last_reported":1701324597,"current_range_meters":31200,"station_id":"ce4bh012rcd13ifvqcv0","pricing_plan_id":"free"},{"bike_id":"d96c8dd8-23c3-410c-bccb-8d3d25a8ad20","system_id":"levelo_inurba_marseille","lat":43.309038,"lon":5.396546,"is_reserved":false,"is_disabled":false,"rental_uris":{"android":"levelo://app?vid=d96c8dd8-23c3-410c-bccb-8d3d25a8ad20","ios":"levelo://app?vid=d96c8dd8-23c3-410c-bccb-8d3d25a8ad20"},"vehicle_type_id":"4","last_reported":1701324597,"current_range_meters":31200,"station_id":"ce4bh012rcd13ifvqcv0","pricing_plan_id":"free"},{"bike_id":"525bebc4-5fd4-46a8-a7e0-53952eb0c313","system_id":"levelo_inurba_marseille","lat":43.309047,"lon":5.396551,"is_reserved":false,"is_disabled":false,"rental_uris":{"android":"levelo://app?vid=525bebc4-5fd4-46a8-a7e0-53952eb0c313","ios":"levelo://app?vid=525bebc4-5fd4-46a8-a7e0-53952eb0c313"},"vehicle_type_id":"4","last_reported":1701324597,"current_range_meters":14800,"station_id":"ce4bh012rcd13ifvqcv0","pricing_plan_id":"free"},{"bike_id":"9fc02e1b-18cf-4ba2-a4b6-43fb4433d289","system_id":"levelo_inurba_marseille","lat":43.308867,"lon":5.396427,"is_reserved":false,"is_disabled":false,"rental_uris":{"android":"levelo://app?vid=9fc02e1b-18cf-4ba2-a4b6-43fb4433d289","ios":"levelo://app?vid=9fc02e1b-18cf-4ba2-a4b6-43fb4433d289"},"vehicle_type_id":"4","last_reported":1701324597,"current_range_meters":800,"station_id":"ce4bh012rcd13ifvqcv0","pricing_plan_id":"free"},{"bike_id":"3842212e-cdf8-408b-b825-8e132af203fd","system_id":"levelo_inurba_marseille","lat":43.309038,"lon":5.396546,"is_reserved":false,"is_disabled":false,"rental_uris":{"android":"levelo://app?vid=3842212e-cdf8-408b-b825-8e132af203fd","ios":"levelo://app?vid=3842212e-cdf8-408b-b825-8e132af203fd"},"vehicle_type_id":"4","last_reported":1701324597,"current_range_meters":30800,"station_id":"ce4bh012rcd13ifvqcv0","pricing_plan_id":"free"},{"bike_id":"5f37aa65-c2d6-45c5-901e-c16f106965a7","system_id":"levelo_inurba_marseille","lat":43.309038,"lon":5.396546,"is_reserved":false,"is_disabled":false,"rental_uris":{"android":"levelo://app?vid=5f37aa65-c2d6-45c5-901e-c16f106965a7","ios":"levelo://app?vid=5f37aa65-c2d6-45c5-901e-c16f106965a7"},"vehicle_type_id":"4","last_reported":1701324597,"current_range_meters":31200,"station_id":"ce4bh012rcd13ifvqcv0","pricing_plan_id":"free"},{"bike_id":"9a464b49-8b76-42f5-87b8-a5b532492b08","system_id":"levelo_inurba_marseille","lat":43.31325,"lon":5.39693,"is_reserved":false,"is_disabled":false,"rental_uris":{"android":"levelo://app?vid=9a464b49-8b76-42f5-87b8-a5b532492b08","ios":"levelo://app?vid=9a464b49-8b76-42f5-87b8-a5b532492b08"},"vehicle_type_id":"4","last_reported":1701324597,"current_range_meters":24800,"station_id":"ce4bgvp2rcd13ifvqcu0","pricing_plan_id":"free"},{"bike_id":"d83f094f-82ea-4268-83eb-6c4ef0f8caeb","system_id":"levelo_inurba_marseille","lat":43.313291,"lon":5.396838,"is_reserved":false,"is_disabled":false,"rental_uris":{"android":"levelo://app?vid=d83f094f-82ea-4268-83eb-6c4ef0f8caeb","ios":"levelo://app?vid=d83f094f-82ea-4268-83eb-6c4ef0f8caeb"},"vehicle_type_id":"4","last_reported":1701324597,"current_range_meters":7600,"station_id":"ce4bgvp2rcd13ifvqcu0","pricing_plan_id":"free"},{"bike_id":"7c3a263f-151a-4a8a-88c3-35f7de6c51ae","system_id":"levelo_inurba_marseille","lat":43.313281,"lon":5.396936,"is_reserved":false,"is_disabled":false,"rental_uris":{"android":"levelo://app?vid=7c3a263f-151a-4a8a-88c3-35f7de6c51ae","ios":"levelo://app?vid=7c3a263f-151a-4a8a-88c3-35f7de6c51ae"},"vehicle_type_id":"4","last_reported":1701324597,"current_range_meters":30000,"station_id":"ce4bgvp2rcd13ifvqcu0","pricing_plan_id":"free"},{"bike_id":"d3c6091f-bc1e-4fcc-99a3-266ab434bc60","system_id":"levelo_inurba_marseille","lat":43.313291,"lon":5.396838,"is_reserved":false,"is_disabled":false,"rental_uris":{"android":"levelo://app?vid=d3c6091f-bc1e-4fcc-99a3-266ab434bc60","ios":"levelo://app?vid=d3c6091f-bc1e-4fcc-99a3-266ab434bc60"},"vehicle_type_id":"4","last_reported":1701324597,"current_range_meters":22800,"station_id":"ce4bgvp2rcd13ifvqcu0","pricing_plan_id":"free"},{"bike_id":"ae4e7b32-555c-4936-84e1-819c59cc4b63","system_id":"levelo_inurba_marseille","lat":43.295344,"lon":5.385421,"is_reserved":false,"is_disabled":false,"rental_uris":{"android":"levelo://app?vid=ae4e7b32-555c-4936-84e1-819c59cc4b63","ios":"levelo://app?vid=ae4e7b32-555c-4936-84e1-819c59cc4b63"},"vehicle_type_id":"4","last_reported":1701324597,"current_range_meters":7600,"station_id":"ce4bgih2rcd13ifvqba0","pricing_plan_id":"free"},{"bike_id":"fa5adcd2-2b9a-4711-8b07-9ce42d0bee97","system_id":"levelo_inurba_marseille","lat":43.290392,"lon":5.375711,"is_reserved":false,"is_disabled":false,"rental_uris":{"android":"levelo://app?vid=fa5adcd2-2b9a-4711-8b07-9ce42d0bee97","ios":"levelo://app?vid=fa5adcd2-2b9a-4711-8b07-9ce42d0bee97"},"vehicle_type_id":"4","last_reported":1701324597,"current_range_meters":18800,"station_id":"ce4bh692rcd13ifvqe90","pricing_plan_id":"free"},{"bike_id":"e214df8c-5a2e-4f6f-ba92-636884d0d56b","system_id":"levelo_inurba_marseille","lat":43.290327,"lon":5.375711,"is_reserved":false,"is_disabled":false,"rental_uris":{"android":"levelo://app?vid=e214df8c-5a2e-4f6f-ba92-636884d0d56b","ios":"levelo://app?vid=e214df8c-5a2e-4f6f-ba92-636884d0d56b"},"vehicle_type_id":"4","last_reported":1701324597,"current_range_meters":29200,"station_id":"ce4bh692rcd13ifvqe90","pricing_plan_id":"free"},{"bike_id":"dd2169e6-d554-4534-bbc7-6685222618d8","system_id":"levelo_inurba_marseille","lat":43.29001,"lon":5.356155,"is_reserved":false,"is_disabled":false,"rental_uris":{"android":"levelo://app?vid=dd2169e6-d554-4534-bbc7-6685222618d8","ios":"levelo://app?vid=dd2169e6-d554-4534-bbc7-6685222618d8"},"vehicle_type_id":"4","last_reported":1701324597,"current_range_meters":0,"station_id":"ce4bhb92rcd13ifvqen0","pricing_plan_id":"free"},{"bike_id":"17a1f976-5147-4e4b-8261-df6c06701252","system_id":"levelo_inurba_marseille","lat":43.290104,"lon":5.356111,"is_reserved":false,"is_disabled":false,"rental_uris":{"android":"levelo://app?vid=17a1f976-5147-4e4b-8261-df6c06701252","ios":"levelo://app?vid=17a1f976-5147-4e4b-8261-df6c06701252"},"vehicle_type_id":"4","last_reported":1701324597,"current_range_meters":30000,"station_id":"ce4bhb92rcd13ifvqen0","pricing_plan_id":"free"},{"bike_id":"7e34c1df-fcde-4ff6-80fa-e9c11d943004","system_id":"levelo_inurba_marseille","lat":43.289743,"lon":5.378304,"is_reserved":false,"is_disabled":false,"rental_uris":{"android":"levelo://app?vid=7e34c1df-fcde-4ff6-80fa-e9c11d943004","ios":"levelo://app?vid=7e34c1df-fcde-4ff6-80fa-e9c11d943004"},"vehicle_type_id":"4","last_reported":1701324597,"current_range_meters":0,"station_id":"ce4bh9p2rcd13ifvqed0","pricing_plan_id":"free"},{"bike_id":"3040633c-9f97-499d-832a-346af80ae363","system_id":"levelo_inurba_marseille","lat":43.297815,"lon":5.393548,"is_reserved":false,"is_disabled":false,"rental_uris":{"android":"levelo://app?vid=3040633c-9f97-499d-832a-346af80ae363","ios":"levelo://app?vid=3040633c-9f97-499d-832a-346af80ae363"},"vehicle_type_id":"4","last_reported":1701324597,"current_range_meters":30000,"station_id":"chh1huq6cuj3fo74tm60","pricing_plan_id":"free"},{"bike_id":"8ad8f874-9fbe-4e0a-bc53-f65dfe37dc04","system_id":"levelo_inurba_marseille","lat":43.289743,"lon":5.378304,"is_reserved":false,"is_disabled":false,"rental_uris":{"android":"levelo://app?vid=8ad8f874-9fbe-4e0a-bc53-f65dfe37dc04","ios":"levelo://app?vid=8ad8f874-9fbe-4e0a-bc53-f65dfe37dc04"},"vehicle_type_id":"4","last_reported":1701324597,"current_range_meters":28800,"station_id":"ce4bh9p2rcd13ifvqed0","pricing_plan_id":"free"},{"bike_id":"58b62225-256e-4d7a-addd-88854b12de0e","system_id":"levelo_inurba_marseille","lat":43.28856,"lon":5.358371,"is_reserved":false,"is_disabled":false,"rental_uris":{"android":"levelo://app?vid=58b62225-256e-4d7a-addd-88854b12de0e","ios":"levelo://app?vid=58b62225-256e-4d7a-addd-88854b12de0e"},"vehicle_type_id":"4","last_reported":1701324597,"current_range_meters":18800,"station_id":"ce4bhb12rcd13ifvqem0","pricing_plan_id":"free"},{"bike_id":"78251cb9-b29c-416f-8221-0db1c429dace","system_id":"levelo_inurba_marseille","lat":43.28856,"lon":5.358371,"is_reserved":false,"is_disabled":false,"rental_uris":{"android":"levelo://app?vid=78251cb9-b29c-416f-8221-0db1c429dace","ios":"levelo://app?vid=78251cb9-b29c-416f-8221-0db1c429dace"},"vehicle_type_id":"4","last_reported":1701324597,"current_range_meters":25600,"station_id":"ce4bhb12rcd13ifvqem0","pricing_plan_id":"free"},{"bike_id":"f294f06c-942d-492a-9674-b89096137224","system_id":"levelo_inurba_marseille","lat":43.28856,"lon":5.358371,"is_reserved":false,"is_disabled":false,"rental_uris":{"android":"levelo://app?vid=f294f06c-942d-492a-9674-b89096137224","ios":"levelo://app?vid=f294f06c-942d-492a-9674-b89096137224"},"vehicle_type_id":"4","last_reported":1701324597,"current_range_meters":30000,"station_id":"ce4bhb12rcd13ifvqem0","pricing_plan_id":"free"},{"bike_id":"bd5a5c31-6495-426c-82e9-f1d928ff8b17","system_id":"levelo_inurba_marseille","lat":43.28856,"lon":5.358371,"is_reserved":false,"is_disabled":false,"rental_uris":{"android":"levelo://app?vid=bd5a5c31-6495-426c-82e9-f1d928ff8b17","ios":"levelo://app?vid=bd5a5c31-6495-426c-82e9-f1d928ff8b17"},"vehicle_type_id":"4","last_reported":1701324597,"current_range_meters":31200,"station_id":"ce4bhb12rcd13ifvqem0","pricing_plan_id":"free"},{"bike_id":"8dd6119c-7aef-4d30-9ad4-05127783a43f","system_id":"levelo_inurba_marseille","lat":43.28856,"lon":5.358371,"is_reserved":false,"is_disabled":false,"rental_uris":{"android":"levelo://app?vid=8dd6119c-7aef-4d30-9ad4-05127783a43f","ios":"levelo://app?vid=8dd6119c-7aef-4d30-9ad4-05127783a43f"},"vehicle_type_id":"4","last_reported":1701324597,"current_range_meters":31200,"station_id":"ce4bhb12rcd13ifvqem0","pricing_plan_id":"free"},{"bike_id":"f3090319-3b82-4b93-8444-9fab36f667e8","system_id":"levelo_inurba_marseille","lat":43.288448,"lon":5.358407,"is_reserved":false,"is_disabled":false,"rental_uris":{"android":"levelo://app?vid=f3090319-3b82-4b93-8444-9fab36f667e8","ios":"levelo://app?vid=f3090319-3b82-4b93-8444-9fab36f667e8"},"vehicle_type_id":"4","last_reported":1701324597,"current_range_meters":30000,"station_id":"ce4bhb12rcd13ifvqem0","pricing_plan_id":"free"},{"bike_id":"8c347477-75ee-4a61-9fca-a99e7c3315fd","system_id":"levelo_inurba_marseille","lat":43.31276,"lon":5.401624,"is_reserved":false,"is_disabled":false,"rental_uris":{"android":"levelo://app?vid=8c347477-75ee-4a61-9fca-a99e7c3315fd","ios":"levelo://app?vid=8c347477-75ee-4a61-9fca-a99e7c3315fd"},"vehicle_type_id":"4","last_reported":1701324597,"current_range_meters":14400,"station_id":"ce4bh092rcd13ifvqd30","pricing_plan_id":"free"},{"bike_id":"a71772fa-ab40-447f-8fad-7e28540b4b2a","system_id":"levelo_inurba_marseille","lat":43.312609,"lon":5.401662,"is_reserved":false,"is_disabled":false,"rental_uris":{"android":"levelo://app?vid=a71772fa-ab40-447f-8fad-7e28540b4b2a","ios":"levelo://app?vid=a71772fa-ab40-447f-8fad-7e28540b4b2a"},"vehicle_type_id":"4","last_reported":1701324597,"current_range_meters":30800,"station_id":"ce4bh092rcd13ifvqd30","pricing_plan_id":"free"},{"bike_id":"3ed736de-4ff5-40f8-82ed-6682e0fe9097","system_id":"levelo_inurba_marseille","lat":43.31281,"lon":5.40166,"is_reserved":false,"is_disabled":false,"rental_uris":{"android":"levelo://app?vid=3ed736de-4ff5-40f8-82ed-6682e0fe9097","ios":"levelo://app?vid=3ed736de-4ff5-40f8-82ed-6682e0fe9097"},"vehicle_type_id":"4","last_reported":1701324597,"current_range_meters":30800,"station_id":"ce4bh092rcd13ifvqd30","pricing_plan_id":"free"},{"bike_id":"e1f0eac7-7cc1-4b90-89f7-84c9d3398748","system_id":"levelo_inurba_marseille","lat":43.312804,"lon":5.401702,"is_reserved":false,"is_disabled":false,"rental_uris":{"android":"levelo://app?vid=e1f0eac7-7cc1-4b90-89f7-84c9d3398748","ios":"levelo://app?vid=e1f0eac7-7cc1-4b90-89f7-84c9d3398748"},"vehicle_type_id":"4","last_reported":1701324597,"current_range_meters":30800,"station_id":"ce4bh092rcd13ifvqd30","pricing_plan_id":"free"},{"bike_id":"88880a52-aae9-4cc9-9193-b191c778cdc2","system_id":"levelo_inurba_marseille","lat":43.30934,"lon":5.40142,"is_reserved":false,"is_disabled":false,"rental_uris":{"android":"levelo://app?vid=88880a52-aae9-4cc9-9193-b191c778cdc2","ios":"levelo://app?vid=88880a52-aae9-4cc9-9193-b191c778cdc2"},"vehicle_type_id":"4","last_reported":1701324597,"current_range_meters":30400,"station_id":"ce4bgvp2rcd13ifvqct0","pricing_plan_id":"free"},{"bike_id":"79402d07-7e42-4411-a4fa-cf79310c6e97","system_id":"levelo_inurba_marseille","lat":43.30919,"lon":5.4014,"is_reserved":false,"is_disabled":false,"rental_uris":{"android":"levelo://app?vid=79402d07-7e42-4411-a4fa-cf79310c6e97","ios":"levelo://app?vid=79402d07-7e42-4411-a4fa-cf79310c6e97"},"vehicle_type_id":"4","last_reported":1701324597,"current_range_meters":18400,"station_id":"ce4bgvp2rcd13ifvqct0","pricing_plan_id":"free"},{"bike_id":"89a81f6c-f844-42c9-91a6-e96d1be67736","system_id":"levelo_inurba_marseille","lat":43.30929,"lon":5.40142,"is_reserved":false,"is_disabled":false,"rental_uris":{"android":"levelo://app?vid=89a81f6c-f844-42c9-91a6-e96d1be67736","ios":"levelo://app?vid=89a81f6c-f844-42c9-91a6-e96d1be67736"},"vehicle_type_id":"4","last_reported":1701324597,"current_range_meters":30400,"station_id":"ce4bgvp2rcd13ifvqct0","pricing_plan_id":"free"},{"bike_id":"c7b905eb-e822-477b-a0ec-ca3f2b569573","system_id":"levelo_inurba_marseille","lat":43.309371,"lon":5.401449,"is_reserved":false,"is_disabled":false,"rental_uris":{"android":"levelo://app?vid=c7b905eb-e822-477b-a0ec-ca3f2b569573","ios":"levelo://app?vid=c7b905eb-e822-477b-a0ec-ca3f2b569573"},"vehicle_type_id":"4","last_reported":1701324597,"current_range_meters":30400,"station_id":"ce4bgvp2rcd13ifvqct0","pricing_plan_id":"free"},{"bike_id":"ecdbc40c-eb0d-41d0-a69f-ac5b430fc7de","system_id":"levelo_inurba_marseille","lat":43.309371,"lon":5.401449,"is_reserved":false,"is_disabled":false,"rental_uris":{"android":"levelo://app?vid=ecdbc40c-eb0d-41d0-a69f-ac5b430fc7de","ios":"levelo://app?vid=ecdbc40c-eb0d-41d0-a69f-ac5b430fc7de"},"vehicle_type_id":"4","last_reported":1701324597,"current_range_meters":30400,"station_id":"ce4bgvp2rcd13ifvqct0","pricing_plan_id":"free"},{"bike_id":"14e655ce-3002-4339-a617-3829d37c4e8a","system_id":"levelo_inurba_marseille","lat":43.30928,"lon":5.40148,"is_reserved":false,"is_disabled":false,"rental_uris":{"android":"levelo://app?vid=14e655ce-3002-4339-a617-3829d37c4e8a","ios":"levelo://app?vid=14e655ce-3002-4339-a617-3829d37c4e8a"},"vehicle_type_id":"4","last_reported":1701324597,"current_range_meters":30000,"station_id":"ce4bgvp2rcd13ifvqct0","pricing_plan_id":"free"},{"bike_id":"c1648df4-0061-4373-a7d3-47094b0a7720","system_id":"levelo_inurba_marseille","lat":43.309341,"lon":5.401534,"is_reserved":false,"is_disabled":false,"rental_uris":{"android":"levelo://app?vid=c1648df4-0061-4373-a7d3-47094b0a7720","ios":"levelo://app?vid=c1648df4-0061-4373-a7d3-47094b0a7720"},"vehicle_type_id":"4","last_reported":1701324597,"current_range_meters":22400,"station_id":"ce4bgvp2rcd13ifvqct0","pricing_plan_id":"free"},{"bike_id":"906864ae-5f1a-4383-9f25-7718b437b397","system_id":"levelo_inurba_marseille","lat":43.30656,"lon":5.400943,"is_reserved":false,"is_disabled":false,"rental_uris":{"android":"levelo://app?vid=906864ae-5f1a-4383-9f25-7718b437b397","ios":"levelo://app?vid=906864ae-5f1a-4383-9f25-7718b437b397"},"vehicle_type_id":"4","last_reported":1701324597,"current_range_meters":2000,"station_id":"ce4bh112rcd13ifvqda0","pricing_plan_id":"free"},{"bike_id":"2cbb47e3-7183-4b81-82cf-05c3292a8095","system_id":"levelo_inurba_marseille","lat":43.289307,"lon":5.38406,"is_reserved":false,"is_disabled":false,"rental_uris":{"android":"levelo://app?vid=2cbb47e3-7183-4b81-82cf-05c3292a8095","ios":"levelo://app?vid=2cbb47e3-7183-4b81-82cf-05c3292a8095"},"vehicle_type_id":"4","last_reported":1701324597,"current_range_meters":27600,"station_id":"ce4bh612rcd13ifvqe6g","pricing_plan_id":"free"},{"bike_id":"e7d3c0de-2f96-4410-bc1e-c0dafed57b89","system_id":"levelo_inurba_marseille","lat":43.302478,"lon":5.400584,"is_reserved":false,"is_disabled":false,"rental_uris":{"android":"levelo://app?vid=e7d3c0de-2f96-4410-bc1e-c0dafed57b89","ios":"levelo://app?vid=e7d3c0de-2f96-4410-bc1e-c0dafed57b89"},"vehicle_type_id":"4","last_reported":1701324597,"current_range_meters":17200,"station_id":"ce4bgvh2rcd13ifvqcs0","pricing_plan_id":"free"},{"bike_id":"c8155f93-f075-4d6b-8a65-2ba46ee73eac","system_id":"levelo_inurba_marseille","lat":43.286039,"lon":5.370681,"is_reserved":false,"is_disabled":false,"rental_uris":{"android":"levelo://app?vid=c8155f93-f075-4d6b-8a65-2ba46ee73eac","ios":"levelo://app?vid=c8155f93-f075-4d6b-8a65-2ba46ee73eac"},"vehicle_type_id":"4","last_reported":1701324597,"current_range_meters":14800,"station_id":"ce4bht12rcd13ifvqi60","pricing_plan_id":"free"},{"bike_id":"589bbc17-bf14-4455-bff8-c1a011b76a56","system_id":"levelo_inurba_marseille","lat":43.316523,"lon":5.404367,"is_reserved":false,"is_disabled":false,"rental_uris":{"android":"levelo://app?vid=589bbc17-bf14-4455-bff8-c1a011b76a56","ios":"levelo://app?vid=589bbc17-bf14-4455-bff8-c1a011b76a56"},"vehicle_type_id":"4","last_reported":1701324597,"current_range_meters":21200,"station_id":"ce4bh012rcd13ifvqd00","pricing_plan_id":"free"},{"bike_id":"7bb029db-f924-4156-b0e3-8dd65455676d","system_id":"levelo_inurba_marseille","lat":43.29195,"lon":5.39308,"is_reserved":false,"is_disabled":false,"rental_uris":{"android":"levelo://app?vid=7bb029db-f924-4156-b0e3-8dd65455676d","ios":"levelo://app?vid=7bb029db-f924-4156-b0e3-8dd65455676d"},"vehicle_type_id":"4","last_reported":1701324597,"current_range_meters":0,"station_id":"ce4bh192rcd13ifvqdd0","pricing_plan_id":"free"},{"bike_id":"beb5e383-b304-453f-a8e5-3bc8834c9c69","system_id":"levelo_inurba_marseille","lat":43.284538,"lon":5.358657,"is_reserved":false,"is_disabled":false,"rental_uris":{"android":"levelo://app?vid=beb5e383-b304-453f-a8e5-3bc8834c9c69","ios":"levelo://app?vid=beb5e383-b304-453f-a8e5-3bc8834c9c69"},"vehicle_type_id":"4","last_reported":1701324597,"current_range_meters":26000,"station_id":"ce4bhah2rcd13ifvqei0","pricing_plan_id":"free"},{"bike_id":"04facffd-c50a-40d5-b32a-c1de136b26c6","system_id":"levelo_inurba_marseille","lat":43.284538,"lon":5.358657,"is_reserved":false,"is_disabled":false,"rental_uris":{"android":"levelo://app?vid=04facffd-c50a-40d5-b32a-c1de136b26c6","ios":"levelo://app?vid=04facffd-c50a-40d5-b32a-c1de136b26c6"},"vehicle_type_id":"4","last_reported":1701324597,"current_range_meters":28800,"station_id":"ce4bhah2rcd13ifvqei0","pricing_plan_id":"free"},{"bike_id":"2b2babcc-8e64-4501-a747-a078e67a5260","system_id":"levelo_inurba_marseille","lat":43.28614,"lon":5.35102,"is_reserved":false,"is_disabled":false,"rental_uris":{"android":"levelo://app?vid=2b2babcc-8e64-4501-a747-a078e67a5260","ios":"levelo://app?vid=2b2babcc-8e64-4501-a747-a078e67a5260"},"vehicle_type_id":"4","last_reported":1701324597,"current_range_meters":26800,"station_id":"ce4bhch2rcd13ifvqeug","pricing_plan_id":"free"},{"bike_id":"f9601311-7b5a-45ca-b201-3634bd08062d","system_id":"levelo_inurba_marseille","lat":43.286084,"lon":5.350955,"is_reserved":false,"is_disabled":false,"rental_uris":{"android":"levelo://app?vid=f9601311-7b5a-45ca-b201-3634bd08062d","ios":"levelo://app?vid=f9601311-7b5a-45ca-b201-3634bd08062d"},"vehicle_type_id":"4","last_reported":1701324597,"current_range_meters":18400,"station_id":"ce4bhch2rcd13ifvqeug","pricing_plan_id":"free"},{"bike_id":"7e54b1f3-c180-4603-94ce-f6493951b575","system_id":"levelo_inurba_marseille","lat":43.319179,"lon":5.407725,"is_reserved":false,"is_disabled":false,"rental_uris":{"android":"levelo://app?vid=7e54b1f3-c180-4603-94ce-f6493951b575","ios":"levelo://app?vid=7e54b1f3-c180-4603-94ce-f6493951b575"},"vehicle_type_id":"4","last_reported":1701324597,"current_range_meters":30800,"station_id":"ce4bhq12rcd13ifvqhig","pricing_plan_id":"free"},{"bike_id":"fb495373-514a-4c04-a46f-88844bcab7a4","system_id":"levelo_inurba_marseille","lat":43.284793,"lon":5.384119,"is_reserved":false,"is_disabled":false,"rental_uris":{"android":"levelo://app?vid=fb495373-514a-4c04-a46f-88844bcab7a4","ios":"levelo://app?vid=fb495373-514a-4c04-a46f-88844bcab7a4"},"vehicle_type_id":"4","last_reported":1701324597,"current_range_meters":22400,"station_id":"ce4bh512rcd13ifvqe3g","pricing_plan_id":"free"},{"bike_id":"3d1d35d0-a62b-45f0-9661-51b5669fe40c","system_id":"levelo_inurba_marseille","lat":43.284793,"lon":5.384113,"is_reserved":false,"is_disabled":false,"rental_uris":{"android":"levelo://app?vid=3d1d35d0-a62b-45f0-9661-51b5669fe40c","ios":"levelo://app?vid=3d1d35d0-a62b-45f0-9661-51b5669fe40c"},"vehicle_type_id":"4","last_reported":1701324597,"current_range_meters":30000,"station_id":"ce4bh512rcd13ifvqe3g","pricing_plan_id":"free"},{"bike_id":"cfed7c49-6961-4e7b-b3c1-9f649394b562","system_id":"levelo_inurba_marseille","lat":43.284787,"lon":5.384116,"is_reserved":false,"is_disabled":false,"rental_uris":{"android":"levelo://app?vid=cfed7c49-6961-4e7b-b3c1-9f649394b562","ios":"levelo://app?vid=cfed7c49-6961-4e7b-b3c1-9f649394b562"},"vehicle_type_id":"4","last_reported":1701324597,"current_range_meters":29600,"station_id":"ce4bh512rcd13ifvqe3g","pricing_plan_id":"free"},{"bike_id":"0f1460ed-bee0-4464-9621-5f4dd7e5d1ef","system_id":"levelo_inurba_marseille","lat":43.297946,"lon":5.404063,"is_reserved":false,"is_disabled":false,"rental_uris":{"android":"levelo://app?vid=0f1460ed-bee0-4464-9621-5f4dd7e5d1ef","ios":"levelo://app?vid=0f1460ed-bee0-4464-9621-5f4dd7e5d1ef"},"vehicle_type_id":"4","last_reported":1701324597,"current_range_meters":31200,"station_id":"ce4bh112rcd13ifvqd90","pricing_plan_id":"free"},{"bike_id":"d08cc67e-d152-4ffc-9d85-699ba106be1a","system_id":"levelo_inurba_marseille","lat":43.297946,"lon":5.404063,"is_reserved":false,"is_disabled":false,"rental_uris":{"android":"levelo://app?vid=d08cc67e-d152-4ffc-9d85-699ba106be1a","ios":"levelo://app?vid=d08cc67e-d152-4ffc-9d85-699ba106be1a"},"vehicle_type_id":"4","last_reported":1701324597,"current_range_meters":18400,"station_id":"ce4bh112rcd13ifvqd90","pricing_plan_id":"free"},{"bike_id":"0a01a476-ee65-43f0-86ce-1b71d00c4784","system_id":"levelo_inurba_marseille","lat":43.29795,"lon":5.404086,"is_reserved":false,"is_disabled":false,"rental_uris":{"android":"levelo://app?vid=0a01a476-ee65-43f0-86ce-1b71d00c4784","ios":"levelo://app?vid=0a01a476-ee65-43f0-86ce-1b71d00c4784"},"vehicle_type_id":"4","last_reported":1701324597,"current_range_meters":28800,"station_id":"ce4bh112rcd13ifvqd90","pricing_plan_id":"free"},{"bike_id":"ae15dbbe-04c5-4c7a-9fb5-40b2546b11bc","system_id":"levelo_inurba_marseille","lat":43.283502,"lon":5.386471,"is_reserved":false,"is_disabled":false,"rental_uris":{"android":"levelo://app?vid=ae15dbbe-04c5-4c7a-9fb5-40b2546b11bc","ios":"levelo://app?vid=ae15dbbe-04c5-4c7a-9fb5-40b2546b11bc"},"vehicle_type_id":"4","last_reported":1701324597,"current_range_meters":29600,"station_id":"ce4bh492rcd13ifvqdvg","pricing_plan_id":"free"},{"bike_id":"4b4c2b74-af27-4140-8e45-00eabd199e24","system_id":"levelo_inurba_marseille","lat":43.283502,"lon":5.386471,"is_reserved":false,"is_disabled":false,"rental_uris":{"android":"levelo://app?vid=4b4c2b74-af27-4140-8e45-00eabd199e24","ios":"levelo://app?vid=4b4c2b74-af27-4140-8e45-00eabd199e24"},"vehicle_type_id":"4","last_reported":1701324597,"current_range_meters":21600,"station_id":"ce4bh492rcd13ifvqdvg","pricing_plan_id":"free"},{"bike_id":"9aa97e8c-dbbf-44d5-91c2-ad11dcae7d94","system_id":"levelo_inurba_marseille","lat":43.282754,"lon":5.350519,"is_reserved":false,"is_disabled":false,"rental_uris":{"android":"levelo://app?vid=9aa97e8c-dbbf-44d5-91c2-ad11dcae7d94","ios":"levelo://app?vid=9aa97e8c-dbbf-44d5-91c2-ad11dcae7d94"},"vehicle_type_id":"4","last_reported":1701324597,"current_range_meters":27200,"station_id":"ce4bhbp2rcd13ifvqerg","pricing_plan_id":"free"},{"bike_id":"4d7fb781-d8da-4c77-b8d1-f33640bae452","system_id":"levelo_inurba_marseille","lat":43.283502,"lon":5.386471,"is_reserved":false,"is_disabled":false,"rental_uris":{"android":"levelo://app?vid=4d7fb781-d8da-4c77-b8d1-f33640bae452","ios":"levelo://app?vid=4d7fb781-d8da-4c77-b8d1-f33640bae452"},"vehicle_type_id":"4","last_reported":1701324597,"current_range_meters":11600,"station_id":"ce4bh492rcd13ifvqdvg","pricing_plan_id":"free"},{"bike_id":"963d6a9c-7612-4a37-803a-3af335937e69","system_id":"levelo_inurba_marseille","lat":43.282754,"lon":5.350519,"is_reserved":false,"is_disabled":false,"rental_uris":{"android":"levelo://app?vid=963d6a9c-7612-4a37-803a-3af335937e69","ios":"levelo://app?vid=963d6a9c-7612-4a37-803a-3af335937e69"},"vehicle_type_id":"4","last_reported":1701324597,"current_range_meters":22400,"station_id":"ce4bhbp2rcd13ifvqerg","pricing_plan_id":"free"},{"bike_id":"028df4ed-da18-4953-947f-3ef6db55685e","system_id":"levelo_inurba_marseille","lat":43.282744,"lon":5.350533,"is_reserved":false,"is_disabled":false,"rental_uris":{"android":"levelo://app?vid=028df4ed-da18-4953-947f-3ef6db55685e","ios":"levelo://app?vid=028df4ed-da18-4953-947f-3ef6db55685e"},"vehicle_type_id":"4","last_reported":1701324597,"current_range_meters":30800,"station_id":"ce4bhbp2rcd13ifvqerg","pricing_plan_id":"free"},{"bike_id":"34bd56fe-1e78-4f52-bfbe-32ff63417704","system_id":"levelo_inurba_marseille","lat":43.282659,"lon":5.35072,"is_reserved":false,"is_disabled":false,"rental_uris":{"android":"levelo://app?vid=34bd56fe-1e78-4f52-bfbe-32ff63417704","ios":"levelo://app?vid=34bd56fe-1e78-4f52-bfbe-32ff63417704"},"vehicle_type_id":"4","last_reported":1701324597,"current_range_meters":30400,"station_id":"ce4bhbp2rcd13ifvqerg","pricing_plan_id":"free"},{"bike_id":"fd63b808-6064-4ffb-bf5b-a03feb4d0fea","system_id":"levelo_inurba_marseille","lat":43.282744,"lon":5.350533,"is_reserved":false,"is_disabled":false,"rental_uris":{"android":"levelo://app?vid=fd63b808-6064-4ffb-bf5b-a03feb4d0fea","ios":"levelo://app?vid=fd63b808-6064-4ffb-bf5b-a03feb4d0fea"},"vehicle_type_id":"4","last_reported":1701324597,"current_range_meters":20400,"station_id":"ce4bhbp2rcd13ifvqerg","pricing_plan_id":"free"},{"bike_id":"cbfb07c3-6df7-428e-9608-952bbabffaad","system_id":"levelo_inurba_marseille","lat":43.282744,"lon":5.350533,"is_reserved":false,"is_disabled":false,"rental_uris":{"android":"levelo://app?vid=cbfb07c3-6df7-428e-9608-952bbabffaad","ios":"levelo://app?vid=cbfb07c3-6df7-428e-9608-952bbabffaad"},"vehicle_type_id":"4","last_reported":1701324597,"current_range_meters":31200,"station_id":"ce4bhbp2rcd13ifvqerg","pricing_plan_id":"free"},{"bike_id":"905fede1-9d8a-4cff-9c7f-900efd540e3d","system_id":"levelo_inurba_marseille","lat":43.282744,"lon":5.350533,"is_reserved":false,"is_disabled":false,"rental_uris":{"android":"levelo://app?vid=905fede1-9d8a-4cff-9c7f-900efd540e3d","ios":"levelo://app?vid=905fede1-9d8a-4cff-9c7f-900efd540e3d"},"vehicle_type_id":"4","last_reported":1701324597,"current_range_meters":30800,"station_id":"ce4bhbp2rcd13ifvqerg","pricing_plan_id":"free"},{"bike_id":"b39cf2b2-ecca-4141-a4e9-def827cec38f","system_id":"levelo_inurba_marseille","lat":43.280387,"lon":5.369421,"is_reserved":false,"is_disabled":false,"rental_uris":{"android":"levelo://app?vid=b39cf2b2-ecca-4141-a4e9-def827cec38f","ios":"levelo://app?vid=b39cf2b2-ecca-4141-a4e9-def827cec38f"},"vehicle_type_id":"4","last_reported":1701324597,"current_range_meters":4000,"station_id":"ce4bha12rcd13ifvqef0","pricing_plan_id":"free"},{"bike_id":"f3edfa28-1f6b-4879-b4f7-158bdbbdee95","system_id":"levelo_inurba_marseille","lat":43.280382,"lon":5.369291,"is_reserved":false,"is_disabled":false,"rental_uris":{"android":"levelo://app?vid=f3edfa28-1f6b-4879-b4f7-158bdbbdee95","ios":"levelo://app?vid=f3edfa28-1f6b-4879-b4f7-158bdbbdee95"},"vehicle_type_id":"4","last_reported":1701324597,"current_range_meters":30400,"station_id":"ce4bha12rcd13ifvqef0","pricing_plan_id":"free"},{"bike_id":"275d6402-0ea6-4af0-8fc5-9b35462d469f","system_id":"levelo_inurba_marseille","lat":43.280382,"lon":5.369291,"is_reserved":false,"is_disabled":false,"rental_uris":{"android":"levelo://app?vid=275d6402-0ea6-4af0-8fc5-9b35462d469f","ios":"levelo://app?vid=275d6402-0ea6-4af0-8fc5-9b35462d469f"},"vehicle_type_id":"4","last_reported":1701324597,"current_range_meters":28800,"station_id":"ce4bha12rcd13ifvqef0","pricing_plan_id":"free"},{"bike_id":"730d6574-35f2-4c7e-a4c2-72ac67eb3b70","system_id":"levelo_inurba_marseille","lat":43.280382,"lon":5.369291,"is_reserved":false,"is_disabled":false,"rental_uris":{"android":"levelo://app?vid=730d6574-35f2-4c7e-a4c2-72ac67eb3b70","ios":"levelo://app?vid=730d6574-35f2-4c7e-a4c2-72ac67eb3b70"},"vehicle_type_id":"4","last_reported":1701324597,"current_range_meters":30000,"station_id":"ce4bha12rcd13ifvqef0","pricing_plan_id":"free"},{"bike_id":"b78d8feb-fb49-441d-8899-bff0281620e8","system_id":"levelo_inurba_marseille","lat":43.280329,"lon":5.369439,"is_reserved":false,"is_disabled":false,"rental_uris":{"android":"levelo://app?vid=b78d8feb-fb49-441d-8899-bff0281620e8","ios":"levelo://app?vid=b78d8feb-fb49-441d-8899-bff0281620e8"},"vehicle_type_id":"4","last_reported":1701324597,"current_range_meters":0,"station_id":"ce4bha12rcd13ifvqef0","pricing_plan_id":"free"},{"bike_id":"f6ebb7a9-b097-4f65-bad2-e6900739b283","system_id":"levelo_inurba_marseille","lat":43.28039,"lon":5.369297,"is_reserved":false,"is_disabled":false,"rental_uris":{"android":"levelo://app?vid=f6ebb7a9-b097-4f65-bad2-e6900739b283","ios":"levelo://app?vid=f6ebb7a9-b097-4f65-bad2-e6900739b283"},"vehicle_type_id":"4","last_reported":1701324597,"current_range_meters":31200,"station_id":"ce4bha12rcd13ifvqef0","pricing_plan_id":"free"},{"bike_id":"89b15fed-0885-45af-a5ef-92c850ba67bc","system_id":"levelo_inurba_marseille","lat":43.296263,"lon":5.40601,"is_reserved":false,"is_disabled":false,"rental_uris":{"android":"levelo://app?vid=89b15fed-0885-45af-a5ef-92c850ba67bc","ios":"levelo://app?vid=89b15fed-0885-45af-a5ef-92c850ba67bc"},"vehicle_type_id":"4","last_reported":1701324597,"current_range_meters":25200,"station_id":"ce4bh0h2rcd13ifvqd60","pricing_plan_id":"free"},{"bike_id":"629ee28a-975f-4cf6-8598-ddb749e64d93","system_id":"levelo_inurba_marseille","lat":43.296263,"lon":5.40601,"is_reserved":false,"is_disabled":false,"rental_uris":{"android":"levelo://app?vid=629ee28a-975f-4cf6-8598-ddb749e64d93","ios":"levelo://app?vid=629ee28a-975f-4cf6-8598-ddb749e64d93"},"vehicle_type_id":"4","last_reported":1701324597,"current_range_meters":26800,"station_id":"ce4bh0h2rcd13ifvqd60","pricing_plan_id":"free"},{"bike_id":"acad1159-07db-4db6-b26d-ccfabc99bbcc","system_id":"levelo_inurba_marseille","lat":43.284317,"lon":5.391844,"is_reserved":false,"is_disabled":false,"rental_uris":{"android":"levelo://app?vid=acad1159-07db-4db6-b26d-ccfabc99bbcc","ios":"levelo://app?vid=acad1159-07db-4db6-b26d-ccfabc99bbcc"},"vehicle_type_id":"4","last_reported":1701324597,"current_range_meters":4400,"station_id":"ce4bhoh2rcd13ifvqh5g","pricing_plan_id":"free"},{"bike_id":"b68219d4-fad7-4a12-bac0-33d9b017f229","system_id":"levelo_inurba_marseille","lat":43.285742,"lon":5.395004,"is_reserved":false,"is_disabled":false,"rental_uris":{"android":"levelo://app?vid=b68219d4-fad7-4a12-bac0-33d9b017f229","ios":"levelo://app?vid=b68219d4-fad7-4a12-bac0-33d9b017f229"},"vehicle_type_id":"4","last_reported":1701324597,"current_range_meters":28000,"station_id":"ce4bh292rcd13ifvqdg0","pricing_plan_id":"free"},{"bike_id":"010d9f9f-5238-4fb9-b42b-e62d985c34ce","system_id":"levelo_inurba_marseille","lat":43.304188,"lon":5.412904,"is_reserved":false,"is_disabled":false,"rental_uris":{"android":"levelo://app?vid=010d9f9f-5238-4fb9-b42b-e62d985c34ce","ios":"levelo://app?vid=010d9f9f-5238-4fb9-b42b-e62d985c34ce"},"vehicle_type_id":"4","last_reported":1701324597,"current_range_meters":30000,"station_id":"ce4bhop2rcd13ifvqh8g","pricing_plan_id":"free"},{"bike_id":"9e1bfbfa-5e71-43bb-bcaf-aef402723eec","system_id":"levelo_inurba_marseille","lat":43.287154,"lon":5.399979,"is_reserved":false,"is_disabled":false,"rental_uris":{"android":"levelo://app?vid=9e1bfbfa-5e71-43bb-bcaf-aef402723eec","ios":"levelo://app?vid=9e1bfbfa-5e71-43bb-bcaf-aef402723eec"},"vehicle_type_id":"4","last_reported":1701324597,"current_range_meters":25600,"station_id":"ce4bho92rcd13ifvqh3g","pricing_plan_id":"free"},{"bike_id":"dec95bca-6e2c-4768-a173-128059aecf98","system_id":"levelo_inurba_marseille","lat":43.299577,"lon":5.413277,"is_reserved":false,"is_disabled":false,"rental_uris":{"android":"levelo://app?vid=dec95bca-6e2c-4768-a173-128059aecf98","ios":"levelo://app?vid=dec95bca-6e2c-4768-a173-128059aecf98"},"vehicle_type_id":"4","last_reported":1701324597,"current_range_meters":30000,"station_id":"ce4bhp12rcd13ifvqh9g","pricing_plan_id":"free"},{"bike_id":"f773863e-3a74-4e88-aad4-4cd76ab4a82d","system_id":"levelo_inurba_marseille","lat":43.279742,"lon":5.38744,"is_reserved":false,"is_disabled":false,"rental_uris":{"android":"levelo://app?vid=f773863e-3a74-4e88-aad4-4cd76ab4a82d","ios":"levelo://app?vid=f773863e-3a74-4e88-aad4-4cd76ab4a82d"},"vehicle_type_id":"4","last_reported":1701324597,"current_range_meters":18400,"station_id":"ce4bhg12rcd13ifvqf80","pricing_plan_id":"free"},{"bike_id":"4c8cc9c9-5ea0-4abc-85c9-7b43579de585","system_id":"levelo_inurba_marseille","lat":43.279742,"lon":5.38744,"is_reserved":false,"is_disabled":false,"rental_uris":{"android":"levelo://app?vid=4c8cc9c9-5ea0-4abc-85c9-7b43579de585","ios":"levelo://app?vid=4c8cc9c9-5ea0-4abc-85c9-7b43579de585"},"vehicle_type_id":"4","last_reported":1701324597,"current_range_meters":31200,"station_id":"ce4bhg12rcd13ifvqf80","pricing_plan_id":"free"},{"bike_id":"5ffcf833-baf0-4045-ac46-90836881b0d3","system_id":"levelo_inurba_marseille","lat":43.292571,"lon":5.409107,"is_reserved":false,"is_disabled":false,"rental_uris":{"android":"levelo://app?vid=5ffcf833-baf0-4045-ac46-90836881b0d3","ios":"levelo://app?vid=5ffcf833-baf0-4045-ac46-90836881b0d3"},"vehicle_type_id":"4","last_reported":1701324597,"current_range_meters":19600,"station_id":"ce4bh192rcd13ifvqdc0","pricing_plan_id":"free"},{"bike_id":"de76a7e0-5244-49c2-9267-c68b781f17c9","system_id":"levelo_inurba_marseille","lat":43.292571,"lon":5.409107,"is_reserved":false,"is_disabled":false,"rental_uris":{"android":"levelo://app?vid=de76a7e0-5244-49c2-9267-c68b781f17c9","ios":"levelo://app?vid=de76a7e0-5244-49c2-9267-c68b781f17c9"},"vehicle_type_id":"4","last_reported":1701324597,"current_range_meters":31200,"station_id":"ce4bh192rcd13ifvqdc0","pricing_plan_id":"free"},{"bike_id":"da7c465e-07d8-45d6-8344-2389bff31c55","system_id":"levelo_inurba_marseille","lat":43.280784,"lon":5.396622,"is_reserved":false,"is_disabled":false,"rental_uris":{"android":"levelo://app?vid=da7c465e-07d8-45d6-8344-2389bff31c55","ios":"levelo://app?vid=da7c465e-07d8-45d6-8344-2389bff31c55"},"vehicle_type_id":"4","last_reported":1701324597,"current_range_meters":12400,"station_id":"ce4bho12rcd13ifvqh2g","pricing_plan_id":"free"},{"bike_id":"ed9b8387-82a7-47e9-9de0-0dcbb28c2109","system_id":"levelo_inurba_marseille","lat":43.280784,"lon":5.396622,"is_reserved":false,"is_disabled":false,"rental_uris":{"android":"levelo://app?vid=ed9b8387-82a7-47e9-9de0-0dcbb28c2109","ios":"levelo://app?vid=ed9b8387-82a7-47e9-9de0-0dcbb28c2109"},"vehicle_type_id":"4","last_reported":1701324597,"current_range_meters":30800,"station_id":"ce4bho12rcd13ifvqh2g","pricing_plan_id":"free"},{"bike_id":"51906621-8246-492d-ac66-399d5e20cda5","system_id":"levelo_inurba_marseille","lat":43.278322,"lon":5.391992,"is_reserved":false,"is_disabled":false,"rental_uris":{"android":"levelo://app?vid=51906621-8246-492d-ac66-399d5e20cda5","ios":"levelo://app?vid=51906621-8246-492d-ac66-399d5e20cda5"},"vehicle_type_id":"4","last_reported":1701324597,"current_range_meters":29600,"station_id":"ce4bhjp2rcd13ifvqga0","pricing_plan_id":"free"},{"bike_id":"b31b3a6b-bb9f-4671-ba5b-d6d4fae1a59e","system_id":"levelo_inurba_marseille","lat":43.273613,"lon":5.362705,"is_reserved":false,"is_disabled":false,"rental_uris":{"android":"levelo://app?vid=b31b3a6b-bb9f-4671-ba5b-d6d4fae1a59e","ios":"levelo://app?vid=b31b3a6b-bb9f-4671-ba5b-d6d4fae1a59e"},"vehicle_type_id":"4","last_reported":1701324597,"current_range_meters":18400,"station_id":"ce4bhbh2rcd13ifvqeo0","pricing_plan_id":"free"},{"bike_id":"b795485c-116d-4e09-bda2-df772dc3259b","system_id":"levelo_inurba_marseille","lat":43.275625,"lon":5.384392,"is_reserved":false,"is_disabled":false,"rental_uris":{"android":"levelo://app?vid=b795485c-116d-4e09-bda2-df772dc3259b","ios":"levelo://app?vid=b795485c-116d-4e09-bda2-df772dc3259b"},"vehicle_type_id":"4","last_reported":1701324597,"current_range_meters":24400,"station_id":"ce4bhh92rcd13ifvqfi0","pricing_plan_id":"free"},{"bike_id":"ae944ce2-e7fe-407f-a11d-0561779717d0","system_id":"levelo_inurba_marseille","lat":43.273613,"lon":5.362705,"is_reserved":false,"is_disabled":false,"rental_uris":{"android":"levelo://app?vid=ae944ce2-e7fe-407f-a11d-0561779717d0","ios":"levelo://app?vid=ae944ce2-e7fe-407f-a11d-0561779717d0"},"vehicle_type_id":"4","last_reported":1701324597,"current_range_meters":0,"station_id":"ce4bhbh2rcd13ifvqeo0","pricing_plan_id":"free"},{"bike_id":"9a0a29ad-7574-42cb-a4fc-de7c094c3a31","system_id":"levelo_inurba_marseille","lat":43.273613,"lon":5.362705,"is_reserved":false,"is_disabled":false,"rental_uris":{"android":"levelo://app?vid=9a0a29ad-7574-42cb-a4fc-de7c094c3a31","ios":"levelo://app?vid=9a0a29ad-7574-42cb-a4fc-de7c094c3a31"},"vehicle_type_id":"4","last_reported":1701324597,"current_range_meters":31200,"station_id":"ce4bhbh2rcd13ifvqeo0","pricing_plan_id":"free"},{"bike_id":"02bbaec1-5fe3-4433-9407-81171b2a94ea","system_id":"levelo_inurba_marseille","lat":43.275625,"lon":5.384392,"is_reserved":false,"is_disabled":false,"rental_uris":{"android":"levelo://app?vid=02bbaec1-5fe3-4433-9407-81171b2a94ea","ios":"levelo://app?vid=02bbaec1-5fe3-4433-9407-81171b2a94ea"},"vehicle_type_id":"4","last_reported":1701324597,"current_range_meters":31200,"station_id":"ce4bhh92rcd13ifvqfi0","pricing_plan_id":"free"},{"bike_id":"b2dce51d-ce4e-40fb-9ef2-73d9b2b72d52","system_id":"levelo_inurba_marseille","lat":43.273609,"lon":5.362708,"is_reserved":false,"is_disabled":false,"rental_uris":{"android":"levelo://app?vid=b2dce51d-ce4e-40fb-9ef2-73d9b2b72d52","ios":"levelo://app?vid=b2dce51d-ce4e-40fb-9ef2-73d9b2b72d52"},"vehicle_type_id":"4","last_reported":1701324597,"current_range_meters":30400,"station_id":"ce4bhbh2rcd13ifvqeo0","pricing_plan_id":"free"},{"bike_id":"e7c2ee07-1e72-4f96-9783-d5ce904fff7a","system_id":"levelo_inurba_marseille","lat":43.275625,"lon":5.384392,"is_reserved":false,"is_disabled":false,"rental_uris":{"android":"levelo://app?vid=e7c2ee07-1e72-4f96-9783-d5ce904fff7a","ios":"levelo://app?vid=e7c2ee07-1e72-4f96-9783-d5ce904fff7a"},"vehicle_type_id":"4","last_reported":1701324597,"current_range_meters":16000,"station_id":"ce4bhh92rcd13ifvqfi0","pricing_plan_id":"free"},{"bike_id":"cf852e64-b69e-45a5-816b-2947e928c6cd","system_id":"levelo_inurba_marseille","lat":43.276771,"lon":5.388799,"is_reserved":false,"is_disabled":false,"rental_uris":{"android":"levelo://app?vid=cf852e64-b69e-45a5-816b-2947e928c6cd","ios":"levelo://app?vid=cf852e64-b69e-45a5-816b-2947e928c6cd"},"vehicle_type_id":"4","last_reported":1701324597,"current_range_meters":28800,"station_id":"ce4bhi12rcd13ifvqfo0","pricing_plan_id":"free"},{"bike_id":"2f7b84a6-5093-46f6-b261-a1c351e80b2d","system_id":"levelo_inurba_marseille","lat":43.276771,"lon":5.388799,"is_reserved":false,"is_disabled":false,"rental_uris":{"android":"levelo://app?vid=2f7b84a6-5093-46f6-b261-a1c351e80b2d","ios":"levelo://app?vid=2f7b84a6-5093-46f6-b261-a1c351e80b2d"},"vehicle_type_id":"4","last_reported":1701324597,"current_range_meters":29200,"station_id":"ce4bhi12rcd13ifvqfo0","pricing_plan_id":"free"},{"bike_id":"3c50c062-4b6b-4e52-ac0a-ef7174711fa9","system_id":"levelo_inurba_marseille","lat":43.28007,"lon":5.40004,"is_reserved":false,"is_disabled":false,"rental_uris":{"android":"levelo://app?vid=3c50c062-4b6b-4e52-ac0a-ef7174711fa9","ios":"levelo://app?vid=3c50c062-4b6b-4e52-ac0a-ef7174711fa9"},"vehicle_type_id":"4","last_reported":1701324597,"current_range_meters":18800,"station_id":"ce4bho92rcd13ifvqh4g","pricing_plan_id":"free"},{"bike_id":"ebda0b6e-7465-4608-841e-9d7a331ae123","system_id":"levelo_inurba_marseille","lat":43.279993,"lon":5.400167,"is_reserved":false,"is_disabled":false,"rental_uris":{"android":"levelo://app?vid=ebda0b6e-7465-4608-841e-9d7a331ae123","ios":"levelo://app?vid=ebda0b6e-7465-4608-841e-9d7a331ae123"},"vehicle_type_id":"4","last_reported":1701324597,"current_range_meters":26400,"station_id":"ce4bho92rcd13ifvqh4g","pricing_plan_id":"free"},{"bike_id":"33449a5f-4b78-4140-9f71-bb6c5c9ecf3a","system_id":"levelo_inurba_marseille","lat":43.310785,"lon":5.424305,"is_reserved":false,"is_disabled":false,"rental_uris":{"android":"levelo://app?vid=33449a5f-4b78-4140-9f71-bb6c5c9ecf3a","ios":"levelo://app?vid=33449a5f-4b78-4140-9f71-bb6c5c9ecf3a"},"vehicle_type_id":"4","last_reported":1701324597,"current_range_meters":6400,"station_id":"ce4bhp92rcd13ifvqhag","pricing_plan_id":"free"},{"bike_id":"be089778-fb34-4c77-a00c-8d5c4b16068c","system_id":"levelo_inurba_marseille","lat":43.317121,"lon":5.423936,"is_reserved":false,"is_disabled":false,"rental_uris":{"android":"levelo://app?vid=be089778-fb34-4c77-a00c-8d5c4b16068c","ios":"levelo://app?vid=be089778-fb34-4c77-a00c-8d5c4b16068c"},"vehicle_type_id":"4","last_reported":1701324597,"current_range_meters":30000,"station_id":"ce4bhp92rcd13ifvqhbg","pricing_plan_id":"free"},{"bike_id":"521ca7fa-ebdc-45ea-85a3-99d902329c35","system_id":"levelo_inurba_marseille","lat":43.310785,"lon":5.424305,"is_reserved":false,"is_disabled":false,"rental_uris":{"android":"levelo://app?vid=521ca7fa-ebdc-45ea-85a3-99d902329c35","ios":"levelo://app?vid=521ca7fa-ebdc-45ea-85a3-99d902329c35"},"vehicle_type_id":"4","last_reported":1701324597,"current_range_meters":800,"station_id":"ce4bhp92rcd13ifvqhag","pricing_plan_id":"free"},{"bike_id":"54af432f-3aca-4fda-b7d7-30bb9382704e","system_id":"levelo_inurba_marseille","lat":43.27316,"lon":5.39072,"is_reserved":false,"is_disabled":false,"rental_uris":{"android":"levelo://app?vid=54af432f-3aca-4fda-b7d7-30bb9382704e","ios":"levelo://app?vid=54af432f-3aca-4fda-b7d7-30bb9382704e"},"vehicle_type_id":"4","last_reported":1701324597,"current_range_meters":26000,"station_id":"ce4bhgp2rcd13ifvqfe0","pricing_plan_id":"free"},{"bike_id":"fcb49cc4-ba38-47c0-ae5d-3025a3f66ae5","system_id":"levelo_inurba_marseille","lat":43.273129,"lon":5.390725,"is_reserved":false,"is_disabled":false,"rental_uris":{"android":"levelo://app?vid=fcb49cc4-ba38-47c0-ae5d-3025a3f66ae5","ios":"levelo://app?vid=fcb49cc4-ba38-47c0-ae5d-3025a3f66ae5"},"vehicle_type_id":"4","last_reported":1701324597,"current_range_meters":21600,"station_id":"ce4bhgp2rcd13ifvqfe0","pricing_plan_id":"free"},{"bike_id":"1995b353-3df8-4744-9047-31035e4532a5","system_id":"levelo_inurba_marseille","lat":43.273185,"lon":5.390902,"is_reserved":false,"is_disabled":false,"rental_uris":{"android":"levelo://app?vid=1995b353-3df8-4744-9047-31035e4532a5","ios":"levelo://app?vid=1995b353-3df8-4744-9047-31035e4532a5"},"vehicle_type_id":"4","last_reported":1701324597,"current_range_meters":24400,"station_id":"ce4bhgp2rcd13ifvqfe0","pricing_plan_id":"free"},{"bike_id":"ebe67b59-e5c4-4ab5-988a-6003072cc985","system_id":"levelo_inurba_marseille","lat":43.27317,"lon":5.39093,"is_reserved":false,"is_disabled":false,"rental_uris":{"android":"levelo://app?vid=ebe67b59-e5c4-4ab5-988a-6003072cc985","ios":"levelo://app?vid=ebe67b59-e5c4-4ab5-988a-6003072cc985"},"vehicle_type_id":"4","last_reported":1701324597,"current_range_meters":27200,"station_id":"ce4bhgp2rcd13ifvqfe0","pricing_plan_id":"free"},{"bike_id":"7c6438b7-5c60-44ec-85f0-56b9d65ac35f","system_id":"levelo_inurba_marseille","lat":43.273125,"lon":5.390731,"is_reserved":false,"is_disabled":false,"rental_uris":{"android":"levelo://app?vid=7c6438b7-5c60-44ec-85f0-56b9d65ac35f","ios":"levelo://app?vid=7c6438b7-5c60-44ec-85f0-56b9d65ac35f"},"vehicle_type_id":"4","last_reported":1701324597,"current_range_meters":26400,"station_id":"ce4bhgp2rcd13ifvqfe0","pricing_plan_id":"free"},{"bike_id":"91d17f03-6019-4565-a226-956d41c1639e","system_id":"levelo_inurba_marseille","lat":43.273126,"lon":5.390947,"is_reserved":false,"is_disabled":false,"rental_uris":{"android":"levelo://app?vid=91d17f03-6019-4565-a226-956d41c1639e","ios":"levelo://app?vid=91d17f03-6019-4565-a226-956d41c1639e"},"vehicle_type_id":"4","last_reported":1701324597,"current_range_meters":31200,"station_id":"ce4bhgp2rcd13ifvqfe0","pricing_plan_id":"free"},{"bike_id":"0d3421ff-51ed-4ae7-bc6b-8a6f1322c9f8","system_id":"levelo_inurba_marseille","lat":43.273129,"lon":5.390725,"is_reserved":false,"is_disabled":false,"rental_uris":{"android":"levelo://app?vid=0d3421ff-51ed-4ae7-bc6b-8a6f1322c9f8","ios":"levelo://app?vid=0d3421ff-51ed-4ae7-bc6b-8a6f1322c9f8"},"vehicle_type_id":"4","last_reported":1701324597,"current_range_meters":30800,"station_id":"ce4bhgp2rcd13ifvqfe0","pricing_plan_id":"free"},{"bike_id":"d6196e04-2494-4446-a9da-1bc4c12e52ee","system_id":"levelo_inurba_marseille","lat":43.295523,"lon":5.422926,"is_reserved":false,"is_disabled":false,"rental_uris":{"android":"levelo://app?vid=d6196e04-2494-4446-a9da-1bc4c12e52ee","ios":"levelo://app?vid=d6196e04-2494-4446-a9da-1bc4c12e52ee"},"vehicle_type_id":"4","last_reported":1701324597,"current_range_meters":27600,"station_id":"ce4bhph2rcd13ifvqhdg","pricing_plan_id":"free"},{"bike_id":"879eaebb-d472-4bcc-a56a-f7ff06b82be3","system_id":"levelo_inurba_marseille","lat":43.295511,"lon":5.422926,"is_reserved":false,"is_disabled":false,"rental_uris":{"android":"levelo://app?vid=879eaebb-d472-4bcc-a56a-f7ff06b82be3","ios":"levelo://app?vid=879eaebb-d472-4bcc-a56a-f7ff06b82be3"},"vehicle_type_id":"4","last_reported":1701324597,"current_range_meters":26800,"station_id":"ce4bhph2rcd13ifvqhdg","pricing_plan_id":"free"},{"bike_id":"7335a393-cc37-4e1d-b729-82d3cd0e69fb","system_id":"levelo_inurba_marseille","lat":43.295238,"lon":5.42268,"is_reserved":false,"is_disabled":false,"rental_uris":{"android":"levelo://app?vid=7335a393-cc37-4e1d-b729-82d3cd0e69fb","ios":"levelo://app?vid=7335a393-cc37-4e1d-b729-82d3cd0e69fb"},"vehicle_type_id":"4","last_reported":1701324597,"current_range_meters":21600,"station_id":"ce4bhph2rcd13ifvqhdg","pricing_plan_id":"free"},{"bike_id":"b60b6eb0-1ceb-4bec-91a6-3623d04cd354","system_id":"levelo_inurba_marseille","lat":43.272116,"lon":5.391747,"is_reserved":false,"is_disabled":false,"rental_uris":{"android":"levelo://app?vid=b60b6eb0-1ceb-4bec-91a6-3623d04cd354","ios":"levelo://app?vid=b60b6eb0-1ceb-4bec-91a6-3623d04cd354"},"vehicle_type_id":"4","last_reported":1701324597,"current_range_meters":22000,"station_id":"ce4bhhp2rcd13ifvqfm0","pricing_plan_id":"free"},{"bike_id":"61913bc0-02da-463a-b0fb-4c73d4df9f10","system_id":"levelo_inurba_marseille","lat":43.272124,"lon":5.391768,"is_reserved":false,"is_disabled":false,"rental_uris":{"android":"levelo://app?vid=61913bc0-02da-463a-b0fb-4c73d4df9f10","ios":"levelo://app?vid=61913bc0-02da-463a-b0fb-4c73d4df9f10"},"vehicle_type_id":"4","last_reported":1701324597,"current_range_meters":16800,"station_id":"ce4bhhp2rcd13ifvqfm0","pricing_plan_id":"free"},{"bike_id":"cb54d4ca-e678-4ce2-8f49-c84e7670d696","system_id":"levelo_inurba_marseille","lat":43.272116,"lon":5.391763,"is_reserved":false,"is_disabled":false,"rental_uris":{"android":"levelo://app?vid=cb54d4ca-e678-4ce2-8f49-c84e7670d696","ios":"levelo://app?vid=cb54d4ca-e678-4ce2-8f49-c84e7670d696"},"vehicle_type_id":"4","last_reported":1701324597,"current_range_meters":18000,"station_id":"ce4bhhp2rcd13ifvqfm0","pricing_plan_id":"free"},{"bike_id":"f95ad5f2-395e-45b7-913e-6e265f318888","system_id":"levelo_inurba_marseille","lat":43.272124,"lon":5.391768,"is_reserved":false,"is_disabled":false,"rental_uris":{"android":"levelo://app?vid=f95ad5f2-395e-45b7-913e-6e265f318888","ios":"levelo://app?vid=f95ad5f2-395e-45b7-913e-6e265f318888"},"vehicle_type_id":"4","last_reported":1701324597,"current_range_meters":3600,"station_id":"ce4bhhp2rcd13ifvqfm0","pricing_plan_id":"free"},{"bike_id":"8745e707-34fb-4853-b2e6-2532e29028cd","system_id":"levelo_inurba_marseille","lat":43.272118,"lon":5.391758,"is_reserved":false,"is_disabled":false,"rental_uris":{"android":"levelo://app?vid=8745e707-34fb-4853-b2e6-2532e29028cd","ios":"levelo://app?vid=8745e707-34fb-4853-b2e6-2532e29028cd"},"vehicle_type_id":"4","last_reported":1701324597,"current_range_meters":26800,"station_id":"ce4bhhp2rcd13ifvqfm0","pricing_plan_id":"free"},{"bike_id":"657d14de-c986-49da-802c-d8d3c99764a5","system_id":"levelo_inurba_marseille","lat":43.269467,"lon":5.386439,"is_reserved":false,"is_disabled":false,"rental_uris":{"android":"levelo://app?vid=657d14de-c986-49da-802c-d8d3c99764a5","ios":"levelo://app?vid=657d14de-c986-49da-802c-d8d3c99764a5"},"vehicle_type_id":"4","last_reported":1701324597,"current_range_meters":14000,"station_id":"ce4bhh92rcd13ifvqfh0","pricing_plan_id":"free"},{"bike_id":"888bff1d-483c-4c4d-883f-fc5b65d6d8a0","system_id":"levelo_inurba_marseille","lat":43.279465,"lon":5.410561,"is_reserved":false,"is_disabled":false,"rental_uris":{"android":"levelo://app?vid=888bff1d-483c-4c4d-883f-fc5b65d6d8a0","ios":"levelo://app?vid=888bff1d-483c-4c4d-883f-fc5b65d6d8a0"},"vehicle_type_id":"4","last_reported":1701324597,"current_range_meters":23600,"station_id":"ce4bhnp2rcd13ifvqh0g","pricing_plan_id":"free"},{"bike_id":"e517965d-f675-46bc-b66b-a7b94a96f94c","system_id":"levelo_inurba_marseille","lat":43.269319,"lon":5.389397,"is_reserved":false,"is_disabled":false,"rental_uris":{"android":"levelo://app?vid=e517965d-f675-46bc-b66b-a7b94a96f94c","ios":"levelo://app?vid=e517965d-f675-46bc-b66b-a7b94a96f94c"},"vehicle_type_id":"4","last_reported":1701324597,"current_range_meters":30000,"station_id":"ce4bhhh2rcd13ifvqfl0","pricing_plan_id":"free"},{"bike_id":"897c7477-704f-4ada-86df-3c153fdea6b8","system_id":"levelo_inurba_marseille","lat":43.265519,"lon":5.372846,"is_reserved":false,"is_disabled":false,"rental_uris":{"android":"levelo://app?vid=897c7477-704f-4ada-86df-3c153fdea6b8","ios":"levelo://app?vid=897c7477-704f-4ada-86df-3c153fdea6b8"},"vehicle_type_id":"4","last_reported":1701324597,"current_range_meters":0,"station_id":"ce4bhg12rcd13ifvqf70","pricing_plan_id":"free"},{"bike_id":"17ece11e-fd08-4a39-9fa8-e5560440b4cc","system_id":"levelo_inurba_marseille","lat":43.27996,"lon":5.416624,"is_reserved":false,"is_disabled":false,"rental_uris":{"android":"levelo://app?vid=17ece11e-fd08-4a39-9fa8-e5560440b4cc","ios":"levelo://app?vid=17ece11e-fd08-4a39-9fa8-e5560440b4cc"},"vehicle_type_id":"4","last_reported":1701324597,"current_range_meters":31200,"station_id":"ce4bho12rcd13ifvqh1g","pricing_plan_id":"free"},{"bike_id":"1d93de86-1b8d-4075-aaf1-a445fb2d4686","system_id":"levelo_inurba_marseille","lat":43.27996,"lon":5.416624,"is_reserved":false,"is_disabled":false,"rental_uris":{"android":"levelo://app?vid=1d93de86-1b8d-4075-aaf1-a445fb2d4686","ios":"levelo://app?vid=1d93de86-1b8d-4075-aaf1-a445fb2d4686"},"vehicle_type_id":"4","last_reported":1701324597,"current_range_meters":16400,"station_id":"ce4bho12rcd13ifvqh1g","pricing_plan_id":"free"},{"bike_id":"12452487-8637-4874-8cd3-35f9e6d5c626","system_id":"levelo_inurba_marseille","lat":43.265714,"lon":5.372891,"is_reserved":false,"is_disabled":false,"rental_uris":{"android":"levelo://app?vid=12452487-8637-4874-8cd3-35f9e6d5c626","ios":"levelo://app?vid=12452487-8637-4874-8cd3-35f9e6d5c626"},"vehicle_type_id":"4","last_reported":1701324597,"current_range_meters":30000,"station_id":"ce4bhg12rcd13ifvqf70","pricing_plan_id":"free"},{"bike_id":"76289dd2-d53b-4a1f-ba82-59d55ae3ffce","system_id":"levelo_inurba_marseille","lat":43.308051,"lon":5.43527,"is_reserved":false,"is_disabled":false,"rental_uris":{"android":"levelo://app?vid=76289dd2-d53b-4a1f-ba82-59d55ae3ffce","ios":"levelo://app?vid=76289dd2-d53b-4a1f-ba82-59d55ae3ffce"},"vehicle_type_id":"4","last_reported":1701324597,"current_range_meters":30000,"station_id":"ce4bhph2rcd13ifvqheg","pricing_plan_id":"free"},{"bike_id":"990b2adb-7167-4739-a5a0-0597c75ab46f","system_id":"levelo_inurba_marseille","lat":43.317104,"lon":5.436818,"is_reserved":false,"is_disabled":false,"rental_uris":{"android":"levelo://app?vid=990b2adb-7167-4739-a5a0-0597c75ab46f","ios":"levelo://app?vid=990b2adb-7167-4739-a5a0-0597c75ab46f"},"vehicle_type_id":"4","last_reported":1701324597,"current_range_meters":0,"station_id":"ce4bhp92rcd13ifvqhcg","pricing_plan_id":"free"},{"bike_id":"31e2b54c-3864-49b9-bbb8-6ef613406686","system_id":"levelo_inurba_marseille","lat":43.261828,"lon":5.374419,"is_reserved":false,"is_disabled":false,"rental_uris":{"android":"levelo://app?vid=31e2b54c-3864-49b9-bbb8-6ef613406686","ios":"levelo://app?vid=31e2b54c-3864-49b9-bbb8-6ef613406686"},"vehicle_type_id":"4","last_reported":1701324597,"current_range_meters":0,"station_id":"ce4bhgp2rcd13ifvqfc0","pricing_plan_id":"free"},{"bike_id":"1c859d8c-6823-4772-9abb-da577a635321","system_id":"levelo_inurba_marseille","lat":43.317104,"lon":5.436818,"is_reserved":false,"is_disabled":false,"rental_uris":{"android":"levelo://app?vid=1c859d8c-6823-4772-9abb-da577a635321","ios":"levelo://app?vid=1c859d8c-6823-4772-9abb-da577a635321"},"vehicle_type_id":"4","last_reported":1701324597,"current_range_meters":20800,"station_id":"ce4bhp92rcd13ifvqhcg","pricing_plan_id":"free"},{"bike_id":"99d63533-62af-4498-b6d6-41c459d84925","system_id":"levelo_inurba_marseille","lat":43.317104,"lon":5.436818,"is_reserved":false,"is_disabled":false,"rental_uris":{"android":"levelo://app?vid=99d63533-62af-4498-b6d6-41c459d84925","ios":"levelo://app?vid=99d63533-62af-4498-b6d6-41c459d84925"},"vehicle_type_id":"4","last_reported":1701324597,"current_range_meters":20800,"station_id":"ce4bhp92rcd13ifvqhcg","pricing_plan_id":"free"},{"bike_id":"f554caff-ea27-4c9a-835c-3ef548d12f07","system_id":"levelo_inurba_marseille","lat":43.317104,"lon":5.436818,"is_reserved":false,"is_disabled":false,"rental_uris":{"android":"levelo://app?vid=f554caff-ea27-4c9a-835c-3ef548d12f07","ios":"levelo://app?vid=f554caff-ea27-4c9a-835c-3ef548d12f07"},"vehicle_type_id":"4","last_reported":1701324597,"current_range_meters":4400,"station_id":"ce4bhp92rcd13ifvqhcg","pricing_plan_id":"free"},{"bike_id":"ce5248c3-5a3e-42f4-903f-001205e44f25","system_id":"levelo_inurba_marseille","lat":43.27184,"lon":5.40987,"is_reserved":false,"is_disabled":false,"rental_uris":{"android":"levelo://app?vid=ce5248c3-5a3e-42f4-903f-001205e44f25","ios":"levelo://app?vid=ce5248c3-5a3e-42f4-903f-001205e44f25"},"vehicle_type_id":"4","last_reported":1701324597,"current_range_meters":0,"station_id":"ce4bhl12rcd13ifvqgf0","pricing_plan_id":"free"},{"bike_id":"3b0c0bb4-5989-4886-a288-42d1a3878a2b","system_id":"levelo_inurba_marseille","lat":43.271799,"lon":5.409847,"is_reserved":false,"is_disabled":false,"rental_uris":{"android":"levelo://app?vid=3b0c0bb4-5989-4886-a288-42d1a3878a2b","ios":"levelo://app?vid=3b0c0bb4-5989-4886-a288-42d1a3878a2b"},"vehicle_type_id":"4","last_reported":1701324597,"current_range_meters":0,"station_id":"ce4bhl12rcd13ifvqgf0","pricing_plan_id":"free"},{"bike_id":"de4e587f-42d6-400c-8852-6148ad8011f6","system_id":"levelo_inurba_marseille","lat":43.271388,"lon":5.409269,"is_reserved":false,"is_disabled":false,"rental_uris":{"android":"levelo://app?vid=de4e587f-42d6-400c-8852-6148ad8011f6","ios":"levelo://app?vid=de4e587f-42d6-400c-8852-6148ad8011f6"},"vehicle_type_id":"4","last_reported":1701324597,"current_range_meters":1600,"station_id":"ce4bhl12rcd13ifvqgf0","pricing_plan_id":"free"},{"bike_id":"c27ac3f7-47c8-4e42-aa5d-a5083ed3eb8a","system_id":"levelo_inurba_marseille","lat":43.271388,"lon":5.409269,"is_reserved":false,"is_disabled":false,"rental_uris":{"android":"levelo://app?vid=c27ac3f7-47c8-4e42-aa5d-a5083ed3eb8a","ios":"levelo://app?vid=c27ac3f7-47c8-4e42-aa5d-a5083ed3eb8a"},"vehicle_type_id":"4","last_reported":1701324597,"current_range_meters":31200,"station_id":"ce4bhl12rcd13ifvqgf0","pricing_plan_id":"free"},{"bike_id":"51345e9f-2413-403c-8601-5ddf942a2617","system_id":"levelo_inurba_marseille","lat":43.26202,"lon":5.379299,"is_reserved":false,"is_disabled":false,"rental_uris":{"android":"levelo://app?vid=51345e9f-2413-403c-8601-5ddf942a2617","ios":"levelo://app?vid=51345e9f-2413-403c-8601-5ddf942a2617"},"vehicle_type_id":"4","last_reported":1701324597,"current_range_meters":27600,"station_id":"ce4bhjp2rcd13ifvqg90","pricing_plan_id":"free"},{"bike_id":"0048fac2-56d5-4842-9efe-a79340b04119","system_id":"levelo_inurba_marseille","lat":43.298953,"lon":5.436788,"is_reserved":false,"is_disabled":false,"rental_uris":{"android":"levelo://app?vid=0048fac2-56d5-4842-9efe-a79340b04119","ios":"levelo://app?vid=0048fac2-56d5-4842-9efe-a79340b04119"},"vehicle_type_id":"4","last_reported":1701324597,"current_range_meters":13200,"station_id":"ce4bhpp2rcd13ifvqhfg","pricing_plan_id":"free"},{"bike_id":"5d6c08b1-f1a5-4de3-874d-829b5159ed1d","system_id":"levelo_inurba_marseille","lat":43.281548,"lon":5.42643,"is_reserved":false,"is_disabled":false,"rental_uris":{"android":"levelo://app?vid=5d6c08b1-f1a5-4de3-874d-829b5159ed1d","ios":"levelo://app?vid=5d6c08b1-f1a5-4de3-874d-829b5159ed1d"},"vehicle_type_id":"4","last_reported":1701324597,"current_range_meters":27600,"station_id":"ce4bhnh2rcd13ifvqgug","pricing_plan_id":"free"},{"bike_id":"2cbd4b3c-d8dd-4b95-ac76-1323d53b4182","system_id":"levelo_inurba_marseille","lat":43.281541,"lon":5.426331,"is_reserved":false,"is_disabled":false,"rental_uris":{"android":"levelo://app?vid=2cbd4b3c-d8dd-4b95-ac76-1323d53b4182","ios":"levelo://app?vid=2cbd4b3c-d8dd-4b95-ac76-1323d53b4182"},"vehicle_type_id":"4","last_reported":1701324597,"current_range_meters":31200,"station_id":"ce4bhnh2rcd13ifvqgug","pricing_plan_id":"free"},{"bike_id":"6a423f92-9b07-4949-8514-2ee167e03bcf","system_id":"levelo_inurba_marseille","lat":43.281567,"lon":5.42637,"is_reserved":false,"is_disabled":false,"rental_uris":{"android":"levelo://app?vid=6a423f92-9b07-4949-8514-2ee167e03bcf","ios":"levelo://app?vid=6a423f92-9b07-4949-8514-2ee167e03bcf"},"vehicle_type_id":"4","last_reported":1701324597,"current_range_meters":30000,"station_id":"ce4bhnh2rcd13ifvqgug","pricing_plan_id":"free"},{"bike_id":"85158950-5b86-488b-bdb1-726b8dfbb936","system_id":"levelo_inurba_marseille","lat":43.281548,"lon":5.42643,"is_reserved":false,"is_disabled":false,"rental_uris":{"android":"levelo://app?vid=85158950-5b86-488b-bdb1-726b8dfbb936","ios":"levelo://app?vid=85158950-5b86-488b-bdb1-726b8dfbb936"},"vehicle_type_id":"4","last_reported":1701324597,"current_range_meters":14000,"station_id":"ce4bhnh2rcd13ifvqgug","pricing_plan_id":"free"},{"bike_id":"00d1bf49-5f2f-40eb-ba1c-6d61ac984990","system_id":"levelo_inurba_marseille","lat":43.281548,"lon":5.42643,"is_reserved":false,"is_disabled":false,"rental_uris":{"android":"levelo://app?vid=00d1bf49-5f2f-40eb-ba1c-6d61ac984990","ios":"levelo://app?vid=00d1bf49-5f2f-40eb-ba1c-6d61ac984990"},"vehicle_type_id":"4","last_reported":1701324597,"current_range_meters":30400,"station_id":"ce4bhnh2rcd13ifvqgug","pricing_plan_id":"free"},{"bike_id":"bd71c321-451e-4db9-9483-b3fea5f99947","system_id":"levelo_inurba_marseille","lat":43.2815,"lon":5.42643,"is_reserved":false,"is_disabled":false,"rental_uris":{"android":"levelo://app?vid=bd71c321-451e-4db9-9483-b3fea5f99947","ios":"levelo://app?vid=bd71c321-451e-4db9-9483-b3fea5f99947"},"vehicle_type_id":"4","last_reported":1701324597,"current_range_meters":25600,"station_id":"ce4bhnh2rcd13ifvqgug","pricing_plan_id":"free"},{"bike_id":"54e7103a-044b-433e-9f97-9f60b9ff0bee","system_id":"levelo_inurba_marseille","lat":43.281548,"lon":5.42643,"is_reserved":false,"is_disabled":false,"rental_uris":{"android":"levelo://app?vid=54e7103a-044b-433e-9f97-9f60b9ff0bee","ios":"levelo://app?vid=54e7103a-044b-433e-9f97-9f60b9ff0bee"},"vehicle_type_id":"4","last_reported":1701324597,"current_range_meters":31200,"station_id":"ce4bhnh2rcd13ifvqgug","pricing_plan_id":"free"},{"bike_id":"7dd4c909-c4b2-400f-9b7a-caa808388dc4","system_id":"levelo_inurba_marseille","lat":43.28153,"lon":5.42649,"is_reserved":false,"is_disabled":false,"rental_uris":{"android":"levelo://app?vid=7dd4c909-c4b2-400f-9b7a-caa808388dc4","ios":"levelo://app?vid=7dd4c909-c4b2-400f-9b7a-caa808388dc4"},"vehicle_type_id":"4","last_reported":1701324597,"current_range_meters":10000,"station_id":"ce4bhnh2rcd13ifvqgug","pricing_plan_id":"free"},{"bike_id":"a13368f5-c039-45e6-b328-5b0525422ef3","system_id":"levelo_inurba_marseille","lat":43.275028,"lon":5.424534,"is_reserved":false,"is_disabled":false,"rental_uris":{"android":"levelo://app?vid=a13368f5-c039-45e6-b328-5b0525422ef3","ios":"levelo://app?vid=a13368f5-c039-45e6-b328-5b0525422ef3"},"vehicle_type_id":"4","last_reported":1701324597,"current_range_meters":27200,"station_id":"ce4bhn92rcd13ifvqgrg","pricing_plan_id":"free"},{"bike_id":"54fac5fe-0c7e-4943-897d-31a01d6d8c11","system_id":"levelo_inurba_marseille","lat":43.260822,"lon":5.39767,"is_reserved":false,"is_disabled":false,"rental_uris":{"android":"levelo://app?vid=54fac5fe-0c7e-4943-897d-31a01d6d8c11","ios":"levelo://app?vid=54fac5fe-0c7e-4943-897d-31a01d6d8c11"},"vehicle_type_id":"4","last_reported":1701324597,"current_range_meters":0,"station_id":"ce4bhi12rcd13ifvqfq0","pricing_plan_id":"free"},{"bike_id":"39623ebf-a3b7-4fb2-99b1-0c72cfeab56b","system_id":"levelo_inurba_marseille","lat":43.2558,"lon":5.38237,"is_reserved":false,"is_disabled":false,"rental_uris":{"android":"levelo://app?vid=39623ebf-a3b7-4fb2-99b1-0c72cfeab56b","ios":"levelo://app?vid=39623ebf-a3b7-4fb2-99b1-0c72cfeab56b"},"vehicle_type_id":"4","last_reported":1701324597,"current_range_meters":27600,"station_id":"ce4bhih2rcd13ifvqfs0","pricing_plan_id":"free"},{"bike_id":"8c4fe141-b4a5-437f-8e59-f3691bb625ba","system_id":"levelo_inurba_marseille","lat":43.25581,"lon":5.38244,"is_reserved":false,"is_disabled":false,"rental_uris":{"android":"levelo://app?vid=8c4fe141-b4a5-437f-8e59-f3691bb625ba","ios":"levelo://app?vid=8c4fe141-b4a5-437f-8e59-f3691bb625ba"},"vehicle_type_id":"4","last_reported":1701324597,"current_range_meters":27600,"station_id":"ce4bhih2rcd13ifvqfs0","pricing_plan_id":"free"},{"bike_id":"5e330dc8-4f5e-462a-81be-656850ec1d84","system_id":"levelo_inurba_marseille","lat":43.25579,"lon":5.382317,"is_reserved":false,"is_disabled":false,"rental_uris":{"android":"levelo://app?vid=5e330dc8-4f5e-462a-81be-656850ec1d84","ios":"levelo://app?vid=5e330dc8-4f5e-462a-81be-656850ec1d84"},"vehicle_type_id":"4","last_reported":1701324597,"current_range_meters":14800,"station_id":"ce4bhih2rcd13ifvqfs0","pricing_plan_id":"free"},{"bike_id":"385dd4c6-ae10-46f5-9544-067cd77e486c","system_id":"levelo_inurba_marseille","lat":43.255795,"lon":5.382355,"is_reserved":false,"is_disabled":false,"rental_uris":{"android":"levelo://app?vid=385dd4c6-ae10-46f5-9544-067cd77e486c","ios":"levelo://app?vid=385dd4c6-ae10-46f5-9544-067cd77e486c"},"vehicle_type_id":"4","last_reported":1701324597,"current_range_meters":21600,"station_id":"ce4bhih2rcd13ifvqfs0","pricing_plan_id":"free"},{"bike_id":"095be8c1-846d-4baa-93a6-20c9e62aef52","system_id":"levelo_inurba_marseille","lat":43.25578,"lon":5.38237,"is_reserved":false,"is_disabled":false,"rental_uris":{"android":"levelo://app?vid=095be8c1-846d-4baa-93a6-20c9e62aef52","ios":"levelo://app?vid=095be8c1-846d-4baa-93a6-20c9e62aef52"},"vehicle_type_id":"4","last_reported":1701324597,"current_range_meters":30400,"station_id":"ce4bhih2rcd13ifvqfs0","pricing_plan_id":"free"},{"bike_id":"0e904d10-9ecb-4f79-883b-a75ae068ad82","system_id":"levelo_inurba_marseille","lat":43.255774,"lon":5.382348,"is_reserved":false,"is_disabled":false,"rental_uris":{"android":"levelo://app?vid=0e904d10-9ecb-4f79-883b-a75ae068ad82","ios":"levelo://app?vid=0e904d10-9ecb-4f79-883b-a75ae068ad82"},"vehicle_type_id":"4","last_reported":1701324597,"current_range_meters":17200,"station_id":"ce4bhih2rcd13ifvqfs0","pricing_plan_id":"free"},{"bike_id":"9adae74f-3e93-483c-863d-d9d8e3d8aa00","system_id":"levelo_inurba_marseille","lat":43.25499,"lon":5.376508,"is_reserved":false,"is_disabled":false,"rental_uris":{"android":"levelo://app?vid=9adae74f-3e93-483c-863d-d9d8e3d8aa00","ios":"levelo://app?vid=9adae74f-3e93-483c-863d-d9d8e3d8aa00"},"vehicle_type_id":"4","last_reported":1701324597,"current_range_meters":27200,"station_id":"ce4bhh12rcd13ifvqff0","pricing_plan_id":"free"},{"bike_id":"072735fc-7166-45e4-ab1b-a3fa626d7d29","system_id":"levelo_inurba_marseille","lat":43.254947,"lon":5.376454,"is_reserved":false,"is_disabled":false,"rental_uris":{"android":"levelo://app?vid=072735fc-7166-45e4-ab1b-a3fa626d7d29","ios":"levelo://app?vid=072735fc-7166-45e4-ab1b-a3fa626d7d29"},"vehicle_type_id":"4","last_reported":1701324597,"current_range_meters":24000,"station_id":"ce4bhh12rcd13ifvqff0","pricing_plan_id":"free"},{"bike_id":"30565658-e7be-4be7-92bf-bc263e190872","system_id":"levelo_inurba_marseille","lat":43.254911,"lon":5.376479,"is_reserved":false,"is_disabled":false,"rental_uris":{"android":"levelo://app?vid=30565658-e7be-4be7-92bf-bc263e190872","ios":"levelo://app?vid=30565658-e7be-4be7-92bf-bc263e190872"},"vehicle_type_id":"4","last_reported":1701324597,"current_range_meters":30400,"station_id":"ce4bhh12rcd13ifvqff0","pricing_plan_id":"free"},{"bike_id":"4e0bd320-2cd9-4caa-8a11-234b11e8d880","system_id":"levelo_inurba_marseille","lat":43.254947,"lon":5.376454,"is_reserved":false,"is_disabled":false,"rental_uris":{"android":"levelo://app?vid=4e0bd320-2cd9-4caa-8a11-234b11e8d880","ios":"levelo://app?vid=4e0bd320-2cd9-4caa-8a11-234b11e8d880"},"vehicle_type_id":"4","last_reported":1701324597,"current_range_meters":31200,"station_id":"ce4bhh12rcd13ifvqff0","pricing_plan_id":"free"},{"bike_id":"70df88eb-3384-4c1e-b5c4-a24bdcb4ab75","system_id":"levelo_inurba_marseille","lat":43.270721,"lon":5.422764,"is_reserved":false,"is_disabled":false,"rental_uris":{"android":"levelo://app?vid=70df88eb-3384-4c1e-b5c4-a24bdcb4ab75","ios":"levelo://app?vid=70df88eb-3384-4c1e-b5c4-a24bdcb4ab75"},"vehicle_type_id":"4","last_reported":1701324597,"current_range_meters":20400,"station_id":"ce4bhk92rcd13ifvqgb0","pricing_plan_id":"free"},{"bike_id":"19029ed7-bf97-4f4d-a8c2-7d27e70ef7f7","system_id":"levelo_inurba_marseille","lat":43.270721,"lon":5.422764,"is_reserved":false,"is_disabled":false,"rental_uris":{"android":"levelo://app?vid=19029ed7-bf97-4f4d-a8c2-7d27e70ef7f7","ios":"levelo://app?vid=19029ed7-bf97-4f4d-a8c2-7d27e70ef7f7"},"vehicle_type_id":"4","last_reported":1701324597,"current_range_meters":31200,"station_id":"ce4bhk92rcd13ifvqgb0","pricing_plan_id":"free"},{"bike_id":"f63e761e-63ad-4b6d-8955-51bcf9db51a8","system_id":"levelo_inurba_marseille","lat":43.258658,"lon":5.398935,"is_reserved":false,"is_disabled":false,"rental_uris":{"android":"levelo://app?vid=f63e761e-63ad-4b6d-8955-51bcf9db51a8","ios":"levelo://app?vid=f63e761e-63ad-4b6d-8955-51bcf9db51a8"},"vehicle_type_id":"4","last_reported":1701324597,"current_range_meters":27200,"station_id":"ce4bhl92rcd13ifvqghg","pricing_plan_id":"free"},{"bike_id":"89a99e0e-84f9-4cb4-9aa6-53df93c20d13","system_id":"levelo_inurba_marseille","lat":43.25717,"lon":5.41116,"is_reserved":false,"is_disabled":false,"rental_uris":{"android":"levelo://app?vid=89a99e0e-84f9-4cb4-9aa6-53df93c20d13","ios":"levelo://app?vid=89a99e0e-84f9-4cb4-9aa6-53df93c20d13"},"vehicle_type_id":"4","last_reported":1701324597,"current_range_meters":29600,"station_id":"ce4bhkp2rcd13ifvqgd0","pricing_plan_id":"free"},{"bike_id":"656bd8b9-16cc-4fcf-b4d5-ba6823fb1a8f","system_id":"levelo_inurba_marseille","lat":43.250009,"lon":5.389195,"is_reserved":false,"is_disabled":false,"rental_uris":{"android":"levelo://app?vid=656bd8b9-16cc-4fcf-b4d5-ba6823fb1a8f","ios":"levelo://app?vid=656bd8b9-16cc-4fcf-b4d5-ba6823fb1a8f"},"vehicle_type_id":"4","last_reported":1701324597,"current_range_meters":31200,"station_id":"ce4bhgp2rcd13ifvqfd0","pricing_plan_id":"free"},{"bike_id":"bef1f0d6-2f8c-4b4f-9da0-3d78dc17a3c6","system_id":"levelo_inurba_marseille","lat":43.2479,"lon":5.374457,"is_reserved":false,"is_disabled":false,"rental_uris":{"android":"levelo://app?vid=bef1f0d6-2f8c-4b4f-9da0-3d78dc17a3c6","ios":"levelo://app?vid=bef1f0d6-2f8c-4b4f-9da0-3d78dc17a3c6"},"vehicle_type_id":"4","last_reported":1701324597,"current_range_meters":28800,"station_id":"ce4bhgh2rcd13ifvqfb0","pricing_plan_id":"free"},{"bike_id":"03e9e761-cea1-447a-a321-96a50454544d","system_id":"levelo_inurba_marseille","lat":43.2479,"lon":5.374457,"is_reserved":false,"is_disabled":false,"rental_uris":{"android":"levelo://app?vid=03e9e761-cea1-447a-a321-96a50454544d","ios":"levelo://app?vid=03e9e761-cea1-447a-a321-96a50454544d"},"vehicle_type_id":"4","last_reported":1701324597,"current_range_meters":28400,"station_id":"ce4bhgh2rcd13ifvqfb0","pricing_plan_id":"free"},{"bike_id":"1ee6ccac-fa0e-40cb-ad63-a576623c103c","system_id":"levelo_inurba_marseille","lat":43.25093,"lon":5.39504,"is_reserved":false,"is_disabled":false,"rental_uris":{"android":"levelo://app?vid=1ee6ccac-fa0e-40cb-ad63-a576623c103c","ios":"levelo://app?vid=1ee6ccac-fa0e-40cb-ad63-a576623c103c"},"vehicle_type_id":"4","last_reported":1701324597,"current_range_meters":29200,"station_id":"ce4bhm12rcd13ifvqgkg","pricing_plan_id":"free"},{"bike_id":"4967ab4e-a884-4957-bdb9-f89f823e0acd","system_id":"levelo_inurba_marseille","lat":43.250966,"lon":5.395186,"is_reserved":false,"is_disabled":false,"rental_uris":{"android":"levelo://app?vid=4967ab4e-a884-4957-bdb9-f89f823e0acd","ios":"levelo://app?vid=4967ab4e-a884-4957-bdb9-f89f823e0acd"},"vehicle_type_id":"4","last_reported":1701324597,"current_range_meters":28400,"station_id":"ce4bhm12rcd13ifvqgkg","pricing_plan_id":"free"},{"bike_id":"8078dd8c-54d7-48bb-bf76-667b16f596f8","system_id":"levelo_inurba_marseille","lat":43.24693,"lon":5.382096,"is_reserved":false,"is_disabled":false,"rental_uris":{"android":"levelo://app?vid=8078dd8c-54d7-48bb-bf76-667b16f596f8","ios":"levelo://app?vid=8078dd8c-54d7-48bb-bf76-667b16f596f8"},"vehicle_type_id":"4","last_reported":1701324597,"current_range_meters":30000,"station_id":"ce4bhih2rcd13ifvqfr0","pricing_plan_id":"free"},{"bike_id":"f2e7ea44-1802-445c-b14e-d15b1d57b78d","system_id":"levelo_inurba_marseille","lat":43.24693,"lon":5.382096,"is_reserved":false,"is_disabled":false,"rental_uris":{"android":"levelo://app?vid=f2e7ea44-1802-445c-b14e-d15b1d57b78d","ios":"levelo://app?vid=f2e7ea44-1802-445c-b14e-d15b1d57b78d"},"vehicle_type_id":"4","last_reported":1701324597,"current_range_meters":8400,"station_id":"ce4bhih2rcd13ifvqfr0","pricing_plan_id":"free"},{"bike_id":"e3d09a6b-46f8-4049-9245-e5b95a6446e7","system_id":"levelo_inurba_marseille","lat":43.246461,"lon":5.389014,"is_reserved":false,"is_disabled":false,"rental_uris":{"android":"levelo://app?vid=e3d09a6b-46f8-4049-9245-e5b95a6446e7","ios":"levelo://app?vid=e3d09a6b-46f8-4049-9245-e5b95a6446e7"},"vehicle_type_id":"4","last_reported":1701324597,"current_range_meters":29200,"station_id":"ce4bhg12rcd13ifvqf60","pricing_plan_id":"free"},