{"last_updated":1756221062,"ttl":60,"version":"2.2","data":{"bikes":[{"bike_id":"6f0d03e6-2c6f-467b-8bff-d4818ae9b2a2","system_id":"levelo_inurba_marseille","lat":43.29632,"lon":5.40598,"is_reserved":false,"is_disabled":false,"rental_uris":{"android":"levelo://app?vid=6f0d03e6-2c6f-467b-8bff-d4818ae9b2a2","ios":"levelo://app?vid=6f0d03e6-2c6f-467b-8bff-d4818ae9b2a2"},"vehicle_type_id":"4","last_reported":1756221062,"current_range_meters":2800,"station_id":"","pricing_plan_id":"cebpf4jnsgd1na2vs0mg"},{"bike_id":"5a94cd1f-5ae1-47d0-a15d-d5554856827f","system_id":"levelo_inurba_marseille","lat":43.3058,"lon":5.37537,"is_reserved":false,"is_disabled":false,"rental_uris":{"android":"levelo://app?vid=5a94cd1f-5ae1-47d0-a15d-d5554856827f","ios":"levelo://app?vid=5a94cd1f-5ae1-47d0-a15d-d5554856827f"},"vehicle_type_id":"4","last_reported":1756221062,"current_range_meters":2800,"station_id":"","pricing_plan_id":"cebpf4jnsgd1na2vs0mg"},{"bike_id":"0490c530-845d-44f9-bf75-09a8b4d2b9b9","system_id":"levelo_inurba_marseille","lat":43.29754,"lon":5.38076,"is_reserved":false,"is_disabled":false,"rental_uris":{"android":"levelo://app?vid=0490c530-845d-44f9-bf75-09a8b4d2b9b9","ios":"levelo://app?vid=0490c530-845d-44f9-bf75-09a8b4d2b9b9"},"vehicle_type_id":"4","last_reported":1756221062,"current_range_meters":2800,"station_id":"ce4bgip2rcd13ifvqbb0","pricing_plan_id":"cebpf4jnsgd1na2vs0mg"},{"bike_id":"8278d03d-5584-48a8-a86a-7847a162c713","system_id":"levelo_inurba_marseille","lat":43.3093,"lon":5.38169,"is_reserved":false,"is_disabled":false,"rental_uris":{"android":"levelo://app?vid=8278d03d-5584-48a8-a86a-7847a162c713","ios":"levelo://app?vid=8278d03d-5584-48a8-a86a-7847a162c713"},"vehicle_type_id":"4","last_reported":1756221062,"current_range_meters":2800,"station_id":"","pricing_plan_id":"cebpf4jnsgd1na2vs0mg"},{"bike_id":"06642dca-3538-48e1-b4a4-6beebb0adc88","system_id":"levelo_inurba_marseille","lat":43.29704,"lon":5.36604,"is_reserved":false,"is_disabled":false,"rental_uris":{"android":"levelo://app?vid=06642dca-3538-48e1-b4a4-6beebb0adc88","ios":"levelo://app?vid=06642dca-3538-48e1-b4a4-6beebb0adc88"},"vehicle_type_id":"4","last_reported":1756221062,"current_range_meters":2800,"station_id":"ce4bgn12rcd13ifvqbt0","pricing_plan_id":"cebpf4jnsgd1na2vs0mg"},{"bike_id":"46c28713-bb2b-45d5-98fc-8d5e885d13cf","system_id":"levelo_inurba_marseille","lat":43.21208,"lon":5.35056,"is_reserved":false,"is_disabled":false,"rental_uris":{"android":"levelo://app?vid=46c28713-bb2b-45d5-98fc-8d5e885d13cf","ios":"levelo://app?vid=46c28713-bb2b-45d5-98fc-8d5e885d13cf"},"vehicle_type_id":"4","last_reported":1756221062,"current_range_meters":3200,"station_id":"st_cvj6sg6p6f1abm77japg","pricing_plan_id":"cebpf4jnsgd1na2vs0mg"},{"bike_id":"0722ab04-d1ca-497c-bcb3-b661fde2cebd","system_id":"levelo_inurba_marseille","lat":43.28406,"lon":5.34984,"is_reserved":false,"is_disabled":false,"rental_uris":{"android":"levelo://app?vid=0722ab04-d1ca-497c-bcb3-b661fde2cebd","ios":"levelo://app?vid=0722ab04-d1ca-497c-bcb3-b661fde2cebd"},"vehicle_type_id":"4","last_reported":1756221062,"current_range_meters":3200,"station_id":"ce4bhbh2rcd13ifvqepg","pricing_plan_id":"cebpf4jnsgd1na2vs0mg"},{"bike_id":"63236404-8533-4001-bab3-e0439bffb150","system_id":"levelo_inurba_marseille","lat":43.21778,"lon":5.34597,"is_reserved":false,"is_disabled":false,"rental_uris":{"android":"levelo://app?vid=63236404-8533-4001-bab3-e0439bffb150","ios":"levelo://app?vid=63236404-8533-4001-bab3-e0439bffb150"},"vehicle_type_id":"4","last_reported":1756221062,"current_range_meters":3200,"station_id":"st_cvj6r9ubvosntc0bgbag","pricing_plan_id":"cebpf4jnsgd1na2vs0mg"},{"bike_id":"7af4b4ed-284e-48de-bbef-7d205b9e4d3c","system_id":"levelo_inurba_marseille","lat":43.29788,"lon":5.39347,"is_reserved":false,"is_disabled":false,"rental_uris":{"android":"levelo://app?vid=7af4b4ed-284e-48de-bbef-7d205b9e4d3c","ios":"levelo://app?vid=7af4b4ed-284e-48de-bbef-7d205b9e4d3c"},"vehicle_type_id":"4","last_reported":1756221062,"current_range_meters":3200,"station_id":"chh1huq6cuj3fo74tm60","pricing_plan_id":"cebpf4jnsgd1na2vs0mg"},{"bike_id":"426e9dfa-f9c8-4ce9-bc8b-a6d6770e88e0","system_id":"levelo_inurba_marseille","lat":43.28273,"lon":5.3506,"is_reserved":false,"is_disabled":false,"rental_uris":{"android":"levelo://app?vid=426e9dfa-f9c8-4ce9-bc8b-a6d6770e88e0","ios":"levelo://app?vid=426e9dfa-f9c8-4ce9-bc8b-a6d6770e88e0"},"vehicle_type_id":"4","last_reported":1756221062,"current_range_meters":3200,"station_id":"ce4bhbp2rcd13ifvqerg","pricing_plan_id":"cebpf4jnsgd1na2vs0mg"},{"bike_id":"2a51a2e4-63ad-4d08-89a0-24075534a81b","system_id":"levelo_inurba_marseille","lat":43.30137,"lon":5.38774,"is_reserved":false,"is_disabled":false,"rental_uris":{"android":"levelo://app?vid=2a51a2e4-63ad-4d08-89a0-24075534a81b","ios":"levelo://app?vid=2a51a2e4-63ad-4d08-89a0-24075534a81b"},"vehicle_type_id":"4","last_reported":1756221062,"current_range_meters":3200,"station_id":"ce4bghh2rcd13ifvqb60","pricing_plan_id":"cebpf4jnsgd1na2vs0mg"},{"bike_id":"b20d1bc6-22ad-4449-adcc-a7d6bcc06f96","system_id":"levelo_inurba_marseille","lat":43.28663,"lon":5.36346,"is_reserved":false,"is_disabled":false,"rental_uris":{"android":"levelo://app?vid=b20d1bc6-22ad-4449-adcc-a7d6bcc06f96","ios":"levelo://app?vid=b20d1bc6-22ad-4449-adcc-a7d6bcc06f96"},"vehicle_type_id":"4","last_reported":1756221062,"current_range_meters":3200,"station_id":"ce4bhah2rcd13ifvqej0","pricing_plan_id":"cebpf4jnsgd1na2vs0mg"},{"bike_id":"5675d62d-e7ef-4a5b-8a9c-3ab985d0d475","system_id":"levelo_inurba_marseille","lat":43.29975,"lon":5.37176,"is_reserved":false,"is_disabled":false,"rental_uris":{"android":"levelo://app?vid=5675d62d-e7ef-4a5b-8a9c-3ab985d0d475","ios":"levelo://app?vid=5675d62d-e7ef-4a5b-8a9c-3ab985d0d475"},"vehicle_type_id":"4","last_reported":1756221062,"current_range_meters":2800,"station_id":"ce4bgr92rcd13ifvqc7g","pricing_plan_id":"cebpf4jnsgd1na2vs0mg"},{"bike_id":"49513b6a-2b69-4cb4-adf9-18764dec7d17","system_id":"levelo_inurba_marseille","lat":43.27813,"lon":5.40708,"is_reserved":false,"is_disabled":false,"rental_uris":{"android":"levelo://app?vid=49513b6a-2b69-4cb4-adf9-18764dec7d17","ios":"levelo://app?vid=49513b6a-2b69-4cb4-adf9-18764dec7d17"},"vehicle_type_id":"4","last_reported":1756221062,"current_range_meters":3600,"station_id":"ce4bhnh2rcd13ifvqgtg","pricing_plan_id":"cebpf4jnsgd1na2vs0mg"},{"bike_id":"ae6e7466-f79a-43dd-ba01-51043638613b","system_id":"levelo_inurba_marseille","lat":43.22845,"lon":5.34935,"is_reserved":false,"is_disabled":false,"rental_uris":{"android":"levelo://app?vid=ae6e7466-f79a-43dd-ba01-51043638613b","ios":"levelo://app?vid=ae6e7466-f79a-43dd-ba01-51043638613b"},"vehicle_type_id":"4","last_reported":1756221062,"current_range_meters":3600,"station_id":"","pricing_plan_id":"cebpf4jnsgd1na2vs0mg"},{"bike_id":"18cadd98-ca5b-4518-98d8-bbb26e647823","system_id":"levelo_inurba_marseille","lat":43.21193,"lon":5.35068,"is_reserved":false,"is_disabled":false,"rental_uris":{"android":"levelo://app?vid=18cadd98-ca5b-4518-98d8-bbb26e647823","ios":"levelo://app?vid=18cadd98-ca5b-4518-98d8-bbb26e647823"},"vehicle_type_id":"4","last_reported":1756221062,"current_range_meters":4000,"station_id":"st_cvj6sg6p6f1abm77japg","pricing_plan_id":"cebpf4jnsgd1na2vs0mg"},{"bike_id":"5df7bd1f-928b-4cb5-9c52-860d045f1495","system_id":"levelo_inurba_marseille","lat":43.282336,"lon":5.390798,"is_reserved":false,"is_disabled":false,"rental_uris":{"android":"levelo://app?vid=5df7bd1f-928b-4cb5-9c52-860d045f1495","ios":"levelo://app?vid=5df7bd1f-928b-4cb5-9c52-860d045f1495"},"vehicle_type_id":"4","last_reported":1756221062,"current_range_meters":4400,"station_id":"ce4bhn92rcd13ifvqgsg","pricing_plan_id":"cebpf4jnsgd1na2vs0mg"},{"bike_id":"2644dcd8-dfb8-4799-a59e-87e5abf24ca0","system_id":"levelo_inurba_marseille","lat":43.29796,"lon":5.40397,"is_reserved":false,"is_disabled":false,"rental_uris":{"android":"levelo://app?vid=2644dcd8-dfb8-4799-a59e-87e5abf24ca0","ios":"levelo://app?vid=2644dcd8-dfb8-4799-a59e-87e5abf24ca0"},"vehicle_type_id":"4","last_reported":1756221062,"current_range_meters":4000,"station_id":"ce4bh112rcd13ifvqd90","pricing_plan_id":"cebpf4jnsgd1na2vs0mg"},{"bike_id":"e79154b1-096d-430e-aabe-5159129930ad","system_id":"levelo_inurba_marseille","lat":43.2826,"lon":5.35067,"is_reserved":false,"is_disabled":false,"rental_uris":{"android":"levelo://app?vid=e79154b1-096d-430e-aabe-5159129930ad","ios":"levelo://app?vid=e79154b1-096d-430e-aabe-5159129930ad"},"vehicle_type_id":"4","last_reported":1756221062,"current_range_meters":4400,"station_id":"ce4bhbp2rcd13ifvqerg","pricing_plan_id":"cebpf4jnsgd1na2vs0mg"},{"bike_id":"d918f59d-a1d8-4480-86e8-8ae147d49715","system_id":"levelo_inurba_marseille","lat":43.28153,"lon":5.4264,"is_reserved":false,"is_disabled":false,"rental_uris":{"android":"levelo://app?vid=d918f59d-a1d8-4480-86e8-8ae147d49715","ios":"levelo://app?vid=d918f59d-a1d8-4480-86e8-8ae147d49715"},"vehicle_type_id":"4","last_reported":1756221062,"current_range_meters":4800,"station_id":"ce4bhnh2rcd13ifvqgug","pricing_plan_id":"cebpf4jnsgd1na2vs0mg"},{"bike_id":"c7c3496f-c366-43c2-8e1e-7e4a3e9f5a0f","system_id":"levelo_inurba_marseille","lat":43.23193,"lon":5.3555,"is_reserved":false,"is_disabled":false,"rental_uris":{"android":"levelo://app?vid=c7c3496f-c366-43c2-8e1e-7e4a3e9f5a0f","ios":"levelo://app?vid=c7c3496f-c366-43c2-8e1e-7e4a3e9f5a0f"},"vehicle_type_id":"4","last_reported":1756221062,"current_range_meters":4800,"station_id":"ce4bhu92rcd13ifvqi70","pricing_plan_id":"cebpf4jnsgd1na2vs0mg"},{"bike_id":"fce1dd99-8229-4bff-9f7b-f5048c0484d6","system_id":"levelo_inurba_marseille","lat":43.2996,"lon":5.37135,"is_reserved":false,"is_disabled":false,"rental_uris":{"android":"levelo://app?vid=fce1dd99-8229-4bff-9f7b-f5048c0484d6","ios":"levelo://app?vid=fce1dd99-8229-4bff-9f7b-f5048c0484d6"},"vehicle_type_id":"4","last_reported":1756221062,"current_range_meters":5600,"station_id":"ce4bgr92rcd13ifvqc7g","pricing_plan_id":"cebpf4jnsgd1na2vs0mg"},{"bike_id":"c4ccc10f-8ccd-44be-a00a-f6ebdc6ec159","system_id":"levelo_inurba_marseille","lat":43.3041,"lon":5.43446,"is_reserved":false,"is_disabled":false,"rental_uris":{"android":"levelo://app?vid=c4ccc10f-8ccd-44be-a00a-f6ebdc6ec159","ios":"levelo://app?vid=c4ccc10f-8ccd-44be-a00a-f6ebdc6ec159"},"vehicle_type_id":"4","last_reported":1756221062,"current_range_meters":5600,"station_id":"","pricing_plan_id":"cebpf4jnsgd1na2vs0mg"},{"bike_id":"cff408d7-aef1-44d2-9a7b-97952ab24c09","system_id":"levelo_inurba_marseille","lat":43.31892,"lon":5.40741,"is_reserved":false,"is_disabled":false,"rental_uris":{"android":"levelo://app?vid=cff408d7-aef1-44d2-9a7b-97952ab24c09","ios":"levelo://app?vid=cff408d7-aef1-44d2-9a7b-97952ab24c09"},"vehicle_type_id":"4","last_reported":1756221062,"current_range_meters":5600,"station_id":"ce4bhq12rcd13ifvqhig","pricing_plan_id":"cebpf4jnsgd1na2vs0mg"},{"bike_id":"fb0ecd7c-2c0f-42f1-9e73-9448c9893367","system_id":"levelo_inurba_marseille","lat":43.26475,"lon":5.37023,"is_reserved":false,"is_disabled":false,"rental_uris":{"android":"levelo://app?vid=fb0ecd7c-2c0f-42f1-9e73-9448c9893367","ios":"levelo://app?vid=fb0ecd7c-2c0f-42f1-9e73-9448c9893367"},"vehicle_type_id":"4","last_reported":1756221062,"current_range_meters":5600,"station_id":"","pricing_plan_id":"cebpf4jnsgd1na2vs0mg"},{"bike_id":"9e1a24db-e24e-4440-a80d-3a4c6b803a7d","system_id":"levelo_inurba_marseille","lat":43.286865,"lon":5.37402,"is_reserved":false,"is_disabled":false,"rental_uris":{"android":"levelo://app?vid=9e1a24db-e24e-4440-a80d-3a4c6b803a7d","ios":"levelo://app?vid=9e1a24db-e24e-4440-a80d-3a4c6b803a7d"},"vehicle_type_id":"4","last_reported":1756221062,"current_range_meters":5600,"station_id":"ce4bh3p2rcd13ifvqdq0","pricing_plan_id":"cebpf4jnsgd1na2vs0mg"},{"bike_id":"42d4da06-4698-43b2-9e7b-20893bae5758","system_id":"levelo_inurba_marseille","lat":43.28927,"lon":5.38394,"is_reserved":false,"is_disabled":false,"rental_uris":{"android":"levelo://app?vid=42d4da06-4698-43b2-9e7b-20893bae5758","ios":"levelo://app?vid=42d4da06-4698-43b2-9e7b-20893bae5758"},"vehicle_type_id":"4","last_reported":1756221062,"current_range_meters":6400,"station_id":"ce4bh612rcd13ifvqe6g","pricing_plan_id":"cebpf4jnsgd1na2vs0mg"},{"bike_id":"8b0ad0f3-5f4e-4268-bb99-62d28104ea99","system_id":"levelo_inurba_marseille","lat":43.3019,"lon":5.36629,"is_reserved":false,"is_disabled":false,"rental_uris":{"android":"levelo://app?vid=8b0ad0f3-5f4e-4268-bb99-62d28104ea99","ios":"levelo://app?vid=8b0ad0f3-5f4e-4268-bb99-62d28104ea99"},"vehicle_type_id":"4","last_reported":1756221062,"current_range_meters":6400,"station_id":"ce4bgrh2rcd13ifvqc8g","pricing_plan_id":"cebpf4jnsgd1na2vs0mg"},{"bike_id":"53380277-0203-4f50-bf92-e83b26a73626","system_id":"levelo_inurba_marseille","lat":43.30252,"lon":5.40085,"is_reserved":false,"is_disabled":false,"rental_uris":{"android":"levelo://app?vid=53380277-0203-4f50-bf92-e83b26a73626","ios":"levelo://app?vid=53380277-0203-4f50-bf92-e83b26a73626"},"vehicle_type_id":"4","last_reported":1756221062,"current_range_meters":6400,"station_id":"ce4bgvh2rcd13ifvqcs0","pricing_plan_id":"cebpf4jnsgd1na2vs0mg"},{"bike_id":"824cd227-e1fd-4e05-b87e-05768514bec2","system_id":"levelo_inurba_marseille","lat":43.2121,"lon":5.35056,"is_reserved":false,"is_disabled":false,"rental_uris":{"android":"levelo://app?vid=824cd227-e1fd-4e05-b87e-05768514bec2","ios":"levelo://app?vid=824cd227-e1fd-4e05-b87e-05768514bec2"},"vehicle_type_id":"4","last_reported":1756221062,"current_range_meters":6400,"station_id":"st_cvj6sg6p6f1abm77japg","pricing_plan_id":"cebpf4jnsgd1na2vs0mg"},{"bike_id":"d6a05197-5da5-4fbc-82e0-f7ea593c06dd","system_id":"levelo_inurba_marseille","lat":43.27934,"lon":5.38703,"is_reserved":false,"is_disabled":true,"rental_uris":{"android":"levelo://app?vid=d6a05197-5da5-4fbc-82e0-f7ea593c06dd","ios":"levelo://app?vid=d6a05197-5da5-4fbc-82e0-f7ea593c06dd"},"vehicle_type_id":"4","last_reported":1756221062,"current_range_meters":6800,"station_id":"","pricing_plan_id":"cebpf4jnsgd1na2vs0mg"},{"bike_id":"6f033ccc-7537-46a5-826e-fa3538917d37","system_id":"levelo_inurba_marseille","lat":43.29521,"lon":5.39042,"is_reserved":false,"is_disabled":false,"rental_uris":{"android":"levelo://app?vid=6f033ccc-7537-46a5-826e-fa3538917d37","ios":"levelo://app?vid=6f033ccc-7537-46a5-826e-fa3538917d37"},"vehicle_type_id":"4","last_reported":1756221062,"current_range_meters":6800,"station_id":"ce4bh3p2rcd13ifvqdp0","pricing_plan_id":"cebpf4jnsgd1na2vs0mg"},{"bike_id":"fb358362-5369-452c-ba15-4e8aeb38806b","system_id":"levelo_inurba_marseille","lat":43.30595,"lon":5.37231,"is_reserved":false,"is_disabled":false,"rental_uris":{"android":"levelo://app?vid=fb358362-5369-452c-ba15-4e8aeb38806b","ios":"levelo://app?vid=fb358362-5369-452c-ba15-4e8aeb38806b"},"vehicle_type_id":"4","last_reported":1756221062,"current_range_meters":6800,"station_id":"ce4bgqh2rcd13ifvqc4g","pricing_plan_id":"cebpf4jnsgd1na2vs0mg"},{"bike_id":"3e8093f3-79eb-4b83-b425-0c2d8be87184","system_id":"levelo_inurba_marseille","lat":43.28933,"lon":5.36638,"is_reserved":false,"is_disabled":false,"rental_uris":{"android":"levelo://app?vid=3e8093f3-79eb-4b83-b425-0c2d8be87184","ios":"levelo://app?vid=3e8093f3-79eb-4b83-b425-0c2d8be87184"},"vehicle_type_id":"4","last_reported":1756221062,"current_range_meters":6800,"station_id":"ce4bhap2rcd13ifvqek0","pricing_plan_id":"cebpf4jnsgd1na2vs0mg"},{"bike_id":"62826585-b974-45e5-9994-fda958e375a3","system_id":"levelo_inurba_marseille","lat":43.30142,"lon":5.39875,"is_reserved":false,"is_disabled":false,"rental_uris":{"android":"levelo://app?vid=62826585-b974-45e5-9994-fda958e375a3","ios":"levelo://app?vid=62826585-b974-45e5-9994-fda958e375a3"},"vehicle_type_id":"4","last_reported":1756221062,"current_range_meters":7200,"station_id":"ce4bh0h2rcd13ifvqd40","pricing_plan_id":"cebpf4jnsgd1na2vs0mg"},{"bike_id":"64023299-e5a3-48c2-bba1-9588cb7f1f16","system_id":"levelo_inurba_marseille","lat":43.31163,"lon":5.38714,"is_reserved":false,"is_disabled":false,"rental_uris":{"android":"levelo://app?vid=64023299-e5a3-48c2-bba1-9588cb7f1f16","ios":"levelo://app?vid=64023299-e5a3-48c2-bba1-9588cb7f1f16"},"vehicle_type_id":"4","last_reported":1756221062,"current_range_meters":7200,"station_id":"ce4bgv12rcd13ifvqcp0","pricing_plan_id":"cebpf4jnsgd1na2vs0mg"},{"bike_id":"aadca6a9-215e-404f-a821-3e79c817ace8","system_id":"levelo_inurba_marseille","lat":43.3033,"lon":5.40435,"is_reserved":false,"is_disabled":false,"rental_uris":{"android":"levelo://app?vid=aadca6a9-215e-404f-a821-3e79c817ace8","ios":"levelo://app?vid=aadca6a9-215e-404f-a821-3e79c817ace8"},"vehicle_type_id":"4","last_reported":1756221062,"current_range_meters":7200,"station_id":"ce4bh012rcd13ifvqd10","pricing_plan_id":"cebpf4jnsgd1na2vs0mg"},{"bike_id":"896ec178-7f68-421b-8576-409b15d48bba","system_id":"levelo_inurba_marseille","lat":43.29263,"lon":5.36848,"is_reserved":false,"is_disabled":false,"rental_uris":{"android":"levelo://app?vid=896ec178-7f68-421b-8576-409b15d48bba","ios":"levelo://app?vid=896ec178-7f68-421b-8576-409b15d48bba"},"vehicle_type_id":"4","last_reported":1756221062,"current_range_meters":7200,"station_id":"ce4bhbp2rcd13ifvqesg","pricing_plan_id":"cebpf4jnsgd1na2vs0mg"},{"bike_id":"b8496cf5-4063-42f0-be05-5531a25d80d0","system_id":"levelo_inurba_marseille","lat":43.30641,"lon":5.40104,"is_reserved":false,"is_disabled":false,"rental_uris":{"android":"levelo://app?vid=b8496cf5-4063-42f0-be05-5531a25d80d0","ios":"levelo://app?vid=b8496cf5-4063-42f0-be05-5531a25d80d0"},"vehicle_type_id":"4","last_reported":1756221062,"current_range_meters":7200,"station_id":"ce4bh112rcd13ifvqda0","pricing_plan_id":"cebpf4jnsgd1na2vs0mg"},{"bike_id":"523c8238-876a-483a-819b-29cd0c8a30b1","system_id":"levelo_inurba_marseille","lat":43.29188,"lon":5.35832,"is_reserved":false,"is_disabled":false,"rental_uris":{"android":"levelo://app?vid=523c8238-876a-483a-819b-29cd0c8a30b1","ios":"levelo://app?vid=523c8238-876a-483a-819b-29cd0c8a30b1"},"vehicle_type_id":"4","last_reported":1756221062,"current_range_meters":7200,"station_id":"ce4bhb12rcd13ifvqel0","pricing_plan_id":"cebpf4jnsgd1na2vs0mg"},{"bike_id":"372a0b48-aec5-469f-aac9-e1c92a1ec759","system_id":"levelo_inurba_marseille","lat":43.29968,"lon":5.38498,"is_reserved":false,"is_disabled":false,"rental_uris":{"android":"levelo://app?vid=372a0b48-aec5-469f-aac9-e1c92a1ec759","ios":"levelo://app?vid=372a0b48-aec5-469f-aac9-e1c92a1ec759"},"vehicle_type_id":"4","last_reported":1756221062,"current_range_meters":7200,"station_id":"ce4bgj92rcd13ifvqbd0","pricing_plan_id":"cebpf4jnsgd1na2vs0mg"},{"bike_id":"910a2fe9-c763-44c1-8de4-85789a7f1606","system_id":"levelo_inurba_marseille","lat":43.27414,"lon":5.39411,"is_reserved":false,"is_disabled":true,"rental_uris":{"android":"levelo://app?vid=910a2fe9-c763-44c1-8de4-85789a7f1606","ios":"levelo://app?vid=910a2fe9-c763-44c1-8de4-85789a7f1606"},"vehicle_type_id":"4","last_reported":1756221062,"current_range_meters":8000,"station_id":"ce4bhdp2rcd13ifvqf20","pricing_plan_id":"cebpf4jnsgd1na2vs0mg"},{"bike_id":"b72ddfe3-c483-48b6-a880-a138054f95e8","system_id":"levelo_inurba_marseille","lat":43.211983,"lon":5.350758,"is_reserved":false,"is_disabled":false,"rental_uris":{"android":"levelo://app?vid=b72ddfe3-c483-48b6-a880-a138054f95e8","ios":"levelo://app?vid=b72ddfe3-c483-48b6-a880-a138054f95e8"},"vehicle_type_id":"4","last_reported":1756221062,"current_range_meters":8000,"station_id":"st_cvj6sg6p6f1abm77japg","pricing_plan_id":"cebpf4jnsgd1na2vs0mg"},{"bike_id":"78d28148-d52b-4fb3-94f9-60c543b903aa","system_id":"levelo_inurba_marseille","lat":43.31215,"lon":5.36793,"is_reserved":false,"is_disabled":false,"rental_uris":{"android":"levelo://app?vid=78d28148-d52b-4fb3-94f9-60c543b903aa","ios":"levelo://app?vid=78d28148-d52b-4fb3-94f9-60c543b903aa"},"vehicle_type_id":"4","last_reported":1756221062,"current_range_meters":7200,"station_id":"ce4bgl92rcd13ifvqbq0","pricing_plan_id":"cebpf4jnsgd1na2vs0mg"},{"bike_id":"236f1a17-bd84-4b8e-977f-7df7d8cf402c","system_id":"levelo_inurba_marseille","lat":43.30807,"lon":5.43516,"is_reserved":false,"is_disabled":true,"rental_uris":{"android":"levelo://app?vid=236f1a17-bd84-4b8e-977f-7df7d8cf402c","ios":"levelo://app?vid=236f1a17-bd84-4b8e-977f-7df7d8cf402c"},"vehicle_type_id":"4","last_reported":1756221062,"current_range_meters":8000,"station_id":"ce4bhph2rcd13ifvqheg","pricing_plan_id":"cebpf4jnsgd1na2vs0mg"},{"bike_id":"286dee07-8db1-4bc7-bac6-96c8ff01e58d","system_id":"levelo_inurba_marseille","lat":43.323627,"lon":5.367584,"is_reserved":false,"is_disabled":false,"rental_uris":{"android":"levelo://app?vid=286dee07-8db1-4bc7-bac6-96c8ff01e58d","ios":"levelo://app?vid=286dee07-8db1-4bc7-bac6-96c8ff01e58d"},"vehicle_type_id":"4","last_reported":1756221062,"current_range_meters":8000,"station_id":"ce4bhsh2rcd13ifvqi2g","pricing_plan_id":"cebpf4jnsgd1na2vs0mg"},{"bike_id":"9790efee-51d4-4e7a-8696-32ab19a83040","system_id":"levelo_inurba_marseille","lat":43.28144,"lon":5.42639,"is_reserved":false,"is_disabled":false,"rental_uris":{"android":"levelo://app?vid=9790efee-51d4-4e7a-8696-32ab19a83040","ios":"levelo://app?vid=9790efee-51d4-4e7a-8696-32ab19a83040"},"vehicle_type_id":"4","last_reported":1756221062,"current_range_meters":8400,"station_id":"ce4bhnh2rcd13ifvqgug","pricing_plan_id":"cebpf4jnsgd1na2vs0mg"},{"bike_id":"03be758f-3e6d-4c72-8876-95a4359600d6","system_id":"levelo_inurba_marseille","lat":43.33777,"lon":5.37483,"is_reserved":false,"is_disabled":false,"rental_uris":{"android":"levelo://app?vid=03be758f-3e6d-4c72-8876-95a4359600d6","ios":"levelo://app?vid=03be758f-3e6d-4c72-8876-95a4359600d6"},"vehicle_type_id":"4","last_reported":1756221062,"current_range_meters":8400,"station_id":"","pricing_plan_id":"cebpf4jnsgd1na2vs0mg"},{"bike_id":"fcdfb1d4-2f58-4004-b07f-bc087fd0169f","system_id":"levelo_inurba_marseille","lat":43.303887,"lon":5.373754,"is_reserved":false,"is_disabled":false,"rental_uris":{"android":"levelo://app?vid=fcdfb1d4-2f58-4004-b07f-bc087fd0169f","ios":"levelo://app?vid=fcdfb1d4-2f58-4004-b07f-bc087fd0169f"},"vehicle_type_id":"4","last_reported":1756221062,"current_range_meters":8400,"station_id":"","pricing_plan_id":"cebpf4jnsgd1na2vs0mg"},{"bike_id":"06991e4a-274c-404c-9885-c1c835e4cdd7","system_id":"levelo_inurba_marseille","lat":43.30326,"lon":5.40433,"is_reserved":false,"is_disabled":false,"rental_uris":{"android":"levelo://app?vid=06991e4a-274c-404c-9885-c1c835e4cdd7","ios":"levelo://app?vid=06991e4a-274c-404c-9885-c1c835e4cdd7"},"vehicle_type_id":"4","last_reported":1756221062,"current_range_meters":8400,"station_id":"ce4bh012rcd13ifvqd10","pricing_plan_id":"cebpf4jnsgd1na2vs0mg"},{"bike_id":"df75f1fa-75ae-4074-a5b6-5911a8c1b6a8","system_id":"levelo_inurba_marseille","lat":43.307556,"lon":5.371566,"is_reserved":false,"is_disabled":false,"rental_uris":{"android":"levelo://app?vid=df75f1fa-75ae-4074-a5b6-5911a8c1b6a8","ios":"levelo://app?vid=df75f1fa-75ae-4074-a5b6-5911a8c1b6a8"},"vehicle_type_id":"4","last_reported":1756221062,"current_range_meters":8800,"station_id":"","pricing_plan_id":"cebpf4jnsgd1na2vs0mg"},{"bike_id":"34e5b24f-e6f0-4b46-940c-fd0e23a6c266","system_id":"levelo_inurba_marseille","lat":43.29566,"lon":5.37503,"is_reserved":false,"is_disabled":false,"rental_uris":{"android":"levelo://app?vid=34e5b24f-e6f0-4b46-940c-fd0e23a6c266","ios":"levelo://app?vid=34e5b24f-e6f0-4b46-940c-fd0e23a6c266"},"vehicle_type_id":"4","last_reported":1756221062,"current_range_meters":9200,"station_id":"","pricing_plan_id":"cebpf4jnsgd1na2vs0mg"},{"bike_id":"c46330c6-042a-44a1-acaf-0fcf39d5bcf4","system_id":"levelo_inurba_marseille","lat":43.27324,"lon":5.39084,"is_reserved":false,"is_disabled":true,"rental_uris":{"android":"levelo://app?vid=c46330c6-042a-44a1-acaf-0fcf39d5bcf4","ios":"levelo://app?vid=c46330c6-042a-44a1-acaf-0fcf39d5bcf4"},"vehicle_type_id":"4","last_reported":1756221062,"current_range_meters":9200,"station_id":"ce4bhgp2rcd13ifvqfe0","pricing_plan_id":"cebpf4jnsgd1na2vs0mg"},{"bike_id":"922c1a38-bd06-4f2c-ba39-8bb96b41ce27","system_id":"levelo_inurba_marseille","lat":43.28667,"lon":5.38663,"is_reserved":false,"is_disabled":false,"rental_uris":{"android":"levelo://app?vid=922c1a38-bd06-4f2c-ba39-8bb96b41ce27","ios":"levelo://app?vid=922c1a38-bd06-4f2c-ba39-8bb96b41ce27"},"vehicle_type_id":"4","last_reported":1756221062,"current_range_meters":9200,"station_id":"ce4bh492rcd13ifvqdug","pricing_plan_id":"cebpf4jnsgd1na2vs0mg"},{"bike_id":"368f5f9f-af25-4209-ab4d-ec8401261529","system_id":"levelo_inurba_marseille","lat":43.21191,"lon":5.35074,"is_reserved":false,"is_disabled":false,"rental_uris":{"android":"levelo://app?vid=368f5f9f-af25-4209-ab4d-ec8401261529","ios":"levelo://app?vid=368f5f9f-af25-4209-ab4d-ec8401261529"},"vehicle_type_id":"4","last_reported":1756221062,"current_range_meters":9200,"station_id":"st_cvj6sg6p6f1abm77japg","pricing_plan_id":"cebpf4jnsgd1na2vs0mg"},{"bike_id":"96290dcb-5422-4c66-b871-eb048cbeec71","system_id":"levelo_inurba_marseille","lat":43.211934,"lon":5.350678,"is_reserved":false,"is_disabled":false,"rental_uris":{"android":"levelo://app?vid=96290dcb-5422-4c66-b871-eb048cbeec71","ios":"levelo://app?vid=96290dcb-5422-4c66-b871-eb048cbeec71"},"vehicle_type_id":"4","last_reported":1756221062,"current_range_meters":9200,"station_id":"st_cvj6sg6p6f1abm77japg","pricing_plan_id":"cebpf4jnsgd1na2vs0mg"},{"bike_id":"bf3f510f-b2f9-4b13-9f62-20747e1fffc3","system_id":"levelo_inurba_marseille","lat":43.30552,"lon":5.36538,"is_reserved":false,"is_disabled":false,"rental_uris":{"android":"levelo://app?vid=bf3f510f-b2f9-4b13-9f62-20747e1fffc3","ios":"levelo://app?vid=bf3f510f-b2f9-4b13-9f62-20747e1fffc3"},"vehicle_type_id":"4","last_reported":1756221062,"current_range_meters":9600,"station_id":"ce4bgs12rcd13ifvqcag","pricing_plan_id":"cebpf4jnsgd1na2vs0mg"},{"bike_id":"7f814b38-0f1c-4758-bac5-e6aff2c2a0ba","system_id":"levelo_inurba_marseille","lat":43.29515,"lon":5.37506,"is_reserved":false,"is_disabled":false,"rental_uris":{"android":"levelo://app?vid=7f814b38-0f1c-4758-bac5-e6aff2c2a0ba","ios":"levelo://app?vid=7f814b38-0f1c-4758-bac5-e6aff2c2a0ba"},"vehicle_type_id":"4","last_reported":1756221062,"current_range_meters":9600,"station_id":"ce4bgkp2rcd13ifvqbmg","pricing_plan_id":"cebpf4jnsgd1na2vs0mg"},{"bike_id":"83807524-5737-4cd4-afdd-96ecb59033e8","system_id":"levelo_inurba_marseille","lat":43.26554,"lon":5.37288,"is_reserved":false,"is_disabled":false,"rental_uris":{"android":"levelo://app?vid=83807524-5737-4cd4-afdd-96ecb59033e8","ios":"levelo://app?vid=83807524-5737-4cd4-afdd-96ecb59033e8"},"vehicle_type_id":"4","last_reported":1756221062,"current_range_meters":9600,"station_id":"ce4bhg12rcd13ifvqf70","pricing_plan_id":"cebpf4jnsgd1na2vs0mg"},{"bike_id":"a6c19f96-f466-44d8-a91b-33e1a25aa605","system_id":"levelo_inurba_marseille","lat":43.29527,"lon":5.39036,"is_reserved":false,"is_disabled":false,"rental_uris":{"android":"levelo://app?vid=a6c19f96-f466-44d8-a91b-33e1a25aa605","ios":"levelo://app?vid=a6c19f96-f466-44d8-a91b-33e1a25aa605"},"vehicle_type_id":"4","last_reported":1756221062,"current_range_meters":9600,"station_id":"ce4bh3p2rcd13ifvqdp0","pricing_plan_id":"cebpf4jnsgd1na2vs0mg"},{"bike_id":"bea9b573-b0c0-471b-a983-7d2a5da760bb","system_id":"levelo_inurba_marseille","lat":43.30376,"lon":5.42477,"is_reserved":false,"is_disabled":false,"rental_uris":{"android":"levelo://app?vid=bea9b573-b0c0-471b-a983-7d2a5da760bb","ios":"levelo://app?vid=bea9b573-b0c0-471b-a983-7d2a5da760bb"},"vehicle_type_id":"4","last_reported":1756221062,"current_range_meters":10000,"station_id":"ce4bhoh2rcd13ifvqh6g","pricing_plan_id":"cebpf4jnsgd1na2vs0mg"},{"bike_id":"9ebbca0f-8b0f-49e0-bbc0-5934ebb0e846","system_id":"levelo_inurba_marseille","lat":43.21209,"lon":5.35051,"is_reserved":false,"is_disabled":false,"rental_uris":{"android":"levelo://app?vid=9ebbca0f-8b0f-49e0-bbc0-5934ebb0e846","ios":"levelo://app?vid=9ebbca0f-8b0f-49e0-bbc0-5934ebb0e846"},"vehicle_type_id":"4","last_reported":1756221062,"current_range_meters":10000,"station_id":"st_cvj6sg6p6f1abm77japg","pricing_plan_id":"cebpf4jnsgd1na2vs0mg"},{"bike_id":"fa757a6f-7cd7-4b5b-9bb6-809f91aa7e85","system_id":"levelo_inurba_marseille","lat":43.26942,"lon":5.4025,"is_reserved":false,"is_disabled":false,"rental_uris":{"android":"levelo://app?vid=fa757a6f-7cd7-4b5b-9bb6-809f91aa7e85","ios":"levelo://app?vid=fa757a6f-7cd7-4b5b-9bb6-809f91aa7e85"},"vehicle_type_id":"4","last_reported":1756221062,"current_range_meters":10000,"station_id":"cjm6bp8fraef2m0cb0m0","pricing_plan_id":"cebpf4jnsgd1na2vs0mg"},{"bike_id":"7ffa6d83-6fe3-476f-a470-9c84cfb294d4","system_id":"levelo_inurba_marseille","lat":43.245528,"lon":5.395249,"is_reserved":false,"is_disabled":true,"rental_uris":{"android":"levelo://app?vid=7ffa6d83-6fe3-476f-a470-9c84cfb294d4","ios":"levelo://app?vid=7ffa6d83-6fe3-476f-a470-9c84cfb294d4"},"vehicle_type_id":"4","last_reported":1756221062,"current_range_meters":10000,"station_id":"ce4bhlp2rcd13ifvqgjg","pricing_plan_id":"cebpf4jnsgd1na2vs0mg"},{"bike_id":"eb5d013a-33c1-494c-86c8-308c683d2af4","system_id":"levelo_inurba_marseille","lat":43.32104,"lon":5.3677,"is_reserved":false,"is_disabled":false,"rental_uris":{"android":"levelo://app?vid=eb5d013a-33c1-494c-86c8-308c683d2af4","ios":"levelo://app?vid=eb5d013a-33c1-494c-86c8-308c683d2af4"},"vehicle_type_id":"4","last_reported":1756221062,"current_range_meters":10000,"station_id":"ce4bhrh2rcd13ifvqhug","pricing_plan_id":"cebpf4jnsgd1na2vs0mg"},{"bike_id":"a8c7afe6-d980-4047-9c86-ce36ce6362b1","system_id":"levelo_inurba_marseille","lat":43.28256,"lon":5.35071,"is_reserved":false,"is_disabled":false,"rental_uris":{"android":"levelo://app?vid=a8c7afe6-d980-4047-9c86-ce36ce6362b1","ios":"levelo://app?vid=a8c7afe6-d980-4047-9c86-ce36ce6362b1"},"vehicle_type_id":"4","last_reported":1756221062,"current_range_meters":10000,"station_id":"ce4bhbp2rcd13ifvqerg","pricing_plan_id":"cebpf4jnsgd1na2vs0mg"},{"bike_id":"f781d014-afa9-4acc-b6f7-3670b0862de3","system_id":"levelo_inurba_marseille","lat":43.21189,"lon":5.35075,"is_reserved":false,"is_disabled":false,"rental_uris":{"android":"levelo://app?vid=f781d014-afa9-4acc-b6f7-3670b0862de3","ios":"levelo://app?vid=f781d014-afa9-4acc-b6f7-3670b0862de3"},"vehicle_type_id":"4","last_reported":1756221062,"current_range_meters":10000,"station_id":"st_cvj6sg6p6f1abm77japg","pricing_plan_id":"cebpf4jnsgd1na2vs0mg"},{"bike_id":"c8f19ab0-2650-42bf-bf99-315bb14cecb1","system_id":"levelo_inurba_marseille","lat":43.32364,"lon":5.36755,"is_reserved":false,"is_disabled":false,"rental_uris":{"android":"levelo://app?vid=c8f19ab0-2650-42bf-bf99-315bb14cecb1","ios":"levelo://app?vid=c8f19ab0-2650-42bf-bf99-315bb14cecb1"},"vehicle_type_id":"4","last_reported":1756221062,"current_range_meters":10800,"station_id":"ce4bhsh2rcd13ifvqi2g","pricing_plan_id":"cebpf4jnsgd1na2vs0mg"},{"bike_id":"503bc496-d246-4313-aa90-2ac08f117f90","system_id":"levelo_inurba_marseille","lat":43.28459,"lon":5.35897,"is_reserved":false,"is_disabled":false,"rental_uris":{"android":"levelo://app?vid=503bc496-d246-4313-aa90-2ac08f117f90","ios":"levelo://app?vid=503bc496-d246-4313-aa90-2ac08f117f90"},"vehicle_type_id":"4","last_reported":1756221062,"current_range_meters":10800,"station_id":"ce4bhah2rcd13ifvqei0","pricing_plan_id":"cebpf4jnsgd1na2vs0mg"},{"bike_id":"11992d50-8885-4d0c-b376-8544eb68037d","system_id":"levelo_inurba_marseille","lat":43.24301,"lon":5.36722,"is_reserved":false,"is_disabled":false,"rental_uris":{"android":"levelo://app?vid=11992d50-8885-4d0c-b376-8544eb68037d","ios":"levelo://app?vid=11992d50-8885-4d0c-b376-8544eb68037d"},"vehicle_type_id":"4","last_reported":1756221062,"current_range_meters":10800,"station_id":"","pricing_plan_id":"cebpf4jnsgd1na2vs0mg"},{"bike_id":"54048b74-552b-4f95-878e-1cccaf0417ba","system_id":"levelo_inurba_marseille","lat":43.25726,"lon":5.41113,"is_reserved":false,"is_disabled":false,"rental_uris":{"android":"levelo://app?vid=54048b74-552b-4f95-878e-1cccaf0417ba","ios":"levelo://app?vid=54048b74-552b-4f95-878e-1cccaf0417ba"},"vehicle_type_id":"4","last_reported":1756221062,"current_range_meters":10800,"station_id":"ce4bhkp2rcd13ifvqgd0","pricing_plan_id":"cebpf4jnsgd1na2vs0mg"},{"bike_id":"fd641393-3116-4cec-8051-83102ce7579a","system_id":"levelo_inurba_marseille","lat":43.28484,"lon":5.38421,"is_reserved":false,"is_disabled":false,"rental_uris":{"android":"levelo://app?vid=fd641393-3116-4cec-8051-83102ce7579a","ios":"levelo://app?vid=fd641393-3116-4cec-8051-83102ce7579a"},"vehicle_type_id":"4","last_reported":1756221062,"current_range_meters":11200,"station_id":"ce4bh512rcd13ifvqe3g","pricing_plan_id":"cebpf4jnsgd1na2vs0mg"},{"bike_id":"bb3b1f8e-8cc5-4b98-b134-1d38210e2d7b","system_id":"levelo_inurba_marseille","lat":43.284216,"lon":5.349971,"is_reserved":false,"is_disabled":false,"rental_uris":{"android":"levelo://app?vid=bb3b1f8e-8cc5-4b98-b134-1d38210e2d7b","ios":"levelo://app?vid=bb3b1f8e-8cc5-4b98-b134-1d38210e2d7b"},"vehicle_type_id":"4","last_reported":1756221062,"current_range_meters":11200,"station_id":"ce4bhbh2rcd13ifvqepg","pricing_plan_id":"cebpf4jnsgd1na2vs0mg"},{"bike_id":"3d6497ab-d3b8-4f21-8cbf-87c0994ad765","system_id":"levelo_inurba_marseille","lat":43.24674,"lon":5.3888,"is_reserved":false,"is_disabled":false,"rental_uris":{"android":"levelo://app?vid=3d6497ab-d3b8-4f21-8cbf-87c0994ad765","ios":"levelo://app?vid=3d6497ab-d3b8-4f21-8cbf-87c0994ad765"},"vehicle_type_id":"4","last_reported":1756221062,"current_range_meters":11600,"station_id":"ce4bhg12rcd13ifvqf60","pricing_plan_id":"cebpf4jnsgd1na2vs0mg"},{"bike_id":"31dafbdc-cd43-4c48-b37f-6fc040eb3e23","system_id":"levelo_inurba_marseille","lat":43.287,"lon":5.39996,"is_reserved":false,"is_disabled":false,"rental_uris":{"android":"levelo://app?vid=31dafbdc-cd43-4c48-b37f-6fc040eb3e23","ios":"levelo://app?vid=31dafbdc-cd43-4c48-b37f-6fc040eb3e23"},"vehicle_type_id":"4","last_reported":1756221062,"current_range_meters":11600,"station_id":"ce4bho92rcd13ifvqh3g","pricing_plan_id":"cebpf4jnsgd1na2vs0mg"},{"bike_id":"3e130ff4-87da-4c51-a264-44d1f277fd66","system_id":"levelo_inurba_marseille","lat":43.32139,"lon":5.36769,"is_reserved":false,"is_disabled":false,"rental_uris":{"android":"levelo://app?vid=3e130ff4-87da-4c51-a264-44d1f277fd66","ios":"levelo://app?vid=3e130ff4-87da-4c51-a264-44d1f277fd66"},"vehicle_type_id":"4","last_reported":1756221062,"current_range_meters":11600,"station_id":"","pricing_plan_id":"cebpf4jnsgd1na2vs0mg"},{"bike_id":"47c72c85-64e7-43b8-ada4-0f17a3d10859","system_id":"levelo_inurba_marseille","lat":43.21745,"lon":5.34608,"is_reserved":false,"is_disabled":true,"rental_uris":{"android":"levelo://app?vid=47c72c85-64e7-43b8-ada4-0f17a3d10859","ios":"levelo://app?vid=47c72c85-64e7-43b8-ada4-0f17a3d10859"},"vehicle_type_id":"4","last_reported":1756221062,"current_range_meters":11600,"station_id":"","pricing_plan_id":"cebpf4jnsgd1na2vs0mg"},{"bike_id":"bf69c5a9-2dda-478b-a044-670a6c6ee1c5","system_id":"levelo_inurba_marseille","lat":43.27376,"lon":5.36242,"is_reserved":false,"is_disabled":false,"rental_uris":{"android":"levelo://app?vid=bf69c5a9-2dda-478b-a044-670a6c6ee1c5","ios":"levelo://app?vid=bf69c5a9-2dda-478b-a044-670a6c6ee1c5"},"vehicle_type_id":"4","last_reported":1756221062,"current_range_meters":11600,"station_id":"ce4bhbh2rcd13ifvqeo0","pricing_plan_id":"cebpf4jnsgd1na2vs0mg"},{"bike_id":"c72bc34d-7fd3-4e2b-9a77-5215547fe0ca","system_id":"levelo_inurba_marseille","lat":43.23209,"lon":5.35242,"is_reserved":false,"is_disabled":false,"rental_uris":{"android":"levelo://app?vid=c72bc34d-7fd3-4e2b-9a77-5215547fe0ca","ios":"levelo://app?vid=c72bc34d-7fd3-4e2b-9a77-5215547fe0ca"},"vehicle_type_id":"4","last_reported":1756221062,"current_range_meters":11600,"station_id":"","pricing_plan_id":"cebpf4jnsgd1na2vs0mg"},{"bike_id":"e2b0f307-cfe9-4ad5-b104-d661fcb0d809","system_id":"levelo_inurba_marseille","lat":43.22926,"lon":5.35377,"is_reserved":false,"is_disabled":false,"rental_uris":{"android":"levelo://app?vid=e2b0f307-cfe9-4ad5-b104-d661fcb0d809","ios":"levelo://app?vid=e2b0f307-cfe9-4ad5-b104-d661fcb0d809"},"vehicle_type_id":"4","last_reported":1756221062,"current_range_meters":12000,"station_id":"cpo3532slgdg3j2ikp40","pricing_plan_id":"cebpf4jnsgd1na2vs0mg"},{"bike_id":"0d502687-08ef-4491-8893-8a03d8688be8","system_id":"levelo_inurba_marseille","lat":43.29617,"lon":5.36116,"is_reserved":false,"is_disabled":false,"rental_uris":{"android":"levelo://app?vid=0d502687-08ef-4491-8893-8a03d8688be8","ios":"levelo://app?vid=0d502687-08ef-4491-8893-8a03d8688be8"},"vehicle_type_id":"4","last_reported":1756221062,"current_range_meters":12000,"station_id":"","pricing_plan_id":"cebpf4jnsgd1na2vs0mg"},{"bike_id":"659de0e5-59cb-4336-b9df-81dfc288af1a","system_id":"levelo_inurba_marseille","lat":43.23064,"lon":5.35488,"is_reserved":false,"is_disabled":false,"rental_uris":{"android":"levelo://app?vid=659de0e5-59cb-4336-b9df-81dfc288af1a","ios":"levelo://app?vid=659de0e5-59cb-4336-b9df-81dfc288af1a"},"vehicle_type_id":"4","last_reported":1756221062,"current_range_meters":12000,"station_id":"cpo3342slgdg3j2ifvpg","pricing_plan_id":"cebpf4jnsgd1na2vs0mg"},{"bike_id":"36362f19-a9ab-4e89-84bb-0b0df57513dd","system_id":"levelo_inurba_marseille","lat":43.26032,"lon":5.37546,"is_reserved":false,"is_disabled":false,"rental_uris":{"android":"levelo://app?vid=36362f19-a9ab-4e89-84bb-0b0df57513dd","ios":"levelo://app?vid=36362f19-a9ab-4e89-84bb-0b0df57513dd"},"vehicle_type_id":"4","last_reported":1756221062,"current_range_meters":12400,"station_id":"ce4bhgh2rcd13ifvqfa0","pricing_plan_id":"cebpf4jnsgd1na2vs0mg"},{"bike_id":"632030b5-1498-47c0-aa28-dfb19d01a1ea","system_id":"levelo_inurba_marseille","lat":43.26221,"lon":5.37424,"is_reserved":false,"is_disabled":false,"rental_uris":{"android":"levelo://app?vid=632030b5-1498-47c0-aa28-dfb19d01a1ea","ios":"levelo://app?vid=632030b5-1498-47c0-aa28-dfb19d01a1ea"},"vehicle_type_id":"4","last_reported":1756221062,"current_range_meters":12400,"station_id":"","pricing_plan_id":"cebpf4jnsgd1na2vs0mg"},{"bike_id":"b375d41b-9575-4c77-a6a9-d089747042e7","system_id":"levelo_inurba_marseille","lat":43.322802,"lon":5.367754,"is_reserved":false,"is_disabled":false,"rental_uris":{"android":"levelo://app?vid=b375d41b-9575-4c77-a6a9-d089747042e7","ios":"levelo://app?vid=b375d41b-9575-4c77-a6a9-d089747042e7"},"vehicle_type_id":"4","last_reported":1756221062,"current_range_meters":12400,"station_id":"","pricing_plan_id":"cebpf4jnsgd1na2vs0mg"},{"bike_id":"83e818dd-7ff3-45dd-b46a-ecfe9cbc3bf8","system_id":"levelo_inurba_marseille","lat":43.262181,"lon":5.37446,"is_reserved":false,"is_disabled":false,"rental_uris":{"android":"levelo://app?vid=83e818dd-7ff3-45dd-b46a-ecfe9cbc3bf8","ios":"levelo://app?vid=83e818dd-7ff3-45dd-b46a-ecfe9cbc3bf8"},"vehicle_type_id":"4","last_reported":1756221062,"current_range_meters":12400,"station_id":"ce4bhgp2rcd13ifvqfc0","pricing_plan_id":"cebpf4jnsgd1na2vs0mg"},{"bike_id":"41ee78a4-ab15-495f-880a-a84eadc76193","system_id":"levelo_inurba_marseille","lat":43.28153,"lon":5.42646,"is_reserved":false,"is_disabled":false,"rental_uris":{"android":"levelo://app?vid=41ee78a4-ab15-495f-880a-a84eadc76193","ios":"levelo://app?vid=41ee78a4-ab15-495f-880a-a84eadc76193"},"vehicle_type_id":"4","last_reported":1756221062,"current_range_meters":12400,"station_id":"ce4bhnh2rcd13ifvqgug","pricing_plan_id":"cebpf4jnsgd1na2vs0mg"},{"bike_id":"49eec2c5-900f-441c-bbed-cc4391f2a50b","system_id":"levelo_inurba_marseille","lat":43.25518,"lon":5.37607,"is_reserved":false,"is_disabled":false,"rental_uris":{"android":"levelo://app?vid=49eec2c5-900f-441c-bbed-cc4391f2a50b","ios":"levelo://app?vid=49eec2c5-900f-441c-bbed-cc4391f2a50b"},"vehicle_type_id":"4","last_reported":1756221062,"current_range_meters":12400,"station_id":"ce4bhh12rcd13ifvqff0","pricing_plan_id":"cebpf4jnsgd1na2vs0mg"},{"bike_id":"d236dbd1-a593-4f7e-9f42-c816510ead53","system_id":"levelo_inurba_marseille","lat":43.24165,"lon":5.36396,"is_reserved":false,"is_disabled":false,"rental_uris":{"android":"levelo://app?vid=d236dbd1-a593-4f7e-9f42-c816510ead53","ios":"levelo://app?vid=d236dbd1-a593-4f7e-9f42-c816510ead53"},"vehicle_type_id":"4","last_reported":1756221062,"current_range_meters":12000,"station_id":"cpo36qri1sfpv3e86is0","pricing_plan_id":"cebpf4jnsgd1na2vs0mg"},{"bike_id":"f4c3d426-0515-42f8-8926-df4e97c4ec3c","system_id":"levelo_inurba_marseille","lat":43.29097,"lon":5.38142,"is_reserved":false,"is_disabled":false,"rental_uris":{"android":"levelo://app?vid=f4c3d426-0515-42f8-8926-df4e97c4ec3c","ios":"levelo://app?vid=f4c3d426-0515-42f8-8926-df4e97c4ec3c"},"vehicle_type_id":"4","last_reported":1756221062,"current_range_meters":12800,"station_id":"ce4bh512rcd13ifvqe2g","pricing_plan_id":"cebpf4jnsgd1na2vs0mg"},{"bike_id":"b6d727d8-b5ab-46d2-9978-fd5ba1dad8e0","system_id":"levelo_inurba_marseille","lat":43.30919,"lon":5.36878,"is_reserved":false,"is_disabled":false,"rental_uris":{"android":"levelo://app?vid=b6d727d8-b5ab-46d2-9978-fd5ba1dad8e0","ios":"levelo://app?vid=b6d727d8-b5ab-46d2-9978-fd5ba1dad8e0"},"vehicle_type_id":"4","last_reported":1756221062,"current_range_meters":12800,"station_id":"ce4bgn92rcd13ifvqbvg","pricing_plan_id":"cebpf4jnsgd1na2vs0mg"},{"bike_id":"fa9eb24c-3db1-462f-bc8f-143652f4a27a","system_id":"levelo_inurba_marseille","lat":43.279316,"lon":5.387319,"is_reserved":false,"is_disabled":false,"rental_uris":{"android":"levelo://app?vid=fa9eb24c-3db1-462f-bc8f-143652f4a27a","ios":"levelo://app?vid=fa9eb24c-3db1-462f-bc8f-143652f4a27a"},"vehicle_type_id":"4","last_reported":1756221062,"current_range_meters":12800,"station_id":"ce4bhf92rcd13ifvqf40","pricing_plan_id":"cebpf4jnsgd1na2vs0mg"},{"bike_id":"2d51907f-59c6-43e8-81f3-10fb380c3011","system_id":"levelo_inurba_marseille","lat":43.27385,"lon":5.36259,"is_reserved":false,"is_disabled":false,"rental_uris":{"android":"levelo://app?vid=2d51907f-59c6-43e8-81f3-10fb380c3011","ios":"levelo://app?vid=2d51907f-59c6-43e8-81f3-10fb380c3011"},"vehicle_type_id":"4","last_reported":1756221062,"current_range_meters":12800,"station_id":"ce4bhbh2rcd13ifvqeo0","pricing_plan_id":"cebpf4jnsgd1na2vs0mg"},{"bike_id":"579783a7-a252-4cb1-9163-6c5a986fedf9","system_id":"levelo_inurba_marseille","lat":43.24161,"lon":5.36401,"is_reserved":false,"is_disabled":false,"rental_uris":{"android":"levelo://app?vid=579783a7-a252-4cb1-9163-6c5a986fedf9","ios":"levelo://app?vid=579783a7-a252-4cb1-9163-6c5a986fedf9"},"vehicle_type_id":"4","last_reported":1756221062,"current_range_meters":12800,"station_id":"cpo36qri1sfpv3e86is0","pricing_plan_id":"cebpf4jnsgd1na2vs0mg"},{"bike_id":"5b89f892-3505-43b3-ad27-471dfad1db15","system_id":"levelo_inurba_marseille","lat":43.270662,"lon":5.422806,"is_reserved":false,"is_disabled":false,"rental_uris":{"android":"levelo://app?vid=5b89f892-3505-43b3-ad27-471dfad1db15","ios":"levelo://app?vid=5b89f892-3505-43b3-ad27-471dfad1db15"},"vehicle_type_id":"4","last_reported":1756221062,"current_range_meters":13600,"station_id":"ce4bhk92rcd13ifvqgb0","pricing_plan_id":"cebpf4jnsgd1na2vs0mg"},{"bike_id":"eaac1ac6-6c5d-4274-970f-7bad9d177f4b","system_id":"levelo_inurba_marseille","lat":43.33767,"lon":5.37473,"is_reserved":false,"is_disabled":false,"rental_uris":{"android":"levelo://app?vid=eaac1ac6-6c5d-4274-970f-7bad9d177f4b","ios":"levelo://app?vid=eaac1ac6-6c5d-4274-970f-7bad9d177f4b"},"vehicle_type_id":"4","last_reported":1756221062,"current_range_meters":13600,"station_id":"","pricing_plan_id":"cebpf4jnsgd1na2vs0mg"},{"bike_id":"c47b2876-c564-417f-9d7f-97cdd2f94270","system_id":"levelo_inurba_marseille","lat":43.241688,"lon":5.363886,"is_reserved":false,"is_disabled":false,"rental_uris":{"android":"levelo://app?vid=c47b2876-c564-417f-9d7f-97cdd2f94270","ios":"levelo://app?vid=c47b2876-c564-417f-9d7f-97cdd2f94270"},"vehicle_type_id":"4","last_reported":1756221062,"current_range_meters":13600,"station_id":"cpo36qri1sfpv3e86is0","pricing_plan_id":"cebpf4jnsgd1na2vs0mg"},{"bike_id":"51842e17-ef10-4624-a23e-c8a182427991","system_id":"levelo_inurba_marseille","lat":43.31595,"lon":5.38224,"is_reserved":false,"is_disabled":false,"rental_uris":{"android":"levelo://app?vid=51842e17-ef10-4624-a23e-c8a182427991","ios":"levelo://app?vid=51842e17-ef10-4624-a23e-c8a182427991"},"vehicle_type_id":"4","last_reported":1756221062,"current_range_meters":13600,"station_id":"","pricing_plan_id":"cebpf4jnsgd1na2vs0mg"},{"bike_id":"5f9365e2-60dc-4158-a2c3-0e40911a7a32","system_id":"levelo_inurba_marseille","lat":43.33431,"lon":5.40034,"is_reserved":false,"is_disabled":false,"rental_uris":{"android":"levelo://app?vid=5f9365e2-60dc-4158-a2c3-0e40911a7a32","ios":"levelo://app?vid=5f9365e2-60dc-4158-a2c3-0e40911a7a32"},"vehicle_type_id":"4","last_reported":1756221062,"current_range_meters":13600,"station_id":"","pricing_plan_id":"cebpf4jnsgd1na2vs0mg"},{"bike_id":"b17e9630-4e67-4e4a-bb95-0a4f7773f222","system_id":"levelo_inurba_marseille","lat":43.29665,"lon":5.37647,"is_reserved":false,"is_disabled":false,"rental_uris":{"android":"levelo://app?vid=b17e9630-4e67-4e4a-bb95-0a4f7773f222","ios":"levelo://app?vid=b17e9630-4e67-4e4a-bb95-0a4f7773f222"},"vehicle_type_id":"4","last_reported":1756221062,"current_range_meters":13600,"station_id":"","pricing_plan_id":"cebpf4jnsgd1na2vs0mg"},{"bike_id":"5cf1ffd2-9463-4b99-978c-ef37a9f8daba","system_id":"levelo_inurba_marseille","lat":43.28411,"lon":5.34986,"is_reserved":false,"is_disabled":false,"rental_uris":{"android":"levelo://app?vid=5cf1ffd2-9463-4b99-978c-ef37a9f8daba","ios":"levelo://app?vid=5cf1ffd2-9463-4b99-978c-ef37a9f8daba"},"vehicle_type_id":"4","last_reported":1756221062,"current_range_meters":14000,"station_id":"ce4bhbh2rcd13ifvqepg","pricing_plan_id":"cebpf4jnsgd1na2vs0mg"},{"bike_id":"a15a1c44-718b-407d-acaa-0383628c87d7","system_id":"levelo_inurba_marseille","lat":43.326961,"lon":5.39194,"is_reserved":false,"is_disabled":false,"rental_uris":{"android":"levelo://app?vid=a15a1c44-718b-407d-acaa-0383628c87d7","ios":"levelo://app?vid=a15a1c44-718b-407d-acaa-0383628c87d7"},"vehicle_type_id":"4","last_reported":1756221062,"current_range_meters":14000,"station_id":"","pricing_plan_id":"cebpf4jnsgd1na2vs0mg"},{"bike_id":"92a6daf4-52a3-4912-9963-677bd6223717","system_id":"levelo_inurba_marseille","lat":43.21212,"lon":5.35039,"is_reserved":false,"is_disabled":false,"rental_uris":{"android":"levelo://app?vid=92a6daf4-52a3-4912-9963-677bd6223717","ios":"levelo://app?vid=92a6daf4-52a3-4912-9963-677bd6223717"},"vehicle_type_id":"4","last_reported":1756221062,"current_range_meters":14000,"station_id":"","pricing_plan_id":"cebpf4jnsgd1na2vs0mg"},{"bike_id":"fd67696d-ef93-4fd1-be0a-8a9116cbc5b1","system_id":"levelo_inurba_marseille","lat":43.25006,"lon":5.389113,"is_reserved":false,"is_disabled":false,"rental_uris":{"android":"levelo://app?vid=fd67696d-ef93-4fd1-be0a-8a9116cbc5b1","ios":"levelo://app?vid=fd67696d-ef93-4fd1-be0a-8a9116cbc5b1"},"vehicle_type_id":"4","last_reported":1756221062,"current_range_meters":14000,"station_id":"","pricing_plan_id":"cebpf4jnsgd1na2vs0mg"},{"bike_id":"cc07dc75-3b90-42fa-8fcd-67036fd3f62d","system_id":"levelo_inurba_marseille","lat":43.28412,"lon":5.37502,"is_reserved":false,"is_disabled":false,"rental_uris":{"android":"levelo://app?vid=cc07dc75-3b90-42fa-8fcd-67036fd3f62d","ios":"levelo://app?vid=cc07dc75-3b90-42fa-8fcd-67036fd3f62d"},"vehicle_type_id":"4","last_reported":1756221062,"current_range_meters":14000,"station_id":"ce4bh412rcd13ifvqds0","pricing_plan_id":"cebpf4jnsgd1na2vs0mg"},{"bike_id":"60a7db34-1b39-412c-b637-880425344ca4","system_id":"levelo_inurba_marseille","lat":43.29048,"lon":5.35914,"is_reserved":false,"is_disabled":false,"rental_uris":{"android":"levelo://app?vid=60a7db34-1b39-412c-b637-880425344ca4","ios":"levelo://app?vid=60a7db34-1b39-412c-b637-880425344ca4"},"vehicle_type_id":"4","last_reported":1756221062,"current_range_meters":14400,"station_id":"ce4bha92rcd13ifvqeg0","pricing_plan_id":"cebpf4jnsgd1na2vs0mg"},{"bike_id":"1027bb83-a668-47de-9094-84302cb909d4","system_id":"levelo_inurba_marseille","lat":43.21212,"lon":5.35052,"is_reserved":false,"is_disabled":false,"rental_uris":{"android":"levelo://app?vid=1027bb83-a668-47de-9094-84302cb909d4","ios":"levelo://app?vid=1027bb83-a668-47de-9094-84302cb909d4"},"vehicle_type_id":"4","last_reported":1756221062,"current_range_meters":14400,"station_id":"st_cvj6sg6p6f1abm77japg","pricing_plan_id":"cebpf4jnsgd1na2vs0mg"},{"bike_id":"15f79efe-f691-44b8-bddb-17af1b9052ef","system_id":"levelo_inurba_marseille","lat":43.265558,"lon":5.372863,"is_reserved":false,"is_disabled":false,"rental_uris":{"android":"levelo://app?vid=15f79efe-f691-44b8-bddb-17af1b9052ef","ios":"levelo://app?vid=15f79efe-f691-44b8-bddb-17af1b9052ef"},"vehicle_type_id":"4","last_reported":1756221062,"current_range_meters":14400,"station_id":"ce4bhg12rcd13ifvqf70","pricing_plan_id":"cebpf4jnsgd1na2vs0mg"},{"bike_id":"0e256118-fe33-4307-b7cb-16c76027513c","system_id":"levelo_inurba_marseille","lat":43.240891,"lon":5.377565,"is_reserved":false,"is_disabled":false,"rental_uris":{"android":"levelo://app?vid=0e256118-fe33-4307-b7cb-16c76027513c","ios":"levelo://app?vid=0e256118-fe33-4307-b7cb-16c76027513c"},"vehicle_type_id":"4","last_reported":1756221062,"current_range_meters":14400,"station_id":"ce4bhnp2rcd13ifvqgvg","pricing_plan_id":"cebpf4jnsgd1na2vs0mg"},{"bike_id":"0843825f-6559-43f2-866a-37cadfae5689","system_id":"levelo_inurba_marseille","lat":43.21201,"lon":5.35054,"is_reserved":false,"is_disabled":false,"rental_uris":{"android":"levelo://app?vid=0843825f-6559-43f2-866a-37cadfae5689","ios":"levelo://app?vid=0843825f-6559-43f2-866a-37cadfae5689"},"vehicle_type_id":"4","last_reported":1756221062,"current_range_meters":14400,"station_id":"st_cvj6sg6p6f1abm77japg","pricing_plan_id":"cebpf4jnsgd1na2vs0mg"},{"bike_id":"f50e029c-78e4-4943-96e6-f587e062386c","system_id":"levelo_inurba_marseille","lat":43.31723,"lon":5.42401,"is_reserved":false,"is_disabled":false,"rental_uris":{"android":"levelo://app?vid=f50e029c-78e4-4943-96e6-f587e062386c","ios":"levelo://app?vid=f50e029c-78e4-4943-96e6-f587e062386c"},"vehicle_type_id":"4","last_reported":1756221062,"current_range_meters":14400,"station_id":"ce4bhp92rcd13ifvqhbg","pricing_plan_id":"cebpf4jnsgd1na2vs0mg"},{"bike_id":"ec65b629-9b14-4b92-b9d3-62d2986526a1","system_id":"levelo_inurba_marseille","lat":43.24167,"lon":5.36398,"is_reserved":false,"is_disabled":false,"rental_uris":{"android":"levelo://app?vid=ec65b629-9b14-4b92-b9d3-62d2986526a1","ios":"levelo://app?vid=ec65b629-9b14-4b92-b9d3-62d2986526a1"},"vehicle_type_id":"4","last_reported":1756221062,"current_range_meters":14400,"station_id":"cpo36qri1sfpv3e86is0","pricing_plan_id":"cebpf4jnsgd1na2vs0mg"},{"bike_id":"e71745a0-e1dd-46b2-b178-c77ff9f67425","system_id":"levelo_inurba_marseille","lat":43.23187,"lon":5.39982,"is_reserved":false,"is_disabled":false,"rental_uris":{"android":"levelo://app?vid=e71745a0-e1dd-46b2-b178-c77ff9f67425","ios":"levelo://app?vid=e71745a0-e1dd-46b2-b178-c77ff9f67425"},"vehicle_type_id":"4","last_reported":1756221062,"current_range_meters":14400,"station_id":"ce4bhn12rcd13ifvqgqg","pricing_plan_id":"cebpf4jnsgd1na2vs0mg"},{"bike_id":"0056088d-3cc8-4c51-b524-1dba814f339f","system_id":"levelo_inurba_marseille","lat":43.2655,"lon":5.3729,"is_reserved":false,"is_disabled":false,"rental_uris":{"android":"levelo://app?vid=0056088d-3cc8-4c51-b524-1dba814f339f","ios":"levelo://app?vid=0056088d-3cc8-4c51-b524-1dba814f339f"},"vehicle_type_id":"4","last_reported":1756221062,"current_range_meters":14800,"station_id":"ce4bhg12rcd13ifvqf70","pricing_plan_id":"cebpf4jnsgd1na2vs0mg"},{"bike_id":"89bb2efc-5c45-48e0-b659-b8ecb63211d5","system_id":"levelo_inurba_marseille","lat":43.29811,"lon":5.39341,"is_reserved":false,"is_disabled":false,"rental_uris":{"android":"levelo://app?vid=89bb2efc-5c45-48e0-b659-b8ecb63211d5","ios":"levelo://app?vid=89bb2efc-5c45-48e0-b659-b8ecb63211d5"},"vehicle_type_id":"4","last_reported":1756221062,"current_range_meters":14800,"station_id":"chh1huq6cuj3fo74tm60","pricing_plan_id":"cebpf4jnsgd1na2vs0mg"},{"bike_id":"b4d6c33d-a0bf-42a3-9ab7-0db80b72b559","system_id":"levelo_inurba_marseille","lat":43.28951,"lon":5.36635,"is_reserved":false,"is_disabled":true,"rental_uris":{"android":"levelo://app?vid=b4d6c33d-a0bf-42a3-9ab7-0db80b72b559","ios":"levelo://app?vid=b4d6c33d-a0bf-42a3-9ab7-0db80b72b559"},"vehicle_type_id":"4","last_reported":1756221062,"current_range_meters":14800,"station_id":"ce4bhap2rcd13ifvqek0","pricing_plan_id":"cebpf4jnsgd1na2vs0mg"},{"bike_id":"dc9384b2-194b-40c1-bbc3-b18b43f57153","system_id":"levelo_inurba_marseille","lat":43.29375,"lon":5.37853,"is_reserved":false,"is_disabled":false,"rental_uris":{"android":"levelo://app?vid=dc9384b2-194b-40c1-bbc3-b18b43f57153","ios":"levelo://app?vid=dc9384b2-194b-40c1-bbc3-b18b43f57153"},"vehicle_type_id":"4","last_reported":1756221062,"current_range_meters":14800,"station_id":"ce4bgjh2rcd13ifvqbf0","pricing_plan_id":"cebpf4jnsgd1na2vs0mg"},{"bike_id":"4e326991-524a-498f-8eda-9c8ae7d86a4d","system_id":"levelo_inurba_marseille","lat":43.30545,"lon":5.36552,"is_reserved":false,"is_disabled":false,"rental_uris":{"android":"levelo://app?vid=4e326991-524a-498f-8eda-9c8ae7d86a4d","ios":"levelo://app?vid=4e326991-524a-498f-8eda-9c8ae7d86a4d"},"vehicle_type_id":"4","last_reported":1756221062,"current_range_meters":14800,"station_id":"ce4bgs12rcd13ifvqcag","pricing_plan_id":"cebpf4jnsgd1na2vs0mg"},{"bike_id":"db7d3d83-f39a-4469-8445-29697e69fec4","system_id":"levelo_inurba_marseille","lat":43.322291,"lon":5.385646,"is_reserved":false,"is_disabled":false,"rental_uris":{"android":"levelo://app?vid=db7d3d83-f39a-4469-8445-29697e69fec4","ios":"levelo://app?vid=db7d3d83-f39a-4469-8445-29697e69fec4"},"vehicle_type_id":"4","last_reported":1756221062,"current_range_meters":14800,"station_id":"","pricing_plan_id":"cebpf4jnsgd1na2vs0mg"},{"bike_id":"977df7ca-21e9-43e2-ade8-22de20bad5aa","system_id":"levelo_inurba_marseille","lat":43.26218,"lon":5.37415,"is_reserved":false,"is_disabled":false,"rental_uris":{"android":"levelo://app?vid=977df7ca-21e9-43e2-ade8-22de20bad5aa","ios":"levelo://app?vid=977df7ca-21e9-43e2-ade8-22de20bad5aa"},"vehicle_type_id":"4","last_reported":1756221062,"current_range_meters":15200,"station_id":"ce4bhgp2rcd13ifvqfc0","pricing_plan_id":"cebpf4jnsgd1na2vs0mg"},{"bike_id":"444185a1-99b2-4724-a588-1f691746c053","system_id":"levelo_inurba_marseille","lat":43.270722,"lon":5.422723,"is_reserved":false,"is_disabled":false,"rental_uris":{"android":"levelo://app?vid=444185a1-99b2-4724-a588-1f691746c053","ios":"levelo://app?vid=444185a1-99b2-4724-a588-1f691746c053"},"vehicle_type_id":"4","last_reported":1756221062,"current_range_meters":15200,"station_id":"ce4bhk92rcd13ifvqgb0","pricing_plan_id":"cebpf4jnsgd1na2vs0mg"},{"bike_id":"84d12ccb-6366-409a-bb47-44f6ad184127","system_id":"levelo_inurba_marseille","lat":43.312147,"lon":5.368855,"is_reserved":false,"is_disabled":false,"rental_uris":{"android":"levelo://app?vid=84d12ccb-6366-409a-bb47-44f6ad184127","ios":"levelo://app?vid=84d12ccb-6366-409a-bb47-44f6ad184127"},"vehicle_type_id":"4","last_reported":1756221062,"current_range_meters":15200,"station_id":"ce4bgl92rcd13ifvqbq0","pricing_plan_id":"cebpf4jnsgd1na2vs0mg"},{"bike_id":"18a5c0ea-fe5f-455e-9099-aa6a835c2980","system_id":"levelo_inurba_marseille","lat":43.29867,"lon":5.36279,"is_reserved":false,"is_disabled":false,"rental_uris":{"android":"levelo://app?vid=18a5c0ea-fe5f-455e-9099-aa6a835c2980","ios":"levelo://app?vid=18a5c0ea-fe5f-455e-9099-aa6a835c2980"},"vehicle_type_id":"4","last_reported":1756221062,"current_range_meters":15200,"station_id":"ce4bgpp2rcd13ifvqc3g","pricing_plan_id":"cebpf4jnsgd1na2vs0mg"},{"bike_id":"af732ca8-2cea-448a-9928-59e03d12656f","system_id":"levelo_inurba_marseille","lat":43.335437,"lon":5.358068,"is_reserved":false,"is_disabled":false,"rental_uris":{"android":"levelo://app?vid=af732ca8-2cea-448a-9928-59e03d12656f","ios":"levelo://app?vid=af732ca8-2cea-448a-9928-59e03d12656f"},"vehicle_type_id":"4","last_reported":1756221062,"current_range_meters":15200,"station_id":"","pricing_plan_id":"cebpf4jnsgd1na2vs0mg"},{"bike_id":"5bb8db02-bf1f-4a26-bade-8c2ca7f6d802","system_id":"levelo_inurba_marseille","lat":43.28348,"lon":5.38097,"is_reserved":false,"is_disabled":false,"rental_uris":{"android":"levelo://app?vid=5bb8db02-bf1f-4a26-bade-8c2ca7f6d802","ios":"levelo://app?vid=5bb8db02-bf1f-4a26-bade-8c2ca7f6d802"},"vehicle_type_id":"4","last_reported":1756221062,"current_range_meters":15200,"station_id":"ce4bh412rcd13ifvqdr0","pricing_plan_id":"cebpf4jnsgd1na2vs0mg"},{"bike_id":"42338e9a-5e98-4acd-8d18-3ca07c5565f0","system_id":"levelo_inurba_marseille","lat":43.29195,"lon":5.39316,"is_reserved":false,"is_disabled":false,"rental_uris":{"android":"levelo://app?vid=42338e9a-5e98-4acd-8d18-3ca07c5565f0","ios":"levelo://app?vid=42338e9a-5e98-4acd-8d18-3ca07c5565f0"},"vehicle_type_id":"4","last_reported":1756221062,"current_range_meters":15200,"station_id":"ce4bh192rcd13ifvqdd0","pricing_plan_id":"cebpf4jnsgd1na2vs0mg"},{"bike_id":"0988fa91-9cc7-4f9a-af6e-fc691961b1a8","system_id":"levelo_inurba_marseille","lat":43.25519,"lon":5.37647,"is_reserved":false,"is_disabled":false,"rental_uris":{"android":"levelo://app?vid=0988fa91-9cc7-4f9a-af6e-fc691961b1a8","ios":"levelo://app?vid=0988fa91-9cc7-4f9a-af6e-fc691961b1a8"},"vehicle_type_id":"4","last_reported":1756221062,"current_range_meters":16000,"station_id":"ce4bhh12rcd13ifvqff0","pricing_plan_id":"cebpf4jnsgd1na2vs0mg"},{"bike_id":"826f9c0a-980b-43d8-bf4c-e43d77c221ed","system_id":"levelo_inurba_marseille","lat":43.23185,"lon":5.39987,"is_reserved":false,"is_disabled":false,"rental_uris":{"android":"levelo://app?vid=826f9c0a-980b-43d8-bf4c-e43d77c221ed","ios":"levelo://app?vid=826f9c0a-980b-43d8-bf4c-e43d77c221ed"},"vehicle_type_id":"4","last_reported":1756221062,"current_range_meters":16000,"station_id":"ce4bhn12rcd13ifvqgqg","pricing_plan_id":"cebpf4jnsgd1na2vs0mg"},{"bike_id":"f0400c37-c7f6-4929-b1ac-d92430ff6f2d","system_id":"levelo_inurba_marseille","lat":43.27558,"lon":5.39668,"is_reserved":false,"is_disabled":false,"rental_uris":{"android":"levelo://app?vid=f0400c37-c7f6-4929-b1ac-d92430ff6f2d","ios":"levelo://app?vid=f0400c37-c7f6-4929-b1ac-d92430ff6f2d"},"vehicle_type_id":"4","last_reported":1756221062,"current_range_meters":16000,"station_id":"","pricing_plan_id":"cebpf4jnsgd1na2vs0mg"},{"bike_id":"5bce688b-fc81-4596-8277-b66f54be87c1","system_id":"levelo_inurba_marseille","lat":43.33768,"lon":5.37438,"is_reserved":false,"is_disabled":false,"rental_uris":{"android":"levelo://app?vid=5bce688b-fc81-4596-8277-b66f54be87c1","ios":"levelo://app?vid=5bce688b-fc81-4596-8277-b66f54be87c1"},"vehicle_type_id":"4","last_reported":1756221062,"current_range_meters":16000,"station_id":"","pricing_plan_id":"cebpf4jnsgd1na2vs0mg"},{"bike_id":"ac684350-3014-45f3-875d-af933fb50867","system_id":"levelo_inurba_marseille","lat":43.26197,"lon":5.37456,"is_reserved":false,"is_disabled":true,"rental_uris":{"android":"levelo://app?vid=ac684350-3014-45f3-875d-af933fb50867","ios":"levelo://app?vid=ac684350-3014-45f3-875d-af933fb50867"},"vehicle_type_id":"4","last_reported":1756221062,"current_range_meters":16000,"station_id":"ce4bhgp2rcd13ifvqfc0","pricing_plan_id":"cebpf4jnsgd1na2vs0mg"},{"bike_id":"6c8befaf-d1d3-4cd2-8a94-ef7eccfd75b7","system_id":"levelo_inurba_marseille","lat":43.29844,"lon":5.36265,"is_reserved":false,"is_disabled":false,"rental_uris":{"android":"levelo://app?vid=6c8befaf-d1d3-4cd2-8a94-ef7eccfd75b7","ios":"levelo://app?vid=6c8befaf-d1d3-4cd2-8a94-ef7eccfd75b7"},"vehicle_type_id":"4","last_reported":1756221062,"current_range_meters":16000,"station_id":"ce4bgpp2rcd13ifvqc3g","pricing_plan_id":"cebpf4jnsgd1na2vs0mg"},{"bike_id":"e55c5166-258e-4ef1-8bb0-61c40d73cb1f","system_id":"levelo_inurba_marseille","lat":43.28415,"lon":5.34978,"is_reserved":false,"is_disabled":false,"rental_uris":{"android":"levelo://app?vid=e55c5166-258e-4ef1-8bb0-61c40d73cb1f","ios":"levelo://app?vid=e55c5166-258e-4ef1-8bb0-61c40d73cb1f"},"vehicle_type_id":"4","last_reported":1756221062,"current_range_meters":16000,"station_id":"ce4bhbh2rcd13ifvqepg","pricing_plan_id":"cebpf4jnsgd1na2vs0mg"},{"bike_id":"777a8c83-aed8-4881-84b6-34465956e738","system_id":"levelo_inurba_marseille","lat":43.257502,"lon":5.410037,"is_reserved":false,"is_disabled":false,"rental_uris":{"android":"levelo://app?vid=777a8c83-aed8-4881-84b6-34465956e738","ios":"levelo://app?vid=777a8c83-aed8-4881-84b6-34465956e738"},"vehicle_type_id":"4","last_reported":1756221062,"current_range_meters":16000,"station_id":"","pricing_plan_id":"cebpf4jnsgd1na2vs0mg"},{"bike_id":"af744081-2681-4d1e-9525-a9843cca33d2","system_id":"levelo_inurba_marseille","lat":43.32558,"lon":5.36475,"is_reserved":false,"is_disabled":false,"rental_uris":{"android":"levelo://app?vid=af744081-2681-4d1e-9525-a9843cca33d2","ios":"levelo://app?vid=af744081-2681-4d1e-9525-a9843cca33d2"},"vehicle_type_id":"4","last_reported":1756221062,"current_range_meters":16000,"station_id":"","pricing_plan_id":"cebpf4jnsgd1na2vs0mg"},{"bike_id":"4e330b1f-161c-4651-9fd6-20401a194c71","system_id":"levelo_inurba_marseille","lat":43.24073,"lon":5.37764,"is_reserved":false,"is_disabled":false,"rental_uris":{"android":"levelo://app?vid=4e330b1f-161c-4651-9fd6-20401a194c71","ios":"levelo://app?vid=4e330b1f-161c-4651-9fd6-20401a194c71"},"vehicle_type_id":"4","last_reported":1756221062,"current_range_meters":16000,"station_id":"ce4bhnp2rcd13ifvqgvg","pricing_plan_id":"cebpf4jnsgd1na2vs0mg"},{"bike_id":"35dd852d-a54c-4caa-b4fa-375a44518b2a","system_id":"levelo_inurba_marseille","lat":43.30735,"lon":5.4245,"is_reserved":false,"is_disabled":false,"rental_uris":{"android":"levelo://app?vid=35dd852d-a54c-4caa-b4fa-375a44518b2a","ios":"levelo://app?vid=35dd852d-a54c-4caa-b4fa-375a44518b2a"},"vehicle_type_id":"4","last_reported":1756221062,"current_range_meters":16400,"station_id":"st_cvj6ca6bvosntc0bfgr0","pricing_plan_id":"cebpf4jnsgd1na2vs0mg"},{"bike_id":"4fc0d636-130b-4784-b54f-8e669b16fbd9","system_id":"levelo_inurba_marseille","lat":43.32496,"lon":5.36588,"is_reserved":false,"is_disabled":false,"rental_uris":{"android":"levelo://app?vid=4fc0d636-130b-4784-b54f-8e669b16fbd9","ios":"levelo://app?vid=4fc0d636-130b-4784-b54f-8e669b16fbd9"},"vehicle_type_id":"4","last_reported":1756221062,"current_range_meters":16400,"station_id":"ce4bhs12rcd13ifvqhvg","pricing_plan_id":"cebpf4jnsgd1na2vs0mg"},{"bike_id":"f20d33e7-7322-492b-a458-228c763f42cf","system_id":"levelo_inurba_marseille","lat":43.28421,"lon":5.34968,"is_reserved":false,"is_disabled":false,"rental_uris":{"android":"levelo://app?vid=f20d33e7-7322-492b-a458-228c763f42cf","ios":"levelo://app?vid=f20d33e7-7322-492b-a458-228c763f42cf"},"vehicle_type_id":"4","last_reported":1756221062,"current_range_meters":16400,"station_id":"ce4bhbh2rcd13ifvqepg","pricing_plan_id":"cebpf4jnsgd1na2vs0mg"},{"bike_id":"9acfa46f-e5fe-4d34-971b-52d722e42d8e","system_id":"levelo_inurba_marseille","lat":43.28407,"lon":5.34979,"is_reserved":false,"is_disabled":false,"rental_uris":{"android":"levelo://app?vid=9acfa46f-e5fe-4d34-971b-52d722e42d8e","ios":"levelo://app?vid=9acfa46f-e5fe-4d34-971b-52d722e42d8e"},"vehicle_type_id":"4","last_reported":1756221062,"current_range_meters":16400,"station_id":"ce4bhbh2rcd13ifvqepg","pricing_plan_id":"cebpf4jnsgd1na2vs0mg"},{"bike_id":"c693c510-6ec7-45a6-8a2c-a9d7010ea93e","system_id":"levelo_inurba_marseille","lat":43.28417,"lon":5.37509,"is_reserved":false,"is_disabled":false,"rental_uris":{"android":"levelo://app?vid=c693c510-6ec7-45a6-8a2c-a9d7010ea93e","ios":"levelo://app?vid=c693c510-6ec7-45a6-8a2c-a9d7010ea93e"},"vehicle_type_id":"4","last_reported":1756221062,"current_range_meters":16800,"station_id":"ce4bh412rcd13ifvqds0","pricing_plan_id":"cebpf4jnsgd1na2vs0mg"},{"bike_id":"e8c9d0c6-3d4d-4359-b200-5972333e37d8","system_id":"levelo_inurba_marseille","lat":43.33025,"lon":5.39037,"is_reserved":false,"is_disabled":false,"rental_uris":{"android":"levelo://app?vid=e8c9d0c6-3d4d-4359-b200-5972333e37d8","ios":"levelo://app?vid=e8c9d0c6-3d4d-4359-b200-5972333e37d8"},"vehicle_type_id":"4","last_reported":1756221062,"current_range_meters":16800,"station_id":"ce4bhr92rcd13ifvqhrg","pricing_plan_id":"cebpf4jnsgd1na2vs0mg"},{"bike_id":"ffe53b32-00b6-4cd9-8fd9-a01389f7fdc7","system_id":"levelo_inurba_marseille","lat":43.29958,"lon":5.413136,"is_reserved":false,"is_disabled":false,"rental_uris":{"android":"levelo://app?vid=ffe53b32-00b6-4cd9-8fd9-a01389f7fdc7","ios":"levelo://app?vid=ffe53b32-00b6-4cd9-8fd9-a01389f7fdc7"},"vehicle_type_id":"4","last_reported":1756221062,"current_range_meters":16800,"station_id":"ce4bhp12rcd13ifvqh9g","pricing_plan_id":"cebpf4jnsgd1na2vs0mg"},{"bike_id":"1bacc49c-4c7d-432e-9ada-fc984d965b41","system_id":"levelo_inurba_marseille","lat":43.28263,"lon":5.35064,"is_reserved":false,"is_disabled":false,"rental_uris":{"android":"levelo://app?vid=1bacc49c-4c7d-432e-9ada-fc984d965b41","ios":"levelo://app?vid=1bacc49c-4c7d-432e-9ada-fc984d965b41"},"vehicle_type_id":"4","last_reported":1756221062,"current_range_meters":16400,"station_id":"ce4bhbp2rcd13ifvqerg","pricing_plan_id":"cebpf4jnsgd1na2vs0mg"},{"bike_id":"91e2f3be-19b5-4aea-8c69-4b59eaea104f","system_id":"levelo_inurba_marseille","lat":43.28518,"lon":5.35261,"is_reserved":false,"is_disabled":false,"rental_uris":{"android":"levelo://app?vid=91e2f3be-19b5-4aea-8c69-4b59eaea104f","ios":"levelo://app?vid=91e2f3be-19b5-4aea-8c69-4b59eaea104f"},"vehicle_type_id":"4","last_reported":1756221062,"current_range_meters":16800,"station_id":"","pricing_plan_id":"cebpf4jnsgd1na2vs0mg"},{"bike_id":"9bd147dc-81e4-437f-98f9-f1c9518d04f7","system_id":"levelo_inurba_marseille","lat":43.30586,"lon":5.39358,"is_reserved":false,"is_disabled":false,"rental_uris":{"android":"levelo://app?vid=9bd147dc-81e4-437f-98f9-f1c9518d04f7","ios":"levelo://app?vid=9bd147dc-81e4-437f-98f9-f1c9518d04f7"},"vehicle_type_id":"4","last_reported":1756221062,"current_range_meters":16800,"station_id":"ce4bh0p2rcd13ifvqd80","pricing_plan_id":"cebpf4jnsgd1na2vs0mg"},{"bike_id":"2cb86014-8a75-4e7d-90bf-d487735dfa36","system_id":"levelo_inurba_marseille","lat":43.30189,"lon":5.36626,"is_reserved":false,"is_disabled":false,"rental_uris":{"android":"levelo://app?vid=2cb86014-8a75-4e7d-90bf-d487735dfa36","ios":"levelo://app?vid=2cb86014-8a75-4e7d-90bf-d487735dfa36"},"vehicle_type_id":"4","last_reported":1756221062,"current_range_meters":16800,"station_id":"ce4bgrh2rcd13ifvqc8g","pricing_plan_id":"cebpf4jnsgd1na2vs0mg"},{"bike_id":"f8d714df-0fbd-4c44-a8ff-1115ab398f4d","system_id":"levelo_inurba_marseille","lat":43.2119,"lon":5.35069,"is_reserved":false,"is_disabled":false,"rental_uris":{"android":"levelo://app?vid=f8d714df-0fbd-4c44-a8ff-1115ab398f4d","ios":"levelo://app?vid=f8d714df-0fbd-4c44-a8ff-1115ab398f4d"},"vehicle_type_id":"4","last_reported":1756221062,"current_range_meters":17200,"station_id":"st_cvj6sg6p6f1abm77japg","pricing_plan_id":"cebpf4jnsgd1na2vs0mg"},{"bike_id":"0306ba73-3d0f-4523-9d11-9a4554b2d8ff","system_id":"levelo_inurba_marseille","lat":43.21206,"lon":5.35055,"is_reserved":false,"is_disabled":false,"rental_uris":{"android":"levelo://app?vid=0306ba73-3d0f-4523-9d11-9a4554b2d8ff","ios":"levelo://app?vid=0306ba73-3d0f-4523-9d11-9a4554b2d8ff"},"vehicle_type_id":"4","last_reported":1756221062,"current_range_meters":17200,"station_id":"st_cvj6sg6p6f1abm77japg","pricing_plan_id":"cebpf4jnsgd1na2vs0mg"},{"bike_id":"9bffc84b-dfc2-4abc-86c7-009a43012401","system_id":"levelo_inurba_marseille","lat":43.26213,"lon":5.3744,"is_reserved":false,"is_disabled":false,"rental_uris":{"android":"levelo://app?vid=9bffc84b-dfc2-4abc-86c7-009a43012401","ios":"levelo://app?vid=9bffc84b-dfc2-4abc-86c7-009a43012401"},"vehicle_type_id":"4","last_reported":1756221062,"current_range_meters":17200,"station_id":"ce4bhgp2rcd13ifvqfc0","pricing_plan_id":"cebpf4jnsgd1na2vs0mg"},{"bike_id":"40c1fb45-9550-4904-9c4b-5647cd1299ba","system_id":"levelo_inurba_marseille","lat":43.21193,"lon":5.35052,"is_reserved":false,"is_disabled":false,"rental_uris":{"android":"levelo://app?vid=40c1fb45-9550-4904-9c4b-5647cd1299ba","ios":"levelo://app?vid=40c1fb45-9550-4904-9c4b-5647cd1299ba"},"vehicle_type_id":"4","last_reported":1756221062,"current_range_meters":17600,"station_id":"st_cvj6sg6p6f1abm77japg","pricing_plan_id":"cebpf4jnsgd1na2vs0mg"},{"bike_id":"a2f46394-c978-4d4e-87f2-c8e7ad1532e1","system_id":"levelo_inurba_marseille","lat":43.291946,"lon":5.357784,"is_reserved":false,"is_disabled":false,"rental_uris":{"android":"levelo://app?vid=a2f46394-c978-4d4e-87f2-c8e7ad1532e1","ios":"levelo://app?vid=a2f46394-c978-4d4e-87f2-c8e7ad1532e1"},"vehicle_type_id":"4","last_reported":1756221062,"current_range_meters":17600,"station_id":"ce4bhb12rcd13ifvqel0","pricing_plan_id":"cebpf4jnsgd1na2vs0mg"},{"bike_id":"d030f663-b369-479d-ad3a-8c27d918e6bd","system_id":"levelo_inurba_marseille","lat":43.277824,"lon":5.406894,"is_reserved":false,"is_disabled":false,"rental_uris":{"android":"levelo://app?vid=d030f663-b369-479d-ad3a-8c27d918e6bd","ios":"levelo://app?vid=d030f663-b369-479d-ad3a-8c27d918e6bd"},"vehicle_type_id":"4","last_reported":1756221062,"current_range_meters":17600,"station_id":"ce4bhnh2rcd13ifvqgtg","pricing_plan_id":"cebpf4jnsgd1na2vs0mg"},{"bike_id":"fbf0e9b4-0244-4455-89e8-bb336b1646cf","system_id":"levelo_inurba_marseille","lat":43.23186,"lon":5.39982,"is_reserved":false,"is_disabled":false,"rental_uris":{"android":"levelo://app?vid=fbf0e9b4-0244-4455-89e8-bb336b1646cf","ios":"levelo://app?vid=fbf0e9b4-0244-4455-89e8-bb336b1646cf"},"vehicle_type_id":"4","last_reported":1756221062,"current_range_meters":17600,"station_id":"ce4bhn12rcd13ifvqgqg","pricing_plan_id":"cebpf4jnsgd1na2vs0mg"},{"bike_id":"c8b31377-ee53-43c7-9f37-c4e3dbbde6f6","system_id":"levelo_inurba_marseille","lat":43.26555,"lon":5.37287,"is_reserved":false,"is_disabled":false,"rental_uris":{"android":"levelo://app?vid=c8b31377-ee53-43c7-9f37-c4e3dbbde6f6","ios":"levelo://app?vid=c8b31377-ee53-43c7-9f37-c4e3dbbde6f6"},"vehicle_type_id":"4","last_reported":1756221062,"current_range_meters":17600,"station_id":"ce4bhg12rcd13ifvqf70","pricing_plan_id":"cebpf4jnsgd1na2vs0mg"},{"bike_id":"36bab847-28a9-4a47-9a54-69872137a573","system_id":"levelo_inurba_marseille","lat":43.308,"lon":5.38152,"is_reserved":false,"is_disabled":false,"rental_uris":{"android":"levelo://app?vid=36bab847-28a9-4a47-9a54-69872137a573","ios":"levelo://app?vid=36bab847-28a9-4a47-9a54-69872137a573"},"vehicle_type_id":"4","last_reported":1756221062,"current_range_meters":17600,"station_id":"ce4bgt12rcd13ifvqce0","pricing_plan_id":"cebpf4jnsgd1na2vs0mg"},{"bike_id":"7ad2097a-7ea1-460f-83ed-a57e958e7c46","system_id":"levelo_inurba_marseille","lat":43.29984,"lon":5.36771,"is_reserved":false,"is_disabled":false,"rental_uris":{"android":"levelo://app?vid=7ad2097a-7ea1-460f-83ed-a57e958e7c46","ios":"levelo://app?vid=7ad2097a-7ea1-460f-83ed-a57e958e7c46"},"vehicle_type_id":"4","last_reported":1756221062,"current_range_meters":17600,"station_id":"","pricing_plan_id":"cebpf4jnsgd1na2vs0mg"},{"bike_id":"5c3c9cc6-5932-4397-b83f-50ba31e72ed2","system_id":"levelo_inurba_marseille","lat":43.29585,"lon":5.36745,"is_reserved":false,"is_disabled":false,"rental_uris":{"android":"levelo://app?vid=5c3c9cc6-5932-4397-b83f-50ba31e72ed2","ios":"levelo://app?vid=5c3c9cc6-5932-4397-b83f-50ba31e72ed2"},"vehicle_type_id":"4","last_reported":1756221062,"current_range_meters":17600,"station_id":"ce4bgph2rcd13ifvqc2g","pricing_plan_id":"cebpf4jnsgd1na2vs0mg"},{"bike_id":"cd822ebe-8d01-44f2-b9e8-1f0b3a981bae","system_id":"levelo_inurba_marseille","lat":43.28846,"lon":5.35785,"is_reserved":false,"is_disabled":true,"rental_uris":{"android":"levelo://app?vid=cd822ebe-8d01-44f2-b9e8-1f0b3a981bae","ios":"levelo://app?vid=cd822ebe-8d01-44f2-b9e8-1f0b3a981bae"},"vehicle_type_id":"4","last_reported":1756221062,"current_range_meters":17600,"station_id":"ce4bhb12rcd13ifvqem0","pricing_plan_id":"cebpf4jnsgd1na2vs0mg"},{"bike_id":"a78c16ad-366d-4781-aac7-605a2fd3997b","system_id":"levelo_inurba_marseille","lat":43.28423,"lon":5.34976,"is_reserved":false,"is_disabled":false,"rental_uris":{"android":"levelo://app?vid=a78c16ad-366d-4781-aac7-605a2fd3997b","ios":"levelo://app?vid=a78c16ad-366d-4781-aac7-605a2fd3997b"},"vehicle_type_id":"4","last_reported":1756221062,"current_range_meters":17600,"station_id":"ce4bhbh2rcd13ifvqepg","pricing_plan_id":"cebpf4jnsgd1na2vs0mg"},{"bike_id":"a6060617-f9ac-4a03-9169-ccd18c1790a8","system_id":"levelo_inurba_marseille","lat":43.29523,"lon":5.39031,"is_reserved":false,"is_disabled":false,"rental_uris":{"android":"levelo://app?vid=a6060617-f9ac-4a03-9169-ccd18c1790a8","ios":"levelo://app?vid=a6060617-f9ac-4a03-9169-ccd18c1790a8"},"vehicle_type_id":"4","last_reported":1756221062,"current_range_meters":17200,"station_id":"ce4bh3p2rcd13ifvqdp0","pricing_plan_id":"cebpf4jnsgd1na2vs0mg"},{"bike_id":"4331164e-bc4c-49fa-9883-38a75e5ac067","system_id":"levelo_inurba_marseille","lat":43.31332,"lon":5.39693,"is_reserved":false,"is_disabled":false,"rental_uris":{"android":"levelo://app?vid=4331164e-bc4c-49fa-9883-38a75e5ac067","ios":"levelo://app?vid=4331164e-bc4c-49fa-9883-38a75e5ac067"},"vehicle_type_id":"4","last_reported":1756221062,"current_range_meters":17600,"station_id":"ce4bgvp2rcd13ifvqcu0","pricing_plan_id":"cebpf4jnsgd1na2vs0mg"},{"bike_id":"bbd929cd-5ca0-443b-8c17-91dff3c0338f","system_id":"levelo_inurba_marseille","lat":43.27683,"lon":5.388706,"is_reserved":false,"is_disabled":false,"rental_uris":{"android":"levelo://app?vid=bbd929cd-5ca0-443b-8c17-91dff3c0338f","ios":"levelo://app?vid=bbd929cd-5ca0-443b-8c17-91dff3c0338f"},"vehicle_type_id":"4","last_reported":1756221062,"current_range_meters":18000,"station_id":"ce4bhi12rcd13ifvqfo0","pricing_plan_id":"cebpf4jnsgd1na2vs0mg"},{"bike_id":"248bf14d-378d-4e2f-9999-982acfdf56f9","system_id":"levelo_inurba_marseille","lat":43.28422,"lon":5.34972,"is_reserved":false,"is_disabled":false,"rental_uris":{"android":"levelo://app?vid=248bf14d-378d-4e2f-9999-982acfdf56f9","ios":"levelo://app?vid=248bf14d-378d-4e2f-9999-982acfdf56f9"},"vehicle_type_id":"4","last_reported":1756221062,"current_range_meters":18000,"station_id":"ce4bhbh2rcd13ifvqepg","pricing_plan_id":"cebpf4jnsgd1na2vs0mg"},{"bike_id":"2827b4b2-46ec-426c-a33a-555e078de398","system_id":"levelo_inurba_marseille","lat":43.25012,"lon":5.38909,"is_reserved":false,"is_disabled":false,"rental_uris":{"android":"levelo://app?vid=2827b4b2-46ec-426c-a33a-555e078de398","ios":"levelo://app?vid=2827b4b2-46ec-426c-a33a-555e078de398"},"vehicle_type_id":"4","last_reported":1756221062,"current_range_meters":18000,"station_id":"ce4bhgp2rcd13ifvqfd0","pricing_plan_id":"cebpf4jnsgd1na2vs0mg"},{"bike_id":"b5ae0016-67e1-4c37-91cb-4d986fbc09a4","system_id":"levelo_inurba_marseille","lat":43.24633,"lon":5.43146,"is_reserved":false,"is_disabled":false,"rental_uris":{"android":"levelo://app?vid=b5ae0016-67e1-4c37-91cb-4d986fbc09a4","ios":"levelo://app?vid=b5ae0016-67e1-4c37-91cb-4d986fbc09a4"},"vehicle_type_id":"4","last_reported":1756221062,"current_range_meters":18000,"station_id":"st_d2m6c4gdas8pm72e190g","pricing_plan_id":"cebpf4jnsgd1na2vs0mg"},{"bike_id":"81d63cb5-de51-4d5b-904e-59e37c00bb3b","system_id":"levelo_inurba_marseille","lat":43.31326,"lon":5.39693,"is_reserved":false,"is_disabled":false,"rental_uris":{"android":"levelo://app?vid=81d63cb5-de51-4d5b-904e-59e37c00bb3b","ios":"levelo://app?vid=81d63cb5-de51-4d5b-904e-59e37c00bb3b"},"vehicle_type_id":"4","last_reported":1756221062,"current_range_meters":18000,"station_id":"ce4bgvp2rcd13ifvqcu0","pricing_plan_id":"cebpf4jnsgd1na2vs0mg"},{"bike_id":"abaf99ca-5823-4460-ba5c-ff01280743d0","system_id":"levelo_inurba_marseille","lat":43.2707,"lon":5.42285,"is_reserved":false,"is_disabled":false,"rental_uris":{"android":"levelo://app?vid=abaf99ca-5823-4460-ba5c-ff01280743d0","ios":"levelo://app?vid=abaf99ca-5823-4460-ba5c-ff01280743d0"},"vehicle_type_id":"4","last_reported":1756221062,"current_range_meters":18000,"station_id":"ce4bhk92rcd13ifvqgb0","pricing_plan_id":"cebpf4jnsgd1na2vs0mg"},{"bike_id":"4dd066a3-5039-4c08-96e4-92ee4cbb306d","system_id":"levelo_inurba_marseille","lat":43.23195,"lon":5.35542,"is_reserved":false,"is_disabled":false,"rental_uris":{"android":"levelo://app?vid=4dd066a3-5039-4c08-96e4-92ee4cbb306d","ios":"levelo://app?vid=4dd066a3-5039-4c08-96e4-92ee4cbb306d"},"vehicle_type_id":"4","last_reported":1756221062,"current_range_meters":18000,"station_id":"ce4bhu92rcd13ifvqi70","pricing_plan_id":"cebpf4jnsgd1na2vs0mg"},{"bike_id":"271d510a-567b-4e3c-a9b2-d8a1c2227cb2","system_id":"levelo_inurba_marseille","lat":43.28416,"lon":5.34984,"is_reserved":false,"is_disabled":false,"rental_uris":{"android":"levelo://app?vid=271d510a-567b-4e3c-a9b2-d8a1c2227cb2","ios":"levelo://app?vid=271d510a-567b-4e3c-a9b2-d8a1c2227cb2"},"vehicle_type_id":"4","last_reported":1756221062,"current_range_meters":18000,"station_id":"ce4bhbh2rcd13ifvqepg","pricing_plan_id":"cebpf4jnsgd1na2vs0mg"},{"bike_id":"d5edd176-dc20-48cc-aea0-c4b4119653a3","system_id":"levelo_inurba_marseille","lat":43.28401,"lon":5.34992,"is_reserved":false,"is_disabled":false,"rental_uris":{"android":"levelo://app?vid=d5edd176-dc20-48cc-aea0-c4b4119653a3","ios":"levelo://app?vid=d5edd176-dc20-48cc-aea0-c4b4119653a3"},"vehicle_type_id":"4","last_reported":1756221062,"current_range_meters":18000,"station_id":"ce4bhbh2rcd13ifvqepg","pricing_plan_id":"cebpf4jnsgd1na2vs0mg"},{"bike_id":"3dff11d5-3872-4ffe-8cce-b5631d6c6058","system_id":"levelo_inurba_marseille","lat":43.32668,"lon":5.39142,"is_reserved":false,"is_disabled":false,"rental_uris":{"android":"levelo://app?vid=3dff11d5-3872-4ffe-8cce-b5631d6c6058","ios":"levelo://app?vid=3dff11d5-3872-4ffe-8cce-b5631d6c6058"},"vehicle_type_id":"4","last_reported":1756221062,"current_range_meters":18000,"station_id":"","pricing_plan_id":"cebpf4jnsgd1na2vs0mg"},{"bike_id":"467fe665-b060-4a11-8689-bef79c266368","system_id":"levelo_inurba_marseille","lat":43.26564,"lon":5.40325,"is_reserved":false,"is_disabled":false,"rental_uris":{"android":"levelo://app?vid=467fe665-b060-4a11-8689-bef79c266368","ios":"levelo://app?vid=467fe665-b060-4a11-8689-bef79c266368"},"vehicle_type_id":"4","last_reported":1756221062,"current_range_meters":18000,"station_id":"ce4bhmp2rcd13ifvqgng","pricing_plan_id":"cebpf4jnsgd1na2vs0mg"},{"bike_id":"96b99427-8885-496e-ab85-145187f2bdf1","system_id":"levelo_inurba_marseille","lat":43.32108,"lon":5.36781,"is_reserved":false,"is_disabled":false,"rental_uris":{"android":"levelo://app?vid=96b99427-8885-496e-ab85-145187f2bdf1","ios":"levelo://app?vid=96b99427-8885-496e-ab85-145187f2bdf1"},"vehicle_type_id":"4","last_reported":1756221062,"current_range_meters":18000,"station_id":"ce4bhrh2rcd13ifvqhug","pricing_plan_id":"cebpf4jnsgd1na2vs0mg"},{"bike_id":"3efd5b4c-544b-47ae-b771-88c8225668bb","system_id":"levelo_inurba_marseille","lat":43.24207,"lon":5.36421,"is_reserved":false,"is_disabled":false,"rental_uris":{"android":"levelo://app?vid=3efd5b4c-544b-47ae-b771-88c8225668bb","ios":"levelo://app?vid=3efd5b4c-544b-47ae-b771-88c8225668bb"},"vehicle_type_id":"4","last_reported":1756221062,"current_range_meters":18800,"station_id":"cpo36qri1sfpv3e86is0","pricing_plan_id":"cebpf4jnsgd1na2vs0mg"},{"bike_id":"e5eabf25-4e1c-476e-b130-9f83cdcfc80c","system_id":"levelo_inurba_marseille","lat":43.298061,"lon":5.417146,"is_reserved":false,"is_disabled":false,"rental_uris":{"android":"levelo://app?vid=e5eabf25-4e1c-476e-b130-9f83cdcfc80c","ios":"levelo://app?vid=e5eabf25-4e1c-476e-b130-9f83cdcfc80c"},"vehicle_type_id":"4","last_reported":1756221062,"current_range_meters":18800,"station_id":"","pricing_plan_id":"cebpf4jnsgd1na2vs0mg"},{"bike_id":"4e0659a5-be1d-4124-8848-780f119099aa","system_id":"levelo_inurba_marseille","lat":43.28411,"lon":5.34986,"is_reserved":false,"is_disabled":false,"rental_uris":{"android":"levelo://app?vid=4e0659a5-be1d-4124-8848-780f119099aa","ios":"levelo://app?vid=4e0659a5-be1d-4124-8848-780f119099aa"},"vehicle_type_id":"4","last_reported":1756221062,"current_range_meters":18800,"station_id":"ce4bhbh2rcd13ifvqepg","pricing_plan_id":"cebpf4jnsgd1na2vs0mg"},{"bike_id":"ec0abd1e-8aa0-4bb3-8e2c-2a78d5983125","system_id":"levelo_inurba_marseille","lat":43.29957,"lon":5.41323,"is_reserved":false,"is_disabled":false,"rental_uris":{"android":"levelo://app?vid=ec0abd1e-8aa0-4bb3-8e2c-2a78d5983125","ios":"levelo://app?vid=ec0abd1e-8aa0-4bb3-8e2c-2a78d5983125"},"vehicle_type_id":"4","last_reported":1756221062,"current_range_meters":18800,"station_id":"ce4bhp12rcd13ifvqh9g","pricing_plan_id":"cebpf4jnsgd1na2vs0mg"},{"bike_id":"5c26a54e-1e97-4ad3-a16d-614ad930b130","system_id":"levelo_inurba_marseille","lat":43.321,"lon":5.36764,"is_reserved":false,"is_disabled":false,"rental_uris":{"android":"levelo://app?vid=5c26a54e-1e97-4ad3-a16d-614ad930b130","ios":"levelo://app?vid=5c26a54e-1e97-4ad3-a16d-614ad930b130"},"vehicle_type_id":"4","last_reported":1756221062,"current_range_meters":19200,"station_id":"ce4bhrh2rcd13ifvqhug","pricing_plan_id":"cebpf4jnsgd1na2vs0mg"},{"bike_id":"fe9a4f88-d864-4fb0-93cb-f1870eecac72","system_id":"levelo_inurba_marseille","lat":43.29261,"lon":5.40914,"is_reserved":false,"is_disabled":false,"rental_uris":{"android":"levelo://app?vid=fe9a4f88-d864-4fb0-93cb-f1870eecac72","ios":"levelo://app?vid=fe9a4f88-d864-4fb0-93cb-f1870eecac72"},"vehicle_type_id":"4","last_reported":1756221062,"current_range_meters":19200,"station_id":"ce4bh192rcd13ifvqdc0","pricing_plan_id":"cebpf4jnsgd1na2vs0mg"},{"bike_id":"f03fd8b5-820c-4428-a47c-214be68d7e64","system_id":"levelo_inurba_marseille","lat":43.24074,"lon":5.37762,"is_reserved":false,"is_disabled":false,"rental_uris":{"android":"levelo://app?vid=f03fd8b5-820c-4428-a47c-214be68d7e64","ios":"levelo://app?vid=f03fd8b5-820c-4428-a47c-214be68d7e64"},"vehicle_type_id":"4","last_reported":1756221062,"current_range_meters":19200,"station_id":"ce4bhnp2rcd13ifvqgvg","pricing_plan_id":"cebpf4jnsgd1na2vs0mg"},{"bike_id":"685105d1-bcda-4899-9d64-d94adf158a64","system_id":"levelo_inurba_marseille","lat":43.314676,"lon":5.373608,"is_reserved":false,"is_disabled":true,"rental_uris":{"android":"levelo://app?vid=685105d1-bcda-4899-9d64-d94adf158a64","ios":"levelo://app?vid=685105d1-bcda-4899-9d64-d94adf158a64"},"vehicle_type_id":"4","last_reported":1756221062,"current_range_meters":19200,"station_id":"","pricing_plan_id":"cebpf4jnsgd1na2vs0mg"},{"bike_id":"7241d19a-4c2f-4c70-8d92-4f3eff9cf64a","system_id":"levelo_inurba_marseille","lat":43.23192,"lon":5.35558,"is_reserved":false,"is_disabled":false,"rental_uris":{"android":"levelo://app?vid=7241d19a-4c2f-4c70-8d92-4f3eff9cf64a","ios":"levelo://app?vid=7241d19a-4c2f-4c70-8d92-4f3eff9cf64a"},"vehicle_type_id":"4","last_reported":1756221062,"current_range_meters":19200,"station_id":"ce4bhu92rcd13ifvqi70","pricing_plan_id":"cebpf4jnsgd1na2vs0mg"},{"bike_id":"a29863a4-04c3-41df-abe8-941d52f3380e","system_id":"levelo_inurba_marseille","lat":43.29529,"lon":5.38549,"is_reserved":false,"is_disabled":false,"rental_uris":{"android":"levelo://app?vid=a29863a4-04c3-41df-abe8-941d52f3380e","ios":"levelo://app?vid=a29863a4-04c3-41df-abe8-941d52f3380e"},"vehicle_type_id":"4","last_reported":1756221062,"current_range_meters":19200,"station_id":"ce4bgih2rcd13ifvqba0","pricing_plan_id":"cebpf4jnsgd1na2vs0mg"},{"bike_id":"5002ab8f-0c9d-4313-b523-fd24100199d7","system_id":"levelo_inurba_marseille","lat":43.32493,"lon":5.36569,"is_reserved":false,"is_disabled":false,"rental_uris":{"android":"levelo://app?vid=5002ab8f-0c9d-4313-b523-fd24100199d7","ios":"levelo://app?vid=5002ab8f-0c9d-4313-b523-fd24100199d7"},"vehicle_type_id":"4","last_reported":1756221062,"current_range_meters":19600,"station_id":"ce4bhs12rcd13ifvqhvg","pricing_plan_id":"cebpf4jnsgd1na2vs0mg"},{"bike_id":"dce64f74-02ff-4382-b0b2-2575a1a14e5f","system_id":"levelo_inurba_marseille","lat":43.28285,"lon":5.35044,"is_reserved":false,"is_disabled":false,"rental_uris":{"android":"levelo://app?vid=dce64f74-02ff-4382-b0b2-2575a1a14e5f","ios":"levelo://app?vid=dce64f74-02ff-4382-b0b2-2575a1a14e5f"},"vehicle_type_id":"4","last_reported":1756221062,"current_range_meters":19600,"station_id":"ce4bhbp2rcd13ifvqerg","pricing_plan_id":"cebpf4jnsgd1na2vs0mg"},{"bike_id":"71136ea1-3aaf-4521-8084-554abe261412","system_id":"levelo_inurba_marseille","lat":43.303037,"lon":5.369059,"is_reserved":false,"is_disabled":true,"rental_uris":{"android":"levelo://app?vid=71136ea1-3aaf-4521-8084-554abe261412","ios":"levelo://app?vid=71136ea1-3aaf-4521-8084-554abe261412"},"vehicle_type_id":"4","last_reported":1756221062,"current_range_meters":19600,"station_id":"","pricing_plan_id":"cebpf4jnsgd1na2vs0mg"},{"bike_id":"9debf4d9-b244-4d97-8654-802b3ec59894","system_id":"levelo_inurba_marseille","lat":43.23206,"lon":5.35548,"is_reserved":false,"is_disabled":false,"rental_uris":{"android":"levelo://app?vid=9debf4d9-b244-4d97-8654-802b3ec59894","ios":"levelo://app?vid=9debf4d9-b244-4d97-8654-802b3ec59894"},"vehicle_type_id":"4","last_reported":1756221062,"current_range_meters":19600,"station_id":"ce4bhu92rcd13ifvqi70","pricing_plan_id":"cebpf4jnsgd1na2vs0mg"},{"bike_id":"a9d83b21-9821-4029-bb59-40c830188146","system_id":"levelo_inurba_marseille","lat":43.323749,"lon":5.367501,"is_reserved":false,"is_disabled":false,"rental_uris":{"android":"levelo://app?vid=a9d83b21-9821-4029-bb59-40c830188146","ios":"levelo://app?vid=a9d83b21-9821-4029-bb59-40c830188146"},"vehicle_type_id":"4","last_reported":1756221062,"current_range_meters":19600,"station_id":"ce4bhsh2rcd13ifvqi2g","pricing_plan_id":"cebpf4jnsgd1na2vs0mg"},{"bike_id":"9653b575-f3f0-481f-b5ab-adc0a30148e8","system_id":"levelo_inurba_marseille","lat":43.23082,"lon":5.35479,"is_reserved":false,"is_disabled":false,"rental_uris":{"android":"levelo://app?vid=9653b575-f3f0-481f-b5ab-adc0a30148e8","ios":"levelo://app?vid=9653b575-f3f0-481f-b5ab-adc0a30148e8"},"vehicle_type_id":"4","last_reported":1756221062,"current_range_meters":19600,"station_id":"cpo3342slgdg3j2ifvpg","pricing_plan_id":"cebpf4jnsgd1na2vs0mg"},{"bike_id":"f67c8e5e-7af8-4847-a4ce-1e12088b4291","system_id":"levelo_inurba_marseille","lat":43.32516,"lon":5.36852,"is_reserved":false,"is_disabled":false,"rental_uris":{"android":"levelo://app?vid=f67c8e5e-7af8-4847-a4ce-1e12088b4291","ios":"levelo://app?vid=f67c8e5e-7af8-4847-a4ce-1e12088b4291"},"vehicle_type_id":"4","last_reported":1756221062,"current_range_meters":19600,"station_id":"","pricing_plan_id":"cebpf4jnsgd1na2vs0mg"},{"bike_id":"182848e1-c128-499b-944e-cad0c910e9fb","system_id":"levelo_inurba_marseille","lat":43.211966,"lon":5.350696,"is_reserved":false,"is_disabled":false,"rental_uris":{"android":"levelo://app?vid=182848e1-c128-499b-944e-cad0c910e9fb","ios":"levelo://app?vid=182848e1-c128-499b-944e-cad0c910e9fb"},"vehicle_type_id":"4","last_reported":1756221062,"current_range_meters":19600,"station_id":"st_cvj6sg6p6f1abm77japg","pricing_plan_id":"cebpf4jnsgd1na2vs0mg"},{"bike_id":"993780f1-950a-43f9-bf2f-80b7eebb7cb4","system_id":"levelo_inurba_marseille","lat":43.30138,"lon":5.38087,"is_reserved":false,"is_disabled":false,"rental_uris":{"android":"levelo://app?vid=993780f1-950a-43f9-bf2f-80b7eebb7cb4","ios":"levelo://app?vid=993780f1-950a-43f9-bf2f-80b7eebb7cb4"},"vehicle_type_id":"4","last_reported":1756221062,"current_range_meters":19600,"station_id":"ce4bgjp2rcd13ifvqbh0","pricing_plan_id":"cebpf4jnsgd1na2vs0mg"},{"bike_id":"f7121967-0a2a-4c7f-a4c0-7572b3a52c3c","system_id":"levelo_inurba_marseille","lat":43.24669,"lon":5.38148,"is_reserved":false,"is_disabled":false,"rental_uris":{"android":"levelo://app?vid=f7121967-0a2a-4c7f-a4c0-7572b3a52c3c","ios":"levelo://app?vid=f7121967-0a2a-4c7f-a4c0-7572b3a52c3c"},"vehicle_type_id":"4","last_reported":1756221062,"current_range_meters":20000,"station_id":"ce4bhih2rcd13ifvqfr0","pricing_plan_id":"cebpf4jnsgd1na2vs0mg"},{"bike_id":"c561b3be-23f4-46ed-8d38-1fc2450f503d","system_id":"levelo_inurba_marseille","lat":43.2366,"lon":5.3624,"is_reserved":false,"is_disabled":false,"rental_uris":{"android":"levelo://app?vid=c561b3be-23f4-46ed-8d38-1fc2450f503d","ios":"levelo://app?vid=c561b3be-23f4-46ed-8d38-1fc2450f503d"},"vehicle_type_id":"4","last_reported":1756221062,"current_range_meters":19600,"station_id":"","pricing_plan_id":"cebpf4jnsgd1na2vs0mg"},{"bike_id":"d5c57a1a-928a-455d-918b-cbd133cfbe71","system_id":"levelo_inurba_marseille","lat":43.2175,"lon":5.34605,"is_reserved":false,"is_disabled":false,"rental_uris":{"android":"levelo://app?vid=d5c57a1a-928a-455d-918b-cbd133cfbe71","ios":"levelo://app?vid=d5c57a1a-928a-455d-918b-cbd133cfbe71"},"vehicle_type_id":"4","last_reported":1756221062,"current_range_meters":20000,"station_id":"st_cvj6r9ubvosntc0bgbag","pricing_plan_id":"cebpf4jnsgd1na2vs0mg"},{"bike_id":"fa8a4329-4f94-452b-964c-df6ea786a868","system_id":"levelo_inurba_marseille","lat":43.28416,"lon":5.35005,"is_reserved":false,"is_disabled":false,"rental_uris":{"android":"levelo://app?vid=fa8a4329-4f94-452b-964c-df6ea786a868","ios":"levelo://app?vid=fa8a4329-4f94-452b-964c-df6ea786a868"},"vehicle_type_id":"4","last_reported":1756221062,"current_range_meters":20000,"station_id":"ce4bhbh2rcd13ifvqepg","pricing_plan_id":"cebpf4jnsgd1na2vs0mg"},{"bike_id":"8f13c715-8834-458e-82c3-47aa76416719","system_id":"levelo_inurba_marseille","lat":43.287085,"lon":5.373749,"is_reserved":false,"is_disabled":false,"rental_uris":{"android":"levelo://app?vid=8f13c715-8834-458e-82c3-47aa76416719","ios":"levelo://app?vid=8f13c715-8834-458e-82c3-47aa76416719"},"vehicle_type_id":"4","last_reported":1756221062,"current_range_meters":20000,"station_id":"ce4bh3p2rcd13ifvqdq0","pricing_plan_id":"cebpf4jnsgd1na2vs0mg"},{"bike_id":"f84f46c8-243d-42cd-b308-2b289e4c09d3","system_id":"levelo_inurba_marseille","lat":43.33444,"lon":5.35696,"is_reserved":false,"is_disabled":false,"rental_uris":{"android":"levelo://app?vid=f84f46c8-243d-42cd-b308-2b289e4c09d3","ios":"levelo://app?vid=f84f46c8-243d-42cd-b308-2b289e4c09d3"},"vehicle_type_id":"4","last_reported":1756221062,"current_range_meters":20000,"station_id":"","pricing_plan_id":"cebpf4jnsgd1na2vs0mg"},{"bike_id":"84ba8b0b-6d6a-4919-9e45-3a5593232fd2","system_id":"levelo_inurba_marseille","lat":43.241691,"lon":5.364056,"is_reserved":false,"is_disabled":false,"rental_uris":{"android":"levelo://app?vid=84ba8b0b-6d6a-4919-9e45-3a5593232fd2","ios":"levelo://app?vid=84ba8b0b-6d6a-4919-9e45-3a5593232fd2"},"vehicle_type_id":"4","last_reported":1756221062,"current_range_meters":20000,"station_id":"cpo36qri1sfpv3e86is0","pricing_plan_id":"cebpf4jnsgd1na2vs0mg"},{"bike_id":"bd4376ea-7d2d-4cf4-9dc1-caf98f82dced","system_id":"levelo_inurba_marseille","lat":43.3332,"lon":5.39739,"is_reserved":false,"is_disabled":false,"rental_uris":{"android":"levelo://app?vid=bd4376ea-7d2d-4cf4-9dc1-caf98f82dced","ios":"levelo://app?vid=bd4376ea-7d2d-4cf4-9dc1-caf98f82dced"},"vehicle_type_id":"4","last_reported":1756221062,"current_range_meters":20400,"station_id":"","pricing_plan_id":"cebpf4jnsgd1na2vs0mg"},{"bike_id":"f7213e16-6938-41df-b35d-3e745154b5b7","system_id":"levelo_inurba_marseille","lat":43.239596,"lon":5.366394,"is_reserved":false,"is_disabled":false,"rental_uris":{"android":"levelo://app?vid=f7213e16-6938-41df-b35d-3e745154b5b7","ios":"levelo://app?vid=f7213e16-6938-41df-b35d-3e745154b5b7"},"vehicle_type_id":"4","last_reported":1756221062,"current_range_meters":20400,"station_id":"ce4bhi12rcd13ifvqfp0","pricing_plan_id":"cebpf4jnsgd1na2vs0mg"},{"bike_id":"9f2bb7dc-bd4f-42d8-99ee-fec2cba10242","system_id":"levelo_inurba_marseille","lat":43.29958,"lon":5.37946,"is_reserved":false,"is_disabled":false,"rental_uris":{"android":"levelo://app?vid=9f2bb7dc-bd4f-42d8-99ee-fec2cba10242","ios":"levelo://app?vid=9f2bb7dc-bd4f-42d8-99ee-fec2cba10242"},"vehicle_type_id":"4","last_reported":1756221062,"current_range_meters":20400,"station_id":"","pricing_plan_id":"cebpf4jnsgd1na2vs0mg"},{"bike_id":"d1ab4433-94d0-4b2e-aecd-cb94ea10bdaa","system_id":"levelo_inurba_marseille","lat":43.261926,"lon":5.374481,"is_reserved":false,"is_disabled":true,"rental_uris":{"android":"levelo://app?vid=d1ab4433-94d0-4b2e-aecd-cb94ea10bdaa","ios":"levelo://app?vid=d1ab4433-94d0-4b2e-aecd-cb94ea10bdaa"},"vehicle_type_id":"4","last_reported":1756221062,"current_range_meters":20400,"station_id":"","pricing_plan_id":"cebpf4jnsgd1na2vs0mg"},{"bike_id":"2973bb63-a412-4e25-bf14-062ff276284a","system_id":"levelo_inurba_marseille","lat":43.28614,"lon":5.35098,"is_reserved":false,"is_disabled":false,"rental_uris":{"android":"levelo://app?vid=2973bb63-a412-4e25-bf14-062ff276284a","ios":"levelo://app?vid=2973bb63-a412-4e25-bf14-062ff276284a"},"vehicle_type_id":"4","last_reported":1756221062,"current_range_meters":20400,"station_id":"ce4bhch2rcd13ifvqeug","pricing_plan_id":"cebpf4jnsgd1na2vs0mg"},{"bike_id":"74cd51ed-e848-4be1-b276-5a567e94ab69","system_id":"levelo_inurba_marseille","lat":43.30931,"lon":5.40139,"is_reserved":false,"is_disabled":false,"rental_uris":{"android":"levelo://app?vid=74cd51ed-e848-4be1-b276-5a567e94ab69","ios":"levelo://app?vid=74cd51ed-e848-4be1-b276-5a567e94ab69"},"vehicle_type_id":"4","last_reported":1756221062,"current_range_meters":20400,"station_id":"ce4bgvp2rcd13ifvqct0","pricing_plan_id":"cebpf4jnsgd1na2vs0mg"},{"bike_id":"0b56a93b-e284-4698-9a80-9c054c2fc3c9","system_id":"levelo_inurba_marseille","lat":43.26787,"lon":5.39078,"is_reserved":false,"is_disabled":false,"rental_uris":{"android":"levelo://app?vid=0b56a93b-e284-4698-9a80-9c054c2fc3c9","ios":"levelo://app?vid=0b56a93b-e284-4698-9a80-9c054c2fc3c9"},"vehicle_type_id":"4","last_reported":1756221062,"current_range_meters":20400,"station_id":"","pricing_plan_id":"cebpf4jnsgd1na2vs0mg"},{"bike_id":"5e8647dc-f793-4383-8816-2f6214e79c60","system_id":"levelo_inurba_marseille","lat":43.29101,"lon":5.38154,"is_reserved":false,"is_disabled":false,"rental_uris":{"android":"levelo://app?vid=5e8647dc-f793-4383-8816-2f6214e79c60","ios":"levelo://app?vid=5e8647dc-f793-4383-8816-2f6214e79c60"},"vehicle_type_id":"4","last_reported":1756221062,"current_range_meters":20000,"station_id":"ce4bh512rcd13ifvqe2g","pricing_plan_id":"cebpf4jnsgd1na2vs0mg"},{"bike_id":"59cb1d66-e8fa-40c7-a382-cc2758820b0a","system_id":"levelo_inurba_marseille","lat":43.24181,"lon":5.36391,"is_reserved":false,"is_disabled":false,"rental_uris":{"android":"levelo://app?vid=59cb1d66-e8fa-40c7-a382-cc2758820b0a","ios":"levelo://app?vid=59cb1d66-e8fa-40c7-a382-cc2758820b0a"},"vehicle_type_id":"4","last_reported":1756221062,"current_range_meters":20400,"station_id":"cpo36qri1sfpv3e86is0","pricing_plan_id":"cebpf4jnsgd1na2vs0mg"},{"bike_id":"e564862f-31e7-4d3c-a6d9-15762769e435","system_id":"levelo_inurba_marseille","lat":43.2952,"lon":5.37534,"is_reserved":false,"is_disabled":true,"rental_uris":{"android":"levelo://app?vid=e564862f-31e7-4d3c-a6d9-15762769e435","ios":"levelo://app?vid=e564862f-31e7-4d3c-a6d9-15762769e435"},"vehicle_type_id":"4","last_reported":1756221062,"current_range_meters":20400,"station_id":"ce4bgkp2rcd13ifvqbmg","pricing_plan_id":"cebpf4jnsgd1na2vs0mg"},{"bike_id":"108b622f-741f-46bc-a63e-f53025af3542","system_id":"levelo_inurba_marseille","lat":43.2396,"lon":5.36637,"is_reserved":false,"is_disabled":false,"rental_uris":{"android":"levelo://app?vid=108b622f-741f-46bc-a63e-f53025af3542","ios":"levelo://app?vid=108b622f-741f-46bc-a63e-f53025af3542"},"vehicle_type_id":"4","last_reported":1756221062,"current_range_meters":20800,"station_id":"ce4bhi12rcd13ifvqfp0","pricing_plan_id":"cebpf4jnsgd1na2vs0mg"},{"bike_id":"215b611b-8ae2-48b4-be08-3ec8e923bab6","system_id":"levelo_inurba_marseille","lat":43.28711,"lon":5.3738,"is_reserved":false,"is_disabled":false,"rental_uris":{"android":"levelo://app?vid=215b611b-8ae2-48b4-be08-3ec8e923bab6","ios":"levelo://app?vid=215b611b-8ae2-48b4-be08-3ec8e923bab6"},"vehicle_type_id":"4","last_reported":1756221062,"current_range_meters":20800,"station_id":"ce4bh3p2rcd13ifvqdq0","pricing_plan_id":"cebpf4jnsgd1na2vs0mg"},{"bike_id":"d810acf0-5bd2-4bf1-848d-31cd30d105e6","system_id":"levelo_inurba_marseille","lat":43.269831,"lon":5.392782,"is_reserved":false,"is_disabled":false,"rental_uris":{"android":"levelo://app?vid=d810acf0-5bd2-4bf1-848d-31cd30d105e6","ios":"levelo://app?vid=d810acf0-5bd2-4bf1-848d-31cd30d105e6"},"vehicle_type_id":"4","last_reported":1756221062,"current_range_meters":20800,"station_id":"","pricing_plan_id":"cebpf4jnsgd1na2vs0mg"},{"bike_id":"904f05ff-c368-4be0-b134-ffd7afc69cc7","system_id":"levelo_inurba_marseille","lat":43.29557,"lon":5.42302,"is_reserved":false,"is_disabled":false,"rental_uris":{"android":"levelo://app?vid=904f05ff-c368-4be0-b134-ffd7afc69cc7","ios":"levelo://app?vid=904f05ff-c368-4be0-b134-ffd7afc69cc7"},"vehicle_type_id":"4","last_reported":1756221062,"current_range_meters":20800,"station_id":"ce4bhph2rcd13ifvqhdg","pricing_plan_id":"cebpf4jnsgd1na2vs0mg"},{"bike_id":"4c82beab-1cad-46f7-a8ca-eb8dcbd949ef","system_id":"levelo_inurba_marseille","lat":43.275786,"lon":5.396844,"is_reserved":false,"is_disabled":false,"rental_uris":{"android":"levelo://app?vid=4c82beab-1cad-46f7-a8ca-eb8dcbd949ef","ios":"levelo://app?vid=4c82beab-1cad-46f7-a8ca-eb8dcbd949ef"},"vehicle_type_id":"4","last_reported":1756221062,"current_range_meters":20800,"station_id":"","pricing_plan_id":"cebpf4jnsgd1na2vs0mg"},{"bike_id":"cf44f32b-1964-4811-8ce6-1b7355783063","system_id":"levelo_inurba_marseille","lat":43.24078,"lon":5.37757,"is_reserved":false,"is_disabled":false,"rental_uris":{"android":"levelo://app?vid=cf44f32b-1964-4811-8ce6-1b7355783063","ios":"levelo://app?vid=cf44f32b-1964-4811-8ce6-1b7355783063"},"vehicle_type_id":"4","last_reported":1756221062,"current_range_meters":20800,"station_id":"ce4bhnp2rcd13ifvqgvg","pricing_plan_id":"cebpf4jnsgd1na2vs0mg"},{"bike_id":"dadd64d7-1bb5-418c-948c-52a4f4cd8997","system_id":"levelo_inurba_marseille","lat":43.282658,"lon":5.350602,"is_reserved":false,"is_disabled":false,"rental_uris":{"android":"levelo://app?vid=dadd64d7-1bb5-418c-948c-52a4f4cd8997","ios":"levelo://app?vid=dadd64d7-1bb5-418c-948c-52a4f4cd8997"},"vehicle_type_id":"4","last_reported":1756221062,"current_range_meters":20800,"station_id":"ce4bhbp2rcd13ifvqerg","pricing_plan_id":"cebpf4jnsgd1na2vs0mg"},{"bike_id":"bf583e56-1dc7-4388-98af-2d219b5356b6","system_id":"levelo_inurba_marseille","lat":43.28277,"lon":5.35063,"is_reserved":false,"is_disabled":false,"rental_uris":{"android":"levelo://app?vid=bf583e56-1dc7-4388-98af-2d219b5356b6","ios":"levelo://app?vid=bf583e56-1dc7-4388-98af-2d219b5356b6"},"vehicle_type_id":"4","last_reported":1756221062,"current_range_meters":20800,"station_id":"ce4bhbp2rcd13ifvqerg","pricing_plan_id":"cebpf4jnsgd1na2vs0mg"},{"bike_id":"2624aae5-9ba3-4f09-8178-030b99ca9a56","system_id":"levelo_inurba_marseille","lat":43.297184,"lon":5.369639,"is_reserved":false,"is_disabled":false,"rental_uris":{"android":"levelo://app?vid=2624aae5-9ba3-4f09-8178-030b99ca9a56","ios":"levelo://app?vid=2624aae5-9ba3-4f09-8178-030b99ca9a56"},"vehicle_type_id":"4","last_reported":1756221062,"current_range_meters":20800,"station_id":"","pricing_plan_id":"cebpf4jnsgd1na2vs0mg"},{"bike_id":"5fe496b6-619b-4a0b-afa5-698a2e4c9aef","system_id":"levelo_inurba_marseille","lat":43.30377,"lon":5.42481,"is_reserved":false,"is_disabled":false,"rental_uris":{"android":"levelo://app?vid=5fe496b6-619b-4a0b-afa5-698a2e4c9aef","ios":"levelo://app?vid=5fe496b6-619b-4a0b-afa5-698a2e4c9aef"},"vehicle_type_id":"4","last_reported":1756221062,"current_range_meters":21600,"station_id":"ce4bhoh2rcd13ifvqh6g","pricing_plan_id":"cebpf4jnsgd1na2vs0mg"},{"bike_id":"bc713be5-8037-44f5-8b50-9f3154bd6814","system_id":"levelo_inurba_marseille","lat":43.29307,"lon":5.37472,"is_reserved":false,"is_disabled":false,"rental_uris":{"android":"levelo://app?vid=bc713be5-8037-44f5-8b50-9f3154bd6814","ios":"levelo://app?vid=bc713be5-8037-44f5-8b50-9f3154bd6814"},