{"last_updated":1728634355,"ttl":60,"version":"2.2","data":{"bikes":[{"bike_id":"c34082b9-8125-4e21-96ba-89284316e611","system_id":"levelo_inurba_marseille","lat":43.23154,"lon":5.43701,"is_reserved":false,"is_disabled":false,"rental_uris":{"android":"levelo://app?vid=c34082b9-8125-4e21-96ba-89284316e611","ios":"levelo://app?vid=c34082b9-8125-4e21-96ba-89284316e611"},"vehicle_type_id":"4","last_reported":1728634355,"current_range_meters":33200,"station_id":"ce4bhmp2rcd13ifvqgog","pricing_plan_id":"cebpf4jnsgd1na2vs0mg"},{"bike_id":"aabfad40-8505-40ce-9267-07d9b83d8188","system_id":"levelo_inurba_marseille","lat":43.29914,"lon":5.37461,"is_reserved":false,"is_disabled":false,"rental_uris":{"android":"levelo://app?vid=aabfad40-8505-40ce-9267-07d9b83d8188","ios":"levelo://app?vid=aabfad40-8505-40ce-9267-07d9b83d8188"},"vehicle_type_id":"4","last_reported":1728634355,"current_range_meters":30800,"station_id":"ce4bgjh2rcd13ifvqbg0","pricing_plan_id":"cebpf4jnsgd1na2vs0mg"},{"bike_id":"2714432e-762e-410f-8db0-6576bd675293","system_id":"levelo_inurba_marseille","lat":43.337444,"lon":5.374475,"is_reserved":false,"is_disabled":false,"rental_uris":{"android":"levelo://app?vid=2714432e-762e-410f-8db0-6576bd675293","ios":"levelo://app?vid=2714432e-762e-410f-8db0-6576bd675293"},"vehicle_type_id":"4","last_reported":1728634355,"current_range_meters":38000,"station_id":"","pricing_plan_id":"cebpf4jnsgd1na2vs0mg"},{"bike_id":"ce3d5dbb-eed0-448d-a319-b855acba4210","system_id":"levelo_inurba_marseille","lat":43.29914,"lon":5.37467,"is_reserved":false,"is_disabled":false,"rental_uris":{"android":"levelo://app?vid=ce3d5dbb-eed0-448d-a319-b855acba4210","ios":"levelo://app?vid=ce3d5dbb-eed0-448d-a319-b855acba4210"},"vehicle_type_id":"4","last_reported":1728634355,"current_range_meters":16400,"station_id":"ce4bgjh2rcd13ifvqbg0","pricing_plan_id":"cebpf4jnsgd1na2vs0mg"},{"bike_id":"c0b880de-9452-4986-9101-27057b3ba16f","system_id":"levelo_inurba_marseille","lat":43.28941,"lon":5.36395,"is_reserved":false,"is_disabled":false,"rental_uris":{"android":"levelo://app?vid=c0b880de-9452-4986-9101-27057b3ba16f","ios":"levelo://app?vid=c0b880de-9452-4986-9101-27057b3ba16f"},"vehicle_type_id":"4","last_reported":1728634355,"current_range_meters":22800,"station_id":"ce4bgh92rcd13ifvqb50","pricing_plan_id":"cebpf4jnsgd1na2vs0mg"},{"bike_id":"81a94aa0-1345-4656-900c-180819b6bae9","system_id":"levelo_inurba_marseille","lat":43.33617,"lon":5.4103,"is_reserved":false,"is_disabled":false,"rental_uris":{"android":"levelo://app?vid=81a94aa0-1345-4656-900c-180819b6bae9","ios":"levelo://app?vid=81a94aa0-1345-4656-900c-180819b6bae9"},"vehicle_type_id":"4","last_reported":1728634355,"current_range_meters":36000,"station_id":"ce4bhqh2rcd13ifvqhmg","pricing_plan_id":"cebpf4jnsgd1na2vs0mg"},{"bike_id":"32dd9cc1-ba92-4904-af0f-59d0790bad1b","system_id":"levelo_inurba_marseille","lat":43.32537,"lon":5.41429,"is_reserved":false,"is_disabled":false,"rental_uris":{"android":"levelo://app?vid=32dd9cc1-ba92-4904-af0f-59d0790bad1b","ios":"levelo://app?vid=32dd9cc1-ba92-4904-af0f-59d0790bad1b"},"vehicle_type_id":"4","last_reported":1728634355,"current_range_meters":25200,"station_id":"ce4bhq12rcd13ifvqhhg","pricing_plan_id":"cebpf4jnsgd1na2vs0mg"},{"bike_id":"4f1ac9db-36fd-4126-b3cc-b859636a6a29","system_id":"levelo_inurba_marseille","lat":43.22928,"lon":5.35375,"is_reserved":false,"is_disabled":false,"rental_uris":{"android":"levelo://app?vid=4f1ac9db-36fd-4126-b3cc-b859636a6a29","ios":"levelo://app?vid=4f1ac9db-36fd-4126-b3cc-b859636a6a29"},"vehicle_type_id":"4","last_reported":1728634355,"current_range_meters":25600,"station_id":"cpo3532slgdg3j2ikp40","pricing_plan_id":"cebpf4jnsgd1na2vs0mg"},{"bike_id":"0caec71a-b237-4d1f-a6f7-44e97f489420","system_id":"levelo_inurba_marseille","lat":43.28339,"lon":5.38108,"is_reserved":false,"is_disabled":false,"rental_uris":{"android":"levelo://app?vid=0caec71a-b237-4d1f-a6f7-44e97f489420","ios":"levelo://app?vid=0caec71a-b237-4d1f-a6f7-44e97f489420"},"vehicle_type_id":"4","last_reported":1728634355,"current_range_meters":20000,"station_id":"ce4bh412rcd13ifvqdr0","pricing_plan_id":"cebpf4jnsgd1na2vs0mg"},{"bike_id":"77689480-1102-4362-9bd6-4215d753152c","system_id":"levelo_inurba_marseille","lat":43.24077,"lon":5.37756,"is_reserved":false,"is_disabled":false,"rental_uris":{"android":"levelo://app?vid=77689480-1102-4362-9bd6-4215d753152c","ios":"levelo://app?vid=77689480-1102-4362-9bd6-4215d753152c"},"vehicle_type_id":"4","last_reported":1728634355,"current_range_meters":18800,"station_id":"ce4bhnp2rcd13ifvqgvg","pricing_plan_id":"cebpf4jnsgd1na2vs0mg"},{"bike_id":"0183368c-96d7-4f89-82c5-74922cac2536","system_id":"levelo_inurba_marseille","lat":43.24079,"lon":5.37752,"is_reserved":false,"is_disabled":false,"rental_uris":{"android":"levelo://app?vid=0183368c-96d7-4f89-82c5-74922cac2536","ios":"levelo://app?vid=0183368c-96d7-4f89-82c5-74922cac2536"},"vehicle_type_id":"4","last_reported":1728634355,"current_range_meters":19200,"station_id":"ce4bhnp2rcd13ifvqgvg","pricing_plan_id":"cebpf4jnsgd1na2vs0mg"},{"bike_id":"78545a56-8c6d-4801-87b8-fc882a3cb7a0","system_id":"levelo_inurba_marseille","lat":43.25007,"lon":5.38186,"is_reserved":false,"is_disabled":false,"rental_uris":{"android":"levelo://app?vid=78545a56-8c6d-4801-87b8-fc882a3cb7a0","ios":"levelo://app?vid=78545a56-8c6d-4801-87b8-fc882a3cb7a0"},"vehicle_type_id":"4","last_reported":1728634355,"current_range_meters":26000,"station_id":"","pricing_plan_id":"cebpf4jnsgd1na2vs0mg"},{"bike_id":"58714ee7-544a-4419-b22f-d7e363d45639","system_id":"levelo_inurba_marseille","lat":43.24084,"lon":5.37753,"is_reserved":false,"is_disabled":false,"rental_uris":{"android":"levelo://app?vid=58714ee7-544a-4419-b22f-d7e363d45639","ios":"levelo://app?vid=58714ee7-544a-4419-b22f-d7e363d45639"},"vehicle_type_id":"4","last_reported":1728634355,"current_range_meters":16800,"station_id":"ce4bhnp2rcd13ifvqgvg","pricing_plan_id":"cebpf4jnsgd1na2vs0mg"},{"bike_id":"de2fefe7-ec38-4c33-9087-6bdff6c0e489","system_id":"levelo_inurba_marseille","lat":43.27067,"lon":5.42275,"is_reserved":false,"is_disabled":false,"rental_uris":{"android":"levelo://app?vid=de2fefe7-ec38-4c33-9087-6bdff6c0e489","ios":"levelo://app?vid=de2fefe7-ec38-4c33-9087-6bdff6c0e489"},"vehicle_type_id":"4","last_reported":1728634355,"current_range_meters":16000,"station_id":"ce4bhk92rcd13ifvqgb0","pricing_plan_id":"cebpf4jnsgd1na2vs0mg"},{"bike_id":"57ed5e31-5bd5-4958-9e4a-8a539ad2ba3a","system_id":"levelo_inurba_marseille","lat":43.30152,"lon":5.38092,"is_reserved":false,"is_disabled":false,"rental_uris":{"android":"levelo://app?vid=57ed5e31-5bd5-4958-9e4a-8a539ad2ba3a","ios":"levelo://app?vid=57ed5e31-5bd5-4958-9e4a-8a539ad2ba3a"},"vehicle_type_id":"4","last_reported":1728634355,"current_range_meters":34800,"station_id":"ce4bgjp2rcd13ifvqbh0","pricing_plan_id":"cebpf4jnsgd1na2vs0mg"},{"bike_id":"5ce2a66a-b949-4239-ae17-6ee1644fc5f2","system_id":"levelo_inurba_marseille","lat":43.25494,"lon":5.37649,"is_reserved":false,"is_disabled":false,"rental_uris":{"android":"levelo://app?vid=5ce2a66a-b949-4239-ae17-6ee1644fc5f2","ios":"levelo://app?vid=5ce2a66a-b949-4239-ae17-6ee1644fc5f2"},"vehicle_type_id":"4","last_reported":1728634355,"current_range_meters":16000,"station_id":"ce4bhh12rcd13ifvqff0","pricing_plan_id":"cebpf4jnsgd1na2vs0mg"},{"bike_id":"6cb2fd54-0aca-4f7d-aadb-bc057dc4fb59","system_id":"levelo_inurba_marseille","lat":43.23067,"lon":5.35491,"is_reserved":false,"is_disabled":false,"rental_uris":{"android":"levelo://app?vid=6cb2fd54-0aca-4f7d-aadb-bc057dc4fb59","ios":"levelo://app?vid=6cb2fd54-0aca-4f7d-aadb-bc057dc4fb59"},"vehicle_type_id":"4","last_reported":1728634355,"current_range_meters":28800,"station_id":"cpo3342slgdg3j2ifvpg","pricing_plan_id":"cebpf4jnsgd1na2vs0mg"},{"bike_id":"d20b4248-35bc-4039-8d5f-bfdece89d8fb","system_id":"levelo_inurba_marseille","lat":43.31218,"lon":5.36887,"is_reserved":false,"is_disabled":false,"rental_uris":{"android":"levelo://app?vid=d20b4248-35bc-4039-8d5f-bfdece89d8fb","ios":"levelo://app?vid=d20b4248-35bc-4039-8d5f-bfdece89d8fb"},"vehicle_type_id":"4","last_reported":1728634355,"current_range_meters":20400,"station_id":"ce4bgl92rcd13ifvqbq0","pricing_plan_id":"cebpf4jnsgd1na2vs0mg"},{"bike_id":"8a5b71a0-ac22-4083-8b31-522f91e7129c","system_id":"levelo_inurba_marseille","lat":43.26689,"lon":5.39601,"is_reserved":false,"is_disabled":false,"rental_uris":{"android":"levelo://app?vid=8a5b71a0-ac22-4083-8b31-522f91e7129c","ios":"levelo://app?vid=8a5b71a0-ac22-4083-8b31-522f91e7129c"},"vehicle_type_id":"4","last_reported":1728634355,"current_range_meters":30800,"station_id":"","pricing_plan_id":"cebpf4jnsgd1na2vs0mg"},{"bike_id":"976dc33d-4f90-4788-ac00-33c358d3c2e8","system_id":"levelo_inurba_marseille","lat":43.30474,"lon":5.37899,"is_reserved":false,"is_disabled":false,"rental_uris":{"android":"levelo://app?vid=976dc33d-4f90-4788-ac00-33c358d3c2e8","ios":"levelo://app?vid=976dc33d-4f90-4788-ac00-33c358d3c2e8"},"vehicle_type_id":"4","last_reported":1728634355,"current_range_meters":33600,"station_id":"ce4bgup2rcd13ifvqcn0","pricing_plan_id":"cebpf4jnsgd1na2vs0mg"},{"bike_id":"7ae79265-a4f3-408c-9c9a-ba4aa51d6423","system_id":"levelo_inurba_marseille","lat":43.24666,"lon":5.38158,"is_reserved":false,"is_disabled":false,"rental_uris":{"android":"levelo://app?vid=7ae79265-a4f3-408c-9c9a-ba4aa51d6423","ios":"levelo://app?vid=7ae79265-a4f3-408c-9c9a-ba4aa51d6423"},"vehicle_type_id":"4","last_reported":1728634355,"current_range_meters":35600,"station_id":"ce4bhih2rcd13ifvqfr0","pricing_plan_id":"cebpf4jnsgd1na2vs0mg"},{"bike_id":"2909648b-39f2-4b1f-bb7d-ba41a7b3f5aa","system_id":"levelo_inurba_marseille","lat":43.28468,"lon":5.38415,"is_reserved":false,"is_disabled":false,"rental_uris":{"android":"levelo://app?vid=2909648b-39f2-4b1f-bb7d-ba41a7b3f5aa","ios":"levelo://app?vid=2909648b-39f2-4b1f-bb7d-ba41a7b3f5aa"},"vehicle_type_id":"4","last_reported":1728634355,"current_range_meters":8800,"station_id":"ce4bh512rcd13ifvqe3g","pricing_plan_id":"cebpf4jnsgd1na2vs0mg"},{"bike_id":"c0a7cc04-d44f-4fee-bfa6-9c2c8bef66d2","system_id":"levelo_inurba_marseille","lat":43.30149,"lon":5.38079,"is_reserved":false,"is_disabled":false,"rental_uris":{"android":"levelo://app?vid=c0a7cc04-d44f-4fee-bfa6-9c2c8bef66d2","ios":"levelo://app?vid=c0a7cc04-d44f-4fee-bfa6-9c2c8bef66d2"},"vehicle_type_id":"4","last_reported":1728634355,"current_range_meters":29600,"station_id":"ce4bgjp2rcd13ifvqbh0","pricing_plan_id":"cebpf4jnsgd1na2vs0mg"},{"bike_id":"ae32036e-6ed7-468f-b050-acdf92171761","system_id":"levelo_inurba_marseille","lat":43.28472,"lon":5.3841,"is_reserved":false,"is_disabled":false,"rental_uris":{"android":"levelo://app?vid=ae32036e-6ed7-468f-b050-acdf92171761","ios":"levelo://app?vid=ae32036e-6ed7-468f-b050-acdf92171761"},"vehicle_type_id":"4","last_reported":1728634355,"current_range_meters":33200,"station_id":"ce4bh512rcd13ifvqe3g","pricing_plan_id":"cebpf4jnsgd1na2vs0mg"},{"bike_id":"34ce14c0-f173-4074-8103-4e09e52b3938","system_id":"levelo_inurba_marseille","lat":43.26199,"lon":5.37931,"is_reserved":false,"is_disabled":false,"rental_uris":{"android":"levelo://app?vid=34ce14c0-f173-4074-8103-4e09e52b3938","ios":"levelo://app?vid=34ce14c0-f173-4074-8103-4e09e52b3938"},"vehicle_type_id":"4","last_reported":1728634355,"current_range_meters":35600,"station_id":"ce4bhjp2rcd13ifvqg90","pricing_plan_id":"cebpf4jnsgd1na2vs0mg"},{"bike_id":"ca44bbef-63c7-4764-92c7-e94b5cb063c2","system_id":"levelo_inurba_marseille","lat":43.24808,"lon":5.37454,"is_reserved":false,"is_disabled":false,"rental_uris":{"android":"levelo://app?vid=ca44bbef-63c7-4764-92c7-e94b5cb063c2","ios":"levelo://app?vid=ca44bbef-63c7-4764-92c7-e94b5cb063c2"},"vehicle_type_id":"4","last_reported":1728634355,"current_range_meters":38400,"station_id":"ce4bhgh2rcd13ifvqfb0","pricing_plan_id":"cebpf4jnsgd1na2vs0mg"},{"bike_id":"5c89462a-42e9-4fe1-a27a-2bc821d0f4d0","system_id":"levelo_inurba_marseille","lat":43.33776,"lon":5.37422,"is_reserved":false,"is_disabled":false,"rental_uris":{"android":"levelo://app?vid=5c89462a-42e9-4fe1-a27a-2bc821d0f4d0","ios":"levelo://app?vid=5c89462a-42e9-4fe1-a27a-2bc821d0f4d0"},"vehicle_type_id":"4","last_reported":1728634355,"current_range_meters":10000,"station_id":"","pricing_plan_id":"cebpf4jnsgd1na2vs0mg"},{"bike_id":"6263b5e7-a650-4296-9fb0-90f51dbfadaf","system_id":"levelo_inurba_marseille","lat":43.27428,"lon":5.39407,"is_reserved":false,"is_disabled":false,"rental_uris":{"android":"levelo://app?vid=6263b5e7-a650-4296-9fb0-90f51dbfadaf","ios":"levelo://app?vid=6263b5e7-a650-4296-9fb0-90f51dbfadaf"},"vehicle_type_id":"4","last_reported":1728634355,"current_range_meters":18800,"station_id":"ce4bhdp2rcd13ifvqf20","pricing_plan_id":"cebpf4jnsgd1na2vs0mg"},{"bike_id":"b1506b2f-63d6-4e59-9e59-7ce6b862262a","system_id":"levelo_inurba_marseille","lat":43.32481,"lon":5.36568,"is_reserved":false,"is_disabled":false,"rental_uris":{"android":"levelo://app?vid=b1506b2f-63d6-4e59-9e59-7ce6b862262a","ios":"levelo://app?vid=b1506b2f-63d6-4e59-9e59-7ce6b862262a"},"vehicle_type_id":"4","last_reported":1728634355,"current_range_meters":24800,"station_id":"ce4bhs12rcd13ifvqhvg","pricing_plan_id":"cebpf4jnsgd1na2vs0mg"},{"bike_id":"f21ff7cf-a5e7-4036-9a78-a2aa83b6340b","system_id":"levelo_inurba_marseille","lat":43.23196,"lon":5.35547,"is_reserved":false,"is_disabled":false,"rental_uris":{"android":"levelo://app?vid=f21ff7cf-a5e7-4036-9a78-a2aa83b6340b","ios":"levelo://app?vid=f21ff7cf-a5e7-4036-9a78-a2aa83b6340b"},"vehicle_type_id":"4","last_reported":1728634355,"current_range_meters":36800,"station_id":"ce4bhu92rcd13ifvqi70","pricing_plan_id":"cebpf4jnsgd1na2vs0mg"},{"bike_id":"9f5aa901-38f1-445f-8c3a-50cd9008d013","system_id":"levelo_inurba_marseille","lat":43.29285,"lon":5.37467,"is_reserved":false,"is_disabled":false,"rental_uris":{"android":"levelo://app?vid=9f5aa901-38f1-445f-8c3a-50cd9008d013","ios":"levelo://app?vid=9f5aa901-38f1-445f-8c3a-50cd9008d013"},"vehicle_type_id":"4","last_reported":1728634355,"current_range_meters":36800,"station_id":"ce4bgi12rcd13ifvqb70","pricing_plan_id":"cebpf4jnsgd1na2vs0mg"},{"bike_id":"58670b42-e2a3-4d53-b097-cebf5e851be7","system_id":"levelo_inurba_marseille","lat":43.33752,"lon":5.37458,"is_reserved":false,"is_disabled":false,"rental_uris":{"android":"levelo://app?vid=58670b42-e2a3-4d53-b097-cebf5e851be7","ios":"levelo://app?vid=58670b42-e2a3-4d53-b097-cebf5e851be7"},"vehicle_type_id":"4","last_reported":1728634355,"current_range_meters":28800,"station_id":"","pricing_plan_id":"cebpf4jnsgd1na2vs0mg"},{"bike_id":"cff5374c-aa07-46df-a0b1-ce6c4e44bddd","system_id":"levelo_inurba_marseille","lat":43.26687,"lon":5.38271,"is_reserved":false,"is_disabled":false,"rental_uris":{"android":"levelo://app?vid=cff5374c-aa07-46df-a0b1-ce6c4e44bddd","ios":"levelo://app?vid=cff5374c-aa07-46df-a0b1-ce6c4e44bddd"},"vehicle_type_id":"4","last_reported":1728634355,"current_range_meters":29600,"station_id":"ce4bhg92rcd13ifvqf90","pricing_plan_id":"cebpf4jnsgd1na2vs0mg"},{"bike_id":"3e86ee2e-a978-49f1-bffd-246c2558f08d","system_id":"levelo_inurba_marseille","lat":43.28726,"lon":5.36081,"is_reserved":false,"is_disabled":false,"rental_uris":{"android":"levelo://app?vid=3e86ee2e-a978-49f1-bffd-246c2558f08d","ios":"levelo://app?vid=3e86ee2e-a978-49f1-bffd-246c2558f08d"},"vehicle_type_id":"4","last_reported":1728634355,"current_range_meters":27600,"station_id":"cki0cbj6b192h4jlfktg","pricing_plan_id":"cebpf4jnsgd1na2vs0mg"},{"bike_id":"e05e04f4-e651-424c-a6aa-8f864e46be12","system_id":"levelo_inurba_marseille","lat":43.28418,"lon":5.34995,"is_reserved":false,"is_disabled":false,"rental_uris":{"android":"levelo://app?vid=e05e04f4-e651-424c-a6aa-8f864e46be12","ios":"levelo://app?vid=e05e04f4-e651-424c-a6aa-8f864e46be12"},"vehicle_type_id":"4","last_reported":1728634355,"current_range_meters":6800,"station_id":"ce4bhbh2rcd13ifvqepg","pricing_plan_id":"cebpf4jnsgd1na2vs0mg"},{"bike_id":"82e67fec-2a76-4bf9-acb4-a8a0bef84de9","system_id":"levelo_inurba_marseille","lat":43.33775,"lon":5.37451,"is_reserved":false,"is_disabled":false,"rental_uris":{"android":"levelo://app?vid=82e67fec-2a76-4bf9-acb4-a8a0bef84de9","ios":"levelo://app?vid=82e67fec-2a76-4bf9-acb4-a8a0bef84de9"},"vehicle_type_id":"4","last_reported":1728634355,"current_range_meters":37600,"station_id":"","pricing_plan_id":"cebpf4jnsgd1na2vs0mg"},{"bike_id":"a0efacd8-e569-45d0-a5c7-9ef3274c0675","system_id":"levelo_inurba_marseille","lat":43.23154,"lon":5.43702,"is_reserved":false,"is_disabled":false,"rental_uris":{"android":"levelo://app?vid=a0efacd8-e569-45d0-a5c7-9ef3274c0675","ios":"levelo://app?vid=a0efacd8-e569-45d0-a5c7-9ef3274c0675"},"vehicle_type_id":"4","last_reported":1728634355,"current_range_meters":27200,"station_id":"ce4bhmp2rcd13ifvqgog","pricing_plan_id":"cebpf4jnsgd1na2vs0mg"},{"bike_id":"5f77f637-4178-4039-bec1-a7e349f0937e","system_id":"levelo_inurba_marseille","lat":43.29521,"lon":5.37516,"is_reserved":false,"is_disabled":false,"rental_uris":{"android":"levelo://app?vid=5f77f637-4178-4039-bec1-a7e349f0937e","ios":"levelo://app?vid=5f77f637-4178-4039-bec1-a7e349f0937e"},"vehicle_type_id":"4","last_reported":1728634355,"current_range_meters":20400,"station_id":"ce4bgkp2rcd13ifvqbmg","pricing_plan_id":"cebpf4jnsgd1na2vs0mg"},{"bike_id":"01750896-b2db-4c38-9a8c-43179ce15f3e","system_id":"levelo_inurba_marseille","lat":43.28943,"lon":5.36636,"is_reserved":false,"is_disabled":false,"rental_uris":{"android":"levelo://app?vid=01750896-b2db-4c38-9a8c-43179ce15f3e","ios":"levelo://app?vid=01750896-b2db-4c38-9a8c-43179ce15f3e"},"vehicle_type_id":"4","last_reported":1728634355,"current_range_meters":20800,"station_id":"ce4bhap2rcd13ifvqek0","pricing_plan_id":"cebpf4jnsgd1na2vs0mg"},{"bike_id":"9db4d985-7949-4b7f-b898-6a0ca7ba3693","system_id":"levelo_inurba_marseille","lat":43.28415,"lon":5.35,"is_reserved":false,"is_disabled":false,"rental_uris":{"android":"levelo://app?vid=9db4d985-7949-4b7f-b898-6a0ca7ba3693","ios":"levelo://app?vid=9db4d985-7949-4b7f-b898-6a0ca7ba3693"},"vehicle_type_id":"4","last_reported":1728634355,"current_range_meters":32000,"station_id":"ce4bhbh2rcd13ifvqepg","pricing_plan_id":"cebpf4jnsgd1na2vs0mg"},{"bike_id":"3d39173c-21d9-4ccd-a1a2-871998e246df","system_id":"levelo_inurba_marseille","lat":43.26567,"lon":5.39014,"is_reserved":false,"is_disabled":false,"rental_uris":{"android":"levelo://app?vid=3d39173c-21d9-4ccd-a1a2-871998e246df","ios":"levelo://app?vid=3d39173c-21d9-4ccd-a1a2-871998e246df"},"vehicle_type_id":"4","last_reported":1728634355,"current_range_meters":18000,"station_id":"ce4bhe12rcd13ifvqf30","pricing_plan_id":"cebpf4jnsgd1na2vs0mg"},{"bike_id":"0f26fbcc-6594-4e72-bd84-0b3e53dc6ed8","system_id":"levelo_inurba_marseille","lat":43.29568,"lon":5.37517,"is_reserved":false,"is_disabled":false,"rental_uris":{"android":"levelo://app?vid=0f26fbcc-6594-4e72-bd84-0b3e53dc6ed8","ios":"levelo://app?vid=0f26fbcc-6594-4e72-bd84-0b3e53dc6ed8"},"vehicle_type_id":"4","last_reported":1728634355,"current_range_meters":27200,"station_id":"ce4bgh92rcd13ifvqb50","pricing_plan_id":"cebpf4jnsgd1na2vs0mg"},{"bike_id":"efaeca4a-6799-413c-9dfa-9f56be9b4d5c","system_id":"levelo_inurba_marseille","lat":43.30906,"lon":5.36856,"is_reserved":false,"is_disabled":false,"rental_uris":{"android":"levelo://app?vid=efaeca4a-6799-413c-9dfa-9f56be9b4d5c","ios":"levelo://app?vid=efaeca4a-6799-413c-9dfa-9f56be9b4d5c"},"vehicle_type_id":"4","last_reported":1728634355,"current_range_meters":38000,"station_id":"ce4bgn92rcd13ifvqbvg","pricing_plan_id":"cebpf4jnsgd1na2vs0mg"},{"bike_id":"a36eb572-6a51-41d8-98a6-8a2436fa2d19","system_id":"levelo_inurba_marseille","lat":43.30915,"lon":5.36855,"is_reserved":false,"is_disabled":false,"rental_uris":{"android":"levelo://app?vid=a36eb572-6a51-41d8-98a6-8a2436fa2d19","ios":"levelo://app?vid=a36eb572-6a51-41d8-98a6-8a2436fa2d19"},"vehicle_type_id":"4","last_reported":1728634355,"current_range_meters":24400,"station_id":"ce4bgn92rcd13ifvqbvg","pricing_plan_id":"cebpf4jnsgd1na2vs0mg"},{"bike_id":"25b1fb8d-043b-40f4-aa3f-c415f5d84a10","system_id":"levelo_inurba_marseille","lat":43.31353,"lon":5.36703,"is_reserved":false,"is_disabled":false,"rental_uris":{"android":"levelo://app?vid=25b1fb8d-043b-40f4-aa3f-c415f5d84a10","ios":"levelo://app?vid=25b1fb8d-043b-40f4-aa3f-c415f5d84a10"},"vehicle_type_id":"4","last_reported":1728634355,"current_range_meters":40000,"station_id":"ce4bgr92rcd13ifvqc6g","pricing_plan_id":"cebpf4jnsgd1na2vs0mg"},{"bike_id":"c4c93f34-128e-4af1-a3c5-46d82d2220f0","system_id":"levelo_inurba_marseille","lat":43.27621,"lon":5.36109,"is_reserved":false,"is_disabled":false,"rental_uris":{"android":"levelo://app?vid=c4c93f34-128e-4af1-a3c5-46d82d2220f0","ios":"levelo://app?vid=c4c93f34-128e-4af1-a3c5-46d82d2220f0"},"vehicle_type_id":"4","last_reported":1728634355,"current_range_meters":37600,"station_id":"ce4bgj92rcd13ifvqbe0","pricing_plan_id":"cebpf4jnsgd1na2vs0mg"},{"bike_id":"d5643a18-677a-4e60-9a47-a9107bd22cc4","system_id":"levelo_inurba_marseille","lat":43.29563,"lon":5.37518,"is_reserved":false,"is_disabled":false,"rental_uris":{"android":"levelo://app?vid=d5643a18-677a-4e60-9a47-a9107bd22cc4","ios":"levelo://app?vid=d5643a18-677a-4e60-9a47-a9107bd22cc4"},"vehicle_type_id":"4","last_reported":1728634355,"current_range_meters":37600,"station_id":"ce4bgh92rcd13ifvqb50","pricing_plan_id":"cebpf4jnsgd1na2vs0mg"},{"bike_id":"c2709d8c-182c-4c66-9678-32143d413767","system_id":"levelo_inurba_marseille","lat":43.22934,"lon":5.35381,"is_reserved":false,"is_disabled":false,"rental_uris":{"android":"levelo://app?vid=c2709d8c-182c-4c66-9678-32143d413767","ios":"levelo://app?vid=c2709d8c-182c-4c66-9678-32143d413767"},"vehicle_type_id":"4","last_reported":1728634355,"current_range_meters":32000,"station_id":"cpo3532slgdg3j2ikp40","pricing_plan_id":"cebpf4jnsgd1na2vs0mg"},{"bike_id":"297df78e-c3b9-4f3d-91c7-456c86ecaea1","system_id":"levelo_inurba_marseille","lat":43.32535,"lon":5.41427,"is_reserved":false,"is_disabled":false,"rental_uris":{"android":"levelo://app?vid=297df78e-c3b9-4f3d-91c7-456c86ecaea1","ios":"levelo://app?vid=297df78e-c3b9-4f3d-91c7-456c86ecaea1"},"vehicle_type_id":"4","last_reported":1728634355,"current_range_meters":15200,"station_id":"ce4bhq12rcd13ifvqhhg","pricing_plan_id":"cebpf4jnsgd1na2vs0mg"},{"bike_id":"fe0b8395-b6de-4e4f-af79-b8965be24495","system_id":"levelo_inurba_marseille","lat":43.27837,"lon":5.39211,"is_reserved":false,"is_disabled":false,"rental_uris":{"android":"levelo://app?vid=fe0b8395-b6de-4e4f-af79-b8965be24495","ios":"levelo://app?vid=fe0b8395-b6de-4e4f-af79-b8965be24495"},"vehicle_type_id":"4","last_reported":1728634355,"current_range_meters":8000,"station_id":"ce4bhjp2rcd13ifvqga0","pricing_plan_id":"cebpf4jnsgd1na2vs0mg"},{"bike_id":"679012bb-976f-4b0e-8bc3-d5c47c03c256","system_id":"levelo_inurba_marseille","lat":43.29839,"lon":5.3627,"is_reserved":false,"is_disabled":false,"rental_uris":{"android":"levelo://app?vid=679012bb-976f-4b0e-8bc3-d5c47c03c256","ios":"levelo://app?vid=679012bb-976f-4b0e-8bc3-d5c47c03c256"},"vehicle_type_id":"4","last_reported":1728634355,"current_range_meters":30400,"station_id":"ce4bgpp2rcd13ifvqc3g","pricing_plan_id":"cebpf4jnsgd1na2vs0mg"},{"bike_id":"092023c4-00ce-4107-9e99-3058d7161d52","system_id":"levelo_inurba_marseille","lat":43.24078,"lon":5.37742,"is_reserved":false,"is_disabled":false,"rental_uris":{"android":"levelo://app?vid=092023c4-00ce-4107-9e99-3058d7161d52","ios":"levelo://app?vid=092023c4-00ce-4107-9e99-3058d7161d52"},"vehicle_type_id":"4","last_reported":1728634355,"current_range_meters":29600,"station_id":"ce4bhnp2rcd13ifvqgvg","pricing_plan_id":"cebpf4jnsgd1na2vs0mg"},{"bike_id":"396770b0-4496-43d3-b0c0-befb91870aa6","system_id":"levelo_inurba_marseille","lat":43.2931,"lon":5.3718,"is_reserved":false,"is_disabled":false,"rental_uris":{"android":"levelo://app?vid=396770b0-4496-43d3-b0c0-befb91870aa6","ios":"levelo://app?vid=396770b0-4496-43d3-b0c0-befb91870aa6"},"vehicle_type_id":"4","last_reported":1728634355,"current_range_meters":27600,"station_id":"ce4bgh92rcd13ifvqb40","pricing_plan_id":"cebpf4jnsgd1na2vs0mg"},{"bike_id":"c03e3a24-a0fd-4cfc-ab4f-b47a9abe484e","system_id":"levelo_inurba_marseille","lat":43.32537,"lon":5.41427,"is_reserved":false,"is_disabled":false,"rental_uris":{"android":"levelo://app?vid=c03e3a24-a0fd-4cfc-ab4f-b47a9abe484e","ios":"levelo://app?vid=c03e3a24-a0fd-4cfc-ab4f-b47a9abe484e"},"vehicle_type_id":"4","last_reported":1728634355,"current_range_meters":37600,"station_id":"ce4bhq12rcd13ifvqhhg","pricing_plan_id":"cebpf4jnsgd1na2vs0mg"},{"bike_id":"843e8910-1929-496a-bc6c-734abbe1836f","system_id":"levelo_inurba_marseille","lat":43.31084,"lon":5.42429,"is_reserved":false,"is_disabled":false,"rental_uris":{"android":"levelo://app?vid=843e8910-1929-496a-bc6c-734abbe1836f","ios":"levelo://app?vid=843e8910-1929-496a-bc6c-734abbe1836f"},"vehicle_type_id":"4","last_reported":1728634355,"current_range_meters":26800,"station_id":"ce4bhp92rcd13ifvqhag","pricing_plan_id":"cebpf4jnsgd1na2vs0mg"},{"bike_id":"156abcbf-3ab7-4267-a90b-debf9209ca93","system_id":"levelo_inurba_marseille","lat":43.24802,"lon":5.3746,"is_reserved":false,"is_disabled":false,"rental_uris":{"android":"levelo://app?vid=156abcbf-3ab7-4267-a90b-debf9209ca93","ios":"levelo://app?vid=156abcbf-3ab7-4267-a90b-debf9209ca93"},"vehicle_type_id":"4","last_reported":1728634355,"current_range_meters":38800,"station_id":"ce4bhgh2rcd13ifvqfb0","pricing_plan_id":"cebpf4jnsgd1na2vs0mg"},{"bike_id":"14b07fed-aacd-4f67-bc2e-4b35e6570c46","system_id":"levelo_inurba_marseille","lat":43.29215,"lon":5.40031,"is_reserved":false,"is_disabled":false,"rental_uris":{"android":"levelo://app?vid=14b07fed-aacd-4f67-bc2e-4b35e6570c46","ios":"levelo://app?vid=14b07fed-aacd-4f67-bc2e-4b35e6570c46"},"vehicle_type_id":"4","last_reported":1728634355,"current_range_meters":9200,"station_id":"","pricing_plan_id":"cebpf4jnsgd1na2vs0mg"},{"bike_id":"55b6fbb0-da4b-49c1-b47b-2460ef2cb272","system_id":"levelo_inurba_marseille","lat":43.27659,"lon":5.38889,"is_reserved":false,"is_disabled":false,"rental_uris":{"android":"levelo://app?vid=55b6fbb0-da4b-49c1-b47b-2460ef2cb272","ios":"levelo://app?vid=55b6fbb0-da4b-49c1-b47b-2460ef2cb272"},"vehicle_type_id":"4","last_reported":1728634355,"current_range_meters":38000,"station_id":"ce4bhi12rcd13ifvqfo0","pricing_plan_id":"cebpf4jnsgd1na2vs0mg"},{"bike_id":"180e0156-34c5-4e98-a6f2-e64a8258c762","system_id":"levelo_inurba_marseille","lat":43.29097,"lon":5.3812,"is_reserved":false,"is_disabled":false,"rental_uris":{"android":"levelo://app?vid=180e0156-34c5-4e98-a6f2-e64a8258c762","ios":"levelo://app?vid=180e0156-34c5-4e98-a6f2-e64a8258c762"},"vehicle_type_id":"4","last_reported":1728634355,"current_range_meters":28800,"station_id":"ce4bh512rcd13ifvqe2g","pricing_plan_id":"cebpf4jnsgd1na2vs0mg"},{"bike_id":"2f8db975-0884-4dc5-a4df-cb34c6827e2a","system_id":"levelo_inurba_marseille","lat":43.28476,"lon":5.384,"is_reserved":false,"is_disabled":false,"rental_uris":{"android":"levelo://app?vid=2f8db975-0884-4dc5-a4df-cb34c6827e2a","ios":"levelo://app?vid=2f8db975-0884-4dc5-a4df-cb34c6827e2a"},"vehicle_type_id":"4","last_reported":1728634355,"current_range_meters":8400,"station_id":"ce4bh512rcd13ifvqe3g","pricing_plan_id":"cebpf4jnsgd1na2vs0mg"},{"bike_id":"838aa671-c54c-4844-8b2b-3cb0c4c31cc3","system_id":"levelo_inurba_marseille","lat":43.292211,"lon":5.360216,"is_reserved":false,"is_disabled":false,"rental_uris":{"android":"levelo://app?vid=838aa671-c54c-4844-8b2b-3cb0c4c31cc3","ios":"levelo://app?vid=838aa671-c54c-4844-8b2b-3cb0c4c31cc3"},"vehicle_type_id":"4","last_reported":1728634355,"current_range_meters":6000,"station_id":"ce4bhb12rcd13ifvqel0","pricing_plan_id":"cebpf4jnsgd1na2vs0mg"},{"bike_id":"f92a9fb8-9f73-4cf9-bc9b-2bdf5b520248","system_id":"levelo_inurba_marseille","lat":43.32532,"lon":5.41464,"is_reserved":false,"is_disabled":false,"rental_uris":{"android":"levelo://app?vid=f92a9fb8-9f73-4cf9-bc9b-2bdf5b520248","ios":"levelo://app?vid=f92a9fb8-9f73-4cf9-bc9b-2bdf5b520248"},"vehicle_type_id":"4","last_reported":1728634355,"current_range_meters":37600,"station_id":"ce4bhq12rcd13ifvqhhg","pricing_plan_id":"cebpf4jnsgd1na2vs0mg"},{"bike_id":"2f5f3f97-7515-4583-a368-fc4adf2cf4d5","system_id":"levelo_inurba_marseille","lat":43.34144,"lon":5.40904,"is_reserved":false,"is_disabled":false,"rental_uris":{"android":"levelo://app?vid=2f5f3f97-7515-4583-a368-fc4adf2cf4d5","ios":"levelo://app?vid=2f5f3f97-7515-4583-a368-fc4adf2cf4d5"},"vehicle_type_id":"4","last_reported":1728634355,"current_range_meters":28000,"station_id":"ce4bhqh2rcd13ifvqhlg","pricing_plan_id":"cebpf4jnsgd1na2vs0mg"},{"bike_id":"d0b9bcaa-b2fd-40ff-b8d5-868dc175baf1","system_id":"levelo_inurba_marseille","lat":43.27971,"lon":5.38742,"is_reserved":false,"is_disabled":false,"rental_uris":{"android":"levelo://app?vid=d0b9bcaa-b2fd-40ff-b8d5-868dc175baf1","ios":"levelo://app?vid=d0b9bcaa-b2fd-40ff-b8d5-868dc175baf1"},"vehicle_type_id":"4","last_reported":1728634355,"current_range_meters":8800,"station_id":"ce4bhg12rcd13ifvqf80","pricing_plan_id":"cebpf4jnsgd1na2vs0mg"},{"bike_id":"66e15261-b982-4dbf-a8a5-76a158a9c1bd","system_id":"levelo_inurba_marseille","lat":43.34138,"lon":5.40911,"is_reserved":false,"is_disabled":false,"rental_uris":{"android":"levelo://app?vid=66e15261-b982-4dbf-a8a5-76a158a9c1bd","ios":"levelo://app?vid=66e15261-b982-4dbf-a8a5-76a158a9c1bd"},"vehicle_type_id":"4","last_reported":1728634355,"current_range_meters":11600,"station_id":"ce4bhqh2rcd13ifvqhlg","pricing_plan_id":"cebpf4jnsgd1na2vs0mg"},{"bike_id":"c70219f7-6d6e-423c-b782-64f1171e967e","system_id":"levelo_inurba_marseille","lat":43.28465,"lon":5.38424,"is_reserved":false,"is_disabled":false,"rental_uris":{"android":"levelo://app?vid=c70219f7-6d6e-423c-b782-64f1171e967e","ios":"levelo://app?vid=c70219f7-6d6e-423c-b782-64f1171e967e"},"vehicle_type_id":"4","last_reported":1728634355,"current_range_meters":8400,"station_id":"ce4bh512rcd13ifvqe3g","pricing_plan_id":"cebpf4jnsgd1na2vs0mg"},{"bike_id":"71afc88c-f31a-4d35-8f41-3a6da9afe2a7","system_id":"levelo_inurba_marseille","lat":43.33724,"lon":5.39185,"is_reserved":false,"is_disabled":false,"rental_uris":{"android":"levelo://app?vid=71afc88c-f31a-4d35-8f41-3a6da9afe2a7","ios":"levelo://app?vid=71afc88c-f31a-4d35-8f41-3a6da9afe2a7"},"vehicle_type_id":"4","last_reported":1728634355,"current_range_meters":29600,"station_id":"ce4bhr92rcd13ifvqhsg","pricing_plan_id":"cebpf4jnsgd1na2vs0mg"},{"bike_id":"50aa4af7-94b4-48c9-959d-eeec3eaec001","system_id":"levelo_inurba_marseille","lat":43.23197,"lon":5.35547,"is_reserved":false,"is_disabled":false,"rental_uris":{"android":"levelo://app?vid=50aa4af7-94b4-48c9-959d-eeec3eaec001","ios":"levelo://app?vid=50aa4af7-94b4-48c9-959d-eeec3eaec001"},"vehicle_type_id":"4","last_reported":1728634355,"current_range_meters":37600,"station_id":"ce4bhu92rcd13ifvqi70","pricing_plan_id":"cebpf4jnsgd1na2vs0mg"},{"bike_id":"0ace1cd1-500c-4e0d-88de-cf19c2e20039","system_id":"levelo_inurba_marseille","lat":43.30213,"lon":5.39481,"is_reserved":false,"is_disabled":false,"rental_uris":{"android":"levelo://app?vid=0ace1cd1-500c-4e0d-88de-cf19c2e20039","ios":"levelo://app?vid=0ace1cd1-500c-4e0d-88de-cf19c2e20039"},"vehicle_type_id":"4","last_reported":1728634355,"current_range_meters":37600,"station_id":"","pricing_plan_id":"cebpf4jnsgd1na2vs0mg"},{"bike_id":"dade3d2f-3f22-4b1e-92c9-4504fc72033e","system_id":"levelo_inurba_marseille","lat":43.26946,"lon":5.38631,"is_reserved":false,"is_disabled":false,"rental_uris":{"android":"levelo://app?vid=dade3d2f-3f22-4b1e-92c9-4504fc72033e","ios":"levelo://app?vid=dade3d2f-3f22-4b1e-92c9-4504fc72033e"},"vehicle_type_id":"4","last_reported":1728634355,"current_range_meters":27600,"station_id":"ce4bhh92rcd13ifvqfh0","pricing_plan_id":"cebpf4jnsgd1na2vs0mg"},{"bike_id":"38811800-990c-4b4f-93b0-519c6d818a43","system_id":"levelo_inurba_marseille","lat":43.33605,"lon":5.41027,"is_reserved":false,"is_disabled":false,"rental_uris":{"android":"levelo://app?vid=38811800-990c-4b4f-93b0-519c6d818a43","ios":"levelo://app?vid=38811800-990c-4b4f-93b0-519c6d818a43"},"vehicle_type_id":"4","last_reported":1728634355,"current_range_meters":37600,"station_id":"ce4bhqh2rcd13ifvqhmg","pricing_plan_id":"cebpf4jnsgd1na2vs0mg"},{"bike_id":"6befb0b6-7f57-4a04-8f6c-6f71aec95de3","system_id":"levelo_inurba_marseille","lat":43.33721,"lon":5.39185,"is_reserved":false,"is_disabled":false,"rental_uris":{"android":"levelo://app?vid=6befb0b6-7f57-4a04-8f6c-6f71aec95de3","ios":"levelo://app?vid=6befb0b6-7f57-4a04-8f6c-6f71aec95de3"},"vehicle_type_id":"4","last_reported":1728634355,"current_range_meters":22800,"station_id":"ce4bhr92rcd13ifvqhsg","pricing_plan_id":"cebpf4jnsgd1na2vs0mg"},{"bike_id":"068572ed-61dd-4ced-9424-d33b930a8768","system_id":"levelo_inurba_marseille","lat":43.33748,"lon":5.37452,"is_reserved":false,"is_disabled":false,"rental_uris":{"android":"levelo://app?vid=068572ed-61dd-4ced-9424-d33b930a8768","ios":"levelo://app?vid=068572ed-61dd-4ced-9424-d33b930a8768"},"vehicle_type_id":"4","last_reported":1728634355,"current_range_meters":38000,"station_id":"","pricing_plan_id":"cebpf4jnsgd1na2vs0mg"},{"bike_id":"84c30ed3-60f2-43c6-a6ef-72b2abd8f6b1","system_id":"levelo_inurba_marseille","lat":43.26687,"lon":5.38265,"is_reserved":false,"is_disabled":false,"rental_uris":{"android":"levelo://app?vid=84c30ed3-60f2-43c6-a6ef-72b2abd8f6b1","ios":"levelo://app?vid=84c30ed3-60f2-43c6-a6ef-72b2abd8f6b1"},"vehicle_type_id":"4","last_reported":1728634355,"current_range_meters":34000,"station_id":"ce4bhg92rcd13ifvqf90","pricing_plan_id":"cebpf4jnsgd1na2vs0mg"},{"bike_id":"3d819519-2feb-41f9-9ba5-7980c2cc54aa","system_id":"levelo_inurba_marseille","lat":43.30548,"lon":5.3653,"is_reserved":false,"is_disabled":false,"rental_uris":{"android":"levelo://app?vid=3d819519-2feb-41f9-9ba5-7980c2cc54aa","ios":"levelo://app?vid=3d819519-2feb-41f9-9ba5-7980c2cc54aa"},"vehicle_type_id":"4","last_reported":1728634355,"current_range_meters":39200,"station_id":"ce4bgs12rcd13ifvqcag","pricing_plan_id":"cebpf4jnsgd1na2vs0mg"},{"bike_id":"3861975c-a58e-486e-935e-ea03caddd2d6","system_id":"levelo_inurba_marseille","lat":43.23148,"lon":5.43721,"is_reserved":false,"is_disabled":false,"rental_uris":{"android":"levelo://app?vid=3861975c-a58e-486e-935e-ea03caddd2d6","ios":"levelo://app?vid=3861975c-a58e-486e-935e-ea03caddd2d6"},"vehicle_type_id":"4","last_reported":1728634355,"current_range_meters":20400,"station_id":"ce4bhmp2rcd13ifvqgog","pricing_plan_id":"cebpf4jnsgd1na2vs0mg"},{"bike_id":"c6938137-c0d6-4ace-b751-67f074547a5a","system_id":"levelo_inurba_marseille","lat":43.24993,"lon":5.42224,"is_reserved":false,"is_disabled":false,"rental_uris":{"android":"levelo://app?vid=c6938137-c0d6-4ace-b751-67f074547a5a","ios":"levelo://app?vid=c6938137-c0d6-4ace-b751-67f074547a5a"},"vehicle_type_id":"4","last_reported":1728634355,"current_range_meters":14800,"station_id":"ce4bhmp2rcd13ifvqgog","pricing_plan_id":"cebpf4jnsgd1na2vs0mg"},{"bike_id":"e3cc55ec-82ab-4c88-aa2f-71a4741aeb97","system_id":"levelo_inurba_marseille","lat":43.2842,"lon":5.34993,"is_reserved":false,"is_disabled":false,"rental_uris":{"android":"levelo://app?vid=e3cc55ec-82ab-4c88-aa2f-71a4741aeb97","ios":"levelo://app?vid=e3cc55ec-82ab-4c88-aa2f-71a4741aeb97"},"vehicle_type_id":"4","last_reported":1728634355,"current_range_meters":8800,"station_id":"ce4bhbh2rcd13ifvqepg","pricing_plan_id":"cebpf4jnsgd1na2vs0mg"},{"bike_id":"6d8833e5-591a-48bf-8591-438c9cd1f62a","system_id":"levelo_inurba_marseille","lat":43.27974,"lon":5.3876,"is_reserved":false,"is_disabled":false,"rental_uris":{"android":"levelo://app?vid=6d8833e5-591a-48bf-8591-438c9cd1f62a","ios":"levelo://app?vid=6d8833e5-591a-48bf-8591-438c9cd1f62a"},"vehicle_type_id":"4","last_reported":1728634355,"current_range_meters":40000,"station_id":"ce4bhg12rcd13ifvqf80","pricing_plan_id":"cebpf4jnsgd1na2vs0mg"},{"bike_id":"a64fbc67-3742-4a62-9f2e-7dce7179e917","system_id":"levelo_inurba_marseille","lat":43.28976,"lon":5.37842,"is_reserved":false,"is_disabled":false,"rental_uris":{"android":"levelo://app?vid=a64fbc67-3742-4a62-9f2e-7dce7179e917","ios":"levelo://app?vid=a64fbc67-3742-4a62-9f2e-7dce7179e917"},"vehicle_type_id":"4","last_reported":1728634355,"current_range_meters":10000,"station_id":"ce4bh9p2rcd13ifvqed0","pricing_plan_id":"cebpf4jnsgd1na2vs0mg"},{"bike_id":"e4c8cfc2-5458-4688-8f50-2ad90e96fb1f","system_id":"levelo_inurba_marseille","lat":43.337444,"lon":5.374475,"is_reserved":false,"is_disabled":false,"rental_uris":{"android":"levelo://app?vid=e4c8cfc2-5458-4688-8f50-2ad90e96fb1f","ios":"levelo://app?vid=e4c8cfc2-5458-4688-8f50-2ad90e96fb1f"},"vehicle_type_id":"4","last_reported":1728634355,"current_range_meters":10000,"station_id":"ce4bgup2rcd13ifvqcn0","pricing_plan_id":"cebpf4jnsgd1na2vs0mg"},{"bike_id":"39a1d3db-57dc-4999-9799-c699b5d49d48","system_id":"levelo_inurba_marseille","lat":43.28474,"lon":5.38413,"is_reserved":false,"is_disabled":false,"rental_uris":{"android":"levelo://app?vid=39a1d3db-57dc-4999-9799-c699b5d49d48","ios":"levelo://app?vid=39a1d3db-57dc-4999-9799-c699b5d49d48"},"vehicle_type_id":"4","last_reported":1728634355,"current_range_meters":26000,"station_id":"ce4bh512rcd13ifvqe3g","pricing_plan_id":"cebpf4jnsgd1na2vs0mg"},{"bike_id":"ff68b789-7173-415f-860f-fb58c1b9d01d","system_id":"levelo_inurba_marseille","lat":43.22929,"lon":5.3538,"is_reserved":false,"is_disabled":false,"rental_uris":{"android":"levelo://app?vid=ff68b789-7173-415f-860f-fb58c1b9d01d","ios":"levelo://app?vid=ff68b789-7173-415f-860f-fb58c1b9d01d"},"vehicle_type_id":"4","last_reported":1728634355,"current_range_meters":32000,"station_id":"cpo3532slgdg3j2ikp40","pricing_plan_id":"cebpf4jnsgd1na2vs0mg"},{"bike_id":"cab964bc-e57f-4882-9c3b-4fe78f7ac2ed","system_id":"levelo_inurba_marseille","lat":43.2695,"lon":5.38632,"is_reserved":false,"is_disabled":false,"rental_uris":{"android":"levelo://app?vid=cab964bc-e57f-4882-9c3b-4fe78f7ac2ed","ios":"levelo://app?vid=cab964bc-e57f-4882-9c3b-4fe78f7ac2ed"},"vehicle_type_id":"4","last_reported":1728634355,"current_range_meters":38800,"station_id":"ce4bhh92rcd13ifvqfh0","pricing_plan_id":"cebpf4jnsgd1na2vs0mg"},{"bike_id":"2217b65a-9e72-45d5-b077-4446f20164c2","system_id":"levelo_inurba_marseille","lat":43.24077,"lon":5.37763,"is_reserved":false,"is_disabled":false,"rental_uris":{"android":"levelo://app?vid=2217b65a-9e72-45d5-b077-4446f20164c2","ios":"levelo://app?vid=2217b65a-9e72-45d5-b077-4446f20164c2"},"vehicle_type_id":"4","last_reported":1728634355,"current_range_meters":19200,"station_id":"ce4bhnp2rcd13ifvqgvg","pricing_plan_id":"cebpf4jnsgd1na2vs0mg"},{"bike_id":"d09a9fcf-fb9f-4373-a651-bf0e08460105","system_id":"levelo_inurba_marseille","lat":43.27173,"lon":5.40985,"is_reserved":false,"is_disabled":false,"rental_uris":{"android":"levelo://app?vid=d09a9fcf-fb9f-4373-a651-bf0e08460105","ios":"levelo://app?vid=d09a9fcf-fb9f-4373-a651-bf0e08460105"},"vehicle_type_id":"4","last_reported":1728634355,"current_range_meters":37600,"station_id":"ce4bhl12rcd13ifvqgf0","pricing_plan_id":"cebpf4jnsgd1na2vs0mg"},{"bike_id":"d8693de2-65db-4794-af5a-3d2d4640a82b","system_id":"levelo_inurba_marseille","lat":43.27994,"lon":5.40016,"is_reserved":false,"is_disabled":false,"rental_uris":{"android":"levelo://app?vid=d8693de2-65db-4794-af5a-3d2d4640a82b","ios":"levelo://app?vid=d8693de2-65db-4794-af5a-3d2d4640a82b"},"vehicle_type_id":"4","last_reported":1728634355,"current_range_meters":32400,"station_id":"ce4bho92rcd13ifvqh4g","pricing_plan_id":"cebpf4jnsgd1na2vs0mg"},{"bike_id":"6cb5b02c-2401-484a-8b7d-b4d2106d6b08","system_id":"levelo_inurba_marseille","lat":43.23191,"lon":5.35554,"is_reserved":false,"is_disabled":false,"rental_uris":{"android":"levelo://app?vid=6cb5b02c-2401-484a-8b7d-b4d2106d6b08","ios":"levelo://app?vid=6cb5b02c-2401-484a-8b7d-b4d2106d6b08"},"vehicle_type_id":"4","last_reported":1728634355,"current_range_meters":36400,"station_id":"ce4bhu92rcd13ifvqi70","pricing_plan_id":"cebpf4jnsgd1na2vs0mg"},{"bike_id":"efd588d8-d969-4ce7-8835-d733b94cce7a","system_id":"levelo_inurba_marseille","lat":43.32487,"lon":5.36557,"is_reserved":false,"is_disabled":false,"rental_uris":{"android":"levelo://app?vid=efd588d8-d969-4ce7-8835-d733b94cce7a","ios":"levelo://app?vid=efd588d8-d969-4ce7-8835-d733b94cce7a"},"vehicle_type_id":"4","last_reported":1728634355,"current_range_meters":11200,"station_id":"ce4bhs12rcd13ifvqhvg","pricing_plan_id":"cebpf4jnsgd1na2vs0mg"},{"bike_id":"ecdc3729-4716-4bd9-8f28-d7d92e06d811","system_id":"levelo_inurba_marseille","lat":43.29068,"lon":5.37161,"is_reserved":false,"is_disabled":false,"rental_uris":{"android":"levelo://app?vid=ecdc3729-4716-4bd9-8f28-d7d92e06d811","ios":"levelo://app?vid=ecdc3729-4716-4bd9-8f28-d7d92e06d811"},"vehicle_type_id":"4","last_reported":1728634355,"current_range_meters":28800,"station_id":"ce4bh5p2rcd13ifvqe4g","pricing_plan_id":"cebpf4jnsgd1na2vs0mg"},{"bike_id":"44f15e4f-bcec-4cd2-8c1c-3ebf9fc6ffff","system_id":"levelo_inurba_marseille","lat":43.30156,"lon":5.38087,"is_reserved":false,"is_disabled":false,"rental_uris":{"android":"levelo://app?vid=44f15e4f-bcec-4cd2-8c1c-3ebf9fc6ffff","ios":"levelo://app?vid=44f15e4f-bcec-4cd2-8c1c-3ebf9fc6ffff"},"vehicle_type_id":"4","last_reported":1728634355,"current_range_meters":36000,"station_id":"ce4bgjp2rcd13ifvqbh0","pricing_plan_id":"cebpf4jnsgd1na2vs0mg"},{"bike_id":"e914b5e4-28f8-4fce-acd8-8c1a92bc9b72","system_id":"levelo_inurba_marseille","lat":43.30429,"lon":5.38881,"is_reserved":false,"is_disabled":false,"rental_uris":{"android":"levelo://app?vid=e914b5e4-28f8-4fce-acd8-8c1a92bc9b72","ios":"levelo://app?vid=e914b5e4-28f8-4fce-acd8-8c1a92bc9b72"},"vehicle_type_id":"4","last_reported":1728634355,"current_range_meters":26800,"station_id":"ce4bgk12rcd13ifvqbi0","pricing_plan_id":"cebpf4jnsgd1na2vs0mg"},{"bike_id":"c6053ff0-87d7-4d85-9b21-cdbfa70874a8","system_id":"levelo_inurba_marseille","lat":43.279418,"lon":5.410542,"is_reserved":false,"is_disabled":false,"rental_uris":{"android":"levelo://app?vid=c6053ff0-87d7-4d85-9b21-cdbfa70874a8","ios":"levelo://app?vid=c6053ff0-87d7-4d85-9b21-cdbfa70874a8"},"vehicle_type_id":"4","last_reported":1728634355,"current_range_meters":20800,"station_id":"ce4bhnp2rcd13ifvqh0g","pricing_plan_id":"cebpf4jnsgd1na2vs0mg"},{"bike_id":"c417019c-5367-4191-a213-8153b6c2ea08","system_id":"levelo_inurba_marseille","lat":43.32484,"lon":5.36564,"is_reserved":false,"is_disabled":false,"rental_uris":{"android":"levelo://app?vid=c417019c-5367-4191-a213-8153b6c2ea08","ios":"levelo://app?vid=c417019c-5367-4191-a213-8153b6c2ea08"},"vehicle_type_id":"4","last_reported":1728634355,"current_range_meters":26000,"station_id":"ce4bhs12rcd13ifvqhvg","pricing_plan_id":"cebpf4jnsgd1na2vs0mg"},{"bike_id":"fbd0ea3b-37a8-42df-8911-161b13ff6975","system_id":"levelo_inurba_marseille","lat":43.337444,"lon":5.374475,"is_reserved":false,"is_disabled":false,"rental_uris":{"android":"levelo://app?vid=fbd0ea3b-37a8-42df-8911-161b13ff6975","ios":"levelo://app?vid=fbd0ea3b-37a8-42df-8911-161b13ff6975"},"vehicle_type_id":"4","last_reported":1728634355,"current_range_meters":14400,"station_id":"","pricing_plan_id":"cebpf4jnsgd1na2vs0mg"},{"bike_id":"70e8d9e5-8396-4d7d-be39-1fc17a440db7","system_id":"levelo_inurba_marseille","lat":43.33614,"lon":5.4103,"is_reserved":false,"is_disabled":false,"rental_uris":{"android":"levelo://app?vid=70e8d9e5-8396-4d7d-be39-1fc17a440db7","ios":"levelo://app?vid=70e8d9e5-8396-4d7d-be39-1fc17a440db7"},"vehicle_type_id":"4","last_reported":1728634355,"current_range_meters":40000,"station_id":"ce4bhqh2rcd13ifvqhmg","pricing_plan_id":"cebpf4jnsgd1na2vs0mg"},{"bike_id":"38162bc2-26ca-494d-9a88-62a9cde566ec","system_id":"levelo_inurba_marseille","lat":43.29939,"lon":5.3654,"is_reserved":false,"is_disabled":false,"rental_uris":{"android":"levelo://app?vid=38162bc2-26ca-494d-9a88-62a9cde566ec","ios":"levelo://app?vid=38162bc2-26ca-494d-9a88-62a9cde566ec"},"vehicle_type_id":"4","last_reported":1728634355,"current_range_meters":38800,"station_id":"ce4bgm92rcd13ifvqbr0","pricing_plan_id":"cebpf4jnsgd1na2vs0mg"},{"bike_id":"7feda03c-1689-4827-a0fb-310bf8a90726","system_id":"levelo_inurba_marseille","lat":43.24998,"lon":5.38916,"is_reserved":false,"is_disabled":false,"rental_uris":{"android":"levelo://app?vid=7feda03c-1689-4827-a0fb-310bf8a90726","ios":"levelo://app?vid=7feda03c-1689-4827-a0fb-310bf8a90726"},"vehicle_type_id":"4","last_reported":1728634355,"current_range_meters":40000,"station_id":"ce4bhgp2rcd13ifvqfd0","pricing_plan_id":"cebpf4jnsgd1na2vs0mg"},{"bike_id":"f80c2e75-b47f-4161-9783-8454957aba75","system_id":"levelo_inurba_marseille","lat":43.32108,"lon":5.36767,"is_reserved":false,"is_disabled":false,"rental_uris":{"android":"levelo://app?vid=f80c2e75-b47f-4161-9783-8454957aba75","ios":"levelo://app?vid=f80c2e75-b47f-4161-9783-8454957aba75"},"vehicle_type_id":"4","last_reported":1728634355,"current_range_meters":6000,"station_id":"ce4bhrh2rcd13ifvqhug","pricing_plan_id":"cebpf4jnsgd1na2vs0mg"},{"bike_id":"02cfbe68-27e3-4e61-b6a5-8cd0a29507b4","system_id":"levelo_inurba_marseille","lat":43.29526,"lon":5.37487,"is_reserved":false,"is_disabled":false,"rental_uris":{"android":"levelo://app?vid=02cfbe68-27e3-4e61-b6a5-8cd0a29507b4","ios":"levelo://app?vid=02cfbe68-27e3-4e61-b6a5-8cd0a29507b4"},"vehicle_type_id":"4","last_reported":1728634355,"current_range_meters":35200,"station_id":"ce4bgkp2rcd13ifvqbmg","pricing_plan_id":"cebpf4jnsgd1na2vs0mg"},{"bike_id":"f6b44eb7-d2a9-493d-9f7d-053223391c43","system_id":"levelo_inurba_marseille","lat":43.23154,"lon":5.43699,"is_reserved":false,"is_disabled":false,"rental_uris":{"android":"levelo://app?vid=f6b44eb7-d2a9-493d-9f7d-053223391c43","ios":"levelo://app?vid=f6b44eb7-d2a9-493d-9f7d-053223391c43"},"vehicle_type_id":"4","last_reported":1728634355,"current_range_meters":16400,"station_id":"ce4bhmp2rcd13ifvqgog","pricing_plan_id":"cebpf4jnsgd1na2vs0mg"},{"bike_id":"7c603d15-6dad-4d4c-81c9-2d22912e3ceb","system_id":"levelo_inurba_marseille","lat":43.29356,"lon":5.37824,"is_reserved":false,"is_disabled":false,"rental_uris":{"android":"levelo://app?vid=7c603d15-6dad-4d4c-81c9-2d22912e3ceb","ios":"levelo://app?vid=7c603d15-6dad-4d4c-81c9-2d22912e3ceb"},"vehicle_type_id":"4","last_reported":1728634355,"current_range_meters":38000,"station_id":"ce4bgjh2rcd13ifvqbf0","pricing_plan_id":"cebpf4jnsgd1na2vs0mg"},{"bike_id":"094f27a8-0ae0-45f6-a946-b4e9fed288f7","system_id":"levelo_inurba_marseille","lat":43.26949,"lon":5.38632,"is_reserved":false,"is_disabled":false,"rental_uris":{"android":"levelo://app?vid=094f27a8-0ae0-45f6-a946-b4e9fed288f7","ios":"levelo://app?vid=094f27a8-0ae0-45f6-a946-b4e9fed288f7"},"vehicle_type_id":"4","last_reported":1728634355,"current_range_meters":33200,"station_id":"ce4bhh92rcd13ifvqfh0","pricing_plan_id":"cebpf4jnsgd1na2vs0mg"},{"bike_id":"465286eb-14c0-45d3-a52a-0c19aa419bfb","system_id":"levelo_inurba_marseille","lat":43.28418,"lon":5.34999,"is_reserved":false,"is_disabled":false,"rental_uris":{"android":"levelo://app?vid=465286eb-14c0-45d3-a52a-0c19aa419bfb","ios":"levelo://app?vid=465286eb-14c0-45d3-a52a-0c19aa419bfb"},"vehicle_type_id":"4","last_reported":1728634355,"current_range_meters":38800,"station_id":"ce4bhbh2rcd13ifvqepg","pricing_plan_id":"cebpf4jnsgd1na2vs0mg"},{"bike_id":"6fee30a9-8762-408e-904a-7bc905444ac7","system_id":"levelo_inurba_marseille","lat":43.23184,"lon":5.39977,"is_reserved":false,"is_disabled":false,"rental_uris":{"android":"levelo://app?vid=6fee30a9-8762-408e-904a-7bc905444ac7","ios":"levelo://app?vid=6fee30a9-8762-408e-904a-7bc905444ac7"},"vehicle_type_id":"4","last_reported":1728634355,"current_range_meters":2000,"station_id":"ce4bhn12rcd13ifvqgqg","pricing_plan_id":"cebpf4jnsgd1na2vs0mg"},{"bike_id":"8b5bcdab-c614-4b53-bb0f-1cc3898ae3ec","system_id":"levelo_inurba_marseille","lat":43.30094,"lon":5.39071,"is_reserved":false,"is_disabled":false,"rental_uris":{"android":"levelo://app?vid=8b5bcdab-c614-4b53-bb0f-1cc3898ae3ec","ios":"levelo://app?vid=8b5bcdab-c614-4b53-bb0f-1cc3898ae3ec"},"vehicle_type_id":"4","last_reported":1728634355,"current_range_meters":12000,"station_id":"ce4bh192rcd13ifvqdb0","pricing_plan_id":"cebpf4jnsgd1na2vs0mg"},{"bike_id":"608abe2b-e6c6-4788-a441-a4579be1f717","system_id":"levelo_inurba_marseille","lat":43.29575,"lon":5.36735,"is_reserved":false,"is_disabled":false,"rental_uris":{"android":"levelo://app?vid=608abe2b-e6c6-4788-a441-a4579be1f717","ios":"levelo://app?vid=608abe2b-e6c6-4788-a441-a4579be1f717"},"vehicle_type_id":"4","last_reported":1728634355,"current_range_meters":7200,"station_id":"ce4bgph2rcd13ifvqc2g","pricing_plan_id":"cebpf4jnsgd1na2vs0mg"},{"bike_id":"aea5ff72-47c5-4fe1-a025-5ecb93309ff2","system_id":"levelo_inurba_marseille","lat":43.27068,"lon":5.4228,"is_reserved":false,"is_disabled":false,"rental_uris":{"android":"levelo://app?vid=aea5ff72-47c5-4fe1-a025-5ecb93309ff2","ios":"levelo://app?vid=aea5ff72-47c5-4fe1-a025-5ecb93309ff2"},"vehicle_type_id":"4","last_reported":1728634355,"current_range_meters":8800,"station_id":"ce4bhk92rcd13ifvqgb0","pricing_plan_id":"cebpf4jnsgd1na2vs0mg"},{"bike_id":"c328f80a-ae45-45b5-b5e9-d44228fc601d","system_id":"levelo_inurba_marseille","lat":43.29005,"lon":5.35611,"is_reserved":false,"is_disabled":false,"rental_uris":{"android":"levelo://app?vid=c328f80a-ae45-45b5-b5e9-d44228fc601d","ios":"levelo://app?vid=c328f80a-ae45-45b5-b5e9-d44228fc601d"},"vehicle_type_id":"4","last_reported":1728634355,"current_range_meters":38400,"station_id":"ce4bhb92rcd13ifvqen0","pricing_plan_id":"cebpf4jnsgd1na2vs0mg"},{"bike_id":"f5025c91-10ce-417c-b0cc-aa63fb454c26","system_id":"levelo_inurba_marseille","lat":43.24654,"lon":5.38894,"is_reserved":false,"is_disabled":false,"rental_uris":{"android":"levelo://app?vid=f5025c91-10ce-417c-b0cc-aa63fb454c26","ios":"levelo://app?vid=f5025c91-10ce-417c-b0cc-aa63fb454c26"},"vehicle_type_id":"4","last_reported":1728634355,"current_range_meters":36000,"station_id":"ce4bhg12rcd13ifvqf60","pricing_plan_id":"cebpf4jnsgd1na2vs0mg"},{"bike_id":"1bf39129-7013-4caa-8d33-ef279b792ee7","system_id":"levelo_inurba_marseille","lat":43.25575,"lon":5.38251,"is_reserved":false,"is_disabled":false,"rental_uris":{"android":"levelo://app?vid=1bf39129-7013-4caa-8d33-ef279b792ee7","ios":"levelo://app?vid=1bf39129-7013-4caa-8d33-ef279b792ee7"},"vehicle_type_id":"4","last_reported":1728634355,"current_range_meters":8000,"station_id":"ce4bhih2rcd13ifvqfs0","pricing_plan_id":"cebpf4jnsgd1na2vs0mg"},{"bike_id":"b599186e-3d14-4361-942b-54c26c5aff27","system_id":"levelo_inurba_marseille","lat":43.29849,"lon":5.3627,"is_reserved":false,"is_disabled":false,"rental_uris":{"android":"levelo://app?vid=b599186e-3d14-4361-942b-54c26c5aff27","ios":"levelo://app?vid=b599186e-3d14-4361-942b-54c26c5aff27"},"vehicle_type_id":"4","last_reported":1728634355,"current_range_meters":20000,"station_id":"ce4bgpp2rcd13ifvqc3g","pricing_plan_id":"cebpf4jnsgd1na2vs0mg"},{"bike_id":"31976e81-9cc0-455d-93cf-052ff67948dc","system_id":"levelo_inurba_marseille","lat":43.27051,"lon":5.40259,"is_reserved":false,"is_disabled":false,"rental_uris":{"android":"levelo://app?vid=31976e81-9cc0-455d-93cf-052ff67948dc","ios":"levelo://app?vid=31976e81-9cc0-455d-93cf-052ff67948dc"},"vehicle_type_id":"4","last_reported":1728634355,"current_range_meters":12000,"station_id":"ce4bhk92rcd13ifvqgc0","pricing_plan_id":"cebpf4jnsgd1na2vs0mg"},{"bike_id":"4678b84d-7c0e-4a71-88ee-9bd3a153b74a","system_id":"levelo_inurba_marseille","lat":43.29304,"lon":5.3718,"is_reserved":false,"is_disabled":false,"rental_uris":{"android":"levelo://app?vid=4678b84d-7c0e-4a71-88ee-9bd3a153b74a","ios":"levelo://app?vid=4678b84d-7c0e-4a71-88ee-9bd3a153b74a"},"vehicle_type_id":"4","last_reported":1728634355,"current_range_meters":18000,"station_id":"ce4bgh92rcd13ifvqb40","pricing_plan_id":"cebpf4jnsgd1na2vs0mg"},{"bike_id":"f5bc53fb-4be7-4462-8efb-e3a87649f7e1","system_id":"levelo_inurba_marseille","lat":43.28472,"lon":5.38416,"is_reserved":false,"is_disabled":false,"rental_uris":{"android":"levelo://app?vid=f5bc53fb-4be7-4462-8efb-e3a87649f7e1","ios":"levelo://app?vid=f5bc53fb-4be7-4462-8efb-e3a87649f7e1"},"vehicle_type_id":"4","last_reported":1728634355,"current_range_meters":26800,"station_id":"ce4bh512rcd13ifvqe3g","pricing_plan_id":"cebpf4jnsgd1na2vs0mg"},{"bike_id":"85b801af-73ef-4f7e-a55f-897924dd88fc","system_id":"levelo_inurba_marseille","lat":43.286626,"lon":5.363521,"is_reserved":false,"is_disabled":false,"rental_uris":{"android":"levelo://app?vid=85b801af-73ef-4f7e-a55f-897924dd88fc","ios":"levelo://app?vid=85b801af-73ef-4f7e-a55f-897924dd88fc"},"vehicle_type_id":"4","last_reported":1728634355,"current_range_meters":11200,"station_id":"ce4bguh2rcd13ifvqcj0","pricing_plan_id":"cebpf4jnsgd1na2vs0mg"},{"bike_id":"bd0a7584-ffe9-4cd4-bb78-e38fb35c5497","system_id":"levelo_inurba_marseille","lat":43.30426,"lon":5.38879,"is_reserved":false,"is_disabled":false,"rental_uris":{"android":"levelo://app?vid=bd0a7584-ffe9-4cd4-bb78-e38fb35c5497","ios":"levelo://app?vid=bd0a7584-ffe9-4cd4-bb78-e38fb35c5497"},"vehicle_type_id":"4","last_reported":1728634355,"current_range_meters":37600,"station_id":"ce4bgk12rcd13ifvqbi0","pricing_plan_id":"cebpf4jnsgd1na2vs0mg"},{"bike_id":"43f8650b-d92e-4d54-b688-ee678641ebf0","system_id":"levelo_inurba_marseille","lat":43.30417,"lon":5.41285,"is_reserved":false,"is_disabled":false,"rental_uris":{"android":"levelo://app?vid=43f8650b-d92e-4d54-b688-ee678641ebf0","ios":"levelo://app?vid=43f8650b-d92e-4d54-b688-ee678641ebf0"},"vehicle_type_id":"4","last_reported":1728634355,"current_range_meters":30000,"station_id":"ce4bhop2rcd13ifvqh8g","pricing_plan_id":"cebpf4jnsgd1na2vs0mg"},{"bike_id":"1430f6f2-73dd-42ca-8307-5f209eb4a512","system_id":"levelo_inurba_marseille","lat":43.29455,"lon":5.37624,"is_reserved":false,"is_disabled":false,"rental_uris":{"android":"levelo://app?vid=1430f6f2-73dd-42ca-8307-5f209eb4a512","ios":"levelo://app?vid=1430f6f2-73dd-42ca-8307-5f209eb4a512"},"vehicle_type_id":"4","last_reported":1728634355,"current_range_meters":8000,"station_id":"","pricing_plan_id":"cebpf4jnsgd1na2vs0mg"},{"bike_id":"bfbaf2ed-b51d-4976-be71-40bff0c29f09","system_id":"levelo_inurba_marseille","lat":43.29307,"lon":5.37174,"is_reserved":false,"is_disabled":false,"rental_uris":{"android":"levelo://app?vid=bfbaf2ed-b51d-4976-be71-40bff0c29f09","ios":"levelo://app?vid=bfbaf2ed-b51d-4976-be71-40bff0c29f09"},"vehicle_type_id":"4","last_reported":1728634355,"current_range_meters":31200,"station_id":"ce4bgh92rcd13ifvqb40","pricing_plan_id":"cebpf4jnsgd1na2vs0mg"},{"bike_id":"484a4c63-4ef1-4433-b27a-9a9ca5ad2f9a","system_id":"levelo_inurba_marseille","lat":43.22932,"lon":5.35371,"is_reserved":false,"is_disabled":false,"rental_uris":{"android":"levelo://app?vid=484a4c63-4ef1-4433-b27a-9a9ca5ad2f9a","ios":"levelo://app?vid=484a4c63-4ef1-4433-b27a-9a9ca5ad2f9a"},"vehicle_type_id":"4","last_reported":1728634355,"current_range_meters":17200,"station_id":"cpo3532slgdg3j2ikp40","pricing_plan_id":"cebpf4jnsgd1na2vs0mg"},{"bike_id":"bf9a8dbd-a3ff-4226-a25b-1015d3103cd4","system_id":"levelo_inurba_marseille","lat":43.30357,"lon":5.4188,"is_reserved":false,"is_disabled":false,"rental_uris":{"android":"levelo://app?vid=bf9a8dbd-a3ff-4226-a25b-1015d3103cd4","ios":"levelo://app?vid=bf9a8dbd-a3ff-4226-a25b-1015d3103cd4"},"vehicle_type_id":"4","last_reported":1728634355,"current_range_meters":4400,"station_id":"ce4bhop2rcd13ifvqh7g","pricing_plan_id":"cebpf4jnsgd1na2vs0mg"},{"bike_id":"544afb48-1f79-4020-a327-5b6a2938dd06","system_id":"levelo_inurba_marseille","lat":43.246427,"lon":5.38895,"is_reserved":false,"is_disabled":false,"rental_uris":{"android":"levelo://app?vid=544afb48-1f79-4020-a327-5b6a2938dd06","ios":"levelo://app?vid=544afb48-1f79-4020-a327-5b6a2938dd06"},"vehicle_type_id":"4","last_reported":1728634355,"current_range_meters":12000,"station_id":"ce4bhg12rcd13ifvqf60","pricing_plan_id":"cebpf4jnsgd1na2vs0mg"},{"bike_id":"bbbbc871-92da-4653-aa76-f59be91aa962","system_id":"levelo_inurba_marseille","lat":43.30539,"lon":5.36557,"is_reserved":false,"is_disabled":false,"rental_uris":{"android":"levelo://app?vid=bbbbc871-92da-4653-aa76-f59be91aa962","ios":"levelo://app?vid=bbbbc871-92da-4653-aa76-f59be91aa962"},"vehicle_type_id":"4","last_reported":1728634355,"current_range_meters":24400,"station_id":"ce4bgs12rcd13ifvqcag","pricing_plan_id":"cebpf4jnsgd1na2vs0mg"},{"bike_id":"c2d857c1-827e-4f2c-b0fe-338c18fb295b","system_id":"levelo_inurba_marseille","lat":43.27999,"lon":5.40019,"is_reserved":false,"is_disabled":false,"rental_uris":{"android":"levelo://app?vid=c2d857c1-827e-4f2c-b0fe-338c18fb295b","ios":"levelo://app?vid=c2d857c1-827e-4f2c-b0fe-338c18fb295b"},"vehicle_type_id":"4","last_reported":1728634355,"current_range_meters":35200,"station_id":"ce4bho92rcd13ifvqh4g","pricing_plan_id":"cebpf4jnsgd1na2vs0mg"},{"bike_id":"65987b29-aa2c-4733-be91-82374c8ff43b","system_id":"levelo_inurba_marseille","lat":43.2749,"lon":5.42459,"is_reserved":false,"is_disabled":false,"rental_uris":{"android":"levelo://app?vid=65987b29-aa2c-4733-be91-82374c8ff43b","ios":"levelo://app?vid=65987b29-aa2c-4733-be91-82374c8ff43b"},"vehicle_type_id":"4","last_reported":1728634355,"current_range_meters":6400,"station_id":"ce4bhn92rcd13ifvqgrg","pricing_plan_id":"cebpf4jnsgd1na2vs0mg"},{"bike_id":"3b254ee1-a264-400b-8948-bf5d25430ee3","system_id":"levelo_inurba_marseille","lat":43.27676,"lon":5.38878,"is_reserved":false,"is_disabled":false,"rental_uris":{"android":"levelo://app?vid=3b254ee1-a264-400b-8948-bf5d25430ee3","ios":"levelo://app?vid=3b254ee1-a264-400b-8948-bf5d25430ee3"},"vehicle_type_id":"4","last_reported":1728634355,"current_range_meters":34000,"station_id":"ce4bhi12rcd13ifvqfo0","pricing_plan_id":"cebpf4jnsgd1na2vs0mg"},{"bike_id":"1a77e98a-356c-44c1-a180-5d2a812667a3","system_id":"levelo_inurba_marseille","lat":43.29845,"lon":5.38102,"is_reserved":false,"is_disabled":false,"rental_uris":{"android":"levelo://app?vid=1a77e98a-356c-44c1-a180-5d2a812667a3","ios":"levelo://app?vid=1a77e98a-356c-44c1-a180-5d2a812667a3"},"vehicle_type_id":"4","last_reported":1728634355,"current_range_meters":32000,"station_id":"ce4bgip2rcd13ifvqbb0","pricing_plan_id":"cebpf4jnsgd1na2vs0mg"},{"bike_id":"c92fba34-aea6-4d2c-b710-21b825d7faaa","system_id":"levelo_inurba_marseille","lat":43.30554,"lon":5.36713,"is_reserved":false,"is_disabled":false,"rental_uris":{"android":"levelo://app?vid=c92fba34-aea6-4d2c-b710-21b825d7faaa","ios":"levelo://app?vid=c92fba34-aea6-4d2c-b710-21b825d7faaa"},"vehicle_type_id":"4","last_reported":1728634355,"current_range_meters":40000,"station_id":"ce4bgrp2rcd13ifvqc9g","pricing_plan_id":"cebpf4jnsgd1na2vs0mg"},{"bike_id":"016cc7db-a2a8-4cef-b1be-651ffed90720","system_id":"levelo_inurba_marseille","lat":43.32532,"lon":5.41446,"is_reserved":false,"is_disabled":false,"rental_uris":{"android":"levelo://app?vid=016cc7db-a2a8-4cef-b1be-651ffed90720","ios":"levelo://app?vid=016cc7db-a2a8-4cef-b1be-651ffed90720"},"vehicle_type_id":"4","last_reported":1728634355,"current_range_meters":8400,"station_id":"ce4bhq12rcd13ifvqhhg","pricing_plan_id":"cebpf4jnsgd1na2vs0mg"},{"bike_id":"b9ead9a5-f02a-4963-b5ff-bbd5ac1faa80","system_id":"levelo_inurba_marseille","lat":43.309,"lon":5.3685,"is_reserved":false,"is_disabled":false,"rental_uris":{"android":"levelo://app?vid=b9ead9a5-f02a-4963-b5ff-bbd5ac1faa80","ios":"levelo://app?vid=b9ead9a5-f02a-4963-b5ff-bbd5ac1faa80"},"vehicle_type_id":"4","last_reported":1728634355,"current_range_meters":22800,"station_id":"ce4bgn92rcd13ifvqbvg","pricing_plan_id":"cebpf4jnsgd1na2vs0mg"},{"bike_id":"5a5649e8-a9bc-4d0f-be41-ed6fc56a9baf","system_id":"levelo_inurba_marseille","lat":43.22925,"lon":5.35374,"is_reserved":false,"is_disabled":false,"rental_uris":{"android":"levelo://app?vid=5a5649e8-a9bc-4d0f-be41-ed6fc56a9baf","ios":"levelo://app?vid=5a5649e8-a9bc-4d0f-be41-ed6fc56a9baf"},"vehicle_type_id":"4","last_reported":1728634355,"current_range_meters":37600,"station_id":"cpo3532slgdg3j2ikp40","pricing_plan_id":"cebpf4jnsgd1na2vs0mg"},{"bike_id":"4d80ff99-3d68-46ff-b173-ab6806ac288c","system_id":"levelo_inurba_marseille","lat":43.2668,"lon":5.38264,"is_reserved":false,"is_disabled":false,"rental_uris":{"android":"levelo://app?vid=4d80ff99-3d68-46ff-b173-ab6806ac288c","ios":"levelo://app?vid=4d80ff99-3d68-46ff-b173-ab6806ac288c"},"vehicle_type_id":"4","last_reported":1728634355,"current_range_meters":39200,"station_id":"ce4bhg92rcd13ifvqf90","pricing_plan_id":"cebpf4jnsgd1na2vs0mg"},{"bike_id":"104dce3b-2862-44f7-bb64-f1cb1800c635","system_id":"levelo_inurba_marseille","lat":43.33605,"lon":5.41031,"is_reserved":false,"is_disabled":false,"rental_uris":{"android":"levelo://app?vid=104dce3b-2862-44f7-bb64-f1cb1800c635","ios":"levelo://app?vid=104dce3b-2862-44f7-bb64-f1cb1800c635"},"vehicle_type_id":"4","last_reported":1728634355,"current_range_meters":40000,"station_id":"ce4bhqh2rcd13ifvqhmg","pricing_plan_id":"cebpf4jnsgd1na2vs0mg"},{"bike_id":"f0434810-a555-42c3-b13e-8b05b41ed638","system_id":"levelo_inurba_marseille","lat":43.2408,"lon":5.3775,"is_reserved":false,"is_disabled":false,"rental_uris":{"android":"levelo://app?vid=f0434810-a555-42c3-b13e-8b05b41ed638","ios":"levelo://app?vid=f0434810-a555-42c3-b13e-8b05b41ed638"},"vehicle_type_id":"4","last_reported":1728634355,"current_range_meters":22400,"station_id":"ce4bhnp2rcd13ifvqgvg","pricing_plan_id":"cebpf4jnsgd1na2vs0mg"},{"bike_id":"262fb70b-722c-4e93-8ecd-461d52eb146e","system_id":"levelo_inurba_marseille","lat":43.30141,"lon":5.38069,"is_reserved":false,"is_disabled":false,"rental_uris":{"android":"levelo://app?vid=262fb70b-722c-4e93-8ecd-461d52eb146e","ios":"levelo://app?vid=262fb70b-722c-4e93-8ecd-461d52eb146e"},"vehicle_type_id":"4","last_reported":1728634355,"current_range_meters":27200,"station_id":"ce4bgjp2rcd13ifvqbh0","pricing_plan_id":"cebpf4jnsgd1na2vs0mg"},{"bike_id":"df97f6ce-50ef-4e46-9e5e-930330d7e696","system_id":"levelo_inurba_marseille","lat":43.25931,"lon":5.40919,"is_reserved":false,"is_disabled":false,"rental_uris":{"android":"levelo://app?vid=df97f6ce-50ef-4e46-9e5e-930330d7e696","ios":"levelo://app?vid=df97f6ce-50ef-4e46-9e5e-930330d7e696"},"vehicle_type_id":"4","last_reported":1728634355,"current_range_meters":16800,"station_id":"ce4bhm92rcd13ifvqglg","pricing_plan_id":"cebpf4jnsgd1na2vs0mg"},{"bike_id":"b8667eb6-999b-4468-a86a-61a44abd0446","system_id":"levelo_inurba_marseille","lat":43.3035,"lon":5.41875,"is_reserved":false,"is_disabled":false,"rental_uris":{"android":"levelo://app?vid=b8667eb6-999b-4468-a86a-61a44abd0446","ios":"levelo://app?vid=b8667eb6-999b-4468-a86a-61a44abd0446"},"vehicle_type_id":"4","last_reported":1728634355,"current_range_meters":25200,"station_id":"ce4bhop2rcd13ifvqh7g","pricing_plan_id":"cebpf4jnsgd1na2vs0mg"},{"bike_id":"618d5a00-762a-4126-993b-9fe3eb4ef5de","system_id":"levelo_inurba_marseille","lat":43.25,"lon":5.3893,"is_reserved":false,"is_disabled":false,"rental_uris":{"android":"levelo://app?vid=618d5a00-762a-4126-993b-9fe3eb4ef5de","ios":"levelo://app?vid=618d5a00-762a-4126-993b-9fe3eb4ef5de"},"vehicle_type_id":"4","last_reported":1728634355,"current_range_meters":25600,"station_id":"ce4bhgp2rcd13ifvqfd0","pricing_plan_id":"cebpf4jnsgd1na2vs0mg"},{"bike_id":"552d576d-c4ca-4667-b9fd-ec397d26150e","system_id":"levelo_inurba_marseille","lat":43.3094,"lon":5.39055,"is_reserved":false,"is_disabled":false,"rental_uris":{"android":"levelo://app?vid=552d576d-c4ca-4667-b9fd-ec397d26150e","ios":"levelo://app?vid=552d576d-c4ca-4667-b9fd-ec397d26150e"},"vehicle_type_id":"4","last_reported":1728634355,"current_range_meters":20400,"station_id":"ce4bgup2rcd13ifvqco0","pricing_plan_id":"cebpf4jnsgd1na2vs0mg"},{"bike_id":"8fb2b431-bcb9-46ba-80fb-e26e84592fc5","system_id":"levelo_inurba_marseille","lat":43.23181,"lon":5.35558,"is_reserved":false,"is_disabled":false,"rental_uris":{"android":"levelo://app?vid=8fb2b431-bcb9-46ba-80fb-e26e84592fc5","ios":"levelo://app?vid=8fb2b431-bcb9-46ba-80fb-e26e84592fc5"},"vehicle_type_id":"4","last_reported":1728634355,"current_range_meters":36800,"station_id":"ce4bhu92rcd13ifvqi70","pricing_plan_id":"cebpf4jnsgd1na2vs0mg"},{"bike_id":"0505e1cf-8f9b-4c0d-af15-071b9742f141","system_id":"levelo_inurba_marseille","lat":43.24084,"lon":5.37752,"is_reserved":false,"is_disabled":false,"rental_uris":{"android":"levelo://app?vid=0505e1cf-8f9b-4c0d-af15-071b9742f141","ios":"levelo://app?vid=0505e1cf-8f9b-4c0d-af15-071b9742f141"},"vehicle_type_id":"4","last_reported":1728634355,"current_range_meters":36400,"station_id":"ce4bhnp2rcd13ifvqgvg","pricing_plan_id":"cebpf4jnsgd1na2vs0mg"},{"bike_id":"abbbadb2-ff37-4ff7-8f8a-18f530b6d647","system_id":"levelo_inurba_marseille","lat":43.295166,"lon":5.394014,"is_reserved":false,"is_disabled":false,"rental_uris":{"android":"levelo://app?vid=abbbadb2-ff37-4ff7-8f8a-18f530b6d647","ios":"levelo://app?vid=abbbadb2-ff37-4ff7-8f8a-18f530b6d647"},"vehicle_type_id":"4","last_reported":1728634355,"current_range_meters":12400,"station_id":"ce4bh292rcd13ifvqdf0","pricing_plan_id":"cebpf4jnsgd1na2vs0mg"},{"bike_id":"a35d0b13-a4ed-4718-b0a8-4a576c9f185a","system_id":"levelo_inurba_marseille","lat":43.29025,"lon":5.38146,"is_reserved":false,"is_disabled":false,"rental_uris":{"android":"levelo://app?vid=a35d0b13-a4ed-4718-b0a8-4a576c9f185a","ios":"levelo://app?vid=a35d0b13-a4ed-4718-b0a8-4a576c9f185a"},"vehicle_type_id":"4","last_reported":1728634355,"current_range_meters":37600,"station_id":"ce4bh4p2rcd13ifvqe1g","pricing_plan_id":"cebpf4jnsgd1na2vs0mg"},{"bike_id":"0001886a-fc99-4b51-b97b-0a2db99d1ee4","system_id":"levelo_inurba_marseille","lat":43.26946,"lon":5.38622,"is_reserved":false,"is_disabled":false,"rental_uris":{"android":"levelo://app?vid=0001886a-fc99-4b51-b97b-0a2db99d1ee4","ios":"levelo://app?vid=0001886a-fc99-4b51-b97b-0a2db99d1ee4"},"vehicle_type_id":"4","last_reported":1728634355,"current_range_meters":6000,"station_id":"ce4bhh92rcd13ifvqfh0","pricing_plan_id":"cebpf4jnsgd1na2vs0mg"},{"bike_id":"9d7ed1cc-c333-491e-a46d-24f7fd8f2a0f","system_id":"levelo_inurba_marseille","lat":43.30478,"lon":5.37907,"is_reserved":false,"is_disabled":false,"rental_uris":{"android":"levelo://app?vid=9d7ed1cc-c333-491e-a46d-24f7fd8f2a0f","ios":"levelo://app?vid=9d7ed1cc-c333-491e-a46d-24f7fd8f2a0f"},"vehicle_type_id":"4","last_reported":1728634355,"current_range_meters":28800,"station_id":"ce4bgup2rcd13ifvqcn0","pricing_plan_id":"cebpf4jnsgd1na2vs0mg"},{"bike_id":"bb071bcd-2f53-415d-94b0-d7c42ca3770b","system_id":"levelo_inurba_marseille","lat":43.3091,"lon":5.36856,"is_reserved":false,"is_disabled":false,"rental_uris":{"android":"levelo://app?vid=bb071bcd-2f53-415d-94b0-d7c42ca3770b","ios":"levelo://app?vid=bb071bcd-2f53-415d-94b0-d7c42ca3770b"},"vehicle_type_id":"4","last_reported":1728634355,"current_range_meters":32800,"station_id":"ce4bgn92rcd13ifvqbvg","pricing_plan_id":"cebpf4jnsgd1na2vs0mg"},{"bike_id":"21bee04f-bbab-4a37-913c-a723592d268b","system_id":"levelo_inurba_marseille","lat":43.31477,"lon":5.37309,"is_reserved":false,"is_disabled":false,"rental_uris":{"android":"levelo://app?vid=21bee04f-bbab-4a37-913c-a723592d268b","ios":"levelo://app?vid=21bee04f-bbab-4a37-913c-a723592d268b"},"vehicle_type_id":"4","last_reported":1728634355,"current_range_meters":5600,"station_id":"ce4bgt12rcd13ifvqcd0","pricing_plan_id":"cebpf4jnsgd1na2vs0mg"},{"bike_id":"b5201cc6-22cd-4a35-ab7c-45b634371667","system_id":"levelo_inurba_marseille","lat":43.3136,"lon":5.36696,"is_reserved":false,"is_disabled":false,"rental_uris":{"android":"levelo://app?vid=b5201cc6-22cd-4a35-ab7c-45b634371667","ios":"levelo://app?vid=b5201cc6-22cd-4a35-ab7c-45b634371667"},"vehicle_type_id":"4","last_reported":1728634355,"current_range_meters":18800,"station_id":"ce4bgr92rcd13ifvqc6g","pricing_plan_id":"cebpf4jnsgd1na2vs0mg"},{"bike_id":"2e57e480-a324-489b-8946-f7d9d9edcf00","system_id":"levelo_inurba_marseille","lat":43.33614,"lon":5.41027,"is_reserved":false,"is_disabled":false,"rental_uris":{"android":"levelo://app?vid=2e57e480-a324-489b-8946-f7d9d9edcf00","ios":"levelo://app?vid=2e57e480-a324-489b-8946-f7d9d9edcf00"},"vehicle_type_id":"4","last_reported":1728634355,"current_range_meters":40000,"station_id":"ce4bhqh2rcd13ifvqhmg","pricing_plan_id":"cebpf4jnsgd1na2vs0mg"},{"bike_id":"4ed5529a-8e32-4f27-9e24-fac1d0803cf8","system_id":"levelo_inurba_marseille","lat":43.24645,"lon":5.38895,"is_reserved":false,"is_disabled":false,"rental_uris":{"android":"levelo://app?vid=4ed5529a-8e32-4f27-9e24-fac1d0803cf8","ios":"levelo://app?vid=4ed5529a-8e32-4f27-9e24-fac1d0803cf8"},"vehicle_type_id":"4","last_reported":1728634355,"current_range_meters":6800,"station_id":"ce4bhg12rcd13ifvqf60","pricing_plan_id":"cebpf4jnsgd1na2vs0mg"},{"bike_id":"d7904d32-0362-484b-a63a-cf15dc9c6117","system_id":"levelo_inurba_marseille","lat":43.28214,"lon":5.37906,"is_reserved":false,"is_disabled":false,"rental_uris":{"android":"levelo://app?vid=d7904d32-0362-484b-a63a-cf15dc9c6117","ios":"levelo://app?vid=d7904d32-0362-484b-a63a-cf15dc9c6117"},"vehicle_type_id":"4","last_reported":1728634355,"current_range_meters":2800,"station_id":"","pricing_plan_id":"cebpf4jnsgd1na2vs0mg"},{"bike_id":"edc976c4-a61b-4651-bb75-035f1fe9cfc3","system_id":"levelo_inurba_marseille","lat":43.23149,"lon":5.43724,"is_reserved":false,"is_disabled":false,"rental_uris":{"android":"levelo://app?vid=edc976c4-a61b-4651-bb75-035f1fe9cfc3","ios":"levelo://app?vid=edc976c4-a61b-4651-bb75-035f1fe9cfc3"},"vehicle_type_id":"4","last_reported":1728634355,"current_range_meters":25200,"station_id":"ce4bhmp2rcd13ifvqgog","pricing_plan_id":"cebpf4jnsgd1na2vs0mg"},{"bike_id":"3b57a592-8825-428c-896b-b98086efa782","system_id":"levelo_inurba_marseille","lat":43.28851,"lon":5.39318,"is_reserved":false,"is_disabled":false,"rental_uris":{"android":"levelo://app?vid=3b57a592-8825-428c-896b-b98086efa782","ios":"levelo://app?vid=3b57a592-8825-428c-896b-b98086efa782"},"vehicle_type_id":"4","last_reported":1728634355,"current_range_meters":26800,"station_id":"ce4bh2p2rcd13ifvqdi0","pricing_plan_id":"cebpf4jnsgd1na2vs0mg"},{"bike_id":"27ea83b5-2359-483a-8057-073cb72dabfc","system_id":"levelo_inurba_marseille","lat":43.28421,"lon":5.35001,"is_reserved":false,"is_disabled":false,"rental_uris":{"android":"levelo://app?vid=27ea83b5-2359-483a-8057-073cb72dabfc","ios":"levelo://app?vid=27ea83b5-2359-483a-8057-073cb72dabfc"},"vehicle_type_id":"4","last_reported":1728634355,"current_range_meters":27200,"station_id":"ce4bhbh2rcd13ifvqepg","pricing_plan_id":"cebpf4jnsgd1na2vs0mg"},{"bike_id":"88c24d1b-dfbd-45bd-b4f7-988658dd6eb2","system_id":"levelo_inurba_marseille","lat":43.27048,"lon":5.4026,"is_reserved":false,"is_disabled":false,"rental_uris":{"android":"levelo://app?vid=88c24d1b-dfbd-45bd-b4f7-988658dd6eb2","ios":"levelo://app?vid=88c24d1b-dfbd-45bd-b4f7-988658dd6eb2"},"vehicle_type_id":"4","last_reported":1728634355,"current_range_meters":24800,"station_id":"ce4bhk92rcd13ifvqgc0","pricing_plan_id":"cebpf4jnsgd1na2vs0mg"},{"bike_id":"852164f6-3887-49a8-8f76-2a877a93b396","system_id":"levelo_inurba_marseille","lat":43.29303,"lon":5.37472,"is_reserved":false,"is_disabled":false,"rental_uris":{"android":"levelo://app?vid=852164f6-3887-49a8-8f76-2a877a93b396","ios":"levelo://app?vid=852164f6-3887-49a8-8f76-2a877a93b396"},"vehicle_type_id":"4","last_reported":1728634355,"current_range_meters":24400,"station_id":"ce4bgi12rcd13ifvqb70","pricing_plan_id":"cebpf4jnsgd1na2vs0mg"},{"bike_id":"1d125077-d2a9-427c-9bb2-f66bf4752775","system_id":"levelo_inurba_marseille","lat":43.28468,"lon":5.38416,"is_reserved":false,"is_disabled":false,"rental_uris":{"android":"levelo://app?vid=1d125077-d2a9-427c-9bb2-f66bf4752775","ios":"levelo://app?vid=1d125077-d2a9-427c-9bb2-f66bf4752775"},"vehicle_type_id":"4","last_reported":1728634355,"current_range_meters":9600,"station_id":"ce4bh512rcd13ifvqe3g","pricing_plan_id":"cebpf4jnsgd1na2vs0mg"},{"bike_id":"68674aea-8688-4c47-b75f-697b30ee7d9b","system_id":"levelo_inurba_marseille","lat":43.30945,"lon":5.39051,"is_reserved":false,"is_disabled":false,"rental_uris":{"android":"levelo://app?vid=68674aea-8688-4c47-b75f-697b30ee7d9b","ios":"levelo://app?vid=68674aea-8688-4c47-b75f-697b30ee7d9b"},"vehicle_type_id":"4","last_reported":1728634355,"current_range_meters":9600,"station_id":"ce4bgup2rcd13ifvqco0","pricing_plan_id":"cebpf4jnsgd1na2vs0mg"},{"bike_id":"a16567ee-8663-415e-88a2-3a019332e0dc","system_id":"levelo_inurba_marseille","lat":43.25574,"lon":5.38235,"is_reserved":false,"is_disabled":false,"rental_uris":{"android":"levelo://app?vid=a16567ee-8663-415e-88a2-3a019332e0dc","ios":"levelo://app?vid=a16567ee-8663-415e-88a2-3a019332e0dc"},"vehicle_type_id":"4","last_reported":1728634355,"current_range_meters":28800,"station_id":"ce4bhih2rcd13ifvqfs0","pricing_plan_id":"cebpf4jnsgd1na2vs0mg"},{"bike_id":"a486d943-bca3-4153-b3f9-032cfa69543b","system_id":"levelo_inurba_marseille","lat":43.31356,"lon":5.36714,"is_reserved":false,"is_disabled":false,"rental_uris":{"android":"levelo://app?vid=a486d943-bca3-4153-b3f9-032cfa69543b","ios":"levelo://app?vid=a486d943-bca3-4153-b3f9-032cfa69543b"},"vehicle_type_id":"4","last_reported":1728634355,"current_range_meters":20400,"station_id":"ce4bgr92rcd13ifvqc6g","pricing_plan_id":"cebpf4jnsgd1na2vs0mg"},{"bike_id":"4261f153-78fa-4acc-b6b4-581c812f978c","system_id":"levelo_inurba_marseille","lat":43.29563,"lon":5.37521,"is_reserved":false,"is_disabled":false,"rental_uris":{"android":"levelo://app?vid=4261f153-78fa-4acc-b6b4-581c812f978c","ios":"levelo://app?vid=4261f153-78fa-4acc-b6b4-581c812f978c"},"vehicle_type_id":"4","last_reported":1728634355,"current_range_meters":24400,"station_id":"ce4bgh92rcd13ifvqb50","pricing_plan_id":"cebpf4jnsgd1na2vs0mg"},{"bike_id":"2383b18b-0cc5-4835-b5cb-a574c4874ae0","system_id":"levelo_inurba_marseille","lat":43.3095,"lon":5.39026,"is_reserved":false,"is_disabled":false,"rental_uris":{"android":"levelo://app?vid=2383b18b-0cc5-4835-b5cb-a574c4874ae0","ios":"levelo://app?vid=2383b18b-0cc5-4835-b5cb-a574c4874ae0"},"vehicle_type_id":"4","last_reported":1728634355,"current_range_meters":8000,"station_id":"ce4bgup2rcd13ifvqco0","pricing_plan_id":"cebpf4jnsgd1na2vs0mg"},{"bike_id":"aa75c41c-1391-4d5a-b0ad-fb29c317877d","system_id":"levelo_inurba_marseille","lat":43.23063,"lon":5.35493,"is_reserved":false,"is_disabled":false,"rental_uris":{"android":"levelo://app?vid=aa75c41c-1391-4d5a-b0ad-fb29c317877d","ios":"levelo://app?vid=aa75c41c-1391-4d5a-b0ad-fb29c317877d"},"vehicle_type_id":"4","last_reported":1728634355,"current_range_meters":7200,"station_id":"cpo3342slgdg3j2ifvpg","pricing_plan_id":"cebpf4jnsgd1na2vs0mg"},{"bike_id":"773b10cd-4140-4e1a-af4b-72bc0c858471","system_id":"levelo_inurba_marseille","lat":43.31356,"lon":5.36717,"is_reserved":false,"is_disabled":false,"rental_uris":{"android":"levelo://app?vid=773b10cd-4140-4e1a-af4b-72bc0c858471","ios":"levelo://app?vid=773b10cd-4140-4e1a-af4b-72bc0c858471"},"vehicle_type_id":"4","last_reported":1728634355,"current_range_meters":36800,"station_id":"ce4bgr92rcd13ifvqc6g","pricing_plan_id":"cebpf4jnsgd1na2vs0mg"},{"bike_id":"ce75ce27-c553-4f66-9b3d-29e64c80e58c","system_id":"levelo_inurba_marseille","lat":43.28074,"lon":5.39659,"is_reserved":false,"is_disabled":false,"rental_uris":{"android":"levelo://app?vid=ce75ce27-c553-4f66-9b3d-29e64c80e58c","ios":"levelo://app?vid=ce75ce27-c553-4f66-9b3d-29e64c80e58c"},"vehicle_type_id":"4","last_reported":1728634355,"current_range_meters":35600,"station_id":"ce4bho12rcd13ifvqh2g","pricing_plan_id":"cebpf4jnsgd1na2vs0mg"},{"bike_id":"5afdb8c9-d96d-4c0e-b591-d8ec4a6bd3ae","system_id":"levelo_inurba_marseille","lat":43.26946,"lon":5.38629,"is_reserved":false,"is_disabled":false,"rental_uris":{"android":"levelo://app?vid=5afdb8c9-d96d-4c0e-b591-d8ec4a6bd3ae","ios":"levelo://app?vid=5afdb8c9-d96d-4c0e-b591-d8ec4a6bd3ae"},"vehicle_type_id":"4","last_reported":1728634355,"current_range_meters":32000,"station_id":"ce4bhh92rcd13ifvqfh0","pricing_plan_id":"cebpf4jnsgd1na2vs0mg"},{"bike_id":"8951881c-1844-4191-93f4-b5f46119ae77","system_id":"levelo_inurba_marseille","lat":43.301497,"lon":5.380903,"is_reserved":false,"is_disabled":false,"rental_uris":{"android":"levelo://app?vid=8951881c-1844-4191-93f4-b5f46119ae77","ios":"levelo://app?vid=8951881c-1844-4191-93f4-b5f46119ae77"},"vehicle_type_id":"4","last_reported":1728634355,"current_range_meters":8000,"station_id":"ce4bgjp2rcd13ifvqbh0","pricing_plan_id":"cebpf4jnsgd1na2vs0mg"},{"bike_id":"6ac0c957-14ec-463a-9313-78cac548e912","system_id":"levelo_inurba_marseille","lat":43.30551,"lon":5.36706,"is_reserved":false,"is_disabled":false,"rental_uris":{"android":"levelo://app?vid=6ac0c957-14ec-463a-9313-78cac548e912","ios":"levelo://app?vid=6ac0c957-14ec-463a-9313-78cac548e912"},"vehicle_type_id":"4","last_reported":1728634355,"current_range_meters":30800,"station_id":"ce4bgrp2rcd13ifvqc9g","pricing_plan_id":"cebpf4jnsgd1na2vs0mg"},{"bike_id":"f9d57589-df01-4314-b928-fae3002186fa","system_id":"levelo_inurba_marseille","lat":43.2315,"lon":5.43704,"is_reserved":false,"is_disabled":false,"rental_uris":{"android":"levelo://app?vid=f9d57589-df01-4314-b928-fae3002186fa","ios":"levelo://app?vid=f9d57589-df01-4314-b928-fae3002186fa"},"vehicle_type_id":"4","last_reported":1728634355,"current_range_meters":24000,"station_id":"ce4bhmp2rcd13ifvqgog","pricing_plan_id":"cebpf4jnsgd1na2vs0mg"},{"bike_id":"956bad1d-e2b5-457b-a72c-20ea6c6fa6ac","system_id":"levelo_inurba_marseille","lat":43.29621,"lon":5.37172,"is_reserved":false,"is_disabled":false,"rental_uris":{"android":"levelo://app?vid=956bad1d-e2b5-457b-a72c-20ea6c6fa6ac","ios":"levelo://app?vid=956bad1d-e2b5-457b-a72c-20ea6c6fa6ac"},"vehicle_type_id":"4","last_reported":1728634355,"current_range_meters":34000,"station_id":"ce4bgnh2rcd13ifvqc0g","pricing_plan_id":"cebpf4jnsgd1na2vs0mg"},{"bike_id":"d4e7c199-5b07-4cc4-b4e1-e0fc91d98728","system_id":"levelo_inurba_marseille","lat":43.25579,"lon":5.38239,"is_reserved":false,"is_disabled":false,"rental_uris":{"android":"levelo://app?vid=d4e7c199-5b07-4cc4-b4e1-e0fc91d98728","ios":"levelo://app?vid=d4e7c199-5b07-4cc4-b4e1-e0fc91d98728"},"vehicle_type_id":"4","last_reported":1728634355,"current_range_meters":38000,"station_id":"ce4bhih2rcd13ifvqfs0","pricing_plan_id":"cebpf4jnsgd1na2vs0mg"},{"bike_id":"b1009450-6152-462c-a724-90df51eeb6db","system_id":"levelo_inurba_marseille","lat":43.32382,"lon":5.38917,"is_reserved":false,"is_disabled":false,"rental_uris":{"android":"levelo://app?vid=b1009450-6152-462c-a724-90df51eeb6db","ios":"levelo://app?vid=b1009450-6152-462c-a724-90df51eeb6db"},"vehicle_type_id":"4","last_reported":1728634355,"current_range_meters":6400,"station_id":"ce4bhqp2rcd13ifvqhog","pricing_plan_id":"cebpf4jnsgd1na2vs0mg"},{"bike_id":"e7ff8a71-08f6-4d85-81cd-23e686b45531","system_id":"levelo_inurba_marseille","lat":43.23196,"lon":5.35553,"is_reserved":false,"is_disabled":false,"rental_uris":{"android":"levelo://app?vid=e7ff8a71-08f6-4d85-81cd-23e686b45531","ios":"levelo://app?vid=e7ff8a71-08f6-4d85-81cd-23e686b45531"},"vehicle_type_id":"4","last_reported":1728634355,"current_range_meters":26000,"station_id":"ce4bhu92rcd13ifvqi70","pricing_plan_id":"cebpf4jnsgd1na2vs0mg"},{"bike_id":"19f5f42a-6adc-4145-8932-c12d978bc3e8","system_id":"levelo_inurba_marseille","lat":43.29109,"lon":5.38089,"is_reserved":false,"is_disabled":false,"rental_uris":{"android":"levelo://app?vid=19f5f42a-6adc-4145-8932-c12d978bc3e8","ios":"levelo://app?vid=19f5f42a-6adc-4145-8932-c12d978bc3e8"},"vehicle_type_id":"4","last_reported":1728634355,"current_range_meters":14400,"station_id":"ce4bgpp2rcd13ifvqc3g","pricing_plan_id":"cebpf4jnsgd1na2vs0mg"},{"bike_id":"ac88c9c3-7b97-4b15-9d64-52646be3df0e","system_id":"levelo_inurba_marseille","lat":43.300559,"lon":5.374383,"is_reserved":false,"is_disabled":false,"rental_uris":{"android":"levelo://app?vid=ac88c9c3-7b97-4b15-9d64-52646be3df0e","ios":"levelo://app?vid=ac88c9c3-7b97-4b15-9d64-52646be3df0e"},"vehicle_type_id":"4","last_reported":1728634355,"current_range_meters":9200,"station_id":"ce4bgs92rcd13ifvqcc0","pricing_plan_id":"cebpf4jnsgd1na2vs0mg"},{"bike_id":"4865689c-bdf5-4ab0-bfbb-8e9f5d1bcb7c","system_id":"levelo_inurba_marseille","lat":43.27962,"lon":5.38751,"is_reserved":false,"is_disabled":false,"rental_uris":{"android":"levelo://app?vid=4865689c-bdf5-4ab0-bfbb-8e9f5d1bcb7c","ios":"levelo://app?vid=4865689c-bdf5-4ab0-bfbb-8e9f5d1bcb7c"},"vehicle_type_id":"4","last_reported":1728634355,"current_range_meters":18000,"station_id":"ce4bhg12rcd13ifvqf80","pricing_plan_id":"cebpf4jnsgd1na2vs0mg"},{"bike_id":"144fa27b-4393-4404-953e-b972f1542b01","system_id":"levelo_inurba_marseille","lat":43.28471,"lon":5.38416,"is_reserved":false,"is_disabled":false,"rental_uris":{"android":"levelo://app?vid=144fa27b-4393-4404-953e-b972f1542b01","ios":"levelo://app?vid=144fa27b-4393-4404-953e-b972f1542b01"},"vehicle_type_id":"4","last_reported":1728634355,"current_range_meters":40000,"station_id":"ce4bh512rcd13ifvqe3g","pricing_plan_id":"cebpf4jnsgd1na2vs0mg"},{"bike_id":"a1f9acd4-c2e4-45fc-b38b-0e0aceb1d442","system_id":"levelo_inurba_marseille","lat":43.24663,"lon":5.38161,"is_reserved":false,"is_disabled":false,"rental_uris":{"android":"levelo://app?vid=a1f9acd4-c2e4-45fc-b38b-0e0aceb1d442","ios":"levelo://app?vid=a1f9acd4-c2e4-45fc-b38b-0e0aceb1d442"},"vehicle_type_id":"4","last_reported":1728634355,"current_range_meters":8800,"station_id":"ce4bhih2rcd13ifvqfr0","pricing_plan_id":"cebpf4jnsgd1na2vs0mg"},{"bike_id":"6ca511ac-5b4c-4dd7-80d2-8ce81cee7c7c","system_id":"levelo_inurba_marseille","lat":43.33773,"lon":5.37425,"is_reserved":false,"is_disabled":false,"rental_uris":{"android":"levelo://app?vid=6ca511ac-5b4c-4dd7-80d2-8ce81cee7c7c","ios":"levelo://app?vid=6ca511ac-5b4c-4dd7-80d2-8ce81cee7c7c"},"vehicle_type_id":"4","last_reported":1728634355,"current_range_meters":35600,"station_id":"","pricing_plan_id":"cebpf4jnsgd1na2vs0mg"},{"bike_id":"7254e48d-f618-4e1b-8031-58b858919a12","system_id":"levelo_inurba_marseille","lat":43.27172,"lon":5.40991,"is_reserved":false,"is_disabled":false,"rental_uris":{"android":"levelo://app?vid=7254e48d-f618-4e1b-8031-58b858919a12","ios":"levelo://app?vid=7254e48d-f618-4e1b-8031-58b858919a12"},"vehicle_type_id":"4","last_reported":1728634355,"current_range_meters":21600,"station_id":"ce4bhl12rcd13ifvqgf0","pricing_plan_id":"cebpf4jnsgd1na2vs0mg"},{"bike_id":"b8a87ab0-d055-4a8f-adad-dfa9d208369b","system_id":"levelo_inurba_marseille","lat":43.337444,"lon":5.374475,"is_reserved":false,"is_disabled":false,"rental_uris":{"android":"levelo://app?vid=b8a87ab0-d055-4a8f-adad-dfa9d208369b","ios":"levelo://app?vid=b8a87ab0-d055-4a8f-adad-dfa9d208369b"},"vehicle_type_id":"4","last_reported":1728634355,"current_range_meters":38800,"station_id":"","pricing_plan_id":"cebpf4jnsgd1na2vs0mg"},{"bike_id":"e8b356b2-207d-449d-9811-d5deb7267288","system_id":"levelo_inurba_marseille","lat":43.27051,"lon":5.40262,"is_reserved":false,"is_disabled":false,"rental_uris":{"android":"levelo://app?vid=e8b356b2-207d-449d-9811-d5deb7267288","ios":"levelo://app?vid=e8b356b2-207d-449d-9811-d5deb7267288"},"vehicle_type_id":"4","last_reported":1728634355,"current_range_meters":24400,"station_id":"ce4bhk92rcd13ifvqgc0","pricing_plan_id":"cebpf4jnsgd1na2vs0mg"},{"bike_id":"ed4ff37c-7b37-4616-af17-dad19155e98d","system_id":"levelo_inurba_marseille","lat":43.30129,"lon":5.37427,"is_reserved":false,"is_disabled":false,"rental_uris":{"android":"levelo://app?vid=ed4ff37c-7b37-4616-af17-dad19155e98d","ios":"levelo://app?vid=ed4ff37c-7b37-4616-af17-dad19155e98d"},"vehicle_type_id":"4","last_reported":1728634355,"current_range_meters":30000,"station_id":"ce4bgs92rcd13ifvqcc0","pricing_plan_id":"cebpf4jnsgd1na2vs0mg"},{"bike_id":"2a285562-41a2-40b8-9922-2f103ddbdf08","system_id":"levelo_inurba_marseille","lat":43.24178,"lon":5.39729,"is_reserved":false,"is_disabled":false,"rental_uris":{"android":"levelo://app?vid=2a285562-41a2-40b8-9922-2f103ddbdf08","ios":"levelo://app?vid=2a285562-41a2-40b8-9922-2f103ddbdf08"},"vehicle_type_id":"4","last_reported":1728634355,"current_range_meters":6400,"station_id":"ce4bhn12rcd13ifvqgpg","pricing_plan_id":"cebpf4jnsgd1na2vs0mg"},{"bike_id":"bfe2abd0-bd6a-48ca-8623-c579d5d44fea","system_id":"levelo_inurba_marseille","lat":43.28976,"lon":5.3784,"is_reserved":false,"is_disabled":false,"rental_uris":{"android":"levelo://app?vid=bfe2abd0-bd6a-48ca-8623-c579d5d44fea","ios":"levelo://app?vid=bfe2abd0-bd6a-48ca-8623-c579d5d44fea"},"vehicle_type_id":"4","last_reported":1728634355,"current_range_meters":38000,"station_id":"ce4bh9p2rcd13ifvqed0","pricing_plan_id":"cebpf4jnsgd1na2vs0mg"},{"bike_id":"3455b359-fdcf-4c67-be05-8360eacbea09","system_id":"levelo_inurba_marseille","lat":43.31353,"lon":5.36703,"is_reserved":false,"is_disabled":false,"rental_uris":{"android":"levelo://app?vid=3455b359-fdcf-4c67-be05-8360eacbea09","ios":"levelo://app?vid=3455b359-fdcf-4c67-be05-8360eacbea09"},"vehicle_type_id":"4","last_reported":1728634355,"current_range_meters":24000,"station_id":"ce4bgr92rcd13ifvqc6g","pricing_plan_id":"cebpf4jnsgd1na2vs0mg"},{"bike_id":"b3a4c503-3f0b-4831-93cd-884712e78b73","system_id":"levelo_inurba_marseille","lat":43.29847,"lon":5.36275,"is_reserved":false,"is_disabled":false,"rental_uris":{"android":"levelo://app?vid=b3a4c503-3f0b-4831-93cd-884712e78b73","ios":"levelo://app?vid=b3a4c503-3f0b-4831-93cd-884712e78b73"},"vehicle_type_id":"4","last_reported":1728634355,"current_range_meters":39200,"station_id":"ce4bgpp2rcd13ifvqc3g","pricing_plan_id":"cebpf4jnsgd1na2vs0mg"},{"bike_id":"eabaafd4-ab60-47f8-89ce-ef0e72c20579","system_id":"levelo_inurba_marseille","lat":43.33717,"lon":5.39179,"is_reserved":false,"is_disabled":false,"rental_uris":{"android":"levelo://app?vid=eabaafd4-ab60-47f8-89ce-ef0e72c20579","ios":"levelo://app?vid=eabaafd4-ab60-47f8-89ce-ef0e72c20579"},"vehicle_type_id":"4","last_reported":1728634355,"current_range_meters":38800,"station_id":"ce4bhr92rcd13ifvqhsg","pricing_plan_id":"cebpf4jnsgd1na2vs0mg"},{"bike_id":"5c807477-dbba-4f88-914a-2ae441118a5a","system_id":"levelo_inurba_marseille","lat":43.30543,"lon":5.36554,"is_reserved":false,"is_disabled":false,"rental_uris":{"android":"levelo://app?vid=5c807477-dbba-4f88-914a-2ae441118a5a","ios":"levelo://app?vid=5c807477-dbba-4f88-914a-2ae441118a5a"},"vehicle_type_id":"4","last_reported":1728634355,"current_range_meters":26800,"station_id":"ce4bgs12rcd13ifvqcag","pricing_plan_id":"cebpf4jnsgd1na2vs0mg"},{"bike_id":"7cf81f3f-937d-445e-8722-f142709f106a","system_id":"levelo_inurba_marseille","lat":43.29618,"lon":5.3717,"is_reserved":false,"is_disabled":false,"rental_uris":{"android":"levelo://app?vid=7cf81f3f-937d-445e-8722-f142709f106a","ios":"levelo://app?vid=7cf81f3f-937d-445e-8722-f142709f106a"},"vehicle_type_id":"4","last_reported":1728634355,"current_range_meters":30400,"station_id":"ce4bgnh2rcd13ifvqc0g","pricing_plan_id":"cebpf4jnsgd1na2vs0mg"},{"bike_id":"08fc8c91-d2c9-499e-808b-81e455f4e3b3","system_id":"levelo_inurba_marseille","lat":43.24076,"lon":5.37758,"is_reserved":false,"is_disabled":false,"rental_uris":{"android":"levelo://app?vid=08fc8c91-d2c9-499e-808b-81e455f4e3b3","ios":"levelo://app?vid=08fc8c91-d2c9-499e-808b-81e455f4e3b3"},"vehicle_type_id":"4","last_reported":1728634355,"current_range_meters":35200,"station_id":"ce4bhnp2rcd13ifvqgvg","pricing_plan_id":"cebpf4jnsgd1na2vs0mg"},{"bike_id":"ce04f614-a320-42df-8776-6146f8ec634d","system_id":"levelo_inurba_marseille","lat":43.25576,"lon":5.38235,"is_reserved":false,"is_disabled":false,"rental_uris":{"android":"levelo://app?vid=ce04f614-a320-42df-8776-6146f8ec634d","ios":"levelo://app?vid=ce04f614-a320-42df-8776-6146f8ec634d"},"vehicle_type_id":"4","last_reported":1728634355,"current_range_meters":37600,"station_id":"ce4bhih2rcd13ifvqfs0","pricing_plan_id":"cebpf4jnsgd1na2vs0mg"},{"bike_id":"31d0db0e-bef6-49bb-9ed6-4328dc531c70","system_id":"levelo_inurba_marseille","lat":43.30536,"lon":5.36545,"is_reserved":false,"is_disabled":false,"rental_uris":{"android":"levelo://app?vid=31d0db0e-bef6-49bb-9ed6-4328dc531c70","ios":"levelo://app?vid=31d0db0e-bef6-49bb-9ed6-4328dc531c70"},"vehicle_type_id":"4","last_reported":1728634355,"current_range_meters":33600,"station_id":"ce4bgs12rcd13ifvqcag","pricing_plan_id":"cebpf4jnsgd1na2vs0mg"},{"bike_id":"64fc0341-dffb-4bb8-a211-ba2a16298de5","system_id":"levelo_inurba_marseille","lat":43.26055,"lon":5.39396,"is_reserved":false,"is_disabled":false,"rental_uris":{"android":"levelo://app?vid=64fc0341-dffb-4bb8-a211-ba2a16298de5","ios":"levelo://app?vid=64fc0341-dffb-4bb8-a211-ba2a16298de5"},"vehicle_type_id":"4","last_reported":1728634355,"current_range_meters":14000,"station_id":"ce4bhh92rcd13ifvqfj0","pricing_plan_id":"cebpf4jnsgd1na2vs0mg"},{"bike_id":"7a398225-e65e-4047-9e9f-b53c3e44ece6","system_id":"levelo_inurba_marseille","lat":43.27305,"lon":5.39076,"is_reserved":false,"is_disabled":false,"rental_uris":{"android":"levelo://app?vid=7a398225-e65e-4047-9e9f-b53c3e44ece6","ios":"levelo://app?vid=7a398225-e65e-4047-9e9f-b53c3e44ece6"},"vehicle_type_id":"4","last_reported":1728634355,"current_range_meters":5600,"station_id":"ce4bhgp2rcd13ifvqfe0","pricing_plan_id":"cebpf4jnsgd1na2vs0mg"},{"bike_id":"014787a8-8077-47d6-a618-31446b315bf1","system_id":"levelo_inurba_marseille","lat":43.3015,"lon":5.38072,"is_reserved":false,"is_disabled":false,"rental_uris":{"android":"levelo://app?vid=014787a8-8077-47d6-a618-31446b315bf1","ios":"levelo://app?vid=014787a8-8077-47d6-a618-31446b315bf1"},"vehicle_type_id":"4","last_reported":1728634355,"current_range_meters":16800,"station_id":"ce4bgjp2rcd13ifvqbh0","pricing_plan_id":"cebpf4jnsgd1na2vs0mg"},{"bike_id":"b9ddc385-9d0a-4a5c-a232-9c495046db47","system_id":"levelo_inurba_marseille","lat":43.33604,"lon":5.41034,"is_reserved":false,"is_disabled":false,"rental_uris":{"android":"levelo://app?vid=b9ddc385-9d0a-4a5c-a232-9c495046db47","ios":"levelo://app?vid=b9ddc385-9d0a-4a5c-a232-9c495046db47"},"vehicle_type_id":"4","last_reported":1728634355,"current_range_meters":12000,"station_id":"ce4bhqh2rcd13ifvqhmg","pricing_plan_id":"cebpf4jnsgd1na2vs0mg"},{"bike_id":"a95529f2-2129-4a9b-a5db-1cf3f96206f6","system_id":"levelo_inurba_marseille","lat":43.26804,"lon":5.40262,"is_reserved":false,"is_disabled":false,"rental_uris":{"android":"levelo://app?vid=a95529f2-2129-4a9b-a5db-1cf3f96206f6","ios":"levelo://app?vid=a95529f2-2129-4a9b-a5db-1cf3f96206f6"},"vehicle_type_id":"4","last_reported":1728634355,"current_range_meters":28800,"station_id":"ce501612rcd8frsf0b60","pricing_plan_id":"cebpf4jnsgd1na2vs0mg"},{"bike_id":"655a4d1b-b7f3-48ec-bed6-2092bfff8cb7","system_id":"levelo_inurba_marseille","lat":43.29572,"lon":5.37511,"is_reserved":false,"is_disabled":false,"rental_uris":{"android":"levelo://app?vid=655a4d1b-b7f3-48ec-bed6-2092bfff8cb7","ios":"levelo://app?vid=655a4d1b-b7f3-48ec-bed6-2092bfff8cb7"},"vehicle_type_id":"4","last_reported":1728634355,"current_range_meters":19200,"station_id":"ce4bgh92rcd13ifvqb50","pricing_plan_id":"cebpf4jnsgd1na2vs0mg"},{"bike_id":"d3ff0d1e-0602-460e-a6ac-f922034d10ae","system_id":"levelo_inurba_marseille","lat":43.27484,"lon":5.42468,"is_reserved":false,"is_disabled":false,"rental_uris":{"android":"levelo://app?vid=d3ff0d1e-0602-460e-a6ac-f922034d10ae","ios":"levelo://app?vid=d3ff0d1e-0602-460e-a6ac-f922034d10ae"},"vehicle_type_id":"4","last_reported":1728634355,"current_range_meters":22400,"station_id":"ce4bhn92rcd13ifvqgrg","pricing_plan_id":"cebpf4jnsgd1na2vs0mg"},{"bike_id":"eebe701a-353a-43a6-aee7-e23d29912bfc","system_id":"levelo_inurba_marseille","lat":43.303295,"lon":5.392331,"is_reserved":false,"is_disabled":false,"rental_uris":{"android":"levelo://app?vid=eebe701a-353a-43a6-aee7-e23d29912bfc","ios":"levelo://app?vid=eebe701a-353a-43a6-aee7-e23d29912bfc"},"vehicle_type_id":"4","last_reported":1728634355,"current_range_meters":24000,"station_id":"ce4bgkh2rcd13ifvqbk0","pricing_plan_id":"cebpf4jnsgd1na2vs0mg"},{"bike_id":"d55108dd-87b6-40df-ab17-8aefce6fa80a","system_id":"levelo_inurba_marseille","lat":43.29275,"lon":5.36847,"is_reserved":false,"is_disabled":false,"rental_uris":{"android":"levelo://app?vid=d55108dd-87b6-40df-ab17-8aefce6fa80a","ios":"levelo://app?vid=d55108dd-87b6-40df-ab17-8aefce6fa80a"},"vehicle_type_id":"4","last_reported":1728634355,"current_range_meters":3200,"station_id":"ce4bhbp2rcd13ifvqesg","pricing_plan_id":"cebpf4jnsgd1na2vs0mg"},{"bike_id":"bba6feaf-c739-4e64-afef-2ed6cedffab1","system_id":"levelo_inurba_marseille","lat":43.28474,"lon":5.38406,"is_reserved":false,"is_disabled":false,"rental_uris":{"android":"levelo://app?vid=bba6feaf-c739-4e64-afef-2ed6cedffab1","ios":"levelo://app?vid=bba6feaf-c739-4e64-afef-2ed6cedffab1"},"vehicle_type_id":"4","last_reported":1728634355,"current_range_meters":10000,"station_id":"ce4bh512rcd13ifvqe3g","pricing_plan_id":"cebpf4jnsgd1na2vs0mg"},{"bike_id":"003926aa-1efb-4f5e-967f-6b8a5c3d7868","system_id":"levelo_inurba_marseille","lat":43.30148,"lon":5.38078,"is_reserved":false,"is_disabled":false,"rental_uris":{"android":"levelo://app?vid=003926aa-1efb-4f5e-967f-6b8a5c3d7868","ios":"levelo://app?vid=003926aa-1efb-4f5e-967f-6b8a5c3d7868"},"vehicle_type_id":"4","last_reported":1728634355,"current_range_meters":6400,"station_id":"ce4bgjp2rcd13ifvqbh0","pricing_plan_id":"cebpf4jnsgd1na2vs0mg"},{"bike_id":"6e952a5f-2835-4607-9cf0-2b8fa84d86ea","system_id":"levelo_inurba_marseille","lat":43.24075,"lon":5.37756,"is_reserved":false,"is_disabled":false,"rental_uris":{"android":"levelo://app?vid=6e952a5f-2835-4607-9cf0-2b8fa84d86ea","ios":"levelo://app?vid=6e952a5f-2835-4607-9cf0-2b8fa84d86ea"},"vehicle_type_id":"4","last_reported":1728634355,"current_range_meters":24800,"station_id":"ce4bhnp2rcd13ifvqgvg","pricing_plan_id":"cebpf4jnsgd1na2vs0mg"},{"bike_id":"a9e96e67-4bf5-497d-b94c-a24fe84b8bcf","system_id":"levelo_inurba_marseille","lat":43.30913,"lon":5.36857,"is_reserved":false,"is_disabled":false,"rental_uris":{"android":"levelo://app?vid=a9e96e67-4bf5-497d-b94c-a24fe84b8bcf","ios":"levelo://app?vid=a9e96e67-4bf5-497d-b94c-a24fe84b8bcf"},"vehicle_type_id":"4","last_reported":1728634355,"current_range_meters":32400,"station_id":"ce4bgn92rcd13ifvqbvg","pricing_plan_id":"cebpf4jnsgd1na2vs0mg"},{"bike_id":"f7fca811-7bd9-4603-8d52-d827efffd549","system_id":"levelo_inurba_marseille","lat":43.2693,"lon":5.38912,"is_reserved":false,"is_disabled":false,"rental_uris":{"android":"levelo://app?vid=f7fca811-7bd9-4603-8d52-d827efffd549","ios":"levelo://app?vid=f7fca811-7bd9-4603-8d52-d827efffd549"},"vehicle_type_id":"4","last_reported":1728634355,"current_range_meters":22400,"station_id":"ce4bhhh2rcd13ifvqfl0","pricing_plan_id":"cebpf4jnsgd1na2vs0mg"},{"bike_id":"4258e283-c9b2-4abb-b0da-fbaa438577cb","system_id":"levelo_inurba_marseille","lat":43.23156,"lon":5.43701,"is_reserved":false,"is_disabled":false,"rental_uris":{"android":"levelo://app?vid=4258e283-c9b2-4abb-b0da-fbaa438577cb","ios":"levelo://app?vid=4258e283-c9b2-4abb-b0da-fbaa438577cb"},"vehicle_type_id":"4","last_reported":1728634355,"current_range_meters":6000,"station_id":"ce4bhmp2rcd13ifvqgog","pricing_plan_id":"cebpf4jnsgd1na2vs0mg"},{"bike_id":"379c2025-54de-44b7-bc20-27c200f3d389","system_id":"levelo_inurba_marseille","lat":43.31354,"lon":5.36702,"is_reserved":false,"is_disabled":false,"rental_uris":{"android":"levelo://app?vid=379c2025-54de-44b7-bc20-27c200f3d389","ios":"levelo://app?vid=379c2025-54de-44b7-bc20-27c200f3d389"},"vehicle_type_id":"4","last_reported":1728634355,"current_range_meters":40000,"station_id":"ce4bgr92rcd13ifvqc6g","pricing_plan_id":"cebpf4jnsgd1na2vs0mg"},{"bike_id":"956d4de6-6fd0-4b01-bb58-de93ef548f43","system_id":"levelo_inurba_marseille","lat":43.30128,"lon":5.39865,"is_reserved":false,"is_disabled":false,"rental_uris":{"android":"levelo://app?vid=956d4de6-6fd0-4b01-bb58-de93ef548f43","ios":"levelo://app?vid=956d4de6-6fd0-4b01-bb58-de93ef548f43"},"vehicle_type_id":"4","last_reported":1728634355,"current_range_meters":36800,"station_id":"ce4bh0h2rcd13ifvqd40","pricing_plan_id":"cebpf4jnsgd1na2vs0mg"},{"bike_id":"8e9d327a-e210-4bf1-a8ce-a07aecc59577","system_id":"levelo_inurba_marseille","lat":43.297333,"lon":5.405392,"is_reserved":false,"is_disabled":false,"rental_uris":{"android":"levelo://app?vid=8e9d327a-e210-4bf1-a8ce-a07aecc59577","ios":"levelo://app?vid=8e9d327a-e210-4bf1-a8ce-a07aecc59577"},"vehicle_type_id":"4","last_reported":1728634355,"current_range_meters":19200,"station_id":"ce4bhnh2rcd13ifvqgug","pricing_plan_id":"cebpf4jnsgd1na2vs0mg"},{"bike_id":"d6a085e4-bfbf-4510-968c-e4cc0766c2f4","system_id":"levelo_inurba_marseille","lat":43.3027,"lon":5.37698,"is_reserved":false,"is_disabled":false,"rental_uris":{"android":"levelo://app?vid=d6a085e4-bfbf-4510-968c-e4cc0766c2f4","ios":"levelo://app?vid=d6a085e4-bfbf-4510-968c-e4cc0766c2f4"},"vehicle_type_id":"4","last_reported":1728634355,"current_range_meters":39200,"station_id":"ce4bguh2rcd13ifvqcj0","pricing_plan_id":"cebpf4jnsgd1na2vs0mg"},{"bike_id":"d3515cc2-9931-4d17-a2b9-231072d9e4d2","system_id":"levelo_inurba_marseille","lat":43.231924,"lon":5.35555,"is_reserved":false,"is_disabled":false,"rental_uris":{"android":"levelo://app?vid=d3515cc2-9931-4d17-a2b9-231072d9e4d2","ios":"levelo://app?vid=d3515cc2-9931-4d17-a2b9-231072d9e4d2"},"vehicle_type_id":"4","last_reported":1728634355,"current_range_meters":24400,"station_id":"ce4bhu92rcd13ifvqi70","pricing_plan_id":"cebpf4jnsgd1na2vs0mg"},{"bike_id":"5e9b747e-82e9-4343-9a7e-19f72fd473f0","system_id":"levelo_inurba_marseille","lat":43.23154,"lon":5.43702,"is_reserved":false,"is_disabled":false,"rental_uris":{"android":"levelo://app?vid=5e9b747e-82e9-4343-9a7e-19f72fd473f0","ios":"levelo://app?vid=5e9b747e-82e9-4343-9a7e-19f72fd473f0"},"vehicle_type_id":"4","last_reported":1728634355,"current_range_meters":20000,"station_id":"ce4bhmp2rcd13ifvqgog","pricing_plan_id":"cebpf4jnsgd1na2vs0mg"},{"bike_id":"42c58507-4efb-4724-96f7-31b2e55784d3","system_id":"levelo_inurba_marseille","lat":43.33016,"lon":5.39046,"is_reserved":false,"is_disabled":false,"rental_uris":{"android":"levelo://app?vid=42c58507-4efb-4724-96f7-31b2e55784d3","ios":"levelo://app?vid=42c58507-4efb-4724-96f7-31b2e55784d3"},"vehicle_type_id":"4","last_reported":1728634355,"current_range_meters":20800,"station_id":"ce4bhr92rcd13ifvqhrg","pricing_plan_id":"cebpf4jnsgd1na2vs0mg"},{"bike_id":"cad105d5-02d1-4129-8602-329f356e7204","system_id":"levelo_inurba_marseille","lat":43.34135,"lon":5.40909,"is_reserved":false,"is_disabled":false,"rental_uris":{"android":"levelo://app?vid=cad105d5-02d1-4129-8602-329f356e7204","ios":"levelo://app?vid=cad105d5-02d1-4129-8602-329f356e7204"},"vehicle_type_id":"4","last_reported":1728634355,"current_range_meters":32400,"station_id":"ce4bhqh2rcd13ifvqhlg","pricing_plan_id":"cebpf4jnsgd1na2vs0mg"},{"bike_id":"c9628a4a-1d9c-44d4-865f-dc0a8eacf266","system_id":"levelo_inurba_marseille","lat":43.30944,"lon":5.39032,"is_reserved":false,"is_disabled":false,"rental_uris":{"android":"levelo://app?vid=c9628a4a-1d9c-44d4-865f-dc0a8eacf266","ios":"levelo://app?vid=c9628a4a-1d9c-44d4-865f-dc0a8eacf266"},"vehicle_type_id":"4","last_reported":1728634355,"current_range_meters":30400,"station_id":"ce4bgup2rcd13ifvqco0","pricing_plan_id":"cebpf4jnsgd1na2vs0mg"},{"bike_id":"1647156a-9598-46c2-9000-5d2f63325f91","system_id":"levelo_inurba_marseille","lat":43.2408,"lon":5.37747,"is_reserved":false,"is_disabled":false,"rental_uris":{"android":"levelo://app?vid=1647156a-9598-46c2-9000-5d2f63325f91","ios":"levelo://app?vid=1647156a-9598-46c2-9000-5d2f63325f91"},"vehicle_type_id":"4","last_reported":1728634355,"current_range_meters":39200,"station_id":"ce4bhnp2rcd13ifvqgvg","pricing_plan_id":"cebpf4jnsgd1na2vs0mg"},