{"last_updated":1770931421,"ttl":60,"version":"2.2","data":{"bikes":[{"bike_id":"4659f5f2-43a6-4213-b84f-184d5dec64b3","system_id":"levelo_inurba_marseille","lat":43.33549,"lon":5.37455,"is_reserved":false,"is_disabled":false,"rental_uris":{"android":"levelo://app?vid=4659f5f2-43a6-4213-b84f-184d5dec64b3","ios":"levelo://app?vid=4659f5f2-43a6-4213-b84f-184d5dec64b3"},"vehicle_type_id":"4","last_reported":1770931421,"current_range_meters":1200,"station_id":"st_d46tts09ee8s73dlu43g","pricing_plan_id":"cebpf4jnsgd1na2vs0mg"},{"bike_id":"6d150b77-ae17-47e1-8d5c-fd574757a1eb","system_id":"levelo_inurba_marseille","lat":43.27068,"lon":5.40258,"is_reserved":false,"is_disabled":false,"rental_uris":{"android":"levelo://app?vid=6d150b77-ae17-47e1-8d5c-fd574757a1eb","ios":"levelo://app?vid=6d150b77-ae17-47e1-8d5c-fd574757a1eb"},"vehicle_type_id":"4","last_reported":1770931421,"current_range_meters":2800,"station_id":"ce4bhk92rcd13ifvqgc0","pricing_plan_id":"cebpf4jnsgd1na2vs0mg"},{"bike_id":"b55cacf2-fdf9-4f3b-982f-67eea6b14678","system_id":"levelo_inurba_marseille","lat":43.31186,"lon":5.39076,"is_reserved":false,"is_disabled":false,"rental_uris":{"android":"levelo://app?vid=b55cacf2-fdf9-4f3b-982f-67eea6b14678","ios":"levelo://app?vid=b55cacf2-fdf9-4f3b-982f-67eea6b14678"},"vehicle_type_id":"4","last_reported":1770931421,"current_range_meters":2800,"station_id":"","pricing_plan_id":"cebpf4jnsgd1na2vs0mg"},{"bike_id":"b28c165c-fdca-40d9-8b70-c8062cbb7e3a","system_id":"levelo_inurba_marseille","lat":43.2928,"lon":5.38428,"is_reserved":false,"is_disabled":true,"rental_uris":{"android":"levelo://app?vid=b28c165c-fdca-40d9-8b70-c8062cbb7e3a","ios":"levelo://app?vid=b28c165c-fdca-40d9-8b70-c8062cbb7e3a"},"vehicle_type_id":"4","last_reported":1770931421,"current_range_meters":2800,"station_id":"ce4bh692rcd13ifvqea0","pricing_plan_id":"cebpf4jnsgd1na2vs0mg"},{"bike_id":"79ae11d0-da2c-4134-8663-64d51fc1678e","system_id":"levelo_inurba_marseille","lat":43.31073,"lon":5.3834,"is_reserved":false,"is_disabled":false,"rental_uris":{"android":"levelo://app?vid=79ae11d0-da2c-4134-8663-64d51fc1678e","ios":"levelo://app?vid=79ae11d0-da2c-4134-8663-64d51fc1678e"},"vehicle_type_id":"4","last_reported":1770931421,"current_range_meters":2800,"station_id":"ce4bgv92rcd13ifvqcr0","pricing_plan_id":"cebpf4jnsgd1na2vs0mg"},{"bike_id":"0f501f62-14f0-41b3-82c7-b676fd3b10cc","system_id":"levelo_inurba_marseille","lat":43.306,"lon":5.3937,"is_reserved":false,"is_disabled":false,"rental_uris":{"android":"levelo://app?vid=0f501f62-14f0-41b3-82c7-b676fd3b10cc","ios":"levelo://app?vid=0f501f62-14f0-41b3-82c7-b676fd3b10cc"},"vehicle_type_id":"4","last_reported":1770931421,"current_range_meters":2800,"station_id":"ce4bh0p2rcd13ifvqd80","pricing_plan_id":"cebpf4jnsgd1na2vs0mg"},{"bike_id":"6efe5f0a-6c4f-403e-907f-5428484845d2","system_id":"levelo_inurba_marseille","lat":43.31701,"lon":5.40375,"is_reserved":false,"is_disabled":false,"rental_uris":{"android":"levelo://app?vid=6efe5f0a-6c4f-403e-907f-5428484845d2","ios":"levelo://app?vid=6efe5f0a-6c4f-403e-907f-5428484845d2"},"vehicle_type_id":"4","last_reported":1770931421,"current_range_meters":2800,"station_id":"","pricing_plan_id":"cebpf4jnsgd1na2vs0mg"},{"bike_id":"9d232fe1-bacc-4ab5-9a1d-740250d1f6aa","system_id":"levelo_inurba_marseille","lat":43.29529,"lon":5.39404,"is_reserved":false,"is_disabled":false,"rental_uris":{"android":"levelo://app?vid=9d232fe1-bacc-4ab5-9a1d-740250d1f6aa","ios":"levelo://app?vid=9d232fe1-bacc-4ab5-9a1d-740250d1f6aa"},"vehicle_type_id":"4","last_reported":1770931421,"current_range_meters":2800,"station_id":"ce4bh292rcd13ifvqdf0","pricing_plan_id":"cebpf4jnsgd1na2vs0mg"},{"bike_id":"ff335052-4f54-4f9b-a927-591da0c1a457","system_id":"levelo_inurba_marseille","lat":43.27378,"lon":5.36282,"is_reserved":false,"is_disabled":false,"rental_uris":{"android":"levelo://app?vid=ff335052-4f54-4f9b-a927-591da0c1a457","ios":"levelo://app?vid=ff335052-4f54-4f9b-a927-591da0c1a457"},"vehicle_type_id":"4","last_reported":1770931421,"current_range_meters":2800,"station_id":"ce4bhbh2rcd13ifvqeo0","pricing_plan_id":"cebpf4jnsgd1na2vs0mg"},{"bike_id":"36c53d5a-5c92-4a93-a701-4acedf0bbb26","system_id":"levelo_inurba_marseille","lat":43.26247,"lon":5.37448,"is_reserved":false,"is_disabled":false,"rental_uris":{"android":"levelo://app?vid=36c53d5a-5c92-4a93-a701-4acedf0bbb26","ios":"levelo://app?vid=36c53d5a-5c92-4a93-a701-4acedf0bbb26"},"vehicle_type_id":"4","last_reported":1770931421,"current_range_meters":2800,"station_id":"","pricing_plan_id":"cebpf4jnsgd1na2vs0mg"},{"bike_id":"2134755c-aff0-474c-96b4-58254aaffc31","system_id":"levelo_inurba_marseille","lat":43.29901,"lon":5.43661,"is_reserved":false,"is_disabled":false,"rental_uris":{"android":"levelo://app?vid=2134755c-aff0-474c-96b4-58254aaffc31","ios":"levelo://app?vid=2134755c-aff0-474c-96b4-58254aaffc31"},"vehicle_type_id":"4","last_reported":1770931421,"current_range_meters":2800,"station_id":"ce4bhpp2rcd13ifvqhfg","pricing_plan_id":"cebpf4jnsgd1na2vs0mg"},{"bike_id":"908a123c-2b23-4cd7-94c7-d47ddc8257e1","system_id":"levelo_inurba_marseille","lat":43.27915,"lon":5.39572,"is_reserved":false,"is_disabled":false,"rental_uris":{"android":"levelo://app?vid=908a123c-2b23-4cd7-94c7-d47ddc8257e1","ios":"levelo://app?vid=908a123c-2b23-4cd7-94c7-d47ddc8257e1"},"vehicle_type_id":"4","last_reported":1770931421,"current_range_meters":2800,"station_id":"ce4bhf92rcd13ifvqf40","pricing_plan_id":"cebpf4jnsgd1na2vs0mg"},{"bike_id":"ff892a04-ae98-4fdf-81ac-3050c7d2c38a","system_id":"levelo_inurba_marseille","lat":43.26581,"lon":5.39006,"is_reserved":false,"is_disabled":false,"rental_uris":{"android":"levelo://app?vid=ff892a04-ae98-4fdf-81ac-3050c7d2c38a","ios":"levelo://app?vid=ff892a04-ae98-4fdf-81ac-3050c7d2c38a"},"vehicle_type_id":"4","last_reported":1770931421,"current_range_meters":3200,"station_id":"ce4bhe12rcd13ifvqf30","pricing_plan_id":"cebpf4jnsgd1na2vs0mg"},{"bike_id":"0d60f49b-2168-485f-9c8c-8bf326d0ba55","system_id":"levelo_inurba_marseille","lat":43.24516,"lon":5.42462,"is_reserved":false,"is_disabled":false,"rental_uris":{"android":"levelo://app?vid=0d60f49b-2168-485f-9c8c-8bf326d0ba55","ios":"levelo://app?vid=0d60f49b-2168-485f-9c8c-8bf326d0ba55"},"vehicle_type_id":"4","last_reported":1770931421,"current_range_meters":3200,"station_id":"","pricing_plan_id":"cebpf4jnsgd1na2vs0mg"},{"bike_id":"9b7de680-e656-45c2-b846-8bd381e9ca89","system_id":"levelo_inurba_marseille","lat":43.30432,"lon":5.40743,"is_reserved":false,"is_disabled":false,"rental_uris":{"android":"levelo://app?vid=9b7de680-e656-45c2-b846-8bd381e9ca89","ios":"levelo://app?vid=9b7de680-e656-45c2-b846-8bd381e9ca89"},"vehicle_type_id":"4","last_reported":1770931421,"current_range_meters":3200,"station_id":"","pricing_plan_id":"cebpf4jnsgd1na2vs0mg"},{"bike_id":"d4ceebfc-5721-4ac7-be2d-0d6631457e63","system_id":"levelo_inurba_marseille","lat":43.30918,"lon":5.36877,"is_reserved":false,"is_disabled":false,"rental_uris":{"android":"levelo://app?vid=d4ceebfc-5721-4ac7-be2d-0d6631457e63","ios":"levelo://app?vid=d4ceebfc-5721-4ac7-be2d-0d6631457e63"},"vehicle_type_id":"4","last_reported":1770931421,"current_range_meters":3200,"station_id":"ce4bgn92rcd13ifvqbvg","pricing_plan_id":"cebpf4jnsgd1na2vs0mg"},{"bike_id":"10b7ee14-0987-4002-bb2e-d45d5a99762f","system_id":"levelo_inurba_marseille","lat":43.22568,"lon":5.41628,"is_reserved":false,"is_disabled":false,"rental_uris":{"android":"levelo://app?vid=10b7ee14-0987-4002-bb2e-d45d5a99762f","ios":"levelo://app?vid=10b7ee14-0987-4002-bb2e-d45d5a99762f"},"vehicle_type_id":"4","last_reported":1770931421,"current_range_meters":3200,"station_id":"st_d2o4gvlbi1j2169b742g","pricing_plan_id":"cebpf4jnsgd1na2vs0mg"},{"bike_id":"9e3bc487-b0e5-43b2-98b8-caa6f87f206e","system_id":"levelo_inurba_marseille","lat":43.31722,"lon":5.37767,"is_reserved":false,"is_disabled":false,"rental_uris":{"android":"levelo://app?vid=9e3bc487-b0e5-43b2-98b8-caa6f87f206e","ios":"levelo://app?vid=9e3bc487-b0e5-43b2-98b8-caa6f87f206e"},"vehicle_type_id":"4","last_reported":1770931421,"current_range_meters":3200,"station_id":"ce4bgth2rcd13ifvqch0","pricing_plan_id":"cebpf4jnsgd1na2vs0mg"},{"bike_id":"a2ccfa9a-4098-40d6-b02d-3361c77944dc","system_id":"levelo_inurba_marseille","lat":43.26172,"lon":5.38748,"is_reserved":false,"is_disabled":false,"rental_uris":{"android":"levelo://app?vid=a2ccfa9a-4098-40d6-b02d-3361c77944dc","ios":"levelo://app?vid=a2ccfa9a-4098-40d6-b02d-3361c77944dc"},"vehicle_type_id":"4","last_reported":1770931421,"current_range_meters":3200,"station_id":"","pricing_plan_id":"cebpf4jnsgd1na2vs0mg"},{"bike_id":"ac9a885a-fe7d-4871-905c-95e91acf3aa8","system_id":"levelo_inurba_marseille","lat":43.22557,"lon":5.41626,"is_reserved":false,"is_disabled":false,"rental_uris":{"android":"levelo://app?vid=ac9a885a-fe7d-4871-905c-95e91acf3aa8","ios":"levelo://app?vid=ac9a885a-fe7d-4871-905c-95e91acf3aa8"},"vehicle_type_id":"4","last_reported":1770931421,"current_range_meters":3200,"station_id":"st_d2o4gvlbi1j2169b742g","pricing_plan_id":"cebpf4jnsgd1na2vs0mg"},{"bike_id":"babdcd4a-655b-4e95-88f5-77a8529739da","system_id":"levelo_inurba_marseille","lat":43.22569,"lon":5.41655,"is_reserved":false,"is_disabled":false,"rental_uris":{"android":"levelo://app?vid=babdcd4a-655b-4e95-88f5-77a8529739da","ios":"levelo://app?vid=babdcd4a-655b-4e95-88f5-77a8529739da"},"vehicle_type_id":"4","last_reported":1770931421,"current_range_meters":3200,"station_id":"st_d2o4gvlbi1j2169b742g","pricing_plan_id":"cebpf4jnsgd1na2vs0mg"},{"bike_id":"214f5f33-75b1-40c6-a464-49feccf0086f","system_id":"levelo_inurba_marseille","lat":43.23213,"lon":5.40001,"is_reserved":false,"is_disabled":false,"rental_uris":{"android":"levelo://app?vid=214f5f33-75b1-40c6-a464-49feccf0086f","ios":"levelo://app?vid=214f5f33-75b1-40c6-a464-49feccf0086f"},"vehicle_type_id":"4","last_reported":1770931421,"current_range_meters":3600,"station_id":"ce4bhn12rcd13ifvqgqg","pricing_plan_id":"cebpf4jnsgd1na2vs0mg"},{"bike_id":"34e1cec2-e745-47fd-a5c1-25a263e345a0","system_id":"levelo_inurba_marseille","lat":43.2844,"lon":5.45716,"is_reserved":false,"is_disabled":false,"rental_uris":{"android":"levelo://app?vid=34e1cec2-e745-47fd-a5c1-25a263e345a0","ios":"levelo://app?vid=34e1cec2-e745-47fd-a5c1-25a263e345a0"},"vehicle_type_id":"4","last_reported":1770931421,"current_range_meters":3600,"station_id":"","pricing_plan_id":"cebpf4jnsgd1na2vs0mg"},{"bike_id":"9aec714d-515d-4e78-9d45-9abe640e8105","system_id":"levelo_inurba_marseille","lat":43.25602,"lon":5.38262,"is_reserved":false,"is_disabled":false,"rental_uris":{"android":"levelo://app?vid=9aec714d-515d-4e78-9d45-9abe640e8105","ios":"levelo://app?vid=9aec714d-515d-4e78-9d45-9abe640e8105"},"vehicle_type_id":"4","last_reported":1770931421,"current_range_meters":3600,"station_id":"ce4bhih2rcd13ifvqfs0","pricing_plan_id":"cebpf4jnsgd1na2vs0mg"},{"bike_id":"8b4263f7-2795-486a-b290-22850f34f9ba","system_id":"levelo_inurba_marseille","lat":43.25003,"lon":5.38928,"is_reserved":false,"is_disabled":false,"rental_uris":{"android":"levelo://app?vid=8b4263f7-2795-486a-b290-22850f34f9ba","ios":"levelo://app?vid=8b4263f7-2795-486a-b290-22850f34f9ba"},"vehicle_type_id":"4","last_reported":1770931421,"current_range_meters":3600,"station_id":"ce4bhgp2rcd13ifvqfd0","pricing_plan_id":"cebpf4jnsgd1na2vs0mg"},{"bike_id":"cc43a2a6-4df1-46ee-89a5-e5908a5338ed","system_id":"levelo_inurba_marseille","lat":43.28495,"lon":5.48396,"is_reserved":false,"is_disabled":false,"rental_uris":{"android":"levelo://app?vid=cc43a2a6-4df1-46ee-89a5-e5908a5338ed","ios":"levelo://app?vid=cc43a2a6-4df1-46ee-89a5-e5908a5338ed"},"vehicle_type_id":"4","last_reported":1770931421,"current_range_meters":3600,"station_id":"st_d3svhcjqgbts73a3dn0g","pricing_plan_id":"cebpf4jnsgd1na2vs0mg"},{"bike_id":"11e89557-b7ab-4c78-855c-3f9580806aaa","system_id":"levelo_inurba_marseille","lat":43.30834,"lon":5.38295,"is_reserved":false,"is_disabled":false,"rental_uris":{"android":"levelo://app?vid=11e89557-b7ab-4c78-855c-3f9580806aaa","ios":"levelo://app?vid=11e89557-b7ab-4c78-855c-3f9580806aaa"},"vehicle_type_id":"4","last_reported":1770931421,"current_range_meters":4000,"station_id":"","pricing_plan_id":"cebpf4jnsgd1na2vs0mg"},{"bike_id":"fdcca747-1f0c-4265-9d25-6a349973ec5d","system_id":"levelo_inurba_marseille","lat":43.33162,"lon":5.37701,"is_reserved":false,"is_disabled":false,"rental_uris":{"android":"levelo://app?vid=fdcca747-1f0c-4265-9d25-6a349973ec5d","ios":"levelo://app?vid=fdcca747-1f0c-4265-9d25-6a349973ec5d"},"vehicle_type_id":"4","last_reported":1770931421,"current_range_meters":4000,"station_id":"st_d46cu089ee8s73dldbu0","pricing_plan_id":"cebpf4jnsgd1na2vs0mg"},{"bike_id":"85a8e2b6-99b0-411b-9bcf-23e3fa57df23","system_id":"levelo_inurba_marseille","lat":43.30788,"lon":5.37644,"is_reserved":false,"is_disabled":false,"rental_uris":{"android":"levelo://app?vid=85a8e2b6-99b0-411b-9bcf-23e3fa57df23","ios":"levelo://app?vid=85a8e2b6-99b0-411b-9bcf-23e3fa57df23"},"vehicle_type_id":"4","last_reported":1770931421,"current_range_meters":4000,"station_id":"ce4bgv92rcd13ifvqcq0","pricing_plan_id":"cebpf4jnsgd1na2vs0mg"},{"bike_id":"3aef8620-296a-4e5a-aa54-267d8039b5b8","system_id":"levelo_inurba_marseille","lat":43.250009,"lon":5.389236,"is_reserved":false,"is_disabled":false,"rental_uris":{"android":"levelo://app?vid=3aef8620-296a-4e5a-aa54-267d8039b5b8","ios":"levelo://app?vid=3aef8620-296a-4e5a-aa54-267d8039b5b8"},"vehicle_type_id":"4","last_reported":1770931421,"current_range_meters":4000,"station_id":"ce4bhgp2rcd13ifvqfd0","pricing_plan_id":"cebpf4jnsgd1na2vs0mg"},{"bike_id":"b6617a61-12dd-4860-a8b7-39ae05487499","system_id":"levelo_inurba_marseille","lat":43.28118,"lon":5.3784,"is_reserved":false,"is_disabled":false,"rental_uris":{"android":"levelo://app?vid=b6617a61-12dd-4860-a8b7-39ae05487499","ios":"levelo://app?vid=b6617a61-12dd-4860-a8b7-39ae05487499"},"vehicle_type_id":"4","last_reported":1770931421,"current_range_meters":4000,"station_id":"ce4bha12rcd13ifvqee0","pricing_plan_id":"cebpf4jnsgd1na2vs0mg"},{"bike_id":"d997c6b7-acb1-4efa-ae35-2d8c161e2e69","system_id":"levelo_inurba_marseille","lat":43.23198,"lon":5.35582,"is_reserved":false,"is_disabled":false,"rental_uris":{"android":"levelo://app?vid=d997c6b7-acb1-4efa-ae35-2d8c161e2e69","ios":"levelo://app?vid=d997c6b7-acb1-4efa-ae35-2d8c161e2e69"},"vehicle_type_id":"4","last_reported":1770931421,"current_range_meters":4400,"station_id":"ce4bhu92rcd13ifvqi70","pricing_plan_id":"cebpf4jnsgd1na2vs0mg"},{"bike_id":"bba0fc76-f1e2-4726-b023-f4c7e11b5ff3","system_id":"levelo_inurba_marseille","lat":43.27949,"lon":5.41046,"is_reserved":false,"is_disabled":false,"rental_uris":{"android":"levelo://app?vid=bba0fc76-f1e2-4726-b023-f4c7e11b5ff3","ios":"levelo://app?vid=bba0fc76-f1e2-4726-b023-f4c7e11b5ff3"},"vehicle_type_id":"4","last_reported":1770931421,"current_range_meters":4400,"station_id":"ce4bhnp2rcd13ifvqh0g","pricing_plan_id":"cebpf4jnsgd1na2vs0mg"},{"bike_id":"5fda65b6-7f98-4bf6-b2de-a2c95ed917cc","system_id":"levelo_inurba_marseille","lat":43.25451,"lon":5.38443,"is_reserved":false,"is_disabled":false,"rental_uris":{"android":"levelo://app?vid=5fda65b6-7f98-4bf6-b2de-a2c95ed917cc","ios":"levelo://app?vid=5fda65b6-7f98-4bf6-b2de-a2c95ed917cc"},"vehicle_type_id":"4","last_reported":1770931421,"current_range_meters":4400,"station_id":"","pricing_plan_id":"cebpf4jnsgd1na2vs0mg"},{"bike_id":"eb153995-5d33-4b1d-a5c0-ee8cc4302ea8","system_id":"levelo_inurba_marseille","lat":43.26577,"lon":5.39054,"is_reserved":false,"is_disabled":false,"rental_uris":{"android":"levelo://app?vid=eb153995-5d33-4b1d-a5c0-ee8cc4302ea8","ios":"levelo://app?vid=eb153995-5d33-4b1d-a5c0-ee8cc4302ea8"},"vehicle_type_id":"4","last_reported":1770931421,"current_range_meters":4800,"station_id":"ce4bhe12rcd13ifvqf30","pricing_plan_id":"cebpf4jnsgd1na2vs0mg"},{"bike_id":"e49e5254-7e38-4e49-9aef-5d24c044ff49","system_id":"levelo_inurba_marseille","lat":43.29275,"lon":5.38507,"is_reserved":false,"is_disabled":false,"rental_uris":{"android":"levelo://app?vid=e49e5254-7e38-4e49-9aef-5d24c044ff49","ios":"levelo://app?vid=e49e5254-7e38-4e49-9aef-5d24c044ff49"},"vehicle_type_id":"4","last_reported":1770931421,"current_range_meters":4800,"station_id":"","pricing_plan_id":"cebpf4jnsgd1na2vs0mg"},{"bike_id":"a95fc94e-2f99-4c26-9123-e06d717b8d43","system_id":"levelo_inurba_marseille","lat":43.292714,"lon":5.384393,"is_reserved":false,"is_disabled":false,"rental_uris":{"android":"levelo://app?vid=a95fc94e-2f99-4c26-9123-e06d717b8d43","ios":"levelo://app?vid=a95fc94e-2f99-4c26-9123-e06d717b8d43"},"vehicle_type_id":"4","last_reported":1770931421,"current_range_meters":4800,"station_id":"ce4bh692rcd13ifvqea0","pricing_plan_id":"cebpf4jnsgd1na2vs0mg"},{"bike_id":"6673ac44-296d-4959-9b90-4bd46007de83","system_id":"levelo_inurba_marseille","lat":43.24412,"lon":5.37055,"is_reserved":false,"is_disabled":false,"rental_uris":{"android":"levelo://app?vid=6673ac44-296d-4959-9b90-4bd46007de83","ios":"levelo://app?vid=6673ac44-296d-4959-9b90-4bd46007de83"},"vehicle_type_id":"4","last_reported":1770931421,"current_range_meters":4800,"station_id":"ce4bhhh2rcd13ifvqfk0","pricing_plan_id":"cebpf4jnsgd1na2vs0mg"},{"bike_id":"406b8143-680c-411e-8da6-8818c609b259","system_id":"levelo_inurba_marseille","lat":43.22925,"lon":5.35377,"is_reserved":false,"is_disabled":false,"rental_uris":{"android":"levelo://app?vid=406b8143-680c-411e-8da6-8818c609b259","ios":"levelo://app?vid=406b8143-680c-411e-8da6-8818c609b259"},"vehicle_type_id":"4","last_reported":1770931421,"current_range_meters":4800,"station_id":"cpo3532slgdg3j2ikp40","pricing_plan_id":"cebpf4jnsgd1na2vs0mg"},{"bike_id":"ec3bb6f0-bd29-48bd-993f-c272f1ffa4a1","system_id":"levelo_inurba_marseille","lat":43.30087,"lon":5.38828,"is_reserved":false,"is_disabled":false,"rental_uris":{"android":"levelo://app?vid=ec3bb6f0-bd29-48bd-993f-c272f1ffa4a1","ios":"levelo://app?vid=ec3bb6f0-bd29-48bd-993f-c272f1ffa4a1"},"vehicle_type_id":"4","last_reported":1770931421,"current_range_meters":4800,"station_id":"","pricing_plan_id":"cebpf4jnsgd1na2vs0mg"},{"bike_id":"af54abaa-55d6-4219-b887-d4fecd4d5677","system_id":"levelo_inurba_marseille","lat":43.23959,"lon":5.36643,"is_reserved":false,"is_disabled":false,"rental_uris":{"android":"levelo://app?vid=af54abaa-55d6-4219-b887-d4fecd4d5677","ios":"levelo://app?vid=af54abaa-55d6-4219-b887-d4fecd4d5677"},"vehicle_type_id":"4","last_reported":1770931421,"current_range_meters":4800,"station_id":"ce4bhi12rcd13ifvqfp0","pricing_plan_id":"cebpf4jnsgd1na2vs0mg"},{"bike_id":"dddd8dae-2150-40e8-9b96-7bf9dacad978","system_id":"levelo_inurba_marseille","lat":43.299019,"lon":5.436725,"is_reserved":false,"is_disabled":false,"rental_uris":{"android":"levelo://app?vid=dddd8dae-2150-40e8-9b96-7bf9dacad978","ios":"levelo://app?vid=dddd8dae-2150-40e8-9b96-7bf9dacad978"},"vehicle_type_id":"4","last_reported":1770931421,"current_range_meters":4800,"station_id":"","pricing_plan_id":"cebpf4jnsgd1na2vs0mg"},{"bike_id":"af16d5aa-afd7-4600-aa04-43b35fdd8384","system_id":"levelo_inurba_marseille","lat":43.26817,"lon":5.40261,"is_reserved":false,"is_disabled":false,"rental_uris":{"android":"levelo://app?vid=af16d5aa-afd7-4600-aa04-43b35fdd8384","ios":"levelo://app?vid=af16d5aa-afd7-4600-aa04-43b35fdd8384"},"vehicle_type_id":"4","last_reported":1770931421,"current_range_meters":4800,"station_id":"ce501612rcd8frsf0b60","pricing_plan_id":"cebpf4jnsgd1na2vs0mg"},{"bike_id":"65e9c232-153b-4e21-9142-db1dc9fdfabc","system_id":"levelo_inurba_marseille","lat":43.280816,"lon":5.396582,"is_reserved":false,"is_disabled":false,"rental_uris":{"android":"levelo://app?vid=65e9c232-153b-4e21-9142-db1dc9fdfabc","ios":"levelo://app?vid=65e9c232-153b-4e21-9142-db1dc9fdfabc"},"vehicle_type_id":"4","last_reported":1770931421,"current_range_meters":4800,"station_id":"ce4bho12rcd13ifvqh2g","pricing_plan_id":"cebpf4jnsgd1na2vs0mg"},{"bike_id":"78288666-4320-47d1-a1d4-5d9b6e0518e9","system_id":"levelo_inurba_marseille","lat":43.29587,"lon":5.36755,"is_reserved":false,"is_disabled":false,"rental_uris":{"android":"levelo://app?vid=78288666-4320-47d1-a1d4-5d9b6e0518e9","ios":"levelo://app?vid=78288666-4320-47d1-a1d4-5d9b6e0518e9"},"vehicle_type_id":"4","last_reported":1770931421,"current_range_meters":4800,"station_id":"ce4bgph2rcd13ifvqc2g","pricing_plan_id":"cebpf4jnsgd1na2vs0mg"},{"bike_id":"ba0b1db6-cf44-4815-9750-a6b5d14e5dd8","system_id":"levelo_inurba_marseille","lat":43.24556,"lon":5.39535,"is_reserved":false,"is_disabled":false,"rental_uris":{"android":"levelo://app?vid=ba0b1db6-cf44-4815-9750-a6b5d14e5dd8","ios":"levelo://app?vid=ba0b1db6-cf44-4815-9750-a6b5d14e5dd8"},"vehicle_type_id":"4","last_reported":1770931421,"current_range_meters":4800,"station_id":"ce4bhlp2rcd13ifvqgjg","pricing_plan_id":"cebpf4jnsgd1na2vs0mg"},{"bike_id":"a14db11f-ef6e-45a0-9bd7-b1bf2a193f60","system_id":"levelo_inurba_marseille","lat":43.29259,"lon":5.38419,"is_reserved":false,"is_disabled":false,"rental_uris":{"android":"levelo://app?vid=a14db11f-ef6e-45a0-9bd7-b1bf2a193f60","ios":"levelo://app?vid=a14db11f-ef6e-45a0-9bd7-b1bf2a193f60"},"vehicle_type_id":"4","last_reported":1770931421,"current_range_meters":4800,"station_id":"ce4bh692rcd13ifvqea0","pricing_plan_id":"cebpf4jnsgd1na2vs0mg"},{"bike_id":"cbb05c8d-a380-4a25-aa6c-24b1e16ff9ec","system_id":"levelo_inurba_marseille","lat":43.25521,"lon":5.37656,"is_reserved":false,"is_disabled":false,"rental_uris":{"android":"levelo://app?vid=cbb05c8d-a380-4a25-aa6c-24b1e16ff9ec","ios":"levelo://app?vid=cbb05c8d-a380-4a25-aa6c-24b1e16ff9ec"},"vehicle_type_id":"4","last_reported":1770931421,"current_range_meters":4800,"station_id":"ce4bhh12rcd13ifvqff0","pricing_plan_id":"cebpf4jnsgd1na2vs0mg"},{"bike_id":"4eea8287-5744-4826-aede-ff10343e7484","system_id":"levelo_inurba_marseille","lat":43.29932,"lon":5.3653,"is_reserved":false,"is_disabled":false,"rental_uris":{"android":"levelo://app?vid=4eea8287-5744-4826-aede-ff10343e7484","ios":"levelo://app?vid=4eea8287-5744-4826-aede-ff10343e7484"},"vehicle_type_id":"4","last_reported":1770931421,"current_range_meters":4800,"station_id":"ce4bgm92rcd13ifvqbr0","pricing_plan_id":"cebpf4jnsgd1na2vs0mg"},{"bike_id":"f7c7d403-44d8-4576-b15e-40914aaebe1e","system_id":"levelo_inurba_marseille","lat":43.28946,"lon":5.38422,"is_reserved":false,"is_disabled":false,"rental_uris":{"android":"levelo://app?vid=f7c7d403-44d8-4576-b15e-40914aaebe1e","ios":"levelo://app?vid=f7c7d403-44d8-4576-b15e-40914aaebe1e"},"vehicle_type_id":"4","last_reported":1770931421,"current_range_meters":5600,"station_id":"ce4bh612rcd13ifvqe6g","pricing_plan_id":"cebpf4jnsgd1na2vs0mg"},{"bike_id":"d67ab001-1555-46d1-bdb4-f4f6a8e8b53a","system_id":"levelo_inurba_marseille","lat":43.31232,"lon":5.36844,"is_reserved":false,"is_disabled":false,"rental_uris":{"android":"levelo://app?vid=d67ab001-1555-46d1-bdb4-f4f6a8e8b53a","ios":"levelo://app?vid=d67ab001-1555-46d1-bdb4-f4f6a8e8b53a"},"vehicle_type_id":"4","last_reported":1770931421,"current_range_meters":5600,"station_id":"ce4bgl92rcd13ifvqbq0","pricing_plan_id":"cebpf4jnsgd1na2vs0mg"},{"bike_id":"104437d0-2c45-4be1-8ace-eb0fd86aab75","system_id":"levelo_inurba_marseille","lat":43.24179,"lon":5.3973,"is_reserved":false,"is_disabled":false,"rental_uris":{"android":"levelo://app?vid=104437d0-2c45-4be1-8ace-eb0fd86aab75","ios":"levelo://app?vid=104437d0-2c45-4be1-8ace-eb0fd86aab75"},"vehicle_type_id":"4","last_reported":1770931421,"current_range_meters":5600,"station_id":"ce4bhn12rcd13ifvqgpg","pricing_plan_id":"cebpf4jnsgd1na2vs0mg"},{"bike_id":"1ca4c1d1-4121-4593-adef-cc28f864c47d","system_id":"levelo_inurba_marseille","lat":43.29025,"lon":5.38647,"is_reserved":false,"is_disabled":false,"rental_uris":{"android":"levelo://app?vid=1ca4c1d1-4121-4593-adef-cc28f864c47d","ios":"levelo://app?vid=1ca4c1d1-4121-4593-adef-cc28f864c47d"},"vehicle_type_id":"4","last_reported":1770931421,"current_range_meters":5600,"station_id":"ce4bh4p2rcd13ifvqe0g","pricing_plan_id":"cebpf4jnsgd1na2vs0mg"},{"bike_id":"eb9d66ff-a612-4121-8b67-1d84deda7e3a","system_id":"levelo_inurba_marseille","lat":43.33142,"lon":5.37684,"is_reserved":false,"is_disabled":false,"rental_uris":{"android":"levelo://app?vid=eb9d66ff-a612-4121-8b67-1d84deda7e3a","ios":"levelo://app?vid=eb9d66ff-a612-4121-8b67-1d84deda7e3a"},"vehicle_type_id":"4","last_reported":1770931421,"current_range_meters":5600,"station_id":"st_d46cu089ee8s73dldbu0","pricing_plan_id":"cebpf4jnsgd1na2vs0mg"},{"bike_id":"63a1e4ef-547c-4d87-bb1c-064588dff119","system_id":"levelo_inurba_marseille","lat":43.27936,"lon":5.41038,"is_reserved":false,"is_disabled":false,"rental_uris":{"android":"levelo://app?vid=63a1e4ef-547c-4d87-bb1c-064588dff119","ios":"levelo://app?vid=63a1e4ef-547c-4d87-bb1c-064588dff119"},"vehicle_type_id":"4","last_reported":1770931421,"current_range_meters":5600,"station_id":"ce4bhnp2rcd13ifvqh0g","pricing_plan_id":"cebpf4jnsgd1na2vs0mg"},{"bike_id":"3acd2e3f-2647-4c97-be7c-a08f5bcb1e60","system_id":"levelo_inurba_marseille","lat":43.27481,"lon":5.41551,"is_reserved":false,"is_disabled":false,"rental_uris":{"android":"levelo://app?vid=3acd2e3f-2647-4c97-be7c-a08f5bcb1e60","ios":"levelo://app?vid=3acd2e3f-2647-4c97-be7c-a08f5bcb1e60"},"vehicle_type_id":"4","last_reported":1770931421,"current_range_meters":5600,"station_id":"","pricing_plan_id":"cebpf4jnsgd1na2vs0mg"},{"bike_id":"45a2c634-d684-48e7-85ca-615858ba5f8a","system_id":"levelo_inurba_marseille","lat":43.30263,"lon":5.40053,"is_reserved":false,"is_disabled":false,"rental_uris":{"android":"levelo://app?vid=45a2c634-d684-48e7-85ca-615858ba5f8a","ios":"levelo://app?vid=45a2c634-d684-48e7-85ca-615858ba5f8a"},"vehicle_type_id":"4","last_reported":1770931421,"current_range_meters":5600,"station_id":"ce4bgvh2rcd13ifvqcs0","pricing_plan_id":"cebpf4jnsgd1na2vs0mg"},{"bike_id":"a73a82ec-5e94-4d2b-ba96-bc7037d5d409","system_id":"levelo_inurba_marseille","lat":43.28978,"lon":5.37843,"is_reserved":false,"is_disabled":false,"rental_uris":{"android":"levelo://app?vid=a73a82ec-5e94-4d2b-ba96-bc7037d5d409","ios":"levelo://app?vid=a73a82ec-5e94-4d2b-ba96-bc7037d5d409"},"vehicle_type_id":"4","last_reported":1770931421,"current_range_meters":6000,"station_id":"ce4bh9p2rcd13ifvqed0","pricing_plan_id":"cebpf4jnsgd1na2vs0mg"},{"bike_id":"5f6ae4c8-a7cd-4f3b-9adf-671bbd618c70","system_id":"levelo_inurba_marseille","lat":43.25578,"lon":5.38235,"is_reserved":false,"is_disabled":false,"rental_uris":{"android":"levelo://app?vid=5f6ae4c8-a7cd-4f3b-9adf-671bbd618c70","ios":"levelo://app?vid=5f6ae4c8-a7cd-4f3b-9adf-671bbd618c70"},"vehicle_type_id":"4","last_reported":1770931421,"current_range_meters":6000,"station_id":"ce4bhih2rcd13ifvqfs0","pricing_plan_id":"cebpf4jnsgd1na2vs0mg"},{"bike_id":"adedccca-d77d-4967-91ed-2661b5b510ba","system_id":"levelo_inurba_marseille","lat":43.2256,"lon":5.41631,"is_reserved":false,"is_disabled":false,"rental_uris":{"android":"levelo://app?vid=adedccca-d77d-4967-91ed-2661b5b510ba","ios":"levelo://app?vid=adedccca-d77d-4967-91ed-2661b5b510ba"},"vehicle_type_id":"4","last_reported":1770931421,"current_range_meters":6000,"station_id":"st_d2o4gvlbi1j2169b742g","pricing_plan_id":"cebpf4jnsgd1na2vs0mg"},{"bike_id":"8c0ab109-a2e0-4c76-a9ec-0ce3a7ff8081","system_id":"levelo_inurba_marseille","lat":43.26564,"lon":5.40319,"is_reserved":false,"is_disabled":false,"rental_uris":{"android":"levelo://app?vid=8c0ab109-a2e0-4c76-a9ec-0ce3a7ff8081","ios":"levelo://app?vid=8c0ab109-a2e0-4c76-a9ec-0ce3a7ff8081"},"vehicle_type_id":"4","last_reported":1770931421,"current_range_meters":6000,"station_id":"ce4bhmp2rcd13ifvqgng","pricing_plan_id":"cebpf4jnsgd1na2vs0mg"},{"bike_id":"10abcb71-23de-4180-8560-5833e29cc1f1","system_id":"levelo_inurba_marseille","lat":43.2762,"lon":5.36141,"is_reserved":false,"is_disabled":false,"rental_uris":{"android":"levelo://app?vid=10abcb71-23de-4180-8560-5833e29cc1f1","ios":"levelo://app?vid=10abcb71-23de-4180-8560-5833e29cc1f1"},"vehicle_type_id":"4","last_reported":1770931421,"current_range_meters":6000,"station_id":"ce4bgj92rcd13ifvqbe0","pricing_plan_id":"cebpf4jnsgd1na2vs0mg"},{"bike_id":"9523bcc9-b639-4cad-bf19-ca9ff92ab5a5","system_id":"levelo_inurba_marseille","lat":43.2861,"lon":5.35094,"is_reserved":false,"is_disabled":false,"rental_uris":{"android":"levelo://app?vid=9523bcc9-b639-4cad-bf19-ca9ff92ab5a5","ios":"levelo://app?vid=9523bcc9-b639-4cad-bf19-ca9ff92ab5a5"},"vehicle_type_id":"4","last_reported":1770931421,"current_range_meters":6000,"station_id":"ce4bhch2rcd13ifvqeug","pricing_plan_id":"cebpf4jnsgd1na2vs0mg"},{"bike_id":"2d20bd86-14a1-4471-8834-41c86f0ad4d4","system_id":"levelo_inurba_marseille","lat":43.251135,"lon":5.40318,"is_reserved":false,"is_disabled":false,"rental_uris":{"android":"levelo://app?vid=2d20bd86-14a1-4471-8834-41c86f0ad4d4","ios":"levelo://app?vid=2d20bd86-14a1-4471-8834-41c86f0ad4d4"},"vehicle_type_id":"4","last_reported":1770931421,"current_range_meters":6000,"station_id":"ce4bhlh2rcd13ifvqgig","pricing_plan_id":"cebpf4jnsgd1na2vs0mg"},{"bike_id":"81960a71-5414-42b0-a90e-69c39abb5c92","system_id":"levelo_inurba_marseille","lat":43.25726,"lon":5.41123,"is_reserved":false,"is_disabled":false,"rental_uris":{"android":"levelo://app?vid=81960a71-5414-42b0-a90e-69c39abb5c92","ios":"levelo://app?vid=81960a71-5414-42b0-a90e-69c39abb5c92"},"vehicle_type_id":"4","last_reported":1770931421,"current_range_meters":6000,"station_id":"ce4bhkp2rcd13ifvqgd0","pricing_plan_id":"cebpf4jnsgd1na2vs0mg"},{"bike_id":"f6a1cc7c-f1af-4d67-a865-0a700112e394","system_id":"levelo_inurba_marseille","lat":43.278138,"lon":5.40701,"is_reserved":false,"is_disabled":false,"rental_uris":{"android":"levelo://app?vid=f6a1cc7c-f1af-4d67-a865-0a700112e394","ios":"levelo://app?vid=f6a1cc7c-f1af-4d67-a865-0a700112e394"},"vehicle_type_id":"4","last_reported":1770931421,"current_range_meters":6000,"station_id":"ce4bhnh2rcd13ifvqgtg","pricing_plan_id":"cebpf4jnsgd1na2vs0mg"},{"bike_id":"6f36e1ce-a732-4813-9d77-efe6e46c862d","system_id":"levelo_inurba_marseille","lat":43.28615,"lon":5.35105,"is_reserved":false,"is_disabled":false,"rental_uris":{"android":"levelo://app?vid=6f36e1ce-a732-4813-9d77-efe6e46c862d","ios":"levelo://app?vid=6f36e1ce-a732-4813-9d77-efe6e46c862d"},"vehicle_type_id":"4","last_reported":1770931421,"current_range_meters":6000,"station_id":"ce4bhch2rcd13ifvqeug","pricing_plan_id":"cebpf4jnsgd1na2vs0mg"},{"bike_id":"c4f22520-3dba-4aba-a2ee-de216b46c3f8","system_id":"levelo_inurba_marseille","lat":43.27376,"lon":5.36262,"is_reserved":false,"is_disabled":false,"rental_uris":{"android":"levelo://app?vid=c4f22520-3dba-4aba-a2ee-de216b46c3f8","ios":"levelo://app?vid=c4f22520-3dba-4aba-a2ee-de216b46c3f8"},"vehicle_type_id":"4","last_reported":1770931421,"current_range_meters":6000,"station_id":"ce4bhbh2rcd13ifvqeo0","pricing_plan_id":"cebpf4jnsgd1na2vs0mg"},{"bike_id":"6a1cfcbe-e32a-439e-a968-714a4b55e721","system_id":"levelo_inurba_marseille","lat":43.281,"lon":5.378398,"is_reserved":false,"is_disabled":true,"rental_uris":{"android":"levelo://app?vid=6a1cfcbe-e32a-439e-a968-714a4b55e721","ios":"levelo://app?vid=6a1cfcbe-e32a-439e-a968-714a4b55e721"},"vehicle_type_id":"4","last_reported":1770931421,"current_range_meters":6000,"station_id":"ce4bha12rcd13ifvqee0","pricing_plan_id":"cebpf4jnsgd1na2vs0mg"},{"bike_id":"c51a2340-4b72-41dc-89e3-946beccbf711","system_id":"levelo_inurba_marseille","lat":43.27371,"lon":5.3626,"is_reserved":false,"is_disabled":false,"rental_uris":{"android":"levelo://app?vid=c51a2340-4b72-41dc-89e3-946beccbf711","ios":"levelo://app?vid=c51a2340-4b72-41dc-89e3-946beccbf711"},"vehicle_type_id":"4","last_reported":1770931421,"current_range_meters":6000,"station_id":"ce4bhbh2rcd13ifvqeo0","pricing_plan_id":"cebpf4jnsgd1na2vs0mg"},{"bike_id":"6d94361a-e0ab-44b1-a35e-db2dc15ed265","system_id":"levelo_inurba_marseille","lat":43.22604,"lon":5.41693,"is_reserved":false,"is_disabled":false,"rental_uris":{"android":"levelo://app?vid=6d94361a-e0ab-44b1-a35e-db2dc15ed265","ios":"levelo://app?vid=6d94361a-e0ab-44b1-a35e-db2dc15ed265"},"vehicle_type_id":"4","last_reported":1770931421,"current_range_meters":6000,"station_id":"","pricing_plan_id":"cebpf4jnsgd1na2vs0mg"},{"bike_id":"6e2fc0d4-a25b-4469-96ca-042c68399b84","system_id":"levelo_inurba_marseille","lat":43.29041,"lon":5.37156,"is_reserved":false,"is_disabled":false,"rental_uris":{"android":"levelo://app?vid=6e2fc0d4-a25b-4469-96ca-042c68399b84","ios":"levelo://app?vid=6e2fc0d4-a25b-4469-96ca-042c68399b84"},"vehicle_type_id":"4","last_reported":1770931421,"current_range_meters":6400,"station_id":"ce4bh5p2rcd13ifvqe4g","pricing_plan_id":"cebpf4jnsgd1na2vs0mg"},{"bike_id":"d8bbcb80-4405-4339-94e8-a3a4a59ae180","system_id":"levelo_inurba_marseille","lat":43.30219,"lon":5.39471,"is_reserved":false,"is_disabled":false,"rental_uris":{"android":"levelo://app?vid=d8bbcb80-4405-4339-94e8-a3a4a59ae180","ios":"levelo://app?vid=d8bbcb80-4405-4339-94e8-a3a4a59ae180"},"vehicle_type_id":"4","last_reported":1770931421,"current_range_meters":6400,"station_id":"ce4bh0p2rcd13ifvqd70","pricing_plan_id":"cebpf4jnsgd1na2vs0mg"},{"bike_id":"52c5007b-88c9-4d1c-9fe2-488c4cdcfbef","system_id":"levelo_inurba_marseille","lat":43.25868,"lon":5.39888,"is_reserved":false,"is_disabled":false,"rental_uris":{"android":"levelo://app?vid=52c5007b-88c9-4d1c-9fe2-488c4cdcfbef","ios":"levelo://app?vid=52c5007b-88c9-4d1c-9fe2-488c4cdcfbef"},"vehicle_type_id":"4","last_reported":1770931421,"current_range_meters":6400,"station_id":"ce4bhl92rcd13ifvqghg","pricing_plan_id":"cebpf4jnsgd1na2vs0mg"},{"bike_id":"b2ebb7b3-67d2-41d7-9ca3-2e9b2648f69d","system_id":"levelo_inurba_marseille","lat":43.29569,"lon":5.39985,"is_reserved":false,"is_disabled":false,"rental_uris":{"android":"levelo://app?vid=b2ebb7b3-67d2-41d7-9ca3-2e9b2648f69d","ios":"levelo://app?vid=b2ebb7b3-67d2-41d7-9ca3-2e9b2648f69d"},"vehicle_type_id":"4","last_reported":1770931421,"current_range_meters":6400,"station_id":"ce4bh312rcd13ifvqdj0","pricing_plan_id":"cebpf4jnsgd1na2vs0mg"},{"bike_id":"1c07072c-9e67-46ed-bbd6-9c68ec9fb87a","system_id":"levelo_inurba_marseille","lat":43.28824,"lon":5.35883,"is_reserved":false,"is_disabled":false,"rental_uris":{"android":"levelo://app?vid=1c07072c-9e67-46ed-bbd6-9c68ec9fb87a","ios":"levelo://app?vid=1c07072c-9e67-46ed-bbd6-9c68ec9fb87a"},"vehicle_type_id":"4","last_reported":1770931421,"current_range_meters":6400,"station_id":"ce4bhb12rcd13ifvqem0","pricing_plan_id":"cebpf4jnsgd1na2vs0mg"},{"bike_id":"b909fa79-5381-4b98-bd67-3119cb88c03c","system_id":"levelo_inurba_marseille","lat":43.299191,"lon":5.363384,"is_reserved":false,"is_disabled":true,"rental_uris":{"android":"levelo://app?vid=b909fa79-5381-4b98-bd67-3119cb88c03c","ios":"levelo://app?vid=b909fa79-5381-4b98-bd67-3119cb88c03c"},"vehicle_type_id":"4","last_reported":1770931421,"current_range_meters":6400,"station_id":"","pricing_plan_id":"cebpf4jnsgd1na2vs0mg"},{"bike_id":"1bf3c557-9b1e-42be-bafe-0a6443919d9f","system_id":"levelo_inurba_marseille","lat":43.33378,"lon":5.41054,"is_reserved":false,"is_disabled":false,"rental_uris":{"android":"levelo://app?vid=1bf3c557-9b1e-42be-bafe-0a6443919d9f","ios":"levelo://app?vid=1bf3c557-9b1e-42be-bafe-0a6443919d9f"},"vehicle_type_id":"4","last_reported":1770931421,"current_range_meters":6400,"station_id":"","pricing_plan_id":"cebpf4jnsgd1na2vs0mg"},{"bike_id":"cc85f1ae-d92f-4037-b2a8-48aebb3bc8f2","system_id":"levelo_inurba_marseille","lat":43.30803,"lon":5.38146,"is_reserved":false,"is_disabled":false,"rental_uris":{"android":"levelo://app?vid=cc85f1ae-d92f-4037-b2a8-48aebb3bc8f2","ios":"levelo://app?vid=cc85f1ae-d92f-4037-b2a8-48aebb3bc8f2"},"vehicle_type_id":"4","last_reported":1770931421,"current_range_meters":6400,"station_id":"ce4bgt12rcd13ifvqce0","pricing_plan_id":"cebpf4jnsgd1na2vs0mg"},{"bike_id":"1dbb69cb-8222-4e8a-9ca2-6df7c935fc4f","system_id":"levelo_inurba_marseille","lat":43.24687,"lon":5.37397,"is_reserved":false,"is_disabled":false,"rental_uris":{"android":"levelo://app?vid=1dbb69cb-8222-4e8a-9ca2-6df7c935fc4f","ios":"levelo://app?vid=1dbb69cb-8222-4e8a-9ca2-6df7c935fc4f"},"vehicle_type_id":"4","last_reported":1770931421,"current_range_meters":6400,"station_id":"ce4bhgh2rcd13ifvqfb0","pricing_plan_id":"cebpf4jnsgd1na2vs0mg"},{"bike_id":"b25b8bc8-32eb-4414-9131-d7794ae56638","system_id":"levelo_inurba_marseille","lat":43.30608,"lon":5.37659,"is_reserved":false,"is_disabled":false,"rental_uris":{"android":"levelo://app?vid=b25b8bc8-32eb-4414-9131-d7794ae56638","ios":"levelo://app?vid=b25b8bc8-32eb-4414-9131-d7794ae56638"},"vehicle_type_id":"4","last_reported":1770931421,"current_range_meters":6400,"station_id":"","pricing_plan_id":"cebpf4jnsgd1na2vs0mg"},{"bike_id":"da6348be-8d07-478d-8812-12c29d3eab1a","system_id":"levelo_inurba_marseille","lat":43.29517,"lon":5.38713,"is_reserved":false,"is_disabled":false,"rental_uris":{"android":"levelo://app?vid=da6348be-8d07-478d-8812-12c29d3eab1a","ios":"levelo://app?vid=da6348be-8d07-478d-8812-12c29d3eab1a"},"vehicle_type_id":"4","last_reported":1770931421,"current_range_meters":6400,"station_id":"","pricing_plan_id":"cebpf4jnsgd1na2vs0mg"},{"bike_id":"989b5b08-d948-4be9-bc29-7318c8ff2142","system_id":"levelo_inurba_marseille","lat":43.24675,"lon":5.43188,"is_reserved":false,"is_disabled":false,"rental_uris":{"android":"levelo://app?vid=989b5b08-d948-4be9-bc29-7318c8ff2142","ios":"levelo://app?vid=989b5b08-d948-4be9-bc29-7318c8ff2142"},"vehicle_type_id":"4","last_reported":1770931421,"current_range_meters":6400,"station_id":"st_d2m6c4gdas8pm72e190g","pricing_plan_id":"cebpf4jnsgd1na2vs0mg"},{"bike_id":"864cec40-0ff3-4697-9da2-81d63157f80b","system_id":"levelo_inurba_marseille","lat":43.29748,"lon":5.4279,"is_reserved":false,"is_disabled":false,"rental_uris":{"android":"levelo://app?vid=864cec40-0ff3-4697-9da2-81d63157f80b","ios":"levelo://app?vid=864cec40-0ff3-4697-9da2-81d63157f80b"},"vehicle_type_id":"4","last_reported":1770931421,"current_range_meters":6400,"station_id":"st_d3md5207bmas73dh9klg","pricing_plan_id":"cebpf4jnsgd1na2vs0mg"},{"bike_id":"52683c27-ad63-43c1-8a50-a75fb84808e6","system_id":"levelo_inurba_marseille","lat":43.25088,"lon":5.39505,"is_reserved":false,"is_disabled":false,"rental_uris":{"android":"levelo://app?vid=52683c27-ad63-43c1-8a50-a75fb84808e6","ios":"levelo://app?vid=52683c27-ad63-43c1-8a50-a75fb84808e6"},"vehicle_type_id":"4","last_reported":1770931421,"current_range_meters":6800,"station_id":"ce4bhm12rcd13ifvqgkg","pricing_plan_id":"cebpf4jnsgd1na2vs0mg"},{"bike_id":"c79ede62-b18f-43b2-ba8b-0a82a66c7da5","system_id":"levelo_inurba_marseille","lat":43.3152,"lon":5.38044,"is_reserved":false,"is_disabled":false,"rental_uris":{"android":"levelo://app?vid=c79ede62-b18f-43b2-ba8b-0a82a66c7da5","ios":"levelo://app?vid=c79ede62-b18f-43b2-ba8b-0a82a66c7da5"},"vehicle_type_id":"4","last_reported":1770931421,"current_range_meters":6800,"station_id":"ce4bhsp2rcd13ifvqi50","pricing_plan_id":"cebpf4jnsgd1na2vs0mg"},{"bike_id":"3ad331d6-b4d1-49c7-b940-96959fff84a3","system_id":"levelo_inurba_marseille","lat":43.28623,"lon":5.35093,"is_reserved":false,"is_disabled":false,"rental_uris":{"android":"levelo://app?vid=3ad331d6-b4d1-49c7-b940-96959fff84a3","ios":"levelo://app?vid=3ad331d6-b4d1-49c7-b940-96959fff84a3"},"vehicle_type_id":"4","last_reported":1770931421,"current_range_meters":6800,"station_id":"ce4bhch2rcd13ifvqeug","pricing_plan_id":"cebpf4jnsgd1na2vs0mg"},{"bike_id":"e1908d46-fdbf-4ff5-a101-01503d372fcc","system_id":"levelo_inurba_marseille","lat":43.29258,"lon":5.40914,"is_reserved":false,"is_disabled":false,"rental_uris":{"android":"levelo://app?vid=e1908d46-fdbf-4ff5-a101-01503d372fcc","ios":"levelo://app?vid=e1908d46-fdbf-4ff5-a101-01503d372fcc"},"vehicle_type_id":"4","last_reported":1770931421,"current_range_meters":6800,"station_id":"ce4bh192rcd13ifvqdc0","pricing_plan_id":"cebpf4jnsgd1na2vs0mg"},{"bike_id":"0b98a9f2-b4e6-4d72-9367-260f75d9f75b","system_id":"levelo_inurba_marseille","lat":43.25092,"lon":5.39525,"is_reserved":false,"is_disabled":false,"rental_uris":{"android":"levelo://app?vid=0b98a9f2-b4e6-4d72-9367-260f75d9f75b","ios":"levelo://app?vid=0b98a9f2-b4e6-4d72-9367-260f75d9f75b"},"vehicle_type_id":"4","last_reported":1770931421,"current_range_meters":6800,"station_id":"ce4bhm12rcd13ifvqgkg","pricing_plan_id":"cebpf4jnsgd1na2vs0mg"},{"bike_id":"f7696a38-545e-416f-8bb6-65d45bef47d3","system_id":"levelo_inurba_marseille","lat":43.29674,"lon":5.36577,"is_reserved":false,"is_disabled":false,"rental_uris":{"android":"levelo://app?vid=f7696a38-545e-416f-8bb6-65d45bef47d3","ios":"levelo://app?vid=f7696a38-545e-416f-8bb6-65d45bef47d3"},"vehicle_type_id":"4","last_reported":1770931421,"current_range_meters":6800,"station_id":"ce4bgn12rcd13ifvqbt0","pricing_plan_id":"cebpf4jnsgd1na2vs0mg"},{"bike_id":"63616dc6-da91-4b0e-b74a-66f0aa885642","system_id":"levelo_inurba_marseille","lat":43.33006,"lon":5.39029,"is_reserved":false,"is_disabled":false,"rental_uris":{"android":"levelo://app?vid=63616dc6-da91-4b0e-b74a-66f0aa885642","ios":"levelo://app?vid=63616dc6-da91-4b0e-b74a-66f0aa885642"},"vehicle_type_id":"4","last_reported":1770931421,"current_range_meters":6800,"station_id":"ce4bhr92rcd13ifvqhrg","pricing_plan_id":"cebpf4jnsgd1na2vs0mg"},{"bike_id":"9454193a-3002-43b4-8f74-8a3638220f52","system_id":"levelo_inurba_marseille","lat":43.31081,"lon":5.38343,"is_reserved":false,"is_disabled":false,"rental_uris":{"android":"levelo://app?vid=9454193a-3002-43b4-8f74-8a3638220f52","ios":"levelo://app?vid=9454193a-3002-43b4-8f74-8a3638220f52"},"vehicle_type_id":"4","last_reported":1770931421,"current_range_meters":6800,"station_id":"ce4bgv92rcd13ifvqcr0","pricing_plan_id":"cebpf4jnsgd1na2vs0mg"},{"bike_id":"a9a6e7be-8873-4854-882b-10e24bc73d85","system_id":"levelo_inurba_marseille","lat":43.25101,"lon":5.40343,"is_reserved":false,"is_disabled":false,"rental_uris":{"android":"levelo://app?vid=a9a6e7be-8873-4854-882b-10e24bc73d85","ios":"levelo://app?vid=a9a6e7be-8873-4854-882b-10e24bc73d85"},"vehicle_type_id":"4","last_reported":1770931421,"current_range_meters":6800,"station_id":"ce4bhlh2rcd13ifvqgig","pricing_plan_id":"cebpf4jnsgd1na2vs0mg"},{"bike_id":"36c24c24-93a7-4cc1-911d-bc2a47dd71bf","system_id":"levelo_inurba_marseille","lat":43.310716,"lon":5.383635,"is_reserved":false,"is_disabled":false,"rental_uris":{"android":"levelo://app?vid=36c24c24-93a7-4cc1-911d-bc2a47dd71bf","ios":"levelo://app?vid=36c24c24-93a7-4cc1-911d-bc2a47dd71bf"},"vehicle_type_id":"4","last_reported":1770931421,"current_range_meters":6800,"station_id":"ce4bgv92rcd13ifvqcr0","pricing_plan_id":"cebpf4jnsgd1na2vs0mg"},{"bike_id":"caff61ad-8b9d-43c9-a0de-9b34b512fbf7","system_id":"levelo_inurba_marseille","lat":43.28451,"lon":5.39204,"is_reserved":false,"is_disabled":false,"rental_uris":{"android":"levelo://app?vid=caff61ad-8b9d-43c9-a0de-9b34b512fbf7","ios":"levelo://app?vid=caff61ad-8b9d-43c9-a0de-9b34b512fbf7"},"vehicle_type_id":"4","last_reported":1770931421,"current_range_meters":6800,"station_id":"ce4bhoh2rcd13ifvqh5g","pricing_plan_id":"cebpf4jnsgd1na2vs0mg"},{"bike_id":"767386ac-0495-4994-a5ec-69d5d4b901a6","system_id":"levelo_inurba_marseille","lat":43.24496,"lon":5.4257,"is_reserved":false,"is_disabled":false,"rental_uris":{"android":"levelo://app?vid=767386ac-0495-4994-a5ec-69d5d4b901a6","ios":"levelo://app?vid=767386ac-0495-4994-a5ec-69d5d4b901a6"},"vehicle_type_id":"4","last_reported":1770931421,"current_range_meters":6800,"station_id":"st_d4a3vfp97mjs738cd8kg","pricing_plan_id":"cebpf4jnsgd1na2vs0mg"},{"bike_id":"1666b265-643d-41e7-bcc3-6167a6d49f91","system_id":"levelo_inurba_marseille","lat":43.2254,"lon":5.34856,"is_reserved":false,"is_disabled":false,"rental_uris":{"android":"levelo://app?vid=1666b265-643d-41e7-bcc3-6167a6d49f91","ios":"levelo://app?vid=1666b265-643d-41e7-bcc3-6167a6d49f91"},"vehicle_type_id":"4","last_reported":1770931421,"current_range_meters":7200,"station_id":"","pricing_plan_id":"cebpf4jnsgd1na2vs0mg"},{"bike_id":"85ca329a-9c55-4be1-b2da-c3d917ed6363","system_id":"levelo_inurba_marseille","lat":43.24554,"lon":5.39539,"is_reserved":false,"is_disabled":false,"rental_uris":{"android":"levelo://app?vid=85ca329a-9c55-4be1-b2da-c3d917ed6363","ios":"levelo://app?vid=85ca329a-9c55-4be1-b2da-c3d917ed6363"},"vehicle_type_id":"4","last_reported":1770931421,"current_range_meters":7200,"station_id":"ce4bhlp2rcd13ifvqgjg","pricing_plan_id":"cebpf4jnsgd1na2vs0mg"},{"bike_id":"a16e7f1f-cb96-40eb-aa00-252eca80dad1","system_id":"levelo_inurba_marseille","lat":43.28154,"lon":5.42647,"is_reserved":false,"is_disabled":false,"rental_uris":{"android":"levelo://app?vid=a16e7f1f-cb96-40eb-aa00-252eca80dad1","ios":"levelo://app?vid=a16e7f1f-cb96-40eb-aa00-252eca80dad1"},"vehicle_type_id":"4","last_reported":1770931421,"current_range_meters":7200,"station_id":"ce4bhnh2rcd13ifvqgug","pricing_plan_id":"cebpf4jnsgd1na2vs0mg"},{"bike_id":"558b0286-85fc-49cb-b13d-aa40847d1ce9","system_id":"levelo_inurba_marseille","lat":43.25002,"lon":5.3893,"is_reserved":false,"is_disabled":false,"rental_uris":{"android":"levelo://app?vid=558b0286-85fc-49cb-b13d-aa40847d1ce9","ios":"levelo://app?vid=558b0286-85fc-49cb-b13d-aa40847d1ce9"},"vehicle_type_id":"4","last_reported":1770931421,"current_range_meters":7200,"station_id":"ce4bhgp2rcd13ifvqfd0","pricing_plan_id":"cebpf4jnsgd1na2vs0mg"},{"bike_id":"a880ec92-3328-40f4-b0f2-c721ff062b83","system_id":"levelo_inurba_marseille","lat":43.28945,"lon":5.38419,"is_reserved":false,"is_disabled":false,"rental_uris":{"android":"levelo://app?vid=a880ec92-3328-40f4-b0f2-c721ff062b83","ios":"levelo://app?vid=a880ec92-3328-40f4-b0f2-c721ff062b83"},"vehicle_type_id":"4","last_reported":1770931421,"current_range_meters":7200,"station_id":"ce4bh612rcd13ifvqe6g","pricing_plan_id":"cebpf4jnsgd1na2vs0mg"},{"bike_id":"6d146b90-da11-4bbb-b527-7da7e2561db2","system_id":"levelo_inurba_marseille","lat":43.284825,"lon":5.483855,"is_reserved":false,"is_disabled":false,"rental_uris":{"android":"levelo://app?vid=6d146b90-da11-4bbb-b527-7da7e2561db2","ios":"levelo://app?vid=6d146b90-da11-4bbb-b527-7da7e2561db2"},"vehicle_type_id":"4","last_reported":1770931421,"current_range_meters":7200,"station_id":"st_d3svhcjqgbts73a3dn0g","pricing_plan_id":"cebpf4jnsgd1na2vs0mg"},{"bike_id":"661c1ad9-8e78-490b-aa77-0dd317a910f6","system_id":"levelo_inurba_marseille","lat":43.27213,"lon":5.39203,"is_reserved":false,"is_disabled":true,"rental_uris":{"android":"levelo://app?vid=661c1ad9-8e78-490b-aa77-0dd317a910f6","ios":"levelo://app?vid=661c1ad9-8e78-490b-aa77-0dd317a910f6"},"vehicle_type_id":"4","last_reported":1770931421,"current_range_meters":7200,"station_id":"ce4bhhp2rcd13ifvqfm0","pricing_plan_id":"cebpf4jnsgd1na2vs0mg"},{"bike_id":"6b49fa0a-6226-4e6c-9f94-68ff4fd2f09e","system_id":"levelo_inurba_marseille","lat":43.29558,"lon":5.3857,"is_reserved":false,"is_disabled":false,"rental_uris":{"android":"levelo://app?vid=6b49fa0a-6226-4e6c-9f94-68ff4fd2f09e","ios":"levelo://app?vid=6b49fa0a-6226-4e6c-9f94-68ff4fd2f09e"},"vehicle_type_id":"4","last_reported":1770931421,"current_range_meters":7200,"station_id":"ce4bgih2rcd13ifvqba0","pricing_plan_id":"cebpf4jnsgd1na2vs0mg"},{"bike_id":"8f3a9ea3-3d5f-4beb-8e6c-40222b0c90d4","system_id":"levelo_inurba_marseille","lat":43.28365,"lon":5.35336,"is_reserved":false,"is_disabled":false,"rental_uris":{"android":"levelo://app?vid=8f3a9ea3-3d5f-4beb-8e6c-40222b0c90d4","ios":"levelo://app?vid=8f3a9ea3-3d5f-4beb-8e6c-40222b0c90d4"},"vehicle_type_id":"4","last_reported":1770931421,"current_range_meters":7200,"station_id":"","pricing_plan_id":"cebpf4jnsgd1na2vs0mg"},{"bike_id":"a311edce-7eaa-44a5-b845-c7ac5f407308","system_id":"levelo_inurba_marseille","lat":43.28149,"lon":5.42642,"is_reserved":false,"is_disabled":false,"rental_uris":{"android":"levelo://app?vid=a311edce-7eaa-44a5-b845-c7ac5f407308","ios":"levelo://app?vid=a311edce-7eaa-44a5-b845-c7ac5f407308"},"vehicle_type_id":"4","last_reported":1770931421,"current_range_meters":7200,"station_id":"ce4bhnh2rcd13ifvqgug","pricing_plan_id":"cebpf4jnsgd1na2vs0mg"},{"bike_id":"e61f8348-ac76-4cea-92f8-334c0273949b","system_id":"levelo_inurba_marseille","lat":43.24639,"lon":5.43221,"is_reserved":false,"is_disabled":false,"rental_uris":{"android":"levelo://app?vid=e61f8348-ac76-4cea-92f8-334c0273949b","ios":"levelo://app?vid=e61f8348-ac76-4cea-92f8-334c0273949b"},"vehicle_type_id":"4","last_reported":1770931421,"current_range_meters":7200,"station_id":"st_d2m6c4gdas8pm72e190g","pricing_plan_id":"cebpf4jnsgd1na2vs0mg"},{"bike_id":"40452636-8d5c-4483-9aa3-a6ea0d66c3ee","system_id":"levelo_inurba_marseille","lat":43.31059,"lon":5.39332,"is_reserved":false,"is_disabled":false,"rental_uris":{"android":"levelo://app?vid=40452636-8d5c-4483-9aa3-a6ea0d66c3ee","ios":"levelo://app?vid=40452636-8d5c-4483-9aa3-a6ea0d66c3ee"},"vehicle_type_id":"4","last_reported":1770931421,"current_range_meters":7200,"station_id":"","pricing_plan_id":"cebpf4jnsgd1na2vs0mg"},{"bike_id":"6a7ba975-0a2d-40a5-b6d9-c3e8afe92f2c","system_id":"levelo_inurba_marseille","lat":43.31221,"lon":5.38753,"is_reserved":false,"is_disabled":true,"rental_uris":{"android":"levelo://app?vid=6a7ba975-0a2d-40a5-b6d9-c3e8afe92f2c","ios":"levelo://app?vid=6a7ba975-0a2d-40a5-b6d9-c3e8afe92f2c"},"vehicle_type_id":"4","last_reported":1770931421,"current_range_meters":7200,"station_id":"ce4bgv12rcd13ifvqcp0","pricing_plan_id":"cebpf4jnsgd1na2vs0mg"},{"bike_id":"ed424640-31ab-40c2-adb3-3589d16cd6bc","system_id":"levelo_inurba_marseille","lat":43.31074,"lon":5.38355,"is_reserved":false,"is_disabled":false,"rental_uris":{"android":"levelo://app?vid=ed424640-31ab-40c2-adb3-3589d16cd6bc","ios":"levelo://app?vid=ed424640-31ab-40c2-adb3-3589d16cd6bc"},"vehicle_type_id":"4","last_reported":1770931421,"current_range_meters":7200,"station_id":"ce4bgv92rcd13ifvqcr0","pricing_plan_id":"cebpf4jnsgd1na2vs0mg"},{"bike_id":"31ec33af-4b5b-47df-a935-7478bd3c999f","system_id":"levelo_inurba_marseille","lat":43.253361,"lon":5.421575,"is_reserved":false,"is_disabled":false,"rental_uris":{"android":"levelo://app?vid=31ec33af-4b5b-47df-a935-7478bd3c999f","ios":"levelo://app?vid=31ec33af-4b5b-47df-a935-7478bd3c999f"},"vehicle_type_id":"4","last_reported":1770931421,"current_range_meters":7200,"station_id":"st_d2m65c5bi1j21697t3ng","pricing_plan_id":"cebpf4jnsgd1na2vs0mg"},{"bike_id":"cb9be5fc-0f8f-4012-b222-62b158765b42","system_id":"levelo_inurba_marseille","lat":43.229389,"lon":5.353721,"is_reserved":false,"is_disabled":false,"rental_uris":{"android":"levelo://app?vid=cb9be5fc-0f8f-4012-b222-62b158765b42","ios":"levelo://app?vid=cb9be5fc-0f8f-4012-b222-62b158765b42"},"vehicle_type_id":"4","last_reported":1770931421,"current_range_meters":7200,"station_id":"cpo3532slgdg3j2ikp40","pricing_plan_id":"cebpf4jnsgd1na2vs0mg"},{"bike_id":"c2d88896-96a2-48c7-bf66-aa58c52bd855","system_id":"levelo_inurba_marseille","lat":43.27912,"lon":5.38011,"is_reserved":false,"is_disabled":false,"rental_uris":{"android":"levelo://app?vid=c2d88896-96a2-48c7-bf66-aa58c52bd855","ios":"levelo://app?vid=c2d88896-96a2-48c7-bf66-aa58c52bd855"},"vehicle_type_id":"4","last_reported":1770931421,"current_range_meters":7200,"station_id":"ce4bhf92rcd13ifvqf50","pricing_plan_id":"cebpf4jnsgd1na2vs0mg"},{"bike_id":"b168ef90-69e6-47db-80b9-6a21d1b69a0b","system_id":"levelo_inurba_marseille","lat":43.25108,"lon":5.40341,"is_reserved":false,"is_disabled":false,"rental_uris":{"android":"levelo://app?vid=b168ef90-69e6-47db-80b9-6a21d1b69a0b","ios":"levelo://app?vid=b168ef90-69e6-47db-80b9-6a21d1b69a0b"},"vehicle_type_id":"4","last_reported":1770931421,"current_range_meters":7200,"station_id":"ce4bhlh2rcd13ifvqgig","pricing_plan_id":"cebpf4jnsgd1na2vs0mg"},{"bike_id":"46795c32-d155-4823-a0f3-872b06d1e11d","system_id":"levelo_inurba_marseille","lat":43.21758,"lon":5.346,"is_reserved":false,"is_disabled":false,"rental_uris":{"android":"levelo://app?vid=46795c32-d155-4823-a0f3-872b06d1e11d","ios":"levelo://app?vid=46795c32-d155-4823-a0f3-872b06d1e11d"},"vehicle_type_id":"4","last_reported":1770931421,"current_range_meters":7200,"station_id":"","pricing_plan_id":"cebpf4jnsgd1na2vs0mg"},{"bike_id":"fa4f1996-0c71-40ef-a471-e9a35c47e07b","system_id":"levelo_inurba_marseille","lat":43.25855,"lon":5.39896,"is_reserved":false,"is_disabled":false,"rental_uris":{"android":"levelo://app?vid=fa4f1996-0c71-40ef-a471-e9a35c47e07b","ios":"levelo://app?vid=fa4f1996-0c71-40ef-a471-e9a35c47e07b"},"vehicle_type_id":"4","last_reported":1770931421,"current_range_meters":7200,"station_id":"ce4bhl92rcd13ifvqghg","pricing_plan_id":"cebpf4jnsgd1na2vs0mg"},{"bike_id":"fecd2e02-5de0-4040-8549-a55d5fc6a139","system_id":"levelo_inurba_marseille","lat":43.27618,"lon":5.36139,"is_reserved":false,"is_disabled":false,"rental_uris":{"android":"levelo://app?vid=fecd2e02-5de0-4040-8549-a55d5fc6a139","ios":"levelo://app?vid=fecd2e02-5de0-4040-8549-a55d5fc6a139"},"vehicle_type_id":"4","last_reported":1770931421,"current_range_meters":7200,"station_id":"ce4bgj92rcd13ifvqbe0","pricing_plan_id":"cebpf4jnsgd1na2vs0mg"},{"bike_id":"a0b862e4-f7cc-40fa-99a6-26516baf9a81","system_id":"levelo_inurba_marseille","lat":43.286171,"lon":5.35116,"is_reserved":false,"is_disabled":false,"rental_uris":{"android":"levelo://app?vid=a0b862e4-f7cc-40fa-99a6-26516baf9a81","ios":"levelo://app?vid=a0b862e4-f7cc-40fa-99a6-26516baf9a81"},"vehicle_type_id":"4","last_reported":1770931421,"current_range_meters":7200,"station_id":"ce4bhch2rcd13ifvqeug","pricing_plan_id":"cebpf4jnsgd1na2vs0mg"},{"bike_id":"a01b1335-7176-4294-b12b-7e191d1bd909","system_id":"levelo_inurba_marseille","lat":43.26814,"lon":5.40235,"is_reserved":false,"is_disabled":false,"rental_uris":{"android":"levelo://app?vid=a01b1335-7176-4294-b12b-7e191d1bd909","ios":"levelo://app?vid=a01b1335-7176-4294-b12b-7e191d1bd909"},"vehicle_type_id":"4","last_reported":1770931421,"current_range_meters":7200,"station_id":"ce501612rcd8frsf0b60","pricing_plan_id":"cebpf4jnsgd1na2vs0mg"},{"bike_id":"05a0bbb1-a54b-464d-bb78-257d3dc37ebf","system_id":"levelo_inurba_marseille","lat":43.28714,"lon":5.37382,"is_reserved":false,"is_disabled":false,"rental_uris":{"android":"levelo://app?vid=05a0bbb1-a54b-464d-bb78-257d3dc37ebf","ios":"levelo://app?vid=05a0bbb1-a54b-464d-bb78-257d3dc37ebf"},"vehicle_type_id":"4","last_reported":1770931421,"current_range_meters":8000,"station_id":"ce4bh3p2rcd13ifvqdq0","pricing_plan_id":"cebpf4jnsgd1na2vs0mg"},{"bike_id":"f8471a2c-87e1-4cbd-bb5b-57438b2e01d6","system_id":"levelo_inurba_marseille","lat":43.29266,"lon":5.36855,"is_reserved":false,"is_disabled":false,"rental_uris":{"android":"levelo://app?vid=f8471a2c-87e1-4cbd-bb5b-57438b2e01d6","ios":"levelo://app?vid=f8471a2c-87e1-4cbd-bb5b-57438b2e01d6"},"vehicle_type_id":"4","last_reported":1770931421,"current_range_meters":8000,"station_id":"ce4bhbp2rcd13ifvqesg","pricing_plan_id":"cebpf4jnsgd1na2vs0mg"},{"bike_id":"51ad0198-092e-4860-b994-3420575955f1","system_id":"levelo_inurba_marseille","lat":43.22527,"lon":5.34833,"is_reserved":false,"is_disabled":false,"rental_uris":{"android":"levelo://app?vid=51ad0198-092e-4860-b994-3420575955f1","ios":"levelo://app?vid=51ad0198-092e-4860-b994-3420575955f1"},"vehicle_type_id":"4","last_reported":1770931421,"current_range_meters":8000,"station_id":"st_cvj5dfep6f1abm77gieg","pricing_plan_id":"cebpf4jnsgd1na2vs0mg"},{"bike_id":"d2969d6e-30e2-478b-ba55-def20285f29d","system_id":"levelo_inurba_marseille","lat":43.29528,"lon":5.37461,"is_reserved":false,"is_disabled":false,"rental_uris":{"android":"levelo://app?vid=d2969d6e-30e2-478b-ba55-def20285f29d","ios":"levelo://app?vid=d2969d6e-30e2-478b-ba55-def20285f29d"},"vehicle_type_id":"4","last_reported":1770931421,"current_range_meters":8000,"station_id":"ce4bgkp2rcd13ifvqbmg","pricing_plan_id":"cebpf4jnsgd1na2vs0mg"},{"bike_id":"9faee6f2-457c-410c-b197-c5102d1e22ad","system_id":"levelo_inurba_marseille","lat":43.23193,"lon":5.39987,"is_reserved":false,"is_disabled":false,"rental_uris":{"android":"levelo://app?vid=9faee6f2-457c-410c-b197-c5102d1e22ad","ios":"levelo://app?vid=9faee6f2-457c-410c-b197-c5102d1e22ad"},"vehicle_type_id":"4","last_reported":1770931421,"current_range_meters":8000,"station_id":"ce4bhn12rcd13ifvqgqg","pricing_plan_id":"cebpf4jnsgd1na2vs0mg"},{"bike_id":"9e49c384-30c1-4f45-a8df-9663175b8696","system_id":"levelo_inurba_marseille","lat":43.24512,"lon":5.42552,"is_reserved":false,"is_disabled":false,"rental_uris":{"android":"levelo://app?vid=9e49c384-30c1-4f45-a8df-9663175b8696","ios":"levelo://app?vid=9e49c384-30c1-4f45-a8df-9663175b8696"},"vehicle_type_id":"4","last_reported":1770931421,"current_range_meters":8000,"station_id":"st_d4a3vfp97mjs738cd8kg","pricing_plan_id":"cebpf4jnsgd1na2vs0mg"},{"bike_id":"addfd7b9-6fc2-4e4f-a262-5360f2bada55","system_id":"levelo_inurba_marseille","lat":43.2928,"lon":5.36848,"is_reserved":false,"is_disabled":false,"rental_uris":{"android":"levelo://app?vid=addfd7b9-6fc2-4e4f-a262-5360f2bada55","ios":"levelo://app?vid=addfd7b9-6fc2-4e4f-a262-5360f2bada55"},"vehicle_type_id":"4","last_reported":1770931421,"current_range_meters":8000,"station_id":"ce4bhbp2rcd13ifvqesg","pricing_plan_id":"cebpf4jnsgd1na2vs0mg"},{"bike_id":"48ef2e5e-395e-487a-9e41-360aad012a1f","system_id":"levelo_inurba_marseille","lat":43.262134,"lon":5.374465,"is_reserved":false,"is_disabled":false,"rental_uris":{"android":"levelo://app?vid=48ef2e5e-395e-487a-9e41-360aad012a1f","ios":"levelo://app?vid=48ef2e5e-395e-487a-9e41-360aad012a1f"},"vehicle_type_id":"4","last_reported":1770931421,"current_range_meters":8000,"station_id":"ce4bhgp2rcd13ifvqfc0","pricing_plan_id":"cebpf4jnsgd1na2vs0mg"},{"bike_id":"180a3422-c933-4654-96e3-d252b8ae7988","system_id":"levelo_inurba_marseille","lat":43.27604,"lon":5.36118,"is_reserved":false,"is_disabled":false,"rental_uris":{"android":"levelo://app?vid=180a3422-c933-4654-96e3-d252b8ae7988","ios":"levelo://app?vid=180a3422-c933-4654-96e3-d252b8ae7988"},"vehicle_type_id":"4","last_reported":1770931421,"current_range_meters":8000,"station_id":"ce4bgj92rcd13ifvqbe0","pricing_plan_id":"cebpf4jnsgd1na2vs0mg"},{"bike_id":"0385fad8-bbf8-4ee2-9950-518609d4efba","system_id":"levelo_inurba_marseille","lat":43.28927,"lon":5.3842,"is_reserved":false,"is_disabled":false,"rental_uris":{"android":"levelo://app?vid=0385fad8-bbf8-4ee2-9950-518609d4efba","ios":"levelo://app?vid=0385fad8-bbf8-4ee2-9950-518609d4efba"},"vehicle_type_id":"4","last_reported":1770931421,"current_range_meters":8000,"station_id":"ce4bh612rcd13ifvqe6g","pricing_plan_id":"cebpf4jnsgd1na2vs0mg"},{"bike_id":"cd9fdf6a-b2ee-4d10-b7b7-433994f27431","system_id":"levelo_inurba_marseille","lat":43.27806,"lon":5.40716,"is_reserved":false,"is_disabled":false,"rental_uris":{"android":"levelo://app?vid=cd9fdf6a-b2ee-4d10-b7b7-433994f27431","ios":"levelo://app?vid=cd9fdf6a-b2ee-4d10-b7b7-433994f27431"},"vehicle_type_id":"4","last_reported":1770931421,"current_range_meters":8000,"station_id":"ce4bhnh2rcd13ifvqgtg","pricing_plan_id":"cebpf4jnsgd1na2vs0mg"},{"bike_id":"c0d21250-70f7-405b-91f7-061919265b15","system_id":"levelo_inurba_marseille","lat":43.337444,"lon":5.374475,"is_reserved":false,"is_disabled":false,"rental_uris":{"android":"levelo://app?vid=c0d21250-70f7-405b-91f7-061919265b15","ios":"levelo://app?vid=c0d21250-70f7-405b-91f7-061919265b15"},"vehicle_type_id":"4","last_reported":1770931421,"current_range_meters":8000,"station_id":"","pricing_plan_id":"cebpf4jnsgd1na2vs0mg"},{"bike_id":"1d2595e7-24ec-4837-ac2e-333261d8dae0","system_id":"levelo_inurba_marseille","lat":43.22581,"lon":5.41676,"is_reserved":false,"is_disabled":false,"rental_uris":{"android":"levelo://app?vid=1d2595e7-24ec-4837-ac2e-333261d8dae0","ios":"levelo://app?vid=1d2595e7-24ec-4837-ac2e-333261d8dae0"},"vehicle_type_id":"4","last_reported":1770931421,"current_range_meters":8000,"station_id":"st_d2o4gvlbi1j2169b742g","pricing_plan_id":"cebpf4jnsgd1na2vs0mg"},{"bike_id":"f5dfc69a-605e-4870-9f15-288a758bb79e","system_id":"levelo_inurba_marseille","lat":43.2976,"lon":5.42782,"is_reserved":false,"is_disabled":false,"rental_uris":{"android":"levelo://app?vid=f5dfc69a-605e-4870-9f15-288a758bb79e","ios":"levelo://app?vid=f5dfc69a-605e-4870-9f15-288a758bb79e"},"vehicle_type_id":"4","last_reported":1770931421,"current_range_meters":8000,"station_id":"st_d3md5207bmas73dh9klg","pricing_plan_id":"cebpf4jnsgd1na2vs0mg"},{"bike_id":"41536ba6-5dd4-4add-a646-491b9fa39068","system_id":"levelo_inurba_marseille","lat":43.24487,"lon":5.42548,"is_reserved":false,"is_disabled":false,"rental_uris":{"android":"levelo://app?vid=41536ba6-5dd4-4add-a646-491b9fa39068","ios":"levelo://app?vid=41536ba6-5dd4-4add-a646-491b9fa39068"},"vehicle_type_id":"4","last_reported":1770931421,"current_range_meters":8000,"station_id":"st_d4a3vfp97mjs738cd8kg","pricing_plan_id":"cebpf4jnsgd1na2vs0mg"},{"bike_id":"1611f367-fe1c-4c97-a723-66538ec1b8ac","system_id":"levelo_inurba_marseille","lat":43.29245,"lon":5.38421,"is_reserved":false,"is_disabled":false,"rental_uris":{"android":"levelo://app?vid=1611f367-fe1c-4c97-a723-66538ec1b8ac","ios":"levelo://app?vid=1611f367-fe1c-4c97-a723-66538ec1b8ac"},"vehicle_type_id":"4","last_reported":1770931421,"current_range_meters":8000,"station_id":"ce4bh692rcd13ifvqea0","pricing_plan_id":"cebpf4jnsgd1na2vs0mg"},{"bike_id":"f45293d6-4615-4b71-8a82-5fb46a80b0f5","system_id":"levelo_inurba_marseille","lat":43.23399,"lon":5.41222,"is_reserved":false,"is_disabled":false,"rental_uris":{"android":"levelo://app?vid=f45293d6-4615-4b71-8a82-5fb46a80b0f5","ios":"levelo://app?vid=f45293d6-4615-4b71-8a82-5fb46a80b0f5"},"vehicle_type_id":"4","last_reported":1770931421,"current_range_meters":8000,"station_id":"","pricing_plan_id":"cebpf4jnsgd1na2vs0mg"},{"bike_id":"2cdaaecc-f3f1-45ea-a338-8e3592ee7872","system_id":"levelo_inurba_marseille","lat":43.319941,"lon":5.381658,"is_reserved":false,"is_disabled":false,"rental_uris":{"android":"levelo://app?vid=2cdaaecc-f3f1-45ea-a338-8e3592ee7872","ios":"levelo://app?vid=2cdaaecc-f3f1-45ea-a338-8e3592ee7872"},"vehicle_type_id":"4","last_reported":1770931421,"current_range_meters":8000,"station_id":"ce4bhbh2rcd13ifvqeqg","pricing_plan_id":"cebpf4jnsgd1na2vs0mg"},{"bike_id":"5d56efd8-bdbb-4db3-86db-1e2074164c80","system_id":"levelo_inurba_marseille","lat":43.29645,"lon":5.37767,"is_reserved":false,"is_disabled":false,"rental_uris":{"android":"levelo://app?vid=5d56efd8-bdbb-4db3-86db-1e2074164c80","ios":"levelo://app?vid=5d56efd8-bdbb-4db3-86db-1e2074164c80"},"vehicle_type_id":"4","last_reported":1770931421,"current_range_meters":8000,"station_id":"ce4bgi92rcd13ifvqb90","pricing_plan_id":"cebpf4jnsgd1na2vs0mg"},{"bike_id":"af695b57-f178-4242-8855-8e87193aabc4","system_id":"levelo_inurba_marseille","lat":43.28679,"lon":5.38674,"is_reserved":false,"is_disabled":false,"rental_uris":{"android":"levelo://app?vid=af695b57-f178-4242-8855-8e87193aabc4","ios":"levelo://app?vid=af695b57-f178-4242-8855-8e87193aabc4"},"vehicle_type_id":"4","last_reported":1770931421,"current_range_meters":8000,"station_id":"ce4bh492rcd13ifvqdug","pricing_plan_id":"cebpf4jnsgd1na2vs0mg"},{"bike_id":"ab2b49aa-7574-41ea-aafd-20e44f598b0a","system_id":"levelo_inurba_marseille","lat":43.33163,"lon":5.37702,"is_reserved":false,"is_disabled":false,"rental_uris":{"android":"levelo://app?vid=ab2b49aa-7574-41ea-aafd-20e44f598b0a","ios":"levelo://app?vid=ab2b49aa-7574-41ea-aafd-20e44f598b0a"},"vehicle_type_id":"4","last_reported":1770931421,"current_range_meters":8000,"station_id":"st_d46cu089ee8s73dldbu0","pricing_plan_id":"cebpf4jnsgd1na2vs0mg"},{"bike_id":"32726a3c-9f83-4689-84aa-08e8377eed60","system_id":"levelo_inurba_marseille","lat":43.23794,"lon":5.36669,"is_reserved":false,"is_disabled":true,"rental_uris":{"android":"levelo://app?vid=32726a3c-9f83-4689-84aa-08e8377eed60","ios":"levelo://app?vid=32726a3c-9f83-4689-84aa-08e8377eed60"},"vehicle_type_id":"4","last_reported":1770931421,"current_range_meters":8000,"station_id":"st_d3nk18o9ro0c73en2l3g","pricing_plan_id":"cebpf4jnsgd1na2vs0mg"},{"bike_id":"9cceaab4-22fd-47ec-83e6-ad35219eea09","system_id":"levelo_inurba_marseille","lat":43.25586,"lon":5.38266,"is_reserved":false,"is_disabled":false,"rental_uris":{"android":"levelo://app?vid=9cceaab4-22fd-47ec-83e6-ad35219eea09","ios":"levelo://app?vid=9cceaab4-22fd-47ec-83e6-ad35219eea09"},"vehicle_type_id":"4","last_reported":1770931421,"current_range_meters":8400,"station_id":"ce4bhih2rcd13ifvqfs0","pricing_plan_id":"cebpf4jnsgd1na2vs0mg"},{"bike_id":"d5e6e1ff-1825-4bc7-8bdb-49e43f0c1a93","system_id":"levelo_inurba_marseille","lat":43.2872,"lon":5.37928,"is_reserved":false,"is_disabled":false,"rental_uris":{"android":"levelo://app?vid=d5e6e1ff-1825-4bc7-8bdb-49e43f0c1a93","ios":"levelo://app?vid=d5e6e1ff-1825-4bc7-8bdb-49e43f0c1a93"},"vehicle_type_id":"4","last_reported":1770931421,"current_range_meters":8400,"station_id":"ce4bh9p2rcd13ifvqec0","pricing_plan_id":"cebpf4jnsgd1na2vs0mg"},{"bike_id":"439d8096-e924-4926-b33d-e1a59bc67f7d","system_id":"levelo_inurba_marseille","lat":43.29263,"lon":5.38452,"is_reserved":false,"is_disabled":false,"rental_uris":{"android":"levelo://app?vid=439d8096-e924-4926-b33d-e1a59bc67f7d","ios":"levelo://app?vid=439d8096-e924-4926-b33d-e1a59bc67f7d"},"vehicle_type_id":"4","last_reported":1770931421,"current_range_meters":8400,"station_id":"ce4bh692rcd13ifvqea0","pricing_plan_id":"cebpf4jnsgd1na2vs0mg"},{"bike_id":"d30d7d9e-611d-4920-9b2d-b4a912454982","system_id":"levelo_inurba_marseille","lat":43.31278,"lon":5.37747,"is_reserved":false,"is_disabled":false,"rental_uris":{"android":"levelo://app?vid=d30d7d9e-611d-4920-9b2d-b4a912454982","ios":"levelo://app?vid=d30d7d9e-611d-4920-9b2d-b4a912454982"},"vehicle_type_id":"4","last_reported":1770931421,"current_range_meters":8400,"station_id":"","pricing_plan_id":"cebpf4jnsgd1na2vs0mg"},{"bike_id":"2c41392c-79a3-4525-9d6c-b8d67a82ef42","system_id":"levelo_inurba_marseille","lat":43.31204,"lon":5.36855,"is_reserved":false,"is_disabled":false,"rental_uris":{"android":"levelo://app?vid=2c41392c-79a3-4525-9d6c-b8d67a82ef42","ios":"levelo://app?vid=2c41392c-79a3-4525-9d6c-b8d67a82ef42"},"vehicle_type_id":"4","last_reported":1770931421,"current_range_meters":8400,"station_id":"ce4bgl92rcd13ifvqbq0","pricing_plan_id":"cebpf4jnsgd1na2vs0mg"},{"bike_id":"5ff157dc-e3aa-4305-ad39-dfa58cf64b9c","system_id":"levelo_inurba_marseille","lat":43.24105,"lon":5.37737,"is_reserved":false,"is_disabled":false,"rental_uris":{"android":"levelo://app?vid=5ff157dc-e3aa-4305-ad39-dfa58cf64b9c","ios":"levelo://app?vid=5ff157dc-e3aa-4305-ad39-dfa58cf64b9c"},"vehicle_type_id":"4","last_reported":1770931421,"current_range_meters":8400,"station_id":"ce4bhnp2rcd13ifvqgvg","pricing_plan_id":"cebpf4jnsgd1na2vs0mg"},{"bike_id":"6f992222-ec7a-488c-a1d3-988179372f4d","system_id":"levelo_inurba_marseille","lat":43.217441,"lon":5.346149,"is_reserved":false,"is_disabled":false,"rental_uris":{"android":"levelo://app?vid=6f992222-ec7a-488c-a1d3-988179372f4d","ios":"levelo://app?vid=6f992222-ec7a-488c-a1d3-988179372f4d"},"vehicle_type_id":"4","last_reported":1770931421,"current_range_meters":8400,"station_id":"st_cvj6r9ubvosntc0bgbag","pricing_plan_id":"cebpf4jnsgd1na2vs0mg"},{"bike_id":"a094603f-6b66-45dc-8cf7-e15513c5be6b","system_id":"levelo_inurba_marseille","lat":43.29837,"lon":5.36261,"is_reserved":false,"is_disabled":false,"rental_uris":{"android":"levelo://app?vid=a094603f-6b66-45dc-8cf7-e15513c5be6b","ios":"levelo://app?vid=a094603f-6b66-45dc-8cf7-e15513c5be6b"},"vehicle_type_id":"4","last_reported":1770931421,"current_range_meters":8400,"station_id":"ce4bgpp2rcd13ifvqc3g","pricing_plan_id":"cebpf4jnsgd1na2vs0mg"},{"bike_id":"696bdac2-f3c7-4485-ae21-03b56437e269","system_id":"levelo_inurba_marseille","lat":43.292589,"lon":5.38448,"is_reserved":false,"is_disabled":false,"rental_uris":{"android":"levelo://app?vid=696bdac2-f3c7-4485-ae21-03b56437e269","ios":"levelo://app?vid=696bdac2-f3c7-4485-ae21-03b56437e269"},"vehicle_type_id":"4","last_reported":1770931421,"current_range_meters":8400,"station_id":"ce4bh692rcd13ifvqea0","pricing_plan_id":"cebpf4jnsgd1na2vs0mg"},{"bike_id":"05797971-b1fa-4e10-9a08-cd7f223bbe55","system_id":"levelo_inurba_marseille","lat":43.21749,"lon":5.34596,"is_reserved":false,"is_disabled":false,"rental_uris":{"android":"levelo://app?vid=05797971-b1fa-4e10-9a08-cd7f223bbe55","ios":"levelo://app?vid=05797971-b1fa-4e10-9a08-cd7f223bbe55"},"vehicle_type_id":"4","last_reported":1770931421,"current_range_meters":8400,"station_id":"st_cvj6r9ubvosntc0bgbag","pricing_plan_id":"cebpf4jnsgd1na2vs0mg"},{"bike_id":"c2f5d1a4-742e-46c9-9342-dba529c9dee7","system_id":"levelo_inurba_marseille","lat":43.31505,"lon":5.44559,"is_reserved":false,"is_disabled":false,"rental_uris":{"android":"levelo://app?vid=c2f5d1a4-742e-46c9-9342-dba529c9dee7","ios":"levelo://app?vid=c2f5d1a4-742e-46c9-9342-dba529c9dee7"},"vehicle_type_id":"4","last_reported":1770931421,"current_range_meters":8400,"station_id":"","pricing_plan_id":"cebpf4jnsgd1na2vs0mg"},{"bike_id":"27931943-85db-4ed9-bf22-5714a3482b69","system_id":"levelo_inurba_marseille","lat":43.315422,"lon":5.380373,"is_reserved":false,"is_disabled":true,"rental_uris":{"android":"levelo://app?vid=27931943-85db-4ed9-bf22-5714a3482b69","ios":"levelo://app?vid=27931943-85db-4ed9-bf22-5714a3482b69"},"vehicle_type_id":"4","last_reported":1770931421,"current_range_meters":8400,"station_id":"ce4bhsp2rcd13ifvqi50","pricing_plan_id":"cebpf4jnsgd1na2vs0mg"},{"bike_id":"33f1fe40-3dca-4805-a01a-37542c447572","system_id":"levelo_inurba_marseille","lat":43.28934,"lon":5.38401,"is_reserved":false,"is_disabled":false,"rental_uris":{"android":"levelo://app?vid=33f1fe40-3dca-4805-a01a-37542c447572","ios":"levelo://app?vid=33f1fe40-3dca-4805-a01a-37542c447572"},"vehicle_type_id":"4","last_reported":1770931421,"current_range_meters":8400,"station_id":"ce4bh612rcd13ifvqe6g","pricing_plan_id":"cebpf4jnsgd1na2vs0mg"},{"bike_id":"9490a26f-1ee4-42a7-b4d6-589b3dd386d7","system_id":"levelo_inurba_marseille","lat":43.251144,"lon":5.403237,"is_reserved":false,"is_disabled":false,"rental_uris":{"android":"levelo://app?vid=9490a26f-1ee4-42a7-b4d6-589b3dd386d7","ios":"levelo://app?vid=9490a26f-1ee4-42a7-b4d6-589b3dd386d7"},"vehicle_type_id":"4","last_reported":1770931421,"current_range_meters":8400,"station_id":"","pricing_plan_id":"cebpf4jnsgd1na2vs0mg"},{"bike_id":"9046660d-efe1-48ad-a8d2-388b140f2e60","system_id":"levelo_inurba_marseille","lat":43.27811,"lon":5.40715,"is_reserved":false,"is_disabled":false,"rental_uris":{"android":"levelo://app?vid=9046660d-efe1-48ad-a8d2-388b140f2e60","ios":"levelo://app?vid=9046660d-efe1-48ad-a8d2-388b140f2e60"},"vehicle_type_id":"4","last_reported":1770931421,"current_range_meters":8400,"station_id":"ce4bhnh2rcd13ifvqgtg","pricing_plan_id":"cebpf4jnsgd1na2vs0mg"},{"bike_id":"3aa57779-82b7-4d1b-a6b0-31b7003d5075","system_id":"levelo_inurba_marseille","lat":43.30327,"lon":5.40432,"is_reserved":false,"is_disabled":false,"rental_uris":{"android":"levelo://app?vid=3aa57779-82b7-4d1b-a6b0-31b7003d5075","ios":"levelo://app?vid=3aa57779-82b7-4d1b-a6b0-31b7003d5075"},"vehicle_type_id":"4","last_reported":1770931421,"current_range_meters":8400,"station_id":"ce4bh012rcd13ifvqd10","pricing_plan_id":"cebpf4jnsgd1na2vs0mg"},{"bike_id":"76ea5260-ff82-43e8-a377-4f3ddffee2c7","system_id":"levelo_inurba_marseille","lat":43.297187,"lon":5.427768,"is_reserved":false,"is_disabled":false,"rental_uris":{"android":"levelo://app?vid=76ea5260-ff82-43e8-a377-4f3ddffee2c7","ios":"levelo://app?vid=76ea5260-ff82-43e8-a377-4f3ddffee2c7"},"vehicle_type_id":"4","last_reported":1770931421,"current_range_meters":8400,"station_id":"st_d3md5207bmas73dh9klg","pricing_plan_id":"cebpf4jnsgd1na2vs0mg"},{"bike_id":"2f9929e9-68f0-4ce8-87ba-f867fca84ced","system_id":"levelo_inurba_marseille","lat":43.31698,"lon":5.43709,"is_reserved":false,"is_disabled":false,"rental_uris":{"android":"levelo://app?vid=2f9929e9-68f0-4ce8-87ba-f867fca84ced","ios":"levelo://app?vid=2f9929e9-68f0-4ce8-87ba-f867fca84ced"},"vehicle_type_id":"4","last_reported":1770931421,"current_range_meters":8400,"station_id":"ce4bhp92rcd13ifvqhcg","pricing_plan_id":"cebpf4jnsgd1na2vs0mg"},{"bike_id":"12cd40cb-2fcd-4c1b-95d1-58d07323fb4a","system_id":"levelo_inurba_marseille","lat":43.24508,"lon":5.42468,"is_reserved":false,"is_disabled":false,"rental_uris":{"android":"levelo://app?vid=12cd40cb-2fcd-4c1b-95d1-58d07323fb4a","ios":"levelo://app?vid=12cd40cb-2fcd-4c1b-95d1-58d07323fb4a"},"vehicle_type_id":"4","last_reported":1770931421,"current_range_meters":8400,"station_id":"","pricing_plan_id":"cebpf4jnsgd1na2vs0mg"},{"bike_id":"eb716989-0baf-49cb-8a14-44956556f7e8","system_id":"levelo_inurba_marseille","lat":43.29271,"lon":5.38436,"is_reserved":false,"is_disabled":true,"rental_uris":{"android":"levelo://app?vid=eb716989-0baf-49cb-8a14-44956556f7e8","ios":"levelo://app?vid=eb716989-0baf-49cb-8a14-44956556f7e8"},"vehicle_type_id":"4","last_reported":1770931421,"current_range_meters":8400,"station_id":"ce4bh692rcd13ifvqea0","pricing_plan_id":"cebpf4jnsgd1na2vs0mg"},{"bike_id":"28aca305-7f7d-4b12-a0ae-cfabbf96c8f2","system_id":"levelo_inurba_marseille","lat":43.24672,"lon":5.38155,"is_reserved":false,"is_disabled":false,"rental_uris":{"android":"levelo://app?vid=28aca305-7f7d-4b12-a0ae-cfabbf96c8f2","ios":"levelo://app?vid=28aca305-7f7d-4b12-a0ae-cfabbf96c8f2"},"vehicle_type_id":"4","last_reported":1770931421,"current_range_meters":8800,"station_id":"ce4bhih2rcd13ifvqfr0","pricing_plan_id":"cebpf4jnsgd1na2vs0mg"},{"bike_id":"65aac124-f4af-40a9-969f-9b86b76af09b","system_id":"levelo_inurba_marseille","lat":43.29448,"lon":5.395761,"is_reserved":false,"is_disabled":false,"rental_uris":{"android":"levelo://app?vid=65aac124-f4af-40a9-969f-9b86b76af09b","ios":"levelo://app?vid=65aac124-f4af-40a9-969f-9b86b76af09b"},"vehicle_type_id":"4","last_reported":1770931421,"current_range_meters":8800,"station_id":"","pricing_plan_id":"cebpf4jnsgd1na2vs0mg"},{"bike_id":"b39ba1aa-7b31-4368-898e-d2ae177a7edd","system_id":"levelo_inurba_marseille","lat":43.26543,"lon":5.37306,"is_reserved":false,"is_disabled":false,"rental_uris":{"android":"levelo://app?vid=b39ba1aa-7b31-4368-898e-d2ae177a7edd","ios":"levelo://app?vid=b39ba1aa-7b31-4368-898e-d2ae177a7edd"},"vehicle_type_id":"4","last_reported":1770931421,"current_range_meters":8800,"station_id":"ce4bhg12rcd13ifvqf70","pricing_plan_id":"cebpf4jnsgd1na2vs0mg"},{"bike_id":"44b82be7-a2b9-42f1-8560-17e8ec787592","system_id":"levelo_inurba_marseille","lat":43.30911,"lon":5.36851,"is_reserved":false,"is_disabled":false,"rental_uris":{"android":"levelo://app?vid=44b82be7-a2b9-42f1-8560-17e8ec787592","ios":"levelo://app?vid=44b82be7-a2b9-42f1-8560-17e8ec787592"},"vehicle_type_id":"4","last_reported":1770931421,"current_range_meters":8800,"station_id":"ce4bgn92rcd13ifvqbvg","pricing_plan_id":"cebpf4jnsgd1na2vs0mg"},{"bike_id":"abce2bc2-435a-41b2-ad4b-ce66cbf18f5f","system_id":"levelo_inurba_marseille","lat":43.26249,"lon":5.37484,"is_reserved":false,"is_disabled":false,"rental_uris":{"android":"levelo://app?vid=abce2bc2-435a-41b2-ad4b-ce66cbf18f5f","ios":"levelo://app?vid=abce2bc2-435a-41b2-ad4b-ce66cbf18f5f"},"vehicle_type_id":"4","last_reported":1770931421,"current_range_meters":8800,"station_id":"","pricing_plan_id":"cebpf4jnsgd1na2vs0mg"},{"bike_id":"4fabe8f2-3686-4595-b208-5b1849f1d59a","system_id":"levelo_inurba_marseille","lat":43.21676,"lon":5.34589,"is_reserved":false,"is_disabled":false,"rental_uris":{"android":"levelo://app?vid=4fabe8f2-3686-4595-b208-5b1849f1d59a","ios":"levelo://app?vid=4fabe8f2-3686-4595-b208-5b1849f1d59a"},"vehicle_type_id":"4","last_reported":1770931421,"current_range_meters":8800,"station_id":"st_cvj6r9ubvosntc0bgbag","pricing_plan_id":"cebpf4jnsgd1na2vs0mg"},{"bike_id":"2b50711d-f274-4858-b57c-b0b2d82b3b63","system_id":"levelo_inurba_marseille","lat":43.2998,"lon":5.3851,"is_reserved":false,"is_disabled":true,"rental_uris":{"android":"levelo://app?vid=2b50711d-f274-4858-b57c-b0b2d82b3b63","ios":"levelo://app?vid=2b50711d-f274-4858-b57c-b0b2d82b3b63"},"vehicle_type_id":"4","last_reported":1770931421,"current_range_meters":8800,"station_id":"ce4bgj92rcd13ifvqbd0","pricing_plan_id":"cebpf4jnsgd1na2vs0mg"},{"bike_id":"1666a0e7-ccfb-4a46-816c-bd1b996f577e","system_id":"levelo_inurba_marseille","lat":43.286068,"lon":5.384022,"is_reserved":false,"is_disabled":false,"rental_uris":{"android":"levelo://app?vid=1666a0e7-ccfb-4a46-816c-bd1b996f577e","ios":"levelo://app?vid=1666a0e7-ccfb-4a46-816c-bd1b996f577e"},"vehicle_type_id":"4","last_reported":1770931421,"current_range_meters":8800,"station_id":"","pricing_plan_id":"cebpf4jnsgd1na2vs0mg"},{"bike_id":"1fda2318-5942-4788-9736-e5a9eab5d456","system_id":"levelo_inurba_marseille","lat":43.261907,"lon":5.374608,"is_reserved":false,"is_disabled":false,"rental_uris":{"android":"levelo://app?vid=1fda2318-5942-4788-9736-e5a9eab5d456","ios":"levelo://app?vid=1fda2318-5942-4788-9736-e5a9eab5d456"},"vehicle_type_id":"4","last_reported":1770931421,"current_range_meters":8800,"station_id":"ce4bhgp2rcd13ifvqfc0","pricing_plan_id":"cebpf4jnsgd1na2vs0mg"},{"bike_id":"0270cee7-d38d-40e7-8096-229f09bfe278","system_id":"levelo_inurba_marseille","lat":43.25009,"lon":5.3892,"is_reserved":false,"is_disabled":false,"rental_uris":{"android":"levelo://app?vid=0270cee7-d38d-40e7-8096-229f09bfe278","ios":"levelo://app?vid=0270cee7-d38d-40e7-8096-229f09bfe278"},"vehicle_type_id":"4","last_reported":1770931421,"current_range_meters":8800,"station_id":"ce4bhgp2rcd13ifvqfd0","pricing_plan_id":"cebpf4jnsgd1na2vs0mg"},{"bike_id":"5e6b363c-3285-4065-aa55-8f6ad4524674","system_id":"levelo_inurba_marseille","lat":43.21224,"lon":5.35084,"is_reserved":false,"is_disabled":false,"rental_uris":{"android":"levelo://app?vid=5e6b363c-3285-4065-aa55-8f6ad4524674","ios":"levelo://app?vid=5e6b363c-3285-4065-aa55-8f6ad4524674"},"vehicle_type_id":"4","last_reported":1770931421,"current_range_meters":8800,"station_id":"st_cvj6sg6p6f1abm77japg","pricing_plan_id":"cebpf4jnsgd1na2vs0mg"},{"bike_id":"7578ca6a-41b9-4d16-80d9-987a7c1630a9","system_id":"levelo_inurba_marseille","lat":43.24651,"lon":5.38897,"is_reserved":false,"is_disabled":false,"rental_uris":{"android":"levelo://app?vid=7578ca6a-41b9-4d16-80d9-987a7c1630a9","ios":"levelo://app?vid=7578ca6a-41b9-4d16-80d9-987a7c1630a9"},"vehicle_type_id":"4","last_reported":1770931421,"current_range_meters":8800,"station_id":"ce4bhg12rcd13ifvqf60","pricing_plan_id":"cebpf4jnsgd1na2vs0mg"},{"bike_id":"b1fd2bd1-9d58-44df-88bd-c061d347df54","system_id":"levelo_inurba_marseille","lat":43.30261,"lon":5.40061,"is_reserved":false,"is_disabled":false,"rental_uris":{"android":"levelo://app?vid=b1fd2bd1-9d58-44df-88bd-c061d347df54","ios":"levelo://app?vid=b1fd2bd1-9d58-44df-88bd-c061d347df54"},"vehicle_type_id":"4","last_reported":1770931421,"current_range_meters":8800,"station_id":"ce4bgvh2rcd13ifvqcs0","pricing_plan_id":"cebpf4jnsgd1na2vs0mg"},{"bike_id":"300bd048-5059-4d92-acd1-4068b19629fb","system_id":"levelo_inurba_marseille","lat":43.26895,"lon":5.40731,"is_reserved":false,"is_disabled":false,"rental_uris":{"android":"levelo://app?vid=300bd048-5059-4d92-acd1-4068b19629fb","ios":"levelo://app?vid=300bd048-5059-4d92-acd1-4068b19629fb"},"vehicle_type_id":"4","last_reported":1770931421,"current_range_meters":8800,"station_id":"","pricing_plan_id":"cebpf4jnsgd1na2vs0mg"},{"bike_id":"49e867dd-1af1-4974-bc21-efb064a7210c","system_id":"levelo_inurba_marseille","lat":43.29532,"lon":5.38548,"is_reserved":false,"is_disabled":false,"rental_uris":{"android":"levelo://app?vid=49e867dd-1af1-4974-bc21-efb064a7210c","ios":"levelo://app?vid=49e867dd-1af1-4974-bc21-efb064a7210c"},"vehicle_type_id":"4","last_reported":1770931421,"current_range_meters":8800,"station_id":"ce4bgih2rcd13ifvqba0","pricing_plan_id":"cebpf4jnsgd1na2vs0mg"},{"bike_id":"8156145f-7dd7-4635-92a4-7ad0eda88d5e","system_id":"levelo_inurba_marseille","lat":43.31277,"lon":5.40178,"is_reserved":false,"is_disabled":false,"rental_uris":{"android":"levelo://app?vid=8156145f-7dd7-4635-92a4-7ad0eda88d5e","ios":"levelo://app?vid=8156145f-7dd7-4635-92a4-7ad0eda88d5e"},"vehicle_type_id":"4","last_reported":1770931421,"current_range_meters":8800,"station_id":"ce4bh092rcd13ifvqd30","pricing_plan_id":"cebpf4jnsgd1na2vs0mg"},{"bike_id":"45237fac-2b63-4cb5-9822-d1c3cd2a94c4","system_id":"levelo_inurba_marseille","lat":43.31426,"lon":5.40312,"is_reserved":false,"is_disabled":false,"rental_uris":{"android":"levelo://app?vid=45237fac-2b63-4cb5-9822-d1c3cd2a94c4","ios":"levelo://app?vid=45237fac-2b63-4cb5-9822-d1c3cd2a94c4"},"vehicle_type_id":"4","last_reported":1770931421,"current_range_meters":8800,"station_id":"","pricing_plan_id":"cebpf4jnsgd1na2vs0mg"},{"bike_id":"371eb68e-4d11-45ee-86bc-baece8b857ad","system_id":"levelo_inurba_marseille","lat":43.29319,"lon":5.37179,"is_reserved":false,"is_disabled":false,"rental_uris":{"android":"levelo://app?vid=371eb68e-4d11-45ee-86bc-baece8b857ad","ios":"levelo://app?vid=371eb68e-4d11-45ee-86bc-baece8b857ad"},"vehicle_type_id":"4","last_reported":1770931421,"current_range_meters":8800,"station_id":"ce4bgh92rcd13ifvqb40","pricing_plan_id":"cebpf4jnsgd1na2vs0mg"},{"bike_id":"4057c83d-b4bd-4ba4-b442-ec4855632d03","system_id":"levelo_inurba_marseille","lat":43.30451,"lon":5.37921,"is_reserved":false,"is_disabled":false,"rental_uris":{"android":"levelo://app?vid=4057c83d-b4bd-4ba4-b442-ec4855632d03","ios":"levelo://app?vid=4057c83d-b4bd-4ba4-b442-ec4855632d03"},"vehicle_type_id":"4","last_reported":1770931421,"current_range_meters":8800,"station_id":"ce4bgup2rcd13ifvqcn0","pricing_plan_id":"cebpf4jnsgd1na2vs0mg"},{"bike_id":"cae3340b-dabf-42ee-b29f-fab64d3e6b2c","system_id":"levelo_inurba_marseille","lat":43.24092,"lon":5.37761,"is_reserved":false,"is_disabled":false,"rental_uris":{"android":"levelo://app?vid=cae3340b-dabf-42ee-b29f-fab64d3e6b2c","ios":"levelo://app?vid=cae3340b-dabf-42ee-b29f-fab64d3e6b2c"},"vehicle_type_id":"4","last_reported":1770931421,"current_range_meters":9200,"station_id":"ce4bhnp2rcd13ifvqgvg","pricing_plan_id":"cebpf4jnsgd1na2vs0mg"},{"bike_id":"f4388598-0fe9-4895-90f2-b32d9b275360","system_id":"levelo_inurba_marseille","lat":43.30101,"lon":5.39088,"is_reserved":false,"is_disabled":false,"rental_uris":{"android":"levelo://app?vid=f4388598-0fe9-4895-90f2-b32d9b275360","ios":"levelo://app?vid=f4388598-0fe9-4895-90f2-b32d9b275360"},"vehicle_type_id":"4","last_reported":1770931421,"current_range_meters":9200,"station_id":"ce4bh192rcd13ifvqdb0","pricing_plan_id":"cebpf4jnsgd1na2vs0mg"},{"bike_id":"014613de-69aa-4aca-9291-67750cce2e69","system_id":"levelo_inurba_marseille","lat":43.28478,"lon":5.48386,"is_reserved":false,"is_disabled":false,"rental_uris":{"android":"levelo://app?vid=014613de-69aa-4aca-9291-67750cce2e69","ios":"levelo://app?vid=014613de-69aa-4aca-9291-67750cce2e69"},"vehicle_type_id":"4","last_reported":1770931421,"current_range_meters":9200,"station_id":"","pricing_plan_id":"cebpf4jnsgd1na2vs0mg"},{"bike_id":"806dba28-6b5b-471d-afa9-5e9335f17ebb","system_id":"levelo_inurba_marseille","lat":43.2926,"lon":5.40915,"is_reserved":false,"is_disabled":true,"rental_uris":{"android":"levelo://app?vid=806dba28-6b5b-471d-afa9-5e9335f17ebb","ios":"levelo://app?vid=806dba28-6b5b-471d-afa9-5e9335f17ebb"},"vehicle_type_id":"4","last_reported":1770931421,"current_range_meters":9200,"station_id":"ce4bh192rcd13ifvqdc0","pricing_plan_id":"cebpf4jnsgd1na2vs0mg"},{"bike_id":"d4196b46-90a4-4e45-bfc7-5938e4b2d64a","system_id":"levelo_inurba_marseille","lat":43.29531,"lon":5.38548,"is_reserved":false,"is_disabled":false,"rental_uris":{"android":"levelo://app?vid=d4196b46-90a4-4e45-bfc7-5938e4b2d64a","ios":"levelo://app?vid=d4196b46-90a4-4e45-bfc7-5938e4b2d64a"},"vehicle_type_id":"4","last_reported":1770931421,"current_range_meters":9200,"station_id":"ce4bgih2rcd13ifvqba0","pricing_plan_id":"cebpf4jnsgd1na2vs0mg"},{"bike_id":"71a49fd3-35c5-47b0-9364-fe0fe8285ced","system_id":"levelo_inurba_marseille","lat":43.23201,"lon":5.40016,"is_reserved":false,"is_disabled":false,"rental_uris":{"android":"levelo://app?vid=71a49fd3-35c5-47b0-9364-fe0fe8285ced","ios":"levelo://app?vid=71a49fd3-35c5-47b0-9364-fe0fe8285ced"},"vehicle_type_id":"4","last_reported":1770931421,"current_range_meters":9200,"station_id":"ce4bhn12rcd13ifvqgqg","pricing_plan_id":"cebpf4jnsgd1na2vs0mg"},{"bike_id":"410684d1-9bfb-4d62-af7a-b3a54dec4491","system_id":"levelo_inurba_marseille","lat":43.29037,"lon":5.38642,"is_reserved":false,"is_disabled":false,"rental_uris":{"android":"levelo://app?vid=410684d1-9bfb-4d62-af7a-b3a54dec4491","ios":"levelo://app?vid=410684d1-9bfb-4d62-af7a-b3a54dec4491"},"vehicle_type_id":"4","last_reported":1770931421,"current_range_meters":9200,"station_id":"ce4bh4p2rcd13ifvqe0g","pricing_plan_id":"cebpf4jnsgd1na2vs0mg"},{"bike_id":"2de5dc27-fdb2-44e2-93e3-9837b9b9ac42","system_id":"levelo_inurba_marseille","lat":43.29534,"lon":5.38523,"is_reserved":false,"is_disabled":false,"rental_uris":{"android":"levelo://app?vid=2de5dc27-fdb2-44e2-93e3-9837b9b9ac42","ios":"levelo://app?vid=2de5dc27-fdb2-44e2-93e3-9837b9b9ac42"},"vehicle_type_id":"4","last_reported":1770931421,"current_range_meters":9200,"station_id":"ce4bgih2rcd13ifvqba0","pricing_plan_id":"cebpf4jnsgd1na2vs0mg"},{"bike_id":"8b9dda30-a538-4c56-8057-4354e193017c","system_id":"levelo_inurba_marseille","lat":43.29222,"lon":5.36113,"is_reserved":false,"is_disabled":false,"rental_uris":{"android":"levelo://app?vid=8b9dda30-a538-4c56-8057-4354e193017c","ios":"levelo://app?vid=8b9dda30-a538-4c56-8057-4354e193017c"},"vehicle_type_id":"4","last_reported":1770931421,"current_range_meters":9200,"station_id":"ce4bhbh2rcd13ifvqeqg","pricing_plan_id":"cebpf4jnsgd1na2vs0mg"},{"bike_id":"0306c95f-f529-44ab-b08d-8558da05b6c6","system_id":"levelo_inurba_marseille","lat":43.25338,"lon":5.4216,"is_reserved":false,"is_disabled":false,"rental_uris":{"android":"levelo://app?vid=0306c95f-f529-44ab-b08d-8558da05b6c6","ios":"levelo://app?vid=0306c95f-f529-44ab-b08d-8558da05b6c6"},"vehicle_type_id":"4","last_reported":1770931421,"current_range_meters":9200,"station_id":"st_d2m65c5bi1j21697t3ng","pricing_plan_id":"cebpf4jnsgd1na2vs0mg"},{"bike_id":"5d5c401f-26ab-4837-88db-c59e1c2aeb12","system_id":"levelo_inurba_marseille","lat":43.31063,"lon":5.38333,"is_reserved":false,"is_disabled":false,"rental_uris":{"android":"levelo://app?vid=5d5c401f-26ab-4837-88db-c59e1c2aeb12","ios":"levelo://app?vid=5d5c401f-26ab-4837-88db-c59e1c2aeb12"},"vehicle_type_id":"4","last_reported":1770931421,"current_range_meters":9200,"station_id":"ce4bgv92rcd13ifvqcr0","pricing_plan_id":"cebpf4jnsgd1na2vs0mg"},{"bike_id":"5333e461-ed93-4370-b11b-c5f9412729f8","system_id":"levelo_inurba_marseille","lat":43.269473,"lon":5.386319,"is_reserved":false,"is_disabled":true,"rental_uris":{"android":"levelo://app?vid=5333e461-ed93-4370-b11b-c5f9412729f8","ios":"levelo://app?vid=5333e461-ed93-4370-b11b-c5f9412729f8"},"vehicle_type_id":"4","last_reported":1770931421,"current_range_meters":9200,"station_id":"ce4bhh92rcd13ifvqfh0","pricing_plan_id":"cebpf4jnsgd1na2vs0mg"},{"bike_id":"4982c570-b9cf-4120-a474-14e04cbff368","system_id":"levelo_inurba_marseille","lat":43.30154,"lon":5.38046,"is_reserved":false,"is_disabled":false,"rental_uris":{"android":"levelo://app?vid=4982c570-b9cf-4120-a474-14e04cbff368","ios":"levelo://app?vid=4982c570-b9cf-4120-a474-14e04cbff368"},"vehicle_type_id":"4","last_reported":1770931421,"current_range_meters":9200,"station_id":"ce4bgjp2rcd13ifvqbh0","pricing_plan_id":"cebpf4jnsgd1na2vs0mg"},{"bike_id":"89dc407d-ca98-4662-aa6a-0e3472bfc645","system_id":"levelo_inurba_marseille","lat":43.299575,"lon":5.385578,"is_reserved":false,"is_disabled":false,"rental_uris":{"android":"levelo://app?vid=89dc407d-ca98-4662-aa6a-0e3472bfc645","ios":"levelo://app?vid=89dc407d-ca98-4662-aa6a-0e3472bfc645"},"vehicle_type_id":"4","last_reported":1770931421,"current_range_meters":9200,"station_id":"","pricing_plan_id":"cebpf4jnsgd1na2vs0mg"},{"bike_id":"7ebaa038-f7e8-4cf9-aac2-b18fb424d74a","system_id":"levelo_inurba_marseille","lat":43.27688,"lon":5.39572,"is_reserved":false,"is_disabled":false,"rental_uris":{"android":"levelo://app?vid=7ebaa038-f7e8-4cf9-aac2-b18fb424d74a","ios":"levelo://app?vid=7ebaa038-f7e8-4cf9-aac2-b18fb424d74a"},"vehicle_type_id":"4","last_reported":1770931421,"current_range_meters":9200,"station_id":"","pricing_plan_id":"cebpf4jnsgd1na2vs0mg"},{"bike_id":"5effb89f-1d70-4615-a4b6-1dc3bfffaecb","system_id":"levelo_inurba_marseille","lat":43.29243,"lon":5.36051,"is_reserved":false,"is_disabled":false,"rental_uris":{"android":"levelo://app?vid=5effb89f-1d70-4615-a4b6-1dc3bfffaecb","ios":"levelo://app?vid=5effb89f-1d70-4615-a4b6-1dc3bfffaecb"},"vehicle_type_id":"4","last_reported":1770931421,"current_range_meters":9200,"station_id":"ce4bhbh2rcd13ifvqeqg","pricing_plan_id":"cebpf4jnsgd1na2vs0mg"},{"bike_id":"d2420ed2-3e2f-4705-b5ad-e49c0399ffb6","system_id":"levelo_inurba_marseille","lat":43.2607,"lon":5.39404,"is_reserved":false,"is_disabled":false,"rental_uris":{"android":"levelo://app?vid=d2420ed2-3e2f-4705-b5ad-e49c0399ffb6","ios":"levelo://app?vid=d2420ed2-3e2f-4705-b5ad-e49c0399ffb6"},"vehicle_type_id":"4","last_reported":1770931421,"current_range_meters":9200,"station_id":"ce4bhh92rcd13ifvqfj0","pricing_plan_id":"cebpf4jnsgd1na2vs0mg"},{"bike_id":"730d229b-b2a4-4abf-9f66-ea5b8df9b61b","system_id":"levelo_inurba_marseille","lat":43.29009,"lon":5.35625,"is_reserved":false,"is_disabled":false,"rental_uris":{"android":"levelo://app?vid=730d229b-b2a4-4abf-9f66-ea5b8df9b61b","ios":"levelo://app?vid=730d229b-b2a4-4abf-9f66-ea5b8df9b61b"},"vehicle_type_id":"4","last_reported":1770931421,"current_range_meters":9200,"station_id":"ce4bhb92rcd13ifvqen0","pricing_plan_id":"cebpf4jnsgd1na2vs0mg"},{"bike_id":"11016821-fc9c-4175-a895-7da81c6918c2","system_id":"levelo_inurba_marseille","lat":43.28846,"lon":5.39308,"is_reserved":false,"is_disabled":false,"rental_uris":{"android":"levelo://app?vid=11016821-fc9c-4175-a895-7da81c6918c2","ios":"levelo://app?vid=11016821-fc9c-4175-a895-7da81c6918c2"},"vehicle_type_id":"4","last_reported":1770931421,"current_range_meters":9600,"station_id":"ce4bh2p2rcd13ifvqdi0","pricing_plan_id":"cebpf4jnsgd1na2vs0mg"},{"bike_id":"a18aa286-269e-4963-b039-81f99ce774de","system_id":"levelo_inurba_marseille","lat":43.288537,"lon":5.35832,"is_reserved":false,"is_disabled":false,"rental_uris":{"android":"levelo://app?vid=a18aa286-269e-4963-b039-81f99ce774de","ios":"levelo://app?vid=a18aa286-269e-4963-b039-81f99ce774de"},"vehicle_type_id":"4","last_reported":1770931421,"current_range_meters":9600,"station_id":"ce4bhb12rcd13ifvqem0","pricing_plan_id":"cebpf4jnsgd1na2vs0mg"},{"bike_id":"ceafdd97-9709-4666-acdc-c6b8a34aace5","system_id":"levelo_inurba_marseille","lat":43.27244,"lon":5.41012,"is_reserved":false,"is_disabled":true,"rental_uris":{"android":"levelo://app?vid=ceafdd97-9709-4666-acdc-c6b8a34aace5","ios":"levelo://app?vid=ceafdd97-9709-4666-acdc-c6b8a34aace5"},"vehicle_type_id":"4","last_reported":1770931421,"current_range_meters":9600,"station_id":"ce4bhl12rcd13ifvqgf0","pricing_plan_id":"cebpf4jnsgd1na2vs0mg"},{"bike_id":"e29024b3-288c-4d8b-ba32-8553041a7294","system_id":"levelo_inurba_marseille","lat":43.25913,"lon":5.4083,"is_reserved":false,"is_disabled":false,"rental_uris":{"android":"levelo://app?vid=e29024b3-288c-4d8b-ba32-8553041a7294","ios":"levelo://app?vid=e29024b3-288c-4d8b-ba32-8553041a7294"},"vehicle_type_id":"4","last_reported":1770931421,"current_range_meters":9600,"station_id":"","pricing_plan_id":"cebpf4jnsgd1na2vs0mg"},{"bike_id":"f06d538b-97fe-4530-9d3d-a633bac60e6e","system_id":"levelo_inurba_marseille","lat":43.26918,"lon":5.4024,"is_reserved":false,"is_disabled":false,"rental_uris":{"android":"levelo://app?vid=f06d538b-97fe-4530-9d3d-a633bac60e6e","ios":"levelo://app?vid=f06d538b-97fe-4530-9d3d-a633bac60e6e"},"vehicle_type_id":"4","last_reported":1770931421,"current_range_meters":9600,"station_id":"cjm6bp8fraef2m0cb0m0","pricing_plan_id":"cebpf4jnsgd1na2vs0mg"},{"bike_id":"111b15e7-ab1f-47a3-80d6-732db3a37d88","system_id":"levelo_inurba_marseille","lat":43.25583,"lon":5.38254,"is_reserved":false,"is_disabled":false,"rental_uris":{"android":"levelo://app?vid=111b15e7-ab1f-47a3-80d6-732db3a37d88","ios":"levelo://app?vid=111b15e7-ab1f-47a3-80d6-732db3a37d88"},"vehicle_type_id":"4","last_reported":1770931421,"current_range_meters":9600,"station_id":"ce4bhih2rcd13ifvqfs0","pricing_plan_id":"cebpf4jnsgd1na2vs0mg"},{"bike_id":"1a980003-997e-4ee7-abae-143129668deb","system_id":"levelo_inurba_marseille","lat":43.30141,"lon":5.38785,"is_reserved":false,"is_disabled":false,"rental_uris":{"android":"levelo://app?vid=1a980003-997e-4ee7-abae-143129668deb","ios":"levelo://app?vid=1a980003-997e-4ee7-abae-143129668deb"},"vehicle_type_id":"4","last_reported":1770931421,"current_range_meters":9600,"station_id":"ce4bghh2rcd13ifvqb60","pricing_plan_id":"cebpf4jnsgd1na2vs0mg"},{"bike_id":"e3ed0c2d-4f17-4a7c-a7dc-c3e7254ff60b","system_id":"levelo_inurba_marseille","lat":43.28109,"lon":5.37839,"is_reserved":false,"is_disabled":false,"rental_uris":{"android":"levelo://app?vid=e3ed0c2d-4f17-4a7c-a7dc-c3e7254ff60b","ios":"levelo://app?vid=e3ed0c2d-4f17-4a7c-a7dc-c3e7254ff60b"},"vehicle_type_id":"4","last_reported":1770931421,"current_range_meters":9600,"station_id":"ce4bha12rcd13ifvqee0","pricing_plan_id":"cebpf4jnsgd1na2vs0mg"},{"bike_id":"12916185-3da1-4d2e-90a7-adad00734ca6","system_id":"levelo_inurba_marseille","lat":43.29755,"lon":5.42778,"is_reserved":false,"is_disabled":false,"rental_uris":{"android":"levelo://app?vid=12916185-3da1-4d2e-90a7-adad00734ca6","ios":"levelo://app?vid=12916185-3da1-4d2e-90a7-adad00734ca6"},"vehicle_type_id":"4","last_reported":1770931421,"current_range_meters":9600,"station_id":"st_d3md5207bmas73dh9klg","pricing_plan_id":"cebpf4jnsgd1na2vs0mg"},{"bike_id":"ffe0b4e2-fdb8-4e86-9973-6560fa957566","system_id":"levelo_inurba_marseille","lat":43.24399,"lon":5.37084,"is_reserved":false,"is_disabled":false,"rental_uris":{"android":"levelo://app?vid=ffe0b4e2-fdb8-4e86-9973-6560fa957566","ios":"levelo://app?vid=ffe0b4e2-fdb8-4e86-9973-6560fa957566"},"vehicle_type_id":"4","last_reported":1770931421,"current_range_meters":9600,"station_id":"ce4bhhh2rcd13ifvqfk0","pricing_plan_id":"cebpf4jnsgd1na2vs0mg"},{"bike_id":"acc4afec-e80f-436d-a4cf-d6122baf0d20","system_id":"levelo_inurba_marseille","lat":43.27176,"lon":5.40978,"is_reserved":false,"is_disabled":false,"rental_uris":{"android":"levelo://app?vid=acc4afec-e80f-436d-a4cf-d6122baf0d20","ios":"levelo://app?vid=acc4afec-e80f-436d-a4cf-d6122baf0d20"},"vehicle_type_id":"4","last_reported":1770931421,"current_range_meters":9600,"station_id":"ce4bhl12rcd13ifvqgf0","pricing_plan_id":"cebpf4jnsgd1na2vs0mg"},{"bike_id":"9130d400-a8bd-4101-bffc-af7fced33817","system_id":"levelo_inurba_marseille","lat":43.22565,"lon":5.41629,"is_reserved":false,"is_disabled":false,"rental_uris":{"android":"levelo://app?vid=9130d400-a8bd-4101-bffc-af7fced33817","ios":"levelo://app?vid=9130d400-a8bd-4101-bffc-af7fced33817"},"vehicle_type_id":"4","last_reported":1770931421,"current_range_meters":9600,"station_id":"st_d2o4gvlbi1j2169b742g","pricing_plan_id":"cebpf4jnsgd1na2vs0mg"},{"bike_id":"9c53caff-f423-4f75-a7ec-cb783d647d50","system_id":"levelo_inurba_marseille","lat":43.24566,"lon":5.39526,"is_reserved":false,"is_disabled":false,"rental_uris":{"android":"levelo://app?vid=9c53caff-f423-4f75-a7ec-cb783d647d50","ios":"levelo://app?vid=9c53caff-f423-4f75-a7ec-cb783d647d50"},"vehicle_type_id":"4","last_reported":1770931421,"current_range_meters":9600,"station_id":"ce4bhlp2rcd13ifvqgjg","pricing_plan_id":"cebpf4jnsgd1na2vs0mg"},{"bike_id":"33fb6222-abe9-4fb4-8436-30cb12c90680","system_id":"levelo_inurba_marseille","lat":43.30706,"lon":5.37375,"is_reserved":false,"is_disabled":false,"rental_uris":{"android":"levelo://app?vid=33fb6222-abe9-4fb4-8436-30cb12c90680","ios":"levelo://app?vid=33fb6222-abe9-4fb4-8436-30cb12c90680"},"vehicle_type_id":"4","last_reported":1770931421,"current_range_meters":9600,"station_id":"","pricing_plan_id":"cebpf4jnsgd1na2vs0mg"},{"bike_id":"ba9d80b6-cbe1-4fde-9e10-77dadaa9d68f","system_id":"levelo_inurba_marseille","lat":43.24799,"lon":5.37465,"is_reserved":false,"is_disabled":true,"rental_uris":{"android":"levelo://app?vid=ba9d80b6-cbe1-4fde-9e10-77dadaa9d68f","ios":"levelo://app?vid=ba9d80b6-cbe1-4fde-9e10-77dadaa9d68f"},"vehicle_type_id":"4","last_reported":1770931421,"current_range_meters":9600,"station_id":"ce4bhgh2rcd13ifvqfb0","pricing_plan_id":"cebpf4jnsgd1na2vs0mg"},{"bike_id":"237c3f59-63a5-449f-aa97-462cbdb0ca8d","system_id":"levelo_inurba_marseille","lat":43.23224,"lon":5.40013,"is_reserved":false,"is_disabled":false,"rental_uris":{"android":"levelo://app?vid=237c3f59-63a5-449f-aa97-462cbdb0ca8d","ios":"levelo://app?vid=237c3f59-63a5-449f-aa97-462cbdb0ca8d"},"vehicle_type_id":"4","last_reported":1770931421,"current_range_meters":9600,"station_id":"","pricing_plan_id":"cebpf4jnsgd1na2vs0mg"},{"bike_id":"e434deab-6374-49bc-bae9-9738847971c7","system_id":"levelo_inurba_marseille","lat":43.31765,"lon":5.3901,"is_reserved":false,"is_disabled":false,"rental_uris":{"android":"levelo://app?vid=e434deab-6374-49bc-bae9-9738847971c7","ios":"levelo://app?vid=e434deab-6374-49bc-bae9-9738847971c7"},"vehicle_type_id":"4","last_reported":1770931421,"current_range_meters":9600,"station_id":"ce4bhqp2rcd13ifvqhng","pricing_plan_id":"cebpf4jnsgd1na2vs0mg"},{"bike_id":"fb9805e1-9a80-4d67-9ae0-f372d8da2f42","system_id":"levelo_inurba_marseille","lat":43.315,"lon":5.43916,"is_reserved":false,"is_disabled":false,"rental_uris":{"android":"levelo://app?vid=fb9805e1-9a80-4d67-9ae0-f372d8da2f42","ios":"levelo://app?vid=fb9805e1-9a80-4d67-9ae0-f372d8da2f42"},"vehicle_type_id":"4","last_reported":1770931421,"current_range_meters":9600,"station_id":"","pricing_plan_id":"cebpf4jnsgd1na2vs0mg"},{"bike_id":"ce97d296-b7f6-4791-af6c-a669a081c49d","system_id":"levelo_inurba_marseille","lat":43.27993,"lon":5.41662,"is_reserved":false,"is_disabled":false,"rental_uris":{"android":"levelo://app?vid=ce97d296-b7f6-4791-af6c-a669a081c49d","ios":"levelo://app?vid=ce97d296-b7f6-4791-af6c-a669a081c49d"},"vehicle_type_id":"4","last_reported":1770931421,"current_range_meters":9600,"station_id":"ce4bho12rcd13ifvqh1g","pricing_plan_id":"cebpf4jnsgd1na2vs0mg"},{"bike_id":"11609864-d806-4ddb-aa3e-8b0e084eace9","system_id":"levelo_inurba_marseille","lat":43.2901,"lon":5.35613,"is_reserved":false,"is_disabled":false,"rental_uris":{"android":"levelo://app?vid=11609864-d806-4ddb-aa3e-8b0e084eace9","ios":"levelo://app?vid=11609864-d806-4ddb-aa3e-8b0e084eace9"},"vehicle_type_id":"4","last_reported":1770931421,"current_range_meters":9600,"station_id":"ce4bhb92rcd13ifvqen0","pricing_plan_id":"cebpf4jnsgd1na2vs0mg"},{"bike_id":"e2181980-a0ba-458c-a927-c0de28ef6c69","system_id":"levelo_inurba_marseille","lat":43.25089,"lon":5.40314,"is_reserved":false,"is_disabled":false,"rental_uris":{"android":"levelo://app?vid=e2181980-a0ba-458c-a927-c0de28ef6c69","ios":"levelo://app?vid=e2181980-a0ba-458c-a927-c0de28ef6c69"},"vehicle_type_id":"4","last_reported":1770931421,"current_range_meters":9600,"station_id":"ce4bhlh2rcd13ifvqgig","pricing_plan_id":"cebpf4jnsgd1na2vs0mg"},{"bike_id":"bcad26e7-801b-45a3-9a6f-b11851106eac","system_id":"levelo_inurba_marseille","lat":43.28561,"lon":5.3835,"is_reserved":false,"is_disabled":false,"rental_uris":{"android":"levelo://app?vid=bcad26e7-801b-45a3-9a6f-b11851106eac","ios":"levelo://app?vid=bcad26e7-801b-45a3-9a6f-b11851106eac"},"vehicle_type_id":"4","last_reported":1770931421,"current_range_meters":10000,"station_id":"","pricing_plan_id":"cebpf4jnsgd1na2vs0mg"},{"bike_id":"1f00e2a9-a77b-45e4-a372-34bcf9412f5d","system_id":"levelo_inurba_marseille","lat":43.292692,"lon":5.384458,"is_reserved":false,"is_disabled":false,"rental_uris":{"android":"levelo://app?vid=1f00e2a9-a77b-45e4-a372-34bcf9412f5d","ios":"levelo://app?vid=1f00e2a9-a77b-45e4-a372-34bcf9412f5d"},