{"last_updated":1730632062,"ttl":60,"version":"2.2","data":{"bikes":[{"bike_id":"daa5500f-6039-4d77-bf02-00710b3acec6","system_id":"levelo_inurba_marseille","lat":43.25931,"lon":5.40907,"is_reserved":false,"is_disabled":false,"rental_uris":{"android":"levelo://app?vid=daa5500f-6039-4d77-bf02-00710b3acec6","ios":"levelo://app?vid=daa5500f-6039-4d77-bf02-00710b3acec6"},"vehicle_type_id":"4","last_reported":1730632062,"current_range_meters":5600,"station_id":"ce4bhm92rcd13ifvqglg","pricing_plan_id":"cebpf4jnsgd1na2vs0mg"},{"bike_id":"2acfc2b2-8dbb-4e8e-88cd-56d90f75bbc8","system_id":"levelo_inurba_marseille","lat":43.27813,"lon":5.40723,"is_reserved":false,"is_disabled":false,"rental_uris":{"android":"levelo://app?vid=2acfc2b2-8dbb-4e8e-88cd-56d90f75bbc8","ios":"levelo://app?vid=2acfc2b2-8dbb-4e8e-88cd-56d90f75bbc8"},"vehicle_type_id":"4","last_reported":1730632062,"current_range_meters":38400,"station_id":"ce4bhnh2rcd13ifvqgtg","pricing_plan_id":"cebpf4jnsgd1na2vs0mg"},{"bike_id":"5662c3ec-16ac-4646-ad92-7b800105b64d","system_id":"levelo_inurba_marseille","lat":43.2511,"lon":5.40325,"is_reserved":false,"is_disabled":false,"rental_uris":{"android":"levelo://app?vid=5662c3ec-16ac-4646-ad92-7b800105b64d","ios":"levelo://app?vid=5662c3ec-16ac-4646-ad92-7b800105b64d"},"vehicle_type_id":"4","last_reported":1730632062,"current_range_meters":7200,"station_id":"ce4bhlh2rcd13ifvqgig","pricing_plan_id":"cebpf4jnsgd1na2vs0mg"},{"bike_id":"8c2cc48d-9ab8-4fc0-82ef-7cafd31d7aa7","system_id":"levelo_inurba_marseille","lat":43.32489,"lon":5.36566,"is_reserved":false,"is_disabled":false,"rental_uris":{"android":"levelo://app?vid=8c2cc48d-9ab8-4fc0-82ef-7cafd31d7aa7","ios":"levelo://app?vid=8c2cc48d-9ab8-4fc0-82ef-7cafd31d7aa7"},"vehicle_type_id":"4","last_reported":1730632062,"current_range_meters":19200,"station_id":"ce4bhs12rcd13ifvqhvg","pricing_plan_id":"cebpf4jnsgd1na2vs0mg"},{"bike_id":"84254659-2dee-4aa5-8185-6dbc5d2f0da7","system_id":"levelo_inurba_marseille","lat":43.2396,"lon":5.36622,"is_reserved":false,"is_disabled":false,"rental_uris":{"android":"levelo://app?vid=84254659-2dee-4aa5-8185-6dbc5d2f0da7","ios":"levelo://app?vid=84254659-2dee-4aa5-8185-6dbc5d2f0da7"},"vehicle_type_id":"4","last_reported":1730632062,"current_range_meters":14000,"station_id":"ce4bhi12rcd13ifvqfp0","pricing_plan_id":"cebpf4jnsgd1na2vs0mg"},{"bike_id":"555c3824-81fb-427f-9018-3d9b99d962b6","system_id":"levelo_inurba_marseille","lat":43.28943,"lon":5.3963,"is_reserved":false,"is_disabled":false,"rental_uris":{"android":"levelo://app?vid=555c3824-81fb-427f-9018-3d9b99d962b6","ios":"levelo://app?vid=555c3824-81fb-427f-9018-3d9b99d962b6"},"vehicle_type_id":"4","last_reported":1730632062,"current_range_meters":38000,"station_id":"ce4bh3h2rcd13ifvqdn0","pricing_plan_id":"cebpf4jnsgd1na2vs0mg"},{"bike_id":"d449de13-e15c-4888-b0d3-a81f06e1647a","system_id":"levelo_inurba_marseille","lat":43.29453,"lon":5.39752,"is_reserved":false,"is_disabled":false,"rental_uris":{"android":"levelo://app?vid=d449de13-e15c-4888-b0d3-a81f06e1647a","ios":"levelo://app?vid=d449de13-e15c-4888-b0d3-a81f06e1647a"},"vehicle_type_id":"4","last_reported":1730632062,"current_range_meters":32000,"station_id":"ce4bh3h2rcd13ifvqdo0","pricing_plan_id":"cebpf4jnsgd1na2vs0mg"},{"bike_id":"f09a2e3e-a687-4ccb-9ce7-accc19389448","system_id":"levelo_inurba_marseille","lat":43.2396,"lon":5.36636,"is_reserved":false,"is_disabled":false,"rental_uris":{"android":"levelo://app?vid=f09a2e3e-a687-4ccb-9ce7-accc19389448","ios":"levelo://app?vid=f09a2e3e-a687-4ccb-9ce7-accc19389448"},"vehicle_type_id":"4","last_reported":1730632062,"current_range_meters":38800,"station_id":"ce4bhi12rcd13ifvqfp0","pricing_plan_id":"cebpf4jnsgd1na2vs0mg"},{"bike_id":"69e60ed9-b66b-4f70-ae46-d0dc13b6e20d","system_id":"levelo_inurba_marseille","lat":43.30534,"lon":5.3655,"is_reserved":false,"is_disabled":false,"rental_uris":{"android":"levelo://app?vid=69e60ed9-b66b-4f70-ae46-d0dc13b6e20d","ios":"levelo://app?vid=69e60ed9-b66b-4f70-ae46-d0dc13b6e20d"},"vehicle_type_id":"4","last_reported":1730632062,"current_range_meters":2000,"station_id":"ce4bgs12rcd13ifvqcag","pricing_plan_id":"cebpf4jnsgd1na2vs0mg"},{"bike_id":"693397a4-a10a-42ff-90e9-f242ef91a8f3","system_id":"levelo_inurba_marseille","lat":43.29736,"lon":5.37681,"is_reserved":false,"is_disabled":false,"rental_uris":{"android":"levelo://app?vid=693397a4-a10a-42ff-90e9-f242ef91a8f3","ios":"levelo://app?vid=693397a4-a10a-42ff-90e9-f242ef91a8f3"},"vehicle_type_id":"4","last_reported":1730632062,"current_range_meters":26000,"station_id":"ce4bgkh2rcd13ifvqbl0","pricing_plan_id":"cebpf4jnsgd1na2vs0mg"},{"bike_id":"b0ea28ad-1135-4a53-b0cc-eec31a5783c6","system_id":"levelo_inurba_marseille","lat":43.27058,"lon":5.40254,"is_reserved":false,"is_disabled":false,"rental_uris":{"android":"levelo://app?vid=b0ea28ad-1135-4a53-b0cc-eec31a5783c6","ios":"levelo://app?vid=b0ea28ad-1135-4a53-b0cc-eec31a5783c6"},"vehicle_type_id":"4","last_reported":1730632062,"current_range_meters":38000,"station_id":"ce4bhk92rcd13ifvqgc0","pricing_plan_id":"cebpf4jnsgd1na2vs0mg"},{"bike_id":"349640ab-a259-4535-8677-fa1a5c63992f","system_id":"levelo_inurba_marseille","lat":43.3107,"lon":5.38342,"is_reserved":false,"is_disabled":false,"rental_uris":{"android":"levelo://app?vid=349640ab-a259-4535-8677-fa1a5c63992f","ios":"levelo://app?vid=349640ab-a259-4535-8677-fa1a5c63992f"},"vehicle_type_id":"4","last_reported":1730632062,"current_range_meters":22000,"station_id":"ce4bgv92rcd13ifvqcr0","pricing_plan_id":"cebpf4jnsgd1na2vs0mg"},{"bike_id":"b6746235-1c9c-4789-b1ab-4c149fe22457","system_id":"levelo_inurba_marseille","lat":43.26213,"lon":5.37439,"is_reserved":false,"is_disabled":false,"rental_uris":{"android":"levelo://app?vid=b6746235-1c9c-4789-b1ab-4c149fe22457","ios":"levelo://app?vid=b6746235-1c9c-4789-b1ab-4c149fe22457"},"vehicle_type_id":"4","last_reported":1730632062,"current_range_meters":29600,"station_id":"ce4bhgp2rcd13ifvqfc0","pricing_plan_id":"cebpf4jnsgd1na2vs0mg"},{"bike_id":"4a7fc2b8-1796-4c4e-a92c-ac60a62e7d7a","system_id":"levelo_inurba_marseille","lat":43.28618,"lon":5.35097,"is_reserved":false,"is_disabled":false,"rental_uris":{"android":"levelo://app?vid=4a7fc2b8-1796-4c4e-a92c-ac60a62e7d7a","ios":"levelo://app?vid=4a7fc2b8-1796-4c4e-a92c-ac60a62e7d7a"},"vehicle_type_id":"4","last_reported":1730632062,"current_range_meters":36800,"station_id":"ce4bhch2rcd13ifvqeug","pricing_plan_id":"cebpf4jnsgd1na2vs0mg"},{"bike_id":"5818a6ac-2d40-4bf0-a920-aefa2e8a89fa","system_id":"levelo_inurba_marseille","lat":43.264899,"lon":5.395493,"is_reserved":false,"is_disabled":false,"rental_uris":{"android":"levelo://app?vid=5818a6ac-2d40-4bf0-a920-aefa2e8a89fa","ios":"levelo://app?vid=5818a6ac-2d40-4bf0-a920-aefa2e8a89fa"},"vehicle_type_id":"4","last_reported":1730632062,"current_range_meters":24400,"station_id":"ce4bhi12rcd13ifvqfq0","pricing_plan_id":"cebpf4jnsgd1na2vs0mg"},{"bike_id":"3aae935e-f19b-4b82-860a-9e86c4796487","system_id":"levelo_inurba_marseille","lat":43.25863,"lon":5.39898,"is_reserved":false,"is_disabled":false,"rental_uris":{"android":"levelo://app?vid=3aae935e-f19b-4b82-860a-9e86c4796487","ios":"levelo://app?vid=3aae935e-f19b-4b82-860a-9e86c4796487"},"vehicle_type_id":"4","last_reported":1730632062,"current_range_meters":4400,"station_id":"ce4bhl92rcd13ifvqghg","pricing_plan_id":"cebpf4jnsgd1na2vs0mg"},{"bike_id":"09cd329c-1fa7-4b20-a274-2cdef2d8cd4f","system_id":"levelo_inurba_marseille","lat":43.24073,"lon":5.37756,"is_reserved":false,"is_disabled":false,"rental_uris":{"android":"levelo://app?vid=09cd329c-1fa7-4b20-a274-2cdef2d8cd4f","ios":"levelo://app?vid=09cd329c-1fa7-4b20-a274-2cdef2d8cd4f"},"vehicle_type_id":"4","last_reported":1730632062,"current_range_meters":37600,"station_id":"ce4bhnp2rcd13ifvqgvg","pricing_plan_id":"cebpf4jnsgd1na2vs0mg"},{"bike_id":"750ef8cf-4e1b-4907-b457-aebbb2bb1456","system_id":"levelo_inurba_marseille","lat":43.26939,"lon":5.40247,"is_reserved":false,"is_disabled":false,"rental_uris":{"android":"levelo://app?vid=750ef8cf-4e1b-4907-b457-aebbb2bb1456","ios":"levelo://app?vid=750ef8cf-4e1b-4907-b457-aebbb2bb1456"},"vehicle_type_id":"4","last_reported":1730632062,"current_range_meters":30400,"station_id":"cjm6bp8fraef2m0cb0m0","pricing_plan_id":"cebpf4jnsgd1na2vs0mg"},{"bike_id":"3c330f08-508b-4866-b688-f0374209e3dc","system_id":"levelo_inurba_marseille","lat":43.25119,"lon":5.40313,"is_reserved":false,"is_disabled":false,"rental_uris":{"android":"levelo://app?vid=3c330f08-508b-4866-b688-f0374209e3dc","ios":"levelo://app?vid=3c330f08-508b-4866-b688-f0374209e3dc"},"vehicle_type_id":"4","last_reported":1730632062,"current_range_meters":20800,"station_id":"ce4bhlh2rcd13ifvqgig","pricing_plan_id":"cebpf4jnsgd1na2vs0mg"},{"bike_id":"4147bbfb-4b14-4aca-b782-8ec6c0473609","system_id":"levelo_inurba_marseille","lat":43.235876,"lon":5.403416,"is_reserved":false,"is_disabled":false,"rental_uris":{"android":"levelo://app?vid=4147bbfb-4b14-4aca-b782-8ec6c0473609","ios":"levelo://app?vid=4147bbfb-4b14-4aca-b782-8ec6c0473609"},"vehicle_type_id":"4","last_reported":1730632062,"current_range_meters":22000,"station_id":"","pricing_plan_id":"cebpf4jnsgd1na2vs0mg"},{"bike_id":"22e0687f-e2cc-4582-8141-7137fc3d70c2","system_id":"levelo_inurba_marseille","lat":43.24804,"lon":5.37452,"is_reserved":false,"is_disabled":false,"rental_uris":{"android":"levelo://app?vid=22e0687f-e2cc-4582-8141-7137fc3d70c2","ios":"levelo://app?vid=22e0687f-e2cc-4582-8141-7137fc3d70c2"},"vehicle_type_id":"4","last_reported":1730632062,"current_range_meters":19200,"station_id":"ce4bhgh2rcd13ifvqfb0","pricing_plan_id":"cebpf4jnsgd1na2vs0mg"},{"bike_id":"768ab267-68c0-4d75-ab7e-f70793be3c63","system_id":"levelo_inurba_marseille","lat":43.28615,"lon":5.35097,"is_reserved":false,"is_disabled":false,"rental_uris":{"android":"levelo://app?vid=768ab267-68c0-4d75-ab7e-f70793be3c63","ios":"levelo://app?vid=768ab267-68c0-4d75-ab7e-f70793be3c63"},"vehicle_type_id":"4","last_reported":1730632062,"current_range_meters":38000,"station_id":"ce4bhch2rcd13ifvqeug","pricing_plan_id":"cebpf4jnsgd1na2vs0mg"},{"bike_id":"cd380209-fccd-4e21-b743-ee64cd299be0","system_id":"levelo_inurba_marseille","lat":43.29584,"lon":5.36738,"is_reserved":false,"is_disabled":false,"rental_uris":{"android":"levelo://app?vid=cd380209-fccd-4e21-b743-ee64cd299be0","ios":"levelo://app?vid=cd380209-fccd-4e21-b743-ee64cd299be0"},"vehicle_type_id":"4","last_reported":1730632062,"current_range_meters":38800,"station_id":"ce4bgph2rcd13ifvqc2g","pricing_plan_id":"cebpf4jnsgd1na2vs0mg"},{"bike_id":"eeda0a49-c95e-447a-b118-263faeb6a58f","system_id":"levelo_inurba_marseille","lat":43.31466,"lon":5.3737,"is_reserved":false,"is_disabled":false,"rental_uris":{"android":"levelo://app?vid=eeda0a49-c95e-447a-b118-263faeb6a58f","ios":"levelo://app?vid=eeda0a49-c95e-447a-b118-263faeb6a58f"},"vehicle_type_id":"4","last_reported":1730632062,"current_range_meters":16000,"station_id":"","pricing_plan_id":"cebpf4jnsgd1na2vs0mg"},{"bike_id":"c8fb40bf-0207-4be4-8fb4-eecf49d7958b","system_id":"levelo_inurba_marseille","lat":43.248095,"lon":5.374614,"is_reserved":false,"is_disabled":false,"rental_uris":{"android":"levelo://app?vid=c8fb40bf-0207-4be4-8fb4-eecf49d7958b","ios":"levelo://app?vid=c8fb40bf-0207-4be4-8fb4-eecf49d7958b"},"vehicle_type_id":"4","last_reported":1730632062,"current_range_meters":20000,"station_id":"ce4bhgh2rcd13ifvqfb0","pricing_plan_id":"cebpf4jnsgd1na2vs0mg"},{"bike_id":"d764c0f9-6050-4015-b194-ac0029026a07","system_id":"levelo_inurba_marseille","lat":43.27812,"lon":5.40703,"is_reserved":false,"is_disabled":false,"rental_uris":{"android":"levelo://app?vid=d764c0f9-6050-4015-b194-ac0029026a07","ios":"levelo://app?vid=d764c0f9-6050-4015-b194-ac0029026a07"},"vehicle_type_id":"4","last_reported":1730632062,"current_range_meters":27200,"station_id":"ce4bhnh2rcd13ifvqgtg","pricing_plan_id":"cebpf4jnsgd1na2vs0mg"},{"bike_id":"28ab7f8c-7907-45b0-a8dd-0fa72e9a705f","system_id":"levelo_inurba_marseille","lat":43.28935,"lon":5.36634,"is_reserved":false,"is_disabled":false,"rental_uris":{"android":"levelo://app?vid=28ab7f8c-7907-45b0-a8dd-0fa72e9a705f","ios":"levelo://app?vid=28ab7f8c-7907-45b0-a8dd-0fa72e9a705f"},"vehicle_type_id":"4","last_reported":1730632062,"current_range_meters":38800,"station_id":"ce4bhap2rcd13ifvqek0","pricing_plan_id":"cebpf4jnsgd1na2vs0mg"},{"bike_id":"30466c20-4557-4709-92fe-2172ec86d142","system_id":"levelo_inurba_marseille","lat":43.232,"lon":5.3555,"is_reserved":false,"is_disabled":false,"rental_uris":{"android":"levelo://app?vid=30466c20-4557-4709-92fe-2172ec86d142","ios":"levelo://app?vid=30466c20-4557-4709-92fe-2172ec86d142"},"vehicle_type_id":"4","last_reported":1730632062,"current_range_meters":24400,"station_id":"ce4bhu92rcd13ifvqi70","pricing_plan_id":"cebpf4jnsgd1na2vs0mg"},{"bike_id":"19a6d47e-53d7-42cf-9934-34fc3fd9053c","system_id":"levelo_inurba_marseille","lat":43.32289,"lon":5.38257,"is_reserved":false,"is_disabled":false,"rental_uris":{"android":"levelo://app?vid=19a6d47e-53d7-42cf-9934-34fc3fd9053c","ios":"levelo://app?vid=19a6d47e-53d7-42cf-9934-34fc3fd9053c"},"vehicle_type_id":"4","last_reported":1730632062,"current_range_meters":35600,"station_id":"ce4bhr12rcd13ifvqhqg","pricing_plan_id":"cebpf4jnsgd1na2vs0mg"},{"bike_id":"8dd13b0b-20d4-4ce3-affb-f507d4c7c032","system_id":"levelo_inurba_marseille","lat":43.30412,"lon":5.41277,"is_reserved":false,"is_disabled":false,"rental_uris":{"android":"levelo://app?vid=8dd13b0b-20d4-4ce3-affb-f507d4c7c032","ios":"levelo://app?vid=8dd13b0b-20d4-4ce3-affb-f507d4c7c032"},"vehicle_type_id":"4","last_reported":1730632062,"current_range_meters":38800,"station_id":"ce4bhop2rcd13ifvqh8g","pricing_plan_id":"cebpf4jnsgd1na2vs0mg"},{"bike_id":"91df4320-fc5c-41ca-a32a-b556a7188752","system_id":"levelo_inurba_marseille","lat":43.26196,"lon":5.37446,"is_reserved":false,"is_disabled":false,"rental_uris":{"android":"levelo://app?vid=91df4320-fc5c-41ca-a32a-b556a7188752","ios":"levelo://app?vid=91df4320-fc5c-41ca-a32a-b556a7188752"},"vehicle_type_id":"4","last_reported":1730632062,"current_range_meters":4000,"station_id":"ce4bhgp2rcd13ifvqfc0","pricing_plan_id":"cebpf4jnsgd1na2vs0mg"},{"bike_id":"3ff434e7-d97e-42fe-864b-d72cec550722","system_id":"levelo_inurba_marseille","lat":43.25108,"lon":5.40323,"is_reserved":false,"is_disabled":false,"rental_uris":{"android":"levelo://app?vid=3ff434e7-d97e-42fe-864b-d72cec550722","ios":"levelo://app?vid=3ff434e7-d97e-42fe-864b-d72cec550722"},"vehicle_type_id":"4","last_reported":1730632062,"current_range_meters":27200,"station_id":"ce4bhlh2rcd13ifvqgig","pricing_plan_id":"cebpf4jnsgd1na2vs0mg"},{"bike_id":"fbb69f4b-3dc6-4e69-8496-70ed995da3c8","system_id":"levelo_inurba_marseille","lat":43.28411,"lon":5.34982,"is_reserved":false,"is_disabled":false,"rental_uris":{"android":"levelo://app?vid=fbb69f4b-3dc6-4e69-8496-70ed995da3c8","ios":"levelo://app?vid=fbb69f4b-3dc6-4e69-8496-70ed995da3c8"},"vehicle_type_id":"4","last_reported":1730632062,"current_range_meters":38800,"station_id":"ce4bhbh2rcd13ifvqepg","pricing_plan_id":"cebpf4jnsgd1na2vs0mg"},{"bike_id":"0ab2cd0d-d944-465c-af7d-2b81c3d214b3","system_id":"levelo_inurba_marseille","lat":43.250854,"lon":5.395274,"is_reserved":false,"is_disabled":false,"rental_uris":{"android":"levelo://app?vid=0ab2cd0d-d944-465c-af7d-2b81c3d214b3","ios":"levelo://app?vid=0ab2cd0d-d944-465c-af7d-2b81c3d214b3"},"vehicle_type_id":"4","last_reported":1730632062,"current_range_meters":38800,"station_id":"ce4bhm12rcd13ifvqgkg","pricing_plan_id":"cebpf4jnsgd1na2vs0mg"},{"bike_id":"f793b4d3-fd42-4c07-ad0e-74ecb0cd8506","system_id":"levelo_inurba_marseille","lat":43.29274,"lon":5.3684,"is_reserved":false,"is_disabled":false,"rental_uris":{"android":"levelo://app?vid=f793b4d3-fd42-4c07-ad0e-74ecb0cd8506","ios":"levelo://app?vid=f793b4d3-fd42-4c07-ad0e-74ecb0cd8506"},"vehicle_type_id":"4","last_reported":1730632062,"current_range_meters":28400,"station_id":"ce4bhbp2rcd13ifvqesg","pricing_plan_id":"cebpf4jnsgd1na2vs0mg"},{"bike_id":"598535da-1e32-42e0-bd65-4ba25549dd70","system_id":"levelo_inurba_marseille","lat":43.31465,"lon":5.37367,"is_reserved":false,"is_disabled":false,"rental_uris":{"android":"levelo://app?vid=598535da-1e32-42e0-bd65-4ba25549dd70","ios":"levelo://app?vid=598535da-1e32-42e0-bd65-4ba25549dd70"},"vehicle_type_id":"4","last_reported":1730632062,"current_range_meters":30800,"station_id":"","pricing_plan_id":"cebpf4jnsgd1na2vs0mg"},{"bike_id":"2378f453-72a7-4eb2-ab3b-946285d406fd","system_id":"levelo_inurba_marseille","lat":43.29241,"lon":5.37723,"is_reserved":false,"is_disabled":false,"rental_uris":{"android":"levelo://app?vid=2378f453-72a7-4eb2-ab3b-946285d406fd","ios":"levelo://app?vid=2378f453-72a7-4eb2-ab3b-946285d406fd"},"vehicle_type_id":"4","last_reported":1730632062,"current_range_meters":14000,"station_id":"ce4bgi12rcd13ifvqb70","pricing_plan_id":"cebpf4jnsgd1na2vs0mg"},{"bike_id":"ea6eac24-7b51-434a-8f51-d28eece06440","system_id":"levelo_inurba_marseille","lat":43.287983,"lon":5.361034,"is_reserved":false,"is_disabled":false,"rental_uris":{"android":"levelo://app?vid=ea6eac24-7b51-434a-8f51-d28eece06440","ios":"levelo://app?vid=ea6eac24-7b51-434a-8f51-d28eece06440"},"vehicle_type_id":"4","last_reported":1730632062,"current_range_meters":9200,"station_id":"","pricing_plan_id":"cebpf4jnsgd1na2vs0mg"},{"bike_id":"88bc7c59-ad9c-448a-9b4a-619aaa55841c","system_id":"levelo_inurba_marseille","lat":43.27319,"lon":5.390818,"is_reserved":false,"is_disabled":false,"rental_uris":{"android":"levelo://app?vid=88bc7c59-ad9c-448a-9b4a-619aaa55841c","ios":"levelo://app?vid=88bc7c59-ad9c-448a-9b4a-619aaa55841c"},"vehicle_type_id":"4","last_reported":1730632062,"current_range_meters":39200,"station_id":"ce4bhgp2rcd13ifvqfe0","pricing_plan_id":"cebpf4jnsgd1na2vs0mg"},{"bike_id":"a1ec2dcd-2526-4b25-98b6-5aab15754bd3","system_id":"levelo_inurba_marseille","lat":43.24386,"lon":5.37066,"is_reserved":false,"is_disabled":false,"rental_uris":{"android":"levelo://app?vid=a1ec2dcd-2526-4b25-98b6-5aab15754bd3","ios":"levelo://app?vid=a1ec2dcd-2526-4b25-98b6-5aab15754bd3"},"vehicle_type_id":"4","last_reported":1730632062,"current_range_meters":34000,"station_id":"ce4bhhh2rcd13ifvqfk0","pricing_plan_id":"cebpf4jnsgd1na2vs0mg"},{"bike_id":"45128a6c-7b99-4871-a606-b7ebfd083c59","system_id":"levelo_inurba_marseille","lat":43.302602,"lon":5.400704,"is_reserved":false,"is_disabled":false,"rental_uris":{"android":"levelo://app?vid=45128a6c-7b99-4871-a606-b7ebfd083c59","ios":"levelo://app?vid=45128a6c-7b99-4871-a606-b7ebfd083c59"},"vehicle_type_id":"4","last_reported":1730632062,"current_range_meters":38000,"station_id":"ce4bgvh2rcd13ifvqcs0","pricing_plan_id":"cebpf4jnsgd1na2vs0mg"},{"bike_id":"dd525f12-4f79-4c51-b727-dfe04731c18d","system_id":"levelo_inurba_marseille","lat":43.2998,"lon":5.38473,"is_reserved":false,"is_disabled":false,"rental_uris":{"android":"levelo://app?vid=dd525f12-4f79-4c51-b727-dfe04731c18d","ios":"levelo://app?vid=dd525f12-4f79-4c51-b727-dfe04731c18d"},"vehicle_type_id":"4","last_reported":1730632062,"current_range_meters":24400,"station_id":"ce4bgj92rcd13ifvqbd0","pricing_plan_id":"cebpf4jnsgd1na2vs0mg"},{"bike_id":"c8893d8e-f81f-4744-85fb-448d69741653","system_id":"levelo_inurba_marseille","lat":43.27619,"lon":5.36108,"is_reserved":false,"is_disabled":false,"rental_uris":{"android":"levelo://app?vid=c8893d8e-f81f-4744-85fb-448d69741653","ios":"levelo://app?vid=c8893d8e-f81f-4744-85fb-448d69741653"},"vehicle_type_id":"4","last_reported":1730632062,"current_range_meters":6800,"station_id":"ce4bgj92rcd13ifvqbe0","pricing_plan_id":"cebpf4jnsgd1na2vs0mg"},{"bike_id":"91c2fc9b-f4a8-48d8-8406-b54bc4bec169","system_id":"levelo_inurba_marseille","lat":43.29192,"lon":5.35798,"is_reserved":false,"is_disabled":false,"rental_uris":{"android":"levelo://app?vid=91c2fc9b-f4a8-48d8-8406-b54bc4bec169","ios":"levelo://app?vid=91c2fc9b-f4a8-48d8-8406-b54bc4bec169"},"vehicle_type_id":"4","last_reported":1730632062,"current_range_meters":38800,"station_id":"ce4bhb12rcd13ifvqel0","pricing_plan_id":"cebpf4jnsgd1na2vs0mg"},{"bike_id":"871f6e49-8d15-4065-9bbc-6aa9acb09416","system_id":"levelo_inurba_marseille","lat":43.3029,"lon":5.3921,"is_reserved":false,"is_disabled":false,"rental_uris":{"android":"levelo://app?vid=871f6e49-8d15-4065-9bbc-6aa9acb09416","ios":"levelo://app?vid=871f6e49-8d15-4065-9bbc-6aa9acb09416"},"vehicle_type_id":"4","last_reported":1730632062,"current_range_meters":30800,"station_id":"ce4bgkh2rcd13ifvqbk0","pricing_plan_id":"cebpf4jnsgd1na2vs0mg"},{"bike_id":"24db8c51-baa9-4979-9d0a-73d572bb7750","system_id":"levelo_inurba_marseille","lat":43.29589,"lon":5.36733,"is_reserved":false,"is_disabled":false,"rental_uris":{"android":"levelo://app?vid=24db8c51-baa9-4979-9d0a-73d572bb7750","ios":"levelo://app?vid=24db8c51-baa9-4979-9d0a-73d572bb7750"},"vehicle_type_id":"4","last_reported":1730632062,"current_range_meters":39200,"station_id":"ce4bgph2rcd13ifvqc2g","pricing_plan_id":"cebpf4jnsgd1na2vs0mg"},{"bike_id":"0c0e9036-82c0-4ae7-8f06-f2a0e4e21cf1","system_id":"levelo_inurba_marseille","lat":43.27372,"lon":5.36263,"is_reserved":false,"is_disabled":false,"rental_uris":{"android":"levelo://app?vid=0c0e9036-82c0-4ae7-8f06-f2a0e4e21cf1","ios":"levelo://app?vid=0c0e9036-82c0-4ae7-8f06-f2a0e4e21cf1"},"vehicle_type_id":"4","last_reported":1730632062,"current_range_meters":35200,"station_id":"ce4bhbh2rcd13ifvqeo0","pricing_plan_id":"cebpf4jnsgd1na2vs0mg"},{"bike_id":"b963daba-d742-49ef-b2eb-233261ca3817","system_id":"levelo_inurba_marseille","lat":43.2781,"lon":5.40708,"is_reserved":false,"is_disabled":false,"rental_uris":{"android":"levelo://app?vid=b963daba-d742-49ef-b2eb-233261ca3817","ios":"levelo://app?vid=b963daba-d742-49ef-b2eb-233261ca3817"},"vehicle_type_id":"4","last_reported":1730632062,"current_range_meters":36800,"station_id":"ce4bhnh2rcd13ifvqgtg","pricing_plan_id":"cebpf4jnsgd1na2vs0mg"},{"bike_id":"b23c12a0-8496-40fe-9467-9fd68f4d916f","system_id":"levelo_inurba_marseille","lat":43.25002,"lon":5.3751,"is_reserved":false,"is_disabled":false,"rental_uris":{"android":"levelo://app?vid=b23c12a0-8496-40fe-9467-9fd68f4d916f","ios":"levelo://app?vid=b23c12a0-8496-40fe-9467-9fd68f4d916f"},"vehicle_type_id":"4","last_reported":1730632062,"current_range_meters":23200,"station_id":"","pricing_plan_id":"cebpf4jnsgd1na2vs0mg"},{"bike_id":"75576e24-6890-4288-9aa5-db2804891d6f","system_id":"levelo_inurba_marseille","lat":43.26947,"lon":5.4024,"is_reserved":false,"is_disabled":false,"rental_uris":{"android":"levelo://app?vid=75576e24-6890-4288-9aa5-db2804891d6f","ios":"levelo://app?vid=75576e24-6890-4288-9aa5-db2804891d6f"},"vehicle_type_id":"4","last_reported":1730632062,"current_range_meters":38000,"station_id":"cjm6bp8fraef2m0cb0m0","pricing_plan_id":"cebpf4jnsgd1na2vs0mg"},{"bike_id":"2775ca08-a594-4d90-a75b-593b785436ae","system_id":"levelo_inurba_marseille","lat":43.29845,"lon":5.36273,"is_reserved":false,"is_disabled":false,"rental_uris":{"android":"levelo://app?vid=2775ca08-a594-4d90-a75b-593b785436ae","ios":"levelo://app?vid=2775ca08-a594-4d90-a75b-593b785436ae"},"vehicle_type_id":"4","last_reported":1730632062,"current_range_meters":6000,"station_id":"ce4bgpp2rcd13ifvqc3g","pricing_plan_id":"cebpf4jnsgd1na2vs0mg"},{"bike_id":"54337fac-085e-4782-bad6-db9a84abd2e2","system_id":"levelo_inurba_marseille","lat":43.31712,"lon":5.37736,"is_reserved":false,"is_disabled":false,"rental_uris":{"android":"levelo://app?vid=54337fac-085e-4782-bad6-db9a84abd2e2","ios":"levelo://app?vid=54337fac-085e-4782-bad6-db9a84abd2e2"},"vehicle_type_id":"4","last_reported":1730632062,"current_range_meters":38000,"station_id":"ce4bgth2rcd13ifvqch0","pricing_plan_id":"cebpf4jnsgd1na2vs0mg"},{"bike_id":"cd63f975-9bb0-44f7-998a-c21a699d8a27","system_id":"levelo_inurba_marseille","lat":43.30457,"lon":5.37897,"is_reserved":false,"is_disabled":false,"rental_uris":{"android":"levelo://app?vid=cd63f975-9bb0-44f7-998a-c21a699d8a27","ios":"levelo://app?vid=cd63f975-9bb0-44f7-998a-c21a699d8a27"},"vehicle_type_id":"4","last_reported":1730632062,"current_range_meters":38800,"station_id":"ce4bgup2rcd13ifvqcn0","pricing_plan_id":"cebpf4jnsgd1na2vs0mg"},{"bike_id":"242a0022-7ff2-4146-b8c8-168460a54332","system_id":"levelo_inurba_marseille","lat":43.28701,"lon":5.37383,"is_reserved":false,"is_disabled":false,"rental_uris":{"android":"levelo://app?vid=242a0022-7ff2-4146-b8c8-168460a54332","ios":"levelo://app?vid=242a0022-7ff2-4146-b8c8-168460a54332"},"vehicle_type_id":"4","last_reported":1730632062,"current_range_meters":38000,"station_id":"ce4bh3p2rcd13ifvqdq0","pricing_plan_id":"cebpf4jnsgd1na2vs0mg"},{"bike_id":"a9e32352-0ca8-4535-87fc-d3cfff86084b","system_id":"levelo_inurba_marseille","lat":43.32477,"lon":5.36562,"is_reserved":false,"is_disabled":false,"rental_uris":{"android":"levelo://app?vid=a9e32352-0ca8-4535-87fc-d3cfff86084b","ios":"levelo://app?vid=a9e32352-0ca8-4535-87fc-d3cfff86084b"},"vehicle_type_id":"4","last_reported":1730632062,"current_range_meters":32000,"station_id":"ce4bhs12rcd13ifvqhvg","pricing_plan_id":"cebpf4jnsgd1na2vs0mg"},{"bike_id":"933e88ac-d979-43a7-a64b-221565f81a6f","system_id":"levelo_inurba_marseille","lat":43.23961,"lon":5.36615,"is_reserved":false,"is_disabled":false,"rental_uris":{"android":"levelo://app?vid=933e88ac-d979-43a7-a64b-221565f81a6f","ios":"levelo://app?vid=933e88ac-d979-43a7-a64b-221565f81a6f"},"vehicle_type_id":"4","last_reported":1730632062,"current_range_meters":38000,"station_id":"ce4bhi12rcd13ifvqfp0","pricing_plan_id":"cebpf4jnsgd1na2vs0mg"},{"bike_id":"0de993bb-b64a-4032-abce-b87c2b2ec7e9","system_id":"levelo_inurba_marseille","lat":43.28155,"lon":5.42644,"is_reserved":false,"is_disabled":false,"rental_uris":{"android":"levelo://app?vid=0de993bb-b64a-4032-abce-b87c2b2ec7e9","ios":"levelo://app?vid=0de993bb-b64a-4032-abce-b87c2b2ec7e9"},"vehicle_type_id":"4","last_reported":1730632062,"current_range_meters":38000,"station_id":"ce4bhnh2rcd13ifvqgug","pricing_plan_id":"cebpf4jnsgd1na2vs0mg"},{"bike_id":"05ce730c-be4d-41f9-bdc3-24a9557532bc","system_id":"levelo_inurba_marseille","lat":43.28414,"lon":5.34987,"is_reserved":false,"is_disabled":false,"rental_uris":{"android":"levelo://app?vid=05ce730c-be4d-41f9-bdc3-24a9557532bc","ios":"levelo://app?vid=05ce730c-be4d-41f9-bdc3-24a9557532bc"},"vehicle_type_id":"4","last_reported":1730632062,"current_range_meters":38800,"station_id":"ce4bhbh2rcd13ifvqepg","pricing_plan_id":"cebpf4jnsgd1na2vs0mg"},{"bike_id":"23847b17-6148-405e-a799-dc43d98599fd","system_id":"levelo_inurba_marseille","lat":43.29023,"lon":5.35601,"is_reserved":false,"is_disabled":false,"rental_uris":{"android":"levelo://app?vid=23847b17-6148-405e-a799-dc43d98599fd","ios":"levelo://app?vid=23847b17-6148-405e-a799-dc43d98599fd"},"vehicle_type_id":"4","last_reported":1730632062,"current_range_meters":36400,"station_id":"ce4bhb92rcd13ifvqen0","pricing_plan_id":"cebpf4jnsgd1na2vs0mg"},{"bike_id":"cd6e74c6-af65-49f3-8f83-1991297fe68c","system_id":"levelo_inurba_marseille","lat":43.29844,"lon":5.36266,"is_reserved":false,"is_disabled":false,"rental_uris":{"android":"levelo://app?vid=cd6e74c6-af65-49f3-8f83-1991297fe68c","ios":"levelo://app?vid=cd6e74c6-af65-49f3-8f83-1991297fe68c"},"vehicle_type_id":"4","last_reported":1730632062,"current_range_meters":39200,"station_id":"ce4bgpp2rcd13ifvqc3g","pricing_plan_id":"cebpf4jnsgd1na2vs0mg"},{"bike_id":"f73fdf34-ec8f-4b91-872e-230bd85aed68","system_id":"levelo_inurba_marseille","lat":43.30528,"lon":5.36704,"is_reserved":false,"is_disabled":false,"rental_uris":{"android":"levelo://app?vid=f73fdf34-ec8f-4b91-872e-230bd85aed68","ios":"levelo://app?vid=f73fdf34-ec8f-4b91-872e-230bd85aed68"},"vehicle_type_id":"4","last_reported":1730632062,"current_range_meters":27200,"station_id":"ce4bgrp2rcd13ifvqc9g","pricing_plan_id":"cebpf4jnsgd1na2vs0mg"},{"bike_id":"2ea0e481-fdb8-4884-96fe-f7c2ebc7f5f8","system_id":"levelo_inurba_marseille","lat":43.25124,"lon":5.4031,"is_reserved":false,"is_disabled":false,"rental_uris":{"android":"levelo://app?vid=2ea0e481-fdb8-4884-96fe-f7c2ebc7f5f8","ios":"levelo://app?vid=2ea0e481-fdb8-4884-96fe-f7c2ebc7f5f8"},"vehicle_type_id":"4","last_reported":1730632062,"current_range_meters":37600,"station_id":"ce4bhlh2rcd13ifvqgig","pricing_plan_id":"cebpf4jnsgd1na2vs0mg"},{"bike_id":"f848a45d-2449-4651-9409-05d945e9b0b5","system_id":"levelo_inurba_marseille","lat":43.30534,"lon":5.36551,"is_reserved":false,"is_disabled":false,"rental_uris":{"android":"levelo://app?vid=f848a45d-2449-4651-9409-05d945e9b0b5","ios":"levelo://app?vid=f848a45d-2449-4651-9409-05d945e9b0b5"},"vehicle_type_id":"4","last_reported":1730632062,"current_range_meters":20400,"station_id":"ce4bgs12rcd13ifvqcag","pricing_plan_id":"cebpf4jnsgd1na2vs0mg"},{"bike_id":"22762c51-497c-4c64-9cb4-6764b56a1b26","system_id":"levelo_inurba_marseille","lat":43.26807,"lon":5.40271,"is_reserved":false,"is_disabled":false,"rental_uris":{"android":"levelo://app?vid=22762c51-497c-4c64-9cb4-6764b56a1b26","ios":"levelo://app?vid=22762c51-497c-4c64-9cb4-6764b56a1b26"},"vehicle_type_id":"4","last_reported":1730632062,"current_range_meters":27600,"station_id":"ce501612rcd8frsf0b60","pricing_plan_id":"cebpf4jnsgd1na2vs0mg"},{"bike_id":"2006c763-5d5d-4a90-b0eb-2cbd7baf8745","system_id":"levelo_inurba_marseille","lat":43.29708,"lon":5.39097,"is_reserved":false,"is_disabled":false,"rental_uris":{"android":"levelo://app?vid=2006c763-5d5d-4a90-b0eb-2cbd7baf8745","ios":"levelo://app?vid=2006c763-5d5d-4a90-b0eb-2cbd7baf8745"},"vehicle_type_id":"4","last_reported":1730632062,"current_range_meters":20400,"station_id":"","pricing_plan_id":"cebpf4jnsgd1na2vs0mg"},{"bike_id":"255ea6d3-7ac6-4345-8335-502748145960","system_id":"levelo_inurba_marseille","lat":43.24179,"lon":5.39729,"is_reserved":false,"is_disabled":false,"rental_uris":{"android":"levelo://app?vid=255ea6d3-7ac6-4345-8335-502748145960","ios":"levelo://app?vid=255ea6d3-7ac6-4345-8335-502748145960"},"vehicle_type_id":"4","last_reported":1730632062,"current_range_meters":32800,"station_id":"ce4bhn12rcd13ifvqgpg","pricing_plan_id":"cebpf4jnsgd1na2vs0mg"},{"bike_id":"b71aec61-79a9-4056-9e3a-b2a2b46e4408","system_id":"levelo_inurba_marseille","lat":43.28152,"lon":5.42641,"is_reserved":false,"is_disabled":false,"rental_uris":{"android":"levelo://app?vid=b71aec61-79a9-4056-9e3a-b2a2b46e4408","ios":"levelo://app?vid=b71aec61-79a9-4056-9e3a-b2a2b46e4408"},"vehicle_type_id":"4","last_reported":1730632062,"current_range_meters":17200,"station_id":"ce4bhnh2rcd13ifvqgug","pricing_plan_id":"cebpf4jnsgd1na2vs0mg"},{"bike_id":"a5e5686b-78b3-4a90-88b3-8326b4aff7e8","system_id":"levelo_inurba_marseille","lat":43.310698,"lon":5.383446,"is_reserved":false,"is_disabled":false,"rental_uris":{"android":"levelo://app?vid=a5e5686b-78b3-4a90-88b3-8326b4aff7e8","ios":"levelo://app?vid=a5e5686b-78b3-4a90-88b3-8326b4aff7e8"},"vehicle_type_id":"4","last_reported":1730632062,"current_range_meters":33200,"station_id":"ce4bgv92rcd13ifvqcr0","pricing_plan_id":"cebpf4jnsgd1na2vs0mg"},{"bike_id":"1891da9e-84eb-4db0-8985-88dfff9d5a7d","system_id":"levelo_inurba_marseille","lat":43.3042,"lon":5.41272,"is_reserved":false,"is_disabled":false,"rental_uris":{"android":"levelo://app?vid=1891da9e-84eb-4db0-8985-88dfff9d5a7d","ios":"levelo://app?vid=1891da9e-84eb-4db0-8985-88dfff9d5a7d"},"vehicle_type_id":"4","last_reported":1730632062,"current_range_meters":39200,"station_id":"ce4bhop2rcd13ifvqh8g","pricing_plan_id":"cebpf4jnsgd1na2vs0mg"},{"bike_id":"b6053268-2bff-4d9d-a017-b33d6fdf3062","system_id":"levelo_inurba_marseille","lat":43.28265,"lon":5.3507,"is_reserved":false,"is_disabled":false,"rental_uris":{"android":"levelo://app?vid=b6053268-2bff-4d9d-a017-b33d6fdf3062","ios":"levelo://app?vid=b6053268-2bff-4d9d-a017-b33d6fdf3062"},"vehicle_type_id":"4","last_reported":1730632062,"current_range_meters":28400,"station_id":"ce4bhbp2rcd13ifvqerg","pricing_plan_id":"cebpf4jnsgd1na2vs0mg"},{"bike_id":"1b760ddd-e34d-491f-9c82-3266310982c8","system_id":"levelo_inurba_marseille","lat":43.26555,"lon":5.37281,"is_reserved":false,"is_disabled":false,"rental_uris":{"android":"levelo://app?vid=1b760ddd-e34d-491f-9c82-3266310982c8","ios":"levelo://app?vid=1b760ddd-e34d-491f-9c82-3266310982c8"},"vehicle_type_id":"4","last_reported":1730632062,"current_range_meters":3200,"station_id":"ce4bhg12rcd13ifvqf70","pricing_plan_id":"cebpf4jnsgd1na2vs0mg"},{"bike_id":"34c24e11-4304-4dae-b117-029aba75d530","system_id":"levelo_inurba_marseille","lat":43.24814,"lon":5.37454,"is_reserved":false,"is_disabled":false,"rental_uris":{"android":"levelo://app?vid=34c24e11-4304-4dae-b117-029aba75d530","ios":"levelo://app?vid=34c24e11-4304-4dae-b117-029aba75d530"},"vehicle_type_id":"4","last_reported":1730632062,"current_range_meters":35600,"station_id":"ce4bhgh2rcd13ifvqfb0","pricing_plan_id":"cebpf4jnsgd1na2vs0mg"},{"bike_id":"dbceb6c1-3ed6-47b3-9775-e6b41eb5e8de","system_id":"levelo_inurba_marseille","lat":43.27207,"lon":5.39177,"is_reserved":false,"is_disabled":false,"rental_uris":{"android":"levelo://app?vid=dbceb6c1-3ed6-47b3-9775-e6b41eb5e8de","ios":"levelo://app?vid=dbceb6c1-3ed6-47b3-9775-e6b41eb5e8de"},"vehicle_type_id":"4","last_reported":1730632062,"current_range_meters":10800,"station_id":"ce4bhhp2rcd13ifvqfm0","pricing_plan_id":"cebpf4jnsgd1na2vs0mg"},{"bike_id":"9e3a49e4-250c-4ac6-b1c4-cf1702ad648f","system_id":"levelo_inurba_marseille","lat":43.29584,"lon":5.36743,"is_reserved":false,"is_disabled":false,"rental_uris":{"android":"levelo://app?vid=9e3a49e4-250c-4ac6-b1c4-cf1702ad648f","ios":"levelo://app?vid=9e3a49e4-250c-4ac6-b1c4-cf1702ad648f"},"vehicle_type_id":"4","last_reported":1730632062,"current_range_meters":38800,"station_id":"ce4bgph2rcd13ifvqc2g","pricing_plan_id":"cebpf4jnsgd1na2vs0mg"},{"bike_id":"d3ae8054-535d-4288-b44c-84c3071021e3","system_id":"levelo_inurba_marseille","lat":43.25117,"lon":5.40313,"is_reserved":false,"is_disabled":false,"rental_uris":{"android":"levelo://app?vid=d3ae8054-535d-4288-b44c-84c3071021e3","ios":"levelo://app?vid=d3ae8054-535d-4288-b44c-84c3071021e3"},"vehicle_type_id":"4","last_reported":1730632062,"current_range_meters":14800,"station_id":"ce4bhlh2rcd13ifvqgig","pricing_plan_id":"cebpf4jnsgd1na2vs0mg"},{"bike_id":"61497ec0-6b91-4085-893e-2dc4cbab5392","system_id":"levelo_inurba_marseille","lat":43.32369,"lon":5.38898,"is_reserved":false,"is_disabled":false,"rental_uris":{"android":"levelo://app?vid=61497ec0-6b91-4085-893e-2dc4cbab5392","ios":"levelo://app?vid=61497ec0-6b91-4085-893e-2dc4cbab5392"},"vehicle_type_id":"4","last_reported":1730632062,"current_range_meters":23200,"station_id":"ce4bhqp2rcd13ifvqhog","pricing_plan_id":"cebpf4jnsgd1na2vs0mg"},{"bike_id":"12c01ad3-d36b-4f7d-9a12-40c749067096","system_id":"levelo_inurba_marseille","lat":43.28368,"lon":5.38625,"is_reserved":false,"is_disabled":false,"rental_uris":{"android":"levelo://app?vid=12c01ad3-d36b-4f7d-9a12-40c749067096","ios":"levelo://app?vid=12c01ad3-d36b-4f7d-9a12-40c749067096"},"vehicle_type_id":"4","last_reported":1730632062,"current_range_meters":38800,"station_id":"ce4bh492rcd13ifvqdvg","pricing_plan_id":"cebpf4jnsgd1na2vs0mg"},{"bike_id":"f419597f-1325-4c17-b18e-cdffcedc6d80","system_id":"levelo_inurba_marseille","lat":43.232,"lon":5.35547,"is_reserved":false,"is_disabled":false,"rental_uris":{"android":"levelo://app?vid=f419597f-1325-4c17-b18e-cdffcedc6d80","ios":"levelo://app?vid=f419597f-1325-4c17-b18e-cdffcedc6d80"},"vehicle_type_id":"4","last_reported":1730632062,"current_range_meters":24800,"station_id":"ce4bhu92rcd13ifvqi70","pricing_plan_id":"cebpf4jnsgd1na2vs0mg"},{"bike_id":"e55d8d6f-7394-4584-af8a-c65aaa7989ef","system_id":"levelo_inurba_marseille","lat":43.26068,"lon":5.39393,"is_reserved":false,"is_disabled":false,"rental_uris":{"android":"levelo://app?vid=e55d8d6f-7394-4584-af8a-c65aaa7989ef","ios":"levelo://app?vid=e55d8d6f-7394-4584-af8a-c65aaa7989ef"},"vehicle_type_id":"4","last_reported":1730632062,"current_range_meters":6400,"station_id":"ce4bhh92rcd13ifvqfj0","pricing_plan_id":"cebpf4jnsgd1na2vs0mg"},{"bike_id":"0e5a98e6-0a0f-47df-918f-3717980ac188","system_id":"levelo_inurba_marseille","lat":43.25584,"lon":5.38224,"is_reserved":false,"is_disabled":false,"rental_uris":{"android":"levelo://app?vid=0e5a98e6-0a0f-47df-918f-3717980ac188","ios":"levelo://app?vid=0e5a98e6-0a0f-47df-918f-3717980ac188"},"vehicle_type_id":"4","last_reported":1730632062,"current_range_meters":3600,"station_id":"ce4bhih2rcd13ifvqfs0","pricing_plan_id":"cebpf4jnsgd1na2vs0mg"},{"bike_id":"c9836de4-dae6-4bfc-aef6-8b7c0c537e63","system_id":"levelo_inurba_marseille","lat":43.25868,"lon":5.39895,"is_reserved":false,"is_disabled":false,"rental_uris":{"android":"levelo://app?vid=c9836de4-dae6-4bfc-aef6-8b7c0c537e63","ios":"levelo://app?vid=c9836de4-dae6-4bfc-aef6-8b7c0c537e63"},"vehicle_type_id":"4","last_reported":1730632062,"current_range_meters":39200,"station_id":"ce4bhl92rcd13ifvqghg","pricing_plan_id":"cebpf4jnsgd1na2vs0mg"},{"bike_id":"09cea0bc-d920-4208-8faf-c2a31d555ef7","system_id":"levelo_inurba_marseille","lat":43.23967,"lon":5.36627,"is_reserved":false,"is_disabled":false,"rental_uris":{"android":"levelo://app?vid=09cea0bc-d920-4208-8faf-c2a31d555ef7","ios":"levelo://app?vid=09cea0bc-d920-4208-8faf-c2a31d555ef7"},"vehicle_type_id":"4","last_reported":1730632062,"current_range_meters":9200,"station_id":"ce4bhi12rcd13ifvqfp0","pricing_plan_id":"cebpf4jnsgd1na2vs0mg"},{"bike_id":"50c61d10-796e-41ff-8615-d9fb252ecb98","system_id":"levelo_inurba_marseille","lat":43.23966,"lon":5.36621,"is_reserved":false,"is_disabled":false,"rental_uris":{"android":"levelo://app?vid=50c61d10-796e-41ff-8615-d9fb252ecb98","ios":"levelo://app?vid=50c61d10-796e-41ff-8615-d9fb252ecb98"},"vehicle_type_id":"4","last_reported":1730632062,"current_range_meters":34000,"station_id":"ce4bhi12rcd13ifvqfp0","pricing_plan_id":"cebpf4jnsgd1na2vs0mg"},{"bike_id":"76867c33-2a30-4764-ab43-24e998b967a2","system_id":"levelo_inurba_marseille","lat":43.25,"lon":5.38931,"is_reserved":false,"is_disabled":false,"rental_uris":{"android":"levelo://app?vid=76867c33-2a30-4764-ab43-24e998b967a2","ios":"levelo://app?vid=76867c33-2a30-4764-ab43-24e998b967a2"},"vehicle_type_id":"4","last_reported":1730632062,"current_range_meters":38400,"station_id":"ce4bhgp2rcd13ifvqfd0","pricing_plan_id":"cebpf4jnsgd1na2vs0mg"},{"bike_id":"affdda59-ce41-4672-8668-fcad20410671","system_id":"levelo_inurba_marseille","lat":43.24662,"lon":5.38165,"is_reserved":false,"is_disabled":false,"rental_uris":{"android":"levelo://app?vid=affdda59-ce41-4672-8668-fcad20410671","ios":"levelo://app?vid=affdda59-ce41-4672-8668-fcad20410671"},"vehicle_type_id":"4","last_reported":1730632062,"current_range_meters":38800,"station_id":"ce4bhih2rcd13ifvqfr0","pricing_plan_id":"cebpf4jnsgd1na2vs0mg"},{"bike_id":"d4472d20-9c4b-4c70-ad00-3a005519a429","system_id":"levelo_inurba_marseille","lat":43.3541,"lon":5.35713,"is_reserved":false,"is_disabled":false,"rental_uris":{"android":"levelo://app?vid=d4472d20-9c4b-4c70-ad00-3a005519a429","ios":"levelo://app?vid=d4472d20-9c4b-4c70-ad00-3a005519a429"},"vehicle_type_id":"4","last_reported":1730632062,"current_range_meters":16000,"station_id":"","pricing_plan_id":"cebpf4jnsgd1na2vs0mg"},{"bike_id":"6338020e-474a-4c99-b365-eea26fe54739","system_id":"levelo_inurba_marseille","lat":43.322875,"lon":5.38281,"is_reserved":false,"is_disabled":false,"rental_uris":{"android":"levelo://app?vid=6338020e-474a-4c99-b365-eea26fe54739","ios":"levelo://app?vid=6338020e-474a-4c99-b365-eea26fe54739"},"vehicle_type_id":"4","last_reported":1730632062,"current_range_meters":38800,"station_id":"ce4bhr12rcd13ifvqhqg","pricing_plan_id":"cebpf4jnsgd1na2vs0mg"},{"bike_id":"7b55fce0-262f-4be1-99ee-2d9b7765d344","system_id":"levelo_inurba_marseille","lat":43.240723,"lon":5.377621,"is_reserved":false,"is_disabled":false,"rental_uris":{"android":"levelo://app?vid=7b55fce0-262f-4be1-99ee-2d9b7765d344","ios":"levelo://app?vid=7b55fce0-262f-4be1-99ee-2d9b7765d344"},"vehicle_type_id":"4","last_reported":1730632062,"current_range_meters":32800,"station_id":"ce4bhgp2rcd13ifvqfd0","pricing_plan_id":"cebpf4jnsgd1na2vs0mg"},{"bike_id":"4d838921-ecf0-47e9-891e-f3ee5c37121f","system_id":"levelo_inurba_marseille","lat":43.28269,"lon":5.35065,"is_reserved":false,"is_disabled":false,"rental_uris":{"android":"levelo://app?vid=4d838921-ecf0-47e9-891e-f3ee5c37121f","ios":"levelo://app?vid=4d838921-ecf0-47e9-891e-f3ee5c37121f"},"vehicle_type_id":"4","last_reported":1730632062,"current_range_meters":35600,"station_id":"ce4bhbp2rcd13ifvqerg","pricing_plan_id":"cebpf4jnsgd1na2vs0mg"},{"bike_id":"6e9dfb8e-c8f9-42a6-9d41-c02eb62af443","system_id":"levelo_inurba_marseille","lat":43.23156,"lon":5.43717,"is_reserved":false,"is_disabled":false,"rental_uris":{"android":"levelo://app?vid=6e9dfb8e-c8f9-42a6-9d41-c02eb62af443","ios":"levelo://app?vid=6e9dfb8e-c8f9-42a6-9d41-c02eb62af443"},"vehicle_type_id":"4","last_reported":1730632062,"current_range_meters":14000,"station_id":"ce4bhmp2rcd13ifvqgog","pricing_plan_id":"cebpf4jnsgd1na2vs0mg"},{"bike_id":"f8833f7b-49c8-440c-b671-beb72799bdec","system_id":"levelo_inurba_marseille","lat":43.24976,"lon":5.37504,"is_reserved":false,"is_disabled":false,"rental_uris":{"android":"levelo://app?vid=f8833f7b-49c8-440c-b671-beb72799bdec","ios":"levelo://app?vid=f8833f7b-49c8-440c-b671-beb72799bdec"},"vehicle_type_id":"4","last_reported":1730632062,"current_range_meters":31200,"station_id":"","pricing_plan_id":"cebpf4jnsgd1na2vs0mg"},{"bike_id":"dae4212a-2bac-4660-bd0c-1552b7fa9856","system_id":"levelo_inurba_marseille","lat":43.29005,"lon":5.35607,"is_reserved":false,"is_disabled":false,"rental_uris":{"android":"levelo://app?vid=dae4212a-2bac-4660-bd0c-1552b7fa9856","ios":"levelo://app?vid=dae4212a-2bac-4660-bd0c-1552b7fa9856"},"vehicle_type_id":"4","last_reported":1730632062,"current_range_meters":38000,"station_id":"ce4bhb92rcd13ifvqen0","pricing_plan_id":"cebpf4jnsgd1na2vs0mg"},{"bike_id":"7d1d8b3c-0803-4bf6-9721-d7161499653f","system_id":"levelo_inurba_marseille","lat":43.24074,"lon":5.37757,"is_reserved":false,"is_disabled":false,"rental_uris":{"android":"levelo://app?vid=7d1d8b3c-0803-4bf6-9721-d7161499653f","ios":"levelo://app?vid=7d1d8b3c-0803-4bf6-9721-d7161499653f"},"vehicle_type_id":"4","last_reported":1730632062,"current_range_meters":20400,"station_id":"ce4bhnp2rcd13ifvqgvg","pricing_plan_id":"cebpf4jnsgd1na2vs0mg"},{"bike_id":"f35cd096-8317-409a-9875-97da0ea574d4","system_id":"levelo_inurba_marseille","lat":43.32532,"lon":5.41452,"is_reserved":false,"is_disabled":false,"rental_uris":{"android":"levelo://app?vid=f35cd096-8317-409a-9875-97da0ea574d4","ios":"levelo://app?vid=f35cd096-8317-409a-9875-97da0ea574d4"},"vehicle_type_id":"4","last_reported":1730632062,"current_range_meters":36800,"station_id":"ce4bhq12rcd13ifvqhhg","pricing_plan_id":"cebpf4jnsgd1na2vs0mg"},{"bike_id":"5bdeb517-1a4b-4c75-910b-1f223b816670","system_id":"levelo_inurba_marseille","lat":43.32483,"lon":5.36572,"is_reserved":false,"is_disabled":false,"rental_uris":{"android":"levelo://app?vid=5bdeb517-1a4b-4c75-910b-1f223b816670","ios":"levelo://app?vid=5bdeb517-1a4b-4c75-910b-1f223b816670"},"vehicle_type_id":"4","last_reported":1730632062,"current_range_meters":38000,"station_id":"ce4bhs12rcd13ifvqhvg","pricing_plan_id":"cebpf4jnsgd1na2vs0mg"},{"bike_id":"5ec9569d-01b1-4aba-bf03-e3eddfda84e3","system_id":"levelo_inurba_marseille","lat":43.2678,"lon":5.39412,"is_reserved":false,"is_disabled":false,"rental_uris":{"android":"levelo://app?vid=5ec9569d-01b1-4aba-bf03-e3eddfda84e3","ios":"levelo://app?vid=5ec9569d-01b1-4aba-bf03-e3eddfda84e3"},"vehicle_type_id":"4","last_reported":1730632062,"current_range_meters":39200,"station_id":"ce4bhh12rcd13ifvqfg0","pricing_plan_id":"cebpf4jnsgd1na2vs0mg"},{"bike_id":"1ddde7ff-3953-4942-bfab-1d2712b93546","system_id":"levelo_inurba_marseille","lat":43.31712,"lon":5.3775,"is_reserved":false,"is_disabled":false,"rental_uris":{"android":"levelo://app?vid=1ddde7ff-3953-4942-bfab-1d2712b93546","ios":"levelo://app?vid=1ddde7ff-3953-4942-bfab-1d2712b93546"},"vehicle_type_id":"4","last_reported":1730632062,"current_range_meters":38800,"station_id":"ce4bgth2rcd13ifvqch0","pricing_plan_id":"cebpf4jnsgd1na2vs0mg"},{"bike_id":"7261abbc-bef1-40b4-8225-29e060af6a97","system_id":"levelo_inurba_marseille","lat":43.27994,"lon":5.4166,"is_reserved":false,"is_disabled":false,"rental_uris":{"android":"levelo://app?vid=7261abbc-bef1-40b4-8225-29e060af6a97","ios":"levelo://app?vid=7261abbc-bef1-40b4-8225-29e060af6a97"},"vehicle_type_id":"4","last_reported":1730632062,"current_range_meters":37600,"station_id":"ce4bho12rcd13ifvqh1g","pricing_plan_id":"cebpf4jnsgd1na2vs0mg"},{"bike_id":"9b83c467-696c-4a85-b81a-739bb3a33b5a","system_id":"levelo_inurba_marseille","lat":43.25088,"lon":5.39525,"is_reserved":false,"is_disabled":false,"rental_uris":{"android":"levelo://app?vid=9b83c467-696c-4a85-b81a-739bb3a33b5a","ios":"levelo://app?vid=9b83c467-696c-4a85-b81a-739bb3a33b5a"},"vehicle_type_id":"4","last_reported":1730632062,"current_range_meters":33600,"station_id":"ce4bhm12rcd13ifvqgkg","pricing_plan_id":"cebpf4jnsgd1na2vs0mg"},{"bike_id":"44642f4d-6acc-46fe-bd97-7c50fc803f39","system_id":"levelo_inurba_marseille","lat":43.3211,"lon":5.36764,"is_reserved":false,"is_disabled":false,"rental_uris":{"android":"levelo://app?vid=44642f4d-6acc-46fe-bd97-7c50fc803f39","ios":"levelo://app?vid=44642f4d-6acc-46fe-bd97-7c50fc803f39"},"vehicle_type_id":"4","last_reported":1730632062,"current_range_meters":9200,"station_id":"ce4bhrh2rcd13ifvqhug","pricing_plan_id":"cebpf4jnsgd1na2vs0mg"},{"bike_id":"18402065-9e87-476b-95ad-30853de181a0","system_id":"levelo_inurba_marseille","lat":43.32455,"lon":5.45543,"is_reserved":false,"is_disabled":false,"rental_uris":{"android":"levelo://app?vid=18402065-9e87-476b-95ad-30853de181a0","ios":"levelo://app?vid=18402065-9e87-476b-95ad-30853de181a0"},"vehicle_type_id":"4","last_reported":1730632062,"current_range_meters":3600,"station_id":"","pricing_plan_id":"cebpf4jnsgd1na2vs0mg"},{"bike_id":"0795f4cf-259d-417a-8820-3a6b012ae7cb","system_id":"levelo_inurba_marseille","lat":43.23194,"lon":5.35552,"is_reserved":false,"is_disabled":false,"rental_uris":{"android":"levelo://app?vid=0795f4cf-259d-417a-8820-3a6b012ae7cb","ios":"levelo://app?vid=0795f4cf-259d-417a-8820-3a6b012ae7cb"},"vehicle_type_id":"4","last_reported":1730632062,"current_range_meters":29600,"station_id":"ce4bhu92rcd13ifvqi70","pricing_plan_id":"cebpf4jnsgd1na2vs0mg"},{"bike_id":"4eb01b0d-49fc-48ee-b782-54d621657f1b","system_id":"levelo_inurba_marseille","lat":43.31888,"lon":5.40748,"is_reserved":false,"is_disabled":false,"rental_uris":{"android":"levelo://app?vid=4eb01b0d-49fc-48ee-b782-54d621657f1b","ios":"levelo://app?vid=4eb01b0d-49fc-48ee-b782-54d621657f1b"},"vehicle_type_id":"4","last_reported":1730632062,"current_range_meters":31200,"station_id":"ce4bhq12rcd13ifvqhig","pricing_plan_id":"cebpf4jnsgd1na2vs0mg"},{"bike_id":"f90730aa-8241-4aad-86b2-c4b4611fa5ea","system_id":"levelo_inurba_marseille","lat":43.25929,"lon":5.40904,"is_reserved":false,"is_disabled":false,"rental_uris":{"android":"levelo://app?vid=f90730aa-8241-4aad-86b2-c4b4611fa5ea","ios":"levelo://app?vid=f90730aa-8241-4aad-86b2-c4b4611fa5ea"},"vehicle_type_id":"4","last_reported":1730632062,"current_range_meters":16400,"station_id":"ce4bhm92rcd13ifvqglg","pricing_plan_id":"cebpf4jnsgd1na2vs0mg"},{"bike_id":"8d5e10f9-f0cf-43fe-a81e-7f88ce3f164d","system_id":"levelo_inurba_marseille","lat":43.2862,"lon":5.35107,"is_reserved":false,"is_disabled":false,"rental_uris":{"android":"levelo://app?vid=8d5e10f9-f0cf-43fe-a81e-7f88ce3f164d","ios":"levelo://app?vid=8d5e10f9-f0cf-43fe-a81e-7f88ce3f164d"},"vehicle_type_id":"4","last_reported":1730632062,"current_range_meters":39200,"station_id":"ce4bhch2rcd13ifvqeug","pricing_plan_id":"cebpf4jnsgd1na2vs0mg"},{"bike_id":"d85910d8-d412-4b12-a122-3b51215851f8","system_id":"levelo_inurba_marseille","lat":43.310638,"lon":5.383436,"is_reserved":false,"is_disabled":false,"rental_uris":{"android":"levelo://app?vid=d85910d8-d412-4b12-a122-3b51215851f8","ios":"levelo://app?vid=d85910d8-d412-4b12-a122-3b51215851f8"},"vehicle_type_id":"4","last_reported":1730632062,"current_range_meters":30400,"station_id":"ce4bgv92rcd13ifvqcr0","pricing_plan_id":"cebpf4jnsgd1na2vs0mg"},{"bike_id":"61f26f1a-3012-4bcc-bbf3-435c78ebab81","system_id":"levelo_inurba_marseille","lat":43.27926,"lon":5.39572,"is_reserved":false,"is_disabled":false,"rental_uris":{"android":"levelo://app?vid=61f26f1a-3012-4bcc-bbf3-435c78ebab81","ios":"levelo://app?vid=61f26f1a-3012-4bcc-bbf3-435c78ebab81"},"vehicle_type_id":"4","last_reported":1730632062,"current_range_meters":26800,"station_id":"ce4bhf92rcd13ifvqf40","pricing_plan_id":"cebpf4jnsgd1na2vs0mg"},{"bike_id":"69e8e244-7afd-48f7-87cc-a6062d557c47","system_id":"levelo_inurba_marseille","lat":43.27994,"lon":5.41651,"is_reserved":false,"is_disabled":false,"rental_uris":{"android":"levelo://app?vid=69e8e244-7afd-48f7-87cc-a6062d557c47","ios":"levelo://app?vid=69e8e244-7afd-48f7-87cc-a6062d557c47"},"vehicle_type_id":"4","last_reported":1730632062,"current_range_meters":19600,"station_id":"ce4bho12rcd13ifvqh1g","pricing_plan_id":"cebpf4jnsgd1na2vs0mg"},{"bike_id":"751eec01-23b0-49aa-a2a3-e2d658155f8b","system_id":"levelo_inurba_marseille","lat":43.2718,"lon":5.409883,"is_reserved":false,"is_disabled":false,"rental_uris":{"android":"levelo://app?vid=751eec01-23b0-49aa-a2a3-e2d658155f8b","ios":"levelo://app?vid=751eec01-23b0-49aa-a2a3-e2d658155f8b"},"vehicle_type_id":"4","last_reported":1730632062,"current_range_meters":38400,"station_id":"ce4bhl12rcd13ifvqgf0","pricing_plan_id":"cebpf4jnsgd1na2vs0mg"},{"bike_id":"c7a6a60a-ebc3-43dc-847c-5817f23f3b49","system_id":"levelo_inurba_marseille","lat":43.25728,"lon":5.41107,"is_reserved":false,"is_disabled":false,"rental_uris":{"android":"levelo://app?vid=c7a6a60a-ebc3-43dc-847c-5817f23f3b49","ios":"levelo://app?vid=c7a6a60a-ebc3-43dc-847c-5817f23f3b49"},"vehicle_type_id":"4","last_reported":1730632062,"current_range_meters":4800,"station_id":"ce4bhkp2rcd13ifvqgd0","pricing_plan_id":"cebpf4jnsgd1na2vs0mg"},{"bike_id":"d5541a12-439a-4845-841b-6ce96c9850ba","system_id":"levelo_inurba_marseille","lat":43.24805,"lon":5.37452,"is_reserved":false,"is_disabled":false,"rental_uris":{"android":"levelo://app?vid=d5541a12-439a-4845-841b-6ce96c9850ba","ios":"levelo://app?vid=d5541a12-439a-4845-841b-6ce96c9850ba"},"vehicle_type_id":"4","last_reported":1730632062,"current_range_meters":17200,"station_id":"ce4bhgh2rcd13ifvqfb0","pricing_plan_id":"cebpf4jnsgd1na2vs0mg"},{"bike_id":"47d9fafa-499e-4f9a-8acd-0335d8ec006f","system_id":"levelo_inurba_marseille","lat":43.29283,"lon":5.40114,"is_reserved":false,"is_disabled":false,"rental_uris":{"android":"levelo://app?vid=47d9fafa-499e-4f9a-8acd-0335d8ec006f","ios":"levelo://app?vid=47d9fafa-499e-4f9a-8acd-0335d8ec006f"},"vehicle_type_id":"4","last_reported":1730632062,"current_range_meters":5600,"station_id":"ce4bh312rcd13ifvqdk0","pricing_plan_id":"cebpf4jnsgd1na2vs0mg"},{"bike_id":"0c3c7054-b98d-42fb-8bfa-7ad579107da2","system_id":"levelo_inurba_marseille","lat":43.28473,"lon":5.38412,"is_reserved":false,"is_disabled":false,"rental_uris":{"android":"levelo://app?vid=0c3c7054-b98d-42fb-8bfa-7ad579107da2","ios":"levelo://app?vid=0c3c7054-b98d-42fb-8bfa-7ad579107da2"},"vehicle_type_id":"4","last_reported":1730632062,"current_range_meters":38800,"station_id":"ce4bh512rcd13ifvqe3g","pricing_plan_id":"cebpf4jnsgd1na2vs0mg"},{"bike_id":"d659c41b-9b74-43f8-8183-558704299e47","system_id":"levelo_inurba_marseille","lat":43.29255,"lon":5.40904,"is_reserved":false,"is_disabled":false,"rental_uris":{"android":"levelo://app?vid=d659c41b-9b74-43f8-8183-558704299e47","ios":"levelo://app?vid=d659c41b-9b74-43f8-8183-558704299e47"},"vehicle_type_id":"4","last_reported":1730632062,"current_range_meters":38000,"station_id":"ce4bh192rcd13ifvqdc0","pricing_plan_id":"cebpf4jnsgd1na2vs0mg"},{"bike_id":"db1c8f57-0229-4e9c-aa6b-c7612497ffc0","system_id":"levelo_inurba_marseille","lat":43.31078,"lon":5.38365,"is_reserved":false,"is_disabled":false,"rental_uris":{"android":"levelo://app?vid=db1c8f57-0229-4e9c-aa6b-c7612497ffc0","ios":"levelo://app?vid=db1c8f57-0229-4e9c-aa6b-c7612497ffc0"},"vehicle_type_id":"4","last_reported":1730632062,"current_range_meters":16400,"station_id":"ce4bgv92rcd13ifvqcr0","pricing_plan_id":"cebpf4jnsgd1na2vs0mg"},{"bike_id":"2202188e-6b1a-4635-b1ad-b8ef89e609c4","system_id":"levelo_inurba_marseille","lat":43.25497,"lon":5.37646,"is_reserved":false,"is_disabled":false,"rental_uris":{"android":"levelo://app?vid=2202188e-6b1a-4635-b1ad-b8ef89e609c4","ios":"levelo://app?vid=2202188e-6b1a-4635-b1ad-b8ef89e609c4"},"vehicle_type_id":"4","last_reported":1730632062,"current_range_meters":40000,"station_id":"ce4bhh12rcd13ifvqff0","pricing_plan_id":"cebpf4jnsgd1na2vs0mg"},{"bike_id":"e4076913-25a7-4304-83b4-9b1933c6ed9b","system_id":"levelo_inurba_marseille","lat":43.28004,"lon":5.4,"is_reserved":false,"is_disabled":false,"rental_uris":{"android":"levelo://app?vid=e4076913-25a7-4304-83b4-9b1933c6ed9b","ios":"levelo://app?vid=e4076913-25a7-4304-83b4-9b1933c6ed9b"},"vehicle_type_id":"4","last_reported":1730632062,"current_range_meters":38800,"station_id":"ce4bho92rcd13ifvqh4g","pricing_plan_id":"cebpf4jnsgd1na2vs0mg"},{"bike_id":"24ffd7c5-6473-484d-9c6b-b6420825c8ed","system_id":"levelo_inurba_marseille","lat":43.29898,"lon":5.43665,"is_reserved":false,"is_disabled":false,"rental_uris":{"android":"levelo://app?vid=24ffd7c5-6473-484d-9c6b-b6420825c8ed","ios":"levelo://app?vid=24ffd7c5-6473-484d-9c6b-b6420825c8ed"},"vehicle_type_id":"4","last_reported":1730632062,"current_range_meters":38400,"station_id":"ce4bhpp2rcd13ifvqhfg","pricing_plan_id":"cebpf4jnsgd1na2vs0mg"},{"bike_id":"977219da-76a7-4d8f-a196-6e4f2d9787c4","system_id":"levelo_inurba_marseille","lat":43.26782,"lon":5.3942,"is_reserved":false,"is_disabled":false,"rental_uris":{"android":"levelo://app?vid=977219da-76a7-4d8f-a196-6e4f2d9787c4","ios":"levelo://app?vid=977219da-76a7-4d8f-a196-6e4f2d9787c4"},"vehicle_type_id":"4","last_reported":1730632062,"current_range_meters":38800,"station_id":"ce4bhh12rcd13ifvqfg0","pricing_plan_id":"cebpf4jnsgd1na2vs0mg"},{"bike_id":"00d7a89a-34f2-494c-aef2-a2e4d30ac1f6","system_id":"levelo_inurba_marseille","lat":43.287235,"lon":5.379381,"is_reserved":false,"is_disabled":false,"rental_uris":{"android":"levelo://app?vid=00d7a89a-34f2-494c-aef2-a2e4d30ac1f6","ios":"levelo://app?vid=00d7a89a-34f2-494c-aef2-a2e4d30ac1f6"},"vehicle_type_id":"4","last_reported":1730632062,"current_range_meters":26000,"station_id":"ce4bh9p2rcd13ifvqec0","pricing_plan_id":"cebpf4jnsgd1na2vs0mg"},{"bike_id":"086366aa-b8a0-482c-b4ac-e470df673ca9","system_id":"levelo_inurba_marseille","lat":43.27179,"lon":5.40994,"is_reserved":false,"is_disabled":false,"rental_uris":{"android":"levelo://app?vid=086366aa-b8a0-482c-b4ac-e470df673ca9","ios":"levelo://app?vid=086366aa-b8a0-482c-b4ac-e470df673ca9"},"vehicle_type_id":"4","last_reported":1730632062,"current_range_meters":20000,"station_id":"ce4bhl12rcd13ifvqgf0","pricing_plan_id":"cebpf4jnsgd1na2vs0mg"},{"bike_id":"6e6c1416-464f-4f03-9742-bebcc8a06f1e","system_id":"levelo_inurba_marseille","lat":43.31758,"lon":5.39015,"is_reserved":false,"is_disabled":false,"rental_uris":{"android":"levelo://app?vid=6e6c1416-464f-4f03-9742-bebcc8a06f1e","ios":"levelo://app?vid=6e6c1416-464f-4f03-9742-bebcc8a06f1e"},"vehicle_type_id":"4","last_reported":1730632062,"current_range_meters":38800,"station_id":"ce4bhqp2rcd13ifvqhng","pricing_plan_id":"cebpf4jnsgd1na2vs0mg"},{"bike_id":"68ee4823-8219-4e40-934b-3c46becc94f7","system_id":"levelo_inurba_marseille","lat":43.31072,"lon":5.38343,"is_reserved":false,"is_disabled":false,"rental_uris":{"android":"levelo://app?vid=68ee4823-8219-4e40-934b-3c46becc94f7","ios":"levelo://app?vid=68ee4823-8219-4e40-934b-3c46becc94f7"},"vehicle_type_id":"4","last_reported":1730632062,"current_range_meters":30000,"station_id":"ce4bgv92rcd13ifvqcr0","pricing_plan_id":"cebpf4jnsgd1na2vs0mg"},{"bike_id":"4b775463-cf5a-40b4-8149-f6b055abd79c","system_id":"levelo_inurba_marseille","lat":43.26487,"lon":5.39552,"is_reserved":false,"is_disabled":false,"rental_uris":{"android":"levelo://app?vid=4b775463-cf5a-40b4-8149-f6b055abd79c","ios":"levelo://app?vid=4b775463-cf5a-40b4-8149-f6b055abd79c"},"vehicle_type_id":"4","last_reported":1730632062,"current_range_meters":38000,"station_id":"ce4bhi12rcd13ifvqfq0","pricing_plan_id":"cebpf4jnsgd1na2vs0mg"},{"bike_id":"1dcf500d-c47f-4d71-bfdf-06bc5c6d0bf9","system_id":"levelo_inurba_marseille","lat":43.29921,"lon":5.37457,"is_reserved":false,"is_disabled":false,"rental_uris":{"android":"levelo://app?vid=1dcf500d-c47f-4d71-bfdf-06bc5c6d0bf9","ios":"levelo://app?vid=1dcf500d-c47f-4d71-bfdf-06bc5c6d0bf9"},"vehicle_type_id":"4","last_reported":1730632062,"current_range_meters":26000,"station_id":"ce4bgjh2rcd13ifvqbg0","pricing_plan_id":"cebpf4jnsgd1na2vs0mg"},{"bike_id":"3bd6119d-d638-4146-a4b1-500bfb92e1e4","system_id":"levelo_inurba_marseille","lat":43.258336,"lon":5.394406,"is_reserved":false,"is_disabled":false,"rental_uris":{"android":"levelo://app?vid=3bd6119d-d638-4146-a4b1-500bfb92e1e4","ios":"levelo://app?vid=3bd6119d-d638-4146-a4b1-500bfb92e1e4"},"vehicle_type_id":"4","last_reported":1730632062,"current_range_meters":36000,"station_id":"ce4bhip2rcd13ifvqft0","pricing_plan_id":"cebpf4jnsgd1na2vs0mg"},{"bike_id":"ea16dcf0-c487-46de-8792-a524571c7d70","system_id":"levelo_inurba_marseille","lat":43.2481,"lon":5.37452,"is_reserved":false,"is_disabled":false,"rental_uris":{"android":"levelo://app?vid=ea16dcf0-c487-46de-8792-a524571c7d70","ios":"levelo://app?vid=ea16dcf0-c487-46de-8792-a524571c7d70"},"vehicle_type_id":"4","last_reported":1730632062,"current_range_meters":24400,"station_id":"ce4bhgh2rcd13ifvqfb0","pricing_plan_id":"cebpf4jnsgd1na2vs0mg"},{"bike_id":"44062d9d-68c9-40e6-abbd-6934a4ae966d","system_id":"levelo_inurba_marseille","lat":43.28934,"lon":5.36619,"is_reserved":false,"is_disabled":false,"rental_uris":{"android":"levelo://app?vid=44062d9d-68c9-40e6-abbd-6934a4ae966d","ios":"levelo://app?vid=44062d9d-68c9-40e6-abbd-6934a4ae966d"},"vehicle_type_id":"4","last_reported":1730632062,"current_range_meters":35600,"station_id":"ce4bhap2rcd13ifvqek0","pricing_plan_id":"cebpf4jnsgd1na2vs0mg"},{"bike_id":"581392ef-bf00-4538-9de0-6e66c216240f","system_id":"levelo_inurba_marseille","lat":43.24653,"lon":5.38883,"is_reserved":false,"is_disabled":false,"rental_uris":{"android":"levelo://app?vid=581392ef-bf00-4538-9de0-6e66c216240f","ios":"levelo://app?vid=581392ef-bf00-4538-9de0-6e66c216240f"},"vehicle_type_id":"4","last_reported":1730632062,"current_range_meters":30400,"station_id":"ce4bhg12rcd13ifvqf60","pricing_plan_id":"cebpf4jnsgd1na2vs0mg"},{"bike_id":"8c67d340-801d-46e5-b910-2f8aff3ff078","system_id":"levelo_inurba_marseille","lat":43.33314,"lon":5.37062,"is_reserved":false,"is_disabled":false,"rental_uris":{"android":"levelo://app?vid=8c67d340-801d-46e5-b910-2f8aff3ff078","ios":"levelo://app?vid=8c67d340-801d-46e5-b910-2f8aff3ff078"},"vehicle_type_id":"4","last_reported":1730632062,"current_range_meters":6800,"station_id":"","pricing_plan_id":"cebpf4jnsgd1na2vs0mg"},{"bike_id":"4a54db5d-2977-47eb-bcae-c8880baddda0","system_id":"levelo_inurba_marseille","lat":43.24996,"lon":5.38934,"is_reserved":false,"is_disabled":false,"rental_uris":{"android":"levelo://app?vid=4a54db5d-2977-47eb-bcae-c8880baddda0","ios":"levelo://app?vid=4a54db5d-2977-47eb-bcae-c8880baddda0"},"vehicle_type_id":"4","last_reported":1730632062,"current_range_meters":30000,"station_id":"ce4bhgp2rcd13ifvqfd0","pricing_plan_id":"cebpf4jnsgd1na2vs0mg"},{"bike_id":"f326d985-6193-4e35-a243-5b52e51d95fb","system_id":"levelo_inurba_marseille","lat":43.26782,"lon":5.39414,"is_reserved":false,"is_disabled":false,"rental_uris":{"android":"levelo://app?vid=f326d985-6193-4e35-a243-5b52e51d95fb","ios":"levelo://app?vid=f326d985-6193-4e35-a243-5b52e51d95fb"},"vehicle_type_id":"4","last_reported":1730632062,"current_range_meters":26800,"station_id":"ce4bhh12rcd13ifvqfg0","pricing_plan_id":"cebpf4jnsgd1na2vs0mg"},{"bike_id":"921069e2-e506-477e-8730-9e0ff76dae61","system_id":"levelo_inurba_marseille","lat":43.2407,"lon":5.377581,"is_reserved":false,"is_disabled":false,"rental_uris":{"android":"levelo://app?vid=921069e2-e506-477e-8730-9e0ff76dae61","ios":"levelo://app?vid=921069e2-e506-477e-8730-9e0ff76dae61"},"vehicle_type_id":"4","last_reported":1730632062,"current_range_meters":36800,"station_id":"ce4bhnp2rcd13ifvqgvg","pricing_plan_id":"cebpf4jnsgd1na2vs0mg"},{"bike_id":"79f5032c-4427-40bb-bbad-7f35acb21ebc","system_id":"levelo_inurba_marseille","lat":43.32295,"lon":5.38274,"is_reserved":false,"is_disabled":false,"rental_uris":{"android":"levelo://app?vid=79f5032c-4427-40bb-bbad-7f35acb21ebc","ios":"levelo://app?vid=79f5032c-4427-40bb-bbad-7f35acb21ebc"},"vehicle_type_id":"4","last_reported":1730632062,"current_range_meters":19600,"station_id":"ce4bhr12rcd13ifvqhqg","pricing_plan_id":"cebpf4jnsgd1na2vs0mg"},{"bike_id":"704eba55-73fe-495c-8b3d-68b1d87c8902","system_id":"levelo_inurba_marseille","lat":43.298,"lon":5.40409,"is_reserved":false,"is_disabled":false,"rental_uris":{"android":"levelo://app?vid=704eba55-73fe-495c-8b3d-68b1d87c8902","ios":"levelo://app?vid=704eba55-73fe-495c-8b3d-68b1d87c8902"},"vehicle_type_id":"4","last_reported":1730632062,"current_range_meters":22000,"station_id":"ce4bh112rcd13ifvqd90","pricing_plan_id":"cebpf4jnsgd1na2vs0mg"},{"bike_id":"583cb6bb-b534-43e6-8a0b-9635de46e93f","system_id":"levelo_inurba_marseille","lat":43.26206,"lon":5.37918,"is_reserved":false,"is_disabled":false,"rental_uris":{"android":"levelo://app?vid=583cb6bb-b534-43e6-8a0b-9635de46e93f","ios":"levelo://app?vid=583cb6bb-b534-43e6-8a0b-9635de46e93f"},"vehicle_type_id":"4","last_reported":1730632062,"current_range_meters":15200,"station_id":"ce4bhjp2rcd13ifvqg90","pricing_plan_id":"cebpf4jnsgd1na2vs0mg"},{"bike_id":"796d27d9-d5a6-4529-8404-5362047e2ebe","system_id":"levelo_inurba_marseille","lat":43.26785,"lon":5.39415,"is_reserved":false,"is_disabled":false,"rental_uris":{"android":"levelo://app?vid=796d27d9-d5a6-4529-8404-5362047e2ebe","ios":"levelo://app?vid=796d27d9-d5a6-4529-8404-5362047e2ebe"},"vehicle_type_id":"4","last_reported":1730632062,"current_range_meters":38800,"station_id":"ce4bhh12rcd13ifvqfg0","pricing_plan_id":"cebpf4jnsgd1na2vs0mg"},{"bike_id":"59257fb1-f731-4613-bb55-696c66e65405","system_id":"levelo_inurba_marseille","lat":43.32035,"lon":5.41549,"is_reserved":false,"is_disabled":false,"rental_uris":{"android":"levelo://app?vid=59257fb1-f731-4613-bb55-696c66e65405","ios":"levelo://app?vid=59257fb1-f731-4613-bb55-696c66e65405"},"vehicle_type_id":"4","last_reported":1730632062,"current_range_meters":38000,"station_id":"ce4bhq92rcd13ifvqhkg","pricing_plan_id":"cebpf4jnsgd1na2vs0mg"},{"bike_id":"fce568d5-e66a-4e50-942c-f7cb165d5a9f","system_id":"levelo_inurba_marseille","lat":43.23194,"lon":5.3555,"is_reserved":false,"is_disabled":false,"rental_uris":{"android":"levelo://app?vid=fce568d5-e66a-4e50-942c-f7cb165d5a9f","ios":"levelo://app?vid=fce568d5-e66a-4e50-942c-f7cb165d5a9f"},"vehicle_type_id":"4","last_reported":1730632062,"current_range_meters":26000,"station_id":"ce4bhu92rcd13ifvqi70","pricing_plan_id":"cebpf4jnsgd1na2vs0mg"},{"bike_id":"1b76da04-24af-4551-be92-5b5e0e7c5288","system_id":"levelo_inurba_marseille","lat":43.27493,"lon":5.42446,"is_reserved":false,"is_disabled":false,"rental_uris":{"android":"levelo://app?vid=1b76da04-24af-4551-be92-5b5e0e7c5288","ios":"levelo://app?vid=1b76da04-24af-4551-be92-5b5e0e7c5288"},"vehicle_type_id":"4","last_reported":1730632062,"current_range_meters":38800,"station_id":"ce4bhn92rcd13ifvqgrg","pricing_plan_id":"cebpf4jnsgd1na2vs0mg"},{"bike_id":"70b7e9b9-6347-4fb1-9c26-6da2cc7881cc","system_id":"levelo_inurba_marseille","lat":43.29276,"lon":5.36846,"is_reserved":false,"is_disabled":false,"rental_uris":{"android":"levelo://app?vid=70b7e9b9-6347-4fb1-9c26-6da2cc7881cc","ios":"levelo://app?vid=70b7e9b9-6347-4fb1-9c26-6da2cc7881cc"},"vehicle_type_id":"4","last_reported":1730632062,"current_range_meters":37600,"station_id":"ce4bhbp2rcd13ifvqesg","pricing_plan_id":"cebpf4jnsgd1na2vs0mg"},{"bike_id":"89e814bf-86ea-4b53-9409-bf339d34a27e","system_id":"levelo_inurba_marseille","lat":43.29226,"lon":5.36063,"is_reserved":false,"is_disabled":false,"rental_uris":{"android":"levelo://app?vid=89e814bf-86ea-4b53-9409-bf339d34a27e","ios":"levelo://app?vid=89e814bf-86ea-4b53-9409-bf339d34a27e"},"vehicle_type_id":"4","last_reported":1730632062,"current_range_meters":13600,"station_id":"ce4bhbh2rcd13ifvqeqg","pricing_plan_id":"cebpf4jnsgd1na2vs0mg"},{"bike_id":"e0632ef3-3557-4961-b785-ed73076680c9","system_id":"levelo_inurba_marseille","lat":43.29843,"lon":5.36273,"is_reserved":false,"is_disabled":false,"rental_uris":{"android":"levelo://app?vid=e0632ef3-3557-4961-b785-ed73076680c9","ios":"levelo://app?vid=e0632ef3-3557-4961-b785-ed73076680c9"},"vehicle_type_id":"4","last_reported":1730632062,"current_range_meters":39200,"station_id":"ce4bgpp2rcd13ifvqc3g","pricing_plan_id":"cebpf4jnsgd1na2vs0mg"},{"bike_id":"5d95af53-ef37-4a02-a0bc-0eeb53b81c11","system_id":"levelo_inurba_marseille","lat":43.29305,"lon":5.37457,"is_reserved":false,"is_disabled":false,"rental_uris":{"android":"levelo://app?vid=5d95af53-ef37-4a02-a0bc-0eeb53b81c11","ios":"levelo://app?vid=5d95af53-ef37-4a02-a0bc-0eeb53b81c11"},"vehicle_type_id":"4","last_reported":1730632062,"current_range_meters":19200,"station_id":"ce4bgi12rcd13ifvqb70","pricing_plan_id":"cebpf4jnsgd1na2vs0mg"},{"bike_id":"d5324ca5-5a3a-4892-bb8c-7dbf331e6ea6","system_id":"levelo_inurba_marseille","lat":43.32479,"lon":5.36567,"is_reserved":false,"is_disabled":false,"rental_uris":{"android":"levelo://app?vid=d5324ca5-5a3a-4892-bb8c-7dbf331e6ea6","ios":"levelo://app?vid=d5324ca5-5a3a-4892-bb8c-7dbf331e6ea6"},"vehicle_type_id":"4","last_reported":1730632062,"current_range_meters":38800,"station_id":"ce4bhs12rcd13ifvqhvg","pricing_plan_id":"cebpf4jnsgd1na2vs0mg"},{"bike_id":"8d0e0ec2-7dba-4f09-bf00-5051225b6124","system_id":"levelo_inurba_marseille","lat":43.29735,"lon":5.37691,"is_reserved":false,"is_disabled":false,"rental_uris":{"android":"levelo://app?vid=8d0e0ec2-7dba-4f09-bf00-5051225b6124","ios":"levelo://app?vid=8d0e0ec2-7dba-4f09-bf00-5051225b6124"},"vehicle_type_id":"4","last_reported":1730632062,"current_range_meters":37600,"station_id":"ce4bgkh2rcd13ifvqbl0","pricing_plan_id":"cebpf4jnsgd1na2vs0mg"},{"bike_id":"00fa2031-46a9-49f9-a788-1b41648c535a","system_id":"levelo_inurba_marseille","lat":43.22935,"lon":5.35373,"is_reserved":false,"is_disabled":false,"rental_uris":{"android":"levelo://app?vid=00fa2031-46a9-49f9-a788-1b41648c535a","ios":"levelo://app?vid=00fa2031-46a9-49f9-a788-1b41648c535a"},"vehicle_type_id":"4","last_reported":1730632062,"current_range_meters":26800,"station_id":"cpo3532slgdg3j2ikp40","pricing_plan_id":"cebpf4jnsgd1na2vs0mg"},{"bike_id":"3e5789a9-8473-4354-a555-f09907fe1728","system_id":"levelo_inurba_marseille","lat":43.28268,"lon":5.35068,"is_reserved":false,"is_disabled":false,"rental_uris":{"android":"levelo://app?vid=3e5789a9-8473-4354-a555-f09907fe1728","ios":"levelo://app?vid=3e5789a9-8473-4354-a555-f09907fe1728"},"vehicle_type_id":"4","last_reported":1730632062,"current_range_meters":39200,"station_id":"ce4bhbp2rcd13ifvqerg","pricing_plan_id":"cebpf4jnsgd1na2vs0mg"},{"bike_id":"9fa1a9d5-7801-4389-bdf4-57ccb7dd7aae","system_id":"levelo_inurba_marseille","lat":43.28481,"lon":5.38422,"is_reserved":false,"is_disabled":false,"rental_uris":{"android":"levelo://app?vid=9fa1a9d5-7801-4389-bdf4-57ccb7dd7aae","ios":"levelo://app?vid=9fa1a9d5-7801-4389-bdf4-57ccb7dd7aae"},"vehicle_type_id":"4","last_reported":1730632062,"current_range_meters":28800,"station_id":"ce4bh512rcd13ifvqe3g","pricing_plan_id":"cebpf4jnsgd1na2vs0mg"},{"bike_id":"5c74527c-010a-411f-8275-f8d2754af41e","system_id":"levelo_inurba_marseille","lat":43.28155,"lon":5.42641,"is_reserved":false,"is_disabled":false,"rental_uris":{"android":"levelo://app?vid=5c74527c-010a-411f-8275-f8d2754af41e","ios":"levelo://app?vid=5c74527c-010a-411f-8275-f8d2754af41e"},"vehicle_type_id":"4","last_reported":1730632062,"current_range_meters":38000,"station_id":"ce4bhnh2rcd13ifvqgug","pricing_plan_id":"cebpf4jnsgd1na2vs0mg"},{"bike_id":"3a179b56-77d5-4b59-92ba-5b4c95fb8e6c","system_id":"levelo_inurba_marseille","lat":43.26789,"lon":5.39413,"is_reserved":false,"is_disabled":false,"rental_uris":{"android":"levelo://app?vid=3a179b56-77d5-4b59-92ba-5b4c95fb8e6c","ios":"levelo://app?vid=3a179b56-77d5-4b59-92ba-5b4c95fb8e6c"},"vehicle_type_id":"4","last_reported":1730632062,"current_range_meters":38000,"station_id":"ce4bhh12rcd13ifvqfg0","pricing_plan_id":"cebpf4jnsgd1na2vs0mg"},{"bike_id":"30b7a946-ec79-428d-b0f5-4404e9cfc665","system_id":"levelo_inurba_marseille","lat":43.29574,"lon":5.37526,"is_reserved":false,"is_disabled":false,"rental_uris":{"android":"levelo://app?vid=30b7a946-ec79-428d-b0f5-4404e9cfc665","ios":"levelo://app?vid=30b7a946-ec79-428d-b0f5-4404e9cfc665"},"vehicle_type_id":"4","last_reported":1730632062,"current_range_meters":37600,"station_id":"ce4bgh92rcd13ifvqb50","pricing_plan_id":"cebpf4jnsgd1na2vs0mg"},{"bike_id":"aa6b217c-bcbf-43b7-a776-4f6310e2e7a7","system_id":"levelo_inurba_marseille","lat":43.27377,"lon":5.3625,"is_reserved":false,"is_disabled":false,"rental_uris":{"android":"levelo://app?vid=aa6b217c-bcbf-43b7-a776-4f6310e2e7a7","ios":"levelo://app?vid=aa6b217c-bcbf-43b7-a776-4f6310e2e7a7"},"vehicle_type_id":"4","last_reported":1730632062,"current_range_meters":10800,"station_id":"ce4bhbh2rcd13ifvqeo0","pricing_plan_id":"cebpf4jnsgd1na2vs0mg"},{"bike_id":"04b55f9a-b28b-4505-a7ac-dbe57ec6aab8","system_id":"levelo_inurba_marseille","lat":43.23064,"lon":5.35488,"is_reserved":false,"is_disabled":false,"rental_uris":{"android":"levelo://app?vid=04b55f9a-b28b-4505-a7ac-dbe57ec6aab8","ios":"levelo://app?vid=04b55f9a-b28b-4505-a7ac-dbe57ec6aab8"},"vehicle_type_id":"4","last_reported":1730632062,"current_range_meters":25600,"station_id":"cpo3342slgdg3j2ifvpg","pricing_plan_id":"cebpf4jnsgd1na2vs0mg"},{"bike_id":"c36500d8-3c1b-40b4-b412-de69c457b9cb","system_id":"levelo_inurba_marseille","lat":43.27619,"lon":5.41737,"is_reserved":false,"is_disabled":false,"rental_uris":{"android":"levelo://app?vid=c36500d8-3c1b-40b4-b412-de69c457b9cb","ios":"levelo://app?vid=c36500d8-3c1b-40b4-b412-de69c457b9cb"},"vehicle_type_id":"4","last_reported":1730632062,"current_range_meters":8000,"station_id":"","pricing_plan_id":"cebpf4jnsgd1na2vs0mg"},{"bike_id":"477d9759-9655-4541-82c7-c27c886d0ee2","system_id":"levelo_inurba_marseille","lat":43.27818,"lon":5.40712,"is_reserved":false,"is_disabled":false,"rental_uris":{"android":"levelo://app?vid=477d9759-9655-4541-82c7-c27c886d0ee2","ios":"levelo://app?vid=477d9759-9655-4541-82c7-c27c886d0ee2"},"vehicle_type_id":"4","last_reported":1730632062,"current_range_meters":36800,"station_id":"ce4bhnh2rcd13ifvqgtg","pricing_plan_id":"cebpf4jnsgd1na2vs0mg"},{"bike_id":"944fddd6-b40e-4821-9ea8-a89df4cf3005","system_id":"levelo_inurba_marseille","lat":43.2869,"lon":5.37404,"is_reserved":false,"is_disabled":false,"rental_uris":{"android":"levelo://app?vid=944fddd6-b40e-4821-9ea8-a89df4cf3005","ios":"levelo://app?vid=944fddd6-b40e-4821-9ea8-a89df4cf3005"},"vehicle_type_id":"4","last_reported":1730632062,"current_range_meters":25600,"station_id":"ce4bh3p2rcd13ifvqdq0","pricing_plan_id":"cebpf4jnsgd1na2vs0mg"},{"bike_id":"7a4e2d57-d1da-42e4-9e3c-039f761f1f11","system_id":"levelo_inurba_marseille","lat":43.29573,"lon":5.39982,"is_reserved":false,"is_disabled":false,"rental_uris":{"android":"levelo://app?vid=7a4e2d57-d1da-42e4-9e3c-039f761f1f11","ios":"levelo://app?vid=7a4e2d57-d1da-42e4-9e3c-039f761f1f11"},"vehicle_type_id":"4","last_reported":1730632062,"current_range_meters":17200,"station_id":"ce4bh312rcd13ifvqdj0","pricing_plan_id":"cebpf4jnsgd1na2vs0mg"},{"bike_id":"ab9cb399-eeb7-4811-b418-db73fb440597","system_id":"levelo_inurba_marseille","lat":43.26197,"lon":5.37921,"is_reserved":false,"is_disabled":false,"rental_uris":{"android":"levelo://app?vid=ab9cb399-eeb7-4811-b418-db73fb440597","ios":"levelo://app?vid=ab9cb399-eeb7-4811-b418-db73fb440597"},"vehicle_type_id":"4","last_reported":1730632062,"current_range_meters":38800,"station_id":"ce4bhjp2rcd13ifvqg90","pricing_plan_id":"cebpf4jnsgd1na2vs0mg"},{"bike_id":"c5240f36-8240-4ee5-8a5b-f6352f14c639","system_id":"levelo_inurba_marseille","lat":43.24804,"lon":5.37454,"is_reserved":false,"is_disabled":false,"rental_uris":{"android":"levelo://app?vid=c5240f36-8240-4ee5-8a5b-f6352f14c639","ios":"levelo://app?vid=c5240f36-8240-4ee5-8a5b-f6352f14c639"},"vehicle_type_id":"4","last_reported":1730632062,"current_range_meters":32800,"station_id":"ce4bhgh2rcd13ifvqfb0","pricing_plan_id":"cebpf4jnsgd1na2vs0mg"},{"bike_id":"91de00ed-c4e1-486a-b6d5-a50ceba9ce7d","system_id":"levelo_inurba_marseille","lat":43.269958,"lon":5.402703,"is_reserved":false,"is_disabled":false,"rental_uris":{"android":"levelo://app?vid=91de00ed-c4e1-486a-b6d5-a50ceba9ce7d","ios":"levelo://app?vid=91de00ed-c4e1-486a-b6d5-a50ceba9ce7d"},"vehicle_type_id":"4","last_reported":1730632062,"current_range_meters":36400,"station_id":"cjm6bp8fraef2m0cb0m0","pricing_plan_id":"cebpf4jnsgd1na2vs0mg"},{"bike_id":"be23b86a-96ad-4454-96f0-174a783d7a69","system_id":"levelo_inurba_marseille","lat":43.28924,"lon":5.38388,"is_reserved":false,"is_disabled":false,"rental_uris":{"android":"levelo://app?vid=be23b86a-96ad-4454-96f0-174a783d7a69","ios":"levelo://app?vid=be23b86a-96ad-4454-96f0-174a783d7a69"},"vehicle_type_id":"4","last_reported":1730632062,"current_range_meters":35600,"station_id":"ce4bh612rcd13ifvqe6g","pricing_plan_id":"cebpf4jnsgd1na2vs0mg"},{"bike_id":"6ddabdc2-6a0c-4633-9194-8ef9d0164759","system_id":"levelo_inurba_marseille","lat":43.24662,"lon":5.38159,"is_reserved":false,"is_disabled":false,"rental_uris":{"android":"levelo://app?vid=6ddabdc2-6a0c-4633-9194-8ef9d0164759","ios":"levelo://app?vid=6ddabdc2-6a0c-4633-9194-8ef9d0164759"},"vehicle_type_id":"4","last_reported":1730632062,"current_range_meters":35600,"station_id":"ce4bhih2rcd13ifvqfr0","pricing_plan_id":"cebpf4jnsgd1na2vs0mg"},{"bike_id":"638eff34-bb0f-474e-915a-230b21dabca4","system_id":"levelo_inurba_marseille","lat":43.27368,"lon":5.36237,"is_reserved":false,"is_disabled":false,"rental_uris":{"android":"levelo://app?vid=638eff34-bb0f-474e-915a-230b21dabca4","ios":"levelo://app?vid=638eff34-bb0f-474e-915a-230b21dabca4"},"vehicle_type_id":"4","last_reported":1730632062,"current_range_meters":20400,"station_id":"ce4bhbh2rcd13ifvqeo0","pricing_plan_id":"cebpf4jnsgd1na2vs0mg"},{"bike_id":"f4ed2854-93d3-4329-9045-e88661c61d8a","system_id":"levelo_inurba_marseille","lat":43.306,"lon":5.37204,"is_reserved":false,"is_disabled":false,"rental_uris":{"android":"levelo://app?vid=f4ed2854-93d3-4329-9045-e88661c61d8a","ios":"levelo://app?vid=f4ed2854-93d3-4329-9045-e88661c61d8a"},"vehicle_type_id":"4","last_reported":1730632062,"current_range_meters":34800,"station_id":"ce4bgqh2rcd13ifvqc4g","pricing_plan_id":"cebpf4jnsgd1na2vs0mg"},{"bike_id":"1051452d-faeb-4ea4-8673-bde19c2e9e03","system_id":"levelo_inurba_marseille","lat":43.283722,"lon":5.350174,"is_reserved":false,"is_disabled":false,"rental_uris":{"android":"levelo://app?vid=1051452d-faeb-4ea4-8673-bde19c2e9e03","ios":"levelo://app?vid=1051452d-faeb-4ea4-8673-bde19c2e9e03"},"vehicle_type_id":"4","last_reported":1730632062,"current_range_meters":25200,"station_id":"ce4bhbh2rcd13ifvqepg","pricing_plan_id":"cebpf4jnsgd1na2vs0mg"},{"bike_id":"5e7aef04-5f8f-4931-b686-969187b73c69","system_id":"levelo_inurba_marseille","lat":43.27369,"lon":5.36246,"is_reserved":false,"is_disabled":false,"rental_uris":{"android":"levelo://app?vid=5e7aef04-5f8f-4931-b686-969187b73c69","ios":"levelo://app?vid=5e7aef04-5f8f-4931-b686-969187b73c69"},"vehicle_type_id":"4","last_reported":1730632062,"current_range_meters":38800,"station_id":"ce4bhbh2rcd13ifvqeo0","pricing_plan_id":"cebpf4jnsgd1na2vs0mg"},{"bike_id":"b27b6b18-d801-4b0b-a4e3-bc55bc4a9aed","system_id":"levelo_inurba_marseille","lat":43.25719,"lon":5.41104,"is_reserved":false,"is_disabled":false,"rental_uris":{"android":"levelo://app?vid=b27b6b18-d801-4b0b-a4e3-bc55bc4a9aed","ios":"levelo://app?vid=b27b6b18-d801-4b0b-a4e3-bc55bc4a9aed"},"vehicle_type_id":"4","last_reported":1730632062,"current_range_meters":34000,"station_id":"ce4bhkp2rcd13ifvqgd0","pricing_plan_id":"cebpf4jnsgd1na2vs0mg"},{"bike_id":"030048a7-4e8e-4f67-a773-ea92143092a0","system_id":"levelo_inurba_marseille","lat":43.30244,"lon":5.40069,"is_reserved":false,"is_disabled":false,"rental_uris":{"android":"levelo://app?vid=030048a7-4e8e-4f67-a773-ea92143092a0","ios":"levelo://app?vid=030048a7-4e8e-4f67-a773-ea92143092a0"},"vehicle_type_id":"4","last_reported":1730632062,"current_range_meters":34000,"station_id":"ce4bgvh2rcd13ifvqcs0","pricing_plan_id":"cebpf4jnsgd1na2vs0mg"},{"bike_id":"2921df27-5f4d-405e-8967-ba024d0dbdcf","system_id":"levelo_inurba_marseille","lat":43.304276,"lon":5.388866,"is_reserved":false,"is_disabled":false,"rental_uris":{"android":"levelo://app?vid=2921df27-5f4d-405e-8967-ba024d0dbdcf","ios":"levelo://app?vid=2921df27-5f4d-405e-8967-ba024d0dbdcf"},"vehicle_type_id":"4","last_reported":1730632062,"current_range_meters":39200,"station_id":"ce4bgk12rcd13ifvqbi0","pricing_plan_id":"cebpf4jnsgd1na2vs0mg"},{"bike_id":"9f8f5488-c68d-40f1-9b9e-aa88d990793e","system_id":"levelo_inurba_marseille","lat":43.29032,"lon":5.39969,"is_reserved":false,"is_disabled":false,"rental_uris":{"android":"levelo://app?vid=9f8f5488-c68d-40f1-9b9e-aa88d990793e","ios":"levelo://app?vid=9f8f5488-c68d-40f1-9b9e-aa88d990793e"},"vehicle_type_id":"4","last_reported":1730632062,"current_range_meters":3200,"station_id":"ce4bh392rcd13ifvqdm0","pricing_plan_id":"cebpf4jnsgd1na2vs0mg"},{"bike_id":"db42ace6-0614-4561-8111-90fbd19d0f9c","system_id":"levelo_inurba_marseille","lat":43.29579,"lon":5.36731,"is_reserved":false,"is_disabled":false,"rental_uris":{"android":"levelo://app?vid=db42ace6-0614-4561-8111-90fbd19d0f9c","ios":"levelo://app?vid=db42ace6-0614-4561-8111-90fbd19d0f9c"},"vehicle_type_id":"4","last_reported":1730632062,"current_range_meters":8400,"station_id":"ce4bgph2rcd13ifvqc2g","pricing_plan_id":"cebpf4jnsgd1na2vs0mg"},{"bike_id":"93ead257-7be9-4d01-a5e2-e6937636f755","system_id":"levelo_inurba_marseille","lat":43.27327,"lon":5.39087,"is_reserved":false,"is_disabled":false,"rental_uris":{"android":"levelo://app?vid=93ead257-7be9-4d01-a5e2-e6937636f755","ios":"levelo://app?vid=93ead257-7be9-4d01-a5e2-e6937636f755"},"vehicle_type_id":"4","last_reported":1730632062,"current_range_meters":35600,"station_id":"ce4bhgp2rcd13ifvqfe0","pricing_plan_id":"cebpf4jnsgd1na2vs0mg"},{"bike_id":"45a9d9a7-83a5-4e18-b464-0249954955c8","system_id":"levelo_inurba_marseille","lat":43.23151,"lon":5.43698,"is_reserved":false,"is_disabled":false,"rental_uris":{"android":"levelo://app?vid=45a9d9a7-83a5-4e18-b464-0249954955c8","ios":"levelo://app?vid=45a9d9a7-83a5-4e18-b464-0249954955c8"},"vehicle_type_id":"4","last_reported":1730632062,"current_range_meters":37600,"station_id":"ce4bhmp2rcd13ifvqgog","pricing_plan_id":"cebpf4jnsgd1na2vs0mg"},{"bike_id":"a13a6f27-c8b2-42b7-996f-8e1c0665131f","system_id":"levelo_inurba_marseille","lat":43.25108,"lon":5.40324,"is_reserved":false,"is_disabled":false,"rental_uris":{"android":"levelo://app?vid=a13a6f27-c8b2-42b7-996f-8e1c0665131f","ios":"levelo://app?vid=a13a6f27-c8b2-42b7-996f-8e1c0665131f"},"vehicle_type_id":"4","last_reported":1730632062,"current_range_meters":25600,"station_id":"ce4bhlh2rcd13ifvqgig","pricing_plan_id":"cebpf4jnsgd1na2vs0mg"},{"bike_id":"d7f4aa50-cdd2-4733-ae0c-18cd5aa4b206","system_id":"levelo_inurba_marseille","lat":43.31712,"lon":5.37759,"is_reserved":false,"is_disabled":false,"rental_uris":{"android":"levelo://app?vid=d7f4aa50-cdd2-4733-ae0c-18cd5aa4b206","ios":"levelo://app?vid=d7f4aa50-cdd2-4733-ae0c-18cd5aa4b206"},"vehicle_type_id":"4","last_reported":1730632062,"current_range_meters":38000,"station_id":"ce4bgth2rcd13ifvqch0","pricing_plan_id":"cebpf4jnsgd1na2vs0mg"},{"bike_id":"7c8e2182-8d5d-442a-9864-1cd9e1711753","system_id":"levelo_inurba_marseille","lat":43.3127,"lon":5.40155,"is_reserved":false,"is_disabled":false,"rental_uris":{"android":"levelo://app?vid=7c8e2182-8d5d-442a-9864-1cd9e1711753","ios":"levelo://app?vid=7c8e2182-8d5d-442a-9864-1cd9e1711753"},"vehicle_type_id":"4","last_reported":1730632062,"current_range_meters":19200,"station_id":"ce4bh092rcd13ifvqd30","pricing_plan_id":"cebpf4jnsgd1na2vs0mg"},{"bike_id":"e89fcef0-0a65-4cd8-a020-f18e3f1e75b5","system_id":"levelo_inurba_marseille","lat":43.30887,"lon":5.39626,"is_reserved":false,"is_disabled":false,"rental_uris":{"android":"levelo://app?vid=e89fcef0-0a65-4cd8-a020-f18e3f1e75b5","ios":"levelo://app?vid=e89fcef0-0a65-4cd8-a020-f18e3f1e75b5"},"vehicle_type_id":"4","last_reported":1730632062,"current_range_meters":38800,"station_id":"ce4bh012rcd13ifvqcv0","pricing_plan_id":"cebpf4jnsgd1na2vs0mg"},{"bike_id":"0b850123-a570-4b40-843c-6156401af725","system_id":"levelo_inurba_marseille","lat":43.29533,"lon":5.37497,"is_reserved":false,"is_disabled":false,"rental_uris":{"android":"levelo://app?vid=0b850123-a570-4b40-843c-6156401af725","ios":"levelo://app?vid=0b850123-a570-4b40-843c-6156401af725"},"vehicle_type_id":"4","last_reported":1730632062,"current_range_meters":9600,"station_id":"ce4bgkp2rcd13ifvqbmg","pricing_plan_id":"cebpf4jnsgd1na2vs0mg"},{"bike_id":"8270d534-5872-49a2-85b9-4123d7fbd5ee","system_id":"levelo_inurba_marseille","lat":43.28003,"lon":5.40001,"is_reserved":false,"is_disabled":false,"rental_uris":{"android":"levelo://app?vid=8270d534-5872-49a2-85b9-4123d7fbd5ee","ios":"levelo://app?vid=8270d534-5872-49a2-85b9-4123d7fbd5ee"},"vehicle_type_id":"4","last_reported":1730632062,"current_range_meters":30000,"station_id":"ce4bho92rcd13ifvqh4g","pricing_plan_id":"cebpf4jnsgd1na2vs0mg"},{"bike_id":"4b5f801f-a59f-40d3-ba08-b9578844c1e4","system_id":"levelo_inurba_marseille","lat":43.26565,"lon":5.3899,"is_reserved":false,"is_disabled":false,"rental_uris":{"android":"levelo://app?vid=4b5f801f-a59f-40d3-ba08-b9578844c1e4","ios":"levelo://app?vid=4b5f801f-a59f-40d3-ba08-b9578844c1e4"},"vehicle_type_id":"4","last_reported":1730632062,"current_range_meters":38800,"station_id":"ce4bhe12rcd13ifvqf30","pricing_plan_id":"cebpf4jnsgd1na2vs0mg"},{"bike_id":"ac6e4d7c-4cf4-4233-aca4-0f9953ecb824","system_id":"levelo_inurba_marseille","lat":43.319951,"lon":5.38145,"is_reserved":false,"is_disabled":false,"rental_uris":{"android":"levelo://app?vid=ac6e4d7c-4cf4-4233-aca4-0f9953ecb824","ios":"levelo://app?vid=ac6e4d7c-4cf4-4233-aca4-0f9953ecb824"},"vehicle_type_id":"4","last_reported":1730632062,"current_range_meters":38800,"station_id":"ce4bhr12rcd13ifvqhpg","pricing_plan_id":"cebpf4jnsgd1na2vs0mg"},{"bike_id":"addf2f83-4208-4130-bd37-d3cf23df67f0","system_id":"levelo_inurba_marseille","lat":43.264893,"lon":5.395493,"is_reserved":false,"is_disabled":false,"rental_uris":{"android":"levelo://app?vid=addf2f83-4208-4130-bd37-d3cf23df67f0","ios":"levelo://app?vid=addf2f83-4208-4130-bd37-d3cf23df67f0"},"vehicle_type_id":"4","last_reported":1730632062,"current_range_meters":35600,"station_id":"ce4bhi12rcd13ifvqfq0","pricing_plan_id":"cebpf4jnsgd1na2vs0mg"},{"bike_id":"396152cf-ba26-4565-95c8-291492b57098","system_id":"levelo_inurba_marseille","lat":43.34146,"lon":5.40898,"is_reserved":false,"is_disabled":false,"rental_uris":{"android":"levelo://app?vid=396152cf-ba26-4565-95c8-291492b57098","ios":"levelo://app?vid=396152cf-ba26-4565-95c8-291492b57098"},"vehicle_type_id":"4","last_reported":1730632062,"current_range_meters":21600,"station_id":"ce4bhqh2rcd13ifvqhlg","pricing_plan_id":"cebpf4jnsgd1na2vs0mg"},{"bike_id":"c3ee5e4e-cc2a-4120-b238-dacc4c1d2847","system_id":"levelo_inurba_marseille","lat":43.29839,"lon":5.36265,"is_reserved":false,"is_disabled":false,"rental_uris":{"android":"levelo://app?vid=c3ee5e4e-cc2a-4120-b238-dacc4c1d2847","ios":"levelo://app?vid=c3ee5e4e-cc2a-4120-b238-dacc4c1d2847"},"vehicle_type_id":"4","last_reported":1730632062,"current_range_meters":18000,"station_id":"ce4bgpp2rcd13ifvqc3g","pricing_plan_id":"cebpf4jnsgd1na2vs0mg"},{"bike_id":"56e2778f-d6a6-422e-9d2b-7eda3a6a6407","system_id":"levelo_inurba_marseille","lat":43.30804,"lon":5.3814,"is_reserved":false,"is_disabled":false,"rental_uris":{"android":"levelo://app?vid=56e2778f-d6a6-422e-9d2b-7eda3a6a6407","ios":"levelo://app?vid=56e2778f-d6a6-422e-9d2b-7eda3a6a6407"},"vehicle_type_id":"4","last_reported":1730632062,"current_range_meters":10800,"station_id":"ce4bgt12rcd13ifvqce0","pricing_plan_id":"cebpf4jnsgd1na2vs0mg"},{"bike_id":"0c3c0abe-a768-470b-b74d-2d16b191336c","system_id":"levelo_inurba_marseille","lat":43.28465,"lon":5.35873,"is_reserved":false,"is_disabled":false,"rental_uris":{"android":"levelo://app?vid=0c3c0abe-a768-470b-b74d-2d16b191336c","ios":"levelo://app?vid=0c3c0abe-a768-470b-b74d-2d16b191336c"},"vehicle_type_id":"4","last_reported":1730632062,"current_range_meters":9600,"station_id":"ce4bhah2rcd13ifvqei0","pricing_plan_id":"cebpf4jnsgd1na2vs0mg"},{"bike_id":"6c914174-dfef-40c0-8a4a-a6e17b9a9671","system_id":"levelo_inurba_marseille","lat":43.25116,"lon":5.40317,"is_reserved":false,"is_disabled":false,"rental_uris":{"android":"levelo://app?vid=6c914174-dfef-40c0-8a4a-a6e17b9a9671","ios":"levelo://app?vid=6c914174-dfef-40c0-8a4a-a6e17b9a9671"},"vehicle_type_id":"4","last_reported":1730632062,"current_range_meters":8000,"station_id":"ce4bhlh2rcd13ifvqgig","pricing_plan_id":"cebpf4jnsgd1na2vs0mg"},{"bike_id":"8c38ec10-d0fb-4571-a269-7521378f8586","system_id":"levelo_inurba_marseille","lat":43.26791,"lon":5.39404,"is_reserved":false,"is_disabled":false,"rental_uris":{"android":"levelo://app?vid=8c38ec10-d0fb-4571-a269-7521378f8586","ios":"levelo://app?vid=8c38ec10-d0fb-4571-a269-7521378f8586"},"vehicle_type_id":"4","last_reported":1730632062,"current_range_meters":38800,"station_id":"ce4bhh12rcd13ifvqfg0","pricing_plan_id":"cebpf4jnsgd1na2vs0mg"},{"bike_id":"ab6ac678-f1d3-47b0-9e49-163c040f6daa","system_id":"levelo_inurba_marseille","lat":43.29847,"lon":5.36274,"is_reserved":false,"is_disabled":false,"rental_uris":{"android":"levelo://app?vid=ab6ac678-f1d3-47b0-9e49-163c040f6daa","ios":"levelo://app?vid=ab6ac678-f1d3-47b0-9e49-163c040f6daa"},"vehicle_type_id":"4","last_reported":1730632062,"current_range_meters":36400,"station_id":"ce4bgpp2rcd13ifvqc3g","pricing_plan_id":"cebpf4jnsgd1na2vs0mg"},{"bike_id":"17ebbbcb-2cf9-4746-aa3c-b67cb03f093d","system_id":"levelo_inurba_marseille","lat":43.34144,"lon":5.40897,"is_reserved":false,"is_disabled":false,"rental_uris":{"android":"levelo://app?vid=17ebbbcb-2cf9-4746-aa3c-b67cb03f093d","ios":"levelo://app?vid=17ebbbcb-2cf9-4746-aa3c-b67cb03f093d"},"vehicle_type_id":"4","last_reported":1730632062,"current_range_meters":38800,"station_id":"ce4bhqh2rcd13ifvqhlg","pricing_plan_id":"cebpf4jnsgd1na2vs0mg"},{"bike_id":"5063b31e-668f-4f17-acf1-d5b4ff4b9c3c","system_id":"levelo_inurba_marseille","lat":43.23066,"lon":5.35488,"is_reserved":false,"is_disabled":false,"rental_uris":{"android":"levelo://app?vid=5063b31e-668f-4f17-acf1-d5b4ff4b9c3c","ios":"levelo://app?vid=5063b31e-668f-4f17-acf1-d5b4ff4b9c3c"},"vehicle_type_id":"4","last_reported":1730632062,"current_range_meters":25600,"station_id":"cpo3342slgdg3j2ifvpg","pricing_plan_id":"cebpf4jnsgd1na2vs0mg"},{"bike_id":"b92d31d0-89fd-461b-a460-8c64fa1cf8e7","system_id":"levelo_inurba_marseille","lat":43.28267,"lon":5.35061,"is_reserved":false,"is_disabled":false,"rental_uris":{"android":"levelo://app?vid=b92d31d0-89fd-461b-a460-8c64fa1cf8e7","ios":"levelo://app?vid=b92d31d0-89fd-461b-a460-8c64fa1cf8e7"},"vehicle_type_id":"4","last_reported":1730632062,"current_range_meters":17200,"station_id":"ce4bhbp2rcd13ifvqerg","pricing_plan_id":"cebpf4jnsgd1na2vs0mg"},{"bike_id":"a9956eaa-982c-42bf-b512-003f56cf0876","system_id":"levelo_inurba_marseille","lat":43.30947,"lon":5.390365,"is_reserved":false,"is_disabled":false,"rental_uris":{"android":"levelo://app?vid=a9956eaa-982c-42bf-b512-003f56cf0876","ios":"levelo://app?vid=a9956eaa-982c-42bf-b512-003f56cf0876"},"vehicle_type_id":"4","last_reported":1730632062,"current_range_meters":17200,"station_id":"ce4bgup2rcd13ifvqco0","pricing_plan_id":"cebpf4jnsgd1na2vs0mg"},{"bike_id":"3e9b85d7-96fb-4b65-9acd-5723483a3709","system_id":"levelo_inurba_marseille","lat":43.31712,"lon":5.37756,"is_reserved":false,"is_disabled":false,"rental_uris":{"android":"levelo://app?vid=3e9b85d7-96fb-4b65-9acd-5723483a3709","ios":"levelo://app?vid=3e9b85d7-96fb-4b65-9acd-5723483a3709"},"vehicle_type_id":"4","last_reported":1730632062,"current_range_meters":38800,"station_id":"ce4bgth2rcd13ifvqch0","pricing_plan_id":"cebpf4jnsgd1na2vs0mg"},{"bike_id":"ad6b9979-2833-497c-ae59-5afeb88a87ce","system_id":"levelo_inurba_marseille","lat":43.32366,"lon":5.36765,"is_reserved":false,"is_disabled":false,"rental_uris":{"android":"levelo://app?vid=ad6b9979-2833-497c-ae59-5afeb88a87ce","ios":"levelo://app?vid=ad6b9979-2833-497c-ae59-5afeb88a87ce"},"vehicle_type_id":"4","last_reported":1730632062,"current_range_meters":6800,"station_id":"ce4bhsh2rcd13ifvqi2g","pricing_plan_id":"cebpf4jnsgd1na2vs0mg"},{"bike_id":"dee299ac-bdac-4059-a558-00e3408ced4c","system_id":"levelo_inurba_marseille","lat":43.29848,"lon":5.36281,"is_reserved":false,"is_disabled":false,"rental_uris":{"android":"levelo://app?vid=dee299ac-bdac-4059-a558-00e3408ced4c","ios":"levelo://app?vid=dee299ac-bdac-4059-a558-00e3408ced4c"},"vehicle_type_id":"4","last_reported":1730632062,"current_range_meters":32000,"station_id":"ce4bgpp2rcd13ifvqc3g","pricing_plan_id":"cebpf4jnsgd1na2vs0mg"},{"bike_id":"3a1760da-f02d-4c17-9bf2-12c0f8628645","system_id":"levelo_inurba_marseille","lat":43.31081,"lon":5.38346,"is_reserved":false,"is_disabled":false,"rental_uris":{"android":"levelo://app?vid=3a1760da-f02d-4c17-9bf2-12c0f8628645","ios":"levelo://app?vid=3a1760da-f02d-4c17-9bf2-12c0f8628645"},"vehicle_type_id":"4","last_reported":1730632062,"current_range_meters":4400,"station_id":"ce4bgv92rcd13ifvqcr0","pricing_plan_id":"cebpf4jnsgd1na2vs0mg"},{"bike_id":"0d15d7b7-391b-49cb-a918-613310545608","system_id":"levelo_inurba_marseille","lat":43.28156,"lon":5.42632,"is_reserved":false,"is_disabled":false,"rental_uris":{"android":"levelo://app?vid=0d15d7b7-391b-49cb-a918-613310545608","ios":"levelo://app?vid=0d15d7b7-391b-49cb-a918-613310545608"},"vehicle_type_id":"4","last_reported":1730632062,"current_range_meters":20400,"station_id":"ce4bhnh2rcd13ifvqgug","pricing_plan_id":"cebpf4jnsgd1na2vs0mg"},{"bike_id":"a7661224-a10e-48a0-a41b-007710435ab4","system_id":"levelo_inurba_marseille","lat":43.23056,"lon":5.35491,"is_reserved":false,"is_disabled":false,"rental_uris":{"android":"levelo://app?vid=a7661224-a10e-48a0-a41b-007710435ab4","ios":"levelo://app?vid=a7661224-a10e-48a0-a41b-007710435ab4"},"vehicle_type_id":"4","last_reported":1730632062,"current_range_meters":8000,"station_id":"cpo3342slgdg3j2ifvpg","pricing_plan_id":"cebpf4jnsgd1na2vs0mg"},{"bike_id":"137b9735-fbfa-46ce-bd08-bacb38696860","system_id":"levelo_inurba_marseille","lat":43.28006,"lon":5.40007,"is_reserved":false,"is_disabled":false,"rental_uris":{"android":"levelo://app?vid=137b9735-fbfa-46ce-bd08-bacb38696860","ios":"levelo://app?vid=137b9735-fbfa-46ce-bd08-bacb38696860"},"vehicle_type_id":"4","last_reported":1730632062,"current_range_meters":30800,"station_id":"ce4bho92rcd13ifvqh4g","pricing_plan_id":"cebpf4jnsgd1na2vs0mg"},{"bike_id":"d53dca62-fd8a-4373-acc3-6f17a7512de5","system_id":"levelo_inurba_marseille","lat":43.260637,"lon":5.393984,"is_reserved":false,"is_disabled":false,"rental_uris":{"android":"levelo://app?vid=d53dca62-fd8a-4373-acc3-6f17a7512de5","ios":"levelo://app?vid=d53dca62-fd8a-4373-acc3-6f17a7512de5"},"vehicle_type_id":"4","last_reported":1730632062,"current_range_meters":33600,"station_id":"ce4bhap2rcd13ifvqek0","pricing_plan_id":"cebpf4jnsgd1na2vs0mg"},{"bike_id":"116fbec0-fbb6-46cb-8fca-a5a99b617bcd","system_id":"levelo_inurba_marseille","lat":43.33023,"lon":5.39041,"is_reserved":false,"is_disabled":false,"rental_uris":{"android":"levelo://app?vid=116fbec0-fbb6-46cb-8fca-a5a99b617bcd","ios":"levelo://app?vid=116fbec0-fbb6-46cb-8fca-a5a99b617bcd"},"vehicle_type_id":"4","last_reported":1730632062,"current_range_meters":18800,"station_id":"ce4bhr92rcd13ifvqhrg","pricing_plan_id":"cebpf4jnsgd1na2vs0mg"},{"bike_id":"f74df92c-a0ed-4b11-9a3c-ba9c645703ac","system_id":"levelo_inurba_marseille","lat":43.31273,"lon":5.40159,"is_reserved":false,"is_disabled":false,"rental_uris":{"android":"levelo://app?vid=f74df92c-a0ed-4b11-9a3c-ba9c645703ac","ios":"levelo://app?vid=f74df92c-a0ed-4b11-9a3c-ba9c645703ac"},"vehicle_type_id":"4","last_reported":1730632062,"current_range_meters":38400,"station_id":"ce4bh092rcd13ifvqd30","pricing_plan_id":"cebpf4jnsgd1na2vs0mg"},{"bike_id":"b85bb96d-e41d-44ef-90fd-8547ed0dd1d9","system_id":"levelo_inurba_marseille","lat":43.27324,"lon":5.391,"is_reserved":false,"is_disabled":false,"rental_uris":{"android":"levelo://app?vid=b85bb96d-e41d-44ef-90fd-8547ed0dd1d9","ios":"levelo://app?vid=b85bb96d-e41d-44ef-90fd-8547ed0dd1d9"},"vehicle_type_id":"4","last_reported":1730632062,"current_range_meters":37600,"station_id":"ce4bhgp2rcd13ifvqfe0","pricing_plan_id":"cebpf4jnsgd1na2vs0mg"},{"bike_id":"21cbb1ed-1400-4f4a-932d-0f740c0ae5b5","system_id":"levelo_inurba_marseille","lat":43.28662,"lon":5.36341,"is_reserved":false,"is_disabled":false,"rental_uris":{"android":"levelo://app?vid=21cbb1ed-1400-4f4a-932d-0f740c0ae5b5","ios":"levelo://app?vid=21cbb1ed-1400-4f4a-932d-0f740c0ae5b5"},"vehicle_type_id":"4","last_reported":1730632062,"current_range_meters":38400,"station_id":"ce4bhah2rcd13ifvqej0","pricing_plan_id":"cebpf4jnsgd1na2vs0mg"},{"bike_id":"73b8545d-4982-4838-bf7d-3271b8d0a217","system_id":"levelo_inurba_marseille","lat":43.2417,"lon":5.36385,"is_reserved":false,"is_disabled":false,"rental_uris":{"android":"levelo://app?vid=73b8545d-4982-4838-bf7d-3271b8d0a217","ios":"levelo://app?vid=73b8545d-4982-4838-bf7d-3271b8d0a217"},"vehicle_type_id":"4","last_reported":1730632062,"current_range_meters":30800,"station_id":"cpo36qri1sfpv3e86is0","pricing_plan_id":"cebpf4jnsgd1na2vs0mg"},{"bike_id":"22277462-ea58-4946-ba2c-ef08f6cd7659","system_id":"levelo_inurba_marseille","lat":43.2797,"lon":5.4105,"is_reserved":false,"is_disabled":false,"rental_uris":{"android":"levelo://app?vid=22277462-ea58-4946-ba2c-ef08f6cd7659","ios":"levelo://app?vid=22277462-ea58-4946-ba2c-ef08f6cd7659"},"vehicle_type_id":"4","last_reported":1730632062,"current_range_meters":17200,"station_id":"","pricing_plan_id":"cebpf4jnsgd1na2vs0mg"},{"bike_id":"0d600896-793a-4170-a27f-0f9efe7015a8","system_id":"levelo_inurba_marseille","lat":43.27075,"lon":5.42267,"is_reserved":false,"is_disabled":false,"rental_uris":{"android":"levelo://app?vid=0d600896-793a-4170-a27f-0f9efe7015a8","ios":"levelo://app?vid=0d600896-793a-4170-a27f-0f9efe7015a8"},"vehicle_type_id":"4","last_reported":1730632062,"current_range_meters":24000,"station_id":"ce4bhk92rcd13ifvqgb0","pricing_plan_id":"cebpf4jnsgd1na2vs0mg"},{"bike_id":"c07332d5-f871-4d7c-9894-5a99fdbe9ec1","system_id":"levelo_inurba_marseille","lat":43.25086,"lon":5.3953,"is_reserved":false,"is_disabled":false,"rental_uris":{"android":"levelo://app?vid=c07332d5-f871-4d7c-9894-5a99fdbe9ec1","ios":"levelo://app?vid=c07332d5-f871-4d7c-9894-5a99fdbe9ec1"},"vehicle_type_id":"4","last_reported":1730632062,"current_range_meters":29600,"station_id":"ce4bhm12rcd13ifvqgkg","pricing_plan_id":"cebpf4jnsgd1na2vs0mg"},{"bike_id":"71993f23-956a-4a1c-ad73-4f7c2f8a2feb","system_id":"levelo_inurba_marseille","lat":43.30418,"lon":5.41269,"is_reserved":false,"is_disabled":false,"rental_uris":{"android":"levelo://app?vid=71993f23-956a-4a1c-ad73-4f7c2f8a2feb","ios":"levelo://app?vid=71993f23-956a-4a1c-ad73-4f7c2f8a2feb"},"vehicle_type_id":"4","last_reported":1730632062,"current_range_meters":20800,"station_id":"ce4bhop2rcd13ifvqh8g","pricing_plan_id":"cebpf4jnsgd1na2vs0mg"},{"bike_id":"287023a0-8e91-4a2b-921f-7734f6819c54","system_id":"levelo_inurba_marseille","lat":43.27809,"lon":5.4071,"is_reserved":false,"is_disabled":false,"rental_uris":{"android":"levelo://app?vid=287023a0-8e91-4a2b-921f-7734f6819c54","ios":"levelo://app?vid=287023a0-8e91-4a2b-921f-7734f6819c54"},"vehicle_type_id":"4","last_reported":1730632062,"current_range_meters":36800,"station_id":"ce4bhnh2rcd13ifvqgtg","pricing_plan_id":"cebpf4jnsgd1na2vs0mg"},{"bike_id":"31fb88a9-aab2-44b6-a518-834e24a41174","system_id":"levelo_inurba_marseille","lat":43.25004,"lon":5.38927,"is_reserved":false,"is_disabled":false,"rental_uris":{"android":"levelo://app?vid=31fb88a9-aab2-44b6-a518-834e24a41174","ios":"levelo://app?vid=31fb88a9-aab2-44b6-a518-834e24a41174"},"vehicle_type_id":"4","last_reported":1730632062,"current_range_meters":39200,"station_id":"ce4bhgp2rcd13ifvqfd0","pricing_plan_id":"cebpf4jnsgd1na2vs0mg"},{"bike_id":"ec6e86d0-010c-47cb-97bd-1faa5a4e9c5a","system_id":"levelo_inurba_marseille","lat":43.29916,"lon":5.37464,"is_reserved":false,"is_disabled":false,"rental_uris":{"android":"levelo://app?vid=ec6e86d0-010c-47cb-97bd-1faa5a4e9c5a","ios":"levelo://app?vid=ec6e86d0-010c-47cb-97bd-1faa5a4e9c5a"},"vehicle_type_id":"4","last_reported":1730632062,"current_range_meters":34000,"station_id":"ce4bgjh2rcd13ifvqbg0","pricing_plan_id":"cebpf4jnsgd1na2vs0mg"},{"bike_id":"b3787f34-8239-4ab9-a707-be938bee8495","system_id":"levelo_inurba_marseille","lat":43.29293,"lon":5.37445,"is_reserved":false,"is_disabled":false,"rental_uris":{"android":"levelo://app?vid=b3787f34-8239-4ab9-a707-be938bee8495","ios":"levelo://app?vid=b3787f34-8239-4ab9-a707-be938bee8495"},"vehicle_type_id":"4","last_reported":1730632062,"current_range_meters":38800,"station_id":"ce4bgi12rcd13ifvqb70","pricing_plan_id":"cebpf4jnsgd1na2vs0mg"},{"bike_id":"9a0c6b7c-1af9-43e3-b5a6-a549aa97687c","system_id":"levelo_inurba_marseille","lat":43.28266,"lon":5.35065,"is_reserved":false,"is_disabled":false,"rental_uris":{"android":"levelo://app?vid=9a0c6b7c-1af9-43e3-b5a6-a549aa97687c","ios":"levelo://app?vid=9a0c6b7c-1af9-43e3-b5a6-a549aa97687c"},"vehicle_type_id":"4","last_reported":1730632062,"current_range_meters":16400,"station_id":"ce4bhbp2rcd13ifvqerg","pricing_plan_id":"cebpf4jnsgd1na2vs0mg"},{"bike_id":"807469a2-81d0-40a4-bf41-581af620ef86","system_id":"levelo_inurba_marseille","lat":43.27378,"lon":5.36248,"is_reserved":false,"is_disabled":false,"rental_uris":{"android":"levelo://app?vid=807469a2-81d0-40a4-bf41-581af620ef86","ios":"levelo://app?vid=807469a2-81d0-40a4-bf41-581af620ef86"},"vehicle_type_id":"4","last_reported":1730632062,"current_range_meters":21600,"station_id":"ce4bhbh2rcd13ifvqeo0","pricing_plan_id":"cebpf4jnsgd1na2vs0mg"},{"bike_id":"9ae5611f-b235-427b-a3ef-70794a5f464b","system_id":"levelo_inurba_marseille","lat":43.2841,"lon":5.34979,"is_reserved":false,"is_disabled":false,"rental_uris":{"android":"levelo://app?vid=9ae5611f-b235-427b-a3ef-70794a5f464b","ios":"levelo://app?vid=9ae5611f-b235-427b-a3ef-70794a5f464b"},"vehicle_type_id":"4","last_reported":1730632062,"current_range_meters":20000,"station_id":"ce4bhbh2rcd13ifvqepg","pricing_plan_id":"cebpf4jnsgd1na2vs0mg"},{"bike_id":"24de1dfc-1586-4276-916f-c0a10f691f4a","system_id":"levelo_inurba_marseille","lat":43.28265,"lon":5.35061,"is_reserved":false,"is_disabled":false,"rental_uris":{"android":"levelo://app?vid=24de1dfc-1586-4276-916f-c0a10f691f4a","ios":"levelo://app?vid=24de1dfc-1586-4276-916f-c0a10f691f4a"},"vehicle_type_id":"4","last_reported":1730632062,"current_range_meters":19600,"station_id":"ce4bhbp2rcd13ifvqerg","pricing_plan_id":"cebpf4jnsgd1na2vs0mg"},