{"last_updated":1748880804,"ttl":60,"version":"2.2","data":{"bikes":[{"bike_id":"19f9cc76-afed-415f-ad09-d5dd0b0490fd","system_id":"levelo_inurba_marseille","lat":43.2481,"lon":5.37458,"is_reserved":false,"is_disabled":false,"rental_uris":{"android":"levelo://app?vid=19f9cc76-afed-415f-ad09-d5dd0b0490fd","ios":"levelo://app?vid=19f9cc76-afed-415f-ad09-d5dd0b0490fd"},"vehicle_type_id":"4","last_reported":1748880804,"current_range_meters":2800,"station_id":"ce4bhgh2rcd13ifvqfb0","pricing_plan_id":"cebpf4jnsgd1na2vs0mg"},{"bike_id":"de8adc3f-1df5-4d4f-9f3e-db0386dbf1ef","system_id":"levelo_inurba_marseille","lat":43.31355,"lon":5.38497,"is_reserved":false,"is_disabled":false,"rental_uris":{"android":"levelo://app?vid=de8adc3f-1df5-4d4f-9f3e-db0386dbf1ef","ios":"levelo://app?vid=de8adc3f-1df5-4d4f-9f3e-db0386dbf1ef"},"vehicle_type_id":"4","last_reported":1748880804,"current_range_meters":2800,"station_id":"ce4bgt92rcd13ifvqcf0","pricing_plan_id":"cebpf4jnsgd1na2vs0mg"},{"bike_id":"1dace7ea-26d9-4c85-9d01-671f021f08e4","system_id":"levelo_inurba_marseille","lat":43.2541,"lon":5.41467,"is_reserved":false,"is_disabled":false,"rental_uris":{"android":"levelo://app?vid=1dace7ea-26d9-4c85-9d01-671f021f08e4","ios":"levelo://app?vid=1dace7ea-26d9-4c85-9d01-671f021f08e4"},"vehicle_type_id":"4","last_reported":1748880804,"current_range_meters":2800,"station_id":"","pricing_plan_id":"cebpf4jnsgd1na2vs0mg"},{"bike_id":"cd26ae18-d8ca-486c-9046-a90586b8e7ba","system_id":"levelo_inurba_marseille","lat":43.29522,"lon":5.39045,"is_reserved":false,"is_disabled":false,"rental_uris":{"android":"levelo://app?vid=cd26ae18-d8ca-486c-9046-a90586b8e7ba","ios":"levelo://app?vid=cd26ae18-d8ca-486c-9046-a90586b8e7ba"},"vehicle_type_id":"4","last_reported":1748880804,"current_range_meters":2800,"station_id":"ce4bh3p2rcd13ifvqdp0","pricing_plan_id":"cebpf4jnsgd1na2vs0mg"},{"bike_id":"151ec7e7-21e2-4774-a702-d22687074bf0","system_id":"levelo_inurba_marseille","lat":43.29621,"lon":5.37165,"is_reserved":false,"is_disabled":false,"rental_uris":{"android":"levelo://app?vid=151ec7e7-21e2-4774-a702-d22687074bf0","ios":"levelo://app?vid=151ec7e7-21e2-4774-a702-d22687074bf0"},"vehicle_type_id":"4","last_reported":1748880804,"current_range_meters":2800,"station_id":"ce4bgnh2rcd13ifvqc0g","pricing_plan_id":"cebpf4jnsgd1na2vs0mg"},{"bike_id":"1c686b3b-e9f8-4be0-9573-f69e1d622d31","system_id":"levelo_inurba_marseille","lat":43.29788,"lon":5.39336,"is_reserved":false,"is_disabled":false,"rental_uris":{"android":"levelo://app?vid=1c686b3b-e9f8-4be0-9573-f69e1d622d31","ios":"levelo://app?vid=1c686b3b-e9f8-4be0-9573-f69e1d622d31"},"vehicle_type_id":"4","last_reported":1748880804,"current_range_meters":2800,"station_id":"chh1huq6cuj3fo74tm60","pricing_plan_id":"cebpf4jnsgd1na2vs0mg"},{"bike_id":"911db5d5-a2ac-473f-8cd3-23e55aac3d66","system_id":"levelo_inurba_marseille","lat":43.28853,"lon":5.39292,"is_reserved":false,"is_disabled":false,"rental_uris":{"android":"levelo://app?vid=911db5d5-a2ac-473f-8cd3-23e55aac3d66","ios":"levelo://app?vid=911db5d5-a2ac-473f-8cd3-23e55aac3d66"},"vehicle_type_id":"4","last_reported":1748880804,"current_range_meters":3200,"station_id":"ce4bh2p2rcd13ifvqdi0","pricing_plan_id":"cebpf4jnsgd1na2vs0mg"},{"bike_id":"dfefdada-1544-447a-b652-0f1c96243b96","system_id":"levelo_inurba_marseille","lat":43.336003,"lon":5.409863,"is_reserved":false,"is_disabled":false,"rental_uris":{"android":"levelo://app?vid=dfefdada-1544-447a-b652-0f1c96243b96","ios":"levelo://app?vid=dfefdada-1544-447a-b652-0f1c96243b96"},"vehicle_type_id":"4","last_reported":1748880804,"current_range_meters":2800,"station_id":"ce4bhqh2rcd13ifvqhmg","pricing_plan_id":"cebpf4jnsgd1na2vs0mg"},{"bike_id":"c99b421f-08c0-4911-9842-f266ec1c9e18","system_id":"levelo_inurba_marseille","lat":43.29296,"lon":5.37452,"is_reserved":false,"is_disabled":false,"rental_uris":{"android":"levelo://app?vid=c99b421f-08c0-4911-9842-f266ec1c9e18","ios":"levelo://app?vid=c99b421f-08c0-4911-9842-f266ec1c9e18"},"vehicle_type_id":"4","last_reported":1748880804,"current_range_meters":3600,"station_id":"ce4bgi12rcd13ifvqb70","pricing_plan_id":"cebpf4jnsgd1na2vs0mg"},{"bike_id":"535ccffb-7982-4c67-8280-9a664a21c14b","system_id":"levelo_inurba_marseille","lat":43.29527,"lon":5.39008,"is_reserved":false,"is_disabled":false,"rental_uris":{"android":"levelo://app?vid=535ccffb-7982-4c67-8280-9a664a21c14b","ios":"levelo://app?vid=535ccffb-7982-4c67-8280-9a664a21c14b"},"vehicle_type_id":"4","last_reported":1748880804,"current_range_meters":3600,"station_id":"ce4bh3p2rcd13ifvqdp0","pricing_plan_id":"cebpf4jnsgd1na2vs0mg"},{"bike_id":"b8c4377a-9397-400f-ab3c-4152854cc3ad","system_id":"levelo_inurba_marseille","lat":43.30887,"lon":5.39659,"is_reserved":false,"is_disabled":false,"rental_uris":{"android":"levelo://app?vid=b8c4377a-9397-400f-ab3c-4152854cc3ad","ios":"levelo://app?vid=b8c4377a-9397-400f-ab3c-4152854cc3ad"},"vehicle_type_id":"4","last_reported":1748880804,"current_range_meters":4000,"station_id":"ce4bh012rcd13ifvqcv0","pricing_plan_id":"cebpf4jnsgd1na2vs0mg"},{"bike_id":"c05e84a2-a721-4a3d-bd08-6e14e81a4335","system_id":"levelo_inurba_marseille","lat":43.254968,"lon":5.376719,"is_reserved":false,"is_disabled":false,"rental_uris":{"android":"levelo://app?vid=c05e84a2-a721-4a3d-bd08-6e14e81a4335","ios":"levelo://app?vid=c05e84a2-a721-4a3d-bd08-6e14e81a4335"},"vehicle_type_id":"4","last_reported":1748880804,"current_range_meters":4400,"station_id":"ce4bhh12rcd13ifvqff0","pricing_plan_id":"cebpf4jnsgd1na2vs0mg"},{"bike_id":"233401b1-d1f5-4bb8-aacd-1711c3bb7e08","system_id":"levelo_inurba_marseille","lat":43.292816,"lon":5.401196,"is_reserved":false,"is_disabled":false,"rental_uris":{"android":"levelo://app?vid=233401b1-d1f5-4bb8-aacd-1711c3bb7e08","ios":"levelo://app?vid=233401b1-d1f5-4bb8-aacd-1711c3bb7e08"},"vehicle_type_id":"4","last_reported":1748880804,"current_range_meters":4400,"station_id":"ce4bh312rcd13ifvqdk0","pricing_plan_id":"cebpf4jnsgd1na2vs0mg"},{"bike_id":"ea89997f-2370-4ca5-b283-812e8ce6a0cf","system_id":"levelo_inurba_marseille","lat":43.28932,"lon":5.38399,"is_reserved":false,"is_disabled":false,"rental_uris":{"android":"levelo://app?vid=ea89997f-2370-4ca5-b283-812e8ce6a0cf","ios":"levelo://app?vid=ea89997f-2370-4ca5-b283-812e8ce6a0cf"},"vehicle_type_id":"4","last_reported":1748880804,"current_range_meters":4400,"station_id":"ce4bh612rcd13ifvqe6g","pricing_plan_id":"cebpf4jnsgd1na2vs0mg"},{"bike_id":"ce7ebb66-8690-4fc1-9e07-03553df2eca6","system_id":"levelo_inurba_marseille","lat":43.24175,"lon":5.39717,"is_reserved":false,"is_disabled":false,"rental_uris":{"android":"levelo://app?vid=ce7ebb66-8690-4fc1-9e07-03553df2eca6","ios":"levelo://app?vid=ce7ebb66-8690-4fc1-9e07-03553df2eca6"},"vehicle_type_id":"4","last_reported":1748880804,"current_range_meters":0,"station_id":"ce4bhn12rcd13ifvqgpg","pricing_plan_id":"cebpf4jnsgd1na2vs0mg"},{"bike_id":"b76451ef-3dae-47e0-a940-4159589b494f","system_id":"levelo_inurba_marseille","lat":43.29981,"lon":5.37177,"is_reserved":false,"is_disabled":false,"rental_uris":{"android":"levelo://app?vid=b76451ef-3dae-47e0-a940-4159589b494f","ios":"levelo://app?vid=b76451ef-3dae-47e0-a940-4159589b494f"},"vehicle_type_id":"4","last_reported":1748880804,"current_range_meters":4800,"station_id":"ce4bgr92rcd13ifvqc7g","pricing_plan_id":"cebpf4jnsgd1na2vs0mg"},{"bike_id":"0a2e29bd-37a4-47e0-b131-ecdecc0a6eab","system_id":"levelo_inurba_marseille","lat":43.28476,"lon":5.38405,"is_reserved":false,"is_disabled":false,"rental_uris":{"android":"levelo://app?vid=0a2e29bd-37a4-47e0-b131-ecdecc0a6eab","ios":"levelo://app?vid=0a2e29bd-37a4-47e0-b131-ecdecc0a6eab"},"vehicle_type_id":"4","last_reported":1748880804,"current_range_meters":1200,"station_id":"ce4bh512rcd13ifvqe3g","pricing_plan_id":"cebpf4jnsgd1na2vs0mg"},{"bike_id":"c97038f3-4518-4c9d-afaa-4920937e02fa","system_id":"levelo_inurba_marseille","lat":43.24612,"lon":5.3933,"is_reserved":false,"is_disabled":false,"rental_uris":{"android":"levelo://app?vid=c97038f3-4518-4c9d-afaa-4920937e02fa","ios":"levelo://app?vid=c97038f3-4518-4c9d-afaa-4920937e02fa"},"vehicle_type_id":"4","last_reported":1748880804,"current_range_meters":4800,"station_id":"","pricing_plan_id":"cebpf4jnsgd1na2vs0mg"},{"bike_id":"907370c7-e479-44c0-ba3f-2b2db8db2978","system_id":"levelo_inurba_marseille","lat":43.28857,"lon":5.35848,"is_reserved":false,"is_disabled":false,"rental_uris":{"android":"levelo://app?vid=907370c7-e479-44c0-ba3f-2b2db8db2978","ios":"levelo://app?vid=907370c7-e479-44c0-ba3f-2b2db8db2978"},"vehicle_type_id":"4","last_reported":1748880804,"current_range_meters":5600,"station_id":"ce4bhb12rcd13ifvqem0","pricing_plan_id":"cebpf4jnsgd1na2vs0mg"},{"bike_id":"bff91e46-d50f-47f4-abcc-a302e9440288","system_id":"levelo_inurba_marseille","lat":43.330771,"lon":5.394736,"is_reserved":false,"is_disabled":false,"rental_uris":{"android":"levelo://app?vid=bff91e46-d50f-47f4-abcc-a302e9440288","ios":"levelo://app?vid=bff91e46-d50f-47f4-abcc-a302e9440288"},"vehicle_type_id":"4","last_reported":1748880804,"current_range_meters":5600,"station_id":"","pricing_plan_id":"cebpf4jnsgd1na2vs0mg"},{"bike_id":"aadb95fc-d156-41e0-9614-75d762b11d28","system_id":"levelo_inurba_marseille","lat":43.320027,"lon":5.439887,"is_reserved":false,"is_disabled":false,"rental_uris":{"android":"levelo://app?vid=aadb95fc-d156-41e0-9614-75d762b11d28","ios":"levelo://app?vid=aadb95fc-d156-41e0-9614-75d762b11d28"},"vehicle_type_id":"4","last_reported":1748880804,"current_range_meters":6000,"station_id":"","pricing_plan_id":"cebpf4jnsgd1na2vs0mg"},{"bike_id":"3bb92c33-91d8-4f88-8f2c-672c7868f4ad","system_id":"levelo_inurba_marseille","lat":43.32843,"lon":5.40497,"is_reserved":false,"is_disabled":false,"rental_uris":{"android":"levelo://app?vid=3bb92c33-91d8-4f88-8f2c-672c7868f4ad","ios":"levelo://app?vid=3bb92c33-91d8-4f88-8f2c-672c7868f4ad"},"vehicle_type_id":"4","last_reported":1748880804,"current_range_meters":6400,"station_id":"","pricing_plan_id":"cebpf4jnsgd1na2vs0mg"},{"bike_id":"bfc5ef3f-b45a-4475-9ae4-9a0465f66e15","system_id":"levelo_inurba_marseille","lat":43.25109,"lon":5.39362,"is_reserved":false,"is_disabled":false,"rental_uris":{"android":"levelo://app?vid=bfc5ef3f-b45a-4475-9ae4-9a0465f66e15","ios":"levelo://app?vid=bfc5ef3f-b45a-4475-9ae4-9a0465f66e15"},"vehicle_type_id":"4","last_reported":1748880804,"current_range_meters":6400,"station_id":"","pricing_plan_id":"cebpf4jnsgd1na2vs0mg"},{"bike_id":"842a83bc-5334-425d-bfd3-f2a836e25a19","system_id":"levelo_inurba_marseille","lat":43.28483,"lon":5.38551,"is_reserved":false,"is_disabled":false,"rental_uris":{"android":"levelo://app?vid=842a83bc-5334-425d-bfd3-f2a836e25a19","ios":"levelo://app?vid=842a83bc-5334-425d-bfd3-f2a836e25a19"},"vehicle_type_id":"4","last_reported":1748880804,"current_range_meters":6400,"station_id":"ce4bh8p2rcd13ifvqeb0","pricing_plan_id":"cebpf4jnsgd1na2vs0mg"},{"bike_id":"a11f405a-b75a-4898-b660-7b07f0585a6b","system_id":"levelo_inurba_marseille","lat":43.27999,"lon":5.41663,"is_reserved":false,"is_disabled":false,"rental_uris":{"android":"levelo://app?vid=a11f405a-b75a-4898-b660-7b07f0585a6b","ios":"levelo://app?vid=a11f405a-b75a-4898-b660-7b07f0585a6b"},"vehicle_type_id":"4","last_reported":1748880804,"current_range_meters":6400,"station_id":"ce4bho12rcd13ifvqh1g","pricing_plan_id":"cebpf4jnsgd1na2vs0mg"},{"bike_id":"2442d8e2-22a1-495f-a8ac-676511673dba","system_id":"levelo_inurba_marseille","lat":43.25725,"lon":5.41109,"is_reserved":false,"is_disabled":false,"rental_uris":{"android":"levelo://app?vid=2442d8e2-22a1-495f-a8ac-676511673dba","ios":"levelo://app?vid=2442d8e2-22a1-495f-a8ac-676511673dba"},"vehicle_type_id":"4","last_reported":1748880804,"current_range_meters":6800,"station_id":"ce4bhkp2rcd13ifvqgd0","pricing_plan_id":"cebpf4jnsgd1na2vs0mg"},{"bike_id":"a9b60657-b0c3-423f-a286-997d2f9b039b","system_id":"levelo_inurba_marseille","lat":43.2318,"lon":5.39984,"is_reserved":false,"is_disabled":false,"rental_uris":{"android":"levelo://app?vid=a9b60657-b0c3-423f-a286-997d2f9b039b","ios":"levelo://app?vid=a9b60657-b0c3-423f-a286-997d2f9b039b"},"vehicle_type_id":"4","last_reported":1748880804,"current_range_meters":6400,"station_id":"ce4bhn12rcd13ifvqgqg","pricing_plan_id":"cebpf4jnsgd1na2vs0mg"},{"bike_id":"a0548b15-cef3-49aa-8a61-be242bed8266","system_id":"levelo_inurba_marseille","lat":43.30421,"lon":5.4129,"is_reserved":false,"is_disabled":false,"rental_uris":{"android":"levelo://app?vid=a0548b15-cef3-49aa-8a61-be242bed8266","ios":"levelo://app?vid=a0548b15-cef3-49aa-8a61-be242bed8266"},"vehicle_type_id":"4","last_reported":1748880804,"current_range_meters":6400,"station_id":"ce4bhop2rcd13ifvqh8g","pricing_plan_id":"cebpf4jnsgd1na2vs0mg"},{"bike_id":"016837bc-1a52-415e-860a-20235418d591","system_id":"levelo_inurba_marseille","lat":43.283016,"lon":5.389488,"is_reserved":false,"is_disabled":false,"rental_uris":{"android":"levelo://app?vid=016837bc-1a52-415e-860a-20235418d591","ios":"levelo://app?vid=016837bc-1a52-415e-860a-20235418d591"},"vehicle_type_id":"4","last_reported":1748880804,"current_range_meters":6800,"station_id":"","pricing_plan_id":"cebpf4jnsgd1na2vs0mg"},{"bike_id":"036a3f84-6c04-4f85-bd69-c60fcc1a093a","system_id":"levelo_inurba_marseille","lat":43.33344,"lon":5.3985,"is_reserved":false,"is_disabled":false,"rental_uris":{"android":"levelo://app?vid=036a3f84-6c04-4f85-bd69-c60fcc1a093a","ios":"levelo://app?vid=036a3f84-6c04-4f85-bd69-c60fcc1a093a"},"vehicle_type_id":"4","last_reported":1748880804,"current_range_meters":6800,"station_id":"","pricing_plan_id":"cebpf4jnsgd1na2vs0mg"},{"bike_id":"d52e0403-2b9e-4365-b4cf-e34a85e3dcec","system_id":"levelo_inurba_marseille","lat":43.24389,"lon":5.370642,"is_reserved":false,"is_disabled":true,"rental_uris":{"android":"levelo://app?vid=d52e0403-2b9e-4365-b4cf-e34a85e3dcec","ios":"levelo://app?vid=d52e0403-2b9e-4365-b4cf-e34a85e3dcec"},"vehicle_type_id":"4","last_reported":1748880804,"current_range_meters":7200,"station_id":"","pricing_plan_id":"cebpf4jnsgd1na2vs0mg"},{"bike_id":"be8b889c-b9f7-465b-9902-b4f156a2d8ae","system_id":"levelo_inurba_marseille","lat":43.299796,"lon":5.387596,"is_reserved":false,"is_disabled":false,"rental_uris":{"android":"levelo://app?vid=be8b889c-b9f7-465b-9902-b4f156a2d8ae","ios":"levelo://app?vid=be8b889c-b9f7-465b-9902-b4f156a2d8ae"},"vehicle_type_id":"4","last_reported":1748880804,"current_range_meters":6800,"station_id":"ce4bh192rcd13ifvqdb0","pricing_plan_id":"cebpf4jnsgd1na2vs0mg"},{"bike_id":"e9c10b6e-993e-4045-b0cd-2ddfea388a4e","system_id":"levelo_inurba_marseille","lat":43.23196,"lon":5.35558,"is_reserved":false,"is_disabled":false,"rental_uris":{"android":"levelo://app?vid=e9c10b6e-993e-4045-b0cd-2ddfea388a4e","ios":"levelo://app?vid=e9c10b6e-993e-4045-b0cd-2ddfea388a4e"},"vehicle_type_id":"4","last_reported":1748880804,"current_range_meters":7200,"station_id":"ce4bhu92rcd13ifvqi70","pricing_plan_id":"cebpf4jnsgd1na2vs0mg"},{"bike_id":"77563c89-0ac2-4043-bd50-220ab97bc1f7","system_id":"levelo_inurba_marseille","lat":43.322964,"lon":5.382721,"is_reserved":false,"is_disabled":false,"rental_uris":{"android":"levelo://app?vid=77563c89-0ac2-4043-bd50-220ab97bc1f7","ios":"levelo://app?vid=77563c89-0ac2-4043-bd50-220ab97bc1f7"},"vehicle_type_id":"4","last_reported":1748880804,"current_range_meters":7200,"station_id":"ce4bhr12rcd13ifvqhqg","pricing_plan_id":"cebpf4jnsgd1na2vs0mg"},{"bike_id":"c5a01406-f059-41d9-a4a8-04315476601b","system_id":"levelo_inurba_marseille","lat":43.25831,"lon":5.39441,"is_reserved":false,"is_disabled":false,"rental_uris":{"android":"levelo://app?vid=c5a01406-f059-41d9-a4a8-04315476601b","ios":"levelo://app?vid=c5a01406-f059-41d9-a4a8-04315476601b"},"vehicle_type_id":"4","last_reported":1748880804,"current_range_meters":8000,"station_id":"ce4bhip2rcd13ifvqft0","pricing_plan_id":"cebpf4jnsgd1na2vs0mg"},{"bike_id":"8baafedb-1805-4676-a99c-e9198f66ab0d","system_id":"levelo_inurba_marseille","lat":43.23188,"lon":5.39983,"is_reserved":false,"is_disabled":false,"rental_uris":{"android":"levelo://app?vid=8baafedb-1805-4676-a99c-e9198f66ab0d","ios":"levelo://app?vid=8baafedb-1805-4676-a99c-e9198f66ab0d"},"vehicle_type_id":"4","last_reported":1748880804,"current_range_meters":8000,"station_id":"ce4bhn12rcd13ifvqgqg","pricing_plan_id":"cebpf4jnsgd1na2vs0mg"},{"bike_id":"a99c5adf-e7e9-451d-b08a-9925e0d363fa","system_id":"levelo_inurba_marseille","lat":43.30786,"lon":5.37641,"is_reserved":false,"is_disabled":false,"rental_uris":{"android":"levelo://app?vid=a99c5adf-e7e9-451d-b08a-9925e0d363fa","ios":"levelo://app?vid=a99c5adf-e7e9-451d-b08a-9925e0d363fa"},"vehicle_type_id":"4","last_reported":1748880804,"current_range_meters":7200,"station_id":"ce4bgv92rcd13ifvqcq0","pricing_plan_id":"cebpf4jnsgd1na2vs0mg"},{"bike_id":"c00a4779-7442-49ef-9f4c-2a6af0baf955","system_id":"levelo_inurba_marseille","lat":43.33025,"lon":5.390437,"is_reserved":false,"is_disabled":false,"rental_uris":{"android":"levelo://app?vid=c00a4779-7442-49ef-9f4c-2a6af0baf955","ios":"levelo://app?vid=c00a4779-7442-49ef-9f4c-2a6af0baf955"},"vehicle_type_id":"4","last_reported":1748880804,"current_range_meters":8000,"station_id":"ce4bhr92rcd13ifvqhrg","pricing_plan_id":"cebpf4jnsgd1na2vs0mg"},{"bike_id":"c39b8348-7e79-42ab-925c-0bf3b577e96f","system_id":"levelo_inurba_marseille","lat":43.30541,"lon":5.36717,"is_reserved":false,"is_disabled":false,"rental_uris":{"android":"levelo://app?vid=c39b8348-7e79-42ab-925c-0bf3b577e96f","ios":"levelo://app?vid=c39b8348-7e79-42ab-925c-0bf3b577e96f"},"vehicle_type_id":"4","last_reported":1748880804,"current_range_meters":8000,"station_id":"ce4bgrp2rcd13ifvqc9g","pricing_plan_id":"cebpf4jnsgd1na2vs0mg"},{"bike_id":"5dead81c-52cf-467b-885d-461d40fb80a5","system_id":"levelo_inurba_marseille","lat":43.25102,"lon":5.40963,"is_reserved":false,"is_disabled":false,"rental_uris":{"android":"levelo://app?vid=5dead81c-52cf-467b-885d-461d40fb80a5","ios":"levelo://app?vid=5dead81c-52cf-467b-885d-461d40fb80a5"},"vehicle_type_id":"4","last_reported":1748880804,"current_range_meters":8400,"station_id":"","pricing_plan_id":"cebpf4jnsgd1na2vs0mg"},{"bike_id":"c11b70c7-cef3-417e-8652-71093411ae42","system_id":"levelo_inurba_marseille","lat":43.28617,"lon":5.35108,"is_reserved":false,"is_disabled":false,"rental_uris":{"android":"levelo://app?vid=c11b70c7-cef3-417e-8652-71093411ae42","ios":"levelo://app?vid=c11b70c7-cef3-417e-8652-71093411ae42"},"vehicle_type_id":"4","last_reported":1748880804,"current_range_meters":8400,"station_id":"ce4bhch2rcd13ifvqeug","pricing_plan_id":"cebpf4jnsgd1na2vs0mg"},{"bike_id":"7490d5dc-735e-4375-8341-6d53750855b2","system_id":"levelo_inurba_marseille","lat":43.29033,"lon":5.37811,"is_reserved":false,"is_disabled":false,"rental_uris":{"android":"levelo://app?vid=7490d5dc-735e-4375-8341-6d53750855b2","ios":"levelo://app?vid=7490d5dc-735e-4375-8341-6d53750855b2"},"vehicle_type_id":"4","last_reported":1748880804,"current_range_meters":8400,"station_id":"","pricing_plan_id":"cebpf4jnsgd1na2vs0mg"},{"bike_id":"0b3654db-33dc-4a56-850c-0b6b7ac0b481","system_id":"levelo_inurba_marseille","lat":43.23084,"lon":5.40177,"is_reserved":false,"is_disabled":false,"rental_uris":{"android":"levelo://app?vid=0b3654db-33dc-4a56-850c-0b6b7ac0b481","ios":"levelo://app?vid=0b3654db-33dc-4a56-850c-0b6b7ac0b481"},"vehicle_type_id":"4","last_reported":1748880804,"current_range_meters":8400,"station_id":"","pricing_plan_id":"cebpf4jnsgd1na2vs0mg"},{"bike_id":"3d6466a5-fd19-4f95-8df1-9f604e85eed5","system_id":"levelo_inurba_marseille","lat":43.22933,"lon":5.3537,"is_reserved":false,"is_disabled":false,"rental_uris":{"android":"levelo://app?vid=3d6466a5-fd19-4f95-8df1-9f604e85eed5","ios":"levelo://app?vid=3d6466a5-fd19-4f95-8df1-9f604e85eed5"},"vehicle_type_id":"4","last_reported":1748880804,"current_range_meters":8800,"station_id":"cpo3532slgdg3j2ikp40","pricing_plan_id":"cebpf4jnsgd1na2vs0mg"},{"bike_id":"d72d5a5e-a033-4555-a5b7-2e9b101d2f01","system_id":"levelo_inurba_marseille","lat":43.24339,"lon":5.41147,"is_reserved":false,"is_disabled":false,"rental_uris":{"android":"levelo://app?vid=d72d5a5e-a033-4555-a5b7-2e9b101d2f01","ios":"levelo://app?vid=d72d5a5e-a033-4555-a5b7-2e9b101d2f01"},"vehicle_type_id":"4","last_reported":1748880804,"current_range_meters":8800,"station_id":"","pricing_plan_id":"cebpf4jnsgd1na2vs0mg"},{"bike_id":"73a4770d-0c02-48d5-a0f7-4d250b83527c","system_id":"levelo_inurba_marseille","lat":43.324747,"lon":5.424768,"is_reserved":false,"is_disabled":false,"rental_uris":{"android":"levelo://app?vid=73a4770d-0c02-48d5-a0f7-4d250b83527c","ios":"levelo://app?vid=73a4770d-0c02-48d5-a0f7-4d250b83527c"},"vehicle_type_id":"4","last_reported":1748880804,"current_range_meters":8800,"station_id":"","pricing_plan_id":"cebpf4jnsgd1na2vs0mg"},{"bike_id":"061cc65c-8727-4f9a-aacc-7b72e16f075d","system_id":"levelo_inurba_marseille","lat":43.24546,"lon":5.39527,"is_reserved":false,"is_disabled":false,"rental_uris":{"android":"levelo://app?vid=061cc65c-8727-4f9a-aacc-7b72e16f075d","ios":"levelo://app?vid=061cc65c-8727-4f9a-aacc-7b72e16f075d"},"vehicle_type_id":"4","last_reported":1748880804,"current_range_meters":8800,"station_id":"ce4bhlp2rcd13ifvqgjg","pricing_plan_id":"cebpf4jnsgd1na2vs0mg"},{"bike_id":"81dac9c9-1605-41bd-b1c3-5ab9cbfb2cf9","system_id":"levelo_inurba_marseille","lat":43.29009,"lon":5.35613,"is_reserved":false,"is_disabled":false,"rental_uris":{"android":"levelo://app?vid=81dac9c9-1605-41bd-b1c3-5ab9cbfb2cf9","ios":"levelo://app?vid=81dac9c9-1605-41bd-b1c3-5ab9cbfb2cf9"},"vehicle_type_id":"4","last_reported":1748880804,"current_range_meters":9200,"station_id":"ce4bhb92rcd13ifvqen0","pricing_plan_id":"cebpf4jnsgd1na2vs0mg"},{"bike_id":"041c30b4-e7cf-45c3-ad9f-04fb8e1c08fe","system_id":"levelo_inurba_marseille","lat":43.276206,"lon":5.361054,"is_reserved":false,"is_disabled":false,"rental_uris":{"android":"levelo://app?vid=041c30b4-e7cf-45c3-ad9f-04fb8e1c08fe","ios":"levelo://app?vid=041c30b4-e7cf-45c3-ad9f-04fb8e1c08fe"},"vehicle_type_id":"4","last_reported":1748880804,"current_range_meters":8800,"station_id":"ce4bgj92rcd13ifvqbe0","pricing_plan_id":"cebpf4jnsgd1na2vs0mg"},{"bike_id":"3dc76f57-1e3f-4790-89b9-40a184a2422a","system_id":"levelo_inurba_marseille","lat":43.304217,"lon":5.412867,"is_reserved":false,"is_disabled":false,"rental_uris":{"android":"levelo://app?vid=3dc76f57-1e3f-4790-89b9-40a184a2422a","ios":"levelo://app?vid=3dc76f57-1e3f-4790-89b9-40a184a2422a"},"vehicle_type_id":"4","last_reported":1748880804,"current_range_meters":9200,"station_id":"ce4bhop2rcd13ifvqh8g","pricing_plan_id":"cebpf4jnsgd1na2vs0mg"},{"bike_id":"5d4f9c75-733d-410d-8010-1fc3cea07b12","system_id":"levelo_inurba_marseille","lat":43.23183,"lon":5.39987,"is_reserved":false,"is_disabled":false,"rental_uris":{"android":"levelo://app?vid=5d4f9c75-733d-410d-8010-1fc3cea07b12","ios":"levelo://app?vid=5d4f9c75-733d-410d-8010-1fc3cea07b12"},"vehicle_type_id":"4","last_reported":1748880804,"current_range_meters":9200,"station_id":"ce4bhn12rcd13ifvqgqg","pricing_plan_id":"cebpf4jnsgd1na2vs0mg"},{"bike_id":"838d1730-a861-4d7e-8011-c57f25b427e6","system_id":"levelo_inurba_marseille","lat":43.245501,"lon":5.395153,"is_reserved":false,"is_disabled":false,"rental_uris":{"android":"levelo://app?vid=838d1730-a861-4d7e-8011-c57f25b427e6","ios":"levelo://app?vid=838d1730-a861-4d7e-8011-c57f25b427e6"},"vehicle_type_id":"4","last_reported":1748880804,"current_range_meters":8800,"station_id":"ce4bhlp2rcd13ifvqgjg","pricing_plan_id":"cebpf4jnsgd1na2vs0mg"},{"bike_id":"77e914a8-17a6-4adb-bdd0-e74076c7844c","system_id":"levelo_inurba_marseille","lat":43.302473,"lon":5.400493,"is_reserved":false,"is_disabled":true,"rental_uris":{"android":"levelo://app?vid=77e914a8-17a6-4adb-bdd0-e74076c7844c","ios":"levelo://app?vid=77e914a8-17a6-4adb-bdd0-e74076c7844c"},"vehicle_type_id":"4","last_reported":1748880804,"current_range_meters":9600,"station_id":"ce4bgvh2rcd13ifvqcs0","pricing_plan_id":"cebpf4jnsgd1na2vs0mg"},{"bike_id":"afe42cf5-b493-4fb7-b710-2b3f0a107bae","system_id":"levelo_inurba_marseille","lat":43.31737,"lon":5.38774,"is_reserved":false,"is_disabled":false,"rental_uris":{"android":"levelo://app?vid=afe42cf5-b493-4fb7-b710-2b3f0a107bae","ios":"levelo://app?vid=afe42cf5-b493-4fb7-b710-2b3f0a107bae"},"vehicle_type_id":"4","last_reported":1748880804,"current_range_meters":9600,"station_id":"","pricing_plan_id":"cebpf4jnsgd1na2vs0mg"},{"bike_id":"86b3e519-0266-4c04-9dbc-5a5713f913c6","system_id":"levelo_inurba_marseille","lat":43.23189,"lon":5.3998,"is_reserved":false,"is_disabled":false,"rental_uris":{"android":"levelo://app?vid=86b3e519-0266-4c04-9dbc-5a5713f913c6","ios":"levelo://app?vid=86b3e519-0266-4c04-9dbc-5a5713f913c6"},"vehicle_type_id":"4","last_reported":1748880804,"current_range_meters":9600,"station_id":"ce4bhn12rcd13ifvqgqg","pricing_plan_id":"cebpf4jnsgd1na2vs0mg"},{"bike_id":"75c664b5-8c32-42f6-9085-436c62fd99be","system_id":"levelo_inurba_marseille","lat":43.32361,"lon":5.36732,"is_reserved":false,"is_disabled":false,"rental_uris":{"android":"levelo://app?vid=75c664b5-8c32-42f6-9085-436c62fd99be","ios":"levelo://app?vid=75c664b5-8c32-42f6-9085-436c62fd99be"},"vehicle_type_id":"4","last_reported":1748880804,"current_range_meters":9600,"station_id":"ce4bhsh2rcd13ifvqi2g","pricing_plan_id":"cebpf4jnsgd1na2vs0mg"},{"bike_id":"5bfa45af-75d5-41dc-960e-af28f3de7b9c","system_id":"levelo_inurba_marseille","lat":43.27977,"lon":5.38741,"is_reserved":false,"is_disabled":false,"rental_uris":{"android":"levelo://app?vid=5bfa45af-75d5-41dc-960e-af28f3de7b9c","ios":"levelo://app?vid=5bfa45af-75d5-41dc-960e-af28f3de7b9c"},"vehicle_type_id":"4","last_reported":1748880804,"current_range_meters":9200,"station_id":"ce4bhg12rcd13ifvqf80","pricing_plan_id":"cebpf4jnsgd1na2vs0mg"},{"bike_id":"99d59ddb-ca3d-43a4-b2ac-7c92aea831a5","system_id":"levelo_inurba_marseille","lat":43.31363,"lon":5.36679,"is_reserved":false,"is_disabled":true,"rental_uris":{"android":"levelo://app?vid=99d59ddb-ca3d-43a4-b2ac-7c92aea831a5","ios":"levelo://app?vid=99d59ddb-ca3d-43a4-b2ac-7c92aea831a5"},"vehicle_type_id":"4","last_reported":1748880804,"current_range_meters":10000,"station_id":"ce4bgr92rcd13ifvqc6g","pricing_plan_id":"cebpf4jnsgd1na2vs0mg"},{"bike_id":"c1460495-7be7-4726-bfc2-66e1ac6b4240","system_id":"levelo_inurba_marseille","lat":43.296,"lon":5.38108,"is_reserved":false,"is_disabled":false,"rental_uris":{"android":"levelo://app?vid=c1460495-7be7-4726-bfc2-66e1ac6b4240","ios":"levelo://app?vid=c1460495-7be7-4726-bfc2-66e1ac6b4240"},"vehicle_type_id":"4","last_reported":1748880804,"current_range_meters":10000,"station_id":"ce4bgl12rcd13ifvqbo0","pricing_plan_id":"cebpf4jnsgd1na2vs0mg"},{"bike_id":"acb7d56c-ca0c-476b-afcb-22c0fe6c2e2a","system_id":"levelo_inurba_marseille","lat":43.31711,"lon":5.43708,"is_reserved":false,"is_disabled":false,"rental_uris":{"android":"levelo://app?vid=acb7d56c-ca0c-476b-afcb-22c0fe6c2e2a","ios":"levelo://app?vid=acb7d56c-ca0c-476b-afcb-22c0fe6c2e2a"},"vehicle_type_id":"4","last_reported":1748880804,"current_range_meters":10000,"station_id":"ce4bhp92rcd13ifvqhcg","pricing_plan_id":"cebpf4jnsgd1na2vs0mg"},{"bike_id":"9322a6a5-e18a-4f45-8891-39fc83c8ebe8","system_id":"levelo_inurba_marseille","lat":43.29704,"lon":5.36619,"is_reserved":false,"is_disabled":false,"rental_uris":{"android":"levelo://app?vid=9322a6a5-e18a-4f45-8891-39fc83c8ebe8","ios":"levelo://app?vid=9322a6a5-e18a-4f45-8891-39fc83c8ebe8"},"vehicle_type_id":"4","last_reported":1748880804,"current_range_meters":10000,"station_id":"ce4bgn12rcd13ifvqbt0","pricing_plan_id":"cebpf4jnsgd1na2vs0mg"},{"bike_id":"c82b5027-8222-4a9f-a8f4-a0a1a2eef0c3","system_id":"levelo_inurba_marseille","lat":43.28945,"lon":5.3664,"is_reserved":false,"is_disabled":false,"rental_uris":{"android":"levelo://app?vid=c82b5027-8222-4a9f-a8f4-a0a1a2eef0c3","ios":"levelo://app?vid=c82b5027-8222-4a9f-a8f4-a0a1a2eef0c3"},"vehicle_type_id":"4","last_reported":1748880804,"current_range_meters":10000,"station_id":"ce4bhap2rcd13ifvqek0","pricing_plan_id":"cebpf4jnsgd1na2vs0mg"},{"bike_id":"36cfb930-c53e-4c23-91f1-35c932ecf7b9","system_id":"levelo_inurba_marseille","lat":43.29528,"lon":5.38547,"is_reserved":false,"is_disabled":false,"rental_uris":{"android":"levelo://app?vid=36cfb930-c53e-4c23-91f1-35c932ecf7b9","ios":"levelo://app?vid=36cfb930-c53e-4c23-91f1-35c932ecf7b9"},"vehicle_type_id":"4","last_reported":1748880804,"current_range_meters":10000,"station_id":"ce4bgih2rcd13ifvqba0","pricing_plan_id":"cebpf4jnsgd1na2vs0mg"},{"bike_id":"4d332276-6667-40ed-865e-6fd34af22555","system_id":"levelo_inurba_marseille","lat":43.2511,"lon":5.40322,"is_reserved":false,"is_disabled":false,"rental_uris":{"android":"levelo://app?vid=4d332276-6667-40ed-865e-6fd34af22555","ios":"levelo://app?vid=4d332276-6667-40ed-865e-6fd34af22555"},"vehicle_type_id":"4","last_reported":1748880804,"current_range_meters":10000,"station_id":"ce4bhlh2rcd13ifvqgig","pricing_plan_id":"cebpf4jnsgd1na2vs0mg"},{"bike_id":"ede93e9b-e3fc-4a95-988a-96de0f80fd6f","system_id":"levelo_inurba_marseille","lat":43.31531,"lon":5.38037,"is_reserved":false,"is_disabled":false,"rental_uris":{"android":"levelo://app?vid=ede93e9b-e3fc-4a95-988a-96de0f80fd6f","ios":"levelo://app?vid=ede93e9b-e3fc-4a95-988a-96de0f80fd6f"},"vehicle_type_id":"4","last_reported":1748880804,"current_range_meters":9600,"station_id":"ce4bhsp2rcd13ifvqi50","pricing_plan_id":"cebpf4jnsgd1na2vs0mg"},{"bike_id":"6fe5536d-241e-4a4b-86e1-cbcf7eaf11c5","system_id":"levelo_inurba_marseille","lat":43.303064,"lon":5.39217,"is_reserved":false,"is_disabled":false,"rental_uris":{"android":"levelo://app?vid=6fe5536d-241e-4a4b-86e1-cbcf7eaf11c5","ios":"levelo://app?vid=6fe5536d-241e-4a4b-86e1-cbcf7eaf11c5"},"vehicle_type_id":"4","last_reported":1748880804,"current_range_meters":10000,"station_id":"ce4bgkh2rcd13ifvqbk0","pricing_plan_id":"cebpf4jnsgd1na2vs0mg"},{"bike_id":"53d4f857-2227-49d0-954a-1971594b4119","system_id":"levelo_inurba_marseille","lat":43.2857,"lon":5.39501,"is_reserved":false,"is_disabled":false,"rental_uris":{"android":"levelo://app?vid=53d4f857-2227-49d0-954a-1971594b4119","ios":"levelo://app?vid=53d4f857-2227-49d0-954a-1971594b4119"},"vehicle_type_id":"4","last_reported":1748880804,"current_range_meters":10800,"station_id":"ce4bh292rcd13ifvqdg0","pricing_plan_id":"cebpf4jnsgd1na2vs0mg"},{"bike_id":"4f0fac66-2698-42e8-938d-43f3459b9442","system_id":"levelo_inurba_marseille","lat":43.26864,"lon":5.38569,"is_reserved":false,"is_disabled":false,"rental_uris":{"android":"levelo://app?vid=4f0fac66-2698-42e8-938d-43f3459b9442","ios":"levelo://app?vid=4f0fac66-2698-42e8-938d-43f3459b9442"},"vehicle_type_id":"4","last_reported":1748880804,"current_range_meters":10800,"station_id":"","pricing_plan_id":"cebpf4jnsgd1na2vs0mg"},{"bike_id":"005bcc6c-5313-491c-af50-25a503840f66","system_id":"levelo_inurba_marseille","lat":43.21783,"lon":5.34633,"is_reserved":false,"is_disabled":false,"rental_uris":{"android":"levelo://app?vid=005bcc6c-5313-491c-af50-25a503840f66","ios":"levelo://app?vid=005bcc6c-5313-491c-af50-25a503840f66"},"vehicle_type_id":"4","last_reported":1748880804,"current_range_meters":10800,"station_id":"","pricing_plan_id":"cebpf4jnsgd1na2vs0mg"},{"bike_id":"5cf71fe1-d8e9-4bfd-b57f-bc121b1c43c5","system_id":"levelo_inurba_marseille","lat":43.25829,"lon":5.39441,"is_reserved":false,"is_disabled":false,"rental_uris":{"android":"levelo://app?vid=5cf71fe1-d8e9-4bfd-b57f-bc121b1c43c5","ios":"levelo://app?vid=5cf71fe1-d8e9-4bfd-b57f-bc121b1c43c5"},"vehicle_type_id":"4","last_reported":1748880804,"current_range_meters":10800,"station_id":"ce4bhip2rcd13ifvqft0","pricing_plan_id":"cebpf4jnsgd1na2vs0mg"},{"bike_id":"ca267b29-486d-4071-b7d8-46f0d3f35c35","system_id":"levelo_inurba_marseille","lat":43.28407,"lon":5.34996,"is_reserved":false,"is_disabled":false,"rental_uris":{"android":"levelo://app?vid=ca267b29-486d-4071-b7d8-46f0d3f35c35","ios":"levelo://app?vid=ca267b29-486d-4071-b7d8-46f0d3f35c35"},"vehicle_type_id":"4","last_reported":1748880804,"current_range_meters":10800,"station_id":"ce4bhbh2rcd13ifvqepg","pricing_plan_id":"cebpf4jnsgd1na2vs0mg"},{"bike_id":"eaa1d05c-a6eb-4610-906c-29c05263f39c","system_id":"levelo_inurba_marseille","lat":43.292003,"lon":5.39322,"is_reserved":false,"is_disabled":false,"rental_uris":{"android":"levelo://app?vid=eaa1d05c-a6eb-4610-906c-29c05263f39c","ios":"levelo://app?vid=eaa1d05c-a6eb-4610-906c-29c05263f39c"},"vehicle_type_id":"4","last_reported":1748880804,"current_range_meters":10800,"station_id":"ce4bh192rcd13ifvqdd0","pricing_plan_id":"cebpf4jnsgd1na2vs0mg"},{"bike_id":"a0e939b5-f6c3-451e-bae2-193e80cfa4b7","system_id":"levelo_inurba_marseille","lat":43.28438,"lon":5.3491,"is_reserved":false,"is_disabled":false,"rental_uris":{"android":"levelo://app?vid=a0e939b5-f6c3-451e-bae2-193e80cfa4b7","ios":"levelo://app?vid=a0e939b5-f6c3-451e-bae2-193e80cfa4b7"},"vehicle_type_id":"4","last_reported":1748880804,"current_range_meters":10800,"station_id":"","pricing_plan_id":"cebpf4jnsgd1na2vs0mg"},{"bike_id":"199d8159-09b0-470d-9574-0dc5d916d941","system_id":"levelo_inurba_marseille","lat":43.29166,"lon":5.37151,"is_reserved":false,"is_disabled":false,"rental_uris":{"android":"levelo://app?vid=199d8159-09b0-470d-9574-0dc5d916d941","ios":"levelo://app?vid=199d8159-09b0-470d-9574-0dc5d916d941"},"vehicle_type_id":"4","last_reported":1748880804,"current_range_meters":10000,"station_id":"ce4bha92rcd13ifvqeh0","pricing_plan_id":"cebpf4jnsgd1na2vs0mg"},{"bike_id":"a0888236-4e90-4aeb-b880-7b9acc4d2d36","system_id":"levelo_inurba_marseille","lat":43.33052,"lon":5.38996,"is_reserved":false,"is_disabled":false,"rental_uris":{"android":"levelo://app?vid=a0888236-4e90-4aeb-b880-7b9acc4d2d36","ios":"levelo://app?vid=a0888236-4e90-4aeb-b880-7b9acc4d2d36"},"vehicle_type_id":"4","last_reported":1748880804,"current_range_meters":10800,"station_id":"ce4bhr92rcd13ifvqhrg","pricing_plan_id":"cebpf4jnsgd1na2vs0mg"},{"bike_id":"c0efa9f7-e824-4360-a502-15d5fea7784a","system_id":"levelo_inurba_marseille","lat":43.24806,"lon":5.37454,"is_reserved":false,"is_disabled":false,"rental_uris":{"android":"levelo://app?vid=c0efa9f7-e824-4360-a502-15d5fea7784a","ios":"levelo://app?vid=c0efa9f7-e824-4360-a502-15d5fea7784a"},"vehicle_type_id":"4","last_reported":1748880804,"current_range_meters":10000,"station_id":"ce4bhgh2rcd13ifvqfb0","pricing_plan_id":"cebpf4jnsgd1na2vs0mg"},{"bike_id":"c986f373-7f7b-4080-9f0b-c502ad855917","system_id":"levelo_inurba_marseille","lat":43.28374,"lon":5.38637,"is_reserved":false,"is_disabled":false,"rental_uris":{"android":"levelo://app?vid=c986f373-7f7b-4080-9f0b-c502ad855917","ios":"levelo://app?vid=c986f373-7f7b-4080-9f0b-c502ad855917"},"vehicle_type_id":"4","last_reported":1748880804,"current_range_meters":10800,"station_id":"ce4bh492rcd13ifvqdvg","pricing_plan_id":"cebpf4jnsgd1na2vs0mg"},{"bike_id":"d54bad3a-7ff1-4a15-aeab-92cdac98e952","system_id":"levelo_inurba_marseille","lat":43.27692,"lon":5.39604,"is_reserved":false,"is_disabled":false,"rental_uris":{"android":"levelo://app?vid=d54bad3a-7ff1-4a15-aeab-92cdac98e952","ios":"levelo://app?vid=d54bad3a-7ff1-4a15-aeab-92cdac98e952"},"vehicle_type_id":"4","last_reported":1748880804,"current_range_meters":10800,"station_id":"","pricing_plan_id":"cebpf4jnsgd1na2vs0mg"},{"bike_id":"d6f27d23-3a09-45f6-98b3-2d61c7c0fc34","system_id":"levelo_inurba_marseille","lat":43.25115,"lon":5.4032,"is_reserved":false,"is_disabled":false,"rental_uris":{"android":"levelo://app?vid=d6f27d23-3a09-45f6-98b3-2d61c7c0fc34","ios":"levelo://app?vid=d6f27d23-3a09-45f6-98b3-2d61c7c0fc34"},"vehicle_type_id":"4","last_reported":1748880804,"current_range_meters":10800,"station_id":"ce4bhlh2rcd13ifvqgig","pricing_plan_id":"cebpf4jnsgd1na2vs0mg"},{"bike_id":"fa53836f-388b-4a15-8cc6-6c55d9b6feca","system_id":"levelo_inurba_marseille","lat":43.30354,"lon":5.41882,"is_reserved":false,"is_disabled":false,"rental_uris":{"android":"levelo://app?vid=fa53836f-388b-4a15-8cc6-6c55d9b6feca","ios":"levelo://app?vid=fa53836f-388b-4a15-8cc6-6c55d9b6feca"},"vehicle_type_id":"4","last_reported":1748880804,"current_range_meters":11600,"station_id":"ce4bhop2rcd13ifvqh7g","pricing_plan_id":"cebpf4jnsgd1na2vs0mg"},{"bike_id":"1de79f41-af45-4c19-a26b-554878cf2d85","system_id":"levelo_inurba_marseille","lat":43.286594,"lon":5.363503,"is_reserved":false,"is_disabled":false,"rental_uris":{"android":"levelo://app?vid=1de79f41-af45-4c19-a26b-554878cf2d85","ios":"levelo://app?vid=1de79f41-af45-4c19-a26b-554878cf2d85"},"vehicle_type_id":"4","last_reported":1748880804,"current_range_meters":11200,"station_id":"ce4bhah2rcd13ifvqej0","pricing_plan_id":"cebpf4jnsgd1na2vs0mg"},{"bike_id":"0421921e-f818-4e62-9f70-b289cedcea24","system_id":"levelo_inurba_marseille","lat":43.30112,"lon":5.39873,"is_reserved":false,"is_disabled":false,"rental_uris":{"android":"levelo://app?vid=0421921e-f818-4e62-9f70-b289cedcea24","ios":"levelo://app?vid=0421921e-f818-4e62-9f70-b289cedcea24"},"vehicle_type_id":"4","last_reported":1748880804,"current_range_meters":12000,"station_id":"ce4bh0h2rcd13ifvqd40","pricing_plan_id":"cebpf4jnsgd1na2vs0mg"},{"bike_id":"e0ab244c-61a1-4aa6-a87f-d7178ed0ed0d","system_id":"levelo_inurba_marseille","lat":43.24672,"lon":5.38153,"is_reserved":false,"is_disabled":false,"rental_uris":{"android":"levelo://app?vid=e0ab244c-61a1-4aa6-a87f-d7178ed0ed0d","ios":"levelo://app?vid=e0ab244c-61a1-4aa6-a87f-d7178ed0ed0d"},"vehicle_type_id":"4","last_reported":1748880804,"current_range_meters":12000,"station_id":"ce4bhih2rcd13ifvqfr0","pricing_plan_id":"cebpf4jnsgd1na2vs0mg"},{"bike_id":"74d701ef-08dc-4af2-8016-389edfbfac69","system_id":"levelo_inurba_marseille","lat":43.3073,"lon":5.42451,"is_reserved":false,"is_disabled":false,"rental_uris":{"android":"levelo://app?vid=74d701ef-08dc-4af2-8016-389edfbfac69","ios":"levelo://app?vid=74d701ef-08dc-4af2-8016-389edfbfac69"},"vehicle_type_id":"4","last_reported":1748880804,"current_range_meters":12000,"station_id":"st_cvj6ca6bvosntc0bfgr0","pricing_plan_id":"cebpf4jnsgd1na2vs0mg"},{"bike_id":"2c64e4bc-106d-4a69-8474-903f360d4142","system_id":"levelo_inurba_marseille","lat":43.23201,"lon":5.39993,"is_reserved":false,"is_disabled":false,"rental_uris":{"android":"levelo://app?vid=2c64e4bc-106d-4a69-8474-903f360d4142","ios":"levelo://app?vid=2c64e4bc-106d-4a69-8474-903f360d4142"},"vehicle_type_id":"4","last_reported":1748880804,"current_range_meters":12000,"station_id":"ce4bhn12rcd13ifvqgqg","pricing_plan_id":"cebpf4jnsgd1na2vs0mg"},{"bike_id":"a5ef64a0-9027-4826-813b-2620fd6750d1","system_id":"levelo_inurba_marseille","lat":43.31341,"lon":5.39697,"is_reserved":false,"is_disabled":false,"rental_uris":{"android":"levelo://app?vid=a5ef64a0-9027-4826-813b-2620fd6750d1","ios":"levelo://app?vid=a5ef64a0-9027-4826-813b-2620fd6750d1"},"vehicle_type_id":"4","last_reported":1748880804,"current_range_meters":12000,"station_id":"ce4bgvp2rcd13ifvqcu0","pricing_plan_id":"cebpf4jnsgd1na2vs0mg"},{"bike_id":"9873ea8e-c2af-49bc-9f62-b61d54c33967","system_id":"levelo_inurba_marseille","lat":43.28922,"lon":5.36391,"is_reserved":false,"is_disabled":false,"rental_uris":{"android":"levelo://app?vid=9873ea8e-c2af-49bc-9f62-b61d54c33967","ios":"levelo://app?vid=9873ea8e-c2af-49bc-9f62-b61d54c33967"},"vehicle_type_id":"4","last_reported":1748880804,"current_range_meters":12000,"station_id":"ce4bhc92rcd13ifvqetg","pricing_plan_id":"cebpf4jnsgd1na2vs0mg"},{"bike_id":"27299f33-343d-41fa-ab01-d26c87ed7852","system_id":"levelo_inurba_marseille","lat":43.239677,"lon":5.366334,"is_reserved":false,"is_disabled":false,"rental_uris":{"android":"levelo://app?vid=27299f33-343d-41fa-ab01-d26c87ed7852","ios":"levelo://app?vid=27299f33-343d-41fa-ab01-d26c87ed7852"},"vehicle_type_id":"4","last_reported":1748880804,"current_range_meters":12000,"station_id":"ce4bhi12rcd13ifvqfp0","pricing_plan_id":"cebpf4jnsgd1na2vs0mg"},{"bike_id":"f1c8c7e1-3f34-4d38-a503-caa580ebde75","system_id":"levelo_inurba_marseille","lat":43.22503,"lon":5.34778,"is_reserved":false,"is_disabled":false,"rental_uris":{"android":"levelo://app?vid=f1c8c7e1-3f34-4d38-a503-caa580ebde75","ios":"levelo://app?vid=f1c8c7e1-3f34-4d38-a503-caa580ebde75"},"vehicle_type_id":"4","last_reported":1748880804,"current_range_meters":12400,"station_id":"st_cvj5dfep6f1abm77gieg","pricing_plan_id":"cebpf4jnsgd1na2vs0mg"},{"bike_id":"752f75bb-1447-4b42-b9c4-6f81046ef291","system_id":"levelo_inurba_marseille","lat":43.31325,"lon":5.396991,"is_reserved":false,"is_disabled":false,"rental_uris":{"android":"levelo://app?vid=752f75bb-1447-4b42-b9c4-6f81046ef291","ios":"levelo://app?vid=752f75bb-1447-4b42-b9c4-6f81046ef291"},"vehicle_type_id":"4","last_reported":1748880804,"current_range_meters":12000,"station_id":"ce4bgvp2rcd13ifvqcu0","pricing_plan_id":"cebpf4jnsgd1na2vs0mg"},{"bike_id":"6060549f-f072-4ec6-941d-b7a4686fef7a","system_id":"levelo_inurba_marseille","lat":43.25116,"lon":5.40334,"is_reserved":false,"is_disabled":false,"rental_uris":{"android":"levelo://app?vid=6060549f-f072-4ec6-941d-b7a4686fef7a","ios":"levelo://app?vid=6060549f-f072-4ec6-941d-b7a4686fef7a"},"vehicle_type_id":"4","last_reported":1748880804,"current_range_meters":12400,"station_id":"ce4bhlh2rcd13ifvqgig","pricing_plan_id":"cebpf4jnsgd1na2vs0mg"},{"bike_id":"882e0e4d-7017-49d9-84e5-6bf04bad6ca6","system_id":"levelo_inurba_marseille","lat":43.25824,"lon":5.394373,"is_reserved":false,"is_disabled":false,"rental_uris":{"android":"levelo://app?vid=882e0e4d-7017-49d9-84e5-6bf04bad6ca6","ios":"levelo://app?vid=882e0e4d-7017-49d9-84e5-6bf04bad6ca6"},"vehicle_type_id":"4","last_reported":1748880804,"current_range_meters":12400,"station_id":"ce4bhip2rcd13ifvqft0","pricing_plan_id":"cebpf4jnsgd1na2vs0mg"},{"bike_id":"ca0b3444-318f-4cd4-973f-dcffb61c7ad1","system_id":"levelo_inurba_marseille","lat":43.28454,"lon":5.35889,"is_reserved":false,"is_disabled":false,"rental_uris":{"android":"levelo://app?vid=ca0b3444-318f-4cd4-973f-dcffb61c7ad1","ios":"levelo://app?vid=ca0b3444-318f-4cd4-973f-dcffb61c7ad1"},"vehicle_type_id":"4","last_reported":1748880804,"current_range_meters":12400,"station_id":"ce4bhah2rcd13ifvqei0","pricing_plan_id":"cebpf4jnsgd1na2vs0mg"},{"bike_id":"54611373-835d-4057-a676-b80be8b61df6","system_id":"levelo_inurba_marseille","lat":43.2841,"lon":5.34991,"is_reserved":false,"is_disabled":false,"rental_uris":{"android":"levelo://app?vid=54611373-835d-4057-a676-b80be8b61df6","ios":"levelo://app?vid=54611373-835d-4057-a676-b80be8b61df6"},"vehicle_type_id":"4","last_reported":1748880804,"current_range_meters":12400,"station_id":"ce4bhbh2rcd13ifvqepg","pricing_plan_id":"cebpf4jnsgd1na2vs0mg"},{"bike_id":"e8513569-f85c-42f7-9bae-5339d6a20589","system_id":"levelo_inurba_marseille","lat":43.29634,"lon":5.40594,"is_reserved":false,"is_disabled":false,"rental_uris":{"android":"levelo://app?vid=e8513569-f85c-42f7-9bae-5339d6a20589","ios":"levelo://app?vid=e8513569-f85c-42f7-9bae-5339d6a20589"},"vehicle_type_id":"4","last_reported":1748880804,"current_range_meters":12400,"station_id":"ce4bh0h2rcd13ifvqd60","pricing_plan_id":"cebpf4jnsgd1na2vs0mg"},{"bike_id":"01af4937-d146-4d26-a03f-3c0a3e3ea3e4","system_id":"levelo_inurba_marseille","lat":43.30643,"lon":5.40079,"is_reserved":false,"is_disabled":false,"rental_uris":{"android":"levelo://app?vid=01af4937-d146-4d26-a03f-3c0a3e3ea3e4","ios":"levelo://app?vid=01af4937-d146-4d26-a03f-3c0a3e3ea3e4"},"vehicle_type_id":"4","last_reported":1748880804,"current_range_meters":12800,"station_id":"ce4bh112rcd13ifvqda0","pricing_plan_id":"cebpf4jnsgd1na2vs0mg"},{"bike_id":"23b6a49f-7298-41c1-81ab-62377d82e113","system_id":"levelo_inurba_marseille","lat":43.27376,"lon":5.36252,"is_reserved":false,"is_disabled":false,"rental_uris":{"android":"levelo://app?vid=23b6a49f-7298-41c1-81ab-62377d82e113","ios":"levelo://app?vid=23b6a49f-7298-41c1-81ab-62377d82e113"},"vehicle_type_id":"4","last_reported":1748880804,"current_range_meters":12800,"station_id":"ce4bhbh2rcd13ifvqeo0","pricing_plan_id":"cebpf4jnsgd1na2vs0mg"},{"bike_id":"6759224c-f28f-4edc-90d1-667b98e308e7","system_id":"levelo_inurba_marseille","lat":43.27812,"lon":5.4071,"is_reserved":false,"is_disabled":false,"rental_uris":{"android":"levelo://app?vid=6759224c-f28f-4edc-90d1-667b98e308e7","ios":"levelo://app?vid=6759224c-f28f-4edc-90d1-667b98e308e7"},"vehicle_type_id":"4","last_reported":1748880804,"current_range_meters":12800,"station_id":"ce4bhnh2rcd13ifvqgtg","pricing_plan_id":"cebpf4jnsgd1na2vs0mg"},{"bike_id":"f9ba8850-482d-43cd-93c6-da015477c7af","system_id":"levelo_inurba_marseille","lat":43.28634,"lon":5.38378,"is_reserved":false,"is_disabled":false,"rental_uris":{"android":"levelo://app?vid=f9ba8850-482d-43cd-93c6-da015477c7af","ios":"levelo://app?vid=f9ba8850-482d-43cd-93c6-da015477c7af"},"vehicle_type_id":"4","last_reported":1748880804,"current_range_meters":12800,"station_id":"","pricing_plan_id":"cebpf4jnsgd1na2vs0mg"},{"bike_id":"a7d53335-2f33-4ed9-b97b-1eb9f0475335","system_id":"levelo_inurba_marseille","lat":43.24805,"lon":5.37457,"is_reserved":false,"is_disabled":false,"rental_uris":{"android":"levelo://app?vid=a7d53335-2f33-4ed9-b97b-1eb9f0475335","ios":"levelo://app?vid=a7d53335-2f33-4ed9-b97b-1eb9f0475335"},"vehicle_type_id":"4","last_reported":1748880804,"current_range_meters":12400,"station_id":"ce4bhgh2rcd13ifvqfb0","pricing_plan_id":"cebpf4jnsgd1na2vs0mg"},{"bike_id":"6c842597-662d-4008-b404-86e67251dde8","system_id":"levelo_inurba_marseille","lat":43.28262,"lon":5.39073,"is_reserved":false,"is_disabled":false,"rental_uris":{"android":"levelo://app?vid=6c842597-662d-4008-b404-86e67251dde8","ios":"levelo://app?vid=6c842597-662d-4008-b404-86e67251dde8"},"vehicle_type_id":"4","last_reported":1748880804,"current_range_meters":12800,"station_id":"","pricing_plan_id":"cebpf4jnsgd1na2vs0mg"},{"bike_id":"5530d103-9383-44d5-a39d-d38527be1535","system_id":"levelo_inurba_marseille","lat":43.29007,"lon":5.35617,"is_reserved":false,"is_disabled":false,"rental_uris":{"android":"levelo://app?vid=5530d103-9383-44d5-a39d-d38527be1535","ios":"levelo://app?vid=5530d103-9383-44d5-a39d-d38527be1535"},"vehicle_type_id":"4","last_reported":1748880804,"current_range_meters":13600,"station_id":"ce4bhb92rcd13ifvqen0","pricing_plan_id":"cebpf4jnsgd1na2vs0mg"},{"bike_id":"d1376fdb-bb8d-40aa-8de5-84acb3706c2e","system_id":"levelo_inurba_marseille","lat":43.323607,"lon":5.367613,"is_reserved":false,"is_disabled":false,"rental_uris":{"android":"levelo://app?vid=d1376fdb-bb8d-40aa-8de5-84acb3706c2e","ios":"levelo://app?vid=d1376fdb-bb8d-40aa-8de5-84acb3706c2e"},"vehicle_type_id":"4","last_reported":1748880804,"current_range_meters":13600,"station_id":"ce4bhsh2rcd13ifvqi2g","pricing_plan_id":"cebpf4jnsgd1na2vs0mg"},{"bike_id":"3694b376-be80-4539-9eab-0b143432d0fc","system_id":"levelo_inurba_marseille","lat":43.29417,"lon":5.38622,"is_reserved":false,"is_disabled":false,"rental_uris":{"android":"levelo://app?vid=3694b376-be80-4539-9eab-0b143432d0fc","ios":"levelo://app?vid=3694b376-be80-4539-9eab-0b143432d0fc"},"vehicle_type_id":"4","last_reported":1748880804,"current_range_meters":13600,"station_id":"ce4bh2h2rcd13ifvqdh0","pricing_plan_id":"cebpf4jnsgd1na2vs0mg"},{"bike_id":"2e0494df-b34d-4651-a623-02314619e7ed","system_id":"levelo_inurba_marseille","lat":43.30138,"lon":5.39885,"is_reserved":false,"is_disabled":false,"rental_uris":{"android":"levelo://app?vid=2e0494df-b34d-4651-a623-02314619e7ed","ios":"levelo://app?vid=2e0494df-b34d-4651-a623-02314619e7ed"},"vehicle_type_id":"4","last_reported":1748880804,"current_range_meters":14000,"station_id":"ce4bh0h2rcd13ifvqd40","pricing_plan_id":"cebpf4jnsgd1na2vs0mg"},{"bike_id":"5b0c04c7-3e5d-4981-ba91-7d65704822b2","system_id":"levelo_inurba_marseille","lat":43.27909,"lon":5.38013,"is_reserved":false,"is_disabled":false,"rental_uris":{"android":"levelo://app?vid=5b0c04c7-3e5d-4981-ba91-7d65704822b2","ios":"levelo://app?vid=5b0c04c7-3e5d-4981-ba91-7d65704822b2"},"vehicle_type_id":"4","last_reported":1748880804,"current_range_meters":14000,"station_id":"ce4bhf92rcd13ifvqf50","pricing_plan_id":"cebpf4jnsgd1na2vs0mg"},{"bike_id":"41745989-7fe9-48cb-89c8-b11027a26447","system_id":"levelo_inurba_marseille","lat":43.3176,"lon":5.39014,"is_reserved":false,"is_disabled":false,"rental_uris":{"android":"levelo://app?vid=41745989-7fe9-48cb-89c8-b11027a26447","ios":"levelo://app?vid=41745989-7fe9-48cb-89c8-b11027a26447"},"vehicle_type_id":"4","last_reported":1748880804,"current_range_meters":13600,"station_id":"ce4bhqp2rcd13ifvqhng","pricing_plan_id":"cebpf4jnsgd1na2vs0mg"},{"bike_id":"5e3ea310-9f85-46d4-89ff-f729bd66d70e","system_id":"levelo_inurba_marseille","lat":43.30905,"lon":5.37211,"is_reserved":false,"is_disabled":false,"rental_uris":{"android":"levelo://app?vid=5e3ea310-9f85-46d4-89ff-f729bd66d70e","ios":"levelo://app?vid=5e3ea310-9f85-46d4-89ff-f729bd66d70e"},"vehicle_type_id":"4","last_reported":1748880804,"current_range_meters":14000,"station_id":"ce4bguh2rcd13ifvqckg","pricing_plan_id":"cebpf4jnsgd1na2vs0mg"},{"bike_id":"fa62253e-e4db-42d1-9a63-6ab16922bf00","system_id":"levelo_inurba_marseille","lat":43.320051,"lon":5.368071,"is_reserved":false,"is_disabled":false,"rental_uris":{"android":"levelo://app?vid=fa62253e-e4db-42d1-9a63-6ab16922bf00","ios":"levelo://app?vid=fa62253e-e4db-42d1-9a63-6ab16922bf00"},"vehicle_type_id":"4","last_reported":1748880804,"current_range_meters":14400,"station_id":"","pricing_plan_id":"cebpf4jnsgd1na2vs0mg"},{"bike_id":"3082751b-d3f4-42ac-b6c0-bf946931c7e5","system_id":"levelo_inurba_marseille","lat":43.21195,"lon":5.35071,"is_reserved":false,"is_disabled":false,"rental_uris":{"android":"levelo://app?vid=3082751b-d3f4-42ac-b6c0-bf946931c7e5","ios":"levelo://app?vid=3082751b-d3f4-42ac-b6c0-bf946931c7e5"},"vehicle_type_id":"4","last_reported":1748880804,"current_range_meters":14400,"station_id":"st_cvj6sg6p6f1abm77japg","pricing_plan_id":"cebpf4jnsgd1na2vs0mg"},{"bike_id":"4f2463be-45da-4ca2-9972-97f2e6e3ef11","system_id":"levelo_inurba_marseille","lat":43.28152,"lon":5.42636,"is_reserved":false,"is_disabled":false,"rental_uris":{"android":"levelo://app?vid=4f2463be-45da-4ca2-9972-97f2e6e3ef11","ios":"levelo://app?vid=4f2463be-45da-4ca2-9972-97f2e6e3ef11"},"vehicle_type_id":"4","last_reported":1748880804,"current_range_meters":14400,"station_id":"ce4bhnh2rcd13ifvqgug","pricing_plan_id":"cebpf4jnsgd1na2vs0mg"},{"bike_id":"3e4186ae-5b22-49a2-ae0e-baf394e88501","system_id":"levelo_inurba_marseille","lat":43.29009,"lon":5.35603,"is_reserved":false,"is_disabled":false,"rental_uris":{"android":"levelo://app?vid=3e4186ae-5b22-49a2-ae0e-baf394e88501","ios":"levelo://app?vid=3e4186ae-5b22-49a2-ae0e-baf394e88501"},"vehicle_type_id":"4","last_reported":1748880804,"current_range_meters":14400,"station_id":"ce4bhb92rcd13ifvqen0","pricing_plan_id":"cebpf4jnsgd1na2vs0mg"},{"bike_id":"82eb2f30-dbb4-4ba2-8e93-9cc7ba4b3d3c","system_id":"levelo_inurba_marseille","lat":43.23193,"lon":5.39978,"is_reserved":false,"is_disabled":false,"rental_uris":{"android":"levelo://app?vid=82eb2f30-dbb4-4ba2-8e93-9cc7ba4b3d3c","ios":"levelo://app?vid=82eb2f30-dbb4-4ba2-8e93-9cc7ba4b3d3c"},"vehicle_type_id":"4","last_reported":1748880804,"current_range_meters":14400,"station_id":"ce4bhn12rcd13ifvqgqg","pricing_plan_id":"cebpf4jnsgd1na2vs0mg"},{"bike_id":"8e0a5f84-05c8-42a5-8f96-55f5b63122cb","system_id":"levelo_inurba_marseille","lat":43.285946,"lon":5.350937,"is_reserved":false,"is_disabled":false,"rental_uris":{"android":"levelo://app?vid=8e0a5f84-05c8-42a5-8f96-55f5b63122cb","ios":"levelo://app?vid=8e0a5f84-05c8-42a5-8f96-55f5b63122cb"},"vehicle_type_id":"4","last_reported":1748880804,"current_range_meters":14800,"station_id":"ce4bhch2rcd13ifvqeug","pricing_plan_id":"cebpf4jnsgd1na2vs0mg"},{"bike_id":"d1694400-2c42-4086-947c-527f9edc4925","system_id":"levelo_inurba_marseille","lat":43.31329,"lon":5.39705,"is_reserved":false,"is_disabled":false,"rental_uris":{"android":"levelo://app?vid=d1694400-2c42-4086-947c-527f9edc4925","ios":"levelo://app?vid=d1694400-2c42-4086-947c-527f9edc4925"},"vehicle_type_id":"4","last_reported":1748880804,"current_range_meters":15200,"station_id":"ce4bgvp2rcd13ifvqcu0","pricing_plan_id":"cebpf4jnsgd1na2vs0mg"},{"bike_id":"de8215ca-1c59-4889-a57d-8349ae77918f","system_id":"levelo_inurba_marseille","lat":43.29791,"lon":5.38118,"is_reserved":false,"is_disabled":false,"rental_uris":{"android":"levelo://app?vid=de8215ca-1c59-4889-a57d-8349ae77918f","ios":"levelo://app?vid=de8215ca-1c59-4889-a57d-8349ae77918f"},"vehicle_type_id":"4","last_reported":1748880804,"current_range_meters":15200,"station_id":"ce4bgip2rcd13ifvqbb0","pricing_plan_id":"cebpf4jnsgd1na2vs0mg"},{"bike_id":"50817d2f-1bd8-4763-9171-9bc88df03cd9","system_id":"levelo_inurba_marseille","lat":43.3014,"lon":5.38781,"is_reserved":false,"is_disabled":false,"rental_uris":{"android":"levelo://app?vid=50817d2f-1bd8-4763-9171-9bc88df03cd9","ios":"levelo://app?vid=50817d2f-1bd8-4763-9171-9bc88df03cd9"},"vehicle_type_id":"4","last_reported":1748880804,"current_range_meters":14800,"station_id":"ce4bghh2rcd13ifvqb60","pricing_plan_id":"cebpf4jnsgd1na2vs0mg"},{"bike_id":"a3dfb24d-2bc1-4dbc-b2b2-807b9fa8d499","system_id":"levelo_inurba_marseille","lat":43.30804,"lon":5.43525,"is_reserved":false,"is_disabled":false,"rental_uris":{"android":"levelo://app?vid=a3dfb24d-2bc1-4dbc-b2b2-807b9fa8d499","ios":"levelo://app?vid=a3dfb24d-2bc1-4dbc-b2b2-807b9fa8d499"},"vehicle_type_id":"4","last_reported":1748880804,"current_range_meters":15200,"station_id":"ce4bhph2rcd13ifvqheg","pricing_plan_id":"cebpf4jnsgd1na2vs0mg"},{"bike_id":"2ea19fc5-df2f-4b1e-9c37-7a737a40b076","system_id":"levelo_inurba_marseille","lat":43.24806,"lon":5.37464,"is_reserved":false,"is_disabled":false,"rental_uris":{"android":"levelo://app?vid=2ea19fc5-df2f-4b1e-9c37-7a737a40b076","ios":"levelo://app?vid=2ea19fc5-df2f-4b1e-9c37-7a737a40b076"},"vehicle_type_id":"4","last_reported":1748880804,"current_range_meters":16000,"station_id":"ce4bhgh2rcd13ifvqfb0","pricing_plan_id":"cebpf4jnsgd1na2vs0mg"},{"bike_id":"ac2caa47-de50-4eb2-a0a2-d67e53dc1071","system_id":"levelo_inurba_marseille","lat":43.301424,"lon":5.374193,"is_reserved":false,"is_disabled":false,"rental_uris":{"android":"levelo://app?vid=ac2caa47-de50-4eb2-a0a2-d67e53dc1071","ios":"levelo://app?vid=ac2caa47-de50-4eb2-a0a2-d67e53dc1071"},"vehicle_type_id":"4","last_reported":1748880804,"current_range_meters":16000,"station_id":"ce4bgs92rcd13ifvqcc0","pricing_plan_id":"cebpf4jnsgd1na2vs0mg"},{"bike_id":"c8133e65-723f-41fe-886e-6be8a9a942a3","system_id":"levelo_inurba_marseille","lat":43.30307,"lon":5.392124,"is_reserved":false,"is_disabled":false,"rental_uris":{"android":"levelo://app?vid=c8133e65-723f-41fe-886e-6be8a9a942a3","ios":"levelo://app?vid=c8133e65-723f-41fe-886e-6be8a9a942a3"},"vehicle_type_id":"4","last_reported":1748880804,"current_range_meters":16000,"station_id":"ce4bgkh2rcd13ifvqbk0","pricing_plan_id":"cebpf4jnsgd1na2vs0mg"},{"bike_id":"4e902d55-3644-49db-a0af-27994b0ae8c2","system_id":"levelo_inurba_marseille","lat":43.29534,"lon":5.38545,"is_reserved":false,"is_disabled":false,"rental_uris":{"android":"levelo://app?vid=4e902d55-3644-49db-a0af-27994b0ae8c2","ios":"levelo://app?vid=4e902d55-3644-49db-a0af-27994b0ae8c2"},"vehicle_type_id":"4","last_reported":1748880804,"current_range_meters":16000,"station_id":"ce4bgih2rcd13ifvqba0","pricing_plan_id":"cebpf4jnsgd1na2vs0mg"},{"bike_id":"3dfb38a2-0f5b-4c3d-be7f-6c48743d17ac","system_id":"levelo_inurba_marseille","lat":43.30301,"lon":5.39228,"is_reserved":false,"is_disabled":false,"rental_uris":{"android":"levelo://app?vid=3dfb38a2-0f5b-4c3d-be7f-6c48743d17ac","ios":"levelo://app?vid=3dfb38a2-0f5b-4c3d-be7f-6c48743d17ac"},"vehicle_type_id":"4","last_reported":1748880804,"current_range_meters":16000,"station_id":"ce4bgkh2rcd13ifvqbk0","pricing_plan_id":"cebpf4jnsgd1na2vs0mg"},{"bike_id":"f68b568c-19c3-4299-b1fc-d195d756dfea","system_id":"levelo_inurba_marseille","lat":43.282674,"lon":5.350616,"is_reserved":false,"is_disabled":false,"rental_uris":{"android":"levelo://app?vid=f68b568c-19c3-4299-b1fc-d195d756dfea","ios":"levelo://app?vid=f68b568c-19c3-4299-b1fc-d195d756dfea"},"vehicle_type_id":"4","last_reported":1748880804,"current_range_meters":16000,"station_id":"ce4bhbp2rcd13ifvqerg","pricing_plan_id":"cebpf4jnsgd1na2vs0mg"},{"bike_id":"70f18742-11bd-41a3-8c02-1075c8d5c4f9","system_id":"levelo_inurba_marseille","lat":43.24172,"lon":5.36409,"is_reserved":false,"is_disabled":false,"rental_uris":{"android":"levelo://app?vid=70f18742-11bd-41a3-8c02-1075c8d5c4f9","ios":"levelo://app?vid=70f18742-11bd-41a3-8c02-1075c8d5c4f9"},"vehicle_type_id":"4","last_reported":1748880804,"current_range_meters":16400,"station_id":"cpo36qri1sfpv3e86is0","pricing_plan_id":"cebpf4jnsgd1na2vs0mg"},{"bike_id":"0fc4f835-2339-4b15-970f-d27b0d088aec","system_id":"levelo_inurba_marseille","lat":43.28425,"lon":5.35,"is_reserved":false,"is_disabled":false,"rental_uris":{"android":"levelo://app?vid=0fc4f835-2339-4b15-970f-d27b0d088aec","ios":"levelo://app?vid=0fc4f835-2339-4b15-970f-d27b0d088aec"},"vehicle_type_id":"4","last_reported":1748880804,"current_range_meters":16400,"station_id":"ce4bhbh2rcd13ifvqepg","pricing_plan_id":"cebpf4jnsgd1na2vs0mg"},{"bike_id":"dc1c9e1e-df3b-49c4-b4de-424e10e6584e","system_id":"levelo_inurba_marseille","lat":43.29598,"lon":5.381,"is_reserved":false,"is_disabled":false,"rental_uris":{"android":"levelo://app?vid=dc1c9e1e-df3b-49c4-b4de-424e10e6584e","ios":"levelo://app?vid=dc1c9e1e-df3b-49c4-b4de-424e10e6584e"},"vehicle_type_id":"4","last_reported":1748880804,"current_range_meters":16400,"station_id":"ce4bgl12rcd13ifvqbo0","pricing_plan_id":"cebpf4jnsgd1na2vs0mg"},{"bike_id":"24f6f8a0-d56e-4773-90f8-56d72cbbe4c1","system_id":"levelo_inurba_marseille","lat":43.29525,"lon":5.39039,"is_reserved":false,"is_disabled":false,"rental_uris":{"android":"levelo://app?vid=24f6f8a0-d56e-4773-90f8-56d72cbbe4c1","ios":"levelo://app?vid=24f6f8a0-d56e-4773-90f8-56d72cbbe4c1"},"vehicle_type_id":"4","last_reported":1748880804,"current_range_meters":16400,"station_id":"ce4bh3p2rcd13ifvqdp0","pricing_plan_id":"cebpf4jnsgd1na2vs0mg"},{"bike_id":"a33c9ded-afda-47fd-87fa-ac593a798cfa","system_id":"levelo_inurba_marseille","lat":43.26856,"lon":5.38589,"is_reserved":false,"is_disabled":false,"rental_uris":{"android":"levelo://app?vid=a33c9ded-afda-47fd-87fa-ac593a798cfa","ios":"levelo://app?vid=a33c9ded-afda-47fd-87fa-ac593a798cfa"},"vehicle_type_id":"4","last_reported":1748880804,"current_range_meters":16800,"station_id":"","pricing_plan_id":"cebpf4jnsgd1na2vs0mg"},{"bike_id":"7adb50b9-076d-4cfc-8674-b3f9bc231ba5","system_id":"levelo_inurba_marseille","lat":43.27682,"lon":5.38884,"is_reserved":false,"is_disabled":false,"rental_uris":{"android":"levelo://app?vid=7adb50b9-076d-4cfc-8674-b3f9bc231ba5","ios":"levelo://app?vid=7adb50b9-076d-4cfc-8674-b3f9bc231ba5"},"vehicle_type_id":"4","last_reported":1748880804,"current_range_meters":16400,"station_id":"ce4bhi12rcd13ifvqfo0","pricing_plan_id":"cebpf4jnsgd1na2vs0mg"},{"bike_id":"49d8c1d3-42d0-49d5-aa51-c11ee75a8849","system_id":"levelo_inurba_marseille","lat":43.27366,"lon":5.36248,"is_reserved":false,"is_disabled":false,"rental_uris":{"android":"levelo://app?vid=49d8c1d3-42d0-49d5-aa51-c11ee75a8849","ios":"levelo://app?vid=49d8c1d3-42d0-49d5-aa51-c11ee75a8849"},"vehicle_type_id":"4","last_reported":1748880804,"current_range_meters":16800,"station_id":"ce4bhbh2rcd13ifvqeo0","pricing_plan_id":"cebpf4jnsgd1na2vs0mg"},{"bike_id":"2171c9f1-57c0-4bf3-b436-aee76219ed87","system_id":"levelo_inurba_marseille","lat":43.27828,"lon":5.40699,"is_reserved":false,"is_disabled":false,"rental_uris":{"android":"levelo://app?vid=2171c9f1-57c0-4bf3-b436-aee76219ed87","ios":"levelo://app?vid=2171c9f1-57c0-4bf3-b436-aee76219ed87"},"vehicle_type_id":"4","last_reported":1748880804,"current_range_meters":16800,"station_id":"ce4bhnh2rcd13ifvqgtg","pricing_plan_id":"cebpf4jnsgd1na2vs0mg"},{"bike_id":"a7c2015c-21e9-4d9d-85cd-709bfae57a68","system_id":"levelo_inurba_marseille","lat":43.27677,"lon":5.38882,"is_reserved":false,"is_disabled":false,"rental_uris":{"android":"levelo://app?vid=a7c2015c-21e9-4d9d-85cd-709bfae57a68","ios":"levelo://app?vid=a7c2015c-21e9-4d9d-85cd-709bfae57a68"},"vehicle_type_id":"4","last_reported":1748880804,"current_range_meters":17200,"station_id":"ce4bhi12rcd13ifvqfo0","pricing_plan_id":"cebpf4jnsgd1na2vs0mg"},{"bike_id":"fbd228c6-fc7b-4dce-91d9-931215d73166","system_id":"levelo_inurba_marseille","lat":43.28418,"lon":5.35,"is_reserved":false,"is_disabled":false,"rental_uris":{"android":"levelo://app?vid=fbd228c6-fc7b-4dce-91d9-931215d73166","ios":"levelo://app?vid=fbd228c6-fc7b-4dce-91d9-931215d73166"},"vehicle_type_id":"4","last_reported":1748880804,"current_range_meters":16800,"station_id":"ce4bhbh2rcd13ifvqepg","pricing_plan_id":"cebpf4jnsgd1na2vs0mg"},{"bike_id":"2dd296a5-b544-4ca7-8fae-b1d3e757005d","system_id":"levelo_inurba_marseille","lat":43.2942,"lon":5.38623,"is_reserved":false,"is_disabled":false,"rental_uris":{"android":"levelo://app?vid=2dd296a5-b544-4ca7-8fae-b1d3e757005d","ios":"levelo://app?vid=2dd296a5-b544-4ca7-8fae-b1d3e757005d"},"vehicle_type_id":"4","last_reported":1748880804,"current_range_meters":16800,"station_id":"ce4bh2h2rcd13ifvqdh0","pricing_plan_id":"cebpf4jnsgd1na2vs0mg"},{"bike_id":"cd6f2486-db65-4ef4-b003-36024d202a15","system_id":"levelo_inurba_marseille","lat":43.24999,"lon":5.38931,"is_reserved":false,"is_disabled":false,"rental_uris":{"android":"levelo://app?vid=cd6f2486-db65-4ef4-b003-36024d202a15","ios":"levelo://app?vid=cd6f2486-db65-4ef4-b003-36024d202a15"},"vehicle_type_id":"4","last_reported":1748880804,"current_range_meters":16400,"station_id":"ce4bhgp2rcd13ifvqfd0","pricing_plan_id":"cebpf4jnsgd1na2vs0mg"},{"bike_id":"bf2e7a06-3f1e-4bde-be70-c1b331dc5cfc","system_id":"levelo_inurba_marseille","lat":43.26554,"lon":5.39018,"is_reserved":false,"is_disabled":true,"rental_uris":{"android":"levelo://app?vid=bf2e7a06-3f1e-4bde-be70-c1b331dc5cfc","ios":"levelo://app?vid=bf2e7a06-3f1e-4bde-be70-c1b331dc5cfc"},"vehicle_type_id":"4","last_reported":1748880804,"current_range_meters":17200,"station_id":"ce4bhe12rcd13ifvqf30","pricing_plan_id":"cebpf4jnsgd1na2vs0mg"},{"bike_id":"a79d1f14-488a-4717-9122-17153b9e053b","system_id":"levelo_inurba_marseille","lat":43.217581,"lon":5.346179,"is_reserved":false,"is_disabled":false,"rental_uris":{"android":"levelo://app?vid=a79d1f14-488a-4717-9122-17153b9e053b","ios":"levelo://app?vid=a79d1f14-488a-4717-9122-17153b9e053b"},"vehicle_type_id":"4","last_reported":1748880804,"current_range_meters":17200,"station_id":"st_cvj6r9ubvosntc0bgbag","pricing_plan_id":"cebpf4jnsgd1na2vs0mg"},{"bike_id":"4a14a1d0-52a7-4c45-a1c7-407cd618ccbf","system_id":"levelo_inurba_marseille","lat":43.265517,"lon":5.373167,"is_reserved":false,"is_disabled":false,"rental_uris":{"android":"levelo://app?vid=4a14a1d0-52a7-4c45-a1c7-407cd618ccbf","ios":"levelo://app?vid=4a14a1d0-52a7-4c45-a1c7-407cd618ccbf"},"vehicle_type_id":"4","last_reported":1748880804,"current_range_meters":17200,"station_id":"ce4bhg12rcd13ifvqf70","pricing_plan_id":"cebpf4jnsgd1na2vs0mg"},{"bike_id":"7fbfda49-cb12-45f2-a948-02e6ee4983a5","system_id":"levelo_inurba_marseille","lat":43.2842,"lon":5.3499,"is_reserved":false,"is_disabled":false,"rental_uris":{"android":"levelo://app?vid=7fbfda49-cb12-45f2-a948-02e6ee4983a5","ios":"levelo://app?vid=7fbfda49-cb12-45f2-a948-02e6ee4983a5"},"vehicle_type_id":"4","last_reported":1748880804,"current_range_meters":17200,"station_id":"ce4bhbh2rcd13ifvqepg","pricing_plan_id":"cebpf4jnsgd1na2vs0mg"},{"bike_id":"2d7c1302-ee2f-4f2c-984d-dca64eb3ed5e","system_id":"levelo_inurba_marseille","lat":43.28478,"lon":5.38418,"is_reserved":false,"is_disabled":false,"rental_uris":{"android":"levelo://app?vid=2d7c1302-ee2f-4f2c-984d-dca64eb3ed5e","ios":"levelo://app?vid=2d7c1302-ee2f-4f2c-984d-dca64eb3ed5e"},"vehicle_type_id":"4","last_reported":1748880804,"current_range_meters":17200,"station_id":"ce4bh512rcd13ifvqe3g","pricing_plan_id":"cebpf4jnsgd1na2vs0mg"},{"bike_id":"4501ef29-c7e4-4354-b9e8-fe05b9e81f5c","system_id":"levelo_inurba_marseille","lat":43.29893,"lon":5.39738,"is_reserved":false,"is_disabled":false,"rental_uris":{"android":"levelo://app?vid=4501ef29-c7e4-4354-b9e8-fe05b9e81f5c","ios":"levelo://app?vid=4501ef29-c7e4-4354-b9e8-fe05b9e81f5c"},"vehicle_type_id":"4","last_reported":1748880804,"current_range_meters":17600,"station_id":"ce4bh0h2rcd13ifvqd50","pricing_plan_id":"cebpf4jnsgd1na2vs0mg"},{"bike_id":"64bb3847-00c9-4dc0-b6f3-d3ad704790d7","system_id":"levelo_inurba_marseille","lat":43.29157,"lon":5.37153,"is_reserved":false,"is_disabled":false,"rental_uris":{"android":"levelo://app?vid=64bb3847-00c9-4dc0-b6f3-d3ad704790d7","ios":"levelo://app?vid=64bb3847-00c9-4dc0-b6f3-d3ad704790d7"},"vehicle_type_id":"4","last_reported":1748880804,"current_range_meters":17600,"station_id":"ce4bha92rcd13ifvqeh0","pricing_plan_id":"cebpf4jnsgd1na2vs0mg"},{"bike_id":"56ebd079-5325-4146-a252-c6e09bfabc00","system_id":"levelo_inurba_marseille","lat":43.31894,"lon":5.40736,"is_reserved":false,"is_disabled":false,"rental_uris":{"android":"levelo://app?vid=56ebd079-5325-4146-a252-c6e09bfabc00","ios":"levelo://app?vid=56ebd079-5325-4146-a252-c6e09bfabc00"},"vehicle_type_id":"4","last_reported":1748880804,"current_range_meters":17600,"station_id":"ce4bhq12rcd13ifvqhig","pricing_plan_id":"cebpf4jnsgd1na2vs0mg"},{"bike_id":"206735aa-cc71-47f7-9c67-d08fbdf682ee","system_id":"levelo_inurba_marseille","lat":43.25167,"lon":5.40322,"is_reserved":false,"is_disabled":false,"rental_uris":{"android":"levelo://app?vid=206735aa-cc71-47f7-9c67-d08fbdf682ee","ios":"levelo://app?vid=206735aa-cc71-47f7-9c67-d08fbdf682ee"},"vehicle_type_id":"4","last_reported":1748880804,"current_range_meters":18000,"station_id":"","pricing_plan_id":"cebpf4jnsgd1na2vs0mg"},{"bike_id":"0c58c274-d2a1-4478-84c2-1ede51dfc56e","system_id":"levelo_inurba_marseille","lat":43.29574,"lon":5.39985,"is_reserved":false,"is_disabled":false,"rental_uris":{"android":"levelo://app?vid=0c58c274-d2a1-4478-84c2-1ede51dfc56e","ios":"levelo://app?vid=0c58c274-d2a1-4478-84c2-1ede51dfc56e"},"vehicle_type_id":"4","last_reported":1748880804,"current_range_meters":18000,"station_id":"ce4bh312rcd13ifvqdj0","pricing_plan_id":"cebpf4jnsgd1na2vs0mg"},{"bike_id":"217d89a5-277d-4285-be27-cf2a6488421e","system_id":"levelo_inurba_marseille","lat":43.28359,"lon":5.38634,"is_reserved":false,"is_disabled":false,"rental_uris":{"android":"levelo://app?vid=217d89a5-277d-4285-be27-cf2a6488421e","ios":"levelo://app?vid=217d89a5-277d-4285-be27-cf2a6488421e"},"vehicle_type_id":"4","last_reported":1748880804,"current_range_meters":18000,"station_id":"ce4bh492rcd13ifvqdvg","pricing_plan_id":"cebpf4jnsgd1na2vs0mg"},{"bike_id":"e31c84f5-c44b-48e2-adf2-52a2beace6c7","system_id":"levelo_inurba_marseille","lat":43.31716,"lon":5.37441,"is_reserved":false,"is_disabled":false,"rental_uris":{"android":"levelo://app?vid=e31c84f5-c44b-48e2-adf2-52a2beace6c7","ios":"levelo://app?vid=e31c84f5-c44b-48e2-adf2-52a2beace6c7"},"vehicle_type_id":"4","last_reported":1748880804,"current_range_meters":18000,"station_id":"","pricing_plan_id":"cebpf4jnsgd1na2vs0mg"},{"bike_id":"1cb7c0a1-48f8-49ab-9106-52040059037c","system_id":"levelo_inurba_marseille","lat":43.230561,"lon":5.354931,"is_reserved":false,"is_disabled":false,"rental_uris":{"android":"levelo://app?vid=1cb7c0a1-48f8-49ab-9106-52040059037c","ios":"levelo://app?vid=1cb7c0a1-48f8-49ab-9106-52040059037c"},"vehicle_type_id":"4","last_reported":1748880804,"current_range_meters":18000,"station_id":"cpo3342slgdg3j2ifvpg","pricing_plan_id":"cebpf4jnsgd1na2vs0mg"},{"bike_id":"37bb9d36-2d72-43d2-86ad-a712780cacba","system_id":"levelo_inurba_marseille","lat":43.30124,"lon":5.39863,"is_reserved":false,"is_disabled":false,"rental_uris":{"android":"levelo://app?vid=37bb9d36-2d72-43d2-86ad-a712780cacba","ios":"levelo://app?vid=37bb9d36-2d72-43d2-86ad-a712780cacba"},"vehicle_type_id":"4","last_reported":1748880804,"current_range_meters":18000,"station_id":"ce4bh0h2rcd13ifvqd40","pricing_plan_id":"cebpf4jnsgd1na2vs0mg"},{"bike_id":"62ebcf99-52d8-4ec8-a1af-b944e399c355","system_id":"levelo_inurba_marseille","lat":43.2737,"lon":5.36257,"is_reserved":false,"is_disabled":false,"rental_uris":{"android":"levelo://app?vid=62ebcf99-52d8-4ec8-a1af-b944e399c355","ios":"levelo://app?vid=62ebcf99-52d8-4ec8-a1af-b944e399c355"},"vehicle_type_id":"4","last_reported":1748880804,"current_range_meters":18000,"station_id":"ce4bhbh2rcd13ifvqeo0","pricing_plan_id":"cebpf4jnsgd1na2vs0mg"},{"bike_id":"41b007f2-55de-4218-b5bb-4782e4f0d33f","system_id":"levelo_inurba_marseille","lat":43.28467,"lon":5.35894,"is_reserved":false,"is_disabled":false,"rental_uris":{"android":"levelo://app?vid=41b007f2-55de-4218-b5bb-4782e4f0d33f","ios":"levelo://app?vid=41b007f2-55de-4218-b5bb-4782e4f0d33f"},"vehicle_type_id":"4","last_reported":1748880804,"current_range_meters":17600,"station_id":"ce4bhah2rcd13ifvqei0","pricing_plan_id":"cebpf4jnsgd1na2vs0mg"},{"bike_id":"6db8da9d-ed27-45cf-9935-6e37c99d0be9","system_id":"levelo_inurba_marseille","lat":43.262213,"lon":5.4016,"is_reserved":false,"is_disabled":false,"rental_uris":{"android":"levelo://app?vid=6db8da9d-ed27-45cf-9935-6e37c99d0be9","ios":"levelo://app?vid=6db8da9d-ed27-45cf-9935-6e37c99d0be9"},"vehicle_type_id":"4","last_reported":1748880804,"current_range_meters":18800,"station_id":"","pricing_plan_id":"cebpf4jnsgd1na2vs0mg"},{"bike_id":"b8387166-1b4f-42be-953b-f0e34268eaf7","system_id":"levelo_inurba_marseille","lat":43.2995,"lon":5.365656,"is_reserved":false,"is_disabled":false,"rental_uris":{"android":"levelo://app?vid=b8387166-1b4f-42be-953b-f0e34268eaf7","ios":"levelo://app?vid=b8387166-1b4f-42be-953b-f0e34268eaf7"},"vehicle_type_id":"4","last_reported":1748880804,"current_range_meters":18800,"station_id":"","pricing_plan_id":"cebpf4jnsgd1na2vs0mg"},{"bike_id":"8e9007c2-88ad-40ef-9738-500fd37362e0","system_id":"levelo_inurba_marseille","lat":43.25818,"lon":5.39403,"is_reserved":false,"is_disabled":false,"rental_uris":{"android":"levelo://app?vid=8e9007c2-88ad-40ef-9738-500fd37362e0","ios":"levelo://app?vid=8e9007c2-88ad-40ef-9738-500fd37362e0"},"vehicle_type_id":"4","last_reported":1748880804,"current_range_meters":18800,"station_id":"ce4bhip2rcd13ifvqft0","pricing_plan_id":"cebpf4jnsgd1na2vs0mg"},{"bike_id":"cec6c8d7-488a-4d69-860f-429583fefc3f","system_id":"levelo_inurba_marseille","lat":43.32351,"lon":5.36724,"is_reserved":false,"is_disabled":false,"rental_uris":{"android":"levelo://app?vid=cec6c8d7-488a-4d69-860f-429583fefc3f","ios":"levelo://app?vid=cec6c8d7-488a-4d69-860f-429583fefc3f"},"vehicle_type_id":"4","last_reported":1748880804,"current_range_meters":18800,"station_id":"ce4bhsh2rcd13ifvqi2g","pricing_plan_id":"cebpf4jnsgd1na2vs0mg"},{"bike_id":"0045a475-3371-4fde-824c-68d4e5673e76","system_id":"levelo_inurba_marseille","lat":43.29883,"lon":5.3889,"is_reserved":false,"is_disabled":false,"rental_uris":{"android":"levelo://app?vid=0045a475-3371-4fde-824c-68d4e5673e76","ios":"levelo://app?vid=0045a475-3371-4fde-824c-68d4e5673e76"},"vehicle_type_id":"4","last_reported":1748880804,"current_range_meters":18800,"station_id":"ce4bh392rcd13ifvqdl0","pricing_plan_id":"cebpf4jnsgd1na2vs0mg"},{"bike_id":"fe719a31-043d-4762-aa13-0736c163cf9a","system_id":"levelo_inurba_marseille","lat":43.28615,"lon":5.37061,"is_reserved":false,"is_disabled":false,"rental_uris":{"android":"levelo://app?vid=fe719a31-043d-4762-aa13-0736c163cf9a","ios":"levelo://app?vid=fe719a31-043d-4762-aa13-0736c163cf9a"},"vehicle_type_id":"4","last_reported":1748880804,"current_range_meters":18800,"station_id":"ce4bht12rcd13ifvqi60","pricing_plan_id":"cebpf4jnsgd1na2vs0mg"},{"bike_id":"eb72deed-44e7-4a3e-982b-5b4df113534f","system_id":"levelo_inurba_marseille","lat":43.21762,"lon":5.34598,"is_reserved":false,"is_disabled":false,"rental_uris":{"android":"levelo://app?vid=eb72deed-44e7-4a3e-982b-5b4df113534f","ios":"levelo://app?vid=eb72deed-44e7-4a3e-982b-5b4df113534f"},"vehicle_type_id":"4","last_reported":1748880804,"current_range_meters":18800,"station_id":"st_cvj6r9ubvosntc0bgbag","pricing_plan_id":"cebpf4jnsgd1na2vs0mg"},{"bike_id":"21aec0d8-8f63-473f-b610-58525da09f0e","system_id":"levelo_inurba_marseille","lat":43.301356,"lon":5.398454,"is_reserved":false,"is_disabled":false,"rental_uris":{"android":"levelo://app?vid=21aec0d8-8f63-473f-b610-58525da09f0e","ios":"levelo://app?vid=21aec0d8-8f63-473f-b610-58525da09f0e"},"vehicle_type_id":"4","last_reported":1748880804,"current_range_meters":18000,"station_id":"ce4bh0h2rcd13ifvqd40","pricing_plan_id":"cebpf4jnsgd1na2vs0mg"},{"bike_id":"2bddebcb-a82e-43fa-af7e-1afd480a67ed","system_id":"levelo_inurba_marseille","lat":43.32189,"lon":5.38301,"is_reserved":false,"is_disabled":false,"rental_uris":{"android":"levelo://app?vid=2bddebcb-a82e-43fa-af7e-1afd480a67ed","ios":"levelo://app?vid=2bddebcb-a82e-43fa-af7e-1afd480a67ed"},"vehicle_type_id":"4","last_reported":1748880804,"current_range_meters":19200,"station_id":"","pricing_plan_id":"cebpf4jnsgd1na2vs0mg"},{"bike_id":"1624fd9c-e08b-4dc5-bb0a-b7b769ae169e","system_id":"levelo_inurba_marseille","lat":43.29278,"lon":5.40113,"is_reserved":false,"is_disabled":false,"rental_uris":{"android":"levelo://app?vid=1624fd9c-e08b-4dc5-bb0a-b7b769ae169e","ios":"levelo://app?vid=1624fd9c-e08b-4dc5-bb0a-b7b769ae169e"},"vehicle_type_id":"4","last_reported":1748880804,"current_range_meters":19200,"station_id":"ce4bh312rcd13ifvqdk0","pricing_plan_id":"cebpf4jnsgd1na2vs0mg"},{"bike_id":"23477ecd-245b-4d41-afd5-dfe93bc610d0","system_id":"levelo_inurba_marseille","lat":43.30784,"lon":5.37644,"is_reserved":false,"is_disabled":false,"rental_uris":{"android":"levelo://app?vid=23477ecd-245b-4d41-afd5-dfe93bc610d0","ios":"levelo://app?vid=23477ecd-245b-4d41-afd5-dfe93bc610d0"},"vehicle_type_id":"4","last_reported":1748880804,"current_range_meters":18800,"station_id":"ce4bgv92rcd13ifvqcq0","pricing_plan_id":"cebpf4jnsgd1na2vs0mg"},{"bike_id":"e073c3b9-579e-431b-8c54-b6a28caa0933","system_id":"levelo_inurba_marseille","lat":43.229324,"lon":5.353809,"is_reserved":false,"is_disabled":false,"rental_uris":{"android":"levelo://app?vid=e073c3b9-579e-431b-8c54-b6a28caa0933","ios":"levelo://app?vid=e073c3b9-579e-431b-8c54-b6a28caa0933"},"vehicle_type_id":"4","last_reported":1748880804,"current_range_meters":19200,"station_id":"cpo3532slgdg3j2ikp40","pricing_plan_id":"cebpf4jnsgd1na2vs0mg"},{"bike_id":"8e45c534-9f38-4aaf-bfc0-20831aa0c778","system_id":"levelo_inurba_marseille","lat":43.26067,"lon":5.39384,"is_reserved":false,"is_disabled":false,"rental_uris":{"android":"levelo://app?vid=8e45c534-9f38-4aaf-bfc0-20831aa0c778","ios":"levelo://app?vid=8e45c534-9f38-4aaf-bfc0-20831aa0c778"},"vehicle_type_id":"4","last_reported":1748880804,"current_range_meters":19200,"station_id":"ce4bhh92rcd13ifvqfj0","pricing_plan_id":"cebpf4jnsgd1na2vs0mg"},{"bike_id":"1c0d1be6-a5fc-47ef-9364-f57695611439","system_id":"levelo_inurba_marseille","lat":43.32866,"lon":5.41377,"is_reserved":false,"is_disabled":false,"rental_uris":{"android":"levelo://app?vid=1c0d1be6-a5fc-47ef-9364-f57695611439","ios":"levelo://app?vid=1c0d1be6-a5fc-47ef-9364-f57695611439"},"vehicle_type_id":"4","last_reported":1748880804,"current_range_meters":19200,"station_id":"","pricing_plan_id":"cebpf4jnsgd1na2vs0mg"},{"bike_id":"64159b61-3465-4ebc-8e0a-59ddcf1c910d","system_id":"levelo_inurba_marseille","lat":43.29789,"lon":5.39331,"is_reserved":false,"is_disabled":false,"rental_uris":{"android":"levelo://app?vid=64159b61-3465-4ebc-8e0a-59ddcf1c910d","ios":"levelo://app?vid=64159b61-3465-4ebc-8e0a-59ddcf1c910d"},"vehicle_type_id":"4","last_reported":1748880804,"current_range_meters":19200,"station_id":"chh1huq6cuj3fo74tm60","pricing_plan_id":"cebpf4jnsgd1na2vs0mg"},{"bike_id":"c91c788e-d8ae-4f09-8ef3-a867df121652","system_id":"levelo_inurba_marseille","lat":43.25831,"lon":5.39435,"is_reserved":false,"is_disabled":false,"rental_uris":{"android":"levelo://app?vid=c91c788e-d8ae-4f09-8ef3-a867df121652","ios":"levelo://app?vid=c91c788e-d8ae-4f09-8ef3-a867df121652"},"vehicle_type_id":"4","last_reported":1748880804,"current_range_meters":19200,"station_id":"ce4bhip2rcd13ifvqft0","pricing_plan_id":"cebpf4jnsgd1na2vs0mg"},{"bike_id":"0ddbce9c-3a27-45dd-96ff-5e8941cb5cf4","system_id":"levelo_inurba_marseille","lat":43.30133,"lon":5.38768,"is_reserved":false,"is_disabled":false,"rental_uris":{"android":"levelo://app?vid=0ddbce9c-3a27-45dd-96ff-5e8941cb5cf4","ios":"levelo://app?vid=0ddbce9c-3a27-45dd-96ff-5e8941cb5cf4"},"vehicle_type_id":"4","last_reported":1748880804,"current_range_meters":19600,"station_id":"ce4bghh2rcd13ifvqb60","pricing_plan_id":"cebpf4jnsgd1na2vs0mg"},{"bike_id":"5b536054-600d-4e23-8558-f74f4f3ec365","system_id":"levelo_inurba_marseille","lat":43.33022,"lon":5.390453,"is_reserved":false,"is_disabled":false,"rental_uris":{"android":"levelo://app?vid=5b536054-600d-4e23-8558-f74f4f3ec365","ios":"levelo://app?vid=5b536054-600d-4e23-8558-f74f4f3ec365"},"vehicle_type_id":"4","last_reported":1748880804,"current_range_meters":19600,"station_id":"ce4bhr92rcd13ifvqhrg","pricing_plan_id":"cebpf4jnsgd1na2vs0mg"},{"bike_id":"218f6c8d-e3e4-4093-9e7b-4362ebcd001c","system_id":"levelo_inurba_marseille","lat":43.21758,"lon":5.34596,"is_reserved":false,"is_disabled":false,"rental_uris":{"android":"levelo://app?vid=218f6c8d-e3e4-4093-9e7b-4362ebcd001c","ios":"levelo://app?vid=218f6c8d-e3e4-4093-9e7b-4362ebcd001c"},"vehicle_type_id":"4","last_reported":1748880804,"current_range_meters":19600,"station_id":"","pricing_plan_id":"cebpf4jnsgd1na2vs0mg"},{"bike_id":"85623b5a-d0a7-4472-bb0c-7588f1eae7d0","system_id":"levelo_inurba_marseille","lat":43.30887,"lon":5.39667,"is_reserved":false,"is_disabled":false,"rental_uris":{"android":"levelo://app?vid=85623b5a-d0a7-4472-bb0c-7588f1eae7d0","ios":"levelo://app?vid=85623b5a-d0a7-4472-bb0c-7588f1eae7d0"},"vehicle_type_id":"4","last_reported":1748880804,"current_range_meters":19200,"station_id":"ce4bh012rcd13ifvqcv0","pricing_plan_id":"cebpf4jnsgd1na2vs0mg"},{"bike_id":"ecef8e30-16f3-430f-8ab6-6e24c247b55d","system_id":"levelo_inurba_marseille","lat":43.33721,"lon":5.39187,"is_reserved":false,"is_disabled":false,"rental_uris":{"android":"levelo://app?vid=ecef8e30-16f3-430f-8ab6-6e24c247b55d","ios":"levelo://app?vid=ecef8e30-16f3-430f-8ab6-6e24c247b55d"},"vehicle_type_id":"4","last_reported":1748880804,"current_range_meters":19600,"station_id":"ce4bhr92rcd13ifvqhsg","pricing_plan_id":"cebpf4jnsgd1na2vs0mg"},{"bike_id":"1a3776d0-a548-4ac1-9d22-a8c60aa16710","system_id":"levelo_inurba_marseille","lat":43.285168,"lon":5.358433,"is_reserved":false,"is_disabled":false,"rental_uris":{"android":"levelo://app?vid=1a3776d0-a548-4ac1-9d22-a8c60aa16710","ios":"levelo://app?vid=1a3776d0-a548-4ac1-9d22-a8c60aa16710"},"vehicle_type_id":"4","last_reported":1748880804,"current_range_meters":19600,"station_id":"ce4bhah2rcd13ifvqei0","pricing_plan_id":"cebpf4jnsgd1na2vs0mg"},{"bike_id":"4343b3c9-a800-4d92-a914-8638bc4c6cd8","system_id":"levelo_inurba_marseille","lat":43.29974,"lon":5.37172,"is_reserved":false,"is_disabled":false,"rental_uris":{"android":"levelo://app?vid=4343b3c9-a800-4d92-a914-8638bc4c6cd8","ios":"levelo://app?vid=4343b3c9-a800-4d92-a914-8638bc4c6cd8"},"vehicle_type_id":"4","last_reported":1748880804,"current_range_meters":19200,"station_id":"ce4bgr92rcd13ifvqc7g","pricing_plan_id":"cebpf4jnsgd1na2vs0mg"},{"bike_id":"54a0fab2-5088-492a-b433-f8c4e0a11dfa","system_id":"levelo_inurba_marseille","lat":43.30141,"lon":5.39875,"is_reserved":false,"is_disabled":false,"rental_uris":{"android":"levelo://app?vid=54a0fab2-5088-492a-b433-f8c4e0a11dfa","ios":"levelo://app?vid=54a0fab2-5088-492a-b433-f8c4e0a11dfa"},"vehicle_type_id":"4","last_reported":1748880804,"current_range_meters":20000,"station_id":"ce4bh0h2rcd13ifvqd40","pricing_plan_id":"cebpf4jnsgd1na2vs0mg"},{"bike_id":"4e17c123-8236-4a02-a8a2-a61cdc625d7e","system_id":"levelo_inurba_marseille","lat":43.30476,"lon":5.37092,"is_reserved":false,"is_disabled":false,"rental_uris":{"android":"levelo://app?vid=4e17c123-8236-4a02-a8a2-a61cdc625d7e","ios":"levelo://app?vid=4e17c123-8236-4a02-a8a2-a61cdc625d7e"},"vehicle_type_id":"4","last_reported":1748880804,"current_range_meters":20000,"station_id":"","pricing_plan_id":"cebpf4jnsgd1na2vs0mg"},{"bike_id":"d7a4deb1-d1c8-4aad-b115-06285fad5b9c","system_id":"levelo_inurba_marseille","lat":43.28424,"lon":5.35002,"is_reserved":false,"is_disabled":false,"rental_uris":{"android":"levelo://app?vid=d7a4deb1-d1c8-4aad-b115-06285fad5b9c","ios":"levelo://app?vid=d7a4deb1-d1c8-4aad-b115-06285fad5b9c"},"vehicle_type_id":"4","last_reported":1748880804,"current_range_meters":20000,"station_id":"ce4bhbh2rcd13ifvqepg","pricing_plan_id":"cebpf4jnsgd1na2vs0mg"},{"bike_id":"a0da94f9-5d17-4e84-b7d4-ec7d4283358c","system_id":"levelo_inurba_marseille","lat":43.28573,"lon":5.39492,"is_reserved":false,"is_disabled":false,"rental_uris":{"android":"levelo://app?vid=a0da94f9-5d17-4e84-b7d4-ec7d4283358c","ios":"levelo://app?vid=a0da94f9-5d17-4e84-b7d4-ec7d4283358c"},"vehicle_type_id":"4","last_reported":1748880804,"current_range_meters":20000,"station_id":"ce4bh292rcd13ifvqdg0","pricing_plan_id":"cebpf4jnsgd1na2vs0mg"},{"bike_id":"7e56b06b-2f8d-4d54-95de-4ce893a26859","system_id":"levelo_inurba_marseille","lat":43.29569,"lon":5.39975,"is_reserved":false,"is_disabled":false,"rental_uris":{"android":"levelo://app?vid=7e56b06b-2f8d-4d54-95de-4ce893a26859","ios":"levelo://app?vid=7e56b06b-2f8d-4d54-95de-4ce893a26859"},"vehicle_type_id":"4","last_reported":1748880804,"current_range_meters":20000,"station_id":"ce4bh312rcd13ifvqdj0","pricing_plan_id":"cebpf4jnsgd1na2vs0mg"},{"bike_id":"19716ee6-c173-443f-97f7-cda89deeebea","system_id":"levelo_inurba_marseille","lat":43.303073,"lon":5.392109,"is_reserved":false,"is_disabled":false,"rental_uris":{"android":"levelo://app?vid=19716ee6-c173-443f-97f7-cda89deeebea","ios":"levelo://app?vid=19716ee6-c173-443f-97f7-cda89deeebea"},"vehicle_type_id":"4","last_reported":1748880804,"current_range_meters":20400,"station_id":"","pricing_plan_id":"cebpf4jnsgd1na2vs0mg"},{"bike_id":"a90529d8-805f-4fba-9cca-0edca7fe451c","system_id":"levelo_inurba_marseille","lat":43.323634,"lon":5.367591,"is_reserved":false,"is_disabled":false,"rental_uris":{"android":"levelo://app?vid=a90529d8-805f-4fba-9cca-0edca7fe451c","ios":"levelo://app?vid=a90529d8-805f-4fba-9cca-0edca7fe451c"},"vehicle_type_id":"4","last_reported":1748880804,"current_range_meters":20400,"station_id":"ce4bhsh2rcd13ifvqi2g","pricing_plan_id":"cebpf4jnsgd1na2vs0mg"},{"bike_id":"5f130335-2693-457d-8d57-82d3ff429a2e","system_id":"levelo_inurba_marseille","lat":43.28974,"lon":5.37848,"is_reserved":false,"is_disabled":false,"rental_uris":{"android":"levelo://app?vid=5f130335-2693-457d-8d57-82d3ff429a2e","ios":"levelo://app?vid=5f130335-2693-457d-8d57-82d3ff429a2e"},"vehicle_type_id":"4","last_reported":1748880804,"current_range_meters":20400,"station_id":"ce4bh9p2rcd13ifvqed0","pricing_plan_id":"cebpf4jnsgd1na2vs0mg"},{"bike_id":"df8a6a96-0f89-4d7e-904c-ba52e557937a","system_id":"levelo_inurba_marseille","lat":43.2843,"lon":5.34987,"is_reserved":false,"is_disabled":false,"rental_uris":{"android":"levelo://app?vid=df8a6a96-0f89-4d7e-904c-ba52e557937a","ios":"levelo://app?vid=df8a6a96-0f89-4d7e-904c-ba52e557937a"},"vehicle_type_id":"4","last_reported":1748880804,"current_range_meters":20400,"station_id":"ce4bhbh2rcd13ifvqepg","pricing_plan_id":"cebpf4jnsgd1na2vs0mg"},{"bike_id":"65c3a619-edc5-460e-aab5-07869072fa36","system_id":"levelo_inurba_marseille","lat":43.29936,"lon":5.36547,"is_reserved":false,"is_disabled":false,"rental_uris":{"android":"levelo://app?vid=65c3a619-edc5-460e-aab5-07869072fa36","ios":"levelo://app?vid=65c3a619-edc5-460e-aab5-07869072fa36"},"vehicle_type_id":"4","last_reported":1748880804,"current_range_meters":20400,"station_id":"ce4bgm92rcd13ifvqbr0","pricing_plan_id":"cebpf4jnsgd1na2vs0mg"},{"bike_id":"247f2959-ba47-47f9-ab64-f3b91a1d0ac9","system_id":"levelo_inurba_marseille","lat":43.2695,"lon":5.39856,"is_reserved":false,"is_disabled":false,"rental_uris":{"android":"levelo://app?vid=247f2959-ba47-47f9-ab64-f3b91a1d0ac9","ios":"levelo://app?vid=247f2959-ba47-47f9-ab64-f3b91a1d0ac9"},"vehicle_type_id":"4","last_reported":1748880804,"current_range_meters":20400,"station_id":"","pricing_plan_id":"cebpf4jnsgd1na2vs0mg"},{"bike_id":"3744865f-f06b-45c7-946a-5072c8ed9fe6","system_id":"levelo_inurba_marseille","lat":43.29066,"lon":5.37165,"is_reserved":false,"is_disabled":false,"rental_uris":{"android":"levelo://app?vid=3744865f-f06b-45c7-946a-5072c8ed9fe6","ios":"levelo://app?vid=3744865f-f06b-45c7-946a-5072c8ed9fe6"},"vehicle_type_id":"4","last_reported":1748880804,"current_range_meters":20400,"station_id":"ce4bh5p2rcd13ifvqe4g","pricing_plan_id":"cebpf4jnsgd1na2vs0mg"},{"bike_id":"8a02b757-70b7-46ca-bdb1-01e13a1e4f92","system_id":"levelo_inurba_marseille","lat":43.28415,"lon":5.34993,"is_reserved":false,"is_disabled":false,"rental_uris":{"android":"levelo://app?vid=8a02b757-70b7-46ca-bdb1-01e13a1e4f92","ios":"levelo://app?vid=8a02b757-70b7-46ca-bdb1-01e13a1e4f92"},"vehicle_type_id":"4","last_reported":1748880804,"current_range_meters":20400,"station_id":"ce4bhbh2rcd13ifvqepg","pricing_plan_id":"cebpf4jnsgd1na2vs0mg"},{"bike_id":"19ebf7e2-ed5b-4b55-b8b9-abefeb716def","system_id":"levelo_inurba_marseille","lat":43.28418,"lon":5.34979,"is_reserved":false,"is_disabled":false,"rental_uris":{"android":"levelo://app?vid=19ebf7e2-ed5b-4b55-b8b9-abefeb716def","ios":"levelo://app?vid=19ebf7e2-ed5b-4b55-b8b9-abefeb716def"},"vehicle_type_id":"4","last_reported":1748880804,"current_range_meters":20800,"station_id":"ce4bhbh2rcd13ifvqepg","pricing_plan_id":"cebpf4jnsgd1na2vs0mg"},{"bike_id":"2d2b677d-41e9-464a-a541-a01046f208ca","system_id":"levelo_inurba_marseille","lat":43.33729,"lon":5.391893,"is_reserved":false,"is_disabled":false,"rental_uris":{"android":"levelo://app?vid=2d2b677d-41e9-464a-a541-a01046f208ca","ios":"levelo://app?vid=2d2b677d-41e9-464a-a541-a01046f208ca"},"vehicle_type_id":"4","last_reported":1748880804,"current_range_meters":20800,"station_id":"ce4bhr92rcd13ifvqhsg","pricing_plan_id":"cebpf4jnsgd1na2vs0mg"},{"bike_id":"65e2911c-13e5-465c-9b7e-e8fa176e68a9","system_id":"levelo_inurba_marseille","lat":43.295135,"lon":5.39402,"is_reserved":false,"is_disabled":false,"rental_uris":{"android":"levelo://app?vid=65e2911c-13e5-465c-9b7e-e8fa176e68a9","ios":"levelo://app?vid=65e2911c-13e5-465c-9b7e-e8fa176e68a9"},"vehicle_type_id":"4","last_reported":1748880804,"current_range_meters":20800,"station_id":"ce4bh292rcd13ifvqdf0","pricing_plan_id":"cebpf4jnsgd1na2vs0mg"},{"bike_id":"cd3b8911-ef27-497a-bf7a-dda2d187fa4f","system_id":"levelo_inurba_marseille","lat":43.29527,"lon":5.39036,"is_reserved":false,"is_disabled":false,"rental_uris":{"android":"levelo://app?vid=cd3b8911-ef27-497a-bf7a-dda2d187fa4f","ios":"levelo://app?vid=cd3b8911-ef27-497a-bf7a-dda2d187fa4f"},"vehicle_type_id":"4","last_reported":1748880804,"current_range_meters":20800,"station_id":"ce4bh3p2rcd13ifvqdp0","pricing_plan_id":"cebpf4jnsgd1na2vs0mg"},{"bike_id":"22f839c0-7837-49f4-b4b1-6cd233d79363","system_id":"levelo_inurba_marseille","lat":43.29903,"lon":5.43661,"is_reserved":false,"is_disabled":false,"rental_uris":{"android":"levelo://app?vid=22f839c0-7837-49f4-b4b1-6cd233d79363","ios":"levelo://app?vid=22f839c0-7837-49f4-b4b1-6cd233d79363"},"vehicle_type_id":"4","last_reported":1748880804,"current_range_meters":20800,"station_id":"ce4bhpp2rcd13ifvqhfg","pricing_plan_id":"cebpf4jnsgd1na2vs0mg"},{"bike_id":"cc128b60-861e-4e55-b351-c3512a9afd01","system_id":"levelo_inurba_marseille","lat":43.24658,"lon":5.38168,"is_reserved":false,"is_disabled":false,"rental_uris":{"android":"levelo://app?vid=cc128b60-861e-4e55-b351-c3512a9afd01","ios":"levelo://app?vid=cc128b60-861e-4e55-b351-c3512a9afd01"},"vehicle_type_id":"4","last_reported":1748880804,"current_range_meters":20800,"station_id":"ce4bhih2rcd13ifvqfr0","pricing_plan_id":"cebpf4jnsgd1na2vs0mg"},{"bike_id":"c5b67cc9-4eeb-4a3d-b31d-677616e732ee","system_id":"levelo_inurba_marseille","lat":43.29088,"lon":5.38167,"is_reserved":false,"is_disabled":false,"rental_uris":{"android":"levelo://app?vid=c5b67cc9-4eeb-4a3d-b31d-677616e732ee","ios":"levelo://app?vid=c5b67cc9-4eeb-4a3d-b31d-677616e732ee"},"vehicle_type_id":"4","last_reported":1748880804,"current_range_meters":20800,"station_id":"ce4bh512rcd13ifvqe2g","pricing_plan_id":"cebpf4jnsgd1na2vs0mg"},{"bike_id":"7f30d84b-b957-4872-a082-f13f54648f57","system_id":"levelo_inurba_marseille","lat":43.29029,"lon":5.38651,"is_reserved":false,"is_disabled":false,"rental_uris":{"android":"levelo://app?vid=7f30d84b-b957-4872-a082-f13f54648f57","ios":"levelo://app?vid=7f30d84b-b957-4872-a082-f13f54648f57"},"vehicle_type_id":"4","last_reported":1748880804,"current_range_meters":21600,"station_id":"ce4bh4p2rcd13ifvqe0g","pricing_plan_id":"cebpf4jnsgd1na2vs0mg"},{"bike_id":"b8998a52-1f02-48a2-ab38-fce0a4eabdb5","system_id":"levelo_inurba_marseille","lat":43.29619,"lon":5.3772,"is_reserved":false,"is_disabled":false,"rental_uris":{"android":"levelo://app?vid=b8998a52-1f02-48a2-ab38-fce0a4eabdb5","ios":"levelo://app?vid=b8998a52-1f02-48a2-ab38-fce0a4eabdb5"},"vehicle_type_id":"4","last_reported":1748880804,"current_range_meters":21600,"station_id":"","pricing_plan_id":"cebpf4jnsgd1na2vs0mg"},{"bike_id":"6919a486-0d1b-4a48-bcb3-9bb3fe896091","system_id":"levelo_inurba_marseille","lat":43.27992,"lon":5.41661,"is_reserved":false,"is_disabled":false,"rental_uris":{"android":"levelo://app?vid=6919a486-0d1b-4a48-bcb3-9bb3fe896091","ios":"levelo://app?vid=6919a486-0d1b-4a48-bcb3-9bb3fe896091"},"vehicle_type_id":"4","last_reported":1748880804,"current_range_meters":21600,"station_id":"ce4bho12rcd13ifvqh1g","pricing_plan_id":"cebpf4jnsgd1na2vs0mg"},{"bike_id":"238117b1-e345-4862-9d94-47e2784f29ed","system_id":"levelo_inurba_marseille","lat":43.29004,"lon":5.35614,"is_reserved":false,"is_disabled":false,"rental_uris":{"android":"levelo://app?vid=238117b1-e345-4862-9d94-47e2784f29ed","ios":"levelo://app?vid=238117b1-e345-4862-9d94-47e2784f29ed"},"vehicle_type_id":"4","last_reported":1748880804,"current_range_meters":21600,"station_id":"ce4bhb92rcd13ifvqen0","pricing_plan_id":"cebpf4jnsgd1na2vs0mg"},{"bike_id":"f0d34e7f-8103-46e9-a438-c85d36f28543","system_id":"levelo_inurba_marseille","lat":43.27866,"lon":5.35425,"is_reserved":false,"is_disabled":false,"rental_uris":{"android":"levelo://app?vid=f0d34e7f-8103-46e9-a438-c85d36f28543","ios":"levelo://app?vid=f0d34e7f-8103-46e9-a438-c85d36f28543"},"vehicle_type_id":"4","last_reported":1748880804,"current_range_meters":21600,"station_id":"","pricing_plan_id":"cebpf4jnsgd1na2vs0mg"},{"bike_id":"87d2bb74-27d7-42ef-96cc-0762ec017a4b","system_id":"levelo_inurba_marseille","lat":43.212,"lon":5.35067,"is_reserved":false,"is_disabled":false,"rental_uris":{"android":"levelo://app?vid=87d2bb74-27d7-42ef-96cc-0762ec017a4b","ios":"levelo://app?vid=87d2bb74-27d7-42ef-96cc-0762ec017a4b"},"vehicle_type_id":"4","last_reported":1748880804,"current_range_meters":21600,"station_id":"st_cvj6sg6p6f1abm77japg","pricing_plan_id":"cebpf4jnsgd1na2vs0mg"},{"bike_id":"31546fa1-ac46-4943-bbe4-caac2c682f69","system_id":"levelo_inurba_marseille","lat":43.29029,"lon":5.3865,"is_reserved":false,"is_disabled":false,"rental_uris":{"android":"levelo://app?vid=31546fa1-ac46-4943-bbe4-caac2c682f69","ios":"levelo://app?vid=31546fa1-ac46-4943-bbe4-caac2c682f69"},"vehicle_type_id":"4","last_reported":1748880804,"current_range_meters":21600,"station_id":"ce4bh4p2rcd13ifvqe0g","pricing_plan_id":"cebpf4jnsgd1na2vs0mg"},{"bike_id":"f604d7d6-76e5-47e7-b8d0-dee2553860ac","system_id":"levelo_inurba_marseille","lat":43.28263,"lon":5.35078,"is_reserved":false,"is_disabled":false,"rental_uris":{"android":"levelo://app?vid=f604d7d6-76e5-47e7-b8d0-dee2553860ac","ios":"levelo://app?vid=f604d7d6-76e5-47e7-b8d0-dee2553860ac"},"vehicle_type_id":"4","last_reported":1748880804,"current_range_meters":21600,"station_id":"ce4bhbp2rcd13ifvqerg","pricing_plan_id":"cebpf4jnsgd1na2vs0mg"},{"bike_id":"69533c1e-436e-44ce-ab4e-b207d3acb89a","system_id":"levelo_inurba_marseille","lat":43.29793,"lon":5.39336,"is_reserved":false,"is_disabled":false,"rental_uris":{"android":"levelo://app?vid=69533c1e-436e-44ce-ab4e-b207d3acb89a","ios":"levelo://app?vid=69533c1e-436e-44ce-ab4e-b207d3acb89a"},"vehicle_type_id":"4","last_reported":1748880804,"current_range_meters":22000,"station_id":"chh1huq6cuj3fo74tm60","pricing_plan_id":"cebpf4jnsgd1na2vs0mg"},{"bike_id":"583153e6-f46e-41a0-8d2a-4b74ce446790","system_id":"levelo_inurba_marseille","lat":43.29437,"lon":5.39753,"is_reserved":false,"is_disabled":false,"rental_uris":{"android":"levelo://app?vid=583153e6-f46e-41a0-8d2a-4b74ce446790","ios":"levelo://app?vid=583153e6-f46e-41a0-8d2a-4b74ce446790"},"vehicle_type_id":"4","last_reported":1748880804,"current_range_meters":21600,"station_id":"ce4bh3h2rcd13ifvqdo0","pricing_plan_id":"cebpf4jnsgd1na2vs0mg"},{"bike_id":"b3428974-7881-46c1-ae05-f65b024a95a6","system_id":"levelo_inurba_marseille","lat":43.284189,"lon":5.349974,"is_reserved":false,"is_disabled":false,"rental_uris":{"android":"levelo://app?vid=b3428974-7881-46c1-ae05-f65b024a95a6","ios":"levelo://app?vid=b3428974-7881-46c1-ae05-f65b024a95a6"},"vehicle_type_id":"4","last_reported":1748880804,"current_range_meters":22000,"station_id":"ce4bhbh2rcd13ifvqepg","pricing_plan_id":"cebpf4jnsgd1na2vs0mg"},{"bike_id":"d3b2b689-a759-4188-8cb8-a236c73698f5","system_id":"levelo_inurba_marseille","lat":43.285402,"lon":5.384326,"is_reserved":false,"is_disabled":false,"rental_uris":{"android":"levelo://app?vid=d3b2b689-a759-4188-8cb8-a236c73698f5","ios":"levelo://app?vid=d3b2b689-a759-4188-8cb8-a236c73698f5"},"vehicle_type_id":"4","last_reported":1748880804,"current_range_meters":22000,"station_id":"ce4bh612rcd13ifvqe6g","pricing_plan_id":"cebpf4jnsgd1na2vs0mg"},{"bike_id":"126bb27f-4645-4320-afec-c097372fce56","system_id":"levelo_inurba_marseille","lat":43.2738,"lon":5.36251,"is_reserved":false,"is_disabled":false,"rental_uris":{"android":"levelo://app?vid=126bb27f-4645-4320-afec-c097372fce56","ios":"levelo://app?vid=126bb27f-4645-4320-afec-c097372fce56"},"vehicle_type_id":"4","last_reported":1748880804,"current_range_meters":22000,"station_id":"ce4bhbh2rcd13ifvqeo0","pricing_plan_id":"cebpf4jnsgd1na2vs0mg"},{"bike_id":"4d17502a-3a4e-486f-9575-39466179435e","system_id":"levelo_inurba_marseille","lat":43.299649,"lon":5.413117,"is_reserved":false,"is_disabled":false,"rental_uris":{"android":"levelo://app?vid=4d17502a-3a4e-486f-9575-39466179435e","ios":"levelo://app?vid=4d17502a-3a4e-486f-9575-39466179435e"},"vehicle_type_id":"4","last_reported":1748880804,"current_range_meters":22000,"station_id":"ce4bhp12rcd13ifvqh9g","pricing_plan_id":"cebpf4jnsgd1na2vs0mg"},{"bike_id":"69cadd4f-97ea-44f9-a8fe-283d8652e2f2","system_id":"levelo_inurba_marseille","lat":43.25086,"lon":5.39527,"is_reserved":false,"is_disabled":false,"rental_uris":{"android":"levelo://app?vid=69cadd4f-97ea-44f9-a8fe-283d8652e2f2","ios":"levelo://app?vid=69cadd4f-97ea-44f9-a8fe-283d8652e2f2"},"vehicle_type_id":"4","last_reported":1748880804,"current_range_meters":22000,"station_id":"ce4bhm12rcd13ifvqgkg","pricing_plan_id":"cebpf4jnsgd1na2vs0mg"},{"bike_id":"40240619-850f-42e4-a21e-a97a13e6ac6d","system_id":"levelo_inurba_marseille","lat":43.25502,"lon":5.37652,"is_reserved":false,"is_disabled":false,"rental_uris":{"android":"levelo://app?vid=40240619-850f-42e4-a21e-a97a13e6ac6d","ios":"levelo://app?vid=40240619-850f-42e4-a21e-a97a13e6ac6d"},"vehicle_type_id":"4","last_reported":1748880804,"current_range_meters":22400,"station_id":"ce4bhh12rcd13ifvqff0","pricing_plan_id":"cebpf4jnsgd1na2vs0mg"},{"bike_id":"938ebf52-b86a-4328-915f-86e946c0c85d","system_id":"levelo_inurba_marseille","lat":43.25579,"lon":5.38229,"is_reserved":false,"is_disabled":false,"rental_uris":{"android":"levelo://app?vid=938ebf52-b86a-4328-915f-86e946c0c85d","ios":"levelo://app?vid=938ebf52-b86a-4328-915f-86e946c0c85d"},"vehicle_type_id":"4","last_reported":1748880804,"current_range_meters":23200,"station_id":"ce4bhih2rcd13ifvqfs0","pricing_plan_id":"cebpf4jnsgd1na2vs0mg"},{"bike_id":"48030ec9-fc61-4462-bac2-0e136935e7e1","system_id":"levelo_inurba_marseille","lat":43.29523,"lon":5.39013,"is_reserved":false,"is_disabled":false,"rental_uris":{"android":"levelo://app?vid=48030ec9-fc61-4462-bac2-0e136935e7e1","ios":"levelo://app?vid=48030ec9-fc61-4462-bac2-0e136935e7e1"},"vehicle_type_id":"4","last_reported":1748880804,"current_range_meters":22400,"station_id":"ce4bh3p2rcd13ifvqdp0","pricing_plan_id":"cebpf4jnsgd1na2vs0mg"},{"bike_id":"c6c2f8f4-8b87-4147-a073-b785da162b76","system_id":"levelo_inurba_marseille","lat":43.28259,"lon":5.35079,"is_reserved":false,"is_disabled":false,"rental_uris":{"android":"levelo://app?vid=c6c2f8f4-8b87-4147-a073-b785da162b76","ios":"levelo://app?vid=c6c2f8f4-8b87-4147-a073-b785da162b76"},"vehicle_type_id":"4","last_reported":1748880804,"current_range_meters":22400,"station_id":"ce4bhbp2rcd13ifvqerg","pricing_plan_id":"cebpf4jnsgd1na2vs0mg"},{"bike_id":"310e70be-ee06-4ef6-b4e0-1a267f0af107","system_id":"levelo_inurba_marseille","lat":43.30613,"lon":5.36598,"is_reserved":false,"is_disabled":false,"rental_uris":{"android":"levelo://app?vid=310e70be-ee06-4ef6-b4e0-1a267f0af107","ios":"levelo://app?vid=310e70be-ee06-4ef6-b4e0-1a267f0af107"},"vehicle_type_id":"4","last_reported":1748880804,"current_range_meters":22400,"station_id":"","pricing_plan_id":"cebpf4jnsgd1na2vs0mg"},{"bike_id":"b99403f6-08ab-4e61-bf55-1ad9fdcf0f0d","system_id":"levelo_inurba_marseille","lat":43.28946,"lon":5.36633,"is_reserved":false,"is_disabled":false,"rental_uris":{"android":"levelo://app?vid=b99403f6-08ab-4e61-bf55-1ad9fdcf0f0d","ios":"levelo://app?vid=b99403f6-08ab-4e61-bf55-1ad9fdcf0f0d"},"vehicle_type_id":"4","last_reported":1748880804,"current_range_meters":22000,"station_id":"ce4bhap2rcd13ifvqek0","pricing_plan_id":"cebpf4jnsgd1na2vs0mg"},{"bike_id":"6c73ec89-294e-401d-96f4-4209a2f00ddc","system_id":"levelo_inurba_marseille","lat":43.29527,"lon":5.38543,"is_reserved":false,"is_disabled":false,"rental_uris":{"android":"levelo://app?vid=6c73ec89-294e-401d-96f4-4209a2f00ddc","ios":"levelo://app?vid=6c73ec89-294e-401d-96f4-4209a2f00ddc"},"vehicle_type_id":"4","last_reported":1748880804,"current_range_meters":22400,"station_id":"ce4bgih2rcd13ifvqba0","pricing_plan_id":"cebpf4jnsgd1na2vs0mg"},{"bike_id":"ec8a2f8b-0beb-4ad4-aad8-7f49251a80bf","system_id":"levelo_inurba_marseille","lat":43.29525,"lon":5.393893,"is_reserved":false,"is_disabled":false,"rental_uris":{"android":"levelo://app?vid=ec8a2f8b-0beb-4ad4-aad8-7f49251a80bf","ios":"levelo://app?vid=ec8a2f8b-0beb-4ad4-aad8-7f49251a80bf"},"vehicle_type_id":"4","last_reported":1748880804,"current_range_meters":22800,"station_id":"ce4bh292rcd13ifvqdf0","pricing_plan_id":"cebpf4jnsgd1na2vs0mg"},{"bike_id":"19784f2d-9965-4c08-b207-07959a3d1dc9","system_id":"levelo_inurba_marseille","lat":43.27678,"lon":5.38869,"is_reserved":false,"is_disabled":false,"rental_uris":{"android":"levelo://app?vid=19784f2d-9965-4c08-b207-07959a3d1dc9","ios":"levelo://app?vid=19784f2d-9965-4c08-b207-07959a3d1dc9"},"vehicle_type_id":"4","last_reported":1748880804,"current_range_meters":22400,"station_id":"ce4bhi12rcd13ifvqfo0","pricing_plan_id":"cebpf4jnsgd1na2vs0mg"},{"bike_id":"5e77f708-ec3d-46fe-9124-d6651e0138aa","system_id":"levelo_inurba_marseille","lat":43.298004,"lon":5.381048,"is_reserved":false,"is_disabled":false,"rental_uris":{"android":"levelo://app?vid=5e77f708-ec3d-46fe-9124-d6651e0138aa","ios":"levelo://app?vid=5e77f708-ec3d-46fe-9124-d6651e0138aa"},"vehicle_type_id":"4","last_reported":1748880804,"current_range_meters":22800,"station_id":"ce4bgj92rcd13ifvqbd0","pricing_plan_id":"cebpf4jnsgd1na2vs0mg"},