{"last_updated":1713992798,"ttl":30,"version":"2.2","data":{"bikes":[{"bike_id":"5e0bf358-5de4-4275-99a0-c038adc104fa","system_id":"levelo_inurba_marseille","lat":43.313391,"lon":5.36706,"is_reserved":false,"is_disabled":false,"rental_uris":{"android":"levelo://app?vid=5e0bf358-5de4-4275-99a0-c038adc104fa","ios":"levelo://app?vid=5e0bf358-5de4-4275-99a0-c038adc104fa"},"vehicle_type_id":"4","last_reported":1713992798,"current_range_meters":24400,"station_id":"ce4bgr92rcd13ifvqc6g","pricing_plan_id":"cebpf4jnsgd1na2vs0mg"},{"bike_id":"ff79872b-ab28-4db6-93c0-1b704efd5db4","system_id":"levelo_inurba_marseille","lat":43.31221,"lon":5.36856,"is_reserved":false,"is_disabled":false,"rental_uris":{"android":"levelo://app?vid=ff79872b-ab28-4db6-93c0-1b704efd5db4","ios":"levelo://app?vid=ff79872b-ab28-4db6-93c0-1b704efd5db4"},"vehicle_type_id":"4","last_reported":1713992798,"current_range_meters":12000,"station_id":"ce4bgl92rcd13ifvqbq0","pricing_plan_id":"cebpf4jnsgd1na2vs0mg"},{"bike_id":"b384ac3b-f73c-4f1c-afac-25783ba49856","system_id":"levelo_inurba_marseille","lat":43.312239,"lon":5.368562,"is_reserved":false,"is_disabled":false,"rental_uris":{"android":"levelo://app?vid=b384ac3b-f73c-4f1c-afac-25783ba49856","ios":"levelo://app?vid=b384ac3b-f73c-4f1c-afac-25783ba49856"},"vehicle_type_id":"4","last_reported":1713992798,"current_range_meters":26800,"station_id":"ce4bgl92rcd13ifvqbq0","pricing_plan_id":"cebpf4jnsgd1na2vs0mg"},{"bike_id":"ea4179dd-65c3-4ba3-b4bf-d6134025486c","system_id":"levelo_inurba_marseille","lat":43.312239,"lon":5.368562,"is_reserved":false,"is_disabled":false,"rental_uris":{"android":"levelo://app?vid=ea4179dd-65c3-4ba3-b4bf-d6134025486c","ios":"levelo://app?vid=ea4179dd-65c3-4ba3-b4bf-d6134025486c"},"vehicle_type_id":"4","last_reported":1713992798,"current_range_meters":29200,"station_id":"ce4bgl92rcd13ifvqbq0","pricing_plan_id":"cebpf4jnsgd1na2vs0mg"},{"bike_id":"154d1f0c-4a0e-4ea4-8f00-aef894d07f07","system_id":"levelo_inurba_marseille","lat":43.312239,"lon":5.368562,"is_reserved":false,"is_disabled":false,"rental_uris":{"android":"levelo://app?vid=154d1f0c-4a0e-4ea4-8f00-aef894d07f07","ios":"levelo://app?vid=154d1f0c-4a0e-4ea4-8f00-aef894d07f07"},"vehicle_type_id":"4","last_reported":1713992798,"current_range_meters":800,"station_id":"ce4bgl92rcd13ifvqbq0","pricing_plan_id":"cebpf4jnsgd1na2vs0mg"},{"bike_id":"5419c4b2-bbe5-485c-959f-0b865ab3fd83","system_id":"levelo_inurba_marseille","lat":43.31485,"lon":5.37304,"is_reserved":false,"is_disabled":false,"rental_uris":{"android":"levelo://app?vid=5419c4b2-bbe5-485c-959f-0b865ab3fd83","ios":"levelo://app?vid=5419c4b2-bbe5-485c-959f-0b865ab3fd83"},"vehicle_type_id":"4","last_reported":1713992798,"current_range_meters":6400,"station_id":"ce4bgt12rcd13ifvqcd0","pricing_plan_id":"cebpf4jnsgd1na2vs0mg"},{"bike_id":"84d68076-9274-4e19-956c-b2bdc3a60016","system_id":"levelo_inurba_marseille","lat":43.31486,"lon":5.37309,"is_reserved":false,"is_disabled":false,"rental_uris":{"android":"levelo://app?vid=84d68076-9274-4e19-956c-b2bdc3a60016","ios":"levelo://app?vid=84d68076-9274-4e19-956c-b2bdc3a60016"},"vehicle_type_id":"4","last_reported":1713992798,"current_range_meters":24000,"station_id":"ce4bgt12rcd13ifvqcd0","pricing_plan_id":"cebpf4jnsgd1na2vs0mg"},{"bike_id":"6346ef4f-7817-4b2c-ae53-7c593f3b8030","system_id":"levelo_inurba_marseille","lat":43.309039,"lon":5.371797,"is_reserved":false,"is_disabled":false,"rental_uris":{"android":"levelo://app?vid=6346ef4f-7817-4b2c-ae53-7c593f3b8030","ios":"levelo://app?vid=6346ef4f-7817-4b2c-ae53-7c593f3b8030"},"vehicle_type_id":"4","last_reported":1713992798,"current_range_meters":11600,"station_id":"ce4bguh2rcd13ifvqckg","pricing_plan_id":"cebpf4jnsgd1na2vs0mg"},{"bike_id":"18f0a94a-3292-492a-a926-03c6ec527108","system_id":"levelo_inurba_marseille","lat":43.309034,"lon":5.371783,"is_reserved":false,"is_disabled":false,"rental_uris":{"android":"levelo://app?vid=18f0a94a-3292-492a-a926-03c6ec527108","ios":"levelo://app?vid=18f0a94a-3292-492a-a926-03c6ec527108"},"vehicle_type_id":"4","last_reported":1713992798,"current_range_meters":10000,"station_id":"ce4bguh2rcd13ifvqckg","pricing_plan_id":"cebpf4jnsgd1na2vs0mg"},{"bike_id":"f8bff529-2daa-4447-9188-337e1e815023","system_id":"levelo_inurba_marseille","lat":43.288497,"lon":5.393089,"is_reserved":false,"is_disabled":false,"rental_uris":{"android":"levelo://app?vid=f8bff529-2daa-4447-9188-337e1e815023","ios":"levelo://app?vid=f8bff529-2daa-4447-9188-337e1e815023"},"vehicle_type_id":"4","last_reported":1713992798,"current_range_meters":1600,"station_id":"ce4bh2p2rcd13ifvqdi0","pricing_plan_id":"cebpf4jnsgd1na2vs0mg"},{"bike_id":"31d03523-494e-4c95-aba0-3ffcdc50f329","system_id":"levelo_inurba_marseille","lat":43.309039,"lon":5.371797,"is_reserved":false,"is_disabled":false,"rental_uris":{"android":"levelo://app?vid=31d03523-494e-4c95-aba0-3ffcdc50f329","ios":"levelo://app?vid=31d03523-494e-4c95-aba0-3ffcdc50f329"},"vehicle_type_id":"4","last_reported":1713992798,"current_range_meters":12000,"station_id":"ce4bguh2rcd13ifvqckg","pricing_plan_id":"cebpf4jnsgd1na2vs0mg"},{"bike_id":"a221ad76-03be-4517-8331-9b2d5bf4e9f9","system_id":"levelo_inurba_marseille","lat":43.309034,"lon":5.371783,"is_reserved":false,"is_disabled":false,"rental_uris":{"android":"levelo://app?vid=a221ad76-03be-4517-8331-9b2d5bf4e9f9","ios":"levelo://app?vid=a221ad76-03be-4517-8331-9b2d5bf4e9f9"},"vehicle_type_id":"4","last_reported":1713992798,"current_range_meters":19200,"station_id":"ce4bguh2rcd13ifvqckg","pricing_plan_id":"cebpf4jnsgd1na2vs0mg"},{"bike_id":"94eac7d2-9096-4b2b-854a-68ed2f6deea0","system_id":"levelo_inurba_marseille","lat":43.309034,"lon":5.371783,"is_reserved":false,"is_disabled":false,"rental_uris":{"android":"levelo://app?vid=94eac7d2-9096-4b2b-854a-68ed2f6deea0","ios":"levelo://app?vid=94eac7d2-9096-4b2b-854a-68ed2f6deea0"},"vehicle_type_id":"4","last_reported":1713992798,"current_range_meters":8800,"station_id":"ce4bguh2rcd13ifvqckg","pricing_plan_id":"cebpf4jnsgd1na2vs0mg"},{"bike_id":"fee52274-a714-4f52-862a-0483568799b5","system_id":"levelo_inurba_marseille","lat":43.305989,"lon":5.37225,"is_reserved":false,"is_disabled":false,"rental_uris":{"android":"levelo://app?vid=fee52274-a714-4f52-862a-0483568799b5","ios":"levelo://app?vid=fee52274-a714-4f52-862a-0483568799b5"},"vehicle_type_id":"4","last_reported":1713992798,"current_range_meters":7600,"station_id":"ce4bgqh2rcd13ifvqc4g","pricing_plan_id":"cebpf4jnsgd1na2vs0mg"},{"bike_id":"84c453da-0ef8-4ff1-9706-1b11c69f9a78","system_id":"levelo_inurba_marseille","lat":43.305989,"lon":5.37225,"is_reserved":false,"is_disabled":false,"rental_uris":{"android":"levelo://app?vid=84c453da-0ef8-4ff1-9706-1b11c69f9a78","ios":"levelo://app?vid=84c453da-0ef8-4ff1-9706-1b11c69f9a78"},"vehicle_type_id":"4","last_reported":1713992798,"current_range_meters":18000,"station_id":"ce4bgqh2rcd13ifvqc4g","pricing_plan_id":"cebpf4jnsgd1na2vs0mg"},{"bike_id":"83722fdf-4482-451f-85e3-debfd5d7b301","system_id":"levelo_inurba_marseille","lat":43.309589,"lon":5.390258,"is_reserved":false,"is_disabled":false,"rental_uris":{"android":"levelo://app?vid=83722fdf-4482-451f-85e3-debfd5d7b301","ios":"levelo://app?vid=83722fdf-4482-451f-85e3-debfd5d7b301"},"vehicle_type_id":"4","last_reported":1713992798,"current_range_meters":30000,"station_id":"ce4bgup2rcd13ifvqco0","pricing_plan_id":"cebpf4jnsgd1na2vs0mg"},{"bike_id":"1f67ec0a-0969-4905-a81e-239d97c0c7a3","system_id":"levelo_inurba_marseille","lat":43.305989,"lon":5.37225,"is_reserved":false,"is_disabled":false,"rental_uris":{"android":"levelo://app?vid=1f67ec0a-0969-4905-a81e-239d97c0c7a3","ios":"levelo://app?vid=1f67ec0a-0969-4905-a81e-239d97c0c7a3"},"vehicle_type_id":"4","last_reported":1713992798,"current_range_meters":27600,"station_id":"ce4bgqh2rcd13ifvqc4g","pricing_plan_id":"cebpf4jnsgd1na2vs0mg"},{"bike_id":"2bb8d3aa-8487-4501-b036-b55872452b02","system_id":"levelo_inurba_marseille","lat":43.305989,"lon":5.37225,"is_reserved":false,"is_disabled":false,"rental_uris":{"android":"levelo://app?vid=2bb8d3aa-8487-4501-b036-b55872452b02","ios":"levelo://app?vid=2bb8d3aa-8487-4501-b036-b55872452b02"},"vehicle_type_id":"4","last_reported":1713992798,"current_range_meters":10400,"station_id":"ce4bgqh2rcd13ifvqc4g","pricing_plan_id":"cebpf4jnsgd1na2vs0mg"},{"bike_id":"6dc463cf-8a2a-4776-a771-ad87a78bc218","system_id":"levelo_inurba_marseille","lat":43.31121,"lon":5.37764,"is_reserved":false,"is_disabled":false,"rental_uris":{"android":"levelo://app?vid=6dc463cf-8a2a-4776-a771-ad87a78bc218","ios":"levelo://app?vid=6dc463cf-8a2a-4776-a771-ad87a78bc218"},"vehicle_type_id":"4","last_reported":1713992798,"current_range_meters":12400,"station_id":"ce4bgt92rcd13ifvqcg0","pricing_plan_id":"cebpf4jnsgd1na2vs0mg"},{"bike_id":"4a4ced72-6ec5-4236-91d9-d8816408d124","system_id":"levelo_inurba_marseille","lat":43.311125,"lon":5.377624,"is_reserved":false,"is_disabled":false,"rental_uris":{"android":"levelo://app?vid=4a4ced72-6ec5-4236-91d9-d8816408d124","ios":"levelo://app?vid=4a4ced72-6ec5-4236-91d9-d8816408d124"},"vehicle_type_id":"4","last_reported":1713992798,"current_range_meters":14400,"station_id":"ce4bgt92rcd13ifvqcg0","pricing_plan_id":"cebpf4jnsgd1na2vs0mg"},{"bike_id":"f826fabe-49f6-4ae7-84e0-df1177b02114","system_id":"levelo_inurba_marseille","lat":43.31119,"lon":5.37766,"is_reserved":false,"is_disabled":false,"rental_uris":{"android":"levelo://app?vid=f826fabe-49f6-4ae7-84e0-df1177b02114","ios":"levelo://app?vid=f826fabe-49f6-4ae7-84e0-df1177b02114"},"vehicle_type_id":"4","last_reported":1713992798,"current_range_meters":8000,"station_id":"ce4bgt92rcd13ifvqcg0","pricing_plan_id":"cebpf4jnsgd1na2vs0mg"},{"bike_id":"3e6cb419-f7a8-4beb-a5ce-005623206aa4","system_id":"levelo_inurba_marseille","lat":43.305989,"lon":5.37225,"is_reserved":false,"is_disabled":false,"rental_uris":{"android":"levelo://app?vid=3e6cb419-f7a8-4beb-a5ce-005623206aa4","ios":"levelo://app?vid=3e6cb419-f7a8-4beb-a5ce-005623206aa4"},"vehicle_type_id":"4","last_reported":1713992798,"current_range_meters":30800,"station_id":"ce4bgqh2rcd13ifvqc4g","pricing_plan_id":"cebpf4jnsgd1na2vs0mg"},{"bike_id":"5f96c4fa-9bef-4aff-acfe-7aa7369d7819","system_id":"levelo_inurba_marseille","lat":43.311131,"lon":5.377651,"is_reserved":false,"is_disabled":false,"rental_uris":{"android":"levelo://app?vid=5f96c4fa-9bef-4aff-acfe-7aa7369d7819","ios":"levelo://app?vid=5f96c4fa-9bef-4aff-acfe-7aa7369d7819"},"vehicle_type_id":"4","last_reported":1713992798,"current_range_meters":4400,"station_id":"ce4bgt92rcd13ifvqcg0","pricing_plan_id":"cebpf4jnsgd1na2vs0mg"},{"bike_id":"fbea1ba6-60df-4cc5-8ac2-5a23449eadba","system_id":"levelo_inurba_marseille","lat":43.307945,"lon":5.376487,"is_reserved":false,"is_disabled":false,"rental_uris":{"android":"levelo://app?vid=fbea1ba6-60df-4cc5-8ac2-5a23449eadba","ios":"levelo://app?vid=fbea1ba6-60df-4cc5-8ac2-5a23449eadba"},"vehicle_type_id":"4","last_reported":1713992798,"current_range_meters":10800,"station_id":"ce4bgv92rcd13ifvqcq0","pricing_plan_id":"cebpf4jnsgd1na2vs0mg"},{"bike_id":"fc6664c2-09bf-4484-8cbd-b19d3ede4392","system_id":"levelo_inurba_marseille","lat":43.30776,"lon":5.37656,"is_reserved":false,"is_disabled":false,"rental_uris":{"android":"levelo://app?vid=fc6664c2-09bf-4484-8cbd-b19d3ede4392","ios":"levelo://app?vid=fc6664c2-09bf-4484-8cbd-b19d3ede4392"},"vehicle_type_id":"4","last_reported":1713992798,"current_range_meters":29600,"station_id":"","pricing_plan_id":"cebpf4jnsgd1na2vs0mg"},{"bike_id":"59a8c8c8-b182-46ef-932f-6b0ccb51e606","system_id":"levelo_inurba_marseille","lat":43.317075,"lon":5.377367,"is_reserved":false,"is_disabled":false,"rental_uris":{"android":"levelo://app?vid=59a8c8c8-b182-46ef-932f-6b0ccb51e606","ios":"levelo://app?vid=59a8c8c8-b182-46ef-932f-6b0ccb51e606"},"vehicle_type_id":"4","last_reported":1713992798,"current_range_meters":20400,"station_id":"ce4bgth2rcd13ifvqch0","pricing_plan_id":"cebpf4jnsgd1na2vs0mg"},{"bike_id":"dc162553-50bd-488c-b904-2af0c8a74aec","system_id":"levelo_inurba_marseille","lat":43.317075,"lon":5.377367,"is_reserved":false,"is_disabled":false,"rental_uris":{"android":"levelo://app?vid=dc162553-50bd-488c-b904-2af0c8a74aec","ios":"levelo://app?vid=dc162553-50bd-488c-b904-2af0c8a74aec"},"vehicle_type_id":"4","last_reported":1713992798,"current_range_meters":10000,"station_id":"ce4bgth2rcd13ifvqch0","pricing_plan_id":"cebpf4jnsgd1na2vs0mg"},{"bike_id":"c0f6efc7-9010-4fc7-b148-2fbe5ea2ec1f","system_id":"levelo_inurba_marseille","lat":43.317075,"lon":5.377367,"is_reserved":false,"is_disabled":false,"rental_uris":{"android":"levelo://app?vid=c0f6efc7-9010-4fc7-b148-2fbe5ea2ec1f","ios":"levelo://app?vid=c0f6efc7-9010-4fc7-b148-2fbe5ea2ec1f"},"vehicle_type_id":"4","last_reported":1713992798,"current_range_meters":31600,"station_id":"ce4bgth2rcd13ifvqch0","pricing_plan_id":"cebpf4jnsgd1na2vs0mg"},{"bike_id":"7b03d8e1-209b-4d33-8ac1-fdd3a6daf3c2","system_id":"levelo_inurba_marseille","lat":43.317075,"lon":5.377367,"is_reserved":false,"is_disabled":false,"rental_uris":{"android":"levelo://app?vid=7b03d8e1-209b-4d33-8ac1-fdd3a6daf3c2","ios":"levelo://app?vid=7b03d8e1-209b-4d33-8ac1-fdd3a6daf3c2"},"vehicle_type_id":"4","last_reported":1713992798,"current_range_meters":22400,"station_id":"ce4bgth2rcd13ifvqch0","pricing_plan_id":"cebpf4jnsgd1na2vs0mg"},{"bike_id":"f453999c-be3c-4322-aa13-3c05171c03d3","system_id":"levelo_inurba_marseille","lat":43.303046,"lon":5.368981,"is_reserved":false,"is_disabled":false,"rental_uris":{"android":"levelo://app?vid=f453999c-be3c-4322-aa13-3c05171c03d3","ios":"levelo://app?vid=f453999c-be3c-4322-aa13-3c05171c03d3"},"vehicle_type_id":"4","last_reported":1713992798,"current_range_meters":10400,"station_id":"ce4bgqh2rcd13ifvqc5g","pricing_plan_id":"cebpf4jnsgd1na2vs0mg"},{"bike_id":"665259de-ddb3-474e-969b-ccd5064b0216","system_id":"levelo_inurba_marseille","lat":43.303046,"lon":5.368981,"is_reserved":false,"is_disabled":false,"rental_uris":{"android":"levelo://app?vid=665259de-ddb3-474e-969b-ccd5064b0216","ios":"levelo://app?vid=665259de-ddb3-474e-969b-ccd5064b0216"},"vehicle_type_id":"4","last_reported":1713992798,"current_range_meters":8000,"station_id":"ce4bgqh2rcd13ifvqc5g","pricing_plan_id":"cebpf4jnsgd1na2vs0mg"},{"bike_id":"d34f0ed8-5f7d-4862-b15e-cfc9df7ca58b","system_id":"levelo_inurba_marseille","lat":43.303046,"lon":5.368981,"is_reserved":false,"is_disabled":false,"rental_uris":{"android":"levelo://app?vid=d34f0ed8-5f7d-4862-b15e-cfc9df7ca58b","ios":"levelo://app?vid=d34f0ed8-5f7d-4862-b15e-cfc9df7ca58b"},"vehicle_type_id":"4","last_reported":1713992798,"current_range_meters":10800,"station_id":"ce4bgqh2rcd13ifvqc5g","pricing_plan_id":"cebpf4jnsgd1na2vs0mg"},{"bike_id":"93bbd5a1-5b98-40ed-b0fd-dd17c227467c","system_id":"levelo_inurba_marseille","lat":43.303046,"lon":5.368981,"is_reserved":false,"is_disabled":false,"rental_uris":{"android":"levelo://app?vid=93bbd5a1-5b98-40ed-b0fd-dd17c227467c","ios":"levelo://app?vid=93bbd5a1-5b98-40ed-b0fd-dd17c227467c"},"vehicle_type_id":"4","last_reported":1713992798,"current_range_meters":20000,"station_id":"ce4bgqh2rcd13ifvqc5g","pricing_plan_id":"cebpf4jnsgd1na2vs0mg"},{"bike_id":"c2e1bbf5-063b-48f4-81da-0c1d8e4b6928","system_id":"levelo_inurba_marseille","lat":43.315289,"lon":5.380349,"is_reserved":false,"is_disabled":false,"rental_uris":{"android":"levelo://app?vid=c2e1bbf5-063b-48f4-81da-0c1d8e4b6928","ios":"levelo://app?vid=c2e1bbf5-063b-48f4-81da-0c1d8e4b6928"},"vehicle_type_id":"4","last_reported":1713992798,"current_range_meters":16400,"station_id":"ce4bhsp2rcd13ifvqi50","pricing_plan_id":"cebpf4jnsgd1na2vs0mg"},{"bike_id":"f82abc93-8401-4d4c-b760-b35ce10d19a1","system_id":"levelo_inurba_marseille","lat":43.315293,"lon":5.380349,"is_reserved":false,"is_disabled":false,"rental_uris":{"android":"levelo://app?vid=f82abc93-8401-4d4c-b760-b35ce10d19a1","ios":"levelo://app?vid=f82abc93-8401-4d4c-b760-b35ce10d19a1"},"vehicle_type_id":"4","last_reported":1713992798,"current_range_meters":31600,"station_id":"ce4bhsp2rcd13ifvqi50","pricing_plan_id":"cebpf4jnsgd1na2vs0mg"},{"bike_id":"1b95991a-46c1-4445-bbdf-b92f7880e64f","system_id":"levelo_inurba_marseille","lat":43.315293,"lon":5.380349,"is_reserved":false,"is_disabled":false,"rental_uris":{"android":"levelo://app?vid=1b95991a-46c1-4445-bbdf-b92f7880e64f","ios":"levelo://app?vid=1b95991a-46c1-4445-bbdf-b92f7880e64f"},"vehicle_type_id":"4","last_reported":1713992798,"current_range_meters":0,"station_id":"ce4bhsp2rcd13ifvqi50","pricing_plan_id":"cebpf4jnsgd1na2vs0mg"},{"bike_id":"559a85c8-65c9-49ee-8292-fd18b6c71438","system_id":"levelo_inurba_marseille","lat":43.315289,"lon":5.380349,"is_reserved":false,"is_disabled":false,"rental_uris":{"android":"levelo://app?vid=559a85c8-65c9-49ee-8292-fd18b6c71438","ios":"levelo://app?vid=559a85c8-65c9-49ee-8292-fd18b6c71438"},"vehicle_type_id":"4","last_reported":1713992798,"current_range_meters":27600,"station_id":"ce4bhsp2rcd13ifvqi50","pricing_plan_id":"cebpf4jnsgd1na2vs0mg"},{"bike_id":"6cf7f891-85b7-45de-a815-16d83b661315","system_id":"levelo_inurba_marseille","lat":43.315293,"lon":5.380349,"is_reserved":false,"is_disabled":false,"rental_uris":{"android":"levelo://app?vid=6cf7f891-85b7-45de-a815-16d83b661315","ios":"levelo://app?vid=6cf7f891-85b7-45de-a815-16d83b661315"},"vehicle_type_id":"4","last_reported":1713992798,"current_range_meters":20800,"station_id":"ce4bhsp2rcd13ifvqi50","pricing_plan_id":"cebpf4jnsgd1na2vs0mg"},{"bike_id":"98bf3e86-aa0a-447a-91be-940394f7a5fe","system_id":"levelo_inurba_marseille","lat":43.315293,"lon":5.380349,"is_reserved":false,"is_disabled":false,"rental_uris":{"android":"levelo://app?vid=98bf3e86-aa0a-447a-91be-940394f7a5fe","ios":"levelo://app?vid=98bf3e86-aa0a-447a-91be-940394f7a5fe"},"vehicle_type_id":"4","last_reported":1713992798,"current_range_meters":28800,"station_id":"ce4bhsp2rcd13ifvqi50","pricing_plan_id":"cebpf4jnsgd1na2vs0mg"},{"bike_id":"c2d25dd9-29ba-4496-8ab5-07ac2a0a7441","system_id":"levelo_inurba_marseille","lat":43.315293,"lon":5.380349,"is_reserved":false,"is_disabled":false,"rental_uris":{"android":"levelo://app?vid=c2d25dd9-29ba-4496-8ab5-07ac2a0a7441","ios":"levelo://app?vid=c2d25dd9-29ba-4496-8ab5-07ac2a0a7441"},"vehicle_type_id":"4","last_reported":1713992798,"current_range_meters":26000,"station_id":"ce4bhsp2rcd13ifvqi50","pricing_plan_id":"cebpf4jnsgd1na2vs0mg"},{"bike_id":"517f0b86-ada3-417d-bb74-c02a8a6ac9d7","system_id":"levelo_inurba_marseille","lat":43.315293,"lon":5.380349,"is_reserved":false,"is_disabled":false,"rental_uris":{"android":"levelo://app?vid=517f0b86-ada3-417d-bb74-c02a8a6ac9d7","ios":"levelo://app?vid=517f0b86-ada3-417d-bb74-c02a8a6ac9d7"},"vehicle_type_id":"4","last_reported":1713992798,"current_range_meters":20800,"station_id":"ce4bhsp2rcd13ifvqi50","pricing_plan_id":"cebpf4jnsgd1na2vs0mg"},{"bike_id":"5778d5e9-4243-412d-bd6b-380143f972a3","system_id":"levelo_inurba_marseille","lat":43.301939,"lon":5.366286,"is_reserved":false,"is_disabled":false,"rental_uris":{"android":"levelo://app?vid=5778d5e9-4243-412d-bd6b-380143f972a3","ios":"levelo://app?vid=5778d5e9-4243-412d-bd6b-380143f972a3"},"vehicle_type_id":"4","last_reported":1713992798,"current_range_meters":30800,"station_id":"ce4bgrh2rcd13ifvqc8g","pricing_plan_id":"cebpf4jnsgd1na2vs0mg"},{"bike_id":"6fc4f2fe-855e-4a83-b414-fe2ef9896983","system_id":"levelo_inurba_marseille","lat":43.301939,"lon":5.366286,"is_reserved":false,"is_disabled":false,"rental_uris":{"android":"levelo://app?vid=6fc4f2fe-855e-4a83-b414-fe2ef9896983","ios":"levelo://app?vid=6fc4f2fe-855e-4a83-b414-fe2ef9896983"},"vehicle_type_id":"4","last_reported":1713992798,"current_range_meters":15200,"station_id":"ce4bgrh2rcd13ifvqc8g","pricing_plan_id":"cebpf4jnsgd1na2vs0mg"},{"bike_id":"c1be793e-252a-4479-8b3a-3af5e5585f7e","system_id":"levelo_inurba_marseille","lat":43.30187,"lon":5.36617,"is_reserved":false,"is_disabled":false,"rental_uris":{"android":"levelo://app?vid=c1be793e-252a-4479-8b3a-3af5e5585f7e","ios":"levelo://app?vid=c1be793e-252a-4479-8b3a-3af5e5585f7e"},"vehicle_type_id":"4","last_reported":1713992798,"current_range_meters":8400,"station_id":"ce4bgrh2rcd13ifvqc8g","pricing_plan_id":"cebpf4jnsgd1na2vs0mg"},{"bike_id":"5489bf8c-597d-4ac4-a858-f7c4175d9494","system_id":"levelo_inurba_marseille","lat":43.301939,"lon":5.366286,"is_reserved":false,"is_disabled":false,"rental_uris":{"android":"levelo://app?vid=5489bf8c-597d-4ac4-a858-f7c4175d9494","ios":"levelo://app?vid=5489bf8c-597d-4ac4-a858-f7c4175d9494"},"vehicle_type_id":"4","last_reported":1713992798,"current_range_meters":6000,"station_id":"ce4bgrh2rcd13ifvqc8g","pricing_plan_id":"cebpf4jnsgd1na2vs0mg"},{"bike_id":"ab4cbf27-747a-4d8b-8c04-f524330b77ce","system_id":"levelo_inurba_marseille","lat":43.301939,"lon":5.366286,"is_reserved":false,"is_disabled":false,"rental_uris":{"android":"levelo://app?vid=ab4cbf27-747a-4d8b-8c04-f524330b77ce","ios":"levelo://app?vid=ab4cbf27-747a-4d8b-8c04-f524330b77ce"},"vehicle_type_id":"4","last_reported":1713992798,"current_range_meters":20000,"station_id":"ce4bgrh2rcd13ifvqc8g","pricing_plan_id":"cebpf4jnsgd1na2vs0mg"},{"bike_id":"822ef47e-9ec5-48f7-a07a-40d5775b832e","system_id":"levelo_inurba_marseille","lat":43.301939,"lon":5.366286,"is_reserved":false,"is_disabled":false,"rental_uris":{"android":"levelo://app?vid=822ef47e-9ec5-48f7-a07a-40d5775b832e","ios":"levelo://app?vid=822ef47e-9ec5-48f7-a07a-40d5775b832e"},"vehicle_type_id":"4","last_reported":1713992798,"current_range_meters":6800,"station_id":"ce4bgrh2rcd13ifvqc8g","pricing_plan_id":"cebpf4jnsgd1na2vs0mg"},{"bike_id":"b611a841-9d0c-4f4d-b750-a5fe8237f7fb","system_id":"levelo_inurba_marseille","lat":43.308012,"lon":5.381511,"is_reserved":false,"is_disabled":false,"rental_uris":{"android":"levelo://app?vid=b611a841-9d0c-4f4d-b750-a5fe8237f7fb","ios":"levelo://app?vid=b611a841-9d0c-4f4d-b750-a5fe8237f7fb"},"vehicle_type_id":"4","last_reported":1713992798,"current_range_meters":22000,"station_id":"ce4bgt12rcd13ifvqce0","pricing_plan_id":"cebpf4jnsgd1na2vs0mg"},{"bike_id":"6f41df8f-45f8-4b2f-8178-a6648003e10b","system_id":"levelo_inurba_marseille","lat":43.308012,"lon":5.381511,"is_reserved":false,"is_disabled":false,"rental_uris":{"android":"levelo://app?vid=6f41df8f-45f8-4b2f-8178-a6648003e10b","ios":"levelo://app?vid=6f41df8f-45f8-4b2f-8178-a6648003e10b"},"vehicle_type_id":"4","last_reported":1713992798,"current_range_meters":28400,"station_id":"ce4bgt12rcd13ifvqce0","pricing_plan_id":"cebpf4jnsgd1na2vs0mg"},{"bike_id":"fb2e37a8-34c5-49c0-a220-1f821a1c187c","system_id":"levelo_inurba_marseille","lat":43.308012,"lon":5.381511,"is_reserved":false,"is_disabled":false,"rental_uris":{"android":"levelo://app?vid=fb2e37a8-34c5-49c0-a220-1f821a1c187c","ios":"levelo://app?vid=fb2e37a8-34c5-49c0-a220-1f821a1c187c"},"vehicle_type_id":"4","last_reported":1713992798,"current_range_meters":12400,"station_id":"ce4bgt12rcd13ifvqce0","pricing_plan_id":"cebpf4jnsgd1na2vs0mg"},{"bike_id":"ba28d9e3-8cb0-4a99-a349-863c359ba349","system_id":"levelo_inurba_marseille","lat":43.304606,"lon":5.379026,"is_reserved":false,"is_disabled":false,"rental_uris":{"android":"levelo://app?vid=ba28d9e3-8cb0-4a99-a349-863c359ba349","ios":"levelo://app?vid=ba28d9e3-8cb0-4a99-a349-863c359ba349"},"vehicle_type_id":"4","last_reported":1713992798,"current_range_meters":28000,"station_id":"ce4bgup2rcd13ifvqcn0","pricing_plan_id":"cebpf4jnsgd1na2vs0mg"},{"bike_id":"051e4a67-3cca-4958-a720-3172b89a6627","system_id":"levelo_inurba_marseille","lat":43.304606,"lon":5.379026,"is_reserved":false,"is_disabled":false,"rental_uris":{"android":"levelo://app?vid=051e4a67-3cca-4958-a720-3172b89a6627","ios":"levelo://app?vid=051e4a67-3cca-4958-a720-3172b89a6627"},"vehicle_type_id":"4","last_reported":1713992798,"current_range_meters":22400,"station_id":"ce4bgup2rcd13ifvqcn0","pricing_plan_id":"cebpf4jnsgd1na2vs0mg"},{"bike_id":"40b666b2-30b2-4933-aaa5-d61dd1849f20","system_id":"levelo_inurba_marseille","lat":43.324771,"lon":5.36557,"is_reserved":false,"is_disabled":false,"rental_uris":{"android":"levelo://app?vid=40b666b2-30b2-4933-aaa5-d61dd1849f20","ios":"levelo://app?vid=40b666b2-30b2-4933-aaa5-d61dd1849f20"},"vehicle_type_id":"4","last_reported":1713992798,"current_range_meters":6800,"station_id":"ce4bhs12rcd13ifvqhvg","pricing_plan_id":"cebpf4jnsgd1na2vs0mg"},{"bike_id":"7f062b0f-6a2f-4b5b-bb79-2b9209537828","system_id":"levelo_inurba_marseille","lat":43.324771,"lon":5.36557,"is_reserved":false,"is_disabled":false,"rental_uris":{"android":"levelo://app?vid=7f062b0f-6a2f-4b5b-bb79-2b9209537828","ios":"levelo://app?vid=7f062b0f-6a2f-4b5b-bb79-2b9209537828"},"vehicle_type_id":"4","last_reported":1713992798,"current_range_meters":28000,"station_id":"ce4bhs12rcd13ifvqhvg","pricing_plan_id":"cebpf4jnsgd1na2vs0mg"},{"bike_id":"57123f3b-0f3e-4e36-8d01-f70e6d005086","system_id":"levelo_inurba_marseille","lat":43.324771,"lon":5.36557,"is_reserved":false,"is_disabled":false,"rental_uris":{"android":"levelo://app?vid=57123f3b-0f3e-4e36-8d01-f70e6d005086","ios":"levelo://app?vid=57123f3b-0f3e-4e36-8d01-f70e6d005086"},"vehicle_type_id":"4","last_reported":1713992798,"current_range_meters":0,"station_id":"ce4bhs12rcd13ifvqhvg","pricing_plan_id":"cebpf4jnsgd1na2vs0mg"},{"bike_id":"48791681-48d0-4948-be97-7a720fbe1e98","system_id":"levelo_inurba_marseille","lat":43.324771,"lon":5.36557,"is_reserved":false,"is_disabled":false,"rental_uris":{"android":"levelo://app?vid=48791681-48d0-4948-be97-7a720fbe1e98","ios":"levelo://app?vid=48791681-48d0-4948-be97-7a720fbe1e98"},"vehicle_type_id":"4","last_reported":1713992798,"current_range_meters":2000,"station_id":"ce4bhs12rcd13ifvqhvg","pricing_plan_id":"cebpf4jnsgd1na2vs0mg"},{"bike_id":"88e4d71b-b1d6-495c-825f-44dfbf1ca746","system_id":"levelo_inurba_marseille","lat":43.324771,"lon":5.36557,"is_reserved":false,"is_disabled":false,"rental_uris":{"android":"levelo://app?vid=88e4d71b-b1d6-495c-825f-44dfbf1ca746","ios":"levelo://app?vid=88e4d71b-b1d6-495c-825f-44dfbf1ca746"},"vehicle_type_id":"4","last_reported":1713992798,"current_range_meters":23200,"station_id":"ce4bhs12rcd13ifvqhvg","pricing_plan_id":"cebpf4jnsgd1na2vs0mg"},{"bike_id":"dea28083-d92d-4f3b-9f85-66961a9dcc09","system_id":"levelo_inurba_marseille","lat":43.31072,"lon":5.383548,"is_reserved":false,"is_disabled":false,"rental_uris":{"android":"levelo://app?vid=dea28083-d92d-4f3b-9f85-66961a9dcc09","ios":"levelo://app?vid=dea28083-d92d-4f3b-9f85-66961a9dcc09"},"vehicle_type_id":"4","last_reported":1713992798,"current_range_meters":0,"station_id":"ce4bgv92rcd13ifvqcr0","pricing_plan_id":"cebpf4jnsgd1na2vs0mg"},{"bike_id":"84a627fe-8d92-4d05-93cd-16f12fda1a99","system_id":"levelo_inurba_marseille","lat":43.310804,"lon":5.38359,"is_reserved":false,"is_disabled":false,"rental_uris":{"android":"levelo://app?vid=84a627fe-8d92-4d05-93cd-16f12fda1a99","ios":"levelo://app?vid=84a627fe-8d92-4d05-93cd-16f12fda1a99"},"vehicle_type_id":"4","last_reported":1713992798,"current_range_meters":14800,"station_id":"ce4bgv92rcd13ifvqcr0","pricing_plan_id":"cebpf4jnsgd1na2vs0mg"},{"bike_id":"ef4b65a8-adbe-464d-a6f3-d027a0815ef5","system_id":"levelo_inurba_marseille","lat":43.310804,"lon":5.38359,"is_reserved":false,"is_disabled":false,"rental_uris":{"android":"levelo://app?vid=ef4b65a8-adbe-464d-a6f3-d027a0815ef5","ios":"levelo://app?vid=ef4b65a8-adbe-464d-a6f3-d027a0815ef5"},"vehicle_type_id":"4","last_reported":1713992798,"current_range_meters":4000,"station_id":"ce4bgv92rcd13ifvqcr0","pricing_plan_id":"cebpf4jnsgd1na2vs0mg"},{"bike_id":"ab582132-8ef4-400b-9b4e-35c8744e1fd1","system_id":"levelo_inurba_marseille","lat":43.310804,"lon":5.38359,"is_reserved":false,"is_disabled":false,"rental_uris":{"android":"levelo://app?vid=ab582132-8ef4-400b-9b4e-35c8744e1fd1","ios":"levelo://app?vid=ab582132-8ef4-400b-9b4e-35c8744e1fd1"},"vehicle_type_id":"4","last_reported":1713992798,"current_range_meters":7200,"station_id":"ce4bgv92rcd13ifvqcr0","pricing_plan_id":"cebpf4jnsgd1na2vs0mg"},{"bike_id":"da38b3fe-7d0a-4add-ad95-8723215f86ff","system_id":"levelo_inurba_marseille","lat":43.302853,"lon":5.376986,"is_reserved":false,"is_disabled":false,"rental_uris":{"android":"levelo://app?vid=da38b3fe-7d0a-4add-ad95-8723215f86ff","ios":"levelo://app?vid=da38b3fe-7d0a-4add-ad95-8723215f86ff"},"vehicle_type_id":"4","last_reported":1713992798,"current_range_meters":0,"station_id":"ce4bguh2rcd13ifvqcj0","pricing_plan_id":"cebpf4jnsgd1na2vs0mg"},{"bike_id":"2f58ea87-ac07-4a10-97b5-296a4a4de5e4","system_id":"levelo_inurba_marseille","lat":43.310804,"lon":5.38359,"is_reserved":false,"is_disabled":false,"rental_uris":{"android":"levelo://app?vid=2f58ea87-ac07-4a10-97b5-296a4a4de5e4","ios":"levelo://app?vid=2f58ea87-ac07-4a10-97b5-296a4a4de5e4"},"vehicle_type_id":"4","last_reported":1713992798,"current_range_meters":24800,"station_id":"ce4bgv92rcd13ifvqcr0","pricing_plan_id":"cebpf4jnsgd1na2vs0mg"},{"bike_id":"22378714-76c2-46f0-9619-bdbeae4cd8df","system_id":"levelo_inurba_marseille","lat":43.319935,"lon":5.381699,"is_reserved":false,"is_disabled":false,"rental_uris":{"android":"levelo://app?vid=22378714-76c2-46f0-9619-bdbeae4cd8df","ios":"levelo://app?vid=22378714-76c2-46f0-9619-bdbeae4cd8df"},"vehicle_type_id":"4","last_reported":1713992798,"current_range_meters":23600,"station_id":"ce4bhr12rcd13ifvqhpg","pricing_plan_id":"cebpf4jnsgd1na2vs0mg"},{"bike_id":"eb66754f-47d2-4b70-8ca4-61a9c15ac9f6","system_id":"levelo_inurba_marseille","lat":43.308012,"lon":5.381511,"is_reserved":false,"is_disabled":false,"rental_uris":{"android":"levelo://app?vid=eb66754f-47d2-4b70-8ca4-61a9c15ac9f6","ios":"levelo://app?vid=eb66754f-47d2-4b70-8ca4-61a9c15ac9f6"},"vehicle_type_id":"4","last_reported":1713992798,"current_range_meters":21200,"station_id":"ce4bgt12rcd13ifvqce0","pricing_plan_id":"cebpf4jnsgd1na2vs0mg"},{"bike_id":"c1868520-0733-4580-852f-04edbc3c3ef3","system_id":"levelo_inurba_marseille","lat":43.313571,"lon":5.384829,"is_reserved":false,"is_disabled":false,"rental_uris":{"android":"levelo://app?vid=c1868520-0733-4580-852f-04edbc3c3ef3","ios":"levelo://app?vid=c1868520-0733-4580-852f-04edbc3c3ef3"},"vehicle_type_id":"4","last_reported":1713992798,"current_range_meters":26800,"station_id":"ce4bgt92rcd13ifvqcf0","pricing_plan_id":"cebpf4jnsgd1na2vs0mg"},{"bike_id":"1ad362a8-778b-40e0-96a6-823a200bc7e6","system_id":"levelo_inurba_marseille","lat":43.313571,"lon":5.384829,"is_reserved":false,"is_disabled":false,"rental_uris":{"android":"levelo://app?vid=1ad362a8-778b-40e0-96a6-823a200bc7e6","ios":"levelo://app?vid=1ad362a8-778b-40e0-96a6-823a200bc7e6"},"vehicle_type_id":"4","last_reported":1713992798,"current_range_meters":24000,"station_id":"ce4bgt92rcd13ifvqcf0","pricing_plan_id":"cebpf4jnsgd1na2vs0mg"},{"bike_id":"abaa0f05-1697-4088-a8fd-c6351a33acb1","system_id":"levelo_inurba_marseille","lat":43.299822,"lon":5.371674,"is_reserved":false,"is_disabled":false,"rental_uris":{"android":"levelo://app?vid=abaa0f05-1697-4088-a8fd-c6351a33acb1","ios":"levelo://app?vid=abaa0f05-1697-4088-a8fd-c6351a33acb1"},"vehicle_type_id":"4","last_reported":1713992798,"current_range_meters":25600,"station_id":"ce4bgr92rcd13ifvqc7g","pricing_plan_id":"cebpf4jnsgd1na2vs0mg"},{"bike_id":"25e5fea8-a950-43e9-8488-bc654078a4e1","system_id":"levelo_inurba_marseille","lat":43.299222,"lon":5.365554,"is_reserved":false,"is_disabled":false,"rental_uris":{"android":"levelo://app?vid=25e5fea8-a950-43e9-8488-bc654078a4e1","ios":"levelo://app?vid=25e5fea8-a950-43e9-8488-bc654078a4e1"},"vehicle_type_id":"4","last_reported":1713992798,"current_range_meters":13200,"station_id":"ce4bgm92rcd13ifvqbr0","pricing_plan_id":"cebpf4jnsgd1na2vs0mg"},{"bike_id":"50eba948-b4f2-4ab6-9547-b9e960dff534","system_id":"levelo_inurba_marseille","lat":43.299724,"lon":5.371829,"is_reserved":false,"is_disabled":false,"rental_uris":{"android":"levelo://app?vid=50eba948-b4f2-4ab6-9547-b9e960dff534","ios":"levelo://app?vid=50eba948-b4f2-4ab6-9547-b9e960dff534"},"vehicle_type_id":"4","last_reported":1713992798,"current_range_meters":21200,"station_id":"ce4bgr92rcd13ifvqc7g","pricing_plan_id":"cebpf4jnsgd1na2vs0mg"},{"bike_id":"b6ba860d-80e0-4876-834e-1eb443d2eab5","system_id":"levelo_inurba_marseille","lat":43.299222,"lon":5.365554,"is_reserved":false,"is_disabled":false,"rental_uris":{"android":"levelo://app?vid=b6ba860d-80e0-4876-834e-1eb443d2eab5","ios":"levelo://app?vid=b6ba860d-80e0-4876-834e-1eb443d2eab5"},"vehicle_type_id":"4","last_reported":1713992798,"current_range_meters":13600,"station_id":"ce4bgm92rcd13ifvqbr0","pricing_plan_id":"cebpf4jnsgd1na2vs0mg"},{"bike_id":"68e37c25-05d0-4359-96fd-6ffb568ac954","system_id":"levelo_inurba_marseille","lat":43.299222,"lon":5.365554,"is_reserved":false,"is_disabled":false,"rental_uris":{"android":"levelo://app?vid=68e37c25-05d0-4359-96fd-6ffb568ac954","ios":"levelo://app?vid=68e37c25-05d0-4359-96fd-6ffb568ac954"},"vehicle_type_id":"4","last_reported":1713992798,"current_range_meters":12400,"station_id":"ce4bgm92rcd13ifvqbr0","pricing_plan_id":"cebpf4jnsgd1na2vs0mg"},{"bike_id":"39ba2e1c-a45d-457a-a570-79f8bece37d3","system_id":"levelo_inurba_marseille","lat":43.299222,"lon":5.365554,"is_reserved":false,"is_disabled":false,"rental_uris":{"android":"levelo://app?vid=39ba2e1c-a45d-457a-a570-79f8bece37d3","ios":"levelo://app?vid=39ba2e1c-a45d-457a-a570-79f8bece37d3"},"vehicle_type_id":"4","last_reported":1713992798,"current_range_meters":28800,"station_id":"ce4bgm92rcd13ifvqbr0","pricing_plan_id":"cebpf4jnsgd1na2vs0mg"},{"bike_id":"611b25c5-36d8-45f8-86e7-2cfbfef14812","system_id":"levelo_inurba_marseille","lat":43.2998,"lon":5.374175,"is_reserved":false,"is_disabled":false,"rental_uris":{"android":"levelo://app?vid=611b25c5-36d8-45f8-86e7-2cfbfef14812","ios":"levelo://app?vid=611b25c5-36d8-45f8-86e7-2cfbfef14812"},"vehicle_type_id":"4","last_reported":1713992798,"current_range_meters":24000,"station_id":"","pricing_plan_id":"cebpf4jnsgd1na2vs0mg"},{"bike_id":"b228b788-78d4-4b2c-b0d7-6d8a41c493f7","system_id":"levelo_inurba_marseille","lat":43.298433,"lon":5.362774,"is_reserved":false,"is_disabled":false,"rental_uris":{"android":"levelo://app?vid=b228b788-78d4-4b2c-b0d7-6d8a41c493f7","ios":"levelo://app?vid=b228b788-78d4-4b2c-b0d7-6d8a41c493f7"},"vehicle_type_id":"4","last_reported":1713992798,"current_range_meters":26400,"station_id":"ce4bgpp2rcd13ifvqc3g","pricing_plan_id":"cebpf4jnsgd1na2vs0mg"},{"bike_id":"e7d82b70-0147-4151-9c0b-29b6bba65077","system_id":"levelo_inurba_marseille","lat":43.298433,"lon":5.362774,"is_reserved":false,"is_disabled":false,"rental_uris":{"android":"levelo://app?vid=e7d82b70-0147-4151-9c0b-29b6bba65077","ios":"levelo://app?vid=e7d82b70-0147-4151-9c0b-29b6bba65077"},"vehicle_type_id":"4","last_reported":1713992798,"current_range_meters":4800,"station_id":"ce4bgpp2rcd13ifvqc3g","pricing_plan_id":"cebpf4jnsgd1na2vs0mg"},{"bike_id":"78d4921d-9f79-4d63-a5a8-f73299de8c74","system_id":"levelo_inurba_marseille","lat":43.298433,"lon":5.362774,"is_reserved":false,"is_disabled":false,"rental_uris":{"android":"levelo://app?vid=78d4921d-9f79-4d63-a5a8-f73299de8c74","ios":"levelo://app?vid=78d4921d-9f79-4d63-a5a8-f73299de8c74"},"vehicle_type_id":"4","last_reported":1713992798,"current_range_meters":24000,"station_id":"ce4bgpp2rcd13ifvqc3g","pricing_plan_id":"cebpf4jnsgd1na2vs0mg"},{"bike_id":"d54d2a30-08fd-4b76-9626-9ae1747a408c","system_id":"levelo_inurba_marseille","lat":43.305364,"lon":5.384119,"is_reserved":false,"is_disabled":false,"rental_uris":{"android":"levelo://app?vid=d54d2a30-08fd-4b76-9626-9ae1747a408c","ios":"levelo://app?vid=d54d2a30-08fd-4b76-9626-9ae1747a408c"},"vehicle_type_id":"4","last_reported":1713992798,"current_range_meters":8800,"station_id":"ce4bgg92rcd13ifvqb30","pricing_plan_id":"cebpf4jnsgd1na2vs0mg"},{"bike_id":"8338d596-6680-498d-a3d4-fd9a6d3882db","system_id":"levelo_inurba_marseille","lat":43.311722,"lon":5.387247,"is_reserved":false,"is_disabled":false,"rental_uris":{"android":"levelo://app?vid=8338d596-6680-498d-a3d4-fd9a6d3882db","ios":"levelo://app?vid=8338d596-6680-498d-a3d4-fd9a6d3882db"},"vehicle_type_id":"4","last_reported":1713992798,"current_range_meters":10800,"station_id":"ce4bgv12rcd13ifvqcp0","pricing_plan_id":"cebpf4jnsgd1na2vs0mg"},{"bike_id":"30a3f0a3-488f-46a1-b160-3786f1bb69da","system_id":"levelo_inurba_marseille","lat":43.311722,"lon":5.387247,"is_reserved":false,"is_disabled":false,"rental_uris":{"android":"levelo://app?vid=30a3f0a3-488f-46a1-b160-3786f1bb69da","ios":"levelo://app?vid=30a3f0a3-488f-46a1-b160-3786f1bb69da"},"vehicle_type_id":"4","last_reported":1713992798,"current_range_meters":12400,"station_id":"ce4bgv12rcd13ifvqcp0","pricing_plan_id":"cebpf4jnsgd1na2vs0mg"},{"bike_id":"35b6da42-5bcd-4e17-a3ab-068134f549cd","system_id":"levelo_inurba_marseille","lat":43.311722,"lon":5.387247,"is_reserved":false,"is_disabled":false,"rental_uris":{"android":"levelo://app?vid=35b6da42-5bcd-4e17-a3ab-068134f549cd","ios":"levelo://app?vid=35b6da42-5bcd-4e17-a3ab-068134f549cd"},"vehicle_type_id":"4","last_reported":1713992798,"current_range_meters":26000,"station_id":"ce4bgv12rcd13ifvqcp0","pricing_plan_id":"cebpf4jnsgd1na2vs0mg"},{"bike_id":"a53693e0-729b-4caa-ab72-5778daa3950b","system_id":"levelo_inurba_marseille","lat":43.312239,"lon":5.368562,"is_reserved":false,"is_disabled":false,"rental_uris":{"android":"levelo://app?vid=a53693e0-729b-4caa-ab72-5778daa3950b","ios":"levelo://app?vid=a53693e0-729b-4caa-ab72-5778daa3950b"},"vehicle_type_id":"4","last_reported":1713992798,"current_range_meters":12400,"station_id":"ce4bgl92rcd13ifvqbq0","pricing_plan_id":"cebpf4jnsgd1na2vs0mg"},{"bike_id":"1154c9ce-9427-4b30-8a01-55a4771e362c","system_id":"levelo_inurba_marseille","lat":43.312118,"lon":5.387457,"is_reserved":false,"is_disabled":false,"rental_uris":{"android":"levelo://app?vid=1154c9ce-9427-4b30-8a01-55a4771e362c","ios":"levelo://app?vid=1154c9ce-9427-4b30-8a01-55a4771e362c"},"vehicle_type_id":"4","last_reported":1713992798,"current_range_meters":4400,"station_id":"ce4bgv12rcd13ifvqcp0","pricing_plan_id":"cebpf4jnsgd1na2vs0mg"},{"bike_id":"c6c96279-e11d-4184-81d1-d2238e8d0f62","system_id":"levelo_inurba_marseille","lat":43.311722,"lon":5.387247,"is_reserved":false,"is_disabled":false,"rental_uris":{"android":"levelo://app?vid=c6c96279-e11d-4184-81d1-d2238e8d0f62","ios":"levelo://app?vid=c6c96279-e11d-4184-81d1-d2238e8d0f62"},"vehicle_type_id":"4","last_reported":1713992798,"current_range_meters":8400,"station_id":"ce4bgv12rcd13ifvqcp0","pricing_plan_id":"cebpf4jnsgd1na2vs0mg"},{"bike_id":"5c65640e-e0e6-4545-8adb-450d5b730ebd","system_id":"levelo_inurba_marseille","lat":43.297794,"lon":5.370888,"is_reserved":false,"is_disabled":false,"rental_uris":{"android":"levelo://app?vid=5c65640e-e0e6-4545-8adb-450d5b730ebd","ios":"levelo://app?vid=5c65640e-e0e6-4545-8adb-450d5b730ebd"},"vehicle_type_id":"4","last_reported":1713992798,"current_range_meters":27200,"station_id":"ce4bgop2rcd13ifvqc1g","pricing_plan_id":"cebpf4jnsgd1na2vs0mg"},{"bike_id":"16c8ebfc-0181-4ddc-93c9-9cecb1ab875c","system_id":"levelo_inurba_marseille","lat":43.322872,"lon":5.382756,"is_reserved":false,"is_disabled":false,"rental_uris":{"android":"levelo://app?vid=16c8ebfc-0181-4ddc-93c9-9cecb1ab875c","ios":"levelo://app?vid=16c8ebfc-0181-4ddc-93c9-9cecb1ab875c"},"vehicle_type_id":"4","last_reported":1713992798,"current_range_meters":5200,"station_id":"ce4bhr12rcd13ifvqhqg","pricing_plan_id":"cebpf4jnsgd1na2vs0mg"},{"bike_id":"8c329978-9504-4fd8-b6f0-e2967beb212a","system_id":"levelo_inurba_marseille","lat":43.322872,"lon":5.382756,"is_reserved":false,"is_disabled":false,"rental_uris":{"android":"levelo://app?vid=8c329978-9504-4fd8-b6f0-e2967beb212a","ios":"levelo://app?vid=8c329978-9504-4fd8-b6f0-e2967beb212a"},"vehicle_type_id":"4","last_reported":1713992798,"current_range_meters":23200,"station_id":"ce4bhr12rcd13ifvqhqg","pricing_plan_id":"cebpf4jnsgd1na2vs0mg"},{"bike_id":"35e395d0-2174-49ea-abbb-6dac81118b6f","system_id":"levelo_inurba_marseille","lat":43.322872,"lon":5.382756,"is_reserved":false,"is_disabled":false,"rental_uris":{"android":"levelo://app?vid=35e395d0-2174-49ea-abbb-6dac81118b6f","ios":"levelo://app?vid=35e395d0-2174-49ea-abbb-6dac81118b6f"},"vehicle_type_id":"4","last_reported":1713992798,"current_range_meters":0,"station_id":"ce4bhr12rcd13ifvqhqg","pricing_plan_id":"cebpf4jnsgd1na2vs0mg"},{"bike_id":"19dac96c-042a-4ff3-931b-414dcbfe7629","system_id":"levelo_inurba_marseille","lat":43.322872,"lon":5.382756,"is_reserved":false,"is_disabled":false,"rental_uris":{"android":"levelo://app?vid=19dac96c-042a-4ff3-931b-414dcbfe7629","ios":"levelo://app?vid=19dac96c-042a-4ff3-931b-414dcbfe7629"},"vehicle_type_id":"4","last_reported":1713992798,"current_range_meters":13200,"station_id":"ce4bhr12rcd13ifvqhqg","pricing_plan_id":"cebpf4jnsgd1na2vs0mg"},{"bike_id":"501882ab-f3f1-4055-a5f0-2af0d2546ab9","system_id":"levelo_inurba_marseille","lat":43.322872,"lon":5.382756,"is_reserved":false,"is_disabled":false,"rental_uris":{"android":"levelo://app?vid=501882ab-f3f1-4055-a5f0-2af0d2546ab9","ios":"levelo://app?vid=501882ab-f3f1-4055-a5f0-2af0d2546ab9"},"vehicle_type_id":"4","last_reported":1713992798,"current_range_meters":19200,"station_id":"ce4bhr12rcd13ifvqhqg","pricing_plan_id":"cebpf4jnsgd1na2vs0mg"},{"bike_id":"6602e6f8-f945-4b52-94dd-af9710fec9d7","system_id":"levelo_inurba_marseille","lat":43.297163,"lon":5.365866,"is_reserved":false,"is_disabled":false,"rental_uris":{"android":"levelo://app?vid=6602e6f8-f945-4b52-94dd-af9710fec9d7","ios":"levelo://app?vid=6602e6f8-f945-4b52-94dd-af9710fec9d7"},"vehicle_type_id":"4","last_reported":1713992798,"current_range_meters":18400,"station_id":"ce4bgn12rcd13ifvqbt0","pricing_plan_id":"cebpf4jnsgd1na2vs0mg"},{"bike_id":"97162b9b-ad98-4f36-a9a9-89f73ee2c0c3","system_id":"levelo_inurba_marseille","lat":43.297163,"lon":5.365866,"is_reserved":false,"is_disabled":false,"rental_uris":{"android":"levelo://app?vid=97162b9b-ad98-4f36-a9a9-89f73ee2c0c3","ios":"levelo://app?vid=97162b9b-ad98-4f36-a9a9-89f73ee2c0c3"},"vehicle_type_id":"4","last_reported":1713992798,"current_range_meters":31200,"station_id":"ce4bgn12rcd13ifvqbt0","pricing_plan_id":"cebpf4jnsgd1na2vs0mg"},{"bike_id":"9395eae6-f7c2-4b9e-a578-25aabde145c9","system_id":"levelo_inurba_marseille","lat":43.297163,"lon":5.365866,"is_reserved":false,"is_disabled":false,"rental_uris":{"android":"levelo://app?vid=9395eae6-f7c2-4b9e-a578-25aabde145c9","ios":"levelo://app?vid=9395eae6-f7c2-4b9e-a578-25aabde145c9"},"vehicle_type_id":"4","last_reported":1713992798,"current_range_meters":30400,"station_id":"ce4bgn12rcd13ifvqbt0","pricing_plan_id":"cebpf4jnsgd1na2vs0mg"},{"bike_id":"c6258ab0-69ba-48db-a03a-3c2437a768eb","system_id":"levelo_inurba_marseille","lat":43.297163,"lon":5.365866,"is_reserved":false,"is_disabled":false,"rental_uris":{"android":"levelo://app?vid=c6258ab0-69ba-48db-a03a-3c2437a768eb","ios":"levelo://app?vid=c6258ab0-69ba-48db-a03a-3c2437a768eb"},"vehicle_type_id":"4","last_reported":1713992798,"current_range_meters":13200,"station_id":"ce4bgn12rcd13ifvqbt0","pricing_plan_id":"cebpf4jnsgd1na2vs0mg"},{"bike_id":"9b9365e5-7e7c-4d39-9089-fab60774a284","system_id":"levelo_inurba_marseille","lat":43.297163,"lon":5.365866,"is_reserved":false,"is_disabled":false,"rental_uris":{"android":"levelo://app?vid=9b9365e5-7e7c-4d39-9089-fab60774a284","ios":"levelo://app?vid=9b9365e5-7e7c-4d39-9089-fab60774a284"},"vehicle_type_id":"4","last_reported":1713992798,"current_range_meters":15600,"station_id":"ce4bgn12rcd13ifvqbt0","pricing_plan_id":"cebpf4jnsgd1na2vs0mg"},{"bike_id":"92f6f72f-d313-42ef-ada6-2923281e0aff","system_id":"levelo_inurba_marseille","lat":43.297163,"lon":5.365866,"is_reserved":false,"is_disabled":false,"rental_uris":{"android":"levelo://app?vid=92f6f72f-d313-42ef-ada6-2923281e0aff","ios":"levelo://app?vid=92f6f72f-d313-42ef-ada6-2923281e0aff"},"vehicle_type_id":"4","last_reported":1713992798,"current_range_meters":31200,"station_id":"ce4bgn12rcd13ifvqbt0","pricing_plan_id":"cebpf4jnsgd1na2vs0mg"},{"bike_id":"90b1af75-1d73-4e18-b5a1-db44d5244b95","system_id":"levelo_inurba_marseille","lat":43.297163,"lon":5.365866,"is_reserved":false,"is_disabled":false,"rental_uris":{"android":"levelo://app?vid=90b1af75-1d73-4e18-b5a1-db44d5244b95","ios":"levelo://app?vid=90b1af75-1d73-4e18-b5a1-db44d5244b95"},"vehicle_type_id":"4","last_reported":1713992798,"current_range_meters":27200,"station_id":"ce4bgn12rcd13ifvqbt0","pricing_plan_id":"cebpf4jnsgd1na2vs0mg"},{"bike_id":"55dae2f5-606b-4baa-b8a8-64b720d0ce15","system_id":"levelo_inurba_marseille","lat":43.297163,"lon":5.365866,"is_reserved":false,"is_disabled":false,"rental_uris":{"android":"levelo://app?vid=55dae2f5-606b-4baa-b8a8-64b720d0ce15","ios":"levelo://app?vid=55dae2f5-606b-4baa-b8a8-64b720d0ce15"},"vehicle_type_id":"4","last_reported":1713992798,"current_range_meters":27200,"station_id":"ce4bgn12rcd13ifvqbt0","pricing_plan_id":"cebpf4jnsgd1na2vs0mg"},{"bike_id":"6b1b7712-9cd5-4d04-bb19-105666f51836","system_id":"levelo_inurba_marseille","lat":43.297163,"lon":5.365866,"is_reserved":false,"is_disabled":false,"rental_uris":{"android":"levelo://app?vid=6b1b7712-9cd5-4d04-bb19-105666f51836","ios":"levelo://app?vid=6b1b7712-9cd5-4d04-bb19-105666f51836"},"vehicle_type_id":"4","last_reported":1713992798,"current_range_meters":16400,"station_id":"ce4bgn12rcd13ifvqbt0","pricing_plan_id":"cebpf4jnsgd1na2vs0mg"},{"bike_id":"22ee16ca-a245-4dc1-ad8a-db06da73955c","system_id":"levelo_inurba_marseille","lat":43.295925,"lon":5.368807,"is_reserved":false,"is_disabled":false,"rental_uris":{"android":"levelo://app?vid=22ee16ca-a245-4dc1-ad8a-db06da73955c","ios":"levelo://app?vid=22ee16ca-a245-4dc1-ad8a-db06da73955c"},"vehicle_type_id":"4","last_reported":1713992798,"current_range_meters":6800,"station_id":"","pricing_plan_id":"cebpf4jnsgd1na2vs0mg"},{"bike_id":"213f5603-4c4a-4287-abee-33ee1525ecb2","system_id":"levelo_inurba_marseille","lat":43.29573,"lon":5.367355,"is_reserved":false,"is_disabled":false,"rental_uris":{"android":"levelo://app?vid=213f5603-4c4a-4287-abee-33ee1525ecb2","ios":"levelo://app?vid=213f5603-4c4a-4287-abee-33ee1525ecb2"},"vehicle_type_id":"4","last_reported":1713992798,"current_range_meters":14000,"station_id":"ce4bgph2rcd13ifvqc2g","pricing_plan_id":"cebpf4jnsgd1na2vs0mg"},{"bike_id":"ad8e27a0-2a4b-44c7-8b0d-dae74f93a756","system_id":"levelo_inurba_marseille","lat":43.29583,"lon":5.36736,"is_reserved":false,"is_disabled":false,"rental_uris":{"android":"levelo://app?vid=ad8e27a0-2a4b-44c7-8b0d-dae74f93a756","ios":"levelo://app?vid=ad8e27a0-2a4b-44c7-8b0d-dae74f93a756"},"vehicle_type_id":"4","last_reported":1713992798,"current_range_meters":20000,"station_id":"ce4bh2h2rcd13ifvqdh0","pricing_plan_id":"cebpf4jnsgd1na2vs0mg"},{"bike_id":"66e8f54f-4320-43a7-8a92-0070bc3d0b54","system_id":"levelo_inurba_marseille","lat":43.29573,"lon":5.367355,"is_reserved":false,"is_disabled":false,"rental_uris":{"android":"levelo://app?vid=66e8f54f-4320-43a7-8a92-0070bc3d0b54","ios":"levelo://app?vid=66e8f54f-4320-43a7-8a92-0070bc3d0b54"},"vehicle_type_id":"4","last_reported":1713992798,"current_range_meters":26000,"station_id":"ce4bgph2rcd13ifvqc2g","pricing_plan_id":"cebpf4jnsgd1na2vs0mg"},{"bike_id":"653edb9d-ce9a-433d-9403-f9eff8398017","system_id":"levelo_inurba_marseille","lat":43.29583,"lon":5.36747,"is_reserved":false,"is_disabled":false,"rental_uris":{"android":"levelo://app?vid=653edb9d-ce9a-433d-9403-f9eff8398017","ios":"levelo://app?vid=653edb9d-ce9a-433d-9403-f9eff8398017"},"vehicle_type_id":"4","last_reported":1713992798,"current_range_meters":6800,"station_id":"ce4bgph2rcd13ifvqc2g","pricing_plan_id":"cebpf4jnsgd1na2vs0mg"},{"bike_id":"dbb2d868-19de-4f23-b6fa-e59e2158d920","system_id":"levelo_inurba_marseille","lat":43.29573,"lon":5.367355,"is_reserved":false,"is_disabled":false,"rental_uris":{"android":"levelo://app?vid=dbb2d868-19de-4f23-b6fa-e59e2158d920","ios":"levelo://app?vid=dbb2d868-19de-4f23-b6fa-e59e2158d920"},"vehicle_type_id":"4","last_reported":1713992798,"current_range_meters":8000,"station_id":"ce4bgph2rcd13ifvqc2g","pricing_plan_id":"cebpf4jnsgd1na2vs0mg"},{"bike_id":"39f5305b-c0ae-416c-8e1e-2c4307045d42","system_id":"levelo_inurba_marseille","lat":43.299028,"lon":5.381509,"is_reserved":false,"is_disabled":false,"rental_uris":{"android":"levelo://app?vid=39f5305b-c0ae-416c-8e1e-2c4307045d42","ios":"levelo://app?vid=39f5305b-c0ae-416c-8e1e-2c4307045d42"},"vehicle_type_id":"4","last_reported":1713992798,"current_range_meters":0,"station_id":"ce4bgj12rcd13ifvqbc0","pricing_plan_id":"cebpf4jnsgd1na2vs0mg"},{"bike_id":"46bbda23-22ce-4e20-a37e-397c994c7e89","system_id":"levelo_inurba_marseille","lat":43.299028,"lon":5.381509,"is_reserved":false,"is_disabled":false,"rental_uris":{"android":"levelo://app?vid=46bbda23-22ce-4e20-a37e-397c994c7e89","ios":"levelo://app?vid=46bbda23-22ce-4e20-a37e-397c994c7e89"},"vehicle_type_id":"4","last_reported":1713992798,"current_range_meters":12000,"station_id":"ce4bgj12rcd13ifvqbc0","pricing_plan_id":"cebpf4jnsgd1na2vs0mg"},{"bike_id":"009b6dbe-f06a-410e-9507-c1ecba6e1674","system_id":"levelo_inurba_marseille","lat":43.317557,"lon":5.390173,"is_reserved":false,"is_disabled":false,"rental_uris":{"android":"levelo://app?vid=009b6dbe-f06a-410e-9507-c1ecba6e1674","ios":"levelo://app?vid=009b6dbe-f06a-410e-9507-c1ecba6e1674"},"vehicle_type_id":"4","last_reported":1713992798,"current_range_meters":22800,"station_id":"ce4bhqp2rcd13ifvqhng","pricing_plan_id":"cebpf4jnsgd1na2vs0mg"},{"bike_id":"c007bef9-8802-41bb-8338-c0ddc6a2a353","system_id":"levelo_inurba_marseille","lat":43.317557,"lon":5.390173,"is_reserved":false,"is_disabled":false,"rental_uris":{"android":"levelo://app?vid=c007bef9-8802-41bb-8338-c0ddc6a2a353","ios":"levelo://app?vid=c007bef9-8802-41bb-8338-c0ddc6a2a353"},"vehicle_type_id":"4","last_reported":1713992798,"current_range_meters":13600,"station_id":"ce4bhqp2rcd13ifvqhng","pricing_plan_id":"cebpf4jnsgd1na2vs0mg"},{"bike_id":"af0c8899-9f38-423b-9f3e-c9c4c7cf5a3d","system_id":"levelo_inurba_marseille","lat":43.317557,"lon":5.390173,"is_reserved":false,"is_disabled":false,"rental_uris":{"android":"levelo://app?vid=af0c8899-9f38-423b-9f3e-c9c4c7cf5a3d","ios":"levelo://app?vid=af0c8899-9f38-423b-9f3e-c9c4c7cf5a3d"},"vehicle_type_id":"4","last_reported":1713992798,"current_range_meters":19600,"station_id":"ce4bhqp2rcd13ifvqhng","pricing_plan_id":"cebpf4jnsgd1na2vs0mg"},{"bike_id":"d6213df5-f7f0-489b-9697-46e5867896cc","system_id":"levelo_inurba_marseille","lat":43.317557,"lon":5.390173,"is_reserved":false,"is_disabled":false,"rental_uris":{"android":"levelo://app?vid=d6213df5-f7f0-489b-9697-46e5867896cc","ios":"levelo://app?vid=d6213df5-f7f0-489b-9697-46e5867896cc"},"vehicle_type_id":"4","last_reported":1713992798,"current_range_meters":7200,"station_id":"ce4bhqp2rcd13ifvqhng","pricing_plan_id":"cebpf4jnsgd1na2vs0mg"},{"bike_id":"a75fb000-0694-44c5-affd-0dc93610d2c9","system_id":"levelo_inurba_marseille","lat":43.317557,"lon":5.390173,"is_reserved":false,"is_disabled":false,"rental_uris":{"android":"levelo://app?vid=a75fb000-0694-44c5-affd-0dc93610d2c9","ios":"levelo://app?vid=a75fb000-0694-44c5-affd-0dc93610d2c9"},"vehicle_type_id":"4","last_reported":1713992798,"current_range_meters":20800,"station_id":"ce4bhqp2rcd13ifvqhng","pricing_plan_id":"cebpf4jnsgd1na2vs0mg"},{"bike_id":"9e9c126f-aefd-4f6f-a49e-4c6e35ba13eb","system_id":"levelo_inurba_marseille","lat":43.317557,"lon":5.390173,"is_reserved":false,"is_disabled":false,"rental_uris":{"android":"levelo://app?vid=9e9c126f-aefd-4f6f-a49e-4c6e35ba13eb","ios":"levelo://app?vid=9e9c126f-aefd-4f6f-a49e-4c6e35ba13eb"},"vehicle_type_id":"4","last_reported":1713992798,"current_range_meters":12800,"station_id":"ce4bhqp2rcd13ifvqhng","pricing_plan_id":"cebpf4jnsgd1na2vs0mg"},{"bike_id":"3ddd29e4-7600-43e5-b6d0-b2af8c40141a","system_id":"levelo_inurba_marseille","lat":43.317557,"lon":5.390173,"is_reserved":false,"is_disabled":false,"rental_uris":{"android":"levelo://app?vid=3ddd29e4-7600-43e5-b6d0-b2af8c40141a","ios":"levelo://app?vid=3ddd29e4-7600-43e5-b6d0-b2af8c40141a"},"vehicle_type_id":"4","last_reported":1713992798,"current_range_meters":31200,"station_id":"ce4bhqp2rcd13ifvqhng","pricing_plan_id":"cebpf4jnsgd1na2vs0mg"},{"bike_id":"8e8cccfd-3e5f-4762-a870-90b549a32291","system_id":"levelo_inurba_marseille","lat":43.317557,"lon":5.390173,"is_reserved":false,"is_disabled":false,"rental_uris":{"android":"levelo://app?vid=8e8cccfd-3e5f-4762-a870-90b549a32291","ios":"levelo://app?vid=8e8cccfd-3e5f-4762-a870-90b549a32291"},"vehicle_type_id":"4","last_reported":1713992798,"current_range_meters":6800,"station_id":"ce4bhqp2rcd13ifvqhng","pricing_plan_id":"cebpf4jnsgd1na2vs0mg"},{"bike_id":"7cc61156-595f-4e4e-a33e-89f91602f767","system_id":"levelo_inurba_marseille","lat":43.317542,"lon":5.390306,"is_reserved":false,"is_disabled":false,"rental_uris":{"android":"levelo://app?vid=7cc61156-595f-4e4e-a33e-89f91602f767","ios":"levelo://app?vid=7cc61156-595f-4e4e-a33e-89f91602f767"},"vehicle_type_id":"4","last_reported":1713992798,"current_range_meters":12000,"station_id":"ce4bhqp2rcd13ifvqhng","pricing_plan_id":"cebpf4jnsgd1na2vs0mg"},{"bike_id":"a6a182f9-55a9-4f2a-861e-ffb5fa524ccd","system_id":"levelo_inurba_marseille","lat":43.29802,"lon":5.38088,"is_reserved":false,"is_disabled":false,"rental_uris":{"android":"levelo://app?vid=a6a182f9-55a9-4f2a-861e-ffb5fa524ccd","ios":"levelo://app?vid=a6a182f9-55a9-4f2a-861e-ffb5fa524ccd"},"vehicle_type_id":"4","last_reported":1713992798,"current_range_meters":0,"station_id":"ce4bgip2rcd13ifvqbb0","pricing_plan_id":"cebpf4jnsgd1na2vs0mg"},{"bike_id":"04f4fc7a-d3e2-4222-bad2-06c98db6a99d","system_id":"levelo_inurba_marseille","lat":43.298037,"lon":5.381066,"is_reserved":false,"is_disabled":false,"rental_uris":{"android":"levelo://app?vid=04f4fc7a-d3e2-4222-bad2-06c98db6a99d","ios":"levelo://app?vid=04f4fc7a-d3e2-4222-bad2-06c98db6a99d"},"vehicle_type_id":"4","last_reported":1713992798,"current_range_meters":32000,"station_id":"ce4bgip2rcd13ifvqbb0","pricing_plan_id":"cebpf4jnsgd1na2vs0mg"},{"bike_id":"ca0d988a-3a7e-49f3-9d52-85ca18878a58","system_id":"levelo_inurba_marseille","lat":43.290094,"lon":5.381264,"is_reserved":false,"is_disabled":false,"rental_uris":{"android":"levelo://app?vid=ca0d988a-3a7e-49f3-9d52-85ca18878a58","ios":"levelo://app?vid=ca0d988a-3a7e-49f3-9d52-85ca18878a58"},"vehicle_type_id":"4","last_reported":1713992798,"current_range_meters":30800,"station_id":"ce4bh4p2rcd13ifvqe1g","pricing_plan_id":"cebpf4jnsgd1na2vs0mg"},{"bike_id":"83d14fae-00a5-4b21-970f-48666ae73d19","system_id":"levelo_inurba_marseille","lat":43.304278,"lon":5.388868,"is_reserved":false,"is_disabled":false,"rental_uris":{"android":"levelo://app?vid=83d14fae-00a5-4b21-970f-48666ae73d19","ios":"levelo://app?vid=83d14fae-00a5-4b21-970f-48666ae73d19"},"vehicle_type_id":"4","last_reported":1713992798,"current_range_meters":12000,"station_id":"ce4bgk12rcd13ifvqbi0","pricing_plan_id":"cebpf4jnsgd1na2vs0mg"},{"bike_id":"1f953467-402c-4bf5-a8ff-e295dbcca753","system_id":"levelo_inurba_marseille","lat":43.304278,"lon":5.388868,"is_reserved":false,"is_disabled":false,"rental_uris":{"android":"levelo://app?vid=1f953467-402c-4bf5-a8ff-e295dbcca753","ios":"levelo://app?vid=1f953467-402c-4bf5-a8ff-e295dbcca753"},"vehicle_type_id":"4","last_reported":1713992798,"current_range_meters":31200,"station_id":"ce4bgk12rcd13ifvqbi0","pricing_plan_id":"cebpf4jnsgd1na2vs0mg"},{"bike_id":"7c2a91fc-05f5-4b35-a38b-f694233c531f","system_id":"levelo_inurba_marseille","lat":43.304274,"lon":5.388873,"is_reserved":false,"is_disabled":false,"rental_uris":{"android":"levelo://app?vid=7c2a91fc-05f5-4b35-a38b-f694233c531f","ios":"levelo://app?vid=7c2a91fc-05f5-4b35-a38b-f694233c531f"},"vehicle_type_id":"4","last_reported":1713992798,"current_range_meters":28800,"station_id":"ce4bgk12rcd13ifvqbi0","pricing_plan_id":"cebpf4jnsgd1na2vs0mg"},{"bike_id":"b8d43019-1fab-4b0f-9833-d5dd2028e0f7","system_id":"levelo_inurba_marseille","lat":43.30437,"lon":5.38901,"is_reserved":false,"is_disabled":false,"rental_uris":{"android":"levelo://app?vid=b8d43019-1fab-4b0f-9833-d5dd2028e0f7","ios":"levelo://app?vid=b8d43019-1fab-4b0f-9833-d5dd2028e0f7"},"vehicle_type_id":"4","last_reported":1713992798,"current_range_meters":0,"station_id":"ce4bgk12rcd13ifvqbi0","pricing_plan_id":"cebpf4jnsgd1na2vs0mg"},{"bike_id":"9e5d3e50-78da-4792-b70a-55bde0420e75","system_id":"levelo_inurba_marseille","lat":43.295748,"lon":5.37522,"is_reserved":false,"is_disabled":false,"rental_uris":{"android":"levelo://app?vid=9e5d3e50-78da-4792-b70a-55bde0420e75","ios":"levelo://app?vid=9e5d3e50-78da-4792-b70a-55bde0420e75"},"vehicle_type_id":"4","last_reported":1713992798,"current_range_meters":4400,"station_id":"ce4bgh92rcd13ifvqb50","pricing_plan_id":"cebpf4jnsgd1na2vs0mg"},{"bike_id":"8cdc2e51-6108-48f1-9ee8-2e89450171b3","system_id":"levelo_inurba_marseille","lat":43.296263,"lon":5.377094,"is_reserved":false,"is_disabled":false,"rental_uris":{"android":"levelo://app?vid=8cdc2e51-6108-48f1-9ee8-2e89450171b3","ios":"levelo://app?vid=8cdc2e51-6108-48f1-9ee8-2e89450171b3"},"vehicle_type_id":"4","last_reported":1713992798,"current_range_meters":21200,"station_id":"ce4bgi92rcd13ifvqb90","pricing_plan_id":"cebpf4jnsgd1na2vs0mg"},{"bike_id":"2e4db47b-6c1c-4622-9989-5d5df9f44149","system_id":"levelo_inurba_marseille","lat":43.296263,"lon":5.377094,"is_reserved":false,"is_disabled":false,"rental_uris":{"android":"levelo://app?vid=2e4db47b-6c1c-4622-9989-5d5df9f44149","ios":"levelo://app?vid=2e4db47b-6c1c-4622-9989-5d5df9f44149"},"vehicle_type_id":"4","last_reported":1713992798,"current_range_meters":16000,"station_id":"ce4bgi92rcd13ifvqb90","pricing_plan_id":"cebpf4jnsgd1na2vs0mg"},{"bike_id":"206f7a5f-6771-4940-adf3-80bc20587daa","system_id":"levelo_inurba_marseille","lat":43.299717,"lon":5.384845,"is_reserved":false,"is_disabled":false,"rental_uris":{"android":"levelo://app?vid=206f7a5f-6771-4940-adf3-80bc20587daa","ios":"levelo://app?vid=206f7a5f-6771-4940-adf3-80bc20587daa"},"vehicle_type_id":"4","last_reported":1713992798,"current_range_meters":16000,"station_id":"ce4bgj92rcd13ifvqbd0","pricing_plan_id":"cebpf4jnsgd1na2vs0mg"},{"bike_id":"57af65a2-ba1f-4128-8ded-7d5277daccae","system_id":"levelo_inurba_marseille","lat":43.299707,"lon":5.384859,"is_reserved":false,"is_disabled":false,"rental_uris":{"android":"levelo://app?vid=57af65a2-ba1f-4128-8ded-7d5277daccae","ios":"levelo://app?vid=57af65a2-ba1f-4128-8ded-7d5277daccae"},"vehicle_type_id":"4","last_reported":1713992798,"current_range_meters":20000,"station_id":"ce4bgj92rcd13ifvqbd0","pricing_plan_id":"cebpf4jnsgd1na2vs0mg"},{"bike_id":"dae5e2e5-beb8-498d-a926-d2458f3a2727","system_id":"levelo_inurba_marseille","lat":43.29968,"lon":5.38487,"is_reserved":false,"is_disabled":false,"rental_uris":{"android":"levelo://app?vid=dae5e2e5-beb8-498d-a926-d2458f3a2727","ios":"levelo://app?vid=dae5e2e5-beb8-498d-a926-d2458f3a2727"},"vehicle_type_id":"4","last_reported":1713992798,"current_range_meters":0,"station_id":"ce4bgj92rcd13ifvqbd0","pricing_plan_id":"cebpf4jnsgd1na2vs0mg"},{"bike_id":"ccaeb144-5505-4767-b115-78619aac2871","system_id":"levelo_inurba_marseille","lat":43.299707,"lon":5.384859,"is_reserved":false,"is_disabled":false,"rental_uris":{"android":"levelo://app?vid=ccaeb144-5505-4767-b115-78619aac2871","ios":"levelo://app?vid=ccaeb144-5505-4767-b115-78619aac2871"},"vehicle_type_id":"4","last_reported":1713992798,"current_range_meters":11200,"station_id":"ce4bgj92rcd13ifvqbd0","pricing_plan_id":"cebpf4jnsgd1na2vs0mg"},{"bike_id":"13c5607a-9112-43ee-a41d-e62a5745fbd2","system_id":"levelo_inurba_marseille","lat":43.299707,"lon":5.384859,"is_reserved":false,"is_disabled":false,"rental_uris":{"android":"levelo://app?vid=13c5607a-9112-43ee-a41d-e62a5745fbd2","ios":"levelo://app?vid=13c5607a-9112-43ee-a41d-e62a5745fbd2"},"vehicle_type_id":"4","last_reported":1713992798,"current_range_meters":15600,"station_id":"ce4bgj92rcd13ifvqbd0","pricing_plan_id":"cebpf4jnsgd1na2vs0mg"},{"bike_id":"19e66640-89f6-439d-93d0-d48228eac6cb","system_id":"levelo_inurba_marseille","lat":43.295196,"lon":5.39397,"is_reserved":false,"is_disabled":false,"rental_uris":{"android":"levelo://app?vid=19e66640-89f6-439d-93d0-d48228eac6cb","ios":"levelo://app?vid=19e66640-89f6-439d-93d0-d48228eac6cb"},"vehicle_type_id":"4","last_reported":1713992798,"current_range_meters":25600,"station_id":"ce4bh292rcd13ifvqdf0","pricing_plan_id":"cebpf4jnsgd1na2vs0mg"},{"bike_id":"69a8433d-e4ae-48e5-bda2-8ab8b5179591","system_id":"levelo_inurba_marseille","lat":43.32367,"lon":5.388836,"is_reserved":false,"is_disabled":false,"rental_uris":{"android":"levelo://app?vid=69a8433d-e4ae-48e5-bda2-8ab8b5179591","ios":"levelo://app?vid=69a8433d-e4ae-48e5-bda2-8ab8b5179591"},"vehicle_type_id":"4","last_reported":1713992798,"current_range_meters":2400,"station_id":"ce4bhqp2rcd13ifvqhog","pricing_plan_id":"cebpf4jnsgd1na2vs0mg"},{"bike_id":"09fb3c83-bcf1-4fe2-9765-f280d9fed52e","system_id":"levelo_inurba_marseille","lat":43.32367,"lon":5.388836,"is_reserved":false,"is_disabled":false,"rental_uris":{"android":"levelo://app?vid=09fb3c83-bcf1-4fe2-9765-f280d9fed52e","ios":"levelo://app?vid=09fb3c83-bcf1-4fe2-9765-f280d9fed52e"},"vehicle_type_id":"4","last_reported":1713992798,"current_range_meters":14400,"station_id":"ce4bhqp2rcd13ifvqhog","pricing_plan_id":"cebpf4jnsgd1na2vs0mg"},{"bike_id":"6d14f1d6-6bac-4dda-8754-c0db40dd2bb4","system_id":"levelo_inurba_marseille","lat":43.32367,"lon":5.388836,"is_reserved":false,"is_disabled":false,"rental_uris":{"android":"levelo://app?vid=6d14f1d6-6bac-4dda-8754-c0db40dd2bb4","ios":"levelo://app?vid=6d14f1d6-6bac-4dda-8754-c0db40dd2bb4"},"vehicle_type_id":"4","last_reported":1713992798,"current_range_meters":17200,"station_id":"ce4bhqp2rcd13ifvqhog","pricing_plan_id":"cebpf4jnsgd1na2vs0mg"},{"bike_id":"6eee273b-f2f7-42a7-b189-a5b0926a269f","system_id":"levelo_inurba_marseille","lat":43.32367,"lon":5.388836,"is_reserved":false,"is_disabled":false,"rental_uris":{"android":"levelo://app?vid=6eee273b-f2f7-42a7-b189-a5b0926a269f","ios":"levelo://app?vid=6eee273b-f2f7-42a7-b189-a5b0926a269f"},"vehicle_type_id":"4","last_reported":1713992798,"current_range_meters":0,"station_id":"ce4bhqp2rcd13ifvqhog","pricing_plan_id":"cebpf4jnsgd1na2vs0mg"},{"bike_id":"2e8cfebd-46e7-495b-9715-f35bdd0e280e","system_id":"levelo_inurba_marseille","lat":43.32367,"lon":5.388836,"is_reserved":false,"is_disabled":false,"rental_uris":{"android":"levelo://app?vid=2e8cfebd-46e7-495b-9715-f35bdd0e280e","ios":"levelo://app?vid=2e8cfebd-46e7-495b-9715-f35bdd0e280e"},"vehicle_type_id":"4","last_reported":1713992798,"current_range_meters":11600,"station_id":"ce4bhqp2rcd13ifvqhog","pricing_plan_id":"cebpf4jnsgd1na2vs0mg"},{"bike_id":"bfab041c-7451-412e-a202-f3b827201120","system_id":"levelo_inurba_marseille","lat":43.29593,"lon":5.38107,"is_reserved":false,"is_disabled":false,"rental_uris":{"android":"levelo://app?vid=bfab041c-7451-412e-a202-f3b827201120","ios":"levelo://app?vid=bfab041c-7451-412e-a202-f3b827201120"},"vehicle_type_id":"4","last_reported":1713992798,"current_range_meters":16000,"station_id":"","pricing_plan_id":"cebpf4jnsgd1na2vs0mg"},{"bike_id":"655024ed-d3ae-4393-8f9e-50e5e8ff5369","system_id":"levelo_inurba_marseille","lat":43.293259,"lon":5.371586,"is_reserved":false,"is_disabled":false,"rental_uris":{"android":"levelo://app?vid=655024ed-d3ae-4393-8f9e-50e5e8ff5369","ios":"levelo://app?vid=655024ed-d3ae-4393-8f9e-50e5e8ff5369"},"vehicle_type_id":"4","last_reported":1713992798,"current_range_meters":29200,"station_id":"ce4bgh92rcd13ifvqb40","pricing_plan_id":"cebpf4jnsgd1na2vs0mg"},{"bike_id":"04be0663-dc06-495f-96cb-49f43952e902","system_id":"levelo_inurba_marseille","lat":43.292749,"lon":5.368402,"is_reserved":false,"is_disabled":false,"rental_uris":{"android":"levelo://app?vid=04be0663-dc06-495f-96cb-49f43952e902","ios":"levelo://app?vid=04be0663-dc06-495f-96cb-49f43952e902"},"vehicle_type_id":"4","last_reported":1713992798,"current_range_meters":29200,"station_id":"ce4bhbp2rcd13ifvqesg","pricing_plan_id":"cebpf4jnsgd1na2vs0mg"},{"bike_id":"3190e011-9d54-48c3-8df4-24c375041388","system_id":"levelo_inurba_marseille","lat":43.292749,"lon":5.368402,"is_reserved":false,"is_disabled":false,"rental_uris":{"android":"levelo://app?vid=3190e011-9d54-48c3-8df4-24c375041388","ios":"levelo://app?vid=3190e011-9d54-48c3-8df4-24c375041388"},"vehicle_type_id":"4","last_reported":1713992798,"current_range_meters":22400,"station_id":"ce4bhbp2rcd13ifvqesg","pricing_plan_id":"cebpf4jnsgd1na2vs0mg"},{"bike_id":"bec15c3f-6fef-4398-8368-14dbfde68bf1","system_id":"levelo_inurba_marseille","lat":43.29298,"lon":5.37462,"is_reserved":false,"is_disabled":false,"rental_uris":{"android":"levelo://app?vid=bec15c3f-6fef-4398-8368-14dbfde68bf1","ios":"levelo://app?vid=bec15c3f-6fef-4398-8368-14dbfde68bf1"},"vehicle_type_id":"4","last_reported":1713992798,"current_range_meters":1200,"station_id":"ce4bh3p2rcd13ifvqdq0","pricing_plan_id":"cebpf4jnsgd1na2vs0mg"},{"bike_id":"6a0f3fc9-a8d3-4329-9e30-7ac0b58ee384","system_id":"levelo_inurba_marseille","lat":43.305994,"lon":5.393687,"is_reserved":false,"is_disabled":false,"rental_uris":{"android":"levelo://app?vid=6a0f3fc9-a8d3-4329-9e30-7ac0b58ee384","ios":"levelo://app?vid=6a0f3fc9-a8d3-4329-9e30-7ac0b58ee384"},"vehicle_type_id":"4","last_reported":1713992798,"current_range_meters":24400,"station_id":"ce4bh0p2rcd13ifvqd80","pricing_plan_id":"cebpf4jnsgd1na2vs0mg"},{"bike_id":"ded62f5f-a2df-4377-b7ba-afffbf87f0eb","system_id":"levelo_inurba_marseille","lat":43.2936,"lon":5.37835,"is_reserved":false,"is_disabled":false,"rental_uris":{"android":"levelo://app?vid=ded62f5f-a2df-4377-b7ba-afffbf87f0eb","ios":"levelo://app?vid=ded62f5f-a2df-4377-b7ba-afffbf87f0eb"},"vehicle_type_id":"4","last_reported":1713992798,"current_range_meters":23200,"station_id":"ce4bgjh2rcd13ifvqbf0","pricing_plan_id":"cebpf4jnsgd1na2vs0mg"},{"bike_id":"cc3e830d-9bd8-4dfd-8172-d6ef07bf637e","system_id":"levelo_inurba_marseille","lat":43.302992,"lon":5.392136,"is_reserved":false,"is_disabled":false,"rental_uris":{"android":"levelo://app?vid=cc3e830d-9bd8-4dfd-8172-d6ef07bf637e","ios":"levelo://app?vid=cc3e830d-9bd8-4dfd-8172-d6ef07bf637e"},"vehicle_type_id":"4","last_reported":1713992798,"current_range_meters":27600,"station_id":"ce4bgkh2rcd13ifvqbk0","pricing_plan_id":"cebpf4jnsgd1na2vs0mg"},{"bike_id":"02c75a0c-edf8-4f09-9cda-6a0f39bd2ec5","system_id":"levelo_inurba_marseille","lat":43.303002,"lon":5.392142,"is_reserved":false,"is_disabled":false,"rental_uris":{"android":"levelo://app?vid=02c75a0c-edf8-4f09-9cda-6a0f39bd2ec5","ios":"levelo://app?vid=02c75a0c-edf8-4f09-9cda-6a0f39bd2ec5"},"vehicle_type_id":"4","last_reported":1713992798,"current_range_meters":30000,"station_id":"ce4bgkh2rcd13ifvqbk0","pricing_plan_id":"cebpf4jnsgd1na2vs0mg"},{"bike_id":"af640d4a-c1fc-4fa2-bf8b-2c5c1565ebcd","system_id":"levelo_inurba_marseille","lat":43.303002,"lon":5.392142,"is_reserved":false,"is_disabled":false,"rental_uris":{"android":"levelo://app?vid=af640d4a-c1fc-4fa2-bf8b-2c5c1565ebcd","ios":"levelo://app?vid=af640d4a-c1fc-4fa2-bf8b-2c5c1565ebcd"},"vehicle_type_id":"4","last_reported":1713992798,"current_range_meters":18400,"station_id":"ce4bgkh2rcd13ifvqbk0","pricing_plan_id":"cebpf4jnsgd1na2vs0mg"},{"bike_id":"49b7d4c3-b05b-4ed7-93f2-82d069ce4ad8","system_id":"levelo_inurba_marseille","lat":43.300852,"lon":5.390859,"is_reserved":false,"is_disabled":false,"rental_uris":{"android":"levelo://app?vid=49b7d4c3-b05b-4ed7-93f2-82d069ce4ad8","ios":"levelo://app?vid=49b7d4c3-b05b-4ed7-93f2-82d069ce4ad8"},"vehicle_type_id":"4","last_reported":1713992798,"current_range_meters":31200,"station_id":"ce4bh192rcd13ifvqdb0","pricing_plan_id":"cebpf4jnsgd1na2vs0mg"},{"bike_id":"007919db-9e01-4d22-b0d0-eb5e7a5fc5c3","system_id":"levelo_inurba_marseille","lat":43.299717,"lon":5.384845,"is_reserved":false,"is_disabled":false,"rental_uris":{"android":"levelo://app?vid=007919db-9e01-4d22-b0d0-eb5e7a5fc5c3","ios":"levelo://app?vid=007919db-9e01-4d22-b0d0-eb5e7a5fc5c3"},"vehicle_type_id":"4","last_reported":1713992798,"current_range_meters":12800,"station_id":"ce4bgj92rcd13ifvqbd0","pricing_plan_id":"cebpf4jnsgd1na2vs0mg"},{"bike_id":"63168fdd-23bb-48b4-99c5-f2fe4ed62839","system_id":"levelo_inurba_marseille","lat":43.304606,"lon":5.379026,"is_reserved":false,"is_disabled":false,"rental_uris":{"android":"levelo://app?vid=63168fdd-23bb-48b4-99c5-f2fe4ed62839","ios":"levelo://app?vid=63168fdd-23bb-48b4-99c5-f2fe4ed62839"},"vehicle_type_id":"4","last_reported":1713992798,"current_range_meters":26000,"station_id":"ce4bgup2rcd13ifvqcn0","pricing_plan_id":"cebpf4jnsgd1na2vs0mg"},{"bike_id":"41f09c41-bc41-4800-a040-0955d2e5785a","system_id":"levelo_inurba_marseille","lat":43.30081,"lon":5.390835,"is_reserved":false,"is_disabled":false,"rental_uris":{"android":"levelo://app?vid=41f09c41-bc41-4800-a040-0955d2e5785a","ios":"levelo://app?vid=41f09c41-bc41-4800-a040-0955d2e5785a"},"vehicle_type_id":"4","last_reported":1713992798,"current_range_meters":0,"station_id":"ce4bh192rcd13ifvqdb0","pricing_plan_id":"cebpf4jnsgd1na2vs0mg"},{"bike_id":"e4a2f833-d1b7-49a7-94e9-386f8d2235ee","system_id":"levelo_inurba_marseille","lat":43.298849,"lon":5.389071,"is_reserved":false,"is_disabled":false,"rental_uris":{"android":"levelo://app?vid=e4a2f833-d1b7-49a7-94e9-386f8d2235ee","ios":"levelo://app?vid=e4a2f833-d1b7-49a7-94e9-386f8d2235ee"},"vehicle_type_id":"4","last_reported":1713992798,"current_range_meters":20400,"station_id":"ce4bh392rcd13ifvqdl0","pricing_plan_id":"cebpf4jnsgd1na2vs0mg"},{"bike_id":"3abefe89-f5a0-4803-a466-95ddc2cf9b0a","system_id":"levelo_inurba_marseille","lat":43.298833,"lon":5.38907,"is_reserved":false,"is_disabled":false,"rental_uris":{"android":"levelo://app?vid=3abefe89-f5a0-4803-a466-95ddc2cf9b0a","ios":"levelo://app?vid=3abefe89-f5a0-4803-a466-95ddc2cf9b0a"},"vehicle_type_id":"4","last_reported":1713992798,"current_range_meters":10000,"station_id":"ce4bh392rcd13ifvqdl0","pricing_plan_id":"cebpf4jnsgd1na2vs0mg"},{"bike_id":"1c9b5e4a-3f8f-47fd-a3d2-49ced7fcc7ae","system_id":"levelo_inurba_marseille","lat":43.298841,"lon":5.389101,"is_reserved":false,"is_disabled":false,"rental_uris":{"android":"levelo://app?vid=1c9b5e4a-3f8f-47fd-a3d2-49ced7fcc7ae","ios":"levelo://app?vid=1c9b5e4a-3f8f-47fd-a3d2-49ced7fcc7ae"},"vehicle_type_id":"4","last_reported":1713992798,"current_range_meters":12000,"station_id":"ce4bh392rcd13ifvqdl0","pricing_plan_id":"cebpf4jnsgd1na2vs0mg"},{"bike_id":"e7453f34-e1d5-4fe4-9df6-47281bee97c6","system_id":"levelo_inurba_marseille","lat":43.298764,"lon":5.388973,"is_reserved":false,"is_disabled":false,"rental_uris":{"android":"levelo://app?vid=e7453f34-e1d5-4fe4-9df6-47281bee97c6","ios":"levelo://app?vid=e7453f34-e1d5-4fe4-9df6-47281bee97c6"},"vehicle_type_id":"4","last_reported":1713992798,"current_range_meters":26800,"station_id":"ce4bh392rcd13ifvqdl0","pricing_plan_id":"cebpf4jnsgd1na2vs0mg"},{"bike_id":"f748ddbc-3406-4ab7-b3a5-814f112a2aa2","system_id":"levelo_inurba_marseille","lat":43.298764,"lon":5.388973,"is_reserved":false,"is_disabled":false,"rental_uris":{"android":"levelo://app?vid=f748ddbc-3406-4ab7-b3a5-814f112a2aa2","ios":"levelo://app?vid=f748ddbc-3406-4ab7-b3a5-814f112a2aa2"},"vehicle_type_id":"4","last_reported":1713992798,"current_range_meters":10800,"station_id":"ce4bh392rcd13ifvqdl0","pricing_plan_id":"cebpf4jnsgd1na2vs0mg"},{"bike_id":"325e9e6f-fa40-4532-99eb-e30da56ce3bf","system_id":"levelo_inurba_marseille","lat":43.2607,"lon":5.393983,"is_reserved":false,"is_disabled":false,"rental_uris":{"android":"levelo://app?vid=325e9e6f-fa40-4532-99eb-e30da56ce3bf","ios":"levelo://app?vid=325e9e6f-fa40-4532-99eb-e30da56ce3bf"},"vehicle_type_id":"4","last_reported":1713992798,"current_range_meters":20000,"station_id":"ce4bhh92rcd13ifvqfj0","pricing_plan_id":"cebpf4jnsgd1na2vs0mg"},{"bike_id":"6f1debd9-1fc7-48f8-a5d8-ebf638da6332","system_id":"levelo_inurba_marseille","lat":43.29877,"lon":5.3891,"is_reserved":false,"is_disabled":false,"rental_uris":{"android":"levelo://app?vid=6f1debd9-1fc7-48f8-a5d8-ebf638da6332","ios":"levelo://app?vid=6f1debd9-1fc7-48f8-a5d8-ebf638da6332"},"vehicle_type_id":"4","last_reported":1713992798,"current_range_meters":6400,"station_id":"ce4bh392rcd13ifvqdl0","pricing_plan_id":"cebpf4jnsgd1na2vs0mg"},{"bike_id":"812ae96e-d1a3-4433-acaa-4118defcc53f","system_id":"levelo_inurba_marseille","lat":43.298764,"lon":5.388973,"is_reserved":false,"is_disabled":false,"rental_uris":{"android":"levelo://app?vid=812ae96e-d1a3-4433-acaa-4118defcc53f","ios":"levelo://app?vid=812ae96e-d1a3-4433-acaa-4118defcc53f"},"vehicle_type_id":"4","last_reported":1713992798,"current_range_meters":24800,"station_id":"ce4bh392rcd13ifvqdl0","pricing_plan_id":"cebpf4jnsgd1na2vs0mg"},{"bike_id":"98a43146-e9fe-4468-a3df-2f39f959fae5","system_id":"levelo_inurba_marseille","lat":43.298764,"lon":5.388973,"is_reserved":false,"is_disabled":false,"rental_uris":{"android":"levelo://app?vid=98a43146-e9fe-4468-a3df-2f39f959fae5","ios":"levelo://app?vid=98a43146-e9fe-4468-a3df-2f39f959fae5"},"vehicle_type_id":"4","last_reported":1713992798,"current_range_meters":31600,"station_id":"ce4bh392rcd13ifvqdl0","pricing_plan_id":"cebpf4jnsgd1na2vs0mg"},{"bike_id":"0e4adaee-c572-43b7-b9b0-b87489d16e90","system_id":"levelo_inurba_marseille","lat":43.291675,"lon":5.371583,"is_reserved":false,"is_disabled":false,"rental_uris":{"android":"levelo://app?vid=0e4adaee-c572-43b7-b9b0-b87489d16e90","ios":"levelo://app?vid=0e4adaee-c572-43b7-b9b0-b87489d16e90"},"vehicle_type_id":"4","last_reported":1713992798,"current_range_meters":12000,"station_id":"ce4bha92rcd13ifvqeh0","pricing_plan_id":"cebpf4jnsgd1na2vs0mg"},{"bike_id":"e571c6b4-e7ca-4bdf-a5b6-1717694a34ba","system_id":"levelo_inurba_marseille","lat":43.291671,"lon":5.371575,"is_reserved":false,"is_disabled":false,"rental_uris":{"android":"levelo://app?vid=e571c6b4-e7ca-4bdf-a5b6-1717694a34ba","ios":"levelo://app?vid=e571c6b4-e7ca-4bdf-a5b6-1717694a34ba"},"vehicle_type_id":"4","last_reported":1713992798,"current_range_meters":6400,"station_id":"ce4bha92rcd13ifvqeh0","pricing_plan_id":"cebpf4jnsgd1na2vs0mg"},{"bike_id":"6815b8fa-8a86-4195-8059-9b2c3635a2cd","system_id":"levelo_inurba_marseille","lat":43.30882,"lon":5.39631,"is_reserved":false,"is_disabled":false,"rental_uris":{"android":"levelo://app?vid=6815b8fa-8a86-4195-8059-9b2c3635a2cd","ios":"levelo://app?vid=6815b8fa-8a86-4195-8059-9b2c3635a2cd"},"vehicle_type_id":"4","last_reported":1713992798,"current_range_meters":3600,"station_id":"ce4bh012rcd13ifvqcv0","pricing_plan_id":"cebpf4jnsgd1na2vs0mg"},{"bike_id":"c8fa3066-e6e5-458d-9cbd-2419b9a04fd6","system_id":"levelo_inurba_marseille","lat":43.305994,"lon":5.393687,"is_reserved":false,"is_disabled":false,"rental_uris":{"android":"levelo://app?vid=c8fa3066-e6e5-458d-9cbd-2419b9a04fd6","ios":"levelo://app?vid=c8fa3066-e6e5-458d-9cbd-2419b9a04fd6"},"vehicle_type_id":"4","last_reported":1713992798,"current_range_meters":6000,"station_id":"ce4bh0p2rcd13ifvqd80","pricing_plan_id":"cebpf4jnsgd1na2vs0mg"},{"bike_id":"36a8218e-1572-4117-89ac-05eb17daa538","system_id":"levelo_inurba_marseille","lat":43.291944,"lon":5.357996,"is_reserved":false,"is_disabled":false,"rental_uris":{"android":"levelo://app?vid=36a8218e-1572-4117-89ac-05eb17daa538","ios":"levelo://app?vid=36a8218e-1572-4117-89ac-05eb17daa538"},"vehicle_type_id":"4","last_reported":1713992798,"current_range_meters":1200,"station_id":"","pricing_plan_id":"cebpf4jnsgd1na2vs0mg"},{"bike_id":"37d4d8a8-8a46-4db3-873f-78cdea5c1cfc","system_id":"levelo_inurba_marseille","lat":43.313291,"lon":5.396838,"is_reserved":false,"is_disabled":false,"rental_uris":{"android":"levelo://app?vid=37d4d8a8-8a46-4db3-873f-78cdea5c1cfc","ios":"levelo://app?vid=37d4d8a8-8a46-4db3-873f-78cdea5c1cfc"},"vehicle_type_id":"4","last_reported":1713992798,"current_range_meters":400,"station_id":"ce4bgvp2rcd13ifvqcu0","pricing_plan_id":"cebpf4jnsgd1na2vs0mg"},{"bike_id":"22796fe2-9174-4370-80f3-8b191cf1b11c","system_id":"levelo_inurba_marseille","lat":43.309047,"lon":5.396551,"is_reserved":false,"is_disabled":false,"rental_uris":{"android":"levelo://app?vid=22796fe2-9174-4370-80f3-8b191cf1b11c","ios":"levelo://app?vid=22796fe2-9174-4370-80f3-8b191cf1b11c"},"vehicle_type_id":"4","last_reported":1713992798,"current_range_meters":14800,"station_id":"ce4bh012rcd13ifvqcv0","pricing_plan_id":"cebpf4jnsgd1na2vs0mg"},{"bike_id":"dd9bb4f8-ac44-45f8-a618-2844932e5005","system_id":"levelo_inurba_marseille","lat":43.313291,"lon":5.396838,"is_reserved":false,"is_disabled":false,"rental_uris":{"android":"levelo://app?vid=dd9bb4f8-ac44-45f8-a618-2844932e5005","ios":"levelo://app?vid=dd9bb4f8-ac44-45f8-a618-2844932e5005"},"vehicle_type_id":"4","last_reported":1713992798,"current_range_meters":400,"station_id":"ce4bgvp2rcd13ifvqcu0","pricing_plan_id":"cebpf4jnsgd1na2vs0mg"},{"bike_id":"8dd3eb76-7703-40e0-ade1-2b426214d5a9","system_id":"levelo_inurba_marseille","lat":43.309047,"lon":5.396551,"is_reserved":false,"is_disabled":false,"rental_uris":{"android":"levelo://app?vid=8dd3eb76-7703-40e0-ade1-2b426214d5a9","ios":"levelo://app?vid=8dd3eb76-7703-40e0-ade1-2b426214d5a9"},"vehicle_type_id":"4","last_reported":1713992798,"current_range_meters":4000,"station_id":"ce4bh012rcd13ifvqcv0","pricing_plan_id":"cebpf4jnsgd1na2vs0mg"},{"bike_id":"26dc2cfd-4782-40d2-9be3-6f89517f014c","system_id":"levelo_inurba_marseille","lat":43.309047,"lon":5.396551,"is_reserved":false,"is_disabled":false,"rental_uris":{"android":"levelo://app?vid=26dc2cfd-4782-40d2-9be3-6f89517f014c","ios":"levelo://app?vid=26dc2cfd-4782-40d2-9be3-6f89517f014c"},"vehicle_type_id":"4","last_reported":1713992798,"current_range_meters":8000,"station_id":"ce4bh012rcd13ifvqcv0","pricing_plan_id":"cebpf4jnsgd1na2vs0mg"},{"bike_id":"d05ed630-7ac0-4b32-8b54-38ef271503bd","system_id":"levelo_inurba_marseille","lat":43.313291,"lon":5.396838,"is_reserved":false,"is_disabled":false,"rental_uris":{"android":"levelo://app?vid=d05ed630-7ac0-4b32-8b54-38ef271503bd","ios":"levelo://app?vid=d05ed630-7ac0-4b32-8b54-38ef271503bd"},"vehicle_type_id":"4","last_reported":1713992798,"current_range_meters":5600,"station_id":"ce4bgvp2rcd13ifvqcu0","pricing_plan_id":"cebpf4jnsgd1na2vs0mg"},{"bike_id":"7ceb74a2-b9a5-4274-9f83-2eec8625af90","system_id":"levelo_inurba_marseille","lat":43.313291,"lon":5.396838,"is_reserved":false,"is_disabled":false,"rental_uris":{"android":"levelo://app?vid=7ceb74a2-b9a5-4274-9f83-2eec8625af90","ios":"levelo://app?vid=7ceb74a2-b9a5-4274-9f83-2eec8625af90"},"vehicle_type_id":"4","last_reported":1713992798,"current_range_meters":25600,"station_id":"ce4bgvp2rcd13ifvqcu0","pricing_plan_id":"cebpf4jnsgd1na2vs0mg"},{"bike_id":"173d1821-0afb-411a-9f3f-8fa507ae178e","system_id":"levelo_inurba_marseille","lat":43.31331,"lon":5.39695,"is_reserved":false,"is_disabled":false,"rental_uris":{"android":"levelo://app?vid=173d1821-0afb-411a-9f3f-8fa507ae178e","ios":"levelo://app?vid=173d1821-0afb-411a-9f3f-8fa507ae178e"},"vehicle_type_id":"4","last_reported":1713992798,"current_range_meters":7600,"station_id":"ce4bgvp2rcd13ifvqcu0","pricing_plan_id":"cebpf4jnsgd1na2vs0mg"},{"bike_id":"13672082-55f1-473d-857f-09fc7e860415","system_id":"levelo_inurba_marseille","lat":43.313291,"lon":5.396838,"is_reserved":false,"is_disabled":false,"rental_uris":{"android":"levelo://app?vid=13672082-55f1-473d-857f-09fc7e860415","ios":"levelo://app?vid=13672082-55f1-473d-857f-09fc7e860415"},"vehicle_type_id":"4","last_reported":1713992798,"current_range_meters":21200,"station_id":"ce4bgvp2rcd13ifvqcu0","pricing_plan_id":"cebpf4jnsgd1na2vs0mg"},{"bike_id":"90e5d243-b7ec-4a4f-8974-6d6cabc9a5b0","system_id":"levelo_inurba_marseille","lat":43.313291,"lon":5.396838,"is_reserved":false,"is_disabled":false,"rental_uris":{"android":"levelo://app?vid=90e5d243-b7ec-4a4f-8974-6d6cabc9a5b0","ios":"levelo://app?vid=90e5d243-b7ec-4a4f-8974-6d6cabc9a5b0"},"vehicle_type_id":"4","last_reported":1713992798,"current_range_meters":10800,"station_id":"ce4bgvp2rcd13ifvqcu0","pricing_plan_id":"cebpf4jnsgd1na2vs0mg"},{"bike_id":"75e56fc6-8ee7-4e6d-a3b4-c217a5dcc42d","system_id":"levelo_inurba_marseille","lat":43.309047,"lon":5.396551,"is_reserved":false,"is_disabled":false,"rental_uris":{"android":"levelo://app?vid=75e56fc6-8ee7-4e6d-a3b4-c217a5dcc42d","ios":"levelo://app?vid=75e56fc6-8ee7-4e6d-a3b4-c217a5dcc42d"},"vehicle_type_id":"4","last_reported":1713992798,"current_range_meters":26000,"station_id":"ce4bh012rcd13ifvqcv0","pricing_plan_id":"cebpf4jnsgd1na2vs0mg"},{"bike_id":"a6543812-72f8-4259-8e2d-e0dfc60af540","system_id":"levelo_inurba_marseille","lat":43.313291,"lon":5.396838,"is_reserved":false,"is_disabled":false,"rental_uris":{"android":"levelo://app?vid=a6543812-72f8-4259-8e2d-e0dfc60af540","ios":"levelo://app?vid=a6543812-72f8-4259-8e2d-e0dfc60af540"},"vehicle_type_id":"4","last_reported":1713992798,"current_range_meters":15200,"station_id":"ce4bgvp2rcd13ifvqcu0","pricing_plan_id":"cebpf4jnsgd1na2vs0mg"},{"bike_id":"2cbd2ea9-7736-4940-a3a7-061d8134a3ad","system_id":"levelo_inurba_marseille","lat":43.308892,"lon":5.396527,"is_reserved":false,"is_disabled":false,"rental_uris":{"android":"levelo://app?vid=2cbd2ea9-7736-4940-a3a7-061d8134a3ad","ios":"levelo://app?vid=2cbd2ea9-7736-4940-a3a7-061d8134a3ad"},"vehicle_type_id":"4","last_reported":1713992798,"current_range_meters":17600,"station_id":"ce4bh012rcd13ifvqcv0","pricing_plan_id":"cebpf4jnsgd1na2vs0mg"},{"bike_id":"e42d19ce-4649-4d3c-b783-975b2f77d338","system_id":"levelo_inurba_marseille","lat":43.313291,"lon":5.396838,"is_reserved":false,"is_disabled":false,"rental_uris":{"android":"levelo://app?vid=e42d19ce-4649-4d3c-b783-975b2f77d338","ios":"levelo://app?vid=e42d19ce-4649-4d3c-b783-975b2f77d338"},"vehicle_type_id":"4","last_reported":1713992798,"current_range_meters":31200,"station_id":"ce4bgvp2rcd13ifvqcu0","pricing_plan_id":"cebpf4jnsgd1na2vs0mg"},{"bike_id":"44dc9a9a-00ba-4994-a3ab-9ca5bf79f211","system_id":"levelo_inurba_marseille","lat":43.3133,"lon":5.39699,"is_reserved":false,"is_disabled":false,"rental_uris":{"android":"levelo://app?vid=44dc9a9a-00ba-4994-a3ab-9ca5bf79f211","ios":"levelo://app?vid=44dc9a9a-00ba-4994-a3ab-9ca5bf79f211"},"vehicle_type_id":"4","last_reported":1713992798,"current_range_meters":26000,"station_id":"ce4bgvp2rcd13ifvqcu0","pricing_plan_id":"cebpf4jnsgd1na2vs0mg"},{"bike_id":"e104eb26-998d-4787-a1ef-e71f24f2dc01","system_id":"levelo_inurba_marseille","lat":43.309047,"lon":5.396551,"is_reserved":false,"is_disabled":false,"rental_uris":{"android":"levelo://app?vid=e104eb26-998d-4787-a1ef-e71f24f2dc01","ios":"levelo://app?vid=e104eb26-998d-4787-a1ef-e71f24f2dc01"},"vehicle_type_id":"4","last_reported":1713992798,"current_range_meters":800,"station_id":"ce4bh012rcd13ifvqcv0","pricing_plan_id":"cebpf4jnsgd1na2vs0mg"},{"bike_id":"23b26e60-7ebb-4242-8d92-a3453960a2d6","system_id":"levelo_inurba_marseille","lat":43.313291,"lon":5.396838,"is_reserved":false,"is_disabled":false,"rental_uris":{"android":"levelo://app?vid=23b26e60-7ebb-4242-8d92-a3453960a2d6","ios":"levelo://app?vid=23b26e60-7ebb-4242-8d92-a3453960a2d6"},"vehicle_type_id":"4","last_reported":1713992798,"current_range_meters":26800,"station_id":"ce4bgvp2rcd13ifvqcu0","pricing_plan_id":"cebpf4jnsgd1na2vs0mg"},{"bike_id":"7ed4cace-59a4-45e9-822d-4b5fa4556a60","system_id":"levelo_inurba_marseille","lat":43.309047,"lon":5.396551,"is_reserved":false,"is_disabled":false,"rental_uris":{"android":"levelo://app?vid=7ed4cace-59a4-45e9-822d-4b5fa4556a60","ios":"levelo://app?vid=7ed4cace-59a4-45e9-822d-4b5fa4556a60"},"vehicle_type_id":"4","last_reported":1713992798,"current_range_meters":4400,"station_id":"ce4bh012rcd13ifvqcv0","pricing_plan_id":"cebpf4jnsgd1na2vs0mg"},{"bike_id":"fc94dae8-4ae3-4536-96b1-7b89f7fb7a8d","system_id":"levelo_inurba_marseille","lat":43.313291,"lon":5.396838,"is_reserved":false,"is_disabled":false,"rental_uris":{"android":"levelo://app?vid=fc94dae8-4ae3-4536-96b1-7b89f7fb7a8d","ios":"levelo://app?vid=fc94dae8-4ae3-4536-96b1-7b89f7fb7a8d"},"vehicle_type_id":"4","last_reported":1713992798,"current_range_meters":0,"station_id":"ce4bgvp2rcd13ifvqcu0","pricing_plan_id":"cebpf4jnsgd1na2vs0mg"},{"bike_id":"199c3715-d5a4-4f84-b56f-772be581a284","system_id":"levelo_inurba_marseille","lat":43.313291,"lon":5.396838,"is_reserved":false,"is_disabled":false,"rental_uris":{"android":"levelo://app?vid=199c3715-d5a4-4f84-b56f-772be581a284","ios":"levelo://app?vid=199c3715-d5a4-4f84-b56f-772be581a284"},"vehicle_type_id":"4","last_reported":1713992798,"current_range_meters":31200,"station_id":"ce4bgvp2rcd13ifvqcu0","pricing_plan_id":"cebpf4jnsgd1na2vs0mg"},{"bike_id":"81899fb2-da2a-41ce-a98d-408591b6cbd9","system_id":"levelo_inurba_marseille","lat":43.313291,"lon":5.396838,"is_reserved":false,"is_disabled":false,"rental_uris":{"android":"levelo://app?vid=81899fb2-da2a-41ce-a98d-408591b6cbd9","ios":"levelo://app?vid=81899fb2-da2a-41ce-a98d-408591b6cbd9"},"vehicle_type_id":"4","last_reported":1713992798,"current_range_meters":28000,"station_id":"ce4bgvp2rcd13ifvqcu0","pricing_plan_id":"cebpf4jnsgd1na2vs0mg"},{"bike_id":"463e0fb3-3a70-45bf-8b13-7e80637b1529","system_id":"levelo_inurba_marseille","lat":43.31325,"lon":5.39704,"is_reserved":false,"is_disabled":false,"rental_uris":{"android":"levelo://app?vid=463e0fb3-3a70-45bf-8b13-7e80637b1529","ios":"levelo://app?vid=463e0fb3-3a70-45bf-8b13-7e80637b1529"},"vehicle_type_id":"4","last_reported":1713992798,"current_range_meters":6400,"station_id":"ce4bgvp2rcd13ifvqcu0","pricing_plan_id":"cebpf4jnsgd1na2vs0mg"},{"bike_id":"06359c55-ff1a-434c-8cc6-482a3bd98406","system_id":"levelo_inurba_marseille","lat":43.313291,"lon":5.396838,"is_reserved":false,"is_disabled":false,"rental_uris":{"android":"levelo://app?vid=06359c55-ff1a-434c-8cc6-482a3bd98406","ios":"levelo://app?vid=06359c55-ff1a-434c-8cc6-482a3bd98406"},"vehicle_type_id":"4","last_reported":1713992798,"current_range_meters":15200,"station_id":"ce4bgvp2rcd13ifvqcu0","pricing_plan_id":"cebpf4jnsgd1na2vs0mg"},{"bike_id":"b0a9a739-9cca-42a3-bbea-dc6c591b5483","system_id":"levelo_inurba_marseille","lat":43.29529,"lon":5.385581,"is_reserved":false,"is_disabled":false,"rental_uris":{"android":"levelo://app?vid=b0a9a739-9cca-42a3-bbea-dc6c591b5483","ios":"levelo://app?vid=b0a9a739-9cca-42a3-bbea-dc6c591b5483"},"vehicle_type_id":"4","last_reported":1713992798,"current_range_meters":12400,"station_id":"ce4bgih2rcd13ifvqba0","pricing_plan_id":"cebpf4jnsgd1na2vs0mg"},{"bike_id":"b7be9af8-8689-454e-96d3-9f33defaf4a8","system_id":"levelo_inurba_marseille","lat":43.309047,"lon":5.396551,"is_reserved":false,"is_disabled":false,"rental_uris":{"android":"levelo://app?vid=b7be9af8-8689-454e-96d3-9f33defaf4a8","ios":"levelo://app?vid=b7be9af8-8689-454e-96d3-9f33defaf4a8"},"vehicle_type_id":"4","last_reported":1713992798,"current_range_meters":26000,"station_id":"ce4bh012rcd13ifvqcv0","pricing_plan_id":"cebpf4jnsgd1na2vs0mg"},{"bike_id":"347abcf3-0955-4c25-9c62-a4657722ace0","system_id":"levelo_inurba_marseille","lat":43.29529,"lon":5.385581,"is_reserved":false,"is_disabled":false,"rental_uris":{"android":"levelo://app?vid=347abcf3-0955-4c25-9c62-a4657722ace0","ios":"levelo://app?vid=347abcf3-0955-4c25-9c62-a4657722ace0"},"vehicle_type_id":"4","last_reported":1713992798,"current_range_meters":14400,"station_id":"ce4bgih2rcd13ifvqba0","pricing_plan_id":"cebpf4jnsgd1na2vs0mg"},{"bike_id":"cf57773a-31f9-4648-9089-e4ad1ebb0ff8","system_id":"levelo_inurba_marseille","lat":43.29529,"lon":5.385581,"is_reserved":false,"is_disabled":false,"rental_uris":{"android":"levelo://app?vid=cf57773a-31f9-4648-9089-e4ad1ebb0ff8","ios":"levelo://app?vid=cf57773a-31f9-4648-9089-e4ad1ebb0ff8"},"vehicle_type_id":"4","last_reported":1713992798,"current_range_meters":31200,"station_id":"ce4bgih2rcd13ifvqba0","pricing_plan_id":"cebpf4jnsgd1na2vs0mg"},{"bike_id":"fafb698c-951c-4b81-8704-35129282d6a7","system_id":"levelo_inurba_marseille","lat":43.29529,"lon":5.385581,"is_reserved":false,"is_disabled":false,"rental_uris":{"android":"levelo://app?vid=fafb698c-951c-4b81-8704-35129282d6a7","ios":"levelo://app?vid=fafb698c-951c-4b81-8704-35129282d6a7"},"vehicle_type_id":"4","last_reported":1713992798,"current_range_meters":4000,"station_id":"ce4bgih2rcd13ifvqba0","pricing_plan_id":"cebpf4jnsgd1na2vs0mg"},{"bike_id":"4219e5fb-a687-46fe-a6cb-0e0867a198cd","system_id":"levelo_inurba_marseille","lat":43.29539,"lon":5.385493,"is_reserved":false,"is_disabled":false,"rental_uris":{"android":"levelo://app?vid=4219e5fb-a687-46fe-a6cb-0e0867a198cd","ios":"levelo://app?vid=4219e5fb-a687-46fe-a6cb-0e0867a198cd"},"vehicle_type_id":"4","last_reported":1713992798,"current_range_meters":24800,"station_id":"ce4bgih2rcd13ifvqba0","pricing_plan_id":"cebpf4jnsgd1na2vs0mg"},{"bike_id":"b8aceaf1-f39e-4c93-b1ef-2c8e58c01f61","system_id":"levelo_inurba_marseille","lat":43.295333,"lon":5.385402,"is_reserved":false,"is_disabled":false,"rental_uris":{"android":"levelo://app?vid=b8aceaf1-f39e-4c93-b1ef-2c8e58c01f61","ios":"levelo://app?vid=b8aceaf1-f39e-4c93-b1ef-2c8e58c01f61"},"vehicle_type_id":"4","last_reported":1713992798,"current_range_meters":26400,"station_id":"","pricing_plan_id":"cebpf4jnsgd1na2vs0mg"},{"bike_id":"3fbf09b0-cc03-4c37-8b01-7d9a136be2c3","system_id":"levelo_inurba_marseille","lat":43.29529,"lon":5.385581,"is_reserved":false,"is_disabled":false,"rental_uris":{"android":"levelo://app?vid=3fbf09b0-cc03-4c37-8b01-7d9a136be2c3","ios":"levelo://app?vid=3fbf09b0-cc03-4c37-8b01-7d9a136be2c3"},"vehicle_type_id":"4","last_reported":1713992798,"current_range_meters":29600,"station_id":"ce4bgih2rcd13ifvqba0","pricing_plan_id":"cebpf4jnsgd1na2vs0mg"},{"bike_id":"c3978124-6ee7-4d67-9753-55f8d4c38c3a","system_id":"levelo_inurba_marseille","lat":43.29529,"lon":5.385581,"is_reserved":false,"is_disabled":false,"rental_uris":{"android":"levelo://app?vid=c3978124-6ee7-4d67-9753-55f8d4c38c3a","ios":"levelo://app?vid=c3978124-6ee7-4d67-9753-55f8d4c38c3a"},"vehicle_type_id":"4","last_reported":1713992798,"current_range_meters":26000,"station_id":"ce4bgih2rcd13ifvqba0","pricing_plan_id":"cebpf4jnsgd1na2vs0mg"},{"bike_id":"a377a648-65ea-4939-8a15-0f15541269ad","system_id":"levelo_inurba_marseille","lat":43.29529,"lon":5.385581,"is_reserved":false,"is_disabled":false,"rental_uris":{"android":"levelo://app?vid=a377a648-65ea-4939-8a15-0f15541269ad","ios":"levelo://app?vid=a377a648-65ea-4939-8a15-0f15541269ad"},"vehicle_type_id":"4","last_reported":1713992798,"current_range_meters":30800,"station_id":"ce4bgih2rcd13ifvqba0","pricing_plan_id":"cebpf4jnsgd1na2vs0mg"},{"bike_id":"cb80cf07-dec3-4596-bb07-a5a92ffae18f","system_id":"levelo_inurba_marseille","lat":43.29529,"lon":5.385581,"is_reserved":false,"is_disabled":false,"rental_uris":{"android":"levelo://app?vid=cb80cf07-dec3-4596-bb07-a5a92ffae18f","ios":"levelo://app?vid=cb80cf07-dec3-4596-bb07-a5a92ffae18f"},"vehicle_type_id":"4","last_reported":1713992798,"current_range_meters":10800,"station_id":"ce4bgih2rcd13ifvqba0","pricing_plan_id":"cebpf4jnsgd1na2vs0mg"},{"bike_id":"64f33f53-b45e-4793-8b4b-db06f8986938","system_id":"levelo_inurba_marseille","lat":43.29529,"lon":5.385581,"is_reserved":false,"is_disabled":false,"rental_uris":{"android":"levelo://app?vid=64f33f53-b45e-4793-8b4b-db06f8986938","ios":"levelo://app?vid=64f33f53-b45e-4793-8b4b-db06f8986938"},"vehicle_type_id":"4","last_reported":1713992798,"current_range_meters":17600,"station_id":"ce4bgih2rcd13ifvqba0","pricing_plan_id":"cebpf4jnsgd1na2vs0mg"},{"bike_id":"e12bbf50-ba1a-40eb-911c-edeac4325d13","system_id":"levelo_inurba_marseille","lat":43.29529,"lon":5.385581,"is_reserved":false,"is_disabled":false,"rental_uris":{"android":"levelo://app?vid=e12bbf50-ba1a-40eb-911c-edeac4325d13","ios":"levelo://app?vid=e12bbf50-ba1a-40eb-911c-edeac4325d13"},"vehicle_type_id":"4","last_reported":1713992798,"current_range_meters":20400,"station_id":"ce4bgih2rcd13ifvqba0","pricing_plan_id":"cebpf4jnsgd1na2vs0mg"},{"bike_id":"67ce8e45-6b4e-4f8f-9b4e-c2e7a011a56d","system_id":"levelo_inurba_marseille","lat":43.29529,"lon":5.385581,"is_reserved":false,"is_disabled":false,"rental_uris":{"android":"levelo://app?vid=67ce8e45-6b4e-4f8f-9b4e-c2e7a011a56d","ios":"levelo://app?vid=67ce8e45-6b4e-4f8f-9b4e-c2e7a011a56d"},"vehicle_type_id":"4","last_reported":1713992798,"current_range_meters":19600,"station_id":"ce4bgih2rcd13ifvqba0","pricing_plan_id":"cebpf4jnsgd1na2vs0mg"},{"bike_id":"71e39179-b6e9-48a9-8591-035a36f7ed0c","system_id":"levelo_inurba_marseille","lat":43.29529,"lon":5.385581,"is_reserved":false,"is_disabled":false,"rental_uris":{"android":"levelo://app?vid=71e39179-b6e9-48a9-8591-035a36f7ed0c","ios":"levelo://app?vid=71e39179-b6e9-48a9-8591-035a36f7ed0c"},"vehicle_type_id":"4","last_reported":1713992798,"current_range_meters":22800,"station_id":"ce4bgih2rcd13ifvqba0","pricing_plan_id":"cebpf4jnsgd1na2vs0mg"},{"bike_id":"1630be11-b08f-4750-aeaf-f7e2d89205f8","system_id":"levelo_inurba_marseille","lat":43.29529,"lon":5.385581,"is_reserved":false,"is_disabled":false,"rental_uris":{"android":"levelo://app?vid=1630be11-b08f-4750-aeaf-f7e2d89205f8","ios":"levelo://app?vid=1630be11-b08f-4750-aeaf-f7e2d89205f8"},"vehicle_type_id":"4","last_reported":1713992798,"current_range_meters":23600,"station_id":"ce4bgih2rcd13ifvqba0","pricing_plan_id":"cebpf4jnsgd1na2vs0mg"},{"bike_id":"16967664-7d95-4c0b-96f3-e7200b7bec18","system_id":"levelo_inurba_marseille","lat":43.29529,"lon":5.385581,"is_reserved":false,"is_disabled":false,"rental_uris":{"android":"levelo://app?vid=16967664-7d95-4c0b-96f3-e7200b7bec18","ios":"levelo://app?vid=16967664-7d95-4c0b-96f3-e7200b7bec18"},"vehicle_type_id":"4","last_reported":1713992798,"current_range_meters":0,"station_id":"ce4bgih2rcd13ifvqba0","pricing_plan_id":"cebpf4jnsgd1na2vs0mg"},{"bike_id":"c531f3cb-4452-4234-bcd9-1c7c4ef8a9fd","system_id":"levelo_inurba_marseille","lat":43.29529,"lon":5.385581,"is_reserved":false,"is_disabled":false,"rental_uris":{"android":"levelo://app?vid=c531f3cb-4452-4234-bcd9-1c7c4ef8a9fd","ios":"levelo://app?vid=c531f3cb-4452-4234-bcd9-1c7c4ef8a9fd"},"vehicle_type_id":"4","last_reported":1713992798,"current_range_meters":28800,"station_id":"ce4bgih2rcd13ifvqba0","pricing_plan_id":"cebpf4jnsgd1na2vs0mg"},{"bike_id":"8e038633-9911-4004-b91f-0aa9f7d26e2d","system_id":"levelo_inurba_marseille","lat":43.29533,"lon":5.38549,"is_reserved":false,"is_disabled":false,"rental_uris":{"android":"levelo://app?vid=8e038633-9911-4004-b91f-0aa9f7d26e2d","ios":"levelo://app?vid=8e038633-9911-4004-b91f-0aa9f7d26e2d"},"vehicle_type_id":"4","last_reported":1713992798,"current_range_meters":19600,"station_id":"ce4bgih2rcd13ifvqba0","pricing_plan_id":"cebpf4jnsgd1na2vs0mg"},{"bike_id":"74be94cb-b66a-47a6-97af-8735fdd3c27a","system_id":"levelo_inurba_marseille","lat":43.29529,"lon":5.385581,"is_reserved":false,"is_disabled":false,"rental_uris":{"android":"levelo://app?vid=74be94cb-b66a-47a6-97af-8735fdd3c27a","ios":"levelo://app?vid=74be94cb-b66a-47a6-97af-8735fdd3c27a"},"vehicle_type_id":"4","last_reported":1713992798,"current_range_meters":4400,"station_id":"ce4bgih2rcd13ifvqba0","pricing_plan_id":"cebpf4jnsgd1na2vs0mg"},{"bike_id":"3b8519cd-78a5-42e1-a406-c7d51987c3d2","system_id":"levelo_inurba_marseille","lat":43.29529,"lon":5.385581,"is_reserved":false,"is_disabled":false,"rental_uris":{"android":"levelo://app?vid=3b8519cd-78a5-42e1-a406-c7d51987c3d2","ios":"levelo://app?vid=3b8519cd-78a5-42e1-a406-c7d51987c3d2"},"vehicle_type_id":"4","last_reported":1713992798,"current_range_meters":4400,"station_id":"ce4bgih2rcd13ifvqba0","pricing_plan_id":"cebpf4jnsgd1na2vs0mg"},{"bike_id":"79265243-9699-463a-911e-877c7f976d00","system_id":"levelo_inurba_marseille","lat":43.29529,"lon":5.385581,"is_reserved":false,"is_disabled":false,"rental_uris":{"android":"levelo://app?vid=79265243-9699-463a-911e-877c7f976d00","ios":"levelo://app?vid=79265243-9699-463a-911e-877c7f976d00"},"vehicle_type_id":"4","last_reported":1713992798,"current_range_meters":3600,"station_id":"ce4bgih2rcd13ifvqba0","pricing_plan_id":"cebpf4jnsgd1na2vs0mg"},{"bike_id":"5f74a206-4380-48d0-9a55-aa3afea1a28e","system_id":"levelo_inurba_marseille","lat":43.29527,"lon":5.38547,"is_reserved":false,"is_disabled":false,"rental_uris":{"android":"levelo://app?vid=5f74a206-4380-48d0-9a55-aa3afea1a28e","ios":"levelo://app?vid=5f74a206-4380-48d0-9a55-aa3afea1a28e"},"vehicle_type_id":"4","last_reported":1713992798,"current_range_meters":10000,"station_id":"ce4bgih2rcd13ifvqba0","pricing_plan_id":"cebpf4jnsgd1na2vs0mg"},{"bike_id":"5b92a451-2a13-4098-80fa-610649811b23","system_id":"levelo_inurba_marseille","lat":43.29529,"lon":5.385581,"is_reserved":false,"is_disabled":false,"rental_uris":{"android":"levelo://app?vid=5b92a451-2a13-4098-80fa-610649811b23","ios":"levelo://app?vid=5b92a451-2a13-4098-80fa-610649811b23"},"vehicle_type_id":"4","last_reported":1713992798,"current_range_meters":4400,"station_id":"ce4bgih2rcd13ifvqba0","pricing_plan_id":"cebpf4jnsgd1na2vs0mg"},{"bike_id":"8eba0aa9-c46b-42d9-8765-ad1e0a23423b","system_id":"levelo_inurba_marseille","lat":43.29529,"lon":5.385581,"is_reserved":false,"is_disabled":false,"rental_uris":{"android":"levelo://app?vid=8eba0aa9-c46b-42d9-8765-ad1e0a23423b","ios":"levelo://app?vid=8eba0aa9-c46b-42d9-8765-ad1e0a23423b"},"vehicle_type_id":"4","last_reported":1713992798,"current_range_meters":24400,"station_id":"ce4bgih2rcd13ifvqba0","pricing_plan_id":"cebpf4jnsgd1na2vs0mg"},{"bike_id":"e601e0fb-cacb-4aa4-9cf3-8fbb9e0d3f3f","system_id":"levelo_inurba_marseille","lat":43.29523,"lon":5.3855,"is_reserved":false,"is_disabled":false,"rental_uris":{"android":"levelo://app?vid=e601e0fb-cacb-4aa4-9cf3-8fbb9e0d3f3f","ios":"levelo://app?vid=e601e0fb-cacb-4aa4-9cf3-8fbb9e0d3f3f"},"vehicle_type_id":"4","last_reported":1713992798,"current_range_meters":800,"station_id":"ce4bgih2rcd13ifvqba0","pricing_plan_id":"cebpf4jnsgd1na2vs0mg"},{"bike_id":"99bf5189-61e8-40f7-b572-9fdb086ac6a0","system_id":"levelo_inurba_marseille","lat":43.290779,"lon":5.371482,"is_reserved":false,"is_disabled":false,"rental_uris":{"android":"levelo://app?vid=99bf5189-61e8-40f7-b572-9fdb086ac6a0","ios":"levelo://app?vid=99bf5189-61e8-40f7-b572-9fdb086ac6a0"},"vehicle_type_id":"4","last_reported":1713992798,"current_range_meters":19200,"station_id":"ce4bh5p2rcd13ifvqe4g","pricing_plan_id":"cebpf4jnsgd1na2vs0mg"},{"bike_id":"9528f82f-ae53-48f3-8ab7-4867f1e09f66","system_id":"levelo_inurba_marseille","lat":43.301117,"lon":5.398795,"is_reserved":false,"is_disabled":false,"rental_uris":{"android":"levelo://app?vid=9528f82f-ae53-48f3-8ab7-4867f1e09f66","ios":"levelo://app?vid=9528f82f-ae53-48f3-8ab7-4867f1e09f66"},"vehicle_type_id":"4","last_reported":1713992798,"current_range_meters":21200,"station_id":"ce4bh0h2rcd13ifvqd40","pricing_plan_id":"cebpf4jnsgd1na2vs0mg"},{"bike_id":"248c8f65-47d6-4bbd-9ddb-0e96711bff6f","system_id":"levelo_inurba_marseille","lat":43.295413,"lon":5.386633,"is_reserved":false,"is_disabled":false,"rental_uris":{"android":"levelo://app?vid=248c8f65-47d6-4bbd-9ddb-0e96711bff6f","ios":"levelo://app?vid=248c8f65-47d6-4bbd-9ddb-0e96711bff6f"},"vehicle_type_id":"4","last_reported":1713992798,"current_range_meters":8400,"station_id":"","pricing_plan_id":"cebpf4jnsgd1na2vs0mg"},{"bike_id":"bdd4e0af-6920-45b7-ab6d-5cddbc3baed7","system_id":"levelo_inurba_marseille","lat":43.290779,"lon":5.371482,"is_reserved":false,"is_disabled":false,"rental_uris":{"android":"levelo://app?vid=bdd4e0af-6920-45b7-ab6d-5cddbc3baed7","ios":"levelo://app?vid=bdd4e0af-6920-45b7-ab6d-5cddbc3baed7"},"vehicle_type_id":"4","last_reported":1713992798,"current_range_meters":11600,"station_id":"ce4bh5p2rcd13ifvqe4g","pricing_plan_id":"cebpf4jnsgd1na2vs0mg"},