{"last_updated":1706033370,"ttl":30,"version":"2.2","data":{"bikes":[{"bike_id":"36a489ff-0cb3-4359-91fb-b791d93b4b0d","system_id":"levelo_inurba_marseille","lat":43.3126,"lon":5.36864,"is_reserved":false,"is_disabled":false,"rental_uris":{"android":"levelo://app?vid=36a489ff-0cb3-4359-91fb-b791d93b4b0d","ios":"levelo://app?vid=36a489ff-0cb3-4359-91fb-b791d93b4b0d"},"vehicle_type_id":"4","last_reported":1706033370,"current_range_meters":25600,"station_id":"ce4bgl92rcd13ifvqbq0","pricing_plan_id":"free"},{"bike_id":"ddf97421-2a82-442a-a4f5-4e0197b696f5","system_id":"levelo_inurba_marseille","lat":43.31492,"lon":5.37302,"is_reserved":false,"is_disabled":false,"rental_uris":{"android":"levelo://app?vid=ddf97421-2a82-442a-a4f5-4e0197b696f5","ios":"levelo://app?vid=ddf97421-2a82-442a-a4f5-4e0197b696f5"},"vehicle_type_id":"4","last_reported":1706033370,"current_range_meters":24400,"station_id":"ce4bgt12rcd13ifvqcd0","pricing_plan_id":"free"},{"bike_id":"3b728359-4698-4d60-99eb-0c87db69c218","system_id":"levelo_inurba_marseille","lat":43.314811,"lon":5.373104,"is_reserved":false,"is_disabled":false,"rental_uris":{"android":"levelo://app?vid=3b728359-4698-4d60-99eb-0c87db69c218","ios":"levelo://app?vid=3b728359-4698-4d60-99eb-0c87db69c218"},"vehicle_type_id":"4","last_reported":1706033370,"current_range_meters":26400,"station_id":"ce4bgt12rcd13ifvqcd0","pricing_plan_id":"free"},{"bike_id":"022c9354-64ab-4f3f-b020-9a994b91f026","system_id":"levelo_inurba_marseille","lat":43.30537,"lon":5.367345,"is_reserved":false,"is_disabled":false,"rental_uris":{"android":"levelo://app?vid=022c9354-64ab-4f3f-b020-9a994b91f026","ios":"levelo://app?vid=022c9354-64ab-4f3f-b020-9a994b91f026"},"vehicle_type_id":"4","last_reported":1706033370,"current_range_meters":0,"station_id":"ce4bgrp2rcd13ifvqc9g","pricing_plan_id":"free"},{"bike_id":"2d2577de-f0ad-455a-9328-6a04d9caa08d","system_id":"levelo_inurba_marseille","lat":43.305706,"lon":5.365654,"is_reserved":false,"is_disabled":false,"rental_uris":{"android":"levelo://app?vid=2d2577de-f0ad-455a-9328-6a04d9caa08d","ios":"levelo://app?vid=2d2577de-f0ad-455a-9328-6a04d9caa08d"},"vehicle_type_id":"4","last_reported":1706033370,"current_range_meters":24800,"station_id":"ce4bgs12rcd13ifvqcag","pricing_plan_id":"free"},{"bike_id":"961c807b-3fc2-4056-ae0a-a730986f5680","system_id":"levelo_inurba_marseille","lat":43.305989,"lon":5.37225,"is_reserved":false,"is_disabled":false,"rental_uris":{"android":"levelo://app?vid=961c807b-3fc2-4056-ae0a-a730986f5680","ios":"levelo://app?vid=961c807b-3fc2-4056-ae0a-a730986f5680"},"vehicle_type_id":"4","last_reported":1706033370,"current_range_meters":27600,"station_id":"ce4bgqh2rcd13ifvqc4g","pricing_plan_id":"free"},{"bike_id":"2f29664a-2d39-45b9-9744-9f7720e69ec9","system_id":"levelo_inurba_marseille","lat":43.311131,"lon":5.377651,"is_reserved":false,"is_disabled":false,"rental_uris":{"android":"levelo://app?vid=2f29664a-2d39-45b9-9744-9f7720e69ec9","ios":"levelo://app?vid=2f29664a-2d39-45b9-9744-9f7720e69ec9"},"vehicle_type_id":"4","last_reported":1706033370,"current_range_meters":26400,"station_id":"ce4bgt92rcd13ifvqcg0","pricing_plan_id":"free"},{"bike_id":"d7854f2c-e25b-4567-9ca1-100b79dde627","system_id":"levelo_inurba_marseille","lat":43.317068,"lon":5.37684,"is_reserved":false,"is_disabled":false,"rental_uris":{"android":"levelo://app?vid=d7854f2c-e25b-4567-9ca1-100b79dde627","ios":"levelo://app?vid=d7854f2c-e25b-4567-9ca1-100b79dde627"},"vehicle_type_id":"4","last_reported":1706033370,"current_range_meters":13600,"station_id":"ce4bgth2rcd13ifvqch0","pricing_plan_id":"free"},{"bike_id":"13495b41-4ac2-4b9d-b144-d683a92250be","system_id":"levelo_inurba_marseille","lat":43.307945,"lon":5.376487,"is_reserved":false,"is_disabled":false,"rental_uris":{"android":"levelo://app?vid=13495b41-4ac2-4b9d-b144-d683a92250be","ios":"levelo://app?vid=13495b41-4ac2-4b9d-b144-d683a92250be"},"vehicle_type_id":"4","last_reported":1706033370,"current_range_meters":31200,"station_id":"ce4bgv92rcd13ifvqcq0","pricing_plan_id":"free"},{"bike_id":"19a53858-eef9-4d99-b42b-7ae1b1db2013","system_id":"levelo_inurba_marseille","lat":43.317075,"lon":5.377367,"is_reserved":false,"is_disabled":false,"rental_uris":{"android":"levelo://app?vid=19a53858-eef9-4d99-b42b-7ae1b1db2013","ios":"levelo://app?vid=19a53858-eef9-4d99-b42b-7ae1b1db2013"},"vehicle_type_id":"4","last_reported":1706033370,"current_range_meters":22800,"station_id":"ce4bgth2rcd13ifvqch0","pricing_plan_id":"free"},{"bike_id":"87c2c19a-33be-4421-aaab-246ad5c6f8f6","system_id":"levelo_inurba_marseille","lat":43.303046,"lon":5.368981,"is_reserved":false,"is_disabled":false,"rental_uris":{"android":"levelo://app?vid=87c2c19a-33be-4421-aaab-246ad5c6f8f6","ios":"levelo://app?vid=87c2c19a-33be-4421-aaab-246ad5c6f8f6"},"vehicle_type_id":"4","last_reported":1706033370,"current_range_meters":21200,"station_id":"ce4bgqh2rcd13ifvqc5g","pricing_plan_id":"free"},{"bike_id":"4ab61cc9-1949-4ab5-bcf1-8f07c54632b5","system_id":"levelo_inurba_marseille","lat":43.310557,"lon":5.381591,"is_reserved":false,"is_disabled":false,"rental_uris":{"android":"levelo://app?vid=4ab61cc9-1949-4ab5-bcf1-8f07c54632b5","ios":"levelo://app?vid=4ab61cc9-1949-4ab5-bcf1-8f07c54632b5"},"vehicle_type_id":"4","last_reported":1706033370,"current_range_meters":20400,"station_id":"","pricing_plan_id":"free"},{"bike_id":"87adad9b-1fc8-4f7e-97de-ba3598268ab3","system_id":"levelo_inurba_marseille","lat":43.308012,"lon":5.381511,"is_reserved":false,"is_disabled":false,"rental_uris":{"android":"levelo://app?vid=87adad9b-1fc8-4f7e-97de-ba3598268ab3","ios":"levelo://app?vid=87adad9b-1fc8-4f7e-97de-ba3598268ab3"},"vehicle_type_id":"4","last_reported":1706033370,"current_range_meters":4000,"station_id":"ce4bgt12rcd13ifvqce0","pricing_plan_id":"free"},{"bike_id":"7eedcb35-c30c-4f22-8ac8-e8053092deb1","system_id":"levelo_inurba_marseille","lat":43.308012,"lon":5.381511,"is_reserved":false,"is_disabled":false,"rental_uris":{"android":"levelo://app?vid=7eedcb35-c30c-4f22-8ac8-e8053092deb1","ios":"levelo://app?vid=7eedcb35-c30c-4f22-8ac8-e8053092deb1"},"vehicle_type_id":"4","last_reported":1706033370,"current_range_meters":5600,"station_id":"ce4bgt12rcd13ifvqce0","pricing_plan_id":"free"},{"bike_id":"f16a8cc5-250a-4555-8842-881408afb217","system_id":"levelo_inurba_marseille","lat":43.304606,"lon":5.379026,"is_reserved":false,"is_disabled":false,"rental_uris":{"android":"levelo://app?vid=f16a8cc5-250a-4555-8842-881408afb217","ios":"levelo://app?vid=f16a8cc5-250a-4555-8842-881408afb217"},"vehicle_type_id":"4","last_reported":1706033370,"current_range_meters":0,"station_id":"ce4bgup2rcd13ifvqcn0","pricing_plan_id":"free"},{"bike_id":"f4d43637-748a-42ca-b475-983a409d336b","system_id":"levelo_inurba_marseille","lat":43.324771,"lon":5.36557,"is_reserved":false,"is_disabled":false,"rental_uris":{"android":"levelo://app?vid=f4d43637-748a-42ca-b475-983a409d336b","ios":"levelo://app?vid=f4d43637-748a-42ca-b475-983a409d336b"},"vehicle_type_id":"4","last_reported":1706033370,"current_range_meters":17200,"station_id":"ce4bhs12rcd13ifvqhvg","pricing_plan_id":"free"},{"bike_id":"5eb89afe-c51f-4ff8-8e66-71558e6cd7e3","system_id":"levelo_inurba_marseille","lat":43.324771,"lon":5.36557,"is_reserved":false,"is_disabled":false,"rental_uris":{"android":"levelo://app?vid=5eb89afe-c51f-4ff8-8e66-71558e6cd7e3","ios":"levelo://app?vid=5eb89afe-c51f-4ff8-8e66-71558e6cd7e3"},"vehicle_type_id":"4","last_reported":1706033370,"current_range_meters":8400,"station_id":"ce4bhs12rcd13ifvqhvg","pricing_plan_id":"free"},{"bike_id":"560d570d-4592-479c-9cc6-f4a9a5f4ef02","system_id":"levelo_inurba_marseille","lat":43.308012,"lon":5.381511,"is_reserved":false,"is_disabled":false,"rental_uris":{"android":"levelo://app?vid=560d570d-4592-479c-9cc6-f4a9a5f4ef02","ios":"levelo://app?vid=560d570d-4592-479c-9cc6-f4a9a5f4ef02"},"vehicle_type_id":"4","last_reported":1706033370,"current_range_meters":11600,"station_id":"ce4bgt12rcd13ifvqce0","pricing_plan_id":"free"},{"bike_id":"c1f4073a-f95f-42a0-8e67-c5ae12e02f29","system_id":"levelo_inurba_marseille","lat":43.30143,"lon":5.37413,"is_reserved":false,"is_disabled":false,"rental_uris":{"android":"levelo://app?vid=c1f4073a-f95f-42a0-8e67-c5ae12e02f29","ios":"levelo://app?vid=c1f4073a-f95f-42a0-8e67-c5ae12e02f29"},"vehicle_type_id":"4","last_reported":1706033370,"current_range_meters":16800,"station_id":"ce4bgs92rcd13ifvqcc0","pricing_plan_id":"free"},{"bike_id":"026dd225-3632-43ad-82a0-cc07dee5f5f8","system_id":"levelo_inurba_marseille","lat":43.308012,"lon":5.381511,"is_reserved":false,"is_disabled":false,"rental_uris":{"android":"levelo://app?vid=026dd225-3632-43ad-82a0-cc07dee5f5f8","ios":"levelo://app?vid=026dd225-3632-43ad-82a0-cc07dee5f5f8"},"vehicle_type_id":"4","last_reported":1706033370,"current_range_meters":10000,"station_id":"ce4bgt12rcd13ifvqce0","pricing_plan_id":"free"},{"bike_id":"3ce3e68d-0313-40cb-afa9-858c717ce4c9","system_id":"levelo_inurba_marseille","lat":43.319935,"lon":5.381699,"is_reserved":false,"is_disabled":false,"rental_uris":{"android":"levelo://app?vid=3ce3e68d-0313-40cb-afa9-858c717ce4c9","ios":"levelo://app?vid=3ce3e68d-0313-40cb-afa9-858c717ce4c9"},"vehicle_type_id":"4","last_reported":1706033370,"current_range_meters":22400,"station_id":"ce4bhr12rcd13ifvqhpg","pricing_plan_id":"free"},{"bike_id":"88483b5e-a393-4bfe-9800-1971f45b7e52","system_id":"levelo_inurba_marseille","lat":43.319935,"lon":5.381699,"is_reserved":false,"is_disabled":false,"rental_uris":{"android":"levelo://app?vid=88483b5e-a393-4bfe-9800-1971f45b7e52","ios":"levelo://app?vid=88483b5e-a393-4bfe-9800-1971f45b7e52"},"vehicle_type_id":"4","last_reported":1706033370,"current_range_meters":20000,"station_id":"ce4bhr12rcd13ifvqhpg","pricing_plan_id":"free"},{"bike_id":"db5640b8-520d-4779-8ec1-4a4bc253b2f8","system_id":"levelo_inurba_marseille","lat":43.319924,"lon":5.381522,"is_reserved":false,"is_disabled":false,"rental_uris":{"android":"levelo://app?vid=db5640b8-520d-4779-8ec1-4a4bc253b2f8","ios":"levelo://app?vid=db5640b8-520d-4779-8ec1-4a4bc253b2f8"},"vehicle_type_id":"4","last_reported":1706033370,"current_range_meters":10000,"station_id":"ce4bhr12rcd13ifvqhpg","pricing_plan_id":"free"},{"bike_id":"dc49a2bc-c54f-43f8-bdaf-bfb9096d0275","system_id":"levelo_inurba_marseille","lat":43.319935,"lon":5.381699,"is_reserved":false,"is_disabled":false,"rental_uris":{"android":"levelo://app?vid=dc49a2bc-c54f-43f8-bdaf-bfb9096d0275","ios":"levelo://app?vid=dc49a2bc-c54f-43f8-bdaf-bfb9096d0275"},"vehicle_type_id":"4","last_reported":1706033370,"current_range_meters":6800,"station_id":"ce4bhr12rcd13ifvqhpg","pricing_plan_id":"free"},{"bike_id":"4c2d4969-44b3-4b99-ac08-166dc554d101","system_id":"levelo_inurba_marseille","lat":43.319935,"lon":5.381699,"is_reserved":false,"is_disabled":false,"rental_uris":{"android":"levelo://app?vid=4c2d4969-44b3-4b99-ac08-166dc554d101","ios":"levelo://app?vid=4c2d4969-44b3-4b99-ac08-166dc554d101"},"vehicle_type_id":"4","last_reported":1706033370,"current_range_meters":3200,"station_id":"ce4bhr12rcd13ifvqhpg","pricing_plan_id":"free"},{"bike_id":"00646b3f-5cf3-4e84-bfb8-47e4dcf2da8c","system_id":"levelo_inurba_marseille","lat":43.319935,"lon":5.381699,"is_reserved":false,"is_disabled":false,"rental_uris":{"android":"levelo://app?vid=00646b3f-5cf3-4e84-bfb8-47e4dcf2da8c","ios":"levelo://app?vid=00646b3f-5cf3-4e84-bfb8-47e4dcf2da8c"},"vehicle_type_id":"4","last_reported":1706033370,"current_range_meters":4400,"station_id":"ce4bhr12rcd13ifvqhpg","pricing_plan_id":"free"},{"bike_id":"fd388e30-6c90-4fbf-abdf-dd15ef425659","system_id":"levelo_inurba_marseille","lat":43.319967,"lon":5.381565,"is_reserved":false,"is_disabled":false,"rental_uris":{"android":"levelo://app?vid=fd388e30-6c90-4fbf-abdf-dd15ef425659","ios":"levelo://app?vid=fd388e30-6c90-4fbf-abdf-dd15ef425659"},"vehicle_type_id":"4","last_reported":1706033370,"current_range_meters":21200,"station_id":"ce4bhr12rcd13ifvqhpg","pricing_plan_id":"free"},{"bike_id":"cc49fb07-820d-4047-984c-6077647af278","system_id":"levelo_inurba_marseille","lat":43.319935,"lon":5.381699,"is_reserved":false,"is_disabled":false,"rental_uris":{"android":"levelo://app?vid=cc49fb07-820d-4047-984c-6077647af278","ios":"levelo://app?vid=cc49fb07-820d-4047-984c-6077647af278"},"vehicle_type_id":"4","last_reported":1706033370,"current_range_meters":22000,"station_id":"ce4bhr12rcd13ifvqhpg","pricing_plan_id":"free"},{"bike_id":"26473e6c-6aa5-4477-be16-b83b681d1fa5","system_id":"levelo_inurba_marseille","lat":43.319935,"lon":5.381699,"is_reserved":false,"is_disabled":false,"rental_uris":{"android":"levelo://app?vid=26473e6c-6aa5-4477-be16-b83b681d1fa5","ios":"levelo://app?vid=26473e6c-6aa5-4477-be16-b83b681d1fa5"},"vehicle_type_id":"4","last_reported":1706033370,"current_range_meters":18000,"station_id":"ce4bhr12rcd13ifvqhpg","pricing_plan_id":"free"},{"bike_id":"0c69edae-c2b7-4a02-a028-ebdc27be22ba","system_id":"levelo_inurba_marseille","lat":43.313571,"lon":5.384829,"is_reserved":false,"is_disabled":false,"rental_uris":{"android":"levelo://app?vid=0c69edae-c2b7-4a02-a028-ebdc27be22ba","ios":"levelo://app?vid=0c69edae-c2b7-4a02-a028-ebdc27be22ba"},"vehicle_type_id":"4","last_reported":1706033370,"current_range_meters":12800,"station_id":"ce4bgt92rcd13ifvqcf0","pricing_plan_id":"free"},{"bike_id":"8a638abf-daa0-48f0-badb-d7723266567b","system_id":"levelo_inurba_marseille","lat":43.313571,"lon":5.384829,"is_reserved":false,"is_disabled":false,"rental_uris":{"android":"levelo://app?vid=8a638abf-daa0-48f0-badb-d7723266567b","ios":"levelo://app?vid=8a638abf-daa0-48f0-badb-d7723266567b"},"vehicle_type_id":"4","last_reported":1706033370,"current_range_meters":10000,"station_id":"ce4bgt92rcd13ifvqcf0","pricing_plan_id":"free"},{"bike_id":"efb5b6c5-ee46-4dbb-a8d1-a24c48ca9fd2","system_id":"levelo_inurba_marseille","lat":43.299724,"lon":5.371829,"is_reserved":false,"is_disabled":false,"rental_uris":{"android":"levelo://app?vid=efb5b6c5-ee46-4dbb-a8d1-a24c48ca9fd2","ios":"levelo://app?vid=efb5b6c5-ee46-4dbb-a8d1-a24c48ca9fd2"},"vehicle_type_id":"4","last_reported":1706033370,"current_range_meters":4400,"station_id":"ce4bgr92rcd13ifvqc7g","pricing_plan_id":"free"},{"bike_id":"2b46f170-a0a9-4dce-a6d7-49f6e8654fe6","system_id":"levelo_inurba_marseille","lat":43.299222,"lon":5.365554,"is_reserved":false,"is_disabled":false,"rental_uris":{"android":"levelo://app?vid=2b46f170-a0a9-4dce-a6d7-49f6e8654fe6","ios":"levelo://app?vid=2b46f170-a0a9-4dce-a6d7-49f6e8654fe6"},"vehicle_type_id":"4","last_reported":1706033370,"current_range_meters":22000,"station_id":"ce4bgm92rcd13ifvqbr0","pricing_plan_id":"free"},{"bike_id":"5de6718d-fb32-4478-a4a8-37c481a4c359","system_id":"levelo_inurba_marseille","lat":43.299243,"lon":5.37481,"is_reserved":false,"is_disabled":false,"rental_uris":{"android":"levelo://app?vid=5de6718d-fb32-4478-a4a8-37c481a4c359","ios":"levelo://app?vid=5de6718d-fb32-4478-a4a8-37c481a4c359"},"vehicle_type_id":"4","last_reported":1706033370,"current_range_meters":0,"station_id":"ce4bgjh2rcd13ifvqbg0","pricing_plan_id":"free"},{"bike_id":"0be8ef95-2b8c-4ac1-bbe0-b01d43edfad2","system_id":"levelo_inurba_marseille","lat":43.311722,"lon":5.387247,"is_reserved":false,"is_disabled":false,"rental_uris":{"android":"levelo://app?vid=0be8ef95-2b8c-4ac1-bbe0-b01d43edfad2","ios":"levelo://app?vid=0be8ef95-2b8c-4ac1-bbe0-b01d43edfad2"},"vehicle_type_id":"4","last_reported":1706033370,"current_range_meters":800,"station_id":"ce4bgv12rcd13ifvqcp0","pricing_plan_id":"free"},{"bike_id":"1c318d08-c1c9-4752-800b-dec02c610511","system_id":"levelo_inurba_marseille","lat":43.305364,"lon":5.384119,"is_reserved":false,"is_disabled":false,"rental_uris":{"android":"levelo://app?vid=1c318d08-c1c9-4752-800b-dec02c610511","ios":"levelo://app?vid=1c318d08-c1c9-4752-800b-dec02c610511"},"vehicle_type_id":"4","last_reported":1706033370,"current_range_meters":17200,"station_id":"ce4bgg92rcd13ifvqb30","pricing_plan_id":"free"},{"bike_id":"892738f3-ad75-456e-844c-101f33439aed","system_id":"levelo_inurba_marseille","lat":43.31165,"lon":5.38728,"is_reserved":false,"is_disabled":false,"rental_uris":{"android":"levelo://app?vid=892738f3-ad75-456e-844c-101f33439aed","ios":"levelo://app?vid=892738f3-ad75-456e-844c-101f33439aed"},"vehicle_type_id":"4","last_reported":1706033370,"current_range_meters":800,"station_id":"ce4bgv12rcd13ifvqcp0","pricing_plan_id":"free"},{"bike_id":"171d2d26-404a-4d95-bf44-3dcfca9fe8aa","system_id":"levelo_inurba_marseille","lat":43.322872,"lon":5.382756,"is_reserved":false,"is_disabled":false,"rental_uris":{"android":"levelo://app?vid=171d2d26-404a-4d95-bf44-3dcfca9fe8aa","ios":"levelo://app?vid=171d2d26-404a-4d95-bf44-3dcfca9fe8aa"},"vehicle_type_id":"4","last_reported":1706033370,"current_range_meters":21600,"station_id":"ce4bhr12rcd13ifvqhqg","pricing_plan_id":"free"},{"bike_id":"e635ab63-e266-4195-a197-53308145d78d","system_id":"levelo_inurba_marseille","lat":43.297794,"lon":5.370888,"is_reserved":false,"is_disabled":false,"rental_uris":{"android":"levelo://app?vid=e635ab63-e266-4195-a197-53308145d78d","ios":"levelo://app?vid=e635ab63-e266-4195-a197-53308145d78d"},"vehicle_type_id":"4","last_reported":1706033370,"current_range_meters":18000,"station_id":"ce4bgop2rcd13ifvqc1g","pricing_plan_id":"free"},{"bike_id":"455aa212-be06-4400-9478-d2f1e827f201","system_id":"levelo_inurba_marseille","lat":43.322872,"lon":5.382756,"is_reserved":false,"is_disabled":false,"rental_uris":{"android":"levelo://app?vid=455aa212-be06-4400-9478-d2f1e827f201","ios":"levelo://app?vid=455aa212-be06-4400-9478-d2f1e827f201"},"vehicle_type_id":"4","last_reported":1706033370,"current_range_meters":22400,"station_id":"ce4bhr12rcd13ifvqhqg","pricing_plan_id":"free"},{"bike_id":"89789d60-57f9-4669-bae1-bd74942c359c","system_id":"levelo_inurba_marseille","lat":43.322872,"lon":5.382756,"is_reserved":false,"is_disabled":false,"rental_uris":{"android":"levelo://app?vid=89789d60-57f9-4669-bae1-bd74942c359c","ios":"levelo://app?vid=89789d60-57f9-4669-bae1-bd74942c359c"},"vehicle_type_id":"4","last_reported":1706033370,"current_range_meters":18000,"station_id":"ce4bhr12rcd13ifvqhqg","pricing_plan_id":"free"},{"bike_id":"e654f202-6c69-4242-8f59-efc7b661b26a","system_id":"levelo_inurba_marseille","lat":43.322872,"lon":5.382756,"is_reserved":false,"is_disabled":false,"rental_uris":{"android":"levelo://app?vid=e654f202-6c69-4242-8f59-efc7b661b26a","ios":"levelo://app?vid=e654f202-6c69-4242-8f59-efc7b661b26a"},"vehicle_type_id":"4","last_reported":1706033370,"current_range_meters":17600,"station_id":"ce4bhr12rcd13ifvqhqg","pricing_plan_id":"free"},{"bike_id":"73755ba0-1381-4d5d-8750-d3a07d3f4c75","system_id":"levelo_inurba_marseille","lat":43.32824,"lon":5.36679,"is_reserved":false,"is_disabled":false,"rental_uris":{"android":"levelo://app?vid=73755ba0-1381-4d5d-8750-d3a07d3f4c75","ios":"levelo://app?vid=73755ba0-1381-4d5d-8750-d3a07d3f4c75"},"vehicle_type_id":"4","last_reported":1706033370,"current_range_meters":10000,"station_id":"ce4bhs92rcd13ifvqi0g","pricing_plan_id":"free"},{"bike_id":"572c30ca-2698-4ebb-9720-28d9ee8291d9","system_id":"levelo_inurba_marseille","lat":43.328254,"lon":5.366848,"is_reserved":false,"is_disabled":false,"rental_uris":{"android":"levelo://app?vid=572c30ca-2698-4ebb-9720-28d9ee8291d9","ios":"levelo://app?vid=572c30ca-2698-4ebb-9720-28d9ee8291d9"},"vehicle_type_id":"4","last_reported":1706033370,"current_range_meters":18000,"station_id":"ce4bhs92rcd13ifvqi0g","pricing_plan_id":"free"},{"bike_id":"6da9db5a-42ba-4fa8-afc9-4fdbb45498c1","system_id":"levelo_inurba_marseille","lat":43.328257,"lon":5.366782,"is_reserved":false,"is_disabled":false,"rental_uris":{"android":"levelo://app?vid=6da9db5a-42ba-4fa8-afc9-4fdbb45498c1","ios":"levelo://app?vid=6da9db5a-42ba-4fa8-afc9-4fdbb45498c1"},"vehicle_type_id":"4","last_reported":1706033370,"current_range_meters":18400,"station_id":"ce4bhs92rcd13ifvqi0g","pricing_plan_id":"free"},{"bike_id":"447532c0-56ca-46ac-9000-fea47d81b433","system_id":"levelo_inurba_marseille","lat":43.32826,"lon":5.36678,"is_reserved":false,"is_disabled":false,"rental_uris":{"android":"levelo://app?vid=447532c0-56ca-46ac-9000-fea47d81b433","ios":"levelo://app?vid=447532c0-56ca-46ac-9000-fea47d81b433"},"vehicle_type_id":"4","last_reported":1706033370,"current_range_meters":26400,"station_id":"ce4bhs92rcd13ifvqi0g","pricing_plan_id":"free"},{"bike_id":"e92d083a-dfb9-464f-a2d7-ffc480709cb3","system_id":"levelo_inurba_marseille","lat":43.328371,"lon":5.366912,"is_reserved":false,"is_disabled":false,"rental_uris":{"android":"levelo://app?vid=e92d083a-dfb9-464f-a2d7-ffc480709cb3","ios":"levelo://app?vid=e92d083a-dfb9-464f-a2d7-ffc480709cb3"},"vehicle_type_id":"4","last_reported":1706033370,"current_range_meters":13600,"station_id":"ce4bhs92rcd13ifvqi0g","pricing_plan_id":"free"},{"bike_id":"6851d2e7-d28c-47d0-964c-c2c15e7e3afe","system_id":"levelo_inurba_marseille","lat":43.328371,"lon":5.366909,"is_reserved":false,"is_disabled":false,"rental_uris":{"android":"levelo://app?vid=6851d2e7-d28c-47d0-964c-c2c15e7e3afe","ios":"levelo://app?vid=6851d2e7-d28c-47d0-964c-c2c15e7e3afe"},"vehicle_type_id":"4","last_reported":1706033370,"current_range_meters":4800,"station_id":"ce4bhs92rcd13ifvqi0g","pricing_plan_id":"free"},{"bike_id":"ea0178f3-2c6b-4af6-b062-91b0b8dde1df","system_id":"levelo_inurba_marseille","lat":43.32827,"lon":5.36687,"is_reserved":false,"is_disabled":false,"rental_uris":{"android":"levelo://app?vid=ea0178f3-2c6b-4af6-b062-91b0b8dde1df","ios":"levelo://app?vid=ea0178f3-2c6b-4af6-b062-91b0b8dde1df"},"vehicle_type_id":"4","last_reported":1706033370,"current_range_meters":9200,"station_id":"ce4bhs92rcd13ifvqi0g","pricing_plan_id":"free"},{"bike_id":"6721428b-c74b-45c6-886b-c2d04f1acc8c","system_id":"levelo_inurba_marseille","lat":43.328276,"lon":5.3669,"is_reserved":false,"is_disabled":false,"rental_uris":{"android":"levelo://app?vid=6721428b-c74b-45c6-886b-c2d04f1acc8c","ios":"levelo://app?vid=6721428b-c74b-45c6-886b-c2d04f1acc8c"},"vehicle_type_id":"4","last_reported":1706033370,"current_range_meters":13200,"station_id":"ce4bhs92rcd13ifvqi0g","pricing_plan_id":"free"},{"bike_id":"204738f6-469d-4db3-bd14-c2b38ef5e726","system_id":"levelo_inurba_marseille","lat":43.328371,"lon":5.366912,"is_reserved":false,"is_disabled":false,"rental_uris":{"android":"levelo://app?vid=204738f6-469d-4db3-bd14-c2b38ef5e726","ios":"levelo://app?vid=204738f6-469d-4db3-bd14-c2b38ef5e726"},"vehicle_type_id":"4","last_reported":1706033370,"current_range_meters":24000,"station_id":"ce4bhs92rcd13ifvqi0g","pricing_plan_id":"free"},{"bike_id":"38d4b3c6-c1c4-4ada-b0ed-8e6826ac2770","system_id":"levelo_inurba_marseille","lat":43.328371,"lon":5.366912,"is_reserved":false,"is_disabled":false,"rental_uris":{"android":"levelo://app?vid=38d4b3c6-c1c4-4ada-b0ed-8e6826ac2770","ios":"levelo://app?vid=38d4b3c6-c1c4-4ada-b0ed-8e6826ac2770"},"vehicle_type_id":"4","last_reported":1706033370,"current_range_meters":17600,"station_id":"ce4bhs92rcd13ifvqi0g","pricing_plan_id":"free"},{"bike_id":"85cedcff-9e9a-415d-8415-195178ea3cb7","system_id":"levelo_inurba_marseille","lat":43.328281,"lon":5.366742,"is_reserved":false,"is_disabled":false,"rental_uris":{"android":"levelo://app?vid=85cedcff-9e9a-415d-8415-195178ea3cb7","ios":"levelo://app?vid=85cedcff-9e9a-415d-8415-195178ea3cb7"},"vehicle_type_id":"4","last_reported":1706033370,"current_range_meters":11600,"station_id":"ce4bhs92rcd13ifvqi0g","pricing_plan_id":"free"},{"bike_id":"d8b5260c-205c-4300-9784-22ead2fde86f","system_id":"levelo_inurba_marseille","lat":43.328371,"lon":5.366909,"is_reserved":false,"is_disabled":false,"rental_uris":{"android":"levelo://app?vid=d8b5260c-205c-4300-9784-22ead2fde86f","ios":"levelo://app?vid=d8b5260c-205c-4300-9784-22ead2fde86f"},"vehicle_type_id":"4","last_reported":1706033370,"current_range_meters":18800,"station_id":"ce4bhs92rcd13ifvqi0g","pricing_plan_id":"free"},{"bike_id":"5b7aaccd-f0dd-4bc4-a5b7-1581df3aca1d","system_id":"levelo_inurba_marseille","lat":43.328371,"lon":5.366909,"is_reserved":false,"is_disabled":false,"rental_uris":{"android":"levelo://app?vid=5b7aaccd-f0dd-4bc4-a5b7-1581df3aca1d","ios":"levelo://app?vid=5b7aaccd-f0dd-4bc4-a5b7-1581df3aca1d"},"vehicle_type_id":"4","last_reported":1706033370,"current_range_meters":14800,"station_id":"ce4bhs92rcd13ifvqi0g","pricing_plan_id":"free"},{"bike_id":"c28774a6-9066-49b2-8f94-7ce64e5a8a12","system_id":"levelo_inurba_marseille","lat":43.328371,"lon":5.366909,"is_reserved":false,"is_disabled":false,"rental_uris":{"android":"levelo://app?vid=c28774a6-9066-49b2-8f94-7ce64e5a8a12","ios":"levelo://app?vid=c28774a6-9066-49b2-8f94-7ce64e5a8a12"},"vehicle_type_id":"4","last_reported":1706033370,"current_range_meters":14000,"station_id":"ce4bhs92rcd13ifvqi0g","pricing_plan_id":"free"},{"bike_id":"8e2e258c-9f25-408c-8291-bf6e5ba33180","system_id":"levelo_inurba_marseille","lat":43.328371,"lon":5.366909,"is_reserved":false,"is_disabled":false,"rental_uris":{"android":"levelo://app?vid=8e2e258c-9f25-408c-8291-bf6e5ba33180","ios":"levelo://app?vid=8e2e258c-9f25-408c-8291-bf6e5ba33180"},"vehicle_type_id":"4","last_reported":1706033370,"current_range_meters":28400,"station_id":"ce4bhs92rcd13ifvqi0g","pricing_plan_id":"free"},{"bike_id":"f529af8b-6eb5-4dad-b929-2be8fdbdd47b","system_id":"levelo_inurba_marseille","lat":43.328371,"lon":5.366909,"is_reserved":false,"is_disabled":false,"rental_uris":{"android":"levelo://app?vid=f529af8b-6eb5-4dad-b929-2be8fdbdd47b","ios":"levelo://app?vid=f529af8b-6eb5-4dad-b929-2be8fdbdd47b"},"vehicle_type_id":"4","last_reported":1706033370,"current_range_meters":30000,"station_id":"ce4bhs92rcd13ifvqi0g","pricing_plan_id":"free"},{"bike_id":"fb5c81e7-2e43-4803-b381-527ab4102689","system_id":"levelo_inurba_marseille","lat":43.328371,"lon":5.366909,"is_reserved":false,"is_disabled":false,"rental_uris":{"android":"levelo://app?vid=fb5c81e7-2e43-4803-b381-527ab4102689","ios":"levelo://app?vid=fb5c81e7-2e43-4803-b381-527ab4102689"},"vehicle_type_id":"4","last_reported":1706033370,"current_range_meters":31200,"station_id":"ce4bhs92rcd13ifvqi0g","pricing_plan_id":"free"},{"bike_id":"79d2d98a-29f2-4ffd-ae01-bfd8a1fa05d5","system_id":"levelo_inurba_marseille","lat":43.328371,"lon":5.366912,"is_reserved":false,"is_disabled":false,"rental_uris":{"android":"levelo://app?vid=79d2d98a-29f2-4ffd-ae01-bfd8a1fa05d5","ios":"levelo://app?vid=79d2d98a-29f2-4ffd-ae01-bfd8a1fa05d5"},"vehicle_type_id":"4","last_reported":1706033370,"current_range_meters":30000,"station_id":"ce4bhs92rcd13ifvqi0g","pricing_plan_id":"free"},{"bike_id":"80b8cc97-33c9-40d9-9a3c-6356fac99859","system_id":"levelo_inurba_marseille","lat":43.297163,"lon":5.365866,"is_reserved":false,"is_disabled":false,"rental_uris":{"android":"levelo://app?vid=80b8cc97-33c9-40d9-9a3c-6356fac99859","ios":"levelo://app?vid=80b8cc97-33c9-40d9-9a3c-6356fac99859"},"vehicle_type_id":"4","last_reported":1706033370,"current_range_meters":14000,"station_id":"ce4bgn12rcd13ifvqbt0","pricing_plan_id":"free"},{"bike_id":"32a039db-eef1-4a0a-8c6a-17ab6d5d4eda","system_id":"levelo_inurba_marseille","lat":43.328627,"lon":5.366565,"is_reserved":false,"is_disabled":false,"rental_uris":{"android":"levelo://app?vid=32a039db-eef1-4a0a-8c6a-17ab6d5d4eda","ios":"levelo://app?vid=32a039db-eef1-4a0a-8c6a-17ab6d5d4eda"},"vehicle_type_id":"4","last_reported":1706033370,"current_range_meters":4800,"station_id":"ce4bhs92rcd13ifvqi0g","pricing_plan_id":"free"},{"bike_id":"0e7d9f15-d819-4422-9e2e-f8b60612230b","system_id":"levelo_inurba_marseille","lat":43.296131,"lon":5.370791,"is_reserved":false,"is_disabled":false,"rental_uris":{"android":"levelo://app?vid=0e7d9f15-d819-4422-9e2e-f8b60612230b","ios":"levelo://app?vid=0e7d9f15-d819-4422-9e2e-f8b60612230b"},"vehicle_type_id":"4","last_reported":1706033370,"current_range_meters":18400,"station_id":"ce4bgnh2rcd13ifvqc0g","pricing_plan_id":"free"},{"bike_id":"3ef2fb67-dc8f-49cb-b4a1-6af0aa1063b9","system_id":"levelo_inurba_marseille","lat":43.29627,"lon":5.37163,"is_reserved":false,"is_disabled":false,"rental_uris":{"android":"levelo://app?vid=3ef2fb67-dc8f-49cb-b4a1-6af0aa1063b9","ios":"levelo://app?vid=3ef2fb67-dc8f-49cb-b4a1-6af0aa1063b9"},"vehicle_type_id":"4","last_reported":1706033370,"current_range_meters":27200,"station_id":"ce4bgnh2rcd13ifvqc0g","pricing_plan_id":"free"},{"bike_id":"ad32d1c0-0a4c-4152-8c29-fea173cfe935","system_id":"levelo_inurba_marseille","lat":43.295917,"lon":5.367867,"is_reserved":false,"is_disabled":false,"rental_uris":{"android":"levelo://app?vid=ad32d1c0-0a4c-4152-8c29-fea173cfe935","ios":"levelo://app?vid=ad32d1c0-0a4c-4152-8c29-fea173cfe935"},"vehicle_type_id":"4","last_reported":1706033370,"current_range_meters":17600,"station_id":"","pricing_plan_id":"free"},{"bike_id":"b8d9322e-3a96-4b1f-b142-6723a09d6177","system_id":"levelo_inurba_marseille","lat":43.29573,"lon":5.367355,"is_reserved":false,"is_disabled":false,"rental_uris":{"android":"levelo://app?vid=b8d9322e-3a96-4b1f-b142-6723a09d6177","ios":"levelo://app?vid=b8d9322e-3a96-4b1f-b142-6723a09d6177"},"vehicle_type_id":"4","last_reported":1706033370,"current_range_meters":26000,"station_id":"ce4bgph2rcd13ifvqc2g","pricing_plan_id":"free"},{"bike_id":"96cfce48-6233-4382-995e-ab2fa54c8cd9","system_id":"levelo_inurba_marseille","lat":43.29573,"lon":5.367355,"is_reserved":false,"is_disabled":false,"rental_uris":{"android":"levelo://app?vid=96cfce48-6233-4382-995e-ab2fa54c8cd9","ios":"levelo://app?vid=96cfce48-6233-4382-995e-ab2fa54c8cd9"},"vehicle_type_id":"4","last_reported":1706033370,"current_range_meters":26400,"station_id":"ce4bgph2rcd13ifvqc2g","pricing_plan_id":"free"},{"bike_id":"61c74ea5-43c5-4c56-b878-bf157f975322","system_id":"levelo_inurba_marseille","lat":43.29573,"lon":5.367355,"is_reserved":false,"is_disabled":false,"rental_uris":{"android":"levelo://app?vid=61c74ea5-43c5-4c56-b878-bf157f975322","ios":"levelo://app?vid=61c74ea5-43c5-4c56-b878-bf157f975322"},"vehicle_type_id":"4","last_reported":1706033370,"current_range_meters":28800,"station_id":"ce4bgph2rcd13ifvqc2g","pricing_plan_id":"free"},{"bike_id":"56b19975-df85-4959-830f-026cbdd4b9ea","system_id":"levelo_inurba_marseille","lat":43.296921,"lon":5.376579,"is_reserved":false,"is_disabled":false,"rental_uris":{"android":"levelo://app?vid=56b19975-df85-4959-830f-026cbdd4b9ea","ios":"levelo://app?vid=56b19975-df85-4959-830f-026cbdd4b9ea"},"vehicle_type_id":"4","last_reported":1706033370,"current_range_meters":0,"station_id":"ce4bgkh2rcd13ifvqbl0","pricing_plan_id":"free"},{"bike_id":"f4eaf593-3f3e-482d-a158-0e1ff116b403","system_id":"levelo_inurba_marseille","lat":43.29705,"lon":5.37761,"is_reserved":false,"is_disabled":false,"rental_uris":{"android":"levelo://app?vid=f4eaf593-3f3e-482d-a158-0e1ff116b403","ios":"levelo://app?vid=f4eaf593-3f3e-482d-a158-0e1ff116b403"},"vehicle_type_id":"4","last_reported":1706033370,"current_range_meters":19600,"station_id":"","pricing_plan_id":"free"},{"bike_id":"5e58bc89-a83f-4a2c-a8ad-50952a28d6e5","system_id":"levelo_inurba_marseille","lat":43.317561,"lon":5.390137,"is_reserved":false,"is_disabled":false,"rental_uris":{"android":"levelo://app?vid=5e58bc89-a83f-4a2c-a8ad-50952a28d6e5","ios":"levelo://app?vid=5e58bc89-a83f-4a2c-a8ad-50952a28d6e5"},"vehicle_type_id":"4","last_reported":1706033370,"current_range_meters":31200,"station_id":"ce4bhqp2rcd13ifvqhng","pricing_plan_id":"free"},{"bike_id":"84420ffb-711b-4788-a2fa-fb1cb1956de7","system_id":"levelo_inurba_marseille","lat":43.31755,"lon":5.39018,"is_reserved":false,"is_disabled":false,"rental_uris":{"android":"levelo://app?vid=84420ffb-711b-4788-a2fa-fb1cb1956de7","ios":"levelo://app?vid=84420ffb-711b-4788-a2fa-fb1cb1956de7"},"vehicle_type_id":"4","last_reported":1706033370,"current_range_meters":19200,"station_id":"ce4bhqp2rcd13ifvqhng","pricing_plan_id":"free"},{"bike_id":"236a73ce-efd7-455a-869c-924071c8da07","system_id":"levelo_inurba_marseille","lat":43.295748,"lon":5.37522,"is_reserved":false,"is_disabled":false,"rental_uris":{"android":"levelo://app?vid=236a73ce-efd7-455a-869c-924071c8da07","ios":"levelo://app?vid=236a73ce-efd7-455a-869c-924071c8da07"},"vehicle_type_id":"4","last_reported":1706033370,"current_range_meters":10400,"station_id":"ce4bgh92rcd13ifvqb50","pricing_plan_id":"free"},{"bike_id":"8e55bc8f-90e9-4aef-85c5-18e2d650f767","system_id":"levelo_inurba_marseille","lat":43.295748,"lon":5.37522,"is_reserved":false,"is_disabled":false,"rental_uris":{"android":"levelo://app?vid=8e55bc8f-90e9-4aef-85c5-18e2d650f767","ios":"levelo://app?vid=8e55bc8f-90e9-4aef-85c5-18e2d650f767"},"vehicle_type_id":"4","last_reported":1706033370,"current_range_meters":0,"station_id":"ce4bgh92rcd13ifvqb50","pricing_plan_id":"free"},{"bike_id":"0445d1a9-e719-4b06-9390-673b6beb59ee","system_id":"levelo_inurba_marseille","lat":43.296277,"lon":5.377108,"is_reserved":false,"is_disabled":false,"rental_uris":{"android":"levelo://app?vid=0445d1a9-e719-4b06-9390-673b6beb59ee","ios":"levelo://app?vid=0445d1a9-e719-4b06-9390-673b6beb59ee"},"vehicle_type_id":"4","last_reported":1706033370,"current_range_meters":0,"station_id":"ce4bgi92rcd13ifvqb90","pricing_plan_id":"free"},{"bike_id":"07aa71c4-54af-47e0-9a72-b5f39f84b658","system_id":"levelo_inurba_marseille","lat":43.299707,"lon":5.384859,"is_reserved":false,"is_disabled":false,"rental_uris":{"android":"levelo://app?vid=07aa71c4-54af-47e0-9a72-b5f39f84b658","ios":"levelo://app?vid=07aa71c4-54af-47e0-9a72-b5f39f84b658"},"vehicle_type_id":"4","last_reported":1706033370,"current_range_meters":15200,"station_id":"ce4bgj92rcd13ifvqbd0","pricing_plan_id":"free"},{"bike_id":"f1d779ac-9917-4d79-b2bf-478b9087440c","system_id":"levelo_inurba_marseille","lat":43.299707,"lon":5.384859,"is_reserved":false,"is_disabled":false,"rental_uris":{"android":"levelo://app?vid=f1d779ac-9917-4d79-b2bf-478b9087440c","ios":"levelo://app?vid=f1d779ac-9917-4d79-b2bf-478b9087440c"},"vehicle_type_id":"4","last_reported":1706033370,"current_range_meters":7200,"station_id":"ce4bgj92rcd13ifvqbd0","pricing_plan_id":"free"},{"bike_id":"292137c9-afb3-4a65-90e5-7da1cd027c20","system_id":"levelo_inurba_marseille","lat":43.299707,"lon":5.384859,"is_reserved":false,"is_disabled":false,"rental_uris":{"android":"levelo://app?vid=292137c9-afb3-4a65-90e5-7da1cd027c20","ios":"levelo://app?vid=292137c9-afb3-4a65-90e5-7da1cd027c20"},"vehicle_type_id":"4","last_reported":1706033370,"current_range_meters":21200,"station_id":"ce4bgj92rcd13ifvqbd0","pricing_plan_id":"free"},{"bike_id":"64313539-a8ac-46f3-9999-f136c9c5e68f","system_id":"levelo_inurba_marseille","lat":43.32367,"lon":5.388836,"is_reserved":false,"is_disabled":false,"rental_uris":{"android":"levelo://app?vid=64313539-a8ac-46f3-9999-f136c9c5e68f","ios":"levelo://app?vid=64313539-a8ac-46f3-9999-f136c9c5e68f"},"vehicle_type_id":"4","last_reported":1706033370,"current_range_meters":25600,"station_id":"ce4bhqp2rcd13ifvqhog","pricing_plan_id":"free"},{"bike_id":"777ab60e-ad89-4210-83a6-d09c5d5af88d","system_id":"levelo_inurba_marseille","lat":43.32367,"lon":5.388836,"is_reserved":false,"is_disabled":false,"rental_uris":{"android":"levelo://app?vid=777ab60e-ad89-4210-83a6-d09c5d5af88d","ios":"levelo://app?vid=777ab60e-ad89-4210-83a6-d09c5d5af88d"},"vehicle_type_id":"4","last_reported":1706033370,"current_range_meters":18400,"station_id":"ce4bhqp2rcd13ifvqhog","pricing_plan_id":"free"},{"bike_id":"b3ae146c-2436-4afb-b45a-3899af5aa2de","system_id":"levelo_inurba_marseille","lat":43.32367,"lon":5.388836,"is_reserved":false,"is_disabled":false,"rental_uris":{"android":"levelo://app?vid=b3ae146c-2436-4afb-b45a-3899af5aa2de","ios":"levelo://app?vid=b3ae146c-2436-4afb-b45a-3899af5aa2de"},"vehicle_type_id":"4","last_reported":1706033370,"current_range_meters":21200,"station_id":"ce4bhqp2rcd13ifvqhog","pricing_plan_id":"free"},{"bike_id":"21c3b2ee-ff70-4576-b659-b24565089cad","system_id":"levelo_inurba_marseille","lat":43.29602,"lon":5.381084,"is_reserved":false,"is_disabled":false,"rental_uris":{"android":"levelo://app?vid=21c3b2ee-ff70-4576-b659-b24565089cad","ios":"levelo://app?vid=21c3b2ee-ff70-4576-b659-b24565089cad"},"vehicle_type_id":"4","last_reported":1706033370,"current_range_meters":12400,"station_id":"ce4bgl12rcd13ifvqbo0","pricing_plan_id":"free"},{"bike_id":"c715ead0-0fd2-44a2-9149-86a23a126bfc","system_id":"levelo_inurba_marseille","lat":43.292749,"lon":5.368402,"is_reserved":false,"is_disabled":false,"rental_uris":{"android":"levelo://app?vid=c715ead0-0fd2-44a2-9149-86a23a126bfc","ios":"levelo://app?vid=c715ead0-0fd2-44a2-9149-86a23a126bfc"},"vehicle_type_id":"4","last_reported":1706033370,"current_range_meters":18800,"station_id":"ce4bhbp2rcd13ifvqesg","pricing_plan_id":"free"},{"bike_id":"aae46e62-189b-4518-bda6-4e7c2626fdea","system_id":"levelo_inurba_marseille","lat":43.293249,"lon":5.371578,"is_reserved":false,"is_disabled":false,"rental_uris":{"android":"levelo://app?vid=aae46e62-189b-4518-bda6-4e7c2626fdea","ios":"levelo://app?vid=aae46e62-189b-4518-bda6-4e7c2626fdea"},"vehicle_type_id":"4","last_reported":1706033370,"current_range_meters":9600,"station_id":"ce4bgh92rcd13ifvqb40","pricing_plan_id":"free"},{"bike_id":"1cb02e2b-a1c4-4dfe-9a65-e5d21b30f3e0","system_id":"levelo_inurba_marseille","lat":43.293259,"lon":5.371586,"is_reserved":false,"is_disabled":false,"rental_uris":{"android":"levelo://app?vid=1cb02e2b-a1c4-4dfe-9a65-e5d21b30f3e0","ios":"levelo://app?vid=1cb02e2b-a1c4-4dfe-9a65-e5d21b30f3e0"},"vehicle_type_id":"4","last_reported":1706033370,"current_range_meters":31200,"station_id":"ce4bgh92rcd13ifvqb40","pricing_plan_id":"free"},{"bike_id":"76289218-9439-43b2-a2a8-62149917f17d","system_id":"levelo_inurba_marseille","lat":43.292749,"lon":5.368402,"is_reserved":false,"is_disabled":false,"rental_uris":{"android":"levelo://app?vid=76289218-9439-43b2-a2a8-62149917f17d","ios":"levelo://app?vid=76289218-9439-43b2-a2a8-62149917f17d"},"vehicle_type_id":"4","last_reported":1706033370,"current_range_meters":9200,"station_id":"ce4bhbp2rcd13ifvqesg","pricing_plan_id":"free"},{"bike_id":"aa2c6c35-a968-4dbc-8354-1a571f50afac","system_id":"levelo_inurba_marseille","lat":43.292749,"lon":5.368402,"is_reserved":false,"is_disabled":false,"rental_uris":{"android":"levelo://app?vid=aa2c6c35-a968-4dbc-8354-1a571f50afac","ios":"levelo://app?vid=aa2c6c35-a968-4dbc-8354-1a571f50afac"},"vehicle_type_id":"4","last_reported":1706033370,"current_range_meters":14800,"station_id":"ce4bhbp2rcd13ifvqesg","pricing_plan_id":"free"},{"bike_id":"f9267e3e-e010-4c5d-be29-e0fb1e76912a","system_id":"levelo_inurba_marseille","lat":43.292749,"lon":5.368402,"is_reserved":false,"is_disabled":false,"rental_uris":{"android":"levelo://app?vid=f9267e3e-e010-4c5d-be29-e0fb1e76912a","ios":"levelo://app?vid=f9267e3e-e010-4c5d-be29-e0fb1e76912a"},"vehicle_type_id":"4","last_reported":1706033370,"current_range_meters":14000,"station_id":"ce4bhbp2rcd13ifvqesg","pricing_plan_id":"free"},{"bike_id":"fa80f27d-5983-4195-8d8a-96722326ba90","system_id":"levelo_inurba_marseille","lat":43.293009,"lon":5.374584,"is_reserved":false,"is_disabled":false,"rental_uris":{"android":"levelo://app?vid=fa80f27d-5983-4195-8d8a-96722326ba90","ios":"levelo://app?vid=fa80f27d-5983-4195-8d8a-96722326ba90"},"vehicle_type_id":"4","last_reported":1706033370,"current_range_meters":16000,"station_id":"ce4bgi12rcd13ifvqb70","pricing_plan_id":"free"},{"bike_id":"e894cd34-a630-43c4-95c1-7d0109c7909a","system_id":"levelo_inurba_marseille","lat":43.303002,"lon":5.392142,"is_reserved":false,"is_disabled":false,"rental_uris":{"android":"levelo://app?vid=e894cd34-a630-43c4-95c1-7d0109c7909a","ios":"levelo://app?vid=e894cd34-a630-43c4-95c1-7d0109c7909a"},"vehicle_type_id":"4","last_reported":1706033370,"current_range_meters":7600,"station_id":"ce4bgkh2rcd13ifvqbk0","pricing_plan_id":"free"},{"bike_id":"77207433-070c-488b-9266-26f9529cf742","system_id":"levelo_inurba_marseille","lat":43.297063,"lon":5.3855,"is_reserved":false,"is_disabled":false,"rental_uris":{"android":"levelo://app?vid=77207433-070c-488b-9266-26f9529cf742","ios":"levelo://app?vid=77207433-070c-488b-9266-26f9529cf742"},"vehicle_type_id":"4","last_reported":1706033370,"current_range_meters":0,"station_id":"","pricing_plan_id":"free"},{"bike_id":"e46c1833-ee90-4713-b698-8e01947f6fe7","system_id":"levelo_inurba_marseille","lat":43.302992,"lon":5.392136,"is_reserved":false,"is_disabled":false,"rental_uris":{"android":"levelo://app?vid=e46c1833-ee90-4713-b698-8e01947f6fe7","ios":"levelo://app?vid=e46c1833-ee90-4713-b698-8e01947f6fe7"},"vehicle_type_id":"4","last_reported":1706033370,"current_range_meters":26400,"station_id":"ce4bgkh2rcd13ifvqbk0","pricing_plan_id":"free"},{"bike_id":"691363db-795d-47c8-bbb4-398bd3818ff2","system_id":"levelo_inurba_marseille","lat":43.2936,"lon":5.37835,"is_reserved":false,"is_disabled":false,"rental_uris":{"android":"levelo://app?vid=691363db-795d-47c8-bbb4-398bd3818ff2","ios":"levelo://app?vid=691363db-795d-47c8-bbb4-398bd3818ff2"},"vehicle_type_id":"4","last_reported":1706033370,"current_range_meters":5600,"station_id":"ce4bgjh2rcd13ifvqbf0","pricing_plan_id":"free"},{"bike_id":"108559eb-0086-4b88-8a12-331a614a5a79","system_id":"levelo_inurba_marseille","lat":43.29435,"lon":5.380386,"is_reserved":false,"is_disabled":false,"rental_uris":{"android":"levelo://app?vid=108559eb-0086-4b88-8a12-331a614a5a79","ios":"levelo://app?vid=108559eb-0086-4b88-8a12-331a614a5a79"},"vehicle_type_id":"4","last_reported":1706033370,"current_range_meters":13200,"station_id":"","pricing_plan_id":"free"},{"bike_id":"9e184aff-7e24-4c1c-9dc6-879f33088cbb","system_id":"levelo_inurba_marseille","lat":43.298764,"lon":5.388973,"is_reserved":false,"is_disabled":false,"rental_uris":{"android":"levelo://app?vid=9e184aff-7e24-4c1c-9dc6-879f33088cbb","ios":"levelo://app?vid=9e184aff-7e24-4c1c-9dc6-879f33088cbb"},"vehicle_type_id":"4","last_reported":1706033370,"current_range_meters":9600,"station_id":"ce4bh392rcd13ifvqdl0","pricing_plan_id":"free"},{"bike_id":"29d1e3a1-7a9c-4a53-bbc6-5386ab7f841b","system_id":"levelo_inurba_marseille","lat":43.300852,"lon":5.390859,"is_reserved":false,"is_disabled":false,"rental_uris":{"android":"levelo://app?vid=29d1e3a1-7a9c-4a53-bbc6-5386ab7f841b","ios":"levelo://app?vid=29d1e3a1-7a9c-4a53-bbc6-5386ab7f841b"},"vehicle_type_id":"4","last_reported":1706033370,"current_range_meters":8000,"station_id":"ce4bh192rcd13ifvqdb0","pricing_plan_id":"free"},{"bike_id":"13212456-8dff-4d83-9407-90109fb5dff2","system_id":"levelo_inurba_marseille","lat":43.30085,"lon":5.390856,"is_reserved":false,"is_disabled":false,"rental_uris":{"android":"levelo://app?vid=13212456-8dff-4d83-9407-90109fb5dff2","ios":"levelo://app?vid=13212456-8dff-4d83-9407-90109fb5dff2"},"vehicle_type_id":"4","last_reported":1706033370,"current_range_meters":12000,"station_id":"ce4bh192rcd13ifvqdb0","pricing_plan_id":"free"},{"bike_id":"742853af-9e65-4a30-9395-245c46935402","system_id":"levelo_inurba_marseille","lat":43.292226,"lon":5.36061,"is_reserved":false,"is_disabled":false,"rental_uris":{"android":"levelo://app?vid=742853af-9e65-4a30-9395-245c46935402","ios":"levelo://app?vid=742853af-9e65-4a30-9395-245c46935402"},"vehicle_type_id":"4","last_reported":1706033370,"current_range_meters":31600,"station_id":"ce4bhbh2rcd13ifvqeqg","pricing_plan_id":"free"},{"bike_id":"a7eee966-7781-4eac-aaf7-80ff52866e44","system_id":"levelo_inurba_marseille","lat":43.30085,"lon":5.390856,"is_reserved":false,"is_disabled":false,"rental_uris":{"android":"levelo://app?vid=a7eee966-7781-4eac-aaf7-80ff52866e44","ios":"levelo://app?vid=a7eee966-7781-4eac-aaf7-80ff52866e44"},"vehicle_type_id":"4","last_reported":1706033370,"current_range_meters":0,"station_id":"ce4bh192rcd13ifvqdb0","pricing_plan_id":"free"},{"bike_id":"68cc2d5f-e473-42b8-9aa2-b15aeb5bf2f4","system_id":"levelo_inurba_marseille","lat":43.300852,"lon":5.390859,"is_reserved":false,"is_disabled":false,"rental_uris":{"android":"levelo://app?vid=68cc2d5f-e473-42b8-9aa2-b15aeb5bf2f4","ios":"levelo://app?vid=68cc2d5f-e473-42b8-9aa2-b15aeb5bf2f4"},"vehicle_type_id":"4","last_reported":1706033370,"current_range_meters":20400,"station_id":"ce4bh192rcd13ifvqdb0","pricing_plan_id":"free"},{"bike_id":"20824139-12e9-4770-b3ac-c77b108c9668","system_id":"levelo_inurba_marseille","lat":43.30085,"lon":5.390856,"is_reserved":false,"is_disabled":false,"rental_uris":{"android":"levelo://app?vid=20824139-12e9-4770-b3ac-c77b108c9668","ios":"levelo://app?vid=20824139-12e9-4770-b3ac-c77b108c9668"},"vehicle_type_id":"4","last_reported":1706033370,"current_range_meters":5200,"station_id":"ce4bh192rcd13ifvqdb0","pricing_plan_id":"free"},{"bike_id":"dd51964a-5936-44b1-b6b8-7930e086030c","system_id":"levelo_inurba_marseille","lat":43.30085,"lon":5.390856,"is_reserved":false,"is_disabled":false,"rental_uris":{"android":"levelo://app?vid=dd51964a-5936-44b1-b6b8-7930e086030c","ios":"levelo://app?vid=dd51964a-5936-44b1-b6b8-7930e086030c"},"vehicle_type_id":"4","last_reported":1706033370,"current_range_meters":4000,"station_id":"ce4bh192rcd13ifvqdb0","pricing_plan_id":"free"},{"bike_id":"1c3684a5-4e4c-4929-9460-3d99be34492e","system_id":"levelo_inurba_marseille","lat":43.29879,"lon":5.38912,"is_reserved":false,"is_disabled":false,"rental_uris":{"android":"levelo://app?vid=1c3684a5-4e4c-4929-9460-3d99be34492e","ios":"levelo://app?vid=1c3684a5-4e4c-4929-9460-3d99be34492e"},"vehicle_type_id":"4","last_reported":1706033370,"current_range_meters":0,"station_id":"ce4bh392rcd13ifvqdl0","pricing_plan_id":"free"},{"bike_id":"80be8dc2-b2d4-45e9-a58a-607ce69f1450","system_id":"levelo_inurba_marseille","lat":43.298764,"lon":5.388973,"is_reserved":false,"is_disabled":false,"rental_uris":{"android":"levelo://app?vid=80be8dc2-b2d4-45e9-a58a-607ce69f1450","ios":"levelo://app?vid=80be8dc2-b2d4-45e9-a58a-607ce69f1450"},"vehicle_type_id":"4","last_reported":1706033370,"current_range_meters":0,"station_id":"ce4bh392rcd13ifvqdl0","pricing_plan_id":"free"},{"bike_id":"6bf504f4-23bd-46b7-849b-f0def79c9a57","system_id":"levelo_inurba_marseille","lat":43.291994,"lon":5.357886,"is_reserved":false,"is_disabled":false,"rental_uris":{"android":"levelo://app?vid=6bf504f4-23bd-46b7-849b-f0def79c9a57","ios":"levelo://app?vid=6bf504f4-23bd-46b7-849b-f0def79c9a57"},"vehicle_type_id":"4","last_reported":1706033370,"current_range_meters":0,"station_id":"ce4bhb12rcd13ifvqel0","pricing_plan_id":"free"},{"bike_id":"ceceb104-be89-425c-833c-47cc9d08ee0e","system_id":"levelo_inurba_marseille","lat":43.291994,"lon":5.357886,"is_reserved":false,"is_disabled":false,"rental_uris":{"android":"levelo://app?vid=ceceb104-be89-425c-833c-47cc9d08ee0e","ios":"levelo://app?vid=ceceb104-be89-425c-833c-47cc9d08ee0e"},"vehicle_type_id":"4","last_reported":1706033370,"current_range_meters":18400,"station_id":"ce4bhb12rcd13ifvqel0","pricing_plan_id":"free"},{"bike_id":"09e35107-1746-4b63-8a54-fe5180ba33b7","system_id":"levelo_inurba_marseille","lat":43.291994,"lon":5.357886,"is_reserved":false,"is_disabled":false,"rental_uris":{"android":"levelo://app?vid=09e35107-1746-4b63-8a54-fe5180ba33b7","ios":"levelo://app?vid=09e35107-1746-4b63-8a54-fe5180ba33b7"},"vehicle_type_id":"4","last_reported":1706033370,"current_range_meters":0,"station_id":"ce4bhb12rcd13ifvqel0","pricing_plan_id":"free"},{"bike_id":"ef9a373c-8173-4ac0-8ec8-4776825b0b43","system_id":"levelo_inurba_marseille","lat":43.313291,"lon":5.396838,"is_reserved":false,"is_disabled":false,"rental_uris":{"android":"levelo://app?vid=ef9a373c-8173-4ac0-8ec8-4776825b0b43","ios":"levelo://app?vid=ef9a373c-8173-4ac0-8ec8-4776825b0b43"},"vehicle_type_id":"4","last_reported":1706033370,"current_range_meters":7600,"station_id":"ce4bgvp2rcd13ifvqcu0","pricing_plan_id":"free"},{"bike_id":"ee570c37-7e5b-4f34-854d-9f0e3f694527","system_id":"levelo_inurba_marseille","lat":43.313291,"lon":5.396838,"is_reserved":false,"is_disabled":false,"rental_uris":{"android":"levelo://app?vid=ee570c37-7e5b-4f34-854d-9f0e3f694527","ios":"levelo://app?vid=ee570c37-7e5b-4f34-854d-9f0e3f694527"},"vehicle_type_id":"4","last_reported":1706033370,"current_range_meters":15600,"station_id":"ce4bgvp2rcd13ifvqcu0","pricing_plan_id":"free"},{"bike_id":"86f516b8-f84c-4efe-9cdc-1ce35f94c9a7","system_id":"levelo_inurba_marseille","lat":43.313291,"lon":5.396838,"is_reserved":false,"is_disabled":false,"rental_uris":{"android":"levelo://app?vid=86f516b8-f84c-4efe-9cdc-1ce35f94c9a7","ios":"levelo://app?vid=86f516b8-f84c-4efe-9cdc-1ce35f94c9a7"},"vehicle_type_id":"4","last_reported":1706033370,"current_range_meters":28000,"station_id":"ce4bgvp2rcd13ifvqcu0","pricing_plan_id":"free"},{"bike_id":"ff875ee0-73df-4939-8475-9ffd332fd686","system_id":"levelo_inurba_marseille","lat":43.313291,"lon":5.396838,"is_reserved":false,"is_disabled":false,"rental_uris":{"android":"levelo://app?vid=ff875ee0-73df-4939-8475-9ffd332fd686","ios":"levelo://app?vid=ff875ee0-73df-4939-8475-9ffd332fd686"},"vehicle_type_id":"4","last_reported":1706033370,"current_range_meters":0,"station_id":"ce4bgvp2rcd13ifvqcu0","pricing_plan_id":"free"},{"bike_id":"2378141d-6fe9-4791-9657-29fcf004c61d","system_id":"levelo_inurba_marseille","lat":43.291908,"lon":5.357897,"is_reserved":false,"is_disabled":false,"rental_uris":{"android":"levelo://app?vid=2378141d-6fe9-4791-9657-29fcf004c61d","ios":"levelo://app?vid=2378141d-6fe9-4791-9657-29fcf004c61d"},"vehicle_type_id":"4","last_reported":1706033370,"current_range_meters":800,"station_id":"ce4bhb12rcd13ifvqel0","pricing_plan_id":"free"},{"bike_id":"0c778e07-043f-466b-9dca-1d3798620bf4","system_id":"levelo_inurba_marseille","lat":43.313291,"lon":5.396838,"is_reserved":false,"is_disabled":false,"rental_uris":{"android":"levelo://app?vid=0c778e07-043f-466b-9dca-1d3798620bf4","ios":"levelo://app?vid=0c778e07-043f-466b-9dca-1d3798620bf4"},"vehicle_type_id":"4","last_reported":1706033370,"current_range_meters":16400,"station_id":"ce4bgvp2rcd13ifvqcu0","pricing_plan_id":"free"},{"bike_id":"44a2cb85-71af-4daa-84ef-85b953fdb382","system_id":"levelo_inurba_marseille","lat":43.29529,"lon":5.385581,"is_reserved":false,"is_disabled":false,"rental_uris":{"android":"levelo://app?vid=44a2cb85-71af-4daa-84ef-85b953fdb382","ios":"levelo://app?vid=44a2cb85-71af-4daa-84ef-85b953fdb382"},"vehicle_type_id":"4","last_reported":1706033370,"current_range_meters":23200,"station_id":"ce4bgih2rcd13ifvqba0","pricing_plan_id":"free"},{"bike_id":"8f4ebd29-0c6d-455b-9c9c-3493f5773f90","system_id":"levelo_inurba_marseille","lat":43.308473,"lon":5.39659,"is_reserved":false,"is_disabled":false,"rental_uris":{"android":"levelo://app?vid=8f4ebd29-0c6d-455b-9c9c-3493f5773f90","ios":"levelo://app?vid=8f4ebd29-0c6d-455b-9c9c-3493f5773f90"},"vehicle_type_id":"4","last_reported":1706033370,"current_range_meters":23200,"station_id":"","pricing_plan_id":"free"},{"bike_id":"793f5871-719a-48b2-b9e3-96a84d7e683b","system_id":"levelo_inurba_marseille","lat":43.29529,"lon":5.385581,"is_reserved":false,"is_disabled":false,"rental_uris":{"android":"levelo://app?vid=793f5871-719a-48b2-b9e3-96a84d7e683b","ios":"levelo://app?vid=793f5871-719a-48b2-b9e3-96a84d7e683b"},"vehicle_type_id":"4","last_reported":1706033370,"current_range_meters":15200,"station_id":"ce4bgih2rcd13ifvqba0","pricing_plan_id":"free"},{"bike_id":"1ca20de8-59e8-466a-8e53-2f2421c636ff","system_id":"levelo_inurba_marseille","lat":43.29529,"lon":5.385581,"is_reserved":false,"is_disabled":false,"rental_uris":{"android":"levelo://app?vid=1ca20de8-59e8-466a-8e53-2f2421c636ff","ios":"levelo://app?vid=1ca20de8-59e8-466a-8e53-2f2421c636ff"},"vehicle_type_id":"4","last_reported":1706033370,"current_range_meters":26000,"station_id":"ce4bgih2rcd13ifvqba0","pricing_plan_id":"free"},{"bike_id":"af2d124a-7840-4dfc-9937-692ad675833f","system_id":"levelo_inurba_marseille","lat":43.29529,"lon":5.385581,"is_reserved":false,"is_disabled":false,"rental_uris":{"android":"levelo://app?vid=af2d124a-7840-4dfc-9937-692ad675833f","ios":"levelo://app?vid=af2d124a-7840-4dfc-9937-692ad675833f"},"vehicle_type_id":"4","last_reported":1706033370,"current_range_meters":25600,"station_id":"ce4bgih2rcd13ifvqba0","pricing_plan_id":"free"},{"bike_id":"d0deacfb-3559-4729-89cf-84de2522054f","system_id":"levelo_inurba_marseille","lat":43.29529,"lon":5.385581,"is_reserved":false,"is_disabled":false,"rental_uris":{"android":"levelo://app?vid=d0deacfb-3559-4729-89cf-84de2522054f","ios":"levelo://app?vid=d0deacfb-3559-4729-89cf-84de2522054f"},"vehicle_type_id":"4","last_reported":1706033370,"current_range_meters":28000,"station_id":"ce4bgih2rcd13ifvqba0","pricing_plan_id":"free"},{"bike_id":"3867fba2-d5ec-4204-9225-e7b11b42768e","system_id":"levelo_inurba_marseille","lat":43.29529,"lon":5.385581,"is_reserved":false,"is_disabled":false,"rental_uris":{"android":"levelo://app?vid=3867fba2-d5ec-4204-9225-e7b11b42768e","ios":"levelo://app?vid=3867fba2-d5ec-4204-9225-e7b11b42768e"},"vehicle_type_id":"4","last_reported":1706033370,"current_range_meters":16800,"station_id":"ce4bgih2rcd13ifvqba0","pricing_plan_id":"free"},{"bike_id":"c349932b-bf60-4c93-bbb6-5b2cb6a1c451","system_id":"levelo_inurba_marseille","lat":43.290779,"lon":5.371482,"is_reserved":false,"is_disabled":false,"rental_uris":{"android":"levelo://app?vid=c349932b-bf60-4c93-bbb6-5b2cb6a1c451","ios":"levelo://app?vid=c349932b-bf60-4c93-bbb6-5b2cb6a1c451"},"vehicle_type_id":"4","last_reported":1706033370,"current_range_meters":4800,"station_id":"ce4bh5p2rcd13ifvqe4g","pricing_plan_id":"free"},{"bike_id":"0b1a97ec-61cb-42fe-ae1a-cc656fcd67df","system_id":"levelo_inurba_marseille","lat":43.290779,"lon":5.371482,"is_reserved":false,"is_disabled":false,"rental_uris":{"android":"levelo://app?vid=0b1a97ec-61cb-42fe-ae1a-cc656fcd67df","ios":"levelo://app?vid=0b1a97ec-61cb-42fe-ae1a-cc656fcd67df"},"vehicle_type_id":"4","last_reported":1706033370,"current_range_meters":14800,"station_id":"ce4bh5p2rcd13ifvqe4g","pricing_plan_id":"free"},{"bike_id":"fdc7737c-8eab-4837-845b-79ba7f426635","system_id":"levelo_inurba_marseille","lat":43.302008,"lon":5.394694,"is_reserved":false,"is_disabled":false,"rental_uris":{"android":"levelo://app?vid=fdc7737c-8eab-4837-845b-79ba7f426635","ios":"levelo://app?vid=fdc7737c-8eab-4837-845b-79ba7f426635"},"vehicle_type_id":"4","last_reported":1706033370,"current_range_meters":7200,"station_id":"ce4bh0p2rcd13ifvqd70","pricing_plan_id":"free"},{"bike_id":"0941fc55-119a-445c-bcdd-bce9f588046d","system_id":"levelo_inurba_marseille","lat":43.302008,"lon":5.394694,"is_reserved":false,"is_disabled":false,"rental_uris":{"android":"levelo://app?vid=0941fc55-119a-445c-bcdd-bce9f588046d","ios":"levelo://app?vid=0941fc55-119a-445c-bcdd-bce9f588046d"},"vehicle_type_id":"4","last_reported":1706033370,"current_range_meters":22800,"station_id":"ce4bh0p2rcd13ifvqd70","pricing_plan_id":"free"},{"bike_id":"dbdd565a-1691-4336-a3df-e5c9f4019719","system_id":"levelo_inurba_marseille","lat":43.290631,"lon":5.359244,"is_reserved":false,"is_disabled":false,"rental_uris":{"android":"levelo://app?vid=dbdd565a-1691-4336-a3df-e5c9f4019719","ios":"levelo://app?vid=dbdd565a-1691-4336-a3df-e5c9f4019719"},"vehicle_type_id":"4","last_reported":1706033370,"current_range_meters":8000,"station_id":"ce4bha92rcd13ifvqeg0","pricing_plan_id":"free"},{"bike_id":"b6cea5c4-3fd8-4b9f-b7c0-7c072005de33","system_id":"levelo_inurba_marseille","lat":43.290631,"lon":5.359244,"is_reserved":false,"is_disabled":false,"rental_uris":{"android":"levelo://app?vid=b6cea5c4-3fd8-4b9f-b7c0-7c072005de33","ios":"levelo://app?vid=b6cea5c4-3fd8-4b9f-b7c0-7c072005de33"},"vehicle_type_id":"4","last_reported":1706033370,"current_range_meters":15200,"station_id":"ce4bha92rcd13ifvqeg0","pricing_plan_id":"free"},{"bike_id":"97434264-4af6-445d-a30c-40fa84b37631","system_id":"levelo_inurba_marseille","lat":43.294153,"lon":5.386305,"is_reserved":false,"is_disabled":false,"rental_uris":{"android":"levelo://app?vid=97434264-4af6-445d-a30c-40fa84b37631","ios":"levelo://app?vid=97434264-4af6-445d-a30c-40fa84b37631"},"vehicle_type_id":"4","last_reported":1706033370,"current_range_meters":14000,"station_id":"ce4bh2h2rcd13ifvqdh0","pricing_plan_id":"free"},{"bike_id":"cc1c437f-405f-4652-8849-0445ea9ba0d2","system_id":"levelo_inurba_marseille","lat":43.294153,"lon":5.386305,"is_reserved":false,"is_disabled":false,"rental_uris":{"android":"levelo://app?vid=cc1c437f-405f-4652-8849-0445ea9ba0d2","ios":"levelo://app?vid=cc1c437f-405f-4652-8849-0445ea9ba0d2"},"vehicle_type_id":"4","last_reported":1706033370,"current_range_meters":12800,"station_id":"ce4bh2h2rcd13ifvqdh0","pricing_plan_id":"free"},{"bike_id":"ebe432b9-1b18-4683-9b3e-72983d4171b9","system_id":"levelo_inurba_marseille","lat":43.294153,"lon":5.386305,"is_reserved":false,"is_disabled":false,"rental_uris":{"android":"levelo://app?vid=ebe432b9-1b18-4683-9b3e-72983d4171b9","ios":"levelo://app?vid=ebe432b9-1b18-4683-9b3e-72983d4171b9"},"vehicle_type_id":"4","last_reported":1706033370,"current_range_meters":16800,"station_id":"ce4bh2h2rcd13ifvqdh0","pricing_plan_id":"free"},{"bike_id":"3dda24b3-8868-4c0f-9a55-5b683abb9031","system_id":"levelo_inurba_marseille","lat":43.294162,"lon":5.386292,"is_reserved":false,"is_disabled":false,"rental_uris":{"android":"levelo://app?vid=3dda24b3-8868-4c0f-9a55-5b683abb9031","ios":"levelo://app?vid=3dda24b3-8868-4c0f-9a55-5b683abb9031"},"vehicle_type_id":"4","last_reported":1706033370,"current_range_meters":800,"station_id":"ce4bh2h2rcd13ifvqdh0","pricing_plan_id":"free"},{"bike_id":"f27c12dc-614a-4bb3-ba73-9feacf0a625b","system_id":"levelo_inurba_marseille","lat":43.294153,"lon":5.386305,"is_reserved":false,"is_disabled":false,"rental_uris":{"android":"levelo://app?vid=f27c12dc-614a-4bb3-ba73-9feacf0a625b","ios":"levelo://app?vid=f27c12dc-614a-4bb3-ba73-9feacf0a625b"},"vehicle_type_id":"4","last_reported":1706033370,"current_range_meters":14400,"station_id":"ce4bh2h2rcd13ifvqdh0","pricing_plan_id":"free"},{"bike_id":"37255525-1597-4ee3-ba49-9b83c7fa1a76","system_id":"levelo_inurba_marseille","lat":43.289184,"lon":5.366408,"is_reserved":false,"is_disabled":false,"rental_uris":{"android":"levelo://app?vid=37255525-1597-4ee3-ba49-9b83c7fa1a76","ios":"levelo://app?vid=37255525-1597-4ee3-ba49-9b83c7fa1a76"},"vehicle_type_id":"4","last_reported":1706033370,"current_range_meters":25600,"station_id":"ce4bhap2rcd13ifvqek0","pricing_plan_id":"free"},{"bike_id":"bac9774e-fa87-402a-a0aa-482184a25853","system_id":"levelo_inurba_marseille","lat":43.294162,"lon":5.386292,"is_reserved":false,"is_disabled":false,"rental_uris":{"android":"levelo://app?vid=bac9774e-fa87-402a-a0aa-482184a25853","ios":"levelo://app?vid=bac9774e-fa87-402a-a0aa-482184a25853"},"vehicle_type_id":"4","last_reported":1706033370,"current_range_meters":13600,"station_id":"ce4bh2h2rcd13ifvqdh0","pricing_plan_id":"free"},{"bike_id":"cfca06c8-7e6f-415f-abae-cb0ba2a70443","system_id":"levelo_inurba_marseille","lat":43.289184,"lon":5.366408,"is_reserved":false,"is_disabled":false,"rental_uris":{"android":"levelo://app?vid=cfca06c8-7e6f-415f-abae-cb0ba2a70443","ios":"levelo://app?vid=cfca06c8-7e6f-415f-abae-cb0ba2a70443"},"vehicle_type_id":"4","last_reported":1706033370,"current_range_meters":4400,"station_id":"ce4bhap2rcd13ifvqek0","pricing_plan_id":"free"},{"bike_id":"f0a0277f-a2ac-4db8-8b98-f672afdc1c26","system_id":"levelo_inurba_marseille","lat":43.289184,"lon":5.366408,"is_reserved":false,"is_disabled":false,"rental_uris":{"android":"levelo://app?vid=f0a0277f-a2ac-4db8-8b98-f672afdc1c26","ios":"levelo://app?vid=f0a0277f-a2ac-4db8-8b98-f672afdc1c26"},"vehicle_type_id":"4","last_reported":1706033370,"current_range_meters":16000,"station_id":"ce4bhap2rcd13ifvqek0","pricing_plan_id":"free"},{"bike_id":"94707b66-a806-499c-ab9b-67c20a99ac24","system_id":"levelo_inurba_marseille","lat":43.289468,"lon":5.363719,"is_reserved":false,"is_disabled":false,"rental_uris":{"android":"levelo://app?vid=94707b66-a806-499c-ab9b-67c20a99ac24","ios":"levelo://app?vid=94707b66-a806-499c-ab9b-67c20a99ac24"},"vehicle_type_id":"4","last_reported":1706033370,"current_range_meters":10400,"station_id":"ce4bhc92rcd13ifvqetg","pricing_plan_id":"free"},{"bike_id":"dd29ee12-7104-49a8-819b-6a0a6daf4789","system_id":"levelo_inurba_marseille","lat":43.292644,"lon":5.384257,"is_reserved":false,"is_disabled":false,"rental_uris":{"android":"levelo://app?vid=dd29ee12-7104-49a8-819b-6a0a6daf4789","ios":"levelo://app?vid=dd29ee12-7104-49a8-819b-6a0a6daf4789"},"vehicle_type_id":"4","last_reported":1706033370,"current_range_meters":18400,"station_id":"ce4bh692rcd13ifvqea0","pricing_plan_id":"free"},{"bike_id":"812de673-80e0-4920-bd42-4429af5fc075","system_id":"levelo_inurba_marseille","lat":43.304274,"lon":5.397513,"is_reserved":false,"is_disabled":false,"rental_uris":{"android":"levelo://app?vid=812de673-80e0-4920-bd42-4429af5fc075","ios":"levelo://app?vid=812de673-80e0-4920-bd42-4429af5fc075"},"vehicle_type_id":"4","last_reported":1706033370,"current_range_meters":14400,"station_id":"ce4bh092rcd13ifvqd20","pricing_plan_id":"free"},{"bike_id":"c14898aa-7133-446c-80bc-b8f85f981af5","system_id":"levelo_inurba_marseille","lat":43.292642,"lon":5.384254,"is_reserved":false,"is_disabled":false,"rental_uris":{"android":"levelo://app?vid=c14898aa-7133-446c-80bc-b8f85f981af5","ios":"levelo://app?vid=c14898aa-7133-446c-80bc-b8f85f981af5"},"vehicle_type_id":"4","last_reported":1706033370,"current_range_meters":22000,"station_id":"ce4bh692rcd13ifvqea0","pricing_plan_id":"free"},{"bike_id":"5a65282b-351f-4d86-949e-07559a67dd71","system_id":"levelo_inurba_marseille","lat":43.290103,"lon":5.356114,"is_reserved":false,"is_disabled":false,"rental_uris":{"android":"levelo://app?vid=5a65282b-351f-4d86-949e-07559a67dd71","ios":"levelo://app?vid=5a65282b-351f-4d86-949e-07559a67dd71"},"vehicle_type_id":"4","last_reported":1706033370,"current_range_meters":14000,"station_id":"ce4bhb92rcd13ifvqen0","pricing_plan_id":"free"},{"bike_id":"ae7160bd-ce53-4c80-82c2-c61d2415a7c9","system_id":"levelo_inurba_marseille","lat":43.29008,"lon":5.35614,"is_reserved":false,"is_disabled":false,"rental_uris":{"android":"levelo://app?vid=ae7160bd-ce53-4c80-82c2-c61d2415a7c9","ios":"levelo://app?vid=ae7160bd-ce53-4c80-82c2-c61d2415a7c9"},"vehicle_type_id":"4","last_reported":1706033370,"current_range_meters":0,"station_id":"ce4bhb92rcd13ifvqen0","pricing_plan_id":"free"},{"bike_id":"6e3709af-d071-4ff4-90df-ded6c8cefd76","system_id":"levelo_inurba_marseille","lat":43.290104,"lon":5.356111,"is_reserved":false,"is_disabled":false,"rental_uris":{"android":"levelo://app?vid=6e3709af-d071-4ff4-90df-ded6c8cefd76","ios":"levelo://app?vid=6e3709af-d071-4ff4-90df-ded6c8cefd76"},"vehicle_type_id":"4","last_reported":1706033370,"current_range_meters":13200,"station_id":"ce4bhb92rcd13ifvqen0","pricing_plan_id":"free"},{"bike_id":"78482097-0d7a-4e5e-ab65-74299371abc7","system_id":"levelo_inurba_marseille","lat":43.290104,"lon":5.356111,"is_reserved":false,"is_disabled":false,"rental_uris":{"android":"levelo://app?vid=78482097-0d7a-4e5e-ab65-74299371abc7","ios":"levelo://app?vid=78482097-0d7a-4e5e-ab65-74299371abc7"},"vehicle_type_id":"4","last_reported":1706033370,"current_range_meters":29200,"station_id":"ce4bhb92rcd13ifvqen0","pricing_plan_id":"free"},{"bike_id":"99ae3a9f-f3bf-44d0-9038-aac00949f21b","system_id":"levelo_inurba_marseille","lat":43.289743,"lon":5.378304,"is_reserved":false,"is_disabled":false,"rental_uris":{"android":"levelo://app?vid=99ae3a9f-f3bf-44d0-9038-aac00949f21b","ios":"levelo://app?vid=99ae3a9f-f3bf-44d0-9038-aac00949f21b"},"vehicle_type_id":"4","last_reported":1706033370,"current_range_meters":15200,"station_id":"ce4bh9p2rcd13ifvqed0","pricing_plan_id":"free"},{"bike_id":"0fa62f3d-7763-48d1-b115-ddf799ea77c9","system_id":"levelo_inurba_marseille","lat":43.295169,"lon":5.390426,"is_reserved":false,"is_disabled":false,"rental_uris":{"android":"levelo://app?vid=0fa62f3d-7763-48d1-b115-ddf799ea77c9","ios":"levelo://app?vid=0fa62f3d-7763-48d1-b115-ddf799ea77c9"},"vehicle_type_id":"4","last_reported":1706033370,"current_range_meters":0,"station_id":"ce4bh3p2rcd13ifvqdp0","pricing_plan_id":"free"},{"bike_id":"3a188861-f872-45aa-86c8-30fd4bdbe91a","system_id":"levelo_inurba_marseille","lat":43.319179,"lon":5.407725,"is_reserved":false,"is_disabled":false,"rental_uris":{"android":"levelo://app?vid=3a188861-f872-45aa-86c8-30fd4bdbe91a","ios":"levelo://app?vid=3a188861-f872-45aa-86c8-30fd4bdbe91a"},"vehicle_type_id":"4","last_reported":1706033370,"current_range_meters":8000,"station_id":"ce4bhq12rcd13ifvqhig","pricing_plan_id":"free"},{"bike_id":"0f53cba4-d880-44f3-a005-10f76c316697","system_id":"levelo_inurba_marseille","lat":43.295169,"lon":5.390426,"is_reserved":false,"is_disabled":false,"rental_uris":{"android":"levelo://app?vid=0f53cba4-d880-44f3-a005-10f76c316697","ios":"levelo://app?vid=0f53cba4-d880-44f3-a005-10f76c316697"},"vehicle_type_id":"4","last_reported":1706033370,"current_range_meters":6400,"station_id":"ce4bh3p2rcd13ifvqdp0","pricing_plan_id":"free"},{"bike_id":"dba0dcf6-31bf-4342-bf46-1b1994df6a00","system_id":"levelo_inurba_marseille","lat":43.297815,"lon":5.393548,"is_reserved":false,"is_disabled":false,"rental_uris":{"android":"levelo://app?vid=dba0dcf6-31bf-4342-bf46-1b1994df6a00","ios":"levelo://app?vid=dba0dcf6-31bf-4342-bf46-1b1994df6a00"},"vehicle_type_id":"4","last_reported":1706033370,"current_range_meters":9600,"station_id":"chh1huq6cuj3fo74tm60","pricing_plan_id":"free"},{"bike_id":"e30bc4ff-7342-47b5-8bd0-224ed9d1fd9b","system_id":"levelo_inurba_marseille","lat":43.295169,"lon":5.390426,"is_reserved":false,"is_disabled":false,"rental_uris":{"android":"levelo://app?vid=e30bc4ff-7342-47b5-8bd0-224ed9d1fd9b","ios":"levelo://app?vid=e30bc4ff-7342-47b5-8bd0-224ed9d1fd9b"},"vehicle_type_id":"4","last_reported":1706033370,"current_range_meters":6000,"station_id":"ce4bh3p2rcd13ifvqdp0","pricing_plan_id":"free"},{"bike_id":"c8217cad-9878-4c41-8e21-9a034be5a361","system_id":"levelo_inurba_marseille","lat":43.330442,"lon":5.389148,"is_reserved":false,"is_disabled":false,"rental_uris":{"android":"levelo://app?vid=c8217cad-9878-4c41-8e21-9a034be5a361","ios":"levelo://app?vid=c8217cad-9878-4c41-8e21-9a034be5a361"},"vehicle_type_id":"4","last_reported":1706033370,"current_range_meters":20800,"station_id":"ce4bhr92rcd13ifvqhrg","pricing_plan_id":"free"},{"bike_id":"925eaff5-3e49-4fa2-bc92-9f7181735632","system_id":"levelo_inurba_marseille","lat":43.330251,"lon":5.390447,"is_reserved":false,"is_disabled":false,"rental_uris":{"android":"levelo://app?vid=925eaff5-3e49-4fa2-bc92-9f7181735632","ios":"levelo://app?vid=925eaff5-3e49-4fa2-bc92-9f7181735632"},"vehicle_type_id":"4","last_reported":1706033370,"current_range_meters":9200,"station_id":"ce4bhr92rcd13ifvqhrg","pricing_plan_id":"free"},{"bike_id":"ccad10af-2474-4daa-8b76-9ea910822b50","system_id":"levelo_inurba_marseille","lat":43.295169,"lon":5.390426,"is_reserved":false,"is_disabled":false,"rental_uris":{"android":"levelo://app?vid=ccad10af-2474-4daa-8b76-9ea910822b50","ios":"levelo://app?vid=ccad10af-2474-4daa-8b76-9ea910822b50"},"vehicle_type_id":"4","last_reported":1706033370,"current_range_meters":12800,"station_id":"ce4bh3p2rcd13ifvqdp0","pricing_plan_id":"free"},{"bike_id":"b4b2ad12-52dd-4d5e-b1ce-72e92e0d385a","system_id":"levelo_inurba_marseille","lat":43.295169,"lon":5.390426,"is_reserved":false,"is_disabled":false,"rental_uris":{"android":"levelo://app?vid=b4b2ad12-52dd-4d5e-b1ce-72e92e0d385a","ios":"levelo://app?vid=b4b2ad12-52dd-4d5e-b1ce-72e92e0d385a"},"vehicle_type_id":"4","last_reported":1706033370,"current_range_meters":1200,"station_id":"ce4bh3p2rcd13ifvqdp0","pricing_plan_id":"free"},{"bike_id":"8c39a4a6-6f78-4bd1-b1b7-235229bf00ad","system_id":"levelo_inurba_marseille","lat":43.306412,"lon":5.401035,"is_reserved":false,"is_disabled":false,"rental_uris":{"android":"levelo://app?vid=8c39a4a6-6f78-4bd1-b1b7-235229bf00ad","ios":"levelo://app?vid=8c39a4a6-6f78-4bd1-b1b7-235229bf00ad"},"vehicle_type_id":"4","last_reported":1706033370,"current_range_meters":1600,"station_id":"ce4bh112rcd13ifvqda0","pricing_plan_id":"free"},{"bike_id":"1d3a97d8-a513-4a57-80d6-6d20c4a767b8","system_id":"levelo_inurba_marseille","lat":43.290094,"lon":5.381264,"is_reserved":false,"is_disabled":false,"rental_uris":{"android":"levelo://app?vid=1d3a97d8-a513-4a57-80d6-6d20c4a767b8","ios":"levelo://app?vid=1d3a97d8-a513-4a57-80d6-6d20c4a767b8"},"vehicle_type_id":"4","last_reported":1706033370,"current_range_meters":4000,"station_id":"ce4bh4p2rcd13ifvqe1g","pricing_plan_id":"free"},{"bike_id":"1f8dff7a-291a-4552-8703-18b2aa0e5697","system_id":"levelo_inurba_marseille","lat":43.31276,"lon":5.40161,"is_reserved":false,"is_disabled":false,"rental_uris":{"android":"levelo://app?vid=1f8dff7a-291a-4552-8703-18b2aa0e5697","ios":"levelo://app?vid=1f8dff7a-291a-4552-8703-18b2aa0e5697"},"vehicle_type_id":"4","last_reported":1706033370,"current_range_meters":6400,"station_id":"ce4bh092rcd13ifvqd30","pricing_plan_id":"free"},{"bike_id":"66fff7a6-b42c-43ed-a95e-2a6313453dfe","system_id":"levelo_inurba_marseille","lat":43.312609,"lon":5.401662,"is_reserved":false,"is_disabled":false,"rental_uris":{"android":"levelo://app?vid=66fff7a6-b42c-43ed-a95e-2a6313453dfe","ios":"levelo://app?vid=66fff7a6-b42c-43ed-a95e-2a6313453dfe"},"vehicle_type_id":"4","last_reported":1706033370,"current_range_meters":31200,"station_id":"ce4bh092rcd13ifvqd30","pricing_plan_id":"free"},{"bike_id":"37dad68e-b345-4e83-b18e-e1bcafca61b9","system_id":"levelo_inurba_marseille","lat":43.312609,"lon":5.401662,"is_reserved":false,"is_disabled":false,"rental_uris":{"android":"levelo://app?vid=37dad68e-b345-4e83-b18e-e1bcafca61b9","ios":"levelo://app?vid=37dad68e-b345-4e83-b18e-e1bcafca61b9"},"vehicle_type_id":"4","last_reported":1706033370,"current_range_meters":24800,"station_id":"ce4bh092rcd13ifvqd30","pricing_plan_id":"free"},{"bike_id":"0cf670e4-4116-45f5-b47b-bf5543f073ff","system_id":"levelo_inurba_marseille","lat":43.31273,"lon":5.40168,"is_reserved":false,"is_disabled":false,"rental_uris":{"android":"levelo://app?vid=0cf670e4-4116-45f5-b47b-bf5543f073ff","ios":"levelo://app?vid=0cf670e4-4116-45f5-b47b-bf5543f073ff"},"vehicle_type_id":"4","last_reported":1706033370,"current_range_meters":8400,"station_id":"ce4bh092rcd13ifvqd30","pricing_plan_id":"free"},{"bike_id":"22ebb342-e9b1-472d-9bc6-674213140877","system_id":"levelo_inurba_marseille","lat":43.312609,"lon":5.401662,"is_reserved":false,"is_disabled":false,"rental_uris":{"android":"levelo://app?vid=22ebb342-e9b1-472d-9bc6-674213140877","ios":"levelo://app?vid=22ebb342-e9b1-472d-9bc6-674213140877"},"vehicle_type_id":"4","last_reported":1706033370,"current_range_meters":0,"station_id":"ce4bh092rcd13ifvqd30","pricing_plan_id":"free"},{"bike_id":"f263bdde-8f7c-4848-b162-82d04ae7ff2c","system_id":"levelo_inurba_marseille","lat":43.309371,"lon":5.401449,"is_reserved":false,"is_disabled":false,"rental_uris":{"android":"levelo://app?vid=f263bdde-8f7c-4848-b162-82d04ae7ff2c","ios":"levelo://app?vid=f263bdde-8f7c-4848-b162-82d04ae7ff2c"},"vehicle_type_id":"4","last_reported":1706033370,"current_range_meters":0,"station_id":"ce4bgvp2rcd13ifvqct0","pricing_plan_id":"free"},{"bike_id":"8b894521-1a30-4078-ab48-f86b65b9874e","system_id":"levelo_inurba_marseille","lat":43.33745,"lon":5.374625,"is_reserved":false,"is_disabled":false,"rental_uris":{"android":"levelo://app?vid=8b894521-1a30-4078-ab48-f86b65b9874e","ios":"levelo://app?vid=8b894521-1a30-4078-ab48-f86b65b9874e"},"vehicle_type_id":"4","last_reported":1706033370,"current_range_meters":24000,"station_id":"","pricing_plan_id":"free"},{"bike_id":"d13ed38d-1338-4715-b3a8-e7cc2cbae523","system_id":"levelo_inurba_marseille","lat":43.337493,"lon":5.374582,"is_reserved":false,"is_disabled":false,"rental_uris":{"android":"levelo://app?vid=d13ed38d-1338-4715-b3a8-e7cc2cbae523","ios":"levelo://app?vid=d13ed38d-1338-4715-b3a8-e7cc2cbae523"},"vehicle_type_id":"4","last_reported":1706033370,"current_range_meters":27200,"station_id":"","pricing_plan_id":"free"},{"bike_id":"96f19ab9-4bd1-4f1f-bc0e-e57439af67f6","system_id":"levelo_inurba_marseille","lat":43.301518,"lon":5.398211,"is_reserved":false,"is_disabled":false,"rental_uris":{"android":"levelo://app?vid=96f19ab9-4bd1-4f1f-bc0e-e57439af67f6","ios":"levelo://app?vid=96f19ab9-4bd1-4f1f-bc0e-e57439af67f6"},"vehicle_type_id":"4","last_reported":1706033370,"current_range_meters":14800,"station_id":"","pricing_plan_id":"free"},{"bike_id":"e0b1f52d-62de-49ab-98a6-03db78831238","system_id":"levelo_inurba_marseille","lat":43.33753,"lon":5.37455,"is_reserved":false,"is_disabled":false,"rental_uris":{"android":"levelo://app?vid=e0b1f52d-62de-49ab-98a6-03db78831238","ios":"levelo://app?vid=e0b1f52d-62de-49ab-98a6-03db78831238"},"vehicle_type_id":"4","last_reported":1706033370,"current_range_meters":25200,"station_id":"","pricing_plan_id":"free"},{"bike_id":"18a9991b-1e0b-4e2a-a84e-1238c68034ec","system_id":"levelo_inurba_marseille","lat":43.337588,"lon":5.37458,"is_reserved":false,"is_disabled":false,"rental_uris":{"android":"levelo://app?vid=18a9991b-1e0b-4e2a-a84e-1238c68034ec","ios":"levelo://app?vid=18a9991b-1e0b-4e2a-a84e-1238c68034ec"},"vehicle_type_id":"4","last_reported":1706033370,"current_range_meters":27200,"station_id":"","pricing_plan_id":"free"},{"bike_id":"a4d1686b-279d-4640-8b28-8c6968d3a0bb","system_id":"levelo_inurba_marseille","lat":43.33765,"lon":5.37439,"is_reserved":false,"is_disabled":false,"rental_uris":{"android":"levelo://app?vid=a4d1686b-279d-4640-8b28-8c6968d3a0bb","ios":"levelo://app?vid=a4d1686b-279d-4640-8b28-8c6968d3a0bb"},"vehicle_type_id":"4","last_reported":1706033370,"current_range_meters":26400,"station_id":"","pricing_plan_id":"free"},{"bike_id":"32383494-8f98-4b03-99af-e01d82f2ae38","system_id":"levelo_inurba_marseille","lat":43.30642,"lon":5.401031,"is_reserved":false,"is_disabled":false,"rental_uris":{"android":"levelo://app?vid=32383494-8f98-4b03-99af-e01d82f2ae38","ios":"levelo://app?vid=32383494-8f98-4b03-99af-e01d82f2ae38"},"vehicle_type_id":"4","last_reported":1706033370,"current_range_meters":14800,"station_id":"ce4bh112rcd13ifvqda0","pricing_plan_id":"free"},{"bike_id":"fde77698-6910-45ec-ad4c-7a1a91a8fe85","system_id":"levelo_inurba_marseille","lat":43.301117,"lon":5.398795,"is_reserved":false,"is_disabled":false,"rental_uris":{"android":"levelo://app?vid=fde77698-6910-45ec-ad4c-7a1a91a8fe85","ios":"levelo://app?vid=fde77698-6910-45ec-ad4c-7a1a91a8fe85"},"vehicle_type_id":"4","last_reported":1706033370,"current_range_meters":12400,"station_id":"ce4bh0h2rcd13ifvqd40","pricing_plan_id":"free"},{"bike_id":"79bc59da-ac90-4c1b-b165-79d37aa288b2","system_id":"levelo_inurba_marseille","lat":43.30145,"lon":5.39873,"is_reserved":false,"is_disabled":false,"rental_uris":{"android":"levelo://app?vid=79bc59da-ac90-4c1b-b165-79d37aa288b2","ios":"levelo://app?vid=79bc59da-ac90-4c1b-b165-79d37aa288b2"},"vehicle_type_id":"4","last_reported":1706033370,"current_range_meters":22400,"station_id":"ce4bh0h2rcd13ifvqd40","pricing_plan_id":"free"},{"bike_id":"87b8016f-a0ad-48b0-a8c6-c08c05362fb2","system_id":"levelo_inurba_marseille","lat":43.30124,"lon":5.398596,"is_reserved":false,"is_disabled":false,"rental_uris":{"android":"levelo://app?vid=87b8016f-a0ad-48b0-a8c6-c08c05362fb2","ios":"levelo://app?vid=87b8016f-a0ad-48b0-a8c6-c08c05362fb2"},"vehicle_type_id":"4","last_reported":1706033370,"current_range_meters":10800,"station_id":"ce4bh0h2rcd13ifvqd40","pricing_plan_id":"free"},{"bike_id":"175e816c-e99c-4355-bfbb-b427329428ce","system_id":"levelo_inurba_marseille","lat":43.30131,"lon":5.39866,"is_reserved":false,"is_disabled":false,"rental_uris":{"android":"levelo://app?vid=175e816c-e99c-4355-bfbb-b427329428ce","ios":"levelo://app?vid=175e816c-e99c-4355-bfbb-b427329428ce"},"vehicle_type_id":"4","last_reported":1706033370,"current_range_meters":10400,"station_id":"ce4bh0h2rcd13ifvqd40","pricing_plan_id":"free"},{"bike_id":"08e14926-c123-416b-8bf8-2f0f288c6223","system_id":"levelo_inurba_marseille","lat":43.30136,"lon":5.39872,"is_reserved":false,"is_disabled":false,"rental_uris":{"android":"levelo://app?vid=08e14926-c123-416b-8bf8-2f0f288c6223","ios":"levelo://app?vid=08e14926-c123-416b-8bf8-2f0f288c6223"},"vehicle_type_id":"4","last_reported":1706033370,"current_range_meters":24400,"station_id":"ce4bh0h2rcd13ifvqd40","pricing_plan_id":"free"},{"bike_id":"0c8ea0d4-8699-45e8-9f5b-6d299875192f","system_id":"levelo_inurba_marseille","lat":43.28727,"lon":5.36078,"is_reserved":false,"is_disabled":false,"rental_uris":{"android":"levelo://app?vid=0c8ea0d4-8699-45e8-9f5b-6d299875192f","ios":"levelo://app?vid=0c8ea0d4-8699-45e8-9f5b-6d299875192f"},"vehicle_type_id":"4","last_reported":1706033370,"current_range_meters":1200,"station_id":"cki0cbj6b192h4jlfktg","pricing_plan_id":"free"},{"bike_id":"94c51eae-a55d-41cc-a11f-0610a5c25685","system_id":"levelo_inurba_marseille","lat":43.28723,"lon":5.36079,"is_reserved":false,"is_disabled":false,"rental_uris":{"android":"levelo://app?vid=94c51eae-a55d-41cc-a11f-0610a5c25685","ios":"levelo://app?vid=94c51eae-a55d-41cc-a11f-0610a5c25685"},"vehicle_type_id":"4","last_reported":1706033370,"current_range_meters":0,"station_id":"cki0cbj6b192h4jlfktg","pricing_plan_id":"free"},{"bike_id":"d9efdba6-c54e-4dce-ad96-0418a04bef88","system_id":"levelo_inurba_marseille","lat":43.298681,"lon":5.397225,"is_reserved":false,"is_disabled":false,"rental_uris":{"android":"levelo://app?vid=d9efdba6-c54e-4dce-ad96-0418a04bef88","ios":"levelo://app?vid=d9efdba6-c54e-4dce-ad96-0418a04bef88"},"vehicle_type_id":"4","last_reported":1706033370,"current_range_meters":24000,"station_id":"ce4bh0h2rcd13ifvqd50","pricing_plan_id":"free"},{"bike_id":"f3dcd3e1-b91a-4be7-a6ea-b0f2a4ae0175","system_id":"levelo_inurba_marseille","lat":43.29877,"lon":5.39737,"is_reserved":false,"is_disabled":false,"rental_uris":{"android":"levelo://app?vid=f3dcd3e1-b91a-4be7-a6ea-b0f2a4ae0175","ios":"levelo://app?vid=f3dcd3e1-b91a-4be7-a6ea-b0f2a4ae0175"},"vehicle_type_id":"4","last_reported":1706033370,"current_range_meters":800,"station_id":"ce4bh0h2rcd13ifvqd50","pricing_plan_id":"free"},{"bike_id":"1dcc87b0-b1a6-4ffe-845f-937b8f493392","system_id":"levelo_inurba_marseille","lat":43.286591,"lon":5.363346,"is_reserved":false,"is_disabled":false,"rental_uris":{"android":"levelo://app?vid=1dcc87b0-b1a6-4ffe-845f-937b8f493392","ios":"levelo://app?vid=1dcc87b0-b1a6-4ffe-845f-937b8f493392"},"vehicle_type_id":"4","last_reported":1706033370,"current_range_meters":4800,"station_id":"ce4bhah2rcd13ifvqej0","pricing_plan_id":"free"},{"bike_id":"ffe17ab0-778a-4901-afb1-3595c6c6e66c","system_id":"levelo_inurba_marseille","lat":43.295194,"lon":5.39397,"is_reserved":false,"is_disabled":false,"rental_uris":{"android":"levelo://app?vid=ffe17ab0-778a-4901-afb1-3595c6c6e66c","ios":"levelo://app?vid=ffe17ab0-778a-4901-afb1-3595c6c6e66c"},"vehicle_type_id":"4","last_reported":1706033370,"current_range_meters":14000,"station_id":"ce4bh292rcd13ifvqdf0","pricing_plan_id":"free"},{"bike_id":"cab26e3b-b1b2-440a-ab7a-91d148c0d80b","system_id":"levelo_inurba_marseille","lat":43.287184,"lon":5.37937,"is_reserved":false,"is_disabled":false,"rental_uris":{"android":"levelo://app?vid=cab26e3b-b1b2-440a-ab7a-91d148c0d80b","ios":"levelo://app?vid=cab26e3b-b1b2-440a-ab7a-91d148c0d80b"},"vehicle_type_id":"4","last_reported":1706033370,"current_range_meters":13200,"station_id":"ce4bh9p2rcd13ifvqec0","pricing_plan_id":"free"},{"bike_id":"324b0187-1028-4a80-ba1d-414bd1a4d282","system_id":"levelo_inurba_marseille","lat":43.295196,"lon":5.39397,"is_reserved":false,"is_disabled":false,"rental_uris":{"android":"levelo://app?vid=324b0187-1028-4a80-ba1d-414bd1a4d282","ios":"levelo://app?vid=324b0187-1028-4a80-ba1d-414bd1a4d282"},"vehicle_type_id":"4","last_reported":1706033370,"current_range_meters":29600,"station_id":"ce4bh292rcd13ifvqdf0","pricing_plan_id":"free"},{"bike_id":"2238f2a8-372a-4eb9-af3d-904a8d87f07b","system_id":"levelo_inurba_marseille","lat":43.29521,"lon":5.39397,"is_reserved":false,"is_disabled":false,"rental_uris":{"android":"levelo://app?vid=2238f2a8-372a-4eb9-af3d-904a8d87f07b","ios":"levelo://app?vid=2238f2a8-372a-4eb9-af3d-904a8d87f07b"},"vehicle_type_id":"4","last_reported":1706033370,"current_range_meters":0,"station_id":"","pricing_plan_id":"free"},{"bike_id":"3137053f-28c4-499d-b7ac-962662f61ce1","system_id":"levelo_inurba_marseille","lat":43.298681,"lon":5.397225,"is_reserved":false,"is_disabled":false,"rental_uris":{"android":"levelo://app?vid=3137053f-28c4-499d-b7ac-962662f61ce1","ios":"levelo://app?vid=3137053f-28c4-499d-b7ac-962662f61ce1"},"vehicle_type_id":"4","last_reported":1706033370,"current_range_meters":25600,"station_id":"ce4bh0h2rcd13ifvqd50","pricing_plan_id":"free"},{"bike_id":"62334620-a44a-4231-ac9d-7f741adce2c0","system_id":"levelo_inurba_marseille","lat":43.290417,"lon":5.386413,"is_reserved":false,"is_disabled":false,"rental_uris":{"android":"levelo://app?vid=62334620-a44a-4231-ac9d-7f741adce2c0","ios":"levelo://app?vid=62334620-a44a-4231-ac9d-7f741adce2c0"},"vehicle_type_id":"4","last_reported":1706033370,"current_range_meters":8800,"station_id":"ce4bh4p2rcd13ifvqe0g","pricing_plan_id":"free"},{"bike_id":"80cf92c6-fa31-40ec-86fe-cc3777f80124","system_id":"levelo_inurba_marseille","lat":43.295194,"lon":5.39397,"is_reserved":false,"is_disabled":false,"rental_uris":{"android":"levelo://app?vid=80cf92c6-fa31-40ec-86fe-cc3777f80124","ios":"levelo://app?vid=80cf92c6-fa31-40ec-86fe-cc3777f80124"},"vehicle_type_id":"4","last_reported":1706033370,"current_range_meters":16000,"station_id":"ce4bh292rcd13ifvqdf0","pricing_plan_id":"free"},{"bike_id":"9926118d-a1c6-459d-bf57-a6d4eaaa41f5","system_id":"levelo_inurba_marseille","lat":43.290336,"lon":5.386425,"is_reserved":false,"is_disabled":false,"rental_uris":{"android":"levelo://app?vid=9926118d-a1c6-459d-bf57-a6d4eaaa41f5","ios":"levelo://app?vid=9926118d-a1c6-459d-bf57-a6d4eaaa41f5"},"vehicle_type_id":"4","last_reported":1706033370,"current_range_meters":10000,"station_id":"ce4bh4p2rcd13ifvqe0g","pricing_plan_id":"free"},{"bike_id":"51cb0144-e378-4030-a91a-90d41fc54f20","system_id":"levelo_inurba_marseille","lat":43.290336,"lon":5.386425,"is_reserved":false,"is_disabled":false,"rental_uris":{"android":"levelo://app?vid=51cb0144-e378-4030-a91a-90d41fc54f20","ios":"levelo://app?vid=51cb0144-e378-4030-a91a-90d41fc54f20"},"vehicle_type_id":"4","last_reported":1706033370,"current_range_meters":8800,"station_id":"ce4bh4p2rcd13ifvqe0g","pricing_plan_id":"free"},{"bike_id":"566df9e2-9bc9-4771-a943-91af09abb504","system_id":"levelo_inurba_marseille","lat":43.290336,"lon":5.386425,"is_reserved":false,"is_disabled":false,"rental_uris":{"android":"levelo://app?vid=566df9e2-9bc9-4771-a943-91af09abb504","ios":"levelo://app?vid=566df9e2-9bc9-4771-a943-91af09abb504"},"vehicle_type_id":"4","last_reported":1706033370,"current_range_meters":7600,"station_id":"ce4bh4p2rcd13ifvqe0g","pricing_plan_id":"free"},{"bike_id":"b693356f-cde3-439a-9e13-d84177848c21","system_id":"levelo_inurba_marseille","lat":43.289307,"lon":5.38406,"is_reserved":false,"is_disabled":false,"rental_uris":{"android":"levelo://app?vid=b693356f-cde3-439a-9e13-d84177848c21","ios":"levelo://app?vid=b693356f-cde3-439a-9e13-d84177848c21"},"vehicle_type_id":"4","last_reported":1706033370,"current_range_meters":30400,"station_id":"ce4bh612rcd13ifvqe6g","pricing_plan_id":"free"},{"bike_id":"fb40a58f-b03e-4d2e-8c25-629d6e1e4f80","system_id":"levelo_inurba_marseille","lat":43.290336,"lon":5.386425,"is_reserved":false,"is_disabled":false,"rental_uris":{"android":"levelo://app?vid=fb40a58f-b03e-4d2e-8c25-629d6e1e4f80","ios":"levelo://app?vid=fb40a58f-b03e-4d2e-8c25-629d6e1e4f80"},"vehicle_type_id":"4","last_reported":1706033370,"current_range_meters":16800,"station_id":"ce4bh4p2rcd13ifvqe0g","pricing_plan_id":"free"},{"bike_id":"91c39c39-b6d2-4672-a439-787ae926e212","system_id":"levelo_inurba_marseille","lat":43.289307,"lon":5.38406,"is_reserved":false,"is_disabled":false,"rental_uris":{"android":"levelo://app?vid=91c39c39-b6d2-4672-a439-787ae926e212","ios":"levelo://app?vid=91c39c39-b6d2-4672-a439-787ae926e212"},"vehicle_type_id":"4","last_reported":1706033370,"current_range_meters":24400,"station_id":"ce4bh612rcd13ifvqe6g","pricing_plan_id":"free"},{"bike_id":"e7d24b00-c295-4e3b-9682-a24b809b70e7","system_id":"levelo_inurba_marseille","lat":43.290336,"lon":5.386425,"is_reserved":false,"is_disabled":false,"rental_uris":{"android":"levelo://app?vid=e7d24b00-c295-4e3b-9682-a24b809b70e7","ios":"levelo://app?vid=e7d24b00-c295-4e3b-9682-a24b809b70e7"},"vehicle_type_id":"4","last_reported":1706033370,"current_range_meters":4400,"station_id":"ce4bh4p2rcd13ifvqe0g","pricing_plan_id":"free"},{"bike_id":"9f2cdb91-73c6-4030-a7c9-81c868a8c7e5","system_id":"levelo_inurba_marseille","lat":43.273613,"lon":5.362705,"is_reserved":false,"is_disabled":false,"rental_uris":{"android":"levelo://app?vid=9f2cdb91-73c6-4030-a7c9-81c868a8c7e5","ios":"levelo://app?vid=9f2cdb91-73c6-4030-a7c9-81c868a8c7e5"},"vehicle_type_id":"4","last_reported":1706033370,"current_range_meters":14400,"station_id":"ce4bhbh2rcd13ifvqeo0","pricing_plan_id":"free"},{"bike_id":"3655f821-97f2-43b0-8583-eb8a32af0530","system_id":"levelo_inurba_marseille","lat":43.286039,"lon":5.370679,"is_reserved":false,"is_disabled":false,"rental_uris":{"android":"levelo://app?vid=3655f821-97f2-43b0-8583-eb8a32af0530","ios":"levelo://app?vid=3655f821-97f2-43b0-8583-eb8a32af0530"},"vehicle_type_id":"4","last_reported":1706033370,"current_range_meters":14000,"station_id":"ce4bht12rcd13ifvqi60","pricing_plan_id":"free"},{"bike_id":"10a0bcfd-9852-431d-aec8-00872090f9f2","system_id":"levelo_inurba_marseille","lat":43.286039,"lon":5.370681,"is_reserved":false,"is_disabled":false,"rental_uris":{"android":"levelo://app?vid=10a0bcfd-9852-431d-aec8-00872090f9f2","ios":"levelo://app?vid=10a0bcfd-9852-431d-aec8-00872090f9f2"},"vehicle_type_id":"4","last_reported":1706033370,"current_range_meters":16400,"station_id":"ce4bht12rcd13ifvqi60","pricing_plan_id":"free"},{"bike_id":"d7f0810d-aca4-4955-a757-db99067216f3","system_id":"levelo_inurba_marseille","lat":43.287185,"lon":5.379373,"is_reserved":false,"is_disabled":false,"rental_uris":{"android":"levelo://app?vid=d7f0810d-aca4-4955-a757-db99067216f3","ios":"levelo://app?vid=d7f0810d-aca4-4955-a757-db99067216f3"},"vehicle_type_id":"4","last_reported":1706033370,"current_range_meters":18400,"station_id":"ce4bh9p2rcd13ifvqec0","pricing_plan_id":"free"},{"bike_id":"555c48a6-8fd0-4e94-84b6-582a9b1ba980","system_id":"levelo_inurba_marseille","lat":43.287185,"lon":5.379373,"is_reserved":false,"is_disabled":false,"rental_uris":{"android":"levelo://app?vid=555c48a6-8fd0-4e94-84b6-582a9b1ba980","ios":"levelo://app?vid=555c48a6-8fd0-4e94-84b6-582a9b1ba980"},"vehicle_type_id":"4","last_reported":1706033370,"current_range_meters":18800,"station_id":"ce4bh9p2rcd13ifvqec0","pricing_plan_id":"free"},{"bike_id":"5cfed83b-9d2c-4c64-96c9-e24ed3d78132","system_id":"levelo_inurba_marseille","lat":43.287185,"lon":5.379373,"is_reserved":false,"is_disabled":false,"rental_uris":{"android":"levelo://app?vid=5cfed83b-9d2c-4c64-96c9-e24ed3d78132","ios":"levelo://app?vid=5cfed83b-9d2c-4c64-96c9-e24ed3d78132"},"vehicle_type_id":"4","last_reported":1706033370,"current_range_meters":3600,"station_id":"ce4bh9p2rcd13ifvqec0","pricing_plan_id":"free"},{"bike_id":"b9d55186-07ee-4368-ac9d-bf2da5412b9a","system_id":"levelo_inurba_marseille","lat":43.287185,"lon":5.379373,"is_reserved":false,"is_disabled":false,"rental_uris":{"android":"levelo://app?vid=b9d55186-07ee-4368-ac9d-bf2da5412b9a","ios":"levelo://app?vid=b9d55186-07ee-4368-ac9d-bf2da5412b9a"},"vehicle_type_id":"4","last_reported":1706033370,"current_range_meters":24000,"station_id":"ce4bh9p2rcd13ifvqec0","pricing_plan_id":"free"},{"bike_id":"ddcf175c-9fe6-4ad7-a1e3-acbbc7e7cdba","system_id":"levelo_inurba_marseille","lat":43.29078,"lon":5.390204,"is_reserved":false,"is_disabled":false,"rental_uris":{"android":"levelo://app?vid=ddcf175c-9fe6-4ad7-a1e3-acbbc7e7cdba","ios":"levelo://app?vid=ddcf175c-9fe6-4ad7-a1e3-acbbc7e7cdba"},"vehicle_type_id":"4","last_reported":1706033370,"current_range_meters":6000,"station_id":"","pricing_plan_id":"free"},{"bike_id":"5b0965f1-0dff-439d-bfa2-a3b7aa5a72c6","system_id":"levelo_inurba_marseille","lat":43.291994,"lon":5.392907,"is_reserved":false,"is_disabled":false,"rental_uris":{"android":"levelo://app?vid=5b0965f1-0dff-439d-bfa2-a3b7aa5a72c6","ios":"levelo://app?vid=5b0965f1-0dff-439d-bfa2-a3b7aa5a72c6"},"vehicle_type_id":"4","last_reported":1706033370,"current_range_meters":24000,"station_id":"ce4bh192rcd13ifvqdd0","pricing_plan_id":"free"},{"bike_id":"ba4c845a-7420-4400-a60f-fa6e14c7325d","system_id":"levelo_inurba_marseille","lat":43.291994,"lon":5.392907,"is_reserved":false,"is_disabled":false,"rental_uris":{"android":"levelo://app?vid=ba4c845a-7420-4400-a60f-fa6e14c7325d","ios":"levelo://app?vid=ba4c845a-7420-4400-a60f-fa6e14c7325d"},"vehicle_type_id":"4","last_reported":1706033370,"current_range_meters":14400,"station_id":"ce4bh192rcd13ifvqdd0","pricing_plan_id":"free"},{"bike_id":"e89c46d0-56c5-4e25-8ae9-1e4b1bff0351","system_id":"levelo_inurba_marseille","lat":43.291994,"lon":5.392907,"is_reserved":false,"is_disabled":false,"rental_uris":{"android":"levelo://app?vid=e89c46d0-56c5-4e25-8ae9-1e4b1bff0351","ios":"levelo://app?vid=e89c46d0-56c5-4e25-8ae9-1e4b1bff0351"},"vehicle_type_id":"4","last_reported":1706033370,"current_range_meters":1200,"station_id":"ce4bh192rcd13ifvqdd0","pricing_plan_id":"free"},{"bike_id":"d2314da2-5448-4468-b395-5a3e39354626","system_id":"levelo_inurba_marseille","lat":43.284538,"lon":5.358657,"is_reserved":false,"is_disabled":false,"rental_uris":{"android":"levelo://app?vid=d2314da2-5448-4468-b395-5a3e39354626","ios":"levelo://app?vid=d2314da2-5448-4468-b395-5a3e39354626"},"vehicle_type_id":"4","last_reported":1706033370,"current_range_meters":10800,"station_id":"ce4bhah2rcd13ifvqei0","pricing_plan_id":"free"},{"bike_id":"30a30ff7-d1e2-4eb0-a506-a5bf7cc7142d","system_id":"levelo_inurba_marseille","lat":43.284534,"lon":5.358662,"is_reserved":false,"is_disabled":false,"rental_uris":{"android":"levelo://app?vid=30a30ff7-d1e2-4eb0-a506-a5bf7cc7142d","ios":"levelo://app?vid=30a30ff7-d1e2-4eb0-a506-a5bf7cc7142d"},"vehicle_type_id":"4","last_reported":1706033370,"current_range_meters":21600,"station_id":"ce4bhah2rcd13ifvqei0","pricing_plan_id":"free"},{"bike_id":"085aef3a-0af8-4962-8289-d937946a7cbc","system_id":"levelo_inurba_marseille","lat":43.28463,"lon":5.35888,"is_reserved":false,"is_disabled":false,"rental_uris":{"android":"levelo://app?vid=085aef3a-0af8-4962-8289-d937946a7cbc","ios":"levelo://app?vid=085aef3a-0af8-4962-8289-d937946a7cbc"},"vehicle_type_id":"4","last_reported":1706033370,"current_range_meters":20800,"station_id":"ce4bhah2rcd13ifvqei0","pricing_plan_id":"free"},{"bike_id":"aa2365e1-e36e-48d0-acda-c9363806bbb1","system_id":"levelo_inurba_marseille","lat":43.284534,"lon":5.358662,"is_reserved":false,"is_disabled":false,"rental_uris":{"android":"levelo://app?vid=aa2365e1-e36e-48d0-acda-c9363806bbb1","ios":"levelo://app?vid=aa2365e1-e36e-48d0-acda-c9363806bbb1"},"vehicle_type_id":"4","last_reported":1706033370,"current_range_meters":13200,"station_id":"ce4bhah2rcd13ifvqei0","pricing_plan_id":"free"},{"bike_id":"235e2274-1d8e-4917-bc5a-d62ed97d02da","system_id":"levelo_inurba_marseille","lat":43.284534,"lon":5.358662,"is_reserved":false,"is_disabled":false,"rental_uris":{"android":"levelo://app?vid=235e2274-1d8e-4917-bc5a-d62ed97d02da","ios":"levelo://app?vid=235e2274-1d8e-4917-bc5a-d62ed97d02da"},"vehicle_type_id":"4","last_reported":1706033370,"current_range_meters":22800,"station_id":"ce4bhah2rcd13ifvqei0","pricing_plan_id":"free"},{"bike_id":"47485b40-b0fc-4afb-ab68-9b49402c9792","system_id":"levelo_inurba_marseille","lat":43.294314,"lon":5.397498,"is_reserved":false,"is_disabled":false,"rental_uris":{"android":"levelo://app?vid=47485b40-b0fc-4afb-ab68-9b49402c9792","ios":"levelo://app?vid=47485b40-b0fc-4afb-ab68-9b49402c9792"},"vehicle_type_id":"4","last_reported":1706033370,"current_range_meters":2800,"station_id":"ce4bh3h2rcd13ifvqdo0","pricing_plan_id":"free"},{"bike_id":"9ec0d40c-3a6b-48ff-a284-e8df023ef671","system_id":"levelo_inurba_marseille","lat":43.294314,"lon":5.397498,"is_reserved":false,"is_disabled":false,"rental_uris":{"android":"levelo://app?vid=9ec0d40c-3a6b-48ff-a284-e8df023ef671","ios":"levelo://app?vid=9ec0d40c-3a6b-48ff-a284-e8df023ef671"},"vehicle_type_id":"4","last_reported":1706033370,"current_range_meters":11600,"station_id":"ce4bh3h2rcd13ifvqdo0","pricing_plan_id":"free"},{"bike_id":"b0ed7297-d99f-4171-bafc-2ac9fbff3931","system_id":"levelo_inurba_marseille","lat":43.285848,"lon":5.350787,"is_reserved":false,"is_disabled":false,"rental_uris":{"android":"levelo://app?vid=b0ed7297-d99f-4171-bafc-2ac9fbff3931","ios":"levelo://app?vid=b0ed7297-d99f-4171-bafc-2ac9fbff3931"},"vehicle_type_id":"4","last_reported":1706033370,"current_range_meters":8000,"station_id":"ce4bhch2rcd13ifvqeug","pricing_plan_id":"free"},{"bike_id":"aa5a09ec-79c1-48ad-b926-1a43a6f90787","system_id":"levelo_inurba_marseille","lat":43.285848,"lon":5.350787,"is_reserved":false,"is_disabled":false,"rental_uris":{"android":"levelo://app?vid=aa5a09ec-79c1-48ad-b926-1a43a6f90787","ios":"levelo://app?vid=aa5a09ec-79c1-48ad-b926-1a43a6f90787"},"vehicle_type_id":"4","last_reported":1706033370,"current_range_meters":17200,"station_id":"ce4bhch2rcd13ifvqeug","pricing_plan_id":"free"},{"bike_id":"6acad74f-ac37-46e7-8435-dcdcb6bdaa5f","system_id":"levelo_inurba_marseille","lat":43.285848,"lon":5.350787,"is_reserved":false,"is_disabled":false,"rental_uris":{"android":"levelo://app?vid=6acad74f-ac37-46e7-8435-dcdcb6bdaa5f","ios":"levelo://app?vid=6acad74f-ac37-46e7-8435-dcdcb6bdaa5f"},"vehicle_type_id":"4","last_reported":1706033370,"current_range_meters":10000,"station_id":"ce4bhch2rcd13ifvqeug","pricing_plan_id":"free"},{"bike_id":"8a6c13c6-f5f5-41f0-8eef-7c3d50d8169a","system_id":"levelo_inurba_marseille","lat":43.285848,"lon":5.350787,"is_reserved":false,"is_disabled":false,"rental_uris":{"android":"levelo://app?vid=8a6c13c6-f5f5-41f0-8eef-7c3d50d8169a","ios":"levelo://app?vid=8a6c13c6-f5f5-41f0-8eef-7c3d50d8169a"},"vehicle_type_id":"4","last_reported":1706033370,"current_range_meters":6800,"station_id":"ce4bhch2rcd13ifvqeug","pricing_plan_id":"free"},{"bike_id":"a6a89d7c-dd15-459a-be48-866d4f757a29","system_id":"levelo_inurba_marseille","lat":43.285856,"lon":5.350771,"is_reserved":false,"is_disabled":false,"rental_uris":{"android":"levelo://app?vid=a6a89d7c-dd15-459a-be48-866d4f757a29","ios":"levelo://app?vid=a6a89d7c-dd15-459a-be48-866d4f757a29"},"vehicle_type_id":"4","last_reported":1706033370,"current_range_meters":24000,"station_id":"ce4bhch2rcd13ifvqeug","pricing_plan_id":"free"},{"bike_id":"71bc518e-a7e6-45cc-a68b-84a037ea3818","system_id":"levelo_inurba_marseille","lat":43.285856,"lon":5.350771,"is_reserved":false,"is_disabled":false,"rental_uris":{"android":"levelo://app?vid=71bc518e-a7e6-45cc-a68b-84a037ea3818","ios":"levelo://app?vid=71bc518e-a7e6-45cc-a68b-84a037ea3818"},"vehicle_type_id":"4","last_reported":1706033370,"current_range_meters":18400,"station_id":"ce4bhch2rcd13ifvqeug","pricing_plan_id":"free"},{"bike_id":"829b224f-3403-479d-a682-24b5ea221ab9","system_id":"levelo_inurba_marseille","lat":43.285848,"lon":5.350787,"is_reserved":false,"is_disabled":false,"rental_uris":{"android":"levelo://app?vid=829b224f-3403-479d-a682-24b5ea221ab9","ios":"levelo://app?vid=829b224f-3403-479d-a682-24b5ea221ab9"},"vehicle_type_id":"4","last_reported":1706033370,"current_range_meters":18400,"station_id":"ce4bhch2rcd13ifvqeug","pricing_plan_id":"free"},{"bike_id":"a6fac07a-910a-4aa5-a9c5-b2b40f35ff21","system_id":"levelo_inurba_marseille","lat":43.285856,"lon":5.350771,"is_reserved":false,"is_disabled":false,"rental_uris":{"android":"levelo://app?vid=a6fac07a-910a-4aa5-a9c5-b2b40f35ff21","ios":"levelo://app?vid=a6fac07a-910a-4aa5-a9c5-b2b40f35ff21"},"vehicle_type_id":"4","last_reported":1706033370,"current_range_meters":0,"station_id":"ce4bhch2rcd13ifvqeug","pricing_plan_id":"free"},{"bike_id":"b060af4f-648f-4575-9bb7-add45dcb2133","system_id":"levelo_inurba_marseille","lat":43.283998,"lon":5.375062,"is_reserved":false,"is_disabled":false,"rental_uris":{"android":"levelo://app?vid=b060af4f-648f-4575-9bb7-add45dcb2133","ios":"levelo://app?vid=b060af4f-648f-4575-9bb7-add45dcb2133"},"vehicle_type_id":"4","last_reported":1706033370,"current_range_meters":4400,"station_id":"ce4bh412rcd13ifvqds0","pricing_plan_id":"free"},{"bike_id":"4387fa21-f779-41be-9fcd-a79b5385148b","system_id":"levelo_inurba_marseille","lat":43.283998,"lon":5.375062,"is_reserved":false,"is_disabled":false,"rental_uris":{"android":"levelo://app?vid=4387fa21-f779-41be-9fcd-a79b5385148b","ios":"levelo://app?vid=4387fa21-f779-41be-9fcd-a79b5385148b"},"vehicle_type_id":"4","last_reported":1706033370,"current_range_meters":3600,"station_id":"ce4bh412rcd13ifvqds0","pricing_plan_id":"free"},{"bike_id":"677078ee-22c4-4f64-bfa5-efbc54782f42","system_id":"levelo_inurba_marseille","lat":43.283998,"lon":5.375062,"is_reserved":false,"is_disabled":false,"rental_uris":{"android":"levelo://app?vid=677078ee-22c4-4f64-bfa5-efbc54782f42","ios":"levelo://app?vid=677078ee-22c4-4f64-bfa5-efbc54782f42"},"vehicle_type_id":"4","last_reported":1706033370,"current_range_meters":20800,"station_id":"ce4bh412rcd13ifvqds0","pricing_plan_id":"free"},{"bike_id":"c83cbfc0-3b6f-40e4-87c9-505c970c9197","system_id":"levelo_inurba_marseille","lat":43.295713,"lon":5.399639,"is_reserved":false,"is_disabled":false,"rental_uris":{"android":"levelo://app?vid=c83cbfc0-3b6f-40e4-87c9-505c970c9197","ios":"levelo://app?vid=c83cbfc0-3b6f-40e4-87c9-505c970c9197"},"vehicle_type_id":"4","last_reported":1706033370,"current_range_meters":13200,"station_id":"ce4bh312rcd13ifvqdj0","pricing_plan_id":"free"},{"bike_id":"487c9d89-81e3-418c-a0d3-39ec5b5397d6","system_id":"levelo_inurba_marseille","lat":43.295713,"lon":5.399639,"is_reserved":false,"is_disabled":false,"rental_uris":{"android":"levelo://app?vid=487c9d89-81e3-418c-a0d3-39ec5b5397d6","ios":"levelo://app?vid=487c9d89-81e3-418c-a0d3-39ec5b5397d6"},"vehicle_type_id":"4","last_reported":1706033370,"current_range_meters":18000,"station_id":"ce4bh312rcd13ifvqdj0","pricing_plan_id":"free"},{"bike_id":"22ac3acc-c2a1-4799-979e-a2d58ed68c42","system_id":"levelo_inurba_marseille","lat":43.283998,"lon":5.375062,"is_reserved":false,"is_disabled":false,"rental_uris":{"android":"levelo://app?vid=22ac3acc-c2a1-4799-979e-a2d58ed68c42","ios":"levelo://app?vid=22ac3acc-c2a1-4799-979e-a2d58ed68c42"},"vehicle_type_id":"4","last_reported":1706033370,"current_range_meters":31200,"station_id":"ce4bh412rcd13ifvqds0","pricing_plan_id":"free"},{"bike_id":"e52322ca-0aa6-4857-a105-844fc39302d8","system_id":"levelo_inurba_marseille","lat":43.286595,"lon":5.386795,"is_reserved":false,"is_disabled":false,"rental_uris":{"android":"levelo://app?vid=e52322ca-0aa6-4857-a105-844fc39302d8","ios":"levelo://app?vid=e52322ca-0aa6-4857-a105-844fc39302d8"},"vehicle_type_id":"4","last_reported":1706033370,"current_range_meters":13200,"station_id":"ce4bh492rcd13ifvqdug","pricing_plan_id":"free"},{"bike_id":"6af7943c-babf-4b8c-99af-9cc5a07c673c","system_id":"levelo_inurba_marseille","lat":43.286595,"lon":5.386795,"is_reserved":false,"is_disabled":false,"rental_uris":{"android":"levelo://app?vid=6af7943c-babf-4b8c-99af-9cc5a07c673c","ios":"levelo://app?vid=6af7943c-babf-4b8c-99af-9cc5a07c673c"},"vehicle_type_id":"4","last_reported":1706033370,"current_range_meters":20000,"station_id":"ce4bh492rcd13ifvqdug","pricing_plan_id":"free"},{"bike_id":"c87fe417-a7bf-4eb9-adf6-00a52a2cdedb","system_id":"levelo_inurba_marseille","lat":43.286595,"lon":5.386795,"is_reserved":false,"is_disabled":false,"rental_uris":{"android":"levelo://app?vid=c87fe417-a7bf-4eb9-adf6-00a52a2cdedb","ios":"levelo://app?vid=c87fe417-a7bf-4eb9-adf6-00a52a2cdedb"},