{"last_updated":1758374105,"ttl":60,"version":"2.2","data":{"bikes":[{"bike_id":"51d9f672-934b-4ba5-a381-bf5976a41f9a","system_id":"levelo_inurba_marseille","lat":43.23186,"lon":5.39983,"is_reserved":false,"is_disabled":false,"rental_uris":{"android":"levelo://app?vid=51d9f672-934b-4ba5-a381-bf5976a41f9a","ios":"levelo://app?vid=51d9f672-934b-4ba5-a381-bf5976a41f9a"},"vehicle_type_id":"4","last_reported":1758374105,"current_range_meters":2800,"station_id":"ce4bhn12rcd13ifvqgqg","pricing_plan_id":"cebpf4jnsgd1na2vs0mg"},{"bike_id":"cfd94e63-9c1b-4feb-a427-531ba8ae1dff","system_id":"levelo_inurba_marseille","lat":43.21731,"lon":5.34621,"is_reserved":false,"is_disabled":false,"rental_uris":{"android":"levelo://app?vid=cfd94e63-9c1b-4feb-a427-531ba8ae1dff","ios":"levelo://app?vid=cfd94e63-9c1b-4feb-a427-531ba8ae1dff"},"vehicle_type_id":"4","last_reported":1758374105,"current_range_meters":2800,"station_id":"st_cvj6r9ubvosntc0bgbag","pricing_plan_id":"cebpf4jnsgd1na2vs0mg"},{"bike_id":"55ac8fc5-3ae0-4dec-9a87-c3e7637053cd","system_id":"levelo_inurba_marseille","lat":43.24175,"lon":5.36398,"is_reserved":false,"is_disabled":false,"rental_uris":{"android":"levelo://app?vid=55ac8fc5-3ae0-4dec-9a87-c3e7637053cd","ios":"levelo://app?vid=55ac8fc5-3ae0-4dec-9a87-c3e7637053cd"},"vehicle_type_id":"4","last_reported":1758374105,"current_range_meters":2800,"station_id":"cpo36qri1sfpv3e86is0","pricing_plan_id":"cebpf4jnsgd1na2vs0mg"},{"bike_id":"5ac117a0-17f0-440c-adff-d83330bbcc4d","system_id":"levelo_inurba_marseille","lat":43.24811,"lon":5.37454,"is_reserved":false,"is_disabled":false,"rental_uris":{"android":"levelo://app?vid=5ac117a0-17f0-440c-adff-d83330bbcc4d","ios":"levelo://app?vid=5ac117a0-17f0-440c-adff-d83330bbcc4d"},"vehicle_type_id":"4","last_reported":1758374105,"current_range_meters":3200,"station_id":"ce4bhgh2rcd13ifvqfb0","pricing_plan_id":"cebpf4jnsgd1na2vs0mg"},{"bike_id":"3fd9f89b-a712-4a0b-84e9-af78d3164294","system_id":"levelo_inurba_marseille","lat":43.24173,"lon":5.36393,"is_reserved":false,"is_disabled":false,"rental_uris":{"android":"levelo://app?vid=3fd9f89b-a712-4a0b-84e9-af78d3164294","ios":"levelo://app?vid=3fd9f89b-a712-4a0b-84e9-af78d3164294"},"vehicle_type_id":"4","last_reported":1758374105,"current_range_meters":3200,"station_id":"cpo36qri1sfpv3e86is0","pricing_plan_id":"cebpf4jnsgd1na2vs0mg"},{"bike_id":"50c1c1e3-58c2-4ff0-a78a-a7e499f3540c","system_id":"levelo_inurba_marseille","lat":43.28917,"lon":5.43258,"is_reserved":false,"is_disabled":false,"rental_uris":{"android":"levelo://app?vid=50c1c1e3-58c2-4ff0-a78a-a7e499f3540c","ios":"levelo://app?vid=50c1c1e3-58c2-4ff0-a78a-a7e499f3540c"},"vehicle_type_id":"4","last_reported":1758374105,"current_range_meters":3200,"station_id":"","pricing_plan_id":"cebpf4jnsgd1na2vs0mg"},{"bike_id":"b144014f-eb67-4ff2-81fe-10f73eb222bf","system_id":"levelo_inurba_marseille","lat":43.31751,"lon":5.38998,"is_reserved":false,"is_disabled":false,"rental_uris":{"android":"levelo://app?vid=b144014f-eb67-4ff2-81fe-10f73eb222bf","ios":"levelo://app?vid=b144014f-eb67-4ff2-81fe-10f73eb222bf"},"vehicle_type_id":"4","last_reported":1758374105,"current_range_meters":3600,"station_id":"ce4bhqp2rcd13ifvqhng","pricing_plan_id":"cebpf4jnsgd1na2vs0mg"},{"bike_id":"dd1d2b4a-16fc-4870-8590-1412c4c935b5","system_id":"levelo_inurba_marseille","lat":43.21751,"lon":5.34591,"is_reserved":false,"is_disabled":false,"rental_uris":{"android":"levelo://app?vid=dd1d2b4a-16fc-4870-8590-1412c4c935b5","ios":"levelo://app?vid=dd1d2b4a-16fc-4870-8590-1412c4c935b5"},"vehicle_type_id":"4","last_reported":1758374105,"current_range_meters":3600,"station_id":"st_cvj6r9ubvosntc0bgbag","pricing_plan_id":"cebpf4jnsgd1na2vs0mg"},{"bike_id":"9cbbf391-14a1-47a5-8563-1ea3c99ec4bf","system_id":"levelo_inurba_marseille","lat":43.273836,"lon":5.362487,"is_reserved":false,"is_disabled":false,"rental_uris":{"android":"levelo://app?vid=9cbbf391-14a1-47a5-8563-1ea3c99ec4bf","ios":"levelo://app?vid=9cbbf391-14a1-47a5-8563-1ea3c99ec4bf"},"vehicle_type_id":"4","last_reported":1758374105,"current_range_meters":3600,"station_id":"","pricing_plan_id":"cebpf4jnsgd1na2vs0mg"},{"bike_id":"c111beea-469d-4a7e-bdfa-76b2c21898e9","system_id":"levelo_inurba_marseille","lat":43.24171,"lon":5.36401,"is_reserved":false,"is_disabled":false,"rental_uris":{"android":"levelo://app?vid=c111beea-469d-4a7e-bdfa-76b2c21898e9","ios":"levelo://app?vid=c111beea-469d-4a7e-bdfa-76b2c21898e9"},"vehicle_type_id":"4","last_reported":1758374105,"current_range_meters":3600,"station_id":"cpo36qri1sfpv3e86is0","pricing_plan_id":"cebpf4jnsgd1na2vs0mg"},{"bike_id":"1364e8b8-11e8-4837-93ff-cae5cc9eff98","system_id":"levelo_inurba_marseille","lat":43.276,"lon":5.3612,"is_reserved":false,"is_disabled":false,"rental_uris":{"android":"levelo://app?vid=1364e8b8-11e8-4837-93ff-cae5cc9eff98","ios":"levelo://app?vid=1364e8b8-11e8-4837-93ff-cae5cc9eff98"},"vehicle_type_id":"4","last_reported":1758374105,"current_range_meters":3600,"station_id":"ce4bgj92rcd13ifvqbe0","pricing_plan_id":"cebpf4jnsgd1na2vs0mg"},{"bike_id":"5e1549e6-879c-42e0-8ce8-b9675e30105c","system_id":"levelo_inurba_marseille","lat":43.21198,"lon":5.35059,"is_reserved":false,"is_disabled":false,"rental_uris":{"android":"levelo://app?vid=5e1549e6-879c-42e0-8ce8-b9675e30105c","ios":"levelo://app?vid=5e1549e6-879c-42e0-8ce8-b9675e30105c"},"vehicle_type_id":"4","last_reported":1758374105,"current_range_meters":4000,"station_id":"st_cvj6sg6p6f1abm77japg","pricing_plan_id":"cebpf4jnsgd1na2vs0mg"},{"bike_id":"892da87c-dd10-4f5c-bcff-cf3b968297af","system_id":"levelo_inurba_marseille","lat":43.28573,"lon":5.39491,"is_reserved":false,"is_disabled":false,"rental_uris":{"android":"levelo://app?vid=892da87c-dd10-4f5c-bcff-cf3b968297af","ios":"levelo://app?vid=892da87c-dd10-4f5c-bcff-cf3b968297af"},"vehicle_type_id":"4","last_reported":1758374105,"current_range_meters":4000,"station_id":"ce4bh292rcd13ifvqdg0","pricing_plan_id":"cebpf4jnsgd1na2vs0mg"},{"bike_id":"2193f157-8f8c-4567-8b60-6e15301a8a3b","system_id":"levelo_inurba_marseille","lat":43.21763,"lon":5.34596,"is_reserved":false,"is_disabled":false,"rental_uris":{"android":"levelo://app?vid=2193f157-8f8c-4567-8b60-6e15301a8a3b","ios":"levelo://app?vid=2193f157-8f8c-4567-8b60-6e15301a8a3b"},"vehicle_type_id":"4","last_reported":1758374105,"current_range_meters":4000,"station_id":"st_cvj6r9ubvosntc0bgbag","pricing_plan_id":"cebpf4jnsgd1na2vs0mg"},{"bike_id":"85c8e685-734d-4760-966b-86b771a65d9b","system_id":"levelo_inurba_marseille","lat":43.21186,"lon":5.35075,"is_reserved":false,"is_disabled":true,"rental_uris":{"android":"levelo://app?vid=85c8e685-734d-4760-966b-86b771a65d9b","ios":"levelo://app?vid=85c8e685-734d-4760-966b-86b771a65d9b"},"vehicle_type_id":"4","last_reported":1758374105,"current_range_meters":4400,"station_id":"st_cvj6sg6p6f1abm77japg","pricing_plan_id":"cebpf4jnsgd1na2vs0mg"},{"bike_id":"d8614c77-5ed9-43d1-a985-570d4de92d06","system_id":"levelo_inurba_marseille","lat":43.31478,"lon":5.37304,"is_reserved":false,"is_disabled":false,"rental_uris":{"android":"levelo://app?vid=d8614c77-5ed9-43d1-a985-570d4de92d06","ios":"levelo://app?vid=d8614c77-5ed9-43d1-a985-570d4de92d06"},"vehicle_type_id":"4","last_reported":1758374105,"current_range_meters":4400,"station_id":"ce4bgt12rcd13ifvqcd0","pricing_plan_id":"cebpf4jnsgd1na2vs0mg"},{"bike_id":"c548f171-150a-4779-93a6-693f7be10701","system_id":"levelo_inurba_marseille","lat":43.337444,"lon":5.374475,"is_reserved":false,"is_disabled":false,"rental_uris":{"android":"levelo://app?vid=c548f171-150a-4779-93a6-693f7be10701","ios":"levelo://app?vid=c548f171-150a-4779-93a6-693f7be10701"},"vehicle_type_id":"4","last_reported":1758374105,"current_range_meters":4400,"station_id":"","pricing_plan_id":"cebpf4jnsgd1na2vs0mg"},{"bike_id":"a30c1579-c7c1-4289-a603-df8763bcecdc","system_id":"levelo_inurba_marseille","lat":43.231541,"lon":5.437092,"is_reserved":false,"is_disabled":false,"rental_uris":{"android":"levelo://app?vid=a30c1579-c7c1-4289-a603-df8763bcecdc","ios":"levelo://app?vid=a30c1579-c7c1-4289-a603-df8763bcecdc"},"vehicle_type_id":"4","last_reported":1758374105,"current_range_meters":4400,"station_id":"ce4bhmp2rcd13ifvqgog","pricing_plan_id":"cebpf4jnsgd1na2vs0mg"},{"bike_id":"42323a1a-489c-43cb-90ae-c675b27444d5","system_id":"levelo_inurba_marseille","lat":43.21656,"lon":5.34351,"is_reserved":false,"is_disabled":false,"rental_uris":{"android":"levelo://app?vid=42323a1a-489c-43cb-90ae-c675b27444d5","ios":"levelo://app?vid=42323a1a-489c-43cb-90ae-c675b27444d5"},"vehicle_type_id":"4","last_reported":1758374105,"current_range_meters":4400,"station_id":"","pricing_plan_id":"cebpf4jnsgd1na2vs0mg"},{"bike_id":"26ee9d3a-abc2-4f81-bac1-d6ea2d085825","system_id":"levelo_inurba_marseille","lat":43.25883,"lon":5.39919,"is_reserved":false,"is_disabled":false,"rental_uris":{"android":"levelo://app?vid=26ee9d3a-abc2-4f81-bac1-d6ea2d085825","ios":"levelo://app?vid=26ee9d3a-abc2-4f81-bac1-d6ea2d085825"},"vehicle_type_id":"4","last_reported":1758374105,"current_range_meters":4000,"station_id":"ce4bhl92rcd13ifvqghg","pricing_plan_id":"cebpf4jnsgd1na2vs0mg"},{"bike_id":"e162e41c-3ba4-4964-a3c5-9e62d73dfb0e","system_id":"levelo_inurba_marseille","lat":43.32111,"lon":5.36781,"is_reserved":false,"is_disabled":false,"rental_uris":{"android":"levelo://app?vid=e162e41c-3ba4-4964-a3c5-9e62d73dfb0e","ios":"levelo://app?vid=e162e41c-3ba4-4964-a3c5-9e62d73dfb0e"},"vehicle_type_id":"4","last_reported":1758374105,"current_range_meters":4800,"station_id":"ce4bhrh2rcd13ifvqhug","pricing_plan_id":"cebpf4jnsgd1na2vs0mg"},{"bike_id":"0811ec97-5f7c-4634-a2bc-c17bd7cf12e2","system_id":"levelo_inurba_marseille","lat":43.290378,"lon":5.399618,"is_reserved":false,"is_disabled":false,"rental_uris":{"android":"levelo://app?vid=0811ec97-5f7c-4634-a2bc-c17bd7cf12e2","ios":"levelo://app?vid=0811ec97-5f7c-4634-a2bc-c17bd7cf12e2"},"vehicle_type_id":"4","last_reported":1758374105,"current_range_meters":4800,"station_id":"ce4bh392rcd13ifvqdm0","pricing_plan_id":"cebpf4jnsgd1na2vs0mg"},{"bike_id":"e6f8489d-fe42-4015-a82c-b604c2c8b33e","system_id":"levelo_inurba_marseille","lat":43.29795,"lon":5.36682,"is_reserved":false,"is_disabled":false,"rental_uris":{"android":"levelo://app?vid=e6f8489d-fe42-4015-a82c-b604c2c8b33e","ios":"levelo://app?vid=e6f8489d-fe42-4015-a82c-b604c2c8b33e"},"vehicle_type_id":"4","last_reported":1758374105,"current_range_meters":4800,"station_id":"","pricing_plan_id":"cebpf4jnsgd1na2vs0mg"},{"bike_id":"17f668f0-842d-4d08-87c5-ef6efb8513ab","system_id":"levelo_inurba_marseille","lat":43.24632,"lon":5.43144,"is_reserved":false,"is_disabled":false,"rental_uris":{"android":"levelo://app?vid=17f668f0-842d-4d08-87c5-ef6efb8513ab","ios":"levelo://app?vid=17f668f0-842d-4d08-87c5-ef6efb8513ab"},"vehicle_type_id":"4","last_reported":1758374105,"current_range_meters":5600,"station_id":"st_d2m6c4gdas8pm72e190g","pricing_plan_id":"cebpf4jnsgd1na2vs0mg"},{"bike_id":"a6803547-e8f6-43f9-85ef-d3658a6399f4","system_id":"levelo_inurba_marseille","lat":43.23066,"lon":5.35489,"is_reserved":false,"is_disabled":false,"rental_uris":{"android":"levelo://app?vid=a6803547-e8f6-43f9-85ef-d3658a6399f4","ios":"levelo://app?vid=a6803547-e8f6-43f9-85ef-d3658a6399f4"},"vehicle_type_id":"4","last_reported":1758374105,"current_range_meters":5600,"station_id":"cpo3342slgdg3j2ifvpg","pricing_plan_id":"cebpf4jnsgd1na2vs0mg"},{"bike_id":"e942f984-8fe7-48d1-8f04-3806656b9996","system_id":"levelo_inurba_marseille","lat":43.33632,"lon":5.37929,"is_reserved":false,"is_disabled":false,"rental_uris":{"android":"levelo://app?vid=e942f984-8fe7-48d1-8f04-3806656b9996","ios":"levelo://app?vid=e942f984-8fe7-48d1-8f04-3806656b9996"},"vehicle_type_id":"4","last_reported":1758374105,"current_range_meters":5600,"station_id":"","pricing_plan_id":"cebpf4jnsgd1na2vs0mg"},{"bike_id":"6dc49f8f-31b8-485c-b489-e3fd253e6676","system_id":"levelo_inurba_marseille","lat":43.32656,"lon":5.4099,"is_reserved":false,"is_disabled":true,"rental_uris":{"android":"levelo://app?vid=6dc49f8f-31b8-485c-b489-e3fd253e6676","ios":"levelo://app?vid=6dc49f8f-31b8-485c-b489-e3fd253e6676"},"vehicle_type_id":"4","last_reported":1758374105,"current_range_meters":5600,"station_id":"ce4bhpp2rcd13ifvqhgg","pricing_plan_id":"cebpf4jnsgd1na2vs0mg"},{"bike_id":"712fb2e5-5afe-4db6-8d57-74d641eba8e0","system_id":"levelo_inurba_marseille","lat":43.27813,"lon":5.40699,"is_reserved":false,"is_disabled":false,"rental_uris":{"android":"levelo://app?vid=712fb2e5-5afe-4db6-8d57-74d641eba8e0","ios":"levelo://app?vid=712fb2e5-5afe-4db6-8d57-74d641eba8e0"},"vehicle_type_id":"4","last_reported":1758374105,"current_range_meters":5600,"station_id":"ce4bhnh2rcd13ifvqgtg","pricing_plan_id":"cebpf4jnsgd1na2vs0mg"},{"bike_id":"9f0f401b-ff98-4040-b24f-13fefb233bef","system_id":"levelo_inurba_marseille","lat":43.2119,"lon":5.35069,"is_reserved":false,"is_disabled":false,"rental_uris":{"android":"levelo://app?vid=9f0f401b-ff98-4040-b24f-13fefb233bef","ios":"levelo://app?vid=9f0f401b-ff98-4040-b24f-13fefb233bef"},"vehicle_type_id":"4","last_reported":1758374105,"current_range_meters":5600,"station_id":"st_cvj6sg6p6f1abm77japg","pricing_plan_id":"cebpf4jnsgd1na2vs0mg"},{"bike_id":"96b38c12-cdb8-4a8d-af96-c043744b90ca","system_id":"levelo_inurba_marseille","lat":43.274122,"lon":5.362015,"is_reserved":false,"is_disabled":false,"rental_uris":{"android":"levelo://app?vid=96b38c12-cdb8-4a8d-af96-c043744b90ca","ios":"levelo://app?vid=96b38c12-cdb8-4a8d-af96-c043744b90ca"},"vehicle_type_id":"4","last_reported":1758374105,"current_range_meters":5600,"station_id":"ce4bhbh2rcd13ifvqeo0","pricing_plan_id":"cebpf4jnsgd1na2vs0mg"},{"bike_id":"42ddacfd-4a16-4d31-8059-47ece6696359","system_id":"levelo_inurba_marseille","lat":43.27628,"lon":5.36107,"is_reserved":false,"is_disabled":false,"rental_uris":{"android":"levelo://app?vid=42ddacfd-4a16-4d31-8059-47ece6696359","ios":"levelo://app?vid=42ddacfd-4a16-4d31-8059-47ece6696359"},"vehicle_type_id":"4","last_reported":1758374105,"current_range_meters":5600,"station_id":"ce4bgj92rcd13ifvqbe0","pricing_plan_id":"cebpf4jnsgd1na2vs0mg"},{"bike_id":"59f51456-a5e7-466a-8b08-1d61d2bd0f37","system_id":"levelo_inurba_marseille","lat":43.27372,"lon":5.36267,"is_reserved":false,"is_disabled":false,"rental_uris":{"android":"levelo://app?vid=59f51456-a5e7-466a-8b08-1d61d2bd0f37","ios":"levelo://app?vid=59f51456-a5e7-466a-8b08-1d61d2bd0f37"},"vehicle_type_id":"4","last_reported":1758374105,"current_range_meters":6000,"station_id":"ce4bhbh2rcd13ifvqeo0","pricing_plan_id":"cebpf4jnsgd1na2vs0mg"},{"bike_id":"da2d4eba-ab0e-4bcb-9b8f-c3d40267e2e6","system_id":"levelo_inurba_marseille","lat":43.30599,"lon":5.37235,"is_reserved":false,"is_disabled":false,"rental_uris":{"android":"levelo://app?vid=da2d4eba-ab0e-4bcb-9b8f-c3d40267e2e6","ios":"levelo://app?vid=da2d4eba-ab0e-4bcb-9b8f-c3d40267e2e6"},"vehicle_type_id":"4","last_reported":1758374105,"current_range_meters":6000,"station_id":"ce4bgqh2rcd13ifvqc4g","pricing_plan_id":"cebpf4jnsgd1na2vs0mg"},{"bike_id":"530f98db-abfa-466e-b418-7210c9ac70ca","system_id":"levelo_inurba_marseille","lat":43.28613,"lon":5.37054,"is_reserved":false,"is_disabled":false,"rental_uris":{"android":"levelo://app?vid=530f98db-abfa-466e-b418-7210c9ac70ca","ios":"levelo://app?vid=530f98db-abfa-466e-b418-7210c9ac70ca"},"vehicle_type_id":"4","last_reported":1758374105,"current_range_meters":5600,"station_id":"ce4bht12rcd13ifvqi60","pricing_plan_id":"cebpf4jnsgd1na2vs0mg"},{"bike_id":"eeddaf43-f6d0-45d7-9edd-834a0cb10d7c","system_id":"levelo_inurba_marseille","lat":43.28462,"lon":5.3589,"is_reserved":false,"is_disabled":false,"rental_uris":{"android":"levelo://app?vid=eeddaf43-f6d0-45d7-9edd-834a0cb10d7c","ios":"levelo://app?vid=eeddaf43-f6d0-45d7-9edd-834a0cb10d7c"},"vehicle_type_id":"4","last_reported":1758374105,"current_range_meters":6000,"station_id":"ce4bhah2rcd13ifvqei0","pricing_plan_id":"cebpf4jnsgd1na2vs0mg"},{"bike_id":"a00e9f09-0b15-4f5d-9cdb-c783153ca59c","system_id":"levelo_inurba_marseille","lat":43.27056,"lon":5.40261,"is_reserved":false,"is_disabled":false,"rental_uris":{"android":"levelo://app?vid=a00e9f09-0b15-4f5d-9cdb-c783153ca59c","ios":"levelo://app?vid=a00e9f09-0b15-4f5d-9cdb-c783153ca59c"},"vehicle_type_id":"4","last_reported":1758374105,"current_range_meters":6000,"station_id":"ce4bhk92rcd13ifvqgc0","pricing_plan_id":"cebpf4jnsgd1na2vs0mg"},{"bike_id":"19244ac8-123d-4226-a24e-17677598d1de","system_id":"levelo_inurba_marseille","lat":43.2656,"lon":5.37284,"is_reserved":false,"is_disabled":false,"rental_uris":{"android":"levelo://app?vid=19244ac8-123d-4226-a24e-17677598d1de","ios":"levelo://app?vid=19244ac8-123d-4226-a24e-17677598d1de"},"vehicle_type_id":"4","last_reported":1758374105,"current_range_meters":6400,"station_id":"ce4bhg12rcd13ifvqf70","pricing_plan_id":"cebpf4jnsgd1na2vs0mg"},{"bike_id":"cad97885-b582-49b2-8b83-0a6c3d079fc6","system_id":"levelo_inurba_marseille","lat":43.297018,"lon":5.365873,"is_reserved":false,"is_disabled":false,"rental_uris":{"android":"levelo://app?vid=cad97885-b582-49b2-8b83-0a6c3d079fc6","ios":"levelo://app?vid=cad97885-b582-49b2-8b83-0a6c3d079fc6"},"vehicle_type_id":"4","last_reported":1758374105,"current_range_meters":6400,"station_id":"ce4bgn12rcd13ifvqbt0","pricing_plan_id":"cebpf4jnsgd1na2vs0mg"},{"bike_id":"b23d2fbe-6635-4b80-9850-7a61fde3306d","system_id":"levelo_inurba_marseille","lat":43.25115,"lon":5.40319,"is_reserved":false,"is_disabled":false,"rental_uris":{"android":"levelo://app?vid=b23d2fbe-6635-4b80-9850-7a61fde3306d","ios":"levelo://app?vid=b23d2fbe-6635-4b80-9850-7a61fde3306d"},"vehicle_type_id":"4","last_reported":1758374105,"current_range_meters":6400,"station_id":"ce4bhlh2rcd13ifvqgig","pricing_plan_id":"cebpf4jnsgd1na2vs0mg"},{"bike_id":"dd54508b-cebc-429e-947d-94cace74c022","system_id":"levelo_inurba_marseille","lat":43.239616,"lon":5.366262,"is_reserved":false,"is_disabled":true,"rental_uris":{"android":"levelo://app?vid=dd54508b-cebc-429e-947d-94cace74c022","ios":"levelo://app?vid=dd54508b-cebc-429e-947d-94cace74c022"},"vehicle_type_id":"4","last_reported":1758374105,"current_range_meters":6400,"station_id":"ce4bhi12rcd13ifvqfp0","pricing_plan_id":"cebpf4jnsgd1na2vs0mg"},{"bike_id":"ea055352-0d2b-42df-99da-8b0a573ed6e5","system_id":"levelo_inurba_marseille","lat":43.29846,"lon":5.36274,"is_reserved":false,"is_disabled":false,"rental_uris":{"android":"levelo://app?vid=ea055352-0d2b-42df-99da-8b0a573ed6e5","ios":"levelo://app?vid=ea055352-0d2b-42df-99da-8b0a573ed6e5"},"vehicle_type_id":"4","last_reported":1758374105,"current_range_meters":6400,"station_id":"ce4bgpp2rcd13ifvqc3g","pricing_plan_id":"cebpf4jnsgd1na2vs0mg"},{"bike_id":"0e9a8f15-1d43-4770-9abc-a55468c250d6","system_id":"levelo_inurba_marseille","lat":43.25342,"lon":5.42171,"is_reserved":false,"is_disabled":false,"rental_uris":{"android":"levelo://app?vid=0e9a8f15-1d43-4770-9abc-a55468c250d6","ios":"levelo://app?vid=0e9a8f15-1d43-4770-9abc-a55468c250d6"},"vehicle_type_id":"4","last_reported":1758374105,"current_range_meters":6400,"station_id":"st_d2m65c5bi1j21697t3ng","pricing_plan_id":"cebpf4jnsgd1na2vs0mg"},{"bike_id":"5b46e134-80d0-4812-9418-f1c9533cfbed","system_id":"levelo_inurba_marseille","lat":43.311,"lon":5.377428,"is_reserved":false,"is_disabled":false,"rental_uris":{"android":"levelo://app?vid=5b46e134-80d0-4812-9418-f1c9533cfbed","ios":"levelo://app?vid=5b46e134-80d0-4812-9418-f1c9533cfbed"},"vehicle_type_id":"4","last_reported":1758374105,"current_range_meters":6400,"station_id":"ce4bgt92rcd13ifvqcg0","pricing_plan_id":"cebpf4jnsgd1na2vs0mg"},{"bike_id":"27cc2023-610f-4a78-ba41-0db80692ecc6","system_id":"levelo_inurba_marseille","lat":43.22573,"lon":5.4163,"is_reserved":false,"is_disabled":false,"rental_uris":{"android":"levelo://app?vid=27cc2023-610f-4a78-ba41-0db80692ecc6","ios":"levelo://app?vid=27cc2023-610f-4a78-ba41-0db80692ecc6"},"vehicle_type_id":"4","last_reported":1758374105,"current_range_meters":6400,"station_id":"st_d2o4gvlbi1j2169b742g","pricing_plan_id":"cebpf4jnsgd1na2vs0mg"},{"bike_id":"0b8d4374-a588-45d6-afe9-e352b844908c","system_id":"levelo_inurba_marseille","lat":43.24398,"lon":5.37062,"is_reserved":false,"is_disabled":false,"rental_uris":{"android":"levelo://app?vid=0b8d4374-a588-45d6-afe9-e352b844908c","ios":"levelo://app?vid=0b8d4374-a588-45d6-afe9-e352b844908c"},"vehicle_type_id":"4","last_reported":1758374105,"current_range_meters":6400,"station_id":"ce4bhhh2rcd13ifvqfk0","pricing_plan_id":"cebpf4jnsgd1na2vs0mg"},{"bike_id":"09e16349-e64b-44cc-85ba-9467bc64ec47","system_id":"levelo_inurba_marseille","lat":43.26553,"lon":5.37285,"is_reserved":false,"is_disabled":false,"rental_uris":{"android":"levelo://app?vid=09e16349-e64b-44cc-85ba-9467bc64ec47","ios":"levelo://app?vid=09e16349-e64b-44cc-85ba-9467bc64ec47"},"vehicle_type_id":"4","last_reported":1758374105,"current_range_meters":6400,"station_id":"ce4bhg12rcd13ifvqf70","pricing_plan_id":"cebpf4jnsgd1na2vs0mg"},{"bike_id":"cf18fc67-aa17-4502-8cd8-28ac4b252f47","system_id":"levelo_inurba_marseille","lat":43.231866,"lon":5.399848,"is_reserved":false,"is_disabled":false,"rental_uris":{"android":"levelo://app?vid=cf18fc67-aa17-4502-8cd8-28ac4b252f47","ios":"levelo://app?vid=cf18fc67-aa17-4502-8cd8-28ac4b252f47"},"vehicle_type_id":"4","last_reported":1758374105,"current_range_meters":6800,"station_id":"ce4bhn12rcd13ifvqgqg","pricing_plan_id":"cebpf4jnsgd1na2vs0mg"},{"bike_id":"c3139e2c-9acb-4303-8cea-b83d3a35b84b","system_id":"levelo_inurba_marseille","lat":43.30381,"lon":5.42468,"is_reserved":false,"is_disabled":false,"rental_uris":{"android":"levelo://app?vid=c3139e2c-9acb-4303-8cea-b83d3a35b84b","ios":"levelo://app?vid=c3139e2c-9acb-4303-8cea-b83d3a35b84b"},"vehicle_type_id":"4","last_reported":1758374105,"current_range_meters":6800,"station_id":"ce4bhoh2rcd13ifvqh6g","pricing_plan_id":"cebpf4jnsgd1na2vs0mg"},{"bike_id":"64628445-a564-4b13-a4aa-b1dd4a768837","system_id":"levelo_inurba_marseille","lat":43.22565,"lon":5.41639,"is_reserved":false,"is_disabled":false,"rental_uris":{"android":"levelo://app?vid=64628445-a564-4b13-a4aa-b1dd4a768837","ios":"levelo://app?vid=64628445-a564-4b13-a4aa-b1dd4a768837"},"vehicle_type_id":"4","last_reported":1758374105,"current_range_meters":6800,"station_id":"st_d2o4gvlbi1j2169b742g","pricing_plan_id":"cebpf4jnsgd1na2vs0mg"},{"bike_id":"21fe06dd-52a9-4668-8042-8be92f84d138","system_id":"levelo_inurba_marseille","lat":43.30665,"lon":5.40088,"is_reserved":false,"is_disabled":false,"rental_uris":{"android":"levelo://app?vid=21fe06dd-52a9-4668-8042-8be92f84d138","ios":"levelo://app?vid=21fe06dd-52a9-4668-8042-8be92f84d138"},"vehicle_type_id":"4","last_reported":1758374105,"current_range_meters":6800,"station_id":"ce4bh112rcd13ifvqda0","pricing_plan_id":"cebpf4jnsgd1na2vs0mg"},{"bike_id":"d3f6e9e8-9364-4a93-b986-ef736ab400c4","system_id":"levelo_inurba_marseille","lat":43.27077,"lon":5.42274,"is_reserved":false,"is_disabled":false,"rental_uris":{"android":"levelo://app?vid=d3f6e9e8-9364-4a93-b986-ef736ab400c4","ios":"levelo://app?vid=d3f6e9e8-9364-4a93-b986-ef736ab400c4"},"vehicle_type_id":"4","last_reported":1758374105,"current_range_meters":7200,"station_id":"ce4bhk92rcd13ifvqgb0","pricing_plan_id":"cebpf4jnsgd1na2vs0mg"},{"bike_id":"86e652c7-6730-401e-87f2-53dc4551f8c7","system_id":"levelo_inurba_marseille","lat":43.30254,"lon":5.40086,"is_reserved":false,"is_disabled":false,"rental_uris":{"android":"levelo://app?vid=86e652c7-6730-401e-87f2-53dc4551f8c7","ios":"levelo://app?vid=86e652c7-6730-401e-87f2-53dc4551f8c7"},"vehicle_type_id":"4","last_reported":1758374105,"current_range_meters":7200,"station_id":"ce4bgvh2rcd13ifvqcs0","pricing_plan_id":"cebpf4jnsgd1na2vs0mg"},{"bike_id":"2d547a1c-cb3c-4940-ba54-70688e6ca61c","system_id":"levelo_inurba_marseille","lat":43.23048,"lon":5.35515,"is_reserved":false,"is_disabled":false,"rental_uris":{"android":"levelo://app?vid=2d547a1c-cb3c-4940-ba54-70688e6ca61c","ios":"levelo://app?vid=2d547a1c-cb3c-4940-ba54-70688e6ca61c"},"vehicle_type_id":"4","last_reported":1758374105,"current_range_meters":7200,"station_id":"cpo3342slgdg3j2ifvpg","pricing_plan_id":"cebpf4jnsgd1na2vs0mg"},{"bike_id":"2c506e7d-0253-4252-b21f-01c1dffc4bfa","system_id":"levelo_inurba_marseille","lat":43.22568,"lon":5.41625,"is_reserved":false,"is_disabled":false,"rental_uris":{"android":"levelo://app?vid=2c506e7d-0253-4252-b21f-01c1dffc4bfa","ios":"levelo://app?vid=2c506e7d-0253-4252-b21f-01c1dffc4bfa"},"vehicle_type_id":"4","last_reported":1758374105,"current_range_meters":7200,"station_id":"st_d2o4gvlbi1j2169b742g","pricing_plan_id":"cebpf4jnsgd1na2vs0mg"},{"bike_id":"3c9735e9-fd7e-4079-8199-725760347837","system_id":"levelo_inurba_marseille","lat":43.21196,"lon":5.35073,"is_reserved":false,"is_disabled":false,"rental_uris":{"android":"levelo://app?vid=3c9735e9-fd7e-4079-8199-725760347837","ios":"levelo://app?vid=3c9735e9-fd7e-4079-8199-725760347837"},"vehicle_type_id":"4","last_reported":1758374105,"current_range_meters":8000,"station_id":"st_cvj6sg6p6f1abm77japg","pricing_plan_id":"cebpf4jnsgd1na2vs0mg"},{"bike_id":"e1065c32-ac19-477b-812a-39f964d50769","system_id":"levelo_inurba_marseille","lat":43.23208,"lon":5.35542,"is_reserved":false,"is_disabled":false,"rental_uris":{"android":"levelo://app?vid=e1065c32-ac19-477b-812a-39f964d50769","ios":"levelo://app?vid=e1065c32-ac19-477b-812a-39f964d50769"},"vehicle_type_id":"4","last_reported":1758374105,"current_range_meters":8000,"station_id":"ce4bhu92rcd13ifvqi70","pricing_plan_id":"cebpf4jnsgd1na2vs0mg"},{"bike_id":"d2708f3c-697f-4860-a382-b2870bd7ad6a","system_id":"levelo_inurba_marseille","lat":43.29913,"lon":5.37467,"is_reserved":false,"is_disabled":false,"rental_uris":{"android":"levelo://app?vid=d2708f3c-697f-4860-a382-b2870bd7ad6a","ios":"levelo://app?vid=d2708f3c-697f-4860-a382-b2870bd7ad6a"},"vehicle_type_id":"4","last_reported":1758374105,"current_range_meters":8000,"station_id":"ce4bgjh2rcd13ifvqbg0","pricing_plan_id":"cebpf4jnsgd1na2vs0mg"},{"bike_id":"e80dd85e-1870-44cd-a420-29618f36ead4","system_id":"levelo_inurba_marseille","lat":43.23048,"lon":5.3548,"is_reserved":false,"is_disabled":false,"rental_uris":{"android":"levelo://app?vid=e80dd85e-1870-44cd-a420-29618f36ead4","ios":"levelo://app?vid=e80dd85e-1870-44cd-a420-29618f36ead4"},"vehicle_type_id":"4","last_reported":1758374105,"current_range_meters":8000,"station_id":"cpo3342slgdg3j2ifvpg","pricing_plan_id":"cebpf4jnsgd1na2vs0mg"},{"bike_id":"1c647894-2185-428f-a6b7-d3e8d7dde366","system_id":"levelo_inurba_marseille","lat":43.21187,"lon":5.35071,"is_reserved":false,"is_disabled":false,"rental_uris":{"android":"levelo://app?vid=1c647894-2185-428f-a6b7-d3e8d7dde366","ios":"levelo://app?vid=1c647894-2185-428f-a6b7-d3e8d7dde366"},"vehicle_type_id":"4","last_reported":1758374105,"current_range_meters":8000,"station_id":"st_cvj6sg6p6f1abm77japg","pricing_plan_id":"cebpf4jnsgd1na2vs0mg"},{"bike_id":"233b4c31-90d6-4eeb-8f73-46f423dd0b1c","system_id":"levelo_inurba_marseille","lat":43.23188,"lon":5.39983,"is_reserved":false,"is_disabled":false,"rental_uris":{"android":"levelo://app?vid=233b4c31-90d6-4eeb-8f73-46f423dd0b1c","ios":"levelo://app?vid=233b4c31-90d6-4eeb-8f73-46f423dd0b1c"},"vehicle_type_id":"4","last_reported":1758374105,"current_range_meters":8000,"station_id":"ce4bhn12rcd13ifvqgqg","pricing_plan_id":"cebpf4jnsgd1na2vs0mg"},{"bike_id":"84c87e85-d1e1-4e29-a42b-82d5f509cdea","system_id":"levelo_inurba_marseille","lat":43.23067,"lon":5.35449,"is_reserved":false,"is_disabled":false,"rental_uris":{"android":"levelo://app?vid=84c87e85-d1e1-4e29-a42b-82d5f509cdea","ios":"levelo://app?vid=84c87e85-d1e1-4e29-a42b-82d5f509cdea"},"vehicle_type_id":"4","last_reported":1758374105,"current_range_meters":8000,"station_id":"cpo3342slgdg3j2ifvpg","pricing_plan_id":"cebpf4jnsgd1na2vs0mg"},{"bike_id":"de5a0d9b-62ad-4831-84e8-4e431c4b3d68","system_id":"levelo_inurba_marseille","lat":43.28561,"lon":5.39485,"is_reserved":false,"is_disabled":false,"rental_uris":{"android":"levelo://app?vid=de5a0d9b-62ad-4831-84e8-4e431c4b3d68","ios":"levelo://app?vid=de5a0d9b-62ad-4831-84e8-4e431c4b3d68"},"vehicle_type_id":"4","last_reported":1758374105,"current_range_meters":7200,"station_id":"ce4bh292rcd13ifvqdg0","pricing_plan_id":"cebpf4jnsgd1na2vs0mg"},{"bike_id":"0fbc0ce6-a3ce-477d-a1ae-e79beb243e17","system_id":"levelo_inurba_marseille","lat":43.21763,"lon":5.34593,"is_reserved":false,"is_disabled":false,"rental_uris":{"android":"levelo://app?vid=0fbc0ce6-a3ce-477d-a1ae-e79beb243e17","ios":"levelo://app?vid=0fbc0ce6-a3ce-477d-a1ae-e79beb243e17"},"vehicle_type_id":"4","last_reported":1758374105,"current_range_meters":8400,"station_id":"st_cvj6r9ubvosntc0bgbag","pricing_plan_id":"cebpf4jnsgd1na2vs0mg"},{"bike_id":"fb78ea42-e26f-45b3-a617-d3474b811b72","system_id":"levelo_inurba_marseille","lat":43.298738,"lon":5.379346,"is_reserved":false,"is_disabled":false,"rental_uris":{"android":"levelo://app?vid=fb78ea42-e26f-45b3-a617-d3474b811b72","ios":"levelo://app?vid=fb78ea42-e26f-45b3-a617-d3474b811b72"},"vehicle_type_id":"4","last_reported":1758374105,"current_range_meters":8400,"station_id":"","pricing_plan_id":"cebpf4jnsgd1na2vs0mg"},{"bike_id":"6f0f9740-2be7-4074-a779-550afdb8e51d","system_id":"levelo_inurba_marseille","lat":43.2396,"lon":5.36623,"is_reserved":false,"is_disabled":false,"rental_uris":{"android":"levelo://app?vid=6f0f9740-2be7-4074-a779-550afdb8e51d","ios":"levelo://app?vid=6f0f9740-2be7-4074-a779-550afdb8e51d"},"vehicle_type_id":"4","last_reported":1758374105,"current_range_meters":8400,"station_id":"ce4bhi12rcd13ifvqfp0","pricing_plan_id":"cebpf4jnsgd1na2vs0mg"},{"bike_id":"3082f593-a5a6-48f9-afa8-383813f7af0b","system_id":"levelo_inurba_marseille","lat":43.21739,"lon":5.34603,"is_reserved":false,"is_disabled":true,"rental_uris":{"android":"levelo://app?vid=3082f593-a5a6-48f9-afa8-383813f7af0b","ios":"levelo://app?vid=3082f593-a5a6-48f9-afa8-383813f7af0b"},"vehicle_type_id":"4","last_reported":1758374105,"current_range_meters":8400,"station_id":"","pricing_plan_id":"cebpf4jnsgd1na2vs0mg"},{"bike_id":"5bb42022-0e19-48bc-a5b4-218bb1d7482e","system_id":"levelo_inurba_marseille","lat":43.3126,"lon":5.37744,"is_reserved":false,"is_disabled":false,"rental_uris":{"android":"levelo://app?vid=5bb42022-0e19-48bc-a5b4-218bb1d7482e","ios":"levelo://app?vid=5bb42022-0e19-48bc-a5b4-218bb1d7482e"},"vehicle_type_id":"4","last_reported":1758374105,"current_range_meters":8400,"station_id":"","pricing_plan_id":"cebpf4jnsgd1na2vs0mg"},{"bike_id":"8d9646ef-cb85-432c-84d0-0b8af6dbee7e","system_id":"levelo_inurba_marseille","lat":43.24803,"lon":5.37451,"is_reserved":false,"is_disabled":false,"rental_uris":{"android":"levelo://app?vid=8d9646ef-cb85-432c-84d0-0b8af6dbee7e","ios":"levelo://app?vid=8d9646ef-cb85-432c-84d0-0b8af6dbee7e"},"vehicle_type_id":"4","last_reported":1758374105,"current_range_meters":8400,"station_id":"ce4bhgh2rcd13ifvqfb0","pricing_plan_id":"cebpf4jnsgd1na2vs0mg"},{"bike_id":"bf6e6d27-c09e-4725-9fbc-20073fd5a515","system_id":"levelo_inurba_marseille","lat":43.289376,"lon":5.396214,"is_reserved":false,"is_disabled":false,"rental_uris":{"android":"levelo://app?vid=bf6e6d27-c09e-4725-9fbc-20073fd5a515","ios":"levelo://app?vid=bf6e6d27-c09e-4725-9fbc-20073fd5a515"},"vehicle_type_id":"4","last_reported":1758374105,"current_range_meters":8400,"station_id":"","pricing_plan_id":"cebpf4jnsgd1na2vs0mg"},{"bike_id":"0c824cab-4f67-4d04-85a6-8dd418a5090e","system_id":"levelo_inurba_marseille","lat":43.27618,"lon":5.36111,"is_reserved":false,"is_disabled":false,"rental_uris":{"android":"levelo://app?vid=0c824cab-4f67-4d04-85a6-8dd418a5090e","ios":"levelo://app?vid=0c824cab-4f67-4d04-85a6-8dd418a5090e"},"vehicle_type_id":"4","last_reported":1758374105,"current_range_meters":8400,"station_id":"ce4bgj92rcd13ifvqbe0","pricing_plan_id":"cebpf4jnsgd1na2vs0mg"},{"bike_id":"c5ee63a8-9ba7-470c-8ef4-7593c337dce5","system_id":"levelo_inurba_marseille","lat":43.24186,"lon":5.36381,"is_reserved":false,"is_disabled":false,"rental_uris":{"android":"levelo://app?vid=c5ee63a8-9ba7-470c-8ef4-7593c337dce5","ios":"levelo://app?vid=c5ee63a8-9ba7-470c-8ef4-7593c337dce5"},"vehicle_type_id":"4","last_reported":1758374105,"current_range_meters":8400,"station_id":"cpo36qri1sfpv3e86is0","pricing_plan_id":"cebpf4jnsgd1na2vs0mg"},{"bike_id":"32397ca5-e787-47de-92d2-cee0e73ef682","system_id":"levelo_inurba_marseille","lat":43.239633,"lon":5.366293,"is_reserved":false,"is_disabled":false,"rental_uris":{"android":"levelo://app?vid=32397ca5-e787-47de-92d2-cee0e73ef682","ios":"levelo://app?vid=32397ca5-e787-47de-92d2-cee0e73ef682"},"vehicle_type_id":"4","last_reported":1758374105,"current_range_meters":8400,"station_id":"ce4bhi12rcd13ifvqfp0","pricing_plan_id":"cebpf4jnsgd1na2vs0mg"},{"bike_id":"0960e3dd-c358-4474-bd10-8223758e1f6b","system_id":"levelo_inurba_marseille","lat":43.296996,"lon":5.376855,"is_reserved":false,"is_disabled":false,"rental_uris":{"android":"levelo://app?vid=0960e3dd-c358-4474-bd10-8223758e1f6b","ios":"levelo://app?vid=0960e3dd-c358-4474-bd10-8223758e1f6b"},"vehicle_type_id":"4","last_reported":1758374105,"current_range_meters":8400,"station_id":"","pricing_plan_id":"cebpf4jnsgd1na2vs0mg"},{"bike_id":"0aa31d0e-979c-4df4-b736-ab1fbc9c198e","system_id":"levelo_inurba_marseille","lat":43.26567,"lon":5.40337,"is_reserved":false,"is_disabled":false,"rental_uris":{"android":"levelo://app?vid=0aa31d0e-979c-4df4-b736-ab1fbc9c198e","ios":"levelo://app?vid=0aa31d0e-979c-4df4-b736-ab1fbc9c198e"},"vehicle_type_id":"4","last_reported":1758374105,"current_range_meters":8400,"station_id":"ce4bhmp2rcd13ifvqgng","pricing_plan_id":"cebpf4jnsgd1na2vs0mg"},{"bike_id":"3e682cf4-5ea7-4563-9004-71435c031ec4","system_id":"levelo_inurba_marseille","lat":43.21199,"lon":5.35055,"is_reserved":false,"is_disabled":false,"rental_uris":{"android":"levelo://app?vid=3e682cf4-5ea7-4563-9004-71435c031ec4","ios":"levelo://app?vid=3e682cf4-5ea7-4563-9004-71435c031ec4"},"vehicle_type_id":"4","last_reported":1758374105,"current_range_meters":8800,"station_id":"st_cvj6sg6p6f1abm77japg","pricing_plan_id":"cebpf4jnsgd1na2vs0mg"},{"bike_id":"4974e35e-3695-4e71-877f-aa9f9de46879","system_id":"levelo_inurba_marseille","lat":43.21762,"lon":5.34592,"is_reserved":false,"is_disabled":false,"rental_uris":{"android":"levelo://app?vid=4974e35e-3695-4e71-877f-aa9f9de46879","ios":"levelo://app?vid=4974e35e-3695-4e71-877f-aa9f9de46879"},"vehicle_type_id":"4","last_reported":1758374105,"current_range_meters":8800,"station_id":"st_cvj6r9ubvosntc0bgbag","pricing_plan_id":"cebpf4jnsgd1na2vs0mg"},{"bike_id":"250c3dae-55bf-4250-9fbc-1e4ab77e9812","system_id":"levelo_inurba_marseille","lat":43.23955,"lon":5.36633,"is_reserved":false,"is_disabled":false,"rental_uris":{"android":"levelo://app?vid=250c3dae-55bf-4250-9fbc-1e4ab77e9812","ios":"levelo://app?vid=250c3dae-55bf-4250-9fbc-1e4ab77e9812"},"vehicle_type_id":"4","last_reported":1758374105,"current_range_meters":8800,"station_id":"ce4bhi12rcd13ifvqfp0","pricing_plan_id":"cebpf4jnsgd1na2vs0mg"},{"bike_id":"7a41886c-9cd8-4eef-b9e6-c54107841f89","system_id":"levelo_inurba_marseille","lat":43.29008,"lon":5.35613,"is_reserved":false,"is_disabled":false,"rental_uris":{"android":"levelo://app?vid=7a41886c-9cd8-4eef-b9e6-c54107841f89","ios":"levelo://app?vid=7a41886c-9cd8-4eef-b9e6-c54107841f89"},"vehicle_type_id":"4","last_reported":1758374105,"current_range_meters":8800,"station_id":"ce4bhb92rcd13ifvqen0","pricing_plan_id":"cebpf4jnsgd1na2vs0mg"},{"bike_id":"c627b34a-8e81-4438-af3b-4fd0aab1c160","system_id":"levelo_inurba_marseille","lat":43.29651,"lon":5.36039,"is_reserved":false,"is_disabled":false,"rental_uris":{"android":"levelo://app?vid=c627b34a-8e81-4438-af3b-4fd0aab1c160","ios":"levelo://app?vid=c627b34a-8e81-4438-af3b-4fd0aab1c160"},"vehicle_type_id":"4","last_reported":1758374105,"current_range_meters":8800,"station_id":"","pricing_plan_id":"cebpf4jnsgd1na2vs0mg"},{"bike_id":"2a774301-b3f7-492c-a5b3-457055e8a0fd","system_id":"levelo_inurba_marseille","lat":43.25118,"lon":5.40319,"is_reserved":false,"is_disabled":false,"rental_uris":{"android":"levelo://app?vid=2a774301-b3f7-492c-a5b3-457055e8a0fd","ios":"levelo://app?vid=2a774301-b3f7-492c-a5b3-457055e8a0fd"},"vehicle_type_id":"4","last_reported":1758374105,"current_range_meters":9200,"station_id":"ce4bhlh2rcd13ifvqgig","pricing_plan_id":"cebpf4jnsgd1na2vs0mg"},{"bike_id":"7dd65b1b-fb7b-4087-9803-34d477de11ae","system_id":"levelo_inurba_marseille","lat":43.21189,"lon":5.35071,"is_reserved":false,"is_disabled":false,"rental_uris":{"android":"levelo://app?vid=7dd65b1b-fb7b-4087-9803-34d477de11ae","ios":"levelo://app?vid=7dd65b1b-fb7b-4087-9803-34d477de11ae"},"vehicle_type_id":"4","last_reported":1758374105,"current_range_meters":9200,"station_id":"st_cvj6sg6p6f1abm77japg","pricing_plan_id":"cebpf4jnsgd1na2vs0mg"},{"bike_id":"2f71b40b-d398-4198-bfb1-368e5cbb14df","system_id":"levelo_inurba_marseille","lat":43.30138,"lon":5.38063,"is_reserved":false,"is_disabled":false,"rental_uris":{"android":"levelo://app?vid=2f71b40b-d398-4198-bfb1-368e5cbb14df","ios":"levelo://app?vid=2f71b40b-d398-4198-bfb1-368e5cbb14df"},"vehicle_type_id":"4","last_reported":1758374105,"current_range_meters":9200,"station_id":"ce4bgjp2rcd13ifvqbh0","pricing_plan_id":"cebpf4jnsgd1na2vs0mg"},{"bike_id":"1430fc4f-fc96-49aa-af4a-d8f27c56e9ad","system_id":"levelo_inurba_marseille","lat":43.26201,"lon":5.37932,"is_reserved":false,"is_disabled":false,"rental_uris":{"android":"levelo://app?vid=1430fc4f-fc96-49aa-af4a-d8f27c56e9ad","ios":"levelo://app?vid=1430fc4f-fc96-49aa-af4a-d8f27c56e9ad"},"vehicle_type_id":"4","last_reported":1758374105,"current_range_meters":9200,"station_id":"ce4bhjp2rcd13ifvqg90","pricing_plan_id":"cebpf4jnsgd1na2vs0mg"},{"bike_id":"c41e2d3d-8708-49ff-81fd-d3f8ea7aae45","system_id":"levelo_inurba_marseille","lat":43.21751,"lon":5.34601,"is_reserved":false,"is_disabled":false,"rental_uris":{"android":"levelo://app?vid=c41e2d3d-8708-49ff-81fd-d3f8ea7aae45","ios":"levelo://app?vid=c41e2d3d-8708-49ff-81fd-d3f8ea7aae45"},"vehicle_type_id":"4","last_reported":1758374105,"current_range_meters":9200,"station_id":"st_cvj6r9ubvosntc0bgbag","pricing_plan_id":"cebpf4jnsgd1na2vs0mg"},{"bike_id":"918454b6-f4e2-4f36-9b9f-1169daf69b69","system_id":"levelo_inurba_marseille","lat":43.27393,"lon":5.36267,"is_reserved":false,"is_disabled":false,"rental_uris":{"android":"levelo://app?vid=918454b6-f4e2-4f36-9b9f-1169daf69b69","ios":"levelo://app?vid=918454b6-f4e2-4f36-9b9f-1169daf69b69"},"vehicle_type_id":"4","last_reported":1758374105,"current_range_meters":9200,"station_id":"ce4bhbh2rcd13ifvqeo0","pricing_plan_id":"cebpf4jnsgd1na2vs0mg"},{"bike_id":"33d69153-3ab1-466b-9006-3187feb06b56","system_id":"levelo_inurba_marseille","lat":43.21198,"lon":5.35081,"is_reserved":false,"is_disabled":false,"rental_uris":{"android":"levelo://app?vid=33d69153-3ab1-466b-9006-3187feb06b56","ios":"levelo://app?vid=33d69153-3ab1-466b-9006-3187feb06b56"},"vehicle_type_id":"4","last_reported":1758374105,"current_range_meters":9600,"station_id":"st_cvj6sg6p6f1abm77japg","pricing_plan_id":"cebpf4jnsgd1na2vs0mg"},{"bike_id":"f9f32174-e3fe-44c0-affb-3f7547d8ffbd","system_id":"levelo_inurba_marseille","lat":43.3133,"lon":5.39712,"is_reserved":false,"is_disabled":false,"rental_uris":{"android":"levelo://app?vid=f9f32174-e3fe-44c0-affb-3f7547d8ffbd","ios":"levelo://app?vid=f9f32174-e3fe-44c0-affb-3f7547d8ffbd"},"vehicle_type_id":"4","last_reported":1758374105,"current_range_meters":9600,"station_id":"ce4bgvp2rcd13ifvqcu0","pricing_plan_id":"cebpf4jnsgd1na2vs0mg"},{"bike_id":"eb7fa1b5-17e3-43e5-afee-4d26243c73e7","system_id":"levelo_inurba_marseille","lat":43.28247,"lon":5.35067,"is_reserved":false,"is_disabled":false,"rental_uris":{"android":"levelo://app?vid=eb7fa1b5-17e3-43e5-afee-4d26243c73e7","ios":"levelo://app?vid=eb7fa1b5-17e3-43e5-afee-4d26243c73e7"},"vehicle_type_id":"4","last_reported":1758374105,"current_range_meters":9600,"station_id":"ce4bhbp2rcd13ifvqerg","pricing_plan_id":"cebpf4jnsgd1na2vs0mg"},{"bike_id":"31866e5f-6b4e-4ed4-a685-65432776d1b5","system_id":"levelo_inurba_marseille","lat":43.3266,"lon":5.40993,"is_reserved":false,"is_disabled":false,"rental_uris":{"android":"levelo://app?vid=31866e5f-6b4e-4ed4-a685-65432776d1b5","ios":"levelo://app?vid=31866e5f-6b4e-4ed4-a685-65432776d1b5"},"vehicle_type_id":"4","last_reported":1758374105,"current_range_meters":9200,"station_id":"ce4bhpp2rcd13ifvqhgg","pricing_plan_id":"cebpf4jnsgd1na2vs0mg"},{"bike_id":"59bd4cb6-738b-4a58-b4c8-d31d19caa3cf","system_id":"levelo_inurba_marseille","lat":43.22932,"lon":5.35375,"is_reserved":false,"is_disabled":false,"rental_uris":{"android":"levelo://app?vid=59bd4cb6-738b-4a58-b4c8-d31d19caa3cf","ios":"levelo://app?vid=59bd4cb6-738b-4a58-b4c8-d31d19caa3cf"},"vehicle_type_id":"4","last_reported":1758374105,"current_range_meters":9600,"station_id":"cpo3532slgdg3j2ikp40","pricing_plan_id":"cebpf4jnsgd1na2vs0mg"},{"bike_id":"fcb3f6af-c7d4-4ccc-be82-7f951e8865a2","system_id":"levelo_inurba_marseille","lat":43.21203,"lon":5.35056,"is_reserved":false,"is_disabled":false,"rental_uris":{"android":"levelo://app?vid=fcb3f6af-c7d4-4ccc-be82-7f951e8865a2","ios":"levelo://app?vid=fcb3f6af-c7d4-4ccc-be82-7f951e8865a2"},"vehicle_type_id":"4","last_reported":1758374105,"current_range_meters":10000,"station_id":"st_cvj6sg6p6f1abm77japg","pricing_plan_id":"cebpf4jnsgd1na2vs0mg"},{"bike_id":"5a55bbbb-ad71-4f35-ab58-fbc65e9a80d5","system_id":"levelo_inurba_marseille","lat":43.29165,"lon":5.3716,"is_reserved":false,"is_disabled":false,"rental_uris":{"android":"levelo://app?vid=5a55bbbb-ad71-4f35-ab58-fbc65e9a80d5","ios":"levelo://app?vid=5a55bbbb-ad71-4f35-ab58-fbc65e9a80d5"},"vehicle_type_id":"4","last_reported":1758374105,"current_range_meters":8400,"station_id":"ce4bha92rcd13ifvqeh0","pricing_plan_id":"cebpf4jnsgd1na2vs0mg"},{"bike_id":"b10e10cf-8bd8-47ea-906b-3393ba7c9e07","system_id":"levelo_inurba_marseille","lat":43.25005,"lon":5.38922,"is_reserved":false,"is_disabled":false,"rental_uris":{"android":"levelo://app?vid=b10e10cf-8bd8-47ea-906b-3393ba7c9e07","ios":"levelo://app?vid=b10e10cf-8bd8-47ea-906b-3393ba7c9e07"},"vehicle_type_id":"4","last_reported":1758374105,"current_range_meters":10000,"station_id":"ce4bhgp2rcd13ifvqfd0","pricing_plan_id":"cebpf4jnsgd1na2vs0mg"},{"bike_id":"c06f205f-b149-48e1-af6e-4e386850564e","system_id":"levelo_inurba_marseille","lat":43.24395,"lon":5.37057,"is_reserved":false,"is_disabled":true,"rental_uris":{"android":"levelo://app?vid=c06f205f-b149-48e1-af6e-4e386850564e","ios":"levelo://app?vid=c06f205f-b149-48e1-af6e-4e386850564e"},"vehicle_type_id":"4","last_reported":1758374105,"current_range_meters":10000,"station_id":"ce4bhhh2rcd13ifvqfk0","pricing_plan_id":"cebpf4jnsgd1na2vs0mg"},{"bike_id":"be959163-3ff4-4bf2-ae8d-a9fe77be5648","system_id":"levelo_inurba_marseille","lat":43.2417,"lon":5.36398,"is_reserved":false,"is_disabled":false,"rental_uris":{"android":"levelo://app?vid=be959163-3ff4-4bf2-ae8d-a9fe77be5648","ios":"levelo://app?vid=be959163-3ff4-4bf2-ae8d-a9fe77be5648"},"vehicle_type_id":"4","last_reported":1758374105,"current_range_meters":10000,"station_id":"cpo36qri1sfpv3e86is0","pricing_plan_id":"cebpf4jnsgd1na2vs0mg"},{"bike_id":"ce71c940-e2b2-4742-933d-7c14f6c66661","system_id":"levelo_inurba_marseille","lat":43.23063,"lon":5.35491,"is_reserved":false,"is_disabled":false,"rental_uris":{"android":"levelo://app?vid=ce71c940-e2b2-4742-933d-7c14f6c66661","ios":"levelo://app?vid=ce71c940-e2b2-4742-933d-7c14f6c66661"},"vehicle_type_id":"4","last_reported":1758374105,"current_range_meters":10000,"station_id":"cpo3342slgdg3j2ifvpg","pricing_plan_id":"cebpf4jnsgd1na2vs0mg"},{"bike_id":"47a5b051-3d25-4f9d-a9d4-3b4111816b42","system_id":"levelo_inurba_marseille","lat":43.22567,"lon":5.41632,"is_reserved":false,"is_disabled":false,"rental_uris":{"android":"levelo://app?vid=47a5b051-3d25-4f9d-a9d4-3b4111816b42","ios":"levelo://app?vid=47a5b051-3d25-4f9d-a9d4-3b4111816b42"},"vehicle_type_id":"4","last_reported":1758374105,"current_range_meters":10000,"station_id":"st_d2o4gvlbi1j2169b742g","pricing_plan_id":"cebpf4jnsgd1na2vs0mg"},{"bike_id":"575f379b-682e-45a6-a90b-e2da032a9ae0","system_id":"levelo_inurba_marseille","lat":43.21196,"lon":5.35071,"is_reserved":false,"is_disabled":false,"rental_uris":{"android":"levelo://app?vid=575f379b-682e-45a6-a90b-e2da032a9ae0","ios":"levelo://app?vid=575f379b-682e-45a6-a90b-e2da032a9ae0"},"vehicle_type_id":"4","last_reported":1758374105,"current_range_meters":10000,"station_id":"st_cvj6sg6p6f1abm77japg","pricing_plan_id":"cebpf4jnsgd1na2vs0mg"},{"bike_id":"ea3ad0ba-79f9-45e4-b49e-f4c99b4fe8f4","system_id":"levelo_inurba_marseille","lat":43.23156,"lon":5.43705,"is_reserved":false,"is_disabled":false,"rental_uris":{"android":"levelo://app?vid=ea3ad0ba-79f9-45e4-b49e-f4c99b4fe8f4","ios":"levelo://app?vid=ea3ad0ba-79f9-45e4-b49e-f4c99b4fe8f4"},"vehicle_type_id":"4","last_reported":1758374105,"current_range_meters":9600,"station_id":"ce4bhmp2rcd13ifvqgog","pricing_plan_id":"cebpf4jnsgd1na2vs0mg"},{"bike_id":"d618ee16-b4cf-41da-8e25-667e1fab27a6","system_id":"levelo_inurba_marseille","lat":43.21753,"lon":5.34584,"is_reserved":false,"is_disabled":false,"rental_uris":{"android":"levelo://app?vid=d618ee16-b4cf-41da-8e25-667e1fab27a6","ios":"levelo://app?vid=d618ee16-b4cf-41da-8e25-667e1fab27a6"},"vehicle_type_id":"4","last_reported":1758374105,"current_range_meters":10800,"station_id":"st_cvj6r9ubvosntc0bgbag","pricing_plan_id":"cebpf4jnsgd1na2vs0mg"},{"bike_id":"26776cd3-fd6e-4927-bde1-b189e52a7b4f","system_id":"levelo_inurba_marseille","lat":43.28945,"lon":5.39634,"is_reserved":false,"is_disabled":false,"rental_uris":{"android":"levelo://app?vid=26776cd3-fd6e-4927-bde1-b189e52a7b4f","ios":"levelo://app?vid=26776cd3-fd6e-4927-bde1-b189e52a7b4f"},"vehicle_type_id":"4","last_reported":1758374105,"current_range_meters":10800,"station_id":"ce4bh3h2rcd13ifvqdn0","pricing_plan_id":"cebpf4jnsgd1na2vs0mg"},{"bike_id":"211a966f-648f-40ef-a515-adf0fbefaced","system_id":"levelo_inurba_marseille","lat":43.243109,"lon":5.368602,"is_reserved":false,"is_disabled":false,"rental_uris":{"android":"levelo://app?vid=211a966f-648f-40ef-a515-adf0fbefaced","ios":"levelo://app?vid=211a966f-648f-40ef-a515-adf0fbefaced"},"vehicle_type_id":"4","last_reported":1758374105,"current_range_meters":10800,"station_id":"cpo36qri1sfpv3e86is0","pricing_plan_id":"cebpf4jnsgd1na2vs0mg"},{"bike_id":"ab653551-b666-438c-8f11-0eb35da00af7","system_id":"levelo_inurba_marseille","lat":43.24165,"lon":5.36394,"is_reserved":false,"is_disabled":false,"rental_uris":{"android":"levelo://app?vid=ab653551-b666-438c-8f11-0eb35da00af7","ios":"levelo://app?vid=ab653551-b666-438c-8f11-0eb35da00af7"},"vehicle_type_id":"4","last_reported":1758374105,"current_range_meters":10800,"station_id":"cpo36qri1sfpv3e86is0","pricing_plan_id":"cebpf4jnsgd1na2vs0mg"},{"bike_id":"5b84af94-a4d6-4b46-a63f-085ff5681f73","system_id":"levelo_inurba_marseille","lat":43.21192,"lon":5.35068,"is_reserved":false,"is_disabled":false,"rental_uris":{"android":"levelo://app?vid=5b84af94-a4d6-4b46-a63f-085ff5681f73","ios":"levelo://app?vid=5b84af94-a4d6-4b46-a63f-085ff5681f73"},"vehicle_type_id":"4","last_reported":1758374105,"current_range_meters":10800,"station_id":"st_cvj6sg6p6f1abm77japg","pricing_plan_id":"cebpf4jnsgd1na2vs0mg"},{"bike_id":"b766d582-d4f0-4f9a-9867-0ae0b8177870","system_id":"levelo_inurba_marseille","lat":43.21212,"lon":5.35047,"is_reserved":false,"is_disabled":false,"rental_uris":{"android":"levelo://app?vid=b766d582-d4f0-4f9a-9867-0ae0b8177870","ios":"levelo://app?vid=b766d582-d4f0-4f9a-9867-0ae0b8177870"},"vehicle_type_id":"4","last_reported":1758374105,"current_range_meters":10800,"station_id":"st_cvj6sg6p6f1abm77japg","pricing_plan_id":"cebpf4jnsgd1na2vs0mg"},{"bike_id":"13b657c5-dbfd-4c2d-97cb-887df27e484d","system_id":"levelo_inurba_marseille","lat":43.24389,"lon":5.3704,"is_reserved":false,"is_disabled":false,"rental_uris":{"android":"levelo://app?vid=13b657c5-dbfd-4c2d-97cb-887df27e484d","ios":"levelo://app?vid=13b657c5-dbfd-4c2d-97cb-887df27e484d"},"vehicle_type_id":"4","last_reported":1758374105,"current_range_meters":10800,"station_id":"ce4bhhh2rcd13ifvqfk0","pricing_plan_id":"cebpf4jnsgd1na2vs0mg"},{"bike_id":"11ea88a2-a892-4bf0-866e-97cbb250924c","system_id":"levelo_inurba_marseille","lat":43.29923,"lon":5.37464,"is_reserved":false,"is_disabled":false,"rental_uris":{"android":"levelo://app?vid=11ea88a2-a892-4bf0-866e-97cbb250924c","ios":"levelo://app?vid=11ea88a2-a892-4bf0-866e-97cbb250924c"},"vehicle_type_id":"4","last_reported":1758374105,"current_range_meters":10800,"station_id":"ce4bgjh2rcd13ifvqbg0","pricing_plan_id":"cebpf4jnsgd1na2vs0mg"},{"bike_id":"617dca4b-4508-4d52-9e62-d583d919ac44","system_id":"levelo_inurba_marseille","lat":43.29734,"lon":5.37103,"is_reserved":false,"is_disabled":false,"rental_uris":{"android":"levelo://app?vid=617dca4b-4508-4d52-9e62-d583d919ac44","ios":"levelo://app?vid=617dca4b-4508-4d52-9e62-d583d919ac44"},"vehicle_type_id":"4","last_reported":1758374105,"current_range_meters":10800,"station_id":"","pricing_plan_id":"cebpf4jnsgd1na2vs0mg"},{"bike_id":"1f585528-8638-411c-aaf1-d375c5dfda4a","system_id":"levelo_inurba_marseille","lat":43.28405,"lon":5.34983,"is_reserved":false,"is_disabled":false,"rental_uris":{"android":"levelo://app?vid=1f585528-8638-411c-aaf1-d375c5dfda4a","ios":"levelo://app?vid=1f585528-8638-411c-aaf1-d375c5dfda4a"},"vehicle_type_id":"4","last_reported":1758374105,"current_range_meters":10800,"station_id":"ce4bhbh2rcd13ifvqepg","pricing_plan_id":"cebpf4jnsgd1na2vs0mg"},{"bike_id":"605d0282-63b4-40e6-a3f5-0de13027a90e","system_id":"levelo_inurba_marseille","lat":43.284223,"lon":5.349904,"is_reserved":false,"is_disabled":false,"rental_uris":{"android":"levelo://app?vid=605d0282-63b4-40e6-a3f5-0de13027a90e","ios":"levelo://app?vid=605d0282-63b4-40e6-a3f5-0de13027a90e"},"vehicle_type_id":"4","last_reported":1758374105,"current_range_meters":10800,"station_id":"ce4bhbh2rcd13ifvqepg","pricing_plan_id":"cebpf4jnsgd1na2vs0mg"},{"bike_id":"50653f04-43cf-4e1a-a367-5b87f74c9bec","system_id":"levelo_inurba_marseille","lat":43.28259,"lon":5.35068,"is_reserved":false,"is_disabled":false,"rental_uris":{"android":"levelo://app?vid=50653f04-43cf-4e1a-a367-5b87f74c9bec","ios":"levelo://app?vid=50653f04-43cf-4e1a-a367-5b87f74c9bec"},"vehicle_type_id":"4","last_reported":1758374105,"current_range_meters":11200,"station_id":"ce4bhbp2rcd13ifvqerg","pricing_plan_id":"cebpf4jnsgd1na2vs0mg"},{"bike_id":"b77580f2-2757-4ce2-89a7-bf551bfbec7a","system_id":"levelo_inurba_marseille","lat":43.292906,"lon":5.374648,"is_reserved":false,"is_disabled":false,"rental_uris":{"android":"levelo://app?vid=b77580f2-2757-4ce2-89a7-bf551bfbec7a","ios":"levelo://app?vid=b77580f2-2757-4ce2-89a7-bf551bfbec7a"},"vehicle_type_id":"4","last_reported":1758374105,"current_range_meters":11200,"station_id":"","pricing_plan_id":"cebpf4jnsgd1na2vs0mg"},{"bike_id":"2dbb9a5f-994c-4cc3-be96-b9d4556d7225","system_id":"levelo_inurba_marseille","lat":43.28299,"lon":5.35048,"is_reserved":false,"is_disabled":false,"rental_uris":{"android":"levelo://app?vid=2dbb9a5f-994c-4cc3-be96-b9d4556d7225","ios":"levelo://app?vid=2dbb9a5f-994c-4cc3-be96-b9d4556d7225"},"vehicle_type_id":"4","last_reported":1758374105,"current_range_meters":11200,"station_id":"ce4bhbp2rcd13ifvqerg","pricing_plan_id":"cebpf4jnsgd1na2vs0mg"},{"bike_id":"b5175bf2-b970-4193-a107-a70c3097ce26","system_id":"levelo_inurba_marseille","lat":43.25337,"lon":5.4215,"is_reserved":false,"is_disabled":false,"rental_uris":{"android":"levelo://app?vid=b5175bf2-b970-4193-a107-a70c3097ce26","ios":"levelo://app?vid=b5175bf2-b970-4193-a107-a70c3097ce26"},"vehicle_type_id":"4","last_reported":1758374105,"current_range_meters":11200,"station_id":"st_d2m65c5bi1j21697t3ng","pricing_plan_id":"cebpf4jnsgd1na2vs0mg"},{"bike_id":"0899b726-a7ec-4e29-8dd0-bd85e50c3ebb","system_id":"levelo_inurba_marseille","lat":43.24168,"lon":5.36394,"is_reserved":false,"is_disabled":false,"rental_uris":{"android":"levelo://app?vid=0899b726-a7ec-4e29-8dd0-bd85e50c3ebb","ios":"levelo://app?vid=0899b726-a7ec-4e29-8dd0-bd85e50c3ebb"},"vehicle_type_id":"4","last_reported":1758374105,"current_range_meters":11200,"station_id":"cpo36qri1sfpv3e86is0","pricing_plan_id":"cebpf4jnsgd1na2vs0mg"},{"bike_id":"b0cd38e0-80bb-4840-827d-b3dc4f86a939","system_id":"levelo_inurba_marseille","lat":43.21766,"lon":5.34597,"is_reserved":false,"is_disabled":false,"rental_uris":{"android":"levelo://app?vid=b0cd38e0-80bb-4840-827d-b3dc4f86a939","ios":"levelo://app?vid=b0cd38e0-80bb-4840-827d-b3dc4f86a939"},"vehicle_type_id":"4","last_reported":1758374105,"current_range_meters":11200,"station_id":"","pricing_plan_id":"cebpf4jnsgd1na2vs0mg"},{"bike_id":"af77eb6d-dc27-4b4c-82d4-32525e244ac4","system_id":"levelo_inurba_marseille","lat":43.21747,"lon":5.34596,"is_reserved":false,"is_disabled":false,"rental_uris":{"android":"levelo://app?vid=af77eb6d-dc27-4b4c-82d4-32525e244ac4","ios":"levelo://app?vid=af77eb6d-dc27-4b4c-82d4-32525e244ac4"},"vehicle_type_id":"4","last_reported":1758374105,"current_range_meters":11200,"station_id":"st_cvj6r9ubvosntc0bgbag","pricing_plan_id":"cebpf4jnsgd1na2vs0mg"},{"bike_id":"90e39901-02a2-417a-9c4c-76363c540417","system_id":"levelo_inurba_marseille","lat":43.31988,"lon":5.38142,"is_reserved":false,"is_disabled":false,"rental_uris":{"android":"levelo://app?vid=90e39901-02a2-417a-9c4c-76363c540417","ios":"levelo://app?vid=90e39901-02a2-417a-9c4c-76363c540417"},"vehicle_type_id":"4","last_reported":1758374105,"current_range_meters":11600,"station_id":"ce4bhr12rcd13ifvqhpg","pricing_plan_id":"cebpf4jnsgd1na2vs0mg"},{"bike_id":"45b3b57e-09ce-4fca-a41f-cab070095f92","system_id":"levelo_inurba_marseille","lat":43.23191,"lon":5.35542,"is_reserved":false,"is_disabled":false,"rental_uris":{"android":"levelo://app?vid=45b3b57e-09ce-4fca-a41f-cab070095f92","ios":"levelo://app?vid=45b3b57e-09ce-4fca-a41f-cab070095f92"},"vehicle_type_id":"4","last_reported":1758374105,"current_range_meters":11600,"station_id":"ce4bhu92rcd13ifvqi70","pricing_plan_id":"cebpf4jnsgd1na2vs0mg"},{"bike_id":"7d741740-ac15-4c9b-883a-057f44959e3f","system_id":"levelo_inurba_marseille","lat":43.21757,"lon":5.34585,"is_reserved":false,"is_disabled":false,"rental_uris":{"android":"levelo://app?vid=7d741740-ac15-4c9b-883a-057f44959e3f","ios":"levelo://app?vid=7d741740-ac15-4c9b-883a-057f44959e3f"},"vehicle_type_id":"4","last_reported":1758374105,"current_range_meters":12000,"station_id":"st_cvj6r9ubvosntc0bgbag","pricing_plan_id":"cebpf4jnsgd1na2vs0mg"},{"bike_id":"8e98bfee-a651-4853-be89-3bc73b90cfc8","system_id":"levelo_inurba_marseille","lat":43.27365,"lon":5.3623,"is_reserved":false,"is_disabled":false,"rental_uris":{"android":"levelo://app?vid=8e98bfee-a651-4853-be89-3bc73b90cfc8","ios":"levelo://app?vid=8e98bfee-a651-4853-be89-3bc73b90cfc8"},"vehicle_type_id":"4","last_reported":1758374105,"current_range_meters":12000,"station_id":"ce4bhbh2rcd13ifvqeo0","pricing_plan_id":"cebpf4jnsgd1na2vs0mg"},{"bike_id":"c4706891-6ce1-4440-91ff-a3ecf2ff007e","system_id":"levelo_inurba_marseille","lat":43.26374,"lon":5.40075,"is_reserved":false,"is_disabled":false,"rental_uris":{"android":"levelo://app?vid=c4706891-6ce1-4440-91ff-a3ecf2ff007e","ios":"levelo://app?vid=c4706891-6ce1-4440-91ff-a3ecf2ff007e"},"vehicle_type_id":"4","last_reported":1758374105,"current_range_meters":12000,"station_id":"","pricing_plan_id":"cebpf4jnsgd1na2vs0mg"},{"bike_id":"4310e4d6-5f63-494f-897d-c870ae66754f","system_id":"levelo_inurba_marseille","lat":43.26206,"lon":5.3746,"is_reserved":false,"is_disabled":false,"rental_uris":{"android":"levelo://app?vid=4310e4d6-5f63-494f-897d-c870ae66754f","ios":"levelo://app?vid=4310e4d6-5f63-494f-897d-c870ae66754f"},"vehicle_type_id":"4","last_reported":1758374105,"current_range_meters":12000,"station_id":"ce4bhgp2rcd13ifvqfc0","pricing_plan_id":"cebpf4jnsgd1na2vs0mg"},{"bike_id":"f5e4ee18-c5bc-4d4b-876f-a1818d070afc","system_id":"levelo_inurba_marseille","lat":43.2862,"lon":5.35097,"is_reserved":false,"is_disabled":false,"rental_uris":{"android":"levelo://app?vid=f5e4ee18-c5bc-4d4b-876f-a1818d070afc","ios":"levelo://app?vid=f5e4ee18-c5bc-4d4b-876f-a1818d070afc"},"vehicle_type_id":"4","last_reported":1758374105,"current_range_meters":12000,"station_id":"ce4bhch2rcd13ifvqeug","pricing_plan_id":"cebpf4jnsgd1na2vs0mg"},{"bike_id":"86899b9a-8977-4c92-9304-245ab431dc64","system_id":"levelo_inurba_marseille","lat":43.2863,"lon":5.3509,"is_reserved":false,"is_disabled":false,"rental_uris":{"android":"levelo://app?vid=86899b9a-8977-4c92-9304-245ab431dc64","ios":"levelo://app?vid=86899b9a-8977-4c92-9304-245ab431dc64"},"vehicle_type_id":"4","last_reported":1758374105,"current_range_meters":12000,"station_id":"ce4bhch2rcd13ifvqeug","pricing_plan_id":"cebpf4jnsgd1na2vs0mg"},{"bike_id":"bfe50c48-65d2-4c7a-8282-229c657d7bc1","system_id":"levelo_inurba_marseille","lat":43.31165,"lon":5.38721,"is_reserved":false,"is_disabled":false,"rental_uris":{"android":"levelo://app?vid=bfe50c48-65d2-4c7a-8282-229c657d7bc1","ios":"levelo://app?vid=bfe50c48-65d2-4c7a-8282-229c657d7bc1"},"vehicle_type_id":"4","last_reported":1758374105,"current_range_meters":12400,"station_id":"ce4bgv12rcd13ifvqcp0","pricing_plan_id":"cebpf4jnsgd1na2vs0mg"},{"bike_id":"8e86fe12-b2d6-4764-9720-31f5ab462b7b","system_id":"levelo_inurba_marseille","lat":43.22569,"lon":5.41622,"is_reserved":false,"is_disabled":false,"rental_uris":{"android":"levelo://app?vid=8e86fe12-b2d6-4764-9720-31f5ab462b7b","ios":"levelo://app?vid=8e86fe12-b2d6-4764-9720-31f5ab462b7b"},"vehicle_type_id":"4","last_reported":1758374105,"current_range_meters":12400,"station_id":"st_d2o4gvlbi1j2169b742g","pricing_plan_id":"cebpf4jnsgd1na2vs0mg"},{"bike_id":"21100b46-a46f-4dba-8aca-533ef91f921b","system_id":"levelo_inurba_marseille","lat":43.21185,"lon":5.35076,"is_reserved":false,"is_disabled":false,"rental_uris":{"android":"levelo://app?vid=21100b46-a46f-4dba-8aca-533ef91f921b","ios":"levelo://app?vid=21100b46-a46f-4dba-8aca-533ef91f921b"},"vehicle_type_id":"4","last_reported":1758374105,"current_range_meters":12400,"station_id":"st_cvj6sg6p6f1abm77japg","pricing_plan_id":"cebpf4jnsgd1na2vs0mg"},{"bike_id":"5a1fef28-5059-4530-b228-7a1ea9904e89","system_id":"levelo_inurba_marseille","lat":43.24169,"lon":5.36398,"is_reserved":false,"is_disabled":false,"rental_uris":{"android":"levelo://app?vid=5a1fef28-5059-4530-b228-7a1ea9904e89","ios":"levelo://app?vid=5a1fef28-5059-4530-b228-7a1ea9904e89"},"vehicle_type_id":"4","last_reported":1758374105,"current_range_meters":12400,"station_id":"cpo36qri1sfpv3e86is0","pricing_plan_id":"cebpf4jnsgd1na2vs0mg"},{"bike_id":"63f563a2-8c19-424b-94ef-3bb5de15bf92","system_id":"levelo_inurba_marseille","lat":43.296323,"lon":5.371675,"is_reserved":false,"is_disabled":false,"rental_uris":{"android":"levelo://app?vid=63f563a2-8c19-424b-94ef-3bb5de15bf92","ios":"levelo://app?vid=63f563a2-8c19-424b-94ef-3bb5de15bf92"},"vehicle_type_id":"4","last_reported":1758374105,"current_range_meters":12000,"station_id":"ce4bgnh2rcd13ifvqc0g","pricing_plan_id":"cebpf4jnsgd1na2vs0mg"},{"bike_id":"f71debca-d841-48d8-ae67-1685f880c990","system_id":"levelo_inurba_marseille","lat":43.28265,"lon":5.35056,"is_reserved":false,"is_disabled":false,"rental_uris":{"android":"levelo://app?vid=f71debca-d841-48d8-ae67-1685f880c990","ios":"levelo://app?vid=f71debca-d841-48d8-ae67-1685f880c990"},"vehicle_type_id":"4","last_reported":1758374105,"current_range_meters":12400,"station_id":"ce4bhbp2rcd13ifvqerg","pricing_plan_id":"cebpf4jnsgd1na2vs0mg"},{"bike_id":"05ca0aa0-5596-4971-a0c3-94e65df6bd50","system_id":"levelo_inurba_marseille","lat":43.22531,"lon":5.4159,"is_reserved":false,"is_disabled":false,"rental_uris":{"android":"levelo://app?vid=05ca0aa0-5596-4971-a0c3-94e65df6bd50","ios":"levelo://app?vid=05ca0aa0-5596-4971-a0c3-94e65df6bd50"},"vehicle_type_id":"4","last_reported":1758374105,"current_range_meters":12400,"station_id":"st_d2o4gvlbi1j2169b742g","pricing_plan_id":"cebpf4jnsgd1na2vs0mg"},{"bike_id":"bf15a5e8-5f9d-465c-8783-852eb7e6ec72","system_id":"levelo_inurba_marseille","lat":43.26562,"lon":5.37247,"is_reserved":false,"is_disabled":false,"rental_uris":{"android":"levelo://app?vid=bf15a5e8-5f9d-465c-8783-852eb7e6ec72","ios":"levelo://app?vid=bf15a5e8-5f9d-465c-8783-852eb7e6ec72"},"vehicle_type_id":"4","last_reported":1758374105,"current_range_meters":12400,"station_id":"ce4bhg12rcd13ifvqf70","pricing_plan_id":"cebpf4jnsgd1na2vs0mg"},{"bike_id":"c6418d4c-2faa-4aa2-8e60-a8dcefd0cb79","system_id":"levelo_inurba_marseille","lat":43.26021,"lon":5.41739,"is_reserved":false,"is_disabled":false,"rental_uris":{"android":"levelo://app?vid=c6418d4c-2faa-4aa2-8e60-a8dcefd0cb79","ios":"levelo://app?vid=c6418d4c-2faa-4aa2-8e60-a8dcefd0cb79"},"vehicle_type_id":"4","last_reported":1758374105,"current_range_meters":12400,"station_id":"","pricing_plan_id":"cebpf4jnsgd1na2vs0mg"},{"bike_id":"5e3f673f-2d1c-49fa-a814-65c6bae9dd71","system_id":"levelo_inurba_marseille","lat":43.28614,"lon":5.37053,"is_reserved":false,"is_disabled":false,"rental_uris":{"android":"levelo://app?vid=5e3f673f-2d1c-49fa-a814-65c6bae9dd71","ios":"levelo://app?vid=5e3f673f-2d1c-49fa-a814-65c6bae9dd71"},"vehicle_type_id":"4","last_reported":1758374105,"current_range_meters":12400,"station_id":"ce4bht12rcd13ifvqi60","pricing_plan_id":"cebpf4jnsgd1na2vs0mg"},{"bike_id":"8dfdacab-67ae-41a9-936d-c5f00241c3a3","system_id":"levelo_inurba_marseille","lat":43.28262,"lon":5.35061,"is_reserved":false,"is_disabled":false,"rental_uris":{"android":"levelo://app?vid=8dfdacab-67ae-41a9-936d-c5f00241c3a3","ios":"levelo://app?vid=8dfdacab-67ae-41a9-936d-c5f00241c3a3"},"vehicle_type_id":"4","last_reported":1758374105,"current_range_meters":12800,"station_id":"ce4bhbp2rcd13ifvqerg","pricing_plan_id":"cebpf4jnsgd1na2vs0mg"},{"bike_id":"5a5a77d0-f0c8-4a67-9b89-309637b22751","system_id":"levelo_inurba_marseille","lat":43.21749,"lon":5.34603,"is_reserved":false,"is_disabled":false,"rental_uris":{"android":"levelo://app?vid=5a5a77d0-f0c8-4a67-9b89-309637b22751","ios":"levelo://app?vid=5a5a77d0-f0c8-4a67-9b89-309637b22751"},"vehicle_type_id":"4","last_reported":1758374105,"current_range_meters":12800,"station_id":"st_cvj6r9ubvosntc0bgbag","pricing_plan_id":"cebpf4jnsgd1na2vs0mg"},{"bike_id":"9dda362f-31ca-490a-a5c0-06c09f1dbe36","system_id":"levelo_inurba_marseille","lat":43.23962,"lon":5.36631,"is_reserved":false,"is_disabled":false,"rental_uris":{"android":"levelo://app?vid=9dda362f-31ca-490a-a5c0-06c09f1dbe36","ios":"levelo://app?vid=9dda362f-31ca-490a-a5c0-06c09f1dbe36"},"vehicle_type_id":"4","last_reported":1758374105,"current_range_meters":12800,"station_id":"ce4bhi12rcd13ifvqfp0","pricing_plan_id":"cebpf4jnsgd1na2vs0mg"},{"bike_id":"52b5f431-e387-4016-a9e0-232087690347","system_id":"levelo_inurba_marseille","lat":43.21193,"lon":5.35073,"is_reserved":false,"is_disabled":false,"rental_uris":{"android":"levelo://app?vid=52b5f431-e387-4016-a9e0-232087690347","ios":"levelo://app?vid=52b5f431-e387-4016-a9e0-232087690347"},"vehicle_type_id":"4","last_reported":1758374105,"current_range_meters":12800,"station_id":"st_cvj6sg6p6f1abm77japg","pricing_plan_id":"cebpf4jnsgd1na2vs0mg"},{"bike_id":"11f536f5-f858-4572-b106-c5cc3146e3cd","system_id":"levelo_inurba_marseille","lat":43.25345,"lon":5.42155,"is_reserved":false,"is_disabled":false,"rental_uris":{"android":"levelo://app?vid=11f536f5-f858-4572-b106-c5cc3146e3cd","ios":"levelo://app?vid=11f536f5-f858-4572-b106-c5cc3146e3cd"},"vehicle_type_id":"4","last_reported":1758374105,"current_range_meters":12800,"station_id":"st_d2m65c5bi1j21697t3ng","pricing_plan_id":"cebpf4jnsgd1na2vs0mg"},{"bike_id":"b3e4ad82-6024-4f4f-9a8b-026e1ff2f026","system_id":"levelo_inurba_marseille","lat":43.21743,"lon":5.34606,"is_reserved":false,"is_disabled":false,"rental_uris":{"android":"levelo://app?vid=b3e4ad82-6024-4f4f-9a8b-026e1ff2f026","ios":"levelo://app?vid=b3e4ad82-6024-4f4f-9a8b-026e1ff2f026"},"vehicle_type_id":"4","last_reported":1758374105,"current_range_meters":12800,"station_id":"st_cvj6r9ubvosntc0bgbag","pricing_plan_id":"cebpf4jnsgd1na2vs0mg"},{"bike_id":"3fc70425-07a0-4969-a4e2-30ace61b756b","system_id":"levelo_inurba_marseille","lat":43.21762,"lon":5.3459,"is_reserved":false,"is_disabled":false,"rental_uris":{"android":"levelo://app?vid=3fc70425-07a0-4969-a4e2-30ace61b756b","ios":"levelo://app?vid=3fc70425-07a0-4969-a4e2-30ace61b756b"},"vehicle_type_id":"4","last_reported":1758374105,"current_range_meters":12800,"station_id":"st_cvj6r9ubvosntc0bgbag","pricing_plan_id":"cebpf4jnsgd1na2vs0mg"},{"bike_id":"cca2c54a-2af0-41a3-9bee-3753b2105d32","system_id":"levelo_inurba_marseille","lat":43.21766,"lon":5.34589,"is_reserved":false,"is_disabled":false,"rental_uris":{"android":"levelo://app?vid=cca2c54a-2af0-41a3-9bee-3753b2105d32","ios":"levelo://app?vid=cca2c54a-2af0-41a3-9bee-3753b2105d32"},"vehicle_type_id":"4","last_reported":1758374105,"current_range_meters":13600,"station_id":"st_cvj6r9ubvosntc0bgbag","pricing_plan_id":"cebpf4jnsgd1na2vs0mg"},{"bike_id":"e3b9d1a2-0a22-44da-bd4f-a7a36eeeffb1","system_id":"levelo_inurba_marseille","lat":43.28622,"lon":5.35109,"is_reserved":false,"is_disabled":false,"rental_uris":{"android":"levelo://app?vid=e3b9d1a2-0a22-44da-bd4f-a7a36eeeffb1","ios":"levelo://app?vid=e3b9d1a2-0a22-44da-bd4f-a7a36eeeffb1"},"vehicle_type_id":"4","last_reported":1758374105,"current_range_meters":13600,"station_id":"ce4bhch2rcd13ifvqeug","pricing_plan_id":"cebpf4jnsgd1na2vs0mg"},{"bike_id":"100fc699-7bc2-45de-9e70-967069e79569","system_id":"levelo_inurba_marseille","lat":43.279444,"lon":5.410406,"is_reserved":false,"is_disabled":false,"rental_uris":{"android":"levelo://app?vid=100fc699-7bc2-45de-9e70-967069e79569","ios":"levelo://app?vid=100fc699-7bc2-45de-9e70-967069e79569"},"vehicle_type_id":"4","last_reported":1758374105,"current_range_meters":13600,"station_id":"ce4bhnp2rcd13ifvqh0g","pricing_plan_id":"cebpf4jnsgd1na2vs0mg"},{"bike_id":"08156082-ce7f-420c-9f22-bee81ccbaab1","system_id":"levelo_inurba_marseille","lat":43.241726,"lon":5.363827,"is_reserved":false,"is_disabled":false,"rental_uris":{"android":"levelo://app?vid=08156082-ce7f-420c-9f22-bee81ccbaab1","ios":"levelo://app?vid=08156082-ce7f-420c-9f22-bee81ccbaab1"},"vehicle_type_id":"4","last_reported":1758374105,"current_range_meters":13600,"station_id":"cpo36qri1sfpv3e86is0","pricing_plan_id":"cebpf4jnsgd1na2vs0mg"},{"bike_id":"4da2363f-a15d-4413-81f5-ae8047f450a7","system_id":"levelo_inurba_marseille","lat":43.28623,"lon":5.35097,"is_reserved":false,"is_disabled":false,"rental_uris":{"android":"levelo://app?vid=4da2363f-a15d-4413-81f5-ae8047f450a7","ios":"levelo://app?vid=4da2363f-a15d-4413-81f5-ae8047f450a7"},"vehicle_type_id":"4","last_reported":1758374105,"current_range_meters":13600,"station_id":"ce4bhch2rcd13ifvqeug","pricing_plan_id":"cebpf4jnsgd1na2vs0mg"},{"bike_id":"43e47810-4bfb-42e4-90fd-698cf89f4034","system_id":"levelo_inurba_marseille","lat":43.26556,"lon":5.37292,"is_reserved":false,"is_disabled":false,"rental_uris":{"android":"levelo://app?vid=43e47810-4bfb-42e4-90fd-698cf89f4034","ios":"levelo://app?vid=43e47810-4bfb-42e4-90fd-698cf89f4034"},"vehicle_type_id":"4","last_reported":1758374105,"current_range_meters":10000,"station_id":"ce4bhg12rcd13ifvqf70","pricing_plan_id":"cebpf4jnsgd1na2vs0mg"},{"bike_id":"7fb58d99-54fa-4834-9399-d93d773fcc6f","system_id":"levelo_inurba_marseille","lat":43.21214,"lon":5.35067,"is_reserved":false,"is_disabled":false,"rental_uris":{"android":"levelo://app?vid=7fb58d99-54fa-4834-9399-d93d773fcc6f","ios":"levelo://app?vid=7fb58d99-54fa-4834-9399-d93d773fcc6f"},"vehicle_type_id":"4","last_reported":1758374105,"current_range_meters":13600,"station_id":"st_cvj6sg6p6f1abm77japg","pricing_plan_id":"cebpf4jnsgd1na2vs0mg"},{"bike_id":"0f7caa9f-1d1a-40d7-9b4a-2f8720e63681","system_id":"levelo_inurba_marseille","lat":43.30831,"lon":5.37469,"is_reserved":false,"is_disabled":false,"rental_uris":{"android":"levelo://app?vid=0f7caa9f-1d1a-40d7-9b4a-2f8720e63681","ios":"levelo://app?vid=0f7caa9f-1d1a-40d7-9b4a-2f8720e63681"},"vehicle_type_id":"4","last_reported":1758374105,"current_range_meters":14000,"station_id":"","pricing_plan_id":"cebpf4jnsgd1na2vs0mg"},{"bike_id":"4d49712f-8d86-4b00-b24e-4c9a6b4514b3","system_id":"levelo_inurba_marseille","lat":43.24808,"lon":5.37458,"is_reserved":false,"is_disabled":false,"rental_uris":{"android":"levelo://app?vid=4d49712f-8d86-4b00-b24e-4c9a6b4514b3","ios":"levelo://app?vid=4d49712f-8d86-4b00-b24e-4c9a6b4514b3"},"vehicle_type_id":"4","last_reported":1758374105,"current_range_meters":14000,"station_id":"ce4bhgh2rcd13ifvqfb0","pricing_plan_id":"cebpf4jnsgd1na2vs0mg"},{"bike_id":"995f22d9-1973-462a-ad18-2747a0b78087","system_id":"levelo_inurba_marseille","lat":43.28272,"lon":5.35063,"is_reserved":false,"is_disabled":false,"rental_uris":{"android":"levelo://app?vid=995f22d9-1973-462a-ad18-2747a0b78087","ios":"levelo://app?vid=995f22d9-1973-462a-ad18-2747a0b78087"},"vehicle_type_id":"4","last_reported":1758374105,"current_range_meters":14000,"station_id":"ce4bhbp2rcd13ifvqerg","pricing_plan_id":"cebpf4jnsgd1na2vs0mg"},{"bike_id":"ffa30575-5d78-4d45-bcf3-3d78105ebc26","system_id":"levelo_inurba_marseille","lat":43.282678,"lon":5.350655,"is_reserved":false,"is_disabled":false,"rental_uris":{"android":"levelo://app?vid=ffa30575-5d78-4d45-bcf3-3d78105ebc26","ios":"levelo://app?vid=ffa30575-5d78-4d45-bcf3-3d78105ebc26"},"vehicle_type_id":"4","last_reported":1758374105,"current_range_meters":13600,"station_id":"ce4bhbp2rcd13ifvqerg","pricing_plan_id":"cebpf4jnsgd1na2vs0mg"},{"bike_id":"035be1b5-37eb-4ce0-af39-f012d6e605bd","system_id":"levelo_inurba_marseille","lat":43.24158,"lon":5.36392,"is_reserved":false,"is_disabled":false,"rental_uris":{"android":"levelo://app?vid=035be1b5-37eb-4ce0-af39-f012d6e605bd","ios":"levelo://app?vid=035be1b5-37eb-4ce0-af39-f012d6e605bd"},"vehicle_type_id":"4","last_reported":1758374105,"current_range_meters":14000,"station_id":"cpo36qri1sfpv3e86is0","pricing_plan_id":"cebpf4jnsgd1na2vs0mg"},{"bike_id":"438ead59-de14-4fa0-a61d-03a70a4122ae","system_id":"levelo_inurba_marseille","lat":43.973,"lon":4.89119,"is_reserved":false,"is_disabled":true,"rental_uris":{"android":"levelo://app?vid=438ead59-de14-4fa0-a61d-03a70a4122ae","ios":"levelo://app?vid=438ead59-de14-4fa0-a61d-03a70a4122ae"},"vehicle_type_id":"4","last_reported":1758374105,"current_range_meters":14000,"station_id":"","pricing_plan_id":"cebpf4jnsgd1na2vs0mg"},{"bike_id":"b93d18e0-22ea-4434-a0d7-cf1cde58417f","system_id":"levelo_inurba_marseille","lat":43.29041,"lon":5.39954,"is_reserved":false,"is_disabled":false,"rental_uris":{"android":"levelo://app?vid=b93d18e0-22ea-4434-a0d7-cf1cde58417f","ios":"levelo://app?vid=b93d18e0-22ea-4434-a0d7-cf1cde58417f"},"vehicle_type_id":"4","last_reported":1758374105,"current_range_meters":14400,"station_id":"ce4bh392rcd13ifvqdm0","pricing_plan_id":"cebpf4jnsgd1na2vs0mg"},{"bike_id":"55d1bc08-fd54-4a82-afc7-2adcaa7b1c4e","system_id":"levelo_inurba_marseille","lat":43.30034,"lon":5.37695,"is_reserved":false,"is_disabled":false,"rental_uris":{"android":"levelo://app?vid=55d1bc08-fd54-4a82-afc7-2adcaa7b1c4e","ios":"levelo://app?vid=55d1bc08-fd54-4a82-afc7-2adcaa7b1c4e"},"vehicle_type_id":"4","last_reported":1758374105,"current_range_meters":14400,"station_id":"","pricing_plan_id":"cebpf4jnsgd1na2vs0mg"},{"bike_id":"c1843d42-9f15-4235-8c7f-0c60147cb155","system_id":"levelo_inurba_marseille","lat":43.21197,"lon":5.3507,"is_reserved":false,"is_disabled":false,"rental_uris":{"android":"levelo://app?vid=c1843d42-9f15-4235-8c7f-0c60147cb155","ios":"levelo://app?vid=c1843d42-9f15-4235-8c7f-0c60147cb155"},"vehicle_type_id":"4","last_reported":1758374105,"current_range_meters":14400,"station_id":"st_cvj6sg6p6f1abm77japg","pricing_plan_id":"cebpf4jnsgd1na2vs0mg"},{"bike_id":"4ea96a17-62e8-47e6-a1e7-c5a215bce0e7","system_id":"levelo_inurba_marseille","lat":43.29531,"lon":5.38544,"is_reserved":false,"is_disabled":false,"rental_uris":{"android":"levelo://app?vid=4ea96a17-62e8-47e6-a1e7-c5a215bce0e7","ios":"levelo://app?vid=4ea96a17-62e8-47e6-a1e7-c5a215bce0e7"},"vehicle_type_id":"4","last_reported":1758374105,"current_range_meters":14400,"station_id":"ce4bgih2rcd13ifvqba0","pricing_plan_id":"cebpf4jnsgd1na2vs0mg"},{"bike_id":"836811c8-02b5-42bb-afd8-84ad583103f5","system_id":"levelo_inurba_marseille","lat":43.292296,"lon":5.360723,"is_reserved":false,"is_disabled":false,"rental_uris":{"android":"levelo://app?vid=836811c8-02b5-42bb-afd8-84ad583103f5","ios":"levelo://app?vid=836811c8-02b5-42bb-afd8-84ad583103f5"},"vehicle_type_id":"4","last_reported":1758374105,"current_range_meters":14400,"station_id":"ce4bhbh2rcd13ifvqeqg","pricing_plan_id":"cebpf4jnsgd1na2vs0mg"},{"bike_id":"064feffd-d7ac-421b-9e0d-ac92814568fe","system_id":"levelo_inurba_marseille","lat":43.24165,"lon":5.364,"is_reserved":false,"is_disabled":false,"rental_uris":{"android":"levelo://app?vid=064feffd-d7ac-421b-9e0d-ac92814568fe","ios":"levelo://app?vid=064feffd-d7ac-421b-9e0d-ac92814568fe"},"vehicle_type_id":"4","last_reported":1758374105,"current_range_meters":14400,"station_id":"cpo36qri1sfpv3e86is0","pricing_plan_id":"cebpf4jnsgd1na2vs0mg"},{"bike_id":"a07a513e-e5a9-4481-8592-d991379bc662","system_id":"levelo_inurba_marseille","lat":43.337536,"lon":5.374536,"is_reserved":false,"is_disabled":false,"rental_uris":{"android":"levelo://app?vid=a07a513e-e5a9-4481-8592-d991379bc662","ios":"levelo://app?vid=a07a513e-e5a9-4481-8592-d991379bc662"},"vehicle_type_id":"4","last_reported":1758374105,"current_range_meters":14400,"station_id":"","pricing_plan_id":"cebpf4jnsgd1na2vs0mg"},{"bike_id":"2a00cb84-e9e6-4781-804d-0494d7480777","system_id":"levelo_inurba_marseille","lat":43.2257,"lon":5.41648,"is_reserved":false,"is_disabled":false,"rental_uris":{"android":"levelo://app?vid=2a00cb84-e9e6-4781-804d-0494d7480777","ios":"levelo://app?vid=2a00cb84-e9e6-4781-804d-0494d7480777"},"vehicle_type_id":"4","last_reported":1758374105,"current_range_meters":14800,"station_id":"st_d2o4gvlbi1j2169b742g","pricing_plan_id":"cebpf4jnsgd1na2vs0mg"},{"bike_id":"0ba28b16-ba76-45ad-90bc-c7843e4c885a","system_id":"levelo_inurba_marseille","lat":43.29352,"lon":5.3785,"is_reserved":false,"is_disabled":false,"rental_uris":{"android":"levelo://app?vid=0ba28b16-ba76-45ad-90bc-c7843e4c885a","ios":"levelo://app?vid=0ba28b16-ba76-45ad-90bc-c7843e4c885a"},"vehicle_type_id":"4","last_reported":1758374105,"current_range_meters":14800,"station_id":"ce4bgjh2rcd13ifvqbf0","pricing_plan_id":"cebpf4jnsgd1na2vs0mg"},{"bike_id":"7c0c2828-80bb-4487-a31c-f8cbe6afb77f","system_id":"levelo_inurba_marseille","lat":43.22564,"lon":5.41623,"is_reserved":false,"is_disabled":false,"rental_uris":{"android":"levelo://app?vid=7c0c2828-80bb-4487-a31c-f8cbe6afb77f","ios":"levelo://app?vid=7c0c2828-80bb-4487-a31c-f8cbe6afb77f"},"vehicle_type_id":"4","last_reported":1758374105,"current_range_meters":15200,"station_id":"st_d2o4gvlbi1j2169b742g","pricing_plan_id":"cebpf4jnsgd1na2vs0mg"},{"bike_id":"f8fe7cb5-f58c-41c0-83e6-248fdfa62242","system_id":"levelo_inurba_marseille","lat":43.21749,"lon":5.34599,"is_reserved":false,"is_disabled":false,"rental_uris":{"android":"levelo://app?vid=f8fe7cb5-f58c-41c0-83e6-248fdfa62242","ios":"levelo://app?vid=f8fe7cb5-f58c-41c0-83e6-248fdfa62242"},"vehicle_type_id":"4","last_reported":1758374105,"current_range_meters":14800,"station_id":"st_cvj6r9ubvosntc0bgbag","pricing_plan_id":"cebpf4jnsgd1na2vs0mg"},{"bike_id":"f752aa8c-ed7e-4239-b71e-771a2a3cec1e","system_id":"levelo_inurba_marseille","lat":43.21203,"lon":5.3509,"is_reserved":false,"is_disabled":false,"rental_uris":{"android":"levelo://app?vid=f752aa8c-ed7e-4239-b71e-771a2a3cec1e","ios":"levelo://app?vid=f752aa8c-ed7e-4239-b71e-771a2a3cec1e"},"vehicle_type_id":"4","last_reported":1758374105,"current_range_meters":14800,"station_id":"st_cvj6sg6p6f1abm77japg","pricing_plan_id":"cebpf4jnsgd1na2vs0mg"},{"bike_id":"2d82061a-a240-43d1-93a6-ab71cf777b3c","system_id":"levelo_inurba_marseille","lat":43.2119,"lon":5.35075,"is_reserved":false,"is_disabled":false,"rental_uris":{"android":"levelo://app?vid=2d82061a-a240-43d1-93a6-ab71cf777b3c","ios":"levelo://app?vid=2d82061a-a240-43d1-93a6-ab71cf777b3c"},"vehicle_type_id":"4","last_reported":1758374105,"current_range_meters":14800,"station_id":"st_cvj6sg6p6f1abm77japg","pricing_plan_id":"cebpf4jnsgd1na2vs0mg"},{"bike_id":"3ddd109f-6940-4f22-9160-786f75d3c0db","system_id":"levelo_inurba_marseille","lat":43.24176,"lon":5.3638,"is_reserved":false,"is_disabled":false,"rental_uris":{"android":"levelo://app?vid=3ddd109f-6940-4f22-9160-786f75d3c0db","ios":"levelo://app?vid=3ddd109f-6940-4f22-9160-786f75d3c0db"},"vehicle_type_id":"4","last_reported":1758374105,"current_range_meters":15200,"station_id":"cpo36qri1sfpv3e86is0","pricing_plan_id":"cebpf4jnsgd1na2vs0mg"},{"bike_id":"27c4fd71-3d9f-4221-8ba0-024b0f3ec8de","system_id":"levelo_inurba_marseille","lat":43.24647,"lon":5.38898,"is_reserved":false,"is_disabled":false,"rental_uris":{"android":"levelo://app?vid=27c4fd71-3d9f-4221-8ba0-024b0f3ec8de","ios":"levelo://app?vid=27c4fd71-3d9f-4221-8ba0-024b0f3ec8de"},"vehicle_type_id":"4","last_reported":1758374105,"current_range_meters":14800,"station_id":"ce4bhg12rcd13ifvqf60","pricing_plan_id":"cebpf4jnsgd1na2vs0mg"},{"bike_id":"2015c1f2-c286-408a-b930-50d865ce0bb9","system_id":"levelo_inurba_marseille","lat":43.21194,"lon":5.35074,"is_reserved":false,"is_disabled":false,"rental_uris":{"android":"levelo://app?vid=2015c1f2-c286-408a-b930-50d865ce0bb9","ios":"levelo://app?vid=2015c1f2-c286-408a-b930-50d865ce0bb9"},"vehicle_type_id":"4","last_reported":1758374105,"current_range_meters":14800,"station_id":"st_cvj6sg6p6f1abm77japg","pricing_plan_id":"cebpf4jnsgd1na2vs0mg"},{"bike_id":"13825361-7d19-49cf-bea3-4b5de67c4f78","system_id":"levelo_inurba_marseille","lat":43.2861,"lon":5.35113,"is_reserved":false,"is_disabled":false,"rental_uris":{"android":"levelo://app?vid=13825361-7d19-49cf-bea3-4b5de67c4f78","ios":"levelo://app?vid=13825361-7d19-49cf-bea3-4b5de67c4f78"},"vehicle_type_id":"4","last_reported":1758374105,"current_range_meters":15200,"station_id":"ce4bhch2rcd13ifvqeug","pricing_plan_id":"cebpf4jnsgd1na2vs0mg"},{"bike_id":"2e293824-b51e-4d23-8047-40ce2de89912","system_id":"levelo_inurba_marseille","lat":43.32116,"lon":5.36789,"is_reserved":false,"is_disabled":false,"rental_uris":{"android":"levelo://app?vid=2e293824-b51e-4d23-8047-40ce2de89912","ios":"levelo://app?vid=2e293824-b51e-4d23-8047-40ce2de89912"},"vehicle_type_id":"4","last_reported":1758374105,"current_range_meters":15200,"station_id":"ce4bhrh2rcd13ifvqhug","pricing_plan_id":"cebpf4jnsgd1na2vs0mg"},{"bike_id":"8f90c6e9-c2a0-414b-a280-ed01b517d1e8","system_id":"levelo_inurba_marseille","lat":43.21197,"lon":5.35058,"is_reserved":false,"is_disabled":false,"rental_uris":{"android":"levelo://app?vid=8f90c6e9-c2a0-414b-a280-ed01b517d1e8","ios":"levelo://app?vid=8f90c6e9-c2a0-414b-a280-ed01b517d1e8"},"vehicle_type_id":"4","last_reported":1758374105,"current_range_meters":15200,"station_id":"st_cvj6sg6p6f1abm77japg","pricing_plan_id":"cebpf4jnsgd1na2vs0mg"},{"bike_id":"391cde01-e9f7-4ae7-9589-66d6122a2e1e","system_id":"levelo_inurba_marseille","lat":43.21748,"lon":5.34604,"is_reserved":false,"is_disabled":false,"rental_uris":{"android":"levelo://app?vid=391cde01-e9f7-4ae7-9589-66d6122a2e1e","ios":"levelo://app?vid=391cde01-e9f7-4ae7-9589-66d6122a2e1e"},"vehicle_type_id":"4","last_reported":1758374105,"current_range_meters":15200,"station_id":"st_cvj6r9ubvosntc0bgbag","pricing_plan_id":"cebpf4jnsgd1na2vs0mg"},{"bike_id":"97893650-9a0c-47e4-baee-ec60bbc1b06d","system_id":"levelo_inurba_marseille","lat":43.25635,"lon":5.41194,"is_reserved":false,"is_disabled":true,"rental_uris":{"android":"levelo://app?vid=97893650-9a0c-47e4-baee-ec60bbc1b06d","ios":"levelo://app?vid=97893650-9a0c-47e4-baee-ec60bbc1b06d"},"vehicle_type_id":"4","last_reported":1758374105,"current_range_meters":15200,"station_id":"ce4bhkp2rcd13ifvqgd0","pricing_plan_id":"cebpf4jnsgd1na2vs0mg"},{"bike_id":"2423cb80-44ca-41fd-9369-ed50cbfcba95","system_id":"levelo_inurba_marseille","lat":43.26486,"lon":5.39553,"is_reserved":false,"is_disabled":false,"rental_uris":{"android":"levelo://app?vid=2423cb80-44ca-41fd-9369-ed50cbfcba95","ios":"levelo://app?vid=2423cb80-44ca-41fd-9369-ed50cbfcba95"},"vehicle_type_id":"4","last_reported":1758374105,"current_range_meters":14800,"station_id":"ce4bhi12rcd13ifvqfq0","pricing_plan_id":"cebpf4jnsgd1na2vs0mg"},{"bike_id":"d0665e4f-00da-46e5-b2cc-396a4c65bcca","system_id":"levelo_inurba_marseille","lat":43.23189,"lon":5.35548,"is_reserved":false,"is_disabled":false,"rental_uris":{"android":"levelo://app?vid=d0665e4f-00da-46e5-b2cc-396a4c65bcca","ios":"levelo://app?vid=d0665e4f-00da-46e5-b2cc-396a4c65bcca"},"vehicle_type_id":"4","last_reported":1758374105,"current_range_meters":15200,"station_id":"ce4bhu92rcd13ifvqi70","pricing_plan_id":"cebpf4jnsgd1na2vs0mg"},{"bike_id":"99ef6637-84d7-44f9-bde4-948e86f6cf85","system_id":"levelo_inurba_marseille","lat":43.28413,"lon":5.34994,"is_reserved":false,"is_disabled":false,"rental_uris":{"android":"levelo://app?vid=99ef6637-84d7-44f9-bde4-948e86f6cf85","ios":"levelo://app?vid=99ef6637-84d7-44f9-bde4-948e86f6cf85"},"vehicle_type_id":"4","last_reported":1758374105,"current_range_meters":16000,"station_id":"ce4bhbh2rcd13ifvqepg","pricing_plan_id":"cebpf4jnsgd1na2vs0mg"},{"bike_id":"68adab37-f5ad-4072-b58a-fe6c68285ca6","system_id":"levelo_inurba_marseille","lat":43.30606,"lon":5.37664,"is_reserved":false,"is_disabled":false,"rental_uris":{"android":"levelo://app?vid=68adab37-f5ad-4072-b58a-fe6c68285ca6","ios":"levelo://app?vid=68adab37-f5ad-4072-b58a-fe6c68285ca6"},"vehicle_type_id":"4","last_reported":1758374105,"current_range_meters":16000,"station_id":"","pricing_plan_id":"cebpf4jnsgd1na2vs0mg"},{"bike_id":"2af3cb9a-04b9-4530-b535-df31652d4128","system_id":"levelo_inurba_marseille","lat":43.251095,"lon":5.403229,"is_reserved":false,"is_disabled":false,"rental_uris":{"android":"levelo://app?vid=2af3cb9a-04b9-4530-b535-df31652d4128","ios":"levelo://app?vid=2af3cb9a-04b9-4530-b535-df31652d4128"},"vehicle_type_id":"4","last_reported":1758374105,"current_range_meters":16000,"station_id":"ce4bhlh2rcd13ifvqgig","pricing_plan_id":"cebpf4jnsgd1na2vs0mg"},{"bike_id":"3dd4d095-f5c2-4157-97fb-ba29b64c8c9d","system_id":"levelo_inurba_marseille","lat":43.27368,"lon":5.36266,"is_reserved":false,"is_disabled":false,"rental_uris":{"android":"levelo://app?vid=3dd4d095-f5c2-4157-97fb-ba29b64c8c9d","ios":"levelo://app?vid=3dd4d095-f5c2-4157-97fb-ba29b64c8c9d"},"vehicle_type_id":"4","last_reported":1758374105,"current_range_meters":16000,"station_id":"ce4bhbh2rcd13ifvqeo0","pricing_plan_id":"cebpf4jnsgd1na2vs0mg"},{"bike_id":"c23faf31-98e0-4aed-a49b-79b265a93287","system_id":"levelo_inurba_marseille","lat":43.32095,"lon":5.41527,"is_reserved":false,"is_disabled":false,"rental_uris":{"android":"levelo://app?vid=c23faf31-98e0-4aed-a49b-79b265a93287","ios":"levelo://app?vid=c23faf31-98e0-4aed-a49b-79b265a93287"},"vehicle_type_id":"4","last_reported":1758374105,"current_range_meters":16000,"station_id":"","pricing_plan_id":"cebpf4jnsgd1na2vs0mg"},{"bike_id":"69785b3a-02a0-4137-be15-5bff4a1aa0bf","system_id":"levelo_inurba_marseille","lat":43.2994,"lon":5.36554,"is_reserved":false,"is_disabled":false,"rental_uris":{"android":"levelo://app?vid=69785b3a-02a0-4137-be15-5bff4a1aa0bf","ios":"levelo://app?vid=69785b3a-02a0-4137-be15-5bff4a1aa0bf"},"vehicle_type_id":"4","last_reported":1758374105,"current_range_meters":16000,"station_id":"ce4bgm92rcd13ifvqbr0","pricing_plan_id":"cebpf4jnsgd1na2vs0mg"},{"bike_id":"f0d7b42c-0fa6-41ca-97e7-fa0adc4829ad","system_id":"levelo_inurba_marseille","lat":43.28273,"lon":5.35059,"is_reserved":false,"is_disabled":false,"rental_uris":{"android":"levelo://app?vid=f0d7b42c-0fa6-41ca-97e7-fa0adc4829ad","ios":"levelo://app?vid=f0d7b42c-0fa6-41ca-97e7-fa0adc4829ad"},"vehicle_type_id":"4","last_reported":1758374105,"current_range_meters":16000,"station_id":"ce4bhbp2rcd13ifvqerg","pricing_plan_id":"cebpf4jnsgd1na2vs0mg"},{"bike_id":"8a3dd73a-b790-44ab-a26e-097d3c7e8605","system_id":"levelo_inurba_marseille","lat":43.3042,"lon":5.41279,"is_reserved":false,"is_disabled":false,"rental_uris":{"android":"levelo://app?vid=8a3dd73a-b790-44ab-a26e-097d3c7e8605","ios":"levelo://app?vid=8a3dd73a-b790-44ab-a26e-097d3c7e8605"},"vehicle_type_id":"4","last_reported":1758374105,"current_range_meters":16400,"station_id":"ce4bhop2rcd13ifvqh8g","pricing_plan_id":"cebpf4jnsgd1na2vs0mg"},{"bike_id":"6908add5-0d7a-4fa4-8c1e-ba48c875c088","system_id":"levelo_inurba_marseille","lat":43.28621,"lon":5.35099,"is_reserved":false,"is_disabled":false,"rental_uris":{"android":"levelo://app?vid=6908add5-0d7a-4fa4-8c1e-ba48c875c088","ios":"levelo://app?vid=6908add5-0d7a-4fa4-8c1e-ba48c875c088"},"vehicle_type_id":"4","last_reported":1758374105,"current_range_meters":16400,"station_id":"ce4bhch2rcd13ifvqeug","pricing_plan_id":"cebpf4jnsgd1na2vs0mg"},{"bike_id":"60a5e849-0cc3-4075-b987-ee2dd7c93ce3","system_id":"levelo_inurba_marseille","lat":43.2119,"lon":5.35062,"is_reserved":false,"is_disabled":false,"rental_uris":{"android":"levelo://app?vid=60a5e849-0cc3-4075-b987-ee2dd7c93ce3","ios":"levelo://app?vid=60a5e849-0cc3-4075-b987-ee2dd7c93ce3"},"vehicle_type_id":"4","last_reported":1758374105,"current_range_meters":16400,"station_id":"st_cvj6sg6p6f1abm77japg","pricing_plan_id":"cebpf4jnsgd1na2vs0mg"},{"bike_id":"4c88ee36-8fda-4324-984b-03133962ce0e","system_id":"levelo_inurba_marseille","lat":43.28617,"lon":5.35105,"is_reserved":false,"is_disabled":false,"rental_uris":{"android":"levelo://app?vid=4c88ee36-8fda-4324-984b-03133962ce0e","ios":"levelo://app?vid=4c88ee36-8fda-4324-984b-03133962ce0e"},"vehicle_type_id":"4","last_reported":1758374105,"current_range_meters":16400,"station_id":"ce4bhch2rcd13ifvqeug","pricing_plan_id":"cebpf4jnsgd1na2vs0mg"},{"bike_id":"32b9e56e-8a59-4bea-89b5-1a85a2262e6d","system_id":"levelo_inurba_marseille","lat":43.28291,"lon":5.35041,"is_reserved":false,"is_disabled":false,"rental_uris":{"android":"levelo://app?vid=32b9e56e-8a59-4bea-89b5-1a85a2262e6d","ios":"levelo://app?vid=32b9e56e-8a59-4bea-89b5-1a85a2262e6d"},"vehicle_type_id":"4","last_reported":1758374105,"current_range_meters":16400,"station_id":"ce4bhbp2rcd13ifvqerg","pricing_plan_id":"cebpf4jnsgd1na2vs0mg"},{"bike_id":"ee6d0940-1dc3-470c-8280-f336617079e2","system_id":"levelo_inurba_marseille","lat":43.23064,"lon":5.35482,"is_reserved":false,"is_disabled":false,"rental_uris":{"android":"levelo://app?vid=ee6d0940-1dc3-470c-8280-f336617079e2","ios":"levelo://app?vid=ee6d0940-1dc3-470c-8280-f336617079e2"},"vehicle_type_id":"4","last_reported":1758374105,"current_range_meters":16400,"station_id":"cpo3342slgdg3j2ifvpg","pricing_plan_id":"cebpf4jnsgd1na2vs0mg"},{"bike_id":"97514a44-1f4d-4ae1-a270-04ca7b75c621","system_id":"levelo_inurba_marseille","lat":43.28865,"lon":5.4252,"is_reserved":false,"is_disabled":false,"rental_uris":{"android":"levelo://app?vid=97514a44-1f4d-4ae1-a270-04ca7b75c621","ios":"levelo://app?vid=97514a44-1f4d-4ae1-a270-04ca7b75c621"},"vehicle_type_id":"4","last_reported":1758374105,"current_range_meters":16400,"station_id":"","pricing_plan_id":"cebpf4jnsgd1na2vs0mg"},{"bike_id":"5319fae8-be79-4d87-b5d0-b333eba32d6a","system_id":"levelo_inurba_marseille","lat":43.211938,"lon":5.3507,"is_reserved":false,"is_disabled":false,"rental_uris":{"android":"levelo://app?vid=5319fae8-be79-4d87-b5d0-b333eba32d6a","ios":"levelo://app?vid=5319fae8-be79-4d87-b5d0-b333eba32d6a"},"vehicle_type_id":"4","last_reported":1758374105,"current_range_meters":16400,"station_id":"st_cvj6sg6p6f1abm77japg","pricing_plan_id":"cebpf4jnsgd1na2vs0mg"},{"bike_id":"8171bb39-1823-4beb-9d0f-da3a0a84e3df","system_id":"levelo_inurba_marseille","lat":43.23056,"lon":5.35492,"is_reserved":false,"is_disabled":false,"rental_uris":{"android":"levelo://app?vid=8171bb39-1823-4beb-9d0f-da3a0a84e3df","ios":"levelo://app?vid=8171bb39-1823-4beb-9d0f-da3a0a84e3df"},"vehicle_type_id":"4","last_reported":1758374105,"current_range_meters":16400,"station_id":"cpo3342slgdg3j2ifvpg","pricing_plan_id":"cebpf4jnsgd1na2vs0mg"},{"bike_id":"43d57fd4-047e-4ac8-97e5-ec9b96239472","system_id":"levelo_inurba_marseille","lat":43.33355,"lon":5.39794,"is_reserved":false,"is_disabled":false,"rental_uris":{"android":"levelo://app?vid=43d57fd4-047e-4ac8-97e5-ec9b96239472","ios":"levelo://app?vid=43d57fd4-047e-4ac8-97e5-ec9b96239472"},"vehicle_type_id":"4","last_reported":1758374105,"current_range_meters":16400,"station_id":"","pricing_plan_id":"cebpf4jnsgd1na2vs0mg"},{"bike_id":"534ff5b4-9e83-493b-9063-104ef0af4212","system_id":"levelo_inurba_marseille","lat":43.27999,"lon":5.41653,"is_reserved":false,"is_disabled":true,"rental_uris":{"android":"levelo://app?vid=534ff5b4-9e83-493b-9063-104ef0af4212","ios":"levelo://app?vid=534ff5b4-9e83-493b-9063-104ef0af4212"},"vehicle_type_id":"4","last_reported":1758374105,"current_range_meters":16400,"station_id":"ce4bho12rcd13ifvqh1g","pricing_plan_id":"cebpf4jnsgd1na2vs0mg"},{"bike_id":"35da6695-3201-4ea6-8792-a27d60e37cb4","system_id":"levelo_inurba_marseille","lat":43.26189,"lon":5.3705,"is_reserved":false,"is_disabled":false,"rental_uris":{"android":"levelo://app?vid=35da6695-3201-4ea6-8792-a27d60e37cb4","ios":"levelo://app?vid=35da6695-3201-4ea6-8792-a27d60e37cb4"},"vehicle_type_id":"4","last_reported":1758374105,"current_range_meters":16400,"station_id":"","pricing_plan_id":"cebpf4jnsgd1na2vs0mg"},{"bike_id":"e55c860a-b151-4262-b6af-0cafb356638f","system_id":"levelo_inurba_marseille","lat":43.231901,"lon":5.399915,"is_reserved":false,"is_disabled":false,"rental_uris":{"android":"levelo://app?vid=e55c860a-b151-4262-b6af-0cafb356638f","ios":"levelo://app?vid=e55c860a-b151-4262-b6af-0cafb356638f"},"vehicle_type_id":"4","last_reported":1758374105,"current_range_meters":16400,"station_id":"ce4bhn12rcd13ifvqgqg","pricing_plan_id":"cebpf4jnsgd1na2vs0mg"},{"bike_id":"d801b961-8b0f-429d-9d3e-817010448aec","system_id":"levelo_inurba_marseille","lat":43.337632,"lon":5.374376,"is_reserved":false,"is_disabled":false,"rental_uris":{"android":"levelo://app?vid=d801b961-8b0f-429d-9d3e-817010448aec","ios":"levelo://app?vid=d801b961-8b0f-429d-9d3e-817010448aec"},"vehicle_type_id":"4","last_reported":1758374105,"current_range_meters":16800,"station_id":"","pricing_plan_id":"cebpf4jnsgd1na2vs0mg"},{"bike_id":"73f29d37-9d61-447a-99e1-0bf71f91fed0","system_id":"levelo_inurba_marseille","lat":43.28416,"lon":5.34973,"is_reserved":false,"is_disabled":false,"rental_uris":{"android":"levelo://app?vid=73f29d37-9d61-447a-99e1-0bf71f91fed0","ios":"levelo://app?vid=73f29d37-9d61-447a-99e1-0bf71f91fed0"},"vehicle_type_id":"4","last_reported":1758374105,"current_range_meters":16800,"station_id":"ce4bhbh2rcd13ifvqepg","pricing_plan_id":"cebpf4jnsgd1na2vs0mg"},{"bike_id":"118b6d7e-3328-44e2-ae13-d04071b8c00f","system_id":"levelo_inurba_marseille","lat":43.2119,"lon":5.3507,"is_reserved":false,"is_disabled":false,"rental_uris":{"android":"levelo://app?vid=118b6d7e-3328-44e2-ae13-d04071b8c00f","ios":"levelo://app?vid=118b6d7e-3328-44e2-ae13-d04071b8c00f"},"vehicle_type_id":"4","last_reported":1758374105,"current_range_meters":16800,"station_id":"st_cvj6sg6p6f1abm77japg","pricing_plan_id":"cebpf4jnsgd1na2vs0mg"},{"bike_id":"9637c146-59d7-436a-a4f3-e8022fe36949","system_id":"levelo_inurba_marseille","lat":43.21207,"lon":5.35055,"is_reserved":false,"is_disabled":false,"rental_uris":{"android":"levelo://app?vid=9637c146-59d7-436a-a4f3-e8022fe36949","ios":"levelo://app?vid=9637c146-59d7-436a-a4f3-e8022fe36949"},"vehicle_type_id":"4","last_reported":1758374105,"current_range_meters":16800,"station_id":"st_cvj6sg6p6f1abm77japg","pricing_plan_id":"cebpf4jnsgd1na2vs0mg"},{"bike_id":"efc713a1-3d97-4e42-9eb1-d1cc9ae8553f","system_id":"levelo_inurba_marseille","lat":43.2827,"lon":5.35059,"is_reserved":false,"is_disabled":false,"rental_uris":{"android":"levelo://app?vid=efc713a1-3d97-4e42-9eb1-d1cc9ae8553f","ios":"levelo://app?vid=efc713a1-3d97-4e42-9eb1-d1cc9ae8553f"},"vehicle_type_id":"4","last_reported":1758374105,"current_range_meters":17200,"station_id":"ce4bhbp2rcd13ifvqerg","pricing_plan_id":"cebpf4jnsgd1na2vs0mg"},{"bike_id":"3c1f1de5-0d8a-4c47-a5b1-b1c5e4884af7","system_id":"levelo_inurba_marseille","lat":43.240866,"lon":5.362963,"is_reserved":false,"is_disabled":false,"rental_uris":{"android":"levelo://app?vid=3c1f1de5-0d8a-4c47-a5b1-b1c5e4884af7","ios":"levelo://app?vid=3c1f1de5-0d8a-4c47-a5b1-b1c5e4884af7"},"vehicle_type_id":"4","last_reported":1758374105,"current_range_meters":17200,"station_id":"ce4bhh12rcd13ifvqff0","pricing_plan_id":"cebpf4jnsgd1na2vs0mg"},{"bike_id":"5cd1e486-7b26-481d-9fa2-9cbdde02ba17","system_id":"levelo_inurba_marseille","lat":43.28411,"lon":5.34971,"is_reserved":false,"is_disabled":false,"rental_uris":{"android":"levelo://app?vid=5cd1e486-7b26-481d-9fa2-9cbdde02ba17","ios":"levelo://app?vid=5cd1e486-7b26-481d-9fa2-9cbdde02ba17"},"vehicle_type_id":"4","last_reported":1758374105,"current_range_meters":17200,"station_id":"ce4bhbh2rcd13ifvqepg","pricing_plan_id":"cebpf4jnsgd1na2vs0mg"},{"bike_id":"98707cf0-5c53-412b-8c7f-b9efd71b5c8e","system_id":"levelo_inurba_marseille","lat":43.26558,"lon":5.37282,"is_reserved":false,"is_disabled":false,"rental_uris":{"android":"levelo://app?vid=98707cf0-5c53-412b-8c7f-b9efd71b5c8e","ios":"levelo://app?vid=98707cf0-5c53-412b-8c7f-b9efd71b5c8e"},"vehicle_type_id":"4","last_reported":1758374105,"current_range_meters":17200,"station_id":"ce4bhg12rcd13ifvqf70","pricing_plan_id":"cebpf4jnsgd1na2vs0mg"},{"bike_id":"61183c5b-24a7-40b0-a073-cfa757e6c464","system_id":"levelo_inurba_marseille","lat":43.23949,"lon":5.36656,"is_reserved":false,"is_disabled":false,"rental_uris":{"android":"levelo://app?vid=61183c5b-24a7-40b0-a073-cfa757e6c464","ios":"levelo://app?vid=61183c5b-24a7-40b0-a073-cfa757e6c464"},"vehicle_type_id":"4","last_reported":1758374105,"current_range_meters":17200,"station_id":"ce4bhi12rcd13ifvqfp0","pricing_plan_id":"cebpf4jnsgd1na2vs0mg"},{"bike_id":"6f00a981-ea1c-4e5d-813b-84daaa170976","system_id":"levelo_inurba_marseille","lat":43.286208,"lon":5.351049,"is_reserved":false,"is_disabled":false,"rental_uris":{"android":"levelo://app?vid=6f00a981-ea1c-4e5d-813b-84daaa170976","ios":"levelo://app?vid=6f00a981-ea1c-4e5d-813b-84daaa170976"},"vehicle_type_id":"4","last_reported":1758374105,"current_range_meters":17200,"station_id":"ce4bhch2rcd13ifvqeug","pricing_plan_id":"cebpf4jnsgd1na2vs0mg"},{"bike_id":"3167f28a-6c46-4379-b41f-5bde089ea22d","system_id":"levelo_inurba_marseille","lat":43.21742,"lon":5.34605,"is_reserved":false,"is_disabled":false,"rental_uris":{"android":"levelo://app?vid=3167f28a-6c46-4379-b41f-5bde089ea22d","ios":"levelo://app?vid=3167f28a-6c46-4379-b41f-5bde089ea22d"},"vehicle_type_id":"4","last_reported":1758374105,"current_range_meters":17200,"station_id":"st_cvj6r9ubvosntc0bgbag","pricing_plan_id":"cebpf4jnsgd1na2vs0mg"},{"bike_id":"e86857f8-f405-4657-b145-ec58ed187087","system_id":"levelo_inurba_marseille","lat":43.31484,"lon":5.3881,"is_reserved":false,"is_disabled":false,"rental_uris":{"android":"levelo://app?vid=e86857f8-f405-4657-b145-ec58ed187087","ios":"levelo://app?vid=e86857f8-f405-4657-b145-ec58ed187087"},"vehicle_type_id":"4","last_reported":1758374105,"current_range_meters":17600,"station_id":"ce4bgt92rcd13ifvqcf0","pricing_plan_id":"cebpf4jnsgd1na2vs0mg"},{"bike_id":"71d75c3c-a21c-4360-9a57-702344157240","system_id":"levelo_inurba_marseille","lat":43.24402,"lon":5.37056,"is_reserved":false,"is_disabled":false,"rental_uris":{"android":"levelo://app?vid=71d75c3c-a21c-4360-9a57-702344157240","ios":"levelo://app?vid=71d75c3c-a21c-4360-9a57-702344157240"},"vehicle_type_id":"4","last_reported":1758374105,"current_range_meters":17600,"station_id":"ce4bhhh2rcd13ifvqfk0","pricing_plan_id":"cebpf4jnsgd1na2vs0mg"},{"bike_id":"5e845cf4-60f1-4566-aad1-cf4d2d13c15d","system_id":"levelo_inurba_marseille","lat":43.21764,"lon":5.34595,"is_reserved":false,"is_disabled":false,"rental_uris":{"android":"levelo://app?vid=5e845cf4-60f1-4566-aad1-cf4d2d13c15d","ios":"levelo://app?vid=5e845cf4-60f1-4566-aad1-cf4d2d13c15d"},"vehicle_type_id":"4","last_reported":1758374105,"current_range_meters":17600,"station_id":"st_cvj6r9ubvosntc0bgbag","pricing_plan_id":"cebpf4jnsgd1na2vs0mg"},{"bike_id":"d309effb-ef13-4c29-b1b9-d1857e082fac","system_id":"levelo_inurba_marseille","lat":43.23077,"lon":5.35478,"is_reserved":false,"is_disabled":false,"rental_uris":{"android":"levelo://app?vid=d309effb-ef13-4c29-b1b9-d1857e082fac","ios":"levelo://app?vid=d309effb-ef13-4c29-b1b9-d1857e082fac"},"vehicle_type_id":"4","last_reported":1758374105,"current_range_meters":17600,"station_id":"cpo3342slgdg3j2ifvpg","pricing_plan_id":"cebpf4jnsgd1na2vs0mg"},{"bike_id":"d22ec590-e894-4a97-b033-1594cbdf4206","system_id":"levelo_inurba_marseille","lat":43.29681,"lon":5.3729,"is_reserved":false,"is_disabled":false,"rental_uris":{"android":"levelo://app?vid=d22ec590-e894-4a97-b033-1594cbdf4206","ios":"levelo://app?vid=d22ec590-e894-4a97-b033-1594cbdf4206"},"vehicle_type_id":"4","last_reported":1758374105,"current_range_meters":17200,"station_id":"ce4bgk12rcd13ifvqbj0","pricing_plan_id":"cebpf4jnsgd1na2vs0mg"},{"bike_id":"382ebfe6-6b1c-4f25-8a99-6e6970139651","system_id":"levelo_inurba_marseille","lat":43.27624,"lon":5.36107,"is_reserved":false,"is_disabled":false,"rental_uris":{"android":"levelo://app?vid=382ebfe6-6b1c-4f25-8a99-6e6970139651","ios":"levelo://app?vid=382ebfe6-6b1c-4f25-8a99-6e6970139651"},"vehicle_type_id":"4","last_reported":1758374105,"current_range_meters":17200,"station_id":"ce4bgj92rcd13ifvqbe0","pricing_plan_id":"cebpf4jnsgd1na2vs0mg"},{"bike_id":"363d99e5-837c-43c8-abcc-c80ef2e2786a","system_id":"levelo_inurba_marseille","lat":43.21204,"lon":5.35063,"is_reserved":false,"is_disabled":false,"rental_uris":{"android":"levelo://app?vid=363d99e5-837c-43c8-abcc-c80ef2e2786a","ios":"levelo://app?vid=363d99e5-837c-43c8-abcc-c80ef2e2786a"},"vehicle_type_id":"4","last_reported":1758374105,"current_range_meters":17600,"station_id":"st_cvj6sg6p6f1abm77japg","pricing_plan_id":"cebpf4jnsgd1na2vs0mg"},{"bike_id":"470885ba-ec7f-4017-b190-fffcd194f8e5","system_id":"levelo_inurba_marseille","lat":43.282705,"lon":5.350651,"is_reserved":false,"is_disabled":false,"rental_uris":{"android":"levelo://app?vid=470885ba-ec7f-4017-b190-fffcd194f8e5","ios":"levelo://app?vid=470885ba-ec7f-4017-b190-fffcd194f8e5"},"vehicle_type_id":"4","last_reported":1758374105,"current_range_meters":17600,"station_id":"ce4bhbp2rcd13ifvqerg","pricing_plan_id":"cebpf4jnsgd1na2vs0mg"},{"bike_id":"f34c9f4f-46c1-47a4-b87a-5393b39aa867","system_id":"levelo_inurba_marseille","lat":43.217415,"lon":5.34602,"is_reserved":false,"is_disabled":false,"rental_uris":{"android":"levelo://app?vid=f34c9f4f-46c1-47a4-b87a-5393b39aa867","ios":"levelo://app?vid=f34c9f4f-46c1-47a4-b87a-5393b39aa867"},"vehicle_type_id":"4","last_reported":1758374105,"current_range_meters":17600,"station_id":"st_cvj6r9ubvosntc0bgbag","pricing_plan_id":"cebpf4jnsgd1na2vs0mg"},{"bike_id":"ba1605ef-ec48-43b2-8028-026e2d342e63","system_id":"levelo_inurba_marseille","lat":43.21193,"lon":5.35073,"is_reserved":false,"is_disabled":false,"rental_uris":{"android":"levelo://app?vid=ba1605ef-ec48-43b2-8028-026e2d342e63","ios":"levelo://app?vid=ba1605ef-ec48-43b2-8028-026e2d342e63"},"vehicle_type_id":"4","last_reported":1758374105,"current_range_meters":17600,"station_id":"st_cvj6sg6p6f1abm77japg","pricing_plan_id":"cebpf4jnsgd1na2vs0mg"},{"bike_id":"76bbf107-7ec5-4826-b296-ab629ecd14ab","system_id":"levelo_inurba_marseille","lat":43.29832,"lon":5.42037,"is_reserved":false,"is_disabled":false,"rental_uris":{"android":"levelo://app?vid=76bbf107-7ec5-4826-b296-ab629ecd14ab","ios":"levelo://app?vid=76bbf107-7ec5-4826-b296-ab629ecd14ab"},