{"last_updated":1739790474,"ttl":60,"version":"2.2","data":{"bikes":[{"bike_id":"1d9534c0-5db5-48c2-a707-0528db252be3","system_id":"levelo_inurba_marseille","lat":43.24548,"lon":5.39527,"is_reserved":false,"is_disabled":false,"rental_uris":{"android":"levelo://app?vid=1d9534c0-5db5-48c2-a707-0528db252be3","ios":"levelo://app?vid=1d9534c0-5db5-48c2-a707-0528db252be3"},"vehicle_type_id":"4","last_reported":1739790474,"current_range_meters":2000,"station_id":"ce4bhlp2rcd13ifvqgjg","pricing_plan_id":"cebpf4jnsgd1na2vs0mg"},{"bike_id":"fed58843-125c-4804-91a4-2f3b6ea1c6b9","system_id":"levelo_inurba_marseille","lat":43.22936,"lon":5.35372,"is_reserved":false,"is_disabled":true,"rental_uris":{"android":"levelo://app?vid=fed58843-125c-4804-91a4-2f3b6ea1c6b9","ios":"levelo://app?vid=fed58843-125c-4804-91a4-2f3b6ea1c6b9"},"vehicle_type_id":"4","last_reported":1739790474,"current_range_meters":2800,"station_id":"cpo3532slgdg3j2ikp40","pricing_plan_id":"cebpf4jnsgd1na2vs0mg"},{"bike_id":"913ba755-27d1-4918-9fb1-0fe5c8019cc6","system_id":"levelo_inurba_marseille","lat":43.330791,"lon":5.380189,"is_reserved":false,"is_disabled":false,"rental_uris":{"android":"levelo://app?vid=913ba755-27d1-4918-9fb1-0fe5c8019cc6","ios":"levelo://app?vid=913ba755-27d1-4918-9fb1-0fe5c8019cc6"},"vehicle_type_id":"4","last_reported":1739790474,"current_range_meters":2800,"station_id":"","pricing_plan_id":"cebpf4jnsgd1na2vs0mg"},{"bike_id":"c2fa44d2-d6cf-4a23-8b96-9730633c9ce1","system_id":"levelo_inurba_marseille","lat":43.23495,"lon":5.3792,"is_reserved":false,"is_disabled":false,"rental_uris":{"android":"levelo://app?vid=c2fa44d2-d6cf-4a23-8b96-9730633c9ce1","ios":"levelo://app?vid=c2fa44d2-d6cf-4a23-8b96-9730633c9ce1"},"vehicle_type_id":"4","last_reported":1739790474,"current_range_meters":2800,"station_id":"","pricing_plan_id":"cebpf4jnsgd1na2vs0mg"},{"bike_id":"9e7a1b36-2e01-4a75-8def-35cec576c3c5","system_id":"levelo_inurba_marseille","lat":43.27125,"lon":5.39236,"is_reserved":false,"is_disabled":true,"rental_uris":{"android":"levelo://app?vid=9e7a1b36-2e01-4a75-8def-35cec576c3c5","ios":"levelo://app?vid=9e7a1b36-2e01-4a75-8def-35cec576c3c5"},"vehicle_type_id":"4","last_reported":1739790474,"current_range_meters":3200,"station_id":"","pricing_plan_id":"cebpf4jnsgd1na2vs0mg"},{"bike_id":"1c5b6508-a6a7-4d42-83d3-0ad882d70033","system_id":"levelo_inurba_marseille","lat":43.27307,"lon":5.39091,"is_reserved":false,"is_disabled":false,"rental_uris":{"android":"levelo://app?vid=1c5b6508-a6a7-4d42-83d3-0ad882d70033","ios":"levelo://app?vid=1c5b6508-a6a7-4d42-83d3-0ad882d70033"},"vehicle_type_id":"4","last_reported":1739790474,"current_range_meters":3200,"station_id":"ce4bhgp2rcd13ifvqfe0","pricing_plan_id":"cebpf4jnsgd1na2vs0mg"},{"bike_id":"d1f4b90e-a0bf-44a0-8551-fdc016dfecea","system_id":"levelo_inurba_marseille","lat":43.23051,"lon":5.35496,"is_reserved":false,"is_disabled":false,"rental_uris":{"android":"levelo://app?vid=d1f4b90e-a0bf-44a0-8551-fdc016dfecea","ios":"levelo://app?vid=d1f4b90e-a0bf-44a0-8551-fdc016dfecea"},"vehicle_type_id":"4","last_reported":1739790474,"current_range_meters":3600,"station_id":"cpo3342slgdg3j2ifvpg","pricing_plan_id":"cebpf4jnsgd1na2vs0mg"},{"bike_id":"18332cc9-0f16-4941-9018-c3813354a900","system_id":"levelo_inurba_marseille","lat":43.276201,"lon":5.393423,"is_reserved":false,"is_disabled":true,"rental_uris":{"android":"levelo://app?vid=18332cc9-0f16-4941-9018-c3813354a900","ios":"levelo://app?vid=18332cc9-0f16-4941-9018-c3813354a900"},"vehicle_type_id":"4","last_reported":1739790474,"current_range_meters":4000,"station_id":"","pricing_plan_id":"cebpf4jnsgd1na2vs0mg"},{"bike_id":"21ffb26b-7921-4e96-8ce1-1e22ae03bebb","system_id":"levelo_inurba_marseille","lat":43.29849,"lon":5.3629,"is_reserved":false,"is_disabled":false,"rental_uris":{"android":"levelo://app?vid=21ffb26b-7921-4e96-8ce1-1e22ae03bebb","ios":"levelo://app?vid=21ffb26b-7921-4e96-8ce1-1e22ae03bebb"},"vehicle_type_id":"4","last_reported":1739790474,"current_range_meters":4400,"station_id":"ce4bgpp2rcd13ifvqc3g","pricing_plan_id":"cebpf4jnsgd1na2vs0mg"},{"bike_id":"1f54a3d6-03b1-4265-8e45-3df12fe2c9b2","system_id":"levelo_inurba_marseille","lat":43.25009,"lon":5.38908,"is_reserved":false,"is_disabled":false,"rental_uris":{"android":"levelo://app?vid=1f54a3d6-03b1-4265-8e45-3df12fe2c9b2","ios":"levelo://app?vid=1f54a3d6-03b1-4265-8e45-3df12fe2c9b2"},"vehicle_type_id":"4","last_reported":1739790474,"current_range_meters":4400,"station_id":"ce4bhgp2rcd13ifvqfd0","pricing_plan_id":"cebpf4jnsgd1na2vs0mg"},{"bike_id":"bf37441d-6eab-46fe-924b-ee6634f1b85e","system_id":"levelo_inurba_marseille","lat":43.241721,"lon":5.364039,"is_reserved":false,"is_disabled":false,"rental_uris":{"android":"levelo://app?vid=bf37441d-6eab-46fe-924b-ee6634f1b85e","ios":"levelo://app?vid=bf37441d-6eab-46fe-924b-ee6634f1b85e"},"vehicle_type_id":"4","last_reported":1739790474,"current_range_meters":4400,"station_id":"cpo36qri1sfpv3e86is0","pricing_plan_id":"cebpf4jnsgd1na2vs0mg"},{"bike_id":"cf805522-c938-4f56-bfe1-10e8ddd9c228","system_id":"levelo_inurba_marseille","lat":43.24183,"lon":5.39739,"is_reserved":false,"is_disabled":false,"rental_uris":{"android":"levelo://app?vid=cf805522-c938-4f56-bfe1-10e8ddd9c228","ios":"levelo://app?vid=cf805522-c938-4f56-bfe1-10e8ddd9c228"},"vehicle_type_id":"4","last_reported":1739790474,"current_range_meters":4800,"station_id":"ce4bhn12rcd13ifvqgpg","pricing_plan_id":"cebpf4jnsgd1na2vs0mg"},{"bike_id":"195de0eb-7f44-4be2-b666-380d7bfc425c","system_id":"levelo_inurba_marseille","lat":43.23182,"lon":5.39992,"is_reserved":false,"is_disabled":false,"rental_uris":{"android":"levelo://app?vid=195de0eb-7f44-4be2-b666-380d7bfc425c","ios":"levelo://app?vid=195de0eb-7f44-4be2-b666-380d7bfc425c"},"vehicle_type_id":"4","last_reported":1739790474,"current_range_meters":4800,"station_id":"ce4bhn12rcd13ifvqgqg","pricing_plan_id":"cebpf4jnsgd1na2vs0mg"},{"bike_id":"8a879682-484a-481f-bf98-36c0aaf7a357","system_id":"levelo_inurba_marseille","lat":43.29529,"lon":5.38542,"is_reserved":false,"is_disabled":false,"rental_uris":{"android":"levelo://app?vid=8a879682-484a-481f-bf98-36c0aaf7a357","ios":"levelo://app?vid=8a879682-484a-481f-bf98-36c0aaf7a357"},"vehicle_type_id":"4","last_reported":1739790474,"current_range_meters":4800,"station_id":"ce4bgih2rcd13ifvqba0","pricing_plan_id":"cebpf4jnsgd1na2vs0mg"},{"bike_id":"5221f4c0-9f1c-498e-86bd-57456c79685e","system_id":"levelo_inurba_marseille","lat":43.32128,"lon":5.36766,"is_reserved":false,"is_disabled":false,"rental_uris":{"android":"levelo://app?vid=5221f4c0-9f1c-498e-86bd-57456c79685e","ios":"levelo://app?vid=5221f4c0-9f1c-498e-86bd-57456c79685e"},"vehicle_type_id":"4","last_reported":1739790474,"current_range_meters":5600,"station_id":"ce4bhrh2rcd13ifvqhug","pricing_plan_id":"cebpf4jnsgd1na2vs0mg"},{"bike_id":"970233c9-2f34-4b53-9f55-cd82435f37b7","system_id":"levelo_inurba_marseille","lat":43.24177,"lon":5.39726,"is_reserved":false,"is_disabled":false,"rental_uris":{"android":"levelo://app?vid=970233c9-2f34-4b53-9f55-cd82435f37b7","ios":"levelo://app?vid=970233c9-2f34-4b53-9f55-cd82435f37b7"},"vehicle_type_id":"4","last_reported":1739790474,"current_range_meters":5600,"station_id":"ce4bhn12rcd13ifvqgpg","pricing_plan_id":"cebpf4jnsgd1na2vs0mg"},{"bike_id":"79909bc6-cbf1-46b7-93eb-756214a1a9c6","system_id":"levelo_inurba_marseille","lat":43.29283,"lon":5.401085,"is_reserved":false,"is_disabled":true,"rental_uris":{"android":"levelo://app?vid=79909bc6-cbf1-46b7-93eb-756214a1a9c6","ios":"levelo://app?vid=79909bc6-cbf1-46b7-93eb-756214a1a9c6"},"vehicle_type_id":"4","last_reported":1739790474,"current_range_meters":5600,"station_id":"","pricing_plan_id":"cebpf4jnsgd1na2vs0mg"},{"bike_id":"df60d901-b3b1-42f8-a6b8-db98e79a5081","system_id":"levelo_inurba_marseille","lat":43.25822,"lon":5.39433,"is_reserved":false,"is_disabled":false,"rental_uris":{"android":"levelo://app?vid=df60d901-b3b1-42f8-a6b8-db98e79a5081","ios":"levelo://app?vid=df60d901-b3b1-42f8-a6b8-db98e79a5081"},"vehicle_type_id":"4","last_reported":1739790474,"current_range_meters":5600,"station_id":"ce4bhip2rcd13ifvqft0","pricing_plan_id":"cebpf4jnsgd1na2vs0mg"},{"bike_id":"4e7beed8-3f51-4c59-a37c-0ac46140a818","system_id":"levelo_inurba_marseille","lat":43.26939,"lon":5.38636,"is_reserved":false,"is_disabled":true,"rental_uris":{"android":"levelo://app?vid=4e7beed8-3f51-4c59-a37c-0ac46140a818","ios":"levelo://app?vid=4e7beed8-3f51-4c59-a37c-0ac46140a818"},"vehicle_type_id":"4","last_reported":1739790474,"current_range_meters":5600,"station_id":"ce4bhh92rcd13ifvqfh0","pricing_plan_id":"cebpf4jnsgd1na2vs0mg"},{"bike_id":"50cb4322-4d23-4ef5-b923-63d6781ebf25","system_id":"levelo_inurba_marseille","lat":43.24166,"lon":5.36414,"is_reserved":false,"is_disabled":false,"rental_uris":{"android":"levelo://app?vid=50cb4322-4d23-4ef5-b923-63d6781ebf25","ios":"levelo://app?vid=50cb4322-4d23-4ef5-b923-63d6781ebf25"},"vehicle_type_id":"4","last_reported":1739790474,"current_range_meters":6000,"station_id":"cpo36qri1sfpv3e86is0","pricing_plan_id":"cebpf4jnsgd1na2vs0mg"},{"bike_id":"3be9a2d8-40ed-4ba7-99bc-ad8e5a8a0440","system_id":"levelo_inurba_marseille","lat":43.2908,"lon":5.38146,"is_reserved":false,"is_disabled":false,"rental_uris":{"android":"levelo://app?vid=3be9a2d8-40ed-4ba7-99bc-ad8e5a8a0440","ios":"levelo://app?vid=3be9a2d8-40ed-4ba7-99bc-ad8e5a8a0440"},"vehicle_type_id":"4","last_reported":1739790474,"current_range_meters":6000,"station_id":"ce4bh512rcd13ifvqe2g","pricing_plan_id":"cebpf4jnsgd1na2vs0mg"},{"bike_id":"60e48e3f-1097-44c1-9d09-4ac070f15538","system_id":"levelo_inurba_marseille","lat":43.270664,"lon":5.422812,"is_reserved":false,"is_disabled":true,"rental_uris":{"android":"levelo://app?vid=60e48e3f-1097-44c1-9d09-4ac070f15538","ios":"levelo://app?vid=60e48e3f-1097-44c1-9d09-4ac070f15538"},"vehicle_type_id":"4","last_reported":1739790474,"current_range_meters":6000,"station_id":"ce4bhk92rcd13ifvqgb0","pricing_plan_id":"cebpf4jnsgd1na2vs0mg"},{"bike_id":"3ab54f6a-b15d-4ec7-b3ae-85d888440784","system_id":"levelo_inurba_marseille","lat":43.28394,"lon":5.39465,"is_reserved":false,"is_disabled":false,"rental_uris":{"android":"levelo://app?vid=3ab54f6a-b15d-4ec7-b3ae-85d888440784","ios":"levelo://app?vid=3ab54f6a-b15d-4ec7-b3ae-85d888440784"},"vehicle_type_id":"4","last_reported":1739790474,"current_range_meters":6000,"station_id":"ce4bh312rcd13ifvqdj0","pricing_plan_id":"cebpf4jnsgd1na2vs0mg"},{"bike_id":"f4ab16ce-ef57-4d2d-996d-ee1a9350f516","system_id":"levelo_inurba_marseille","lat":43.2416,"lon":5.364,"is_reserved":false,"is_disabled":false,"rental_uris":{"android":"levelo://app?vid=f4ab16ce-ef57-4d2d-996d-ee1a9350f516","ios":"levelo://app?vid=f4ab16ce-ef57-4d2d-996d-ee1a9350f516"},"vehicle_type_id":"4","last_reported":1739790474,"current_range_meters":6400,"station_id":"cpo36qri1sfpv3e86is0","pricing_plan_id":"cebpf4jnsgd1na2vs0mg"},{"bike_id":"59359c09-1721-4b9a-b259-a0e87b5b6d9d","system_id":"levelo_inurba_marseille","lat":43.305375,"lon":5.365405,"is_reserved":false,"is_disabled":false,"rental_uris":{"android":"levelo://app?vid=59359c09-1721-4b9a-b259-a0e87b5b6d9d","ios":"levelo://app?vid=59359c09-1721-4b9a-b259-a0e87b5b6d9d"},"vehicle_type_id":"4","last_reported":1739790474,"current_range_meters":6400,"station_id":"ce4bgs12rcd13ifvqcag","pricing_plan_id":"cebpf4jnsgd1na2vs0mg"},{"bike_id":"81e141ff-10c0-4c83-8a2d-800fd3f2fe8b","system_id":"levelo_inurba_marseille","lat":43.24542,"lon":5.39568,"is_reserved":false,"is_disabled":false,"rental_uris":{"android":"levelo://app?vid=81e141ff-10c0-4c83-8a2d-800fd3f2fe8b","ios":"levelo://app?vid=81e141ff-10c0-4c83-8a2d-800fd3f2fe8b"},"vehicle_type_id":"4","last_reported":1739790474,"current_range_meters":6400,"station_id":"ce4bhlp2rcd13ifvqgjg","pricing_plan_id":"cebpf4jnsgd1na2vs0mg"},{"bike_id":"f55bc4cd-6ca8-4946-864a-c623159fa693","system_id":"levelo_inurba_marseille","lat":43.30956,"lon":5.39031,"is_reserved":false,"is_disabled":false,"rental_uris":{"android":"levelo://app?vid=f55bc4cd-6ca8-4946-864a-c623159fa693","ios":"levelo://app?vid=f55bc4cd-6ca8-4946-864a-c623159fa693"},"vehicle_type_id":"4","last_reported":1739790474,"current_range_meters":6400,"station_id":"ce4bgup2rcd13ifvqco0","pricing_plan_id":"cebpf4jnsgd1na2vs0mg"},{"bike_id":"10fc5c9b-c06d-48c3-8c80-f7ee8510bec7","system_id":"levelo_inurba_marseille","lat":43.29263,"lon":5.37616,"is_reserved":false,"is_disabled":false,"rental_uris":{"android":"levelo://app?vid=10fc5c9b-c06d-48c3-8c80-f7ee8510bec7","ios":"levelo://app?vid=10fc5c9b-c06d-48c3-8c80-f7ee8510bec7"},"vehicle_type_id":"4","last_reported":1739790474,"current_range_meters":6400,"station_id":"ce4bgi12rcd13ifvqb80","pricing_plan_id":"cebpf4jnsgd1na2vs0mg"},{"bike_id":"78f4bdd7-3705-4c52-8a58-66f48653947a","system_id":"levelo_inurba_marseille","lat":43.2883,"lon":5.39333,"is_reserved":false,"is_disabled":false,"rental_uris":{"android":"levelo://app?vid=78f4bdd7-3705-4c52-8a58-66f48653947a","ios":"levelo://app?vid=78f4bdd7-3705-4c52-8a58-66f48653947a"},"vehicle_type_id":"4","last_reported":1739790474,"current_range_meters":6800,"station_id":"ce4bh2p2rcd13ifvqdi0","pricing_plan_id":"cebpf4jnsgd1na2vs0mg"},{"bike_id":"317de06d-60d5-4019-b356-8c7dd9cf959d","system_id":"levelo_inurba_marseille","lat":43.29783,"lon":5.37101,"is_reserved":false,"is_disabled":false,"rental_uris":{"android":"levelo://app?vid=317de06d-60d5-4019-b356-8c7dd9cf959d","ios":"levelo://app?vid=317de06d-60d5-4019-b356-8c7dd9cf959d"},"vehicle_type_id":"4","last_reported":1739790474,"current_range_meters":6800,"station_id":"ce4bhhh2rcd13ifvqfl0","pricing_plan_id":"cebpf4jnsgd1na2vs0mg"},{"bike_id":"f1925382-0000-45e0-97cc-46c87f149bf3","system_id":"levelo_inurba_marseille","lat":43.32102,"lon":5.36778,"is_reserved":false,"is_disabled":true,"rental_uris":{"android":"levelo://app?vid=f1925382-0000-45e0-97cc-46c87f149bf3","ios":"levelo://app?vid=f1925382-0000-45e0-97cc-46c87f149bf3"},"vehicle_type_id":"4","last_reported":1739790474,"current_range_meters":6800,"station_id":"","pricing_plan_id":"cebpf4jnsgd1na2vs0mg"},{"bike_id":"cc542e43-252f-480f-bf7c-fb91a6fa7489","system_id":"levelo_inurba_marseille","lat":43.32346,"lon":5.4062,"is_reserved":false,"is_disabled":false,"rental_uris":{"android":"levelo://app?vid=cc542e43-252f-480f-bf7c-fb91a6fa7489","ios":"levelo://app?vid=cc542e43-252f-480f-bf7c-fb91a6fa7489"},"vehicle_type_id":"4","last_reported":1739790474,"current_range_meters":6800,"station_id":"ce4bhq92rcd13ifvqhjg","pricing_plan_id":"cebpf4jnsgd1na2vs0mg"},{"bike_id":"d44236ba-71a5-47f7-b336-30d61a0779fa","system_id":"levelo_inurba_marseille","lat":43.241802,"lon":5.397293,"is_reserved":false,"is_disabled":false,"rental_uris":{"android":"levelo://app?vid=d44236ba-71a5-47f7-b336-30d61a0779fa","ios":"levelo://app?vid=d44236ba-71a5-47f7-b336-30d61a0779fa"},"vehicle_type_id":"4","last_reported":1739790474,"current_range_meters":6800,"station_id":"ce4bhn12rcd13ifvqgpg","pricing_plan_id":"cebpf4jnsgd1na2vs0mg"},{"bike_id":"6b21d320-52d0-422d-a96b-25dc166ffb72","system_id":"levelo_inurba_marseille","lat":43.30403,"lon":5.41289,"is_reserved":false,"is_disabled":true,"rental_uris":{"android":"levelo://app?vid=6b21d320-52d0-422d-a96b-25dc166ffb72","ios":"levelo://app?vid=6b21d320-52d0-422d-a96b-25dc166ffb72"},"vehicle_type_id":"4","last_reported":1739790474,"current_range_meters":6800,"station_id":"ce4bhop2rcd13ifvqh8g","pricing_plan_id":"cebpf4jnsgd1na2vs0mg"},{"bike_id":"9ae471d4-4dd3-41f6-a4b8-52241712af90","system_id":"levelo_inurba_marseille","lat":43.28146,"lon":5.42645,"is_reserved":false,"is_disabled":false,"rental_uris":{"android":"levelo://app?vid=9ae471d4-4dd3-41f6-a4b8-52241712af90","ios":"levelo://app?vid=9ae471d4-4dd3-41f6-a4b8-52241712af90"},"vehicle_type_id":"4","last_reported":1739790474,"current_range_meters":7200,"station_id":"ce4bhnh2rcd13ifvqgug","pricing_plan_id":"cebpf4jnsgd1na2vs0mg"},{"bike_id":"1d6f5a5a-bf78-4d12-91e4-6dc8a2b7ed98","system_id":"levelo_inurba_marseille","lat":43.27494,"lon":5.42455,"is_reserved":false,"is_disabled":false,"rental_uris":{"android":"levelo://app?vid=1d6f5a5a-bf78-4d12-91e4-6dc8a2b7ed98","ios":"levelo://app?vid=1d6f5a5a-bf78-4d12-91e4-6dc8a2b7ed98"},"vehicle_type_id":"4","last_reported":1739790474,"current_range_meters":7200,"station_id":"ce4bhn92rcd13ifvqgrg","pricing_plan_id":"cebpf4jnsgd1na2vs0mg"},{"bike_id":"6acc8b46-6c71-42ac-ab11-fe0bd4cbe7ee","system_id":"levelo_inurba_marseille","lat":43.25826,"lon":5.39407,"is_reserved":false,"is_disabled":false,"rental_uris":{"android":"levelo://app?vid=6acc8b46-6c71-42ac-ab11-fe0bd4cbe7ee","ios":"levelo://app?vid=6acc8b46-6c71-42ac-ab11-fe0bd4cbe7ee"},"vehicle_type_id":"4","last_reported":1739790474,"current_range_meters":8000,"station_id":"ce4bhip2rcd13ifvqft0","pricing_plan_id":"cebpf4jnsgd1na2vs0mg"},{"bike_id":"08fdc91c-5574-4b86-8dbc-76bb9d864ef2","system_id":"levelo_inurba_marseille","lat":43.29151,"lon":5.3718,"is_reserved":false,"is_disabled":false,"rental_uris":{"android":"levelo://app?vid=08fdc91c-5574-4b86-8dbc-76bb9d864ef2","ios":"levelo://app?vid=08fdc91c-5574-4b86-8dbc-76bb9d864ef2"},"vehicle_type_id":"4","last_reported":1739790474,"current_range_meters":8400,"station_id":"ce4bha92rcd13ifvqeh0","pricing_plan_id":"cebpf4jnsgd1na2vs0mg"},{"bike_id":"68c9ec09-efa3-42b7-9d9b-298456b6ded4","system_id":"levelo_inurba_marseille","lat":43.304636,"lon":5.369638,"is_reserved":false,"is_disabled":false,"rental_uris":{"android":"levelo://app?vid=68c9ec09-efa3-42b7-9d9b-298456b6ded4","ios":"levelo://app?vid=68c9ec09-efa3-42b7-9d9b-298456b6ded4"},"vehicle_type_id":"4","last_reported":1739790474,"current_range_meters":8000,"station_id":"","pricing_plan_id":"cebpf4jnsgd1na2vs0mg"},{"bike_id":"c4916927-7d10-4eb6-bf80-df6fa900d439","system_id":"levelo_inurba_marseille","lat":43.29555,"lon":5.42295,"is_reserved":false,"is_disabled":true,"rental_uris":{"android":"levelo://app?vid=c4916927-7d10-4eb6-bf80-df6fa900d439","ios":"levelo://app?vid=c4916927-7d10-4eb6-bf80-df6fa900d439"},"vehicle_type_id":"4","last_reported":1739790474,"current_range_meters":8000,"station_id":"ce4bhph2rcd13ifvqhdg","pricing_plan_id":"cebpf4jnsgd1na2vs0mg"},{"bike_id":"ce61429a-686f-445d-80d9-4b10876ed4ef","system_id":"levelo_inurba_marseille","lat":43.337444,"lon":5.374475,"is_reserved":false,"is_disabled":true,"rental_uris":{"android":"levelo://app?vid=ce61429a-686f-445d-80d9-4b10876ed4ef","ios":"levelo://app?vid=ce61429a-686f-445d-80d9-4b10876ed4ef"},"vehicle_type_id":"4","last_reported":1739790474,"current_range_meters":8000,"station_id":"","pricing_plan_id":"cebpf4jnsgd1na2vs0mg"},{"bike_id":"3a9a968d-dcc9-4ffb-90af-aadcb8469a1d","system_id":"levelo_inurba_marseille","lat":43.32229,"lon":5.39417,"is_reserved":false,"is_disabled":false,"rental_uris":{"android":"levelo://app?vid=3a9a968d-dcc9-4ffb-90af-aadcb8469a1d","ios":"levelo://app?vid=3a9a968d-dcc9-4ffb-90af-aadcb8469a1d"},"vehicle_type_id":"4","last_reported":1739790474,"current_range_meters":8000,"station_id":"","pricing_plan_id":"cebpf4jnsgd1na2vs0mg"},{"bike_id":"f0e5ccf5-8430-4888-a633-6332fa86a461","system_id":"levelo_inurba_marseille","lat":43.27202,"lon":5.39187,"is_reserved":false,"is_disabled":false,"rental_uris":{"android":"levelo://app?vid=f0e5ccf5-8430-4888-a633-6332fa86a461","ios":"levelo://app?vid=f0e5ccf5-8430-4888-a633-6332fa86a461"},"vehicle_type_id":"4","last_reported":1739790474,"current_range_meters":8000,"station_id":"ce4bhhp2rcd13ifvqfm0","pricing_plan_id":"cebpf4jnsgd1na2vs0mg"},{"bike_id":"20ca092b-8539-4d99-8c4a-e78c179f2eff","system_id":"levelo_inurba_marseille","lat":43.29958,"lon":5.41319,"is_reserved":false,"is_disabled":false,"rental_uris":{"android":"levelo://app?vid=20ca092b-8539-4d99-8c4a-e78c179f2eff","ios":"levelo://app?vid=20ca092b-8539-4d99-8c4a-e78c179f2eff"},"vehicle_type_id":"4","last_reported":1739790474,"current_range_meters":8000,"station_id":"","pricing_plan_id":"cebpf4jnsgd1na2vs0mg"},{"bike_id":"2b51147d-1f92-480b-a06a-e9b8532cd66d","system_id":"levelo_inurba_marseille","lat":43.279873,"lon":5.416614,"is_reserved":false,"is_disabled":false,"rental_uris":{"android":"levelo://app?vid=2b51147d-1f92-480b-a06a-e9b8532cd66d","ios":"levelo://app?vid=2b51147d-1f92-480b-a06a-e9b8532cd66d"},"vehicle_type_id":"4","last_reported":1739790474,"current_range_meters":8000,"station_id":"ce4bho12rcd13ifvqh1g","pricing_plan_id":"cebpf4jnsgd1na2vs0mg"},{"bike_id":"33a2f713-59cf-4dee-bd5e-cf5438338de0","system_id":"levelo_inurba_marseille","lat":43.3047,"lon":5.36967,"is_reserved":false,"is_disabled":false,"rental_uris":{"android":"levelo://app?vid=33a2f713-59cf-4dee-bd5e-cf5438338de0","ios":"levelo://app?vid=33a2f713-59cf-4dee-bd5e-cf5438338de0"},"vehicle_type_id":"4","last_reported":1739790474,"current_range_meters":8000,"station_id":"","pricing_plan_id":"cebpf4jnsgd1na2vs0mg"},{"bike_id":"47ddb0a4-24c7-4f7e-9a6e-4c9378680212","system_id":"levelo_inurba_marseille","lat":43.31663,"lon":5.40461,"is_reserved":false,"is_disabled":false,"rental_uris":{"android":"levelo://app?vid=47ddb0a4-24c7-4f7e-9a6e-4c9378680212","ios":"levelo://app?vid=47ddb0a4-24c7-4f7e-9a6e-4c9378680212"},"vehicle_type_id":"4","last_reported":1739790474,"current_range_meters":8400,"station_id":"ce4bh012rcd13ifvqd00","pricing_plan_id":"cebpf4jnsgd1na2vs0mg"},{"bike_id":"59b00c00-23f7-406c-a21e-610fea7ab30d","system_id":"levelo_inurba_marseille","lat":43.31748,"lon":5.38824,"is_reserved":false,"is_disabled":false,"rental_uris":{"android":"levelo://app?vid=59b00c00-23f7-406c-a21e-610fea7ab30d","ios":"levelo://app?vid=59b00c00-23f7-406c-a21e-610fea7ab30d"},"vehicle_type_id":"4","last_reported":1739790474,"current_range_meters":8400,"station_id":"","pricing_plan_id":"cebpf4jnsgd1na2vs0mg"},{"bike_id":"875cacae-c7fa-4e86-ae0d-241f9d75c298","system_id":"levelo_inurba_marseille","lat":43.27552,"lon":5.38452,"is_reserved":false,"is_disabled":false,"rental_uris":{"android":"levelo://app?vid=875cacae-c7fa-4e86-ae0d-241f9d75c298","ios":"levelo://app?vid=875cacae-c7fa-4e86-ae0d-241f9d75c298"},"vehicle_type_id":"4","last_reported":1739790474,"current_range_meters":8400,"station_id":"ce4bhh92rcd13ifvqfi0","pricing_plan_id":"cebpf4jnsgd1na2vs0mg"},{"bike_id":"896a9cf1-1381-4f95-ac21-3b9b4c9e94c3","system_id":"levelo_inurba_marseille","lat":43.25928,"lon":5.40913,"is_reserved":false,"is_disabled":false,"rental_uris":{"android":"levelo://app?vid=896a9cf1-1381-4f95-ac21-3b9b4c9e94c3","ios":"levelo://app?vid=896a9cf1-1381-4f95-ac21-3b9b4c9e94c3"},"vehicle_type_id":"4","last_reported":1739790474,"current_range_meters":8400,"station_id":"ce4bhm92rcd13ifvqglg","pricing_plan_id":"cebpf4jnsgd1na2vs0mg"},{"bike_id":"4089f1a0-cd12-42d3-a6c3-01d445970a86","system_id":"levelo_inurba_marseille","lat":43.31265,"lon":5.374175,"is_reserved":false,"is_disabled":false,"rental_uris":{"android":"levelo://app?vid=4089f1a0-cd12-42d3-a6c3-01d445970a86","ios":"levelo://app?vid=4089f1a0-cd12-42d3-a6c3-01d445970a86"},"vehicle_type_id":"4","last_reported":1739790474,"current_range_meters":8400,"station_id":"","pricing_plan_id":"cebpf4jnsgd1na2vs0mg"},{"bike_id":"ab28106f-2229-49a1-b40a-299118591c4a","system_id":"levelo_inurba_marseille","lat":43.24159,"lon":5.36408,"is_reserved":false,"is_disabled":false,"rental_uris":{"android":"levelo://app?vid=ab28106f-2229-49a1-b40a-299118591c4a","ios":"levelo://app?vid=ab28106f-2229-49a1-b40a-299118591c4a"},"vehicle_type_id":"4","last_reported":1739790474,"current_range_meters":8400,"station_id":"cpo36qri1sfpv3e86is0","pricing_plan_id":"cebpf4jnsgd1na2vs0mg"},{"bike_id":"532ba0f4-c9a8-4f93-b83d-ece13ed1a199","system_id":"levelo_inurba_marseille","lat":43.30947,"lon":5.39038,"is_reserved":false,"is_disabled":false,"rental_uris":{"android":"levelo://app?vid=532ba0f4-c9a8-4f93-b83d-ece13ed1a199","ios":"levelo://app?vid=532ba0f4-c9a8-4f93-b83d-ece13ed1a199"},"vehicle_type_id":"4","last_reported":1739790474,"current_range_meters":8400,"station_id":"ce4bgup2rcd13ifvqco0","pricing_plan_id":"cebpf4jnsgd1na2vs0mg"},{"bike_id":"2420c121-c082-41fe-9256-9209689167cc","system_id":"levelo_inurba_marseille","lat":43.25082,"lon":5.39516,"is_reserved":false,"is_disabled":false,"rental_uris":{"android":"levelo://app?vid=2420c121-c082-41fe-9256-9209689167cc","ios":"levelo://app?vid=2420c121-c082-41fe-9256-9209689167cc"},"vehicle_type_id":"4","last_reported":1739790474,"current_range_meters":8800,"station_id":"ce4bhm12rcd13ifvqgkg","pricing_plan_id":"cebpf4jnsgd1na2vs0mg"},{"bike_id":"9f72b035-42cd-4ed2-9def-93c83a040988","system_id":"levelo_inurba_marseille","lat":43.24057,"lon":5.37727,"is_reserved":false,"is_disabled":false,"rental_uris":{"android":"levelo://app?vid=9f72b035-42cd-4ed2-9def-93c83a040988","ios":"levelo://app?vid=9f72b035-42cd-4ed2-9def-93c83a040988"},"vehicle_type_id":"4","last_reported":1739790474,"current_range_meters":8800,"station_id":"ce4bhnp2rcd13ifvqgvg","pricing_plan_id":"cebpf4jnsgd1na2vs0mg"},{"bike_id":"27ef6071-e8e1-4762-9a11-ca63a58fcf92","system_id":"levelo_inurba_marseille","lat":43.28662,"lon":5.38667,"is_reserved":false,"is_disabled":false,"rental_uris":{"android":"levelo://app?vid=27ef6071-e8e1-4762-9a11-ca63a58fcf92","ios":"levelo://app?vid=27ef6071-e8e1-4762-9a11-ca63a58fcf92"},"vehicle_type_id":"4","last_reported":1739790474,"current_range_meters":8800,"station_id":"ce4bh492rcd13ifvqdug","pricing_plan_id":"cebpf4jnsgd1na2vs0mg"},{"bike_id":"2b278cf2-594f-4230-8154-882e1df047f2","system_id":"levelo_inurba_marseille","lat":43.24101,"lon":5.37766,"is_reserved":false,"is_disabled":false,"rental_uris":{"android":"levelo://app?vid=2b278cf2-594f-4230-8154-882e1df047f2","ios":"levelo://app?vid=2b278cf2-594f-4230-8154-882e1df047f2"},"vehicle_type_id":"4","last_reported":1739790474,"current_range_meters":8800,"station_id":"ce4bhnp2rcd13ifvqgvg","pricing_plan_id":"cebpf4jnsgd1na2vs0mg"},{"bike_id":"315b1336-7ffe-4e51-ad8e-0787e8f633a5","system_id":"levelo_inurba_marseille","lat":43.32478,"lon":5.36579,"is_reserved":false,"is_disabled":false,"rental_uris":{"android":"levelo://app?vid=315b1336-7ffe-4e51-ad8e-0787e8f633a5","ios":"levelo://app?vid=315b1336-7ffe-4e51-ad8e-0787e8f633a5"},"vehicle_type_id":"4","last_reported":1739790474,"current_range_meters":8800,"station_id":"ce4bhs12rcd13ifvqhvg","pricing_plan_id":"cebpf4jnsgd1na2vs0mg"},{"bike_id":"436454b1-3898-46e1-b536-8b138c3a3613","system_id":"levelo_inurba_marseille","lat":43.27994,"lon":5.40014,"is_reserved":false,"is_disabled":false,"rental_uris":{"android":"levelo://app?vid=436454b1-3898-46e1-b536-8b138c3a3613","ios":"levelo://app?vid=436454b1-3898-46e1-b536-8b138c3a3613"},"vehicle_type_id":"4","last_reported":1739790474,"current_range_meters":8800,"station_id":"ce4bho92rcd13ifvqh4g","pricing_plan_id":"cebpf4jnsgd1na2vs0mg"},{"bike_id":"1028d825-a809-400b-a433-b2f52b266986","system_id":"levelo_inurba_marseille","lat":43.30944,"lon":5.37947,"is_reserved":false,"is_disabled":false,"rental_uris":{"android":"levelo://app?vid=1028d825-a809-400b-a433-b2f52b266986","ios":"levelo://app?vid=1028d825-a809-400b-a433-b2f52b266986"},"vehicle_type_id":"4","last_reported":1739790474,"current_range_meters":8800,"station_id":"","pricing_plan_id":"cebpf4jnsgd1na2vs0mg"},{"bike_id":"0217c938-d85d-45be-94b8-08b415250c20","system_id":"levelo_inurba_marseille","lat":43.26954,"lon":5.38931,"is_reserved":false,"is_disabled":true,"rental_uris":{"android":"levelo://app?vid=0217c938-d85d-45be-94b8-08b415250c20","ios":"levelo://app?vid=0217c938-d85d-45be-94b8-08b415250c20"},"vehicle_type_id":"4","last_reported":1739790474,"current_range_meters":8800,"station_id":"ce4bhhh2rcd13ifvqfl0","pricing_plan_id":"cebpf4jnsgd1na2vs0mg"},{"bike_id":"b7105648-7859-4a06-8b78-5003152c34f3","system_id":"levelo_inurba_marseille","lat":43.24164,"lon":5.363996,"is_reserved":false,"is_disabled":false,"rental_uris":{"android":"levelo://app?vid=b7105648-7859-4a06-8b78-5003152c34f3","ios":"levelo://app?vid=b7105648-7859-4a06-8b78-5003152c34f3"},"vehicle_type_id":"4","last_reported":1739790474,"current_range_meters":9200,"station_id":"cpo36qri1sfpv3e86is0","pricing_plan_id":"cebpf4jnsgd1na2vs0mg"},{"bike_id":"24974d90-e07e-4bec-a4a9-add617fc651a","system_id":"levelo_inurba_marseille","lat":43.30941,"lon":5.39032,"is_reserved":false,"is_disabled":false,"rental_uris":{"android":"levelo://app?vid=24974d90-e07e-4bec-a4a9-add617fc651a","ios":"levelo://app?vid=24974d90-e07e-4bec-a4a9-add617fc651a"},"vehicle_type_id":"4","last_reported":1739790474,"current_range_meters":8800,"station_id":"ce4bgup2rcd13ifvqco0","pricing_plan_id":"cebpf4jnsgd1na2vs0mg"},{"bike_id":"7e5a943c-33a3-4cb2-aa11-de5e06e611dc","system_id":"levelo_inurba_marseille","lat":43.29858,"lon":5.39748,"is_reserved":false,"is_disabled":false,"rental_uris":{"android":"levelo://app?vid=7e5a943c-33a3-4cb2-aa11-de5e06e611dc","ios":"levelo://app?vid=7e5a943c-33a3-4cb2-aa11-de5e06e611dc"},"vehicle_type_id":"4","last_reported":1739790474,"current_range_meters":9200,"station_id":"ce4bh0h2rcd13ifvqd50","pricing_plan_id":"cebpf4jnsgd1na2vs0mg"},{"bike_id":"9aa9b809-f846-42e0-817d-9906c00c678e","system_id":"levelo_inurba_marseille","lat":43.29187,"lon":5.35806,"is_reserved":false,"is_disabled":false,"rental_uris":{"android":"levelo://app?vid=9aa9b809-f846-42e0-817d-9906c00c678e","ios":"levelo://app?vid=9aa9b809-f846-42e0-817d-9906c00c678e"},"vehicle_type_id":"4","last_reported":1739790474,"current_range_meters":9600,"station_id":"ce4bhb12rcd13ifvqel0","pricing_plan_id":"cebpf4jnsgd1na2vs0mg"},{"bike_id":"bf40e91c-6c5d-4ffd-97cb-b1956266c4e2","system_id":"levelo_inurba_marseille","lat":43.265838,"lon":5.3903,"is_reserved":false,"is_disabled":true,"rental_uris":{"android":"levelo://app?vid=bf40e91c-6c5d-4ffd-97cb-b1956266c4e2","ios":"levelo://app?vid=bf40e91c-6c5d-4ffd-97cb-b1956266c4e2"},"vehicle_type_id":"4","last_reported":1739790474,"current_range_meters":9200,"station_id":"ce4bhe12rcd13ifvqf30","pricing_plan_id":"cebpf4jnsgd1na2vs0mg"},{"bike_id":"3d9e330e-0f55-4e54-807e-64f8485cb6ab","system_id":"levelo_inurba_marseille","lat":43.31767,"lon":5.38816,"is_reserved":false,"is_disabled":false,"rental_uris":{"android":"levelo://app?vid=3d9e330e-0f55-4e54-807e-64f8485cb6ab","ios":"levelo://app?vid=3d9e330e-0f55-4e54-807e-64f8485cb6ab"},"vehicle_type_id":"4","last_reported":1739790474,"current_range_meters":9600,"station_id":"","pricing_plan_id":"cebpf4jnsgd1na2vs0mg"},{"bike_id":"ce7eb203-df1a-4323-a126-50fb5e9416e8","system_id":"levelo_inurba_marseille","lat":43.24994,"lon":5.38936,"is_reserved":false,"is_disabled":false,"rental_uris":{"android":"levelo://app?vid=ce7eb203-df1a-4323-a126-50fb5e9416e8","ios":"levelo://app?vid=ce7eb203-df1a-4323-a126-50fb5e9416e8"},"vehicle_type_id":"4","last_reported":1739790474,"current_range_meters":9600,"station_id":"ce4bhgp2rcd13ifvqfd0","pricing_plan_id":"cebpf4jnsgd1na2vs0mg"},{"bike_id":"d25b3388-2097-4eba-a5a4-f9c639faff9e","system_id":"levelo_inurba_marseille","lat":43.25939,"lon":5.40903,"is_reserved":false,"is_disabled":false,"rental_uris":{"android":"levelo://app?vid=d25b3388-2097-4eba-a5a4-f9c639faff9e","ios":"levelo://app?vid=d25b3388-2097-4eba-a5a4-f9c639faff9e"},"vehicle_type_id":"4","last_reported":1739790474,"current_range_meters":9600,"station_id":"ce4bhm92rcd13ifvqglg","pricing_plan_id":"cebpf4jnsgd1na2vs0mg"},{"bike_id":"61d21a7f-e930-499d-84bd-f3a8dea6e79b","system_id":"levelo_inurba_marseille","lat":43.24644,"lon":5.38897,"is_reserved":false,"is_disabled":false,"rental_uris":{"android":"levelo://app?vid=61d21a7f-e930-499d-84bd-f3a8dea6e79b","ios":"levelo://app?vid=61d21a7f-e930-499d-84bd-f3a8dea6e79b"},"vehicle_type_id":"4","last_reported":1739790474,"current_range_meters":9600,"station_id":"ce4bhg12rcd13ifvqf60","pricing_plan_id":"cebpf4jnsgd1na2vs0mg"},{"bike_id":"33b2f53e-b70b-4755-a9bd-161272f15b89","system_id":"levelo_inurba_marseille","lat":43.29643,"lon":5.37996,"is_reserved":false,"is_disabled":false,"rental_uris":{"android":"levelo://app?vid=33b2f53e-b70b-4755-a9bd-161272f15b89","ios":"levelo://app?vid=33b2f53e-b70b-4755-a9bd-161272f15b89"},"vehicle_type_id":"4","last_reported":1739790474,"current_range_meters":9600,"station_id":"","pricing_plan_id":"cebpf4jnsgd1na2vs0mg"},{"bike_id":"ca3968c3-f0eb-4ae2-b146-a4f38337bb0a","system_id":"levelo_inurba_marseille","lat":43.29903,"lon":5.38144,"is_reserved":false,"is_disabled":false,"rental_uris":{"android":"levelo://app?vid=ca3968c3-f0eb-4ae2-b146-a4f38337bb0a","ios":"levelo://app?vid=ca3968c3-f0eb-4ae2-b146-a4f38337bb0a"},"vehicle_type_id":"4","last_reported":1739790474,"current_range_meters":10000,"station_id":"ce4bgj12rcd13ifvqbc0","pricing_plan_id":"cebpf4jnsgd1na2vs0mg"},{"bike_id":"04573cfb-ecb2-4b45-a20d-d06564e0e12d","system_id":"levelo_inurba_marseille","lat":43.29932,"lon":5.36509,"is_reserved":false,"is_disabled":false,"rental_uris":{"android":"levelo://app?vid=04573cfb-ecb2-4b45-a20d-d06564e0e12d","ios":"levelo://app?vid=04573cfb-ecb2-4b45-a20d-d06564e0e12d"},"vehicle_type_id":"4","last_reported":1739790474,"current_range_meters":10000,"station_id":"ce4bgm92rcd13ifvqbr0","pricing_plan_id":"cebpf4jnsgd1na2vs0mg"},{"bike_id":"c1815ec5-02fe-4abf-8bfe-21920ec7540d","system_id":"levelo_inurba_marseille","lat":43.28573,"lon":5.35123,"is_reserved":false,"is_disabled":false,"rental_uris":{"android":"levelo://app?vid=c1815ec5-02fe-4abf-8bfe-21920ec7540d","ios":"levelo://app?vid=c1815ec5-02fe-4abf-8bfe-21920ec7540d"},"vehicle_type_id":"4","last_reported":1739790474,"current_range_meters":10000,"station_id":"","pricing_plan_id":"cebpf4jnsgd1na2vs0mg"},{"bike_id":"0ecb1068-6fb9-4d73-b686-b0dc161fdd47","system_id":"levelo_inurba_marseille","lat":43.241625,"lon":5.36392,"is_reserved":false,"is_disabled":false,"rental_uris":{"android":"levelo://app?vid=0ecb1068-6fb9-4d73-b686-b0dc161fdd47","ios":"levelo://app?vid=0ecb1068-6fb9-4d73-b686-b0dc161fdd47"},"vehicle_type_id":"4","last_reported":1739790474,"current_range_meters":10000,"station_id":"cpo36qri1sfpv3e86is0","pricing_plan_id":"cebpf4jnsgd1na2vs0mg"},{"bike_id":"65a36bf8-d927-443e-bdd7-b23e6c691214","system_id":"levelo_inurba_marseille","lat":43.24173,"lon":5.3974,"is_reserved":false,"is_disabled":false,"rental_uris":{"android":"levelo://app?vid=65a36bf8-d927-443e-bdd7-b23e6c691214","ios":"levelo://app?vid=65a36bf8-d927-443e-bdd7-b23e6c691214"},"vehicle_type_id":"4","last_reported":1739790474,"current_range_meters":10000,"station_id":"ce4bhn12rcd13ifvqgpg","pricing_plan_id":"cebpf4jnsgd1na2vs0mg"},{"bike_id":"483449cd-31b3-4ec2-a842-2a81f5aafb0a","system_id":"levelo_inurba_marseille","lat":43.33724,"lon":5.39184,"is_reserved":false,"is_disabled":false,"rental_uris":{"android":"levelo://app?vid=483449cd-31b3-4ec2-a842-2a81f5aafb0a","ios":"levelo://app?vid=483449cd-31b3-4ec2-a842-2a81f5aafb0a"},"vehicle_type_id":"4","last_reported":1739790474,"current_range_meters":10000,"station_id":"ce4bhr92rcd13ifvqhsg","pricing_plan_id":"cebpf4jnsgd1na2vs0mg"},{"bike_id":"09d8e7e3-4c41-44b3-abcb-31b4b4a1dfae","system_id":"levelo_inurba_marseille","lat":43.25006,"lon":5.38933,"is_reserved":false,"is_disabled":false,"rental_uris":{"android":"levelo://app?vid=09d8e7e3-4c41-44b3-abcb-31b4b4a1dfae","ios":"levelo://app?vid=09d8e7e3-4c41-44b3-abcb-31b4b4a1dfae"},"vehicle_type_id":"4","last_reported":1739790474,"current_range_meters":10800,"station_id":"ce4bhgp2rcd13ifvqfd0","pricing_plan_id":"cebpf4jnsgd1na2vs0mg"},{"bike_id":"27e588cb-7bce-475e-a467-4301befb23c4","system_id":"levelo_inurba_marseille","lat":43.28852,"lon":5.35866,"is_reserved":false,"is_disabled":false,"rental_uris":{"android":"levelo://app?vid=27e588cb-7bce-475e-a467-4301befb23c4","ios":"levelo://app?vid=27e588cb-7bce-475e-a467-4301befb23c4"},"vehicle_type_id":"4","last_reported":1739790474,"current_range_meters":10000,"station_id":"ce4bhb12rcd13ifvqem0","pricing_plan_id":"cebpf4jnsgd1na2vs0mg"},{"bike_id":"00041a12-19a6-4fd8-9397-ac5df01a1d19","system_id":"levelo_inurba_marseille","lat":43.29975,"lon":5.37181,"is_reserved":false,"is_disabled":false,"rental_uris":{"android":"levelo://app?vid=00041a12-19a6-4fd8-9397-ac5df01a1d19","ios":"levelo://app?vid=00041a12-19a6-4fd8-9397-ac5df01a1d19"},"vehicle_type_id":"4","last_reported":1739790474,"current_range_meters":9600,"station_id":"ce4bgr92rcd13ifvqc7g","pricing_plan_id":"cebpf4jnsgd1na2vs0mg"},{"bike_id":"4b313577-3405-489c-be9d-5466249d823a","system_id":"levelo_inurba_marseille","lat":43.25006,"lon":5.38922,"is_reserved":false,"is_disabled":false,"rental_uris":{"android":"levelo://app?vid=4b313577-3405-489c-be9d-5466249d823a","ios":"levelo://app?vid=4b313577-3405-489c-be9d-5466249d823a"},"vehicle_type_id":"4","last_reported":1739790474,"current_range_meters":10800,"station_id":"ce4bhgp2rcd13ifvqfd0","pricing_plan_id":"cebpf4jnsgd1na2vs0mg"},{"bike_id":"2c9700ea-057b-4786-a86f-c93de6d53138","system_id":"levelo_inurba_marseille","lat":43.274525,"lon":5.4076,"is_reserved":false,"is_disabled":false,"rental_uris":{"android":"levelo://app?vid=2c9700ea-057b-4786-a86f-c93de6d53138","ios":"levelo://app?vid=2c9700ea-057b-4786-a86f-c93de6d53138"},"vehicle_type_id":"4","last_reported":1739790474,"current_range_meters":10800,"station_id":"","pricing_plan_id":"cebpf4jnsgd1na2vs0mg"},{"bike_id":"daac048e-560f-4ac4-8253-f428b1e4a640","system_id":"levelo_inurba_marseille","lat":43.24178,"lon":5.39732,"is_reserved":false,"is_disabled":false,"rental_uris":{"android":"levelo://app?vid=daac048e-560f-4ac4-8253-f428b1e4a640","ios":"levelo://app?vid=daac048e-560f-4ac4-8253-f428b1e4a640"},"vehicle_type_id":"4","last_reported":1739790474,"current_range_meters":10800,"station_id":"ce4bhn12rcd13ifvqgpg","pricing_plan_id":"cebpf4jnsgd1na2vs0mg"},{"bike_id":"59ded7b0-a8b6-4def-9cfa-7f57bb4128d1","system_id":"levelo_inurba_marseille","lat":43.28717,"lon":5.36124,"is_reserved":false,"is_disabled":false,"rental_uris":{"android":"levelo://app?vid=59ded7b0-a8b6-4def-9cfa-7f57bb4128d1","ios":"levelo://app?vid=59ded7b0-a8b6-4def-9cfa-7f57bb4128d1"},"vehicle_type_id":"4","last_reported":1739790474,"current_range_meters":10800,"station_id":"cki0cbj6b192h4jlfktg","pricing_plan_id":"cebpf4jnsgd1na2vs0mg"},{"bike_id":"79f62c9d-1f7b-4919-b99c-b3088be87c66","system_id":"levelo_inurba_marseille","lat":43.25004,"lon":5.38933,"is_reserved":false,"is_disabled":false,"rental_uris":{"android":"levelo://app?vid=79f62c9d-1f7b-4919-b99c-b3088be87c66","ios":"levelo://app?vid=79f62c9d-1f7b-4919-b99c-b3088be87c66"},"vehicle_type_id":"4","last_reported":1739790474,"current_range_meters":10800,"station_id":"ce4bhgp2rcd13ifvqfd0","pricing_plan_id":"cebpf4jnsgd1na2vs0mg"},{"bike_id":"017423d6-180e-4935-b791-7ee369f06433","system_id":"levelo_inurba_marseille","lat":43.28073,"lon":5.39666,"is_reserved":false,"is_disabled":false,"rental_uris":{"android":"levelo://app?vid=017423d6-180e-4935-b791-7ee369f06433","ios":"levelo://app?vid=017423d6-180e-4935-b791-7ee369f06433"},"vehicle_type_id":"4","last_reported":1739790474,"current_range_meters":10800,"station_id":"ce4bho12rcd13ifvqh2g","pricing_plan_id":"cebpf4jnsgd1na2vs0mg"},{"bike_id":"98dafedc-f25b-409d-b3e2-803b47ffb900","system_id":"levelo_inurba_marseille","lat":43.244888,"lon":5.372596,"is_reserved":false,"is_disabled":false,"rental_uris":{"android":"levelo://app?vid=98dafedc-f25b-409d-b3e2-803b47ffb900","ios":"levelo://app?vid=98dafedc-f25b-409d-b3e2-803b47ffb900"},"vehicle_type_id":"4","last_reported":1739790474,"current_range_meters":10800,"station_id":"","pricing_plan_id":"cebpf4jnsgd1na2vs0mg"},{"bike_id":"5eb5dd2b-412a-4cbe-93a9-ac8f5ac45282","system_id":"levelo_inurba_marseille","lat":43.32483,"lon":5.36578,"is_reserved":false,"is_disabled":false,"rental_uris":{"android":"levelo://app?vid=5eb5dd2b-412a-4cbe-93a9-ac8f5ac45282","ios":"levelo://app?vid=5eb5dd2b-412a-4cbe-93a9-ac8f5ac45282"},"vehicle_type_id":"4","last_reported":1739790474,"current_range_meters":10800,"station_id":"ce4bhs12rcd13ifvqhvg","pricing_plan_id":"cebpf4jnsgd1na2vs0mg"},{"bike_id":"9a86aff9-d852-4512-b047-433feac4afd8","system_id":"levelo_inurba_marseille","lat":43.31202,"lon":5.36787,"is_reserved":false,"is_disabled":false,"rental_uris":{"android":"levelo://app?vid=9a86aff9-d852-4512-b047-433feac4afd8","ios":"levelo://app?vid=9a86aff9-d852-4512-b047-433feac4afd8"},"vehicle_type_id":"4","last_reported":1739790474,"current_range_meters":11200,"station_id":"","pricing_plan_id":"cebpf4jnsgd1na2vs0mg"},{"bike_id":"b4fb51a5-3829-4287-b58a-fd128f54653f","system_id":"levelo_inurba_marseille","lat":43.320385,"lon":5.41568,"is_reserved":false,"is_disabled":true,"rental_uris":{"android":"levelo://app?vid=b4fb51a5-3829-4287-b58a-fd128f54653f","ios":"levelo://app?vid=b4fb51a5-3829-4287-b58a-fd128f54653f"},"vehicle_type_id":"4","last_reported":1739790474,"current_range_meters":11200,"station_id":"ce4bhq92rcd13ifvqhkg","pricing_plan_id":"cebpf4jnsgd1na2vs0mg"},{"bike_id":"f49d96af-5630-4761-a17e-ea2e12354d6b","system_id":"levelo_inurba_marseille","lat":43.31134,"lon":5.38313,"is_reserved":false,"is_disabled":true,"rental_uris":{"android":"levelo://app?vid=f49d96af-5630-4761-a17e-ea2e12354d6b","ios":"levelo://app?vid=f49d96af-5630-4761-a17e-ea2e12354d6b"},"vehicle_type_id":"4","last_reported":1739790474,"current_range_meters":11200,"station_id":"","pricing_plan_id":"cebpf4jnsgd1na2vs0mg"},{"bike_id":"d987532f-bafe-447e-92c6-1ad2da2cc856","system_id":"levelo_inurba_marseille","lat":43.23153,"lon":5.43697,"is_reserved":false,"is_disabled":false,"rental_uris":{"android":"levelo://app?vid=d987532f-bafe-447e-92c6-1ad2da2cc856","ios":"levelo://app?vid=d987532f-bafe-447e-92c6-1ad2da2cc856"},"vehicle_type_id":"4","last_reported":1739790474,"current_range_meters":11200,"station_id":"ce4bhmp2rcd13ifvqgog","pricing_plan_id":"cebpf4jnsgd1na2vs0mg"},{"bike_id":"b0b04522-e774-4fb4-aba5-3722a875fc75","system_id":"levelo_inurba_marseille","lat":43.30078,"lon":5.39074,"is_reserved":false,"is_disabled":false,"rental_uris":{"android":"levelo://app?vid=b0b04522-e774-4fb4-aba5-3722a875fc75","ios":"levelo://app?vid=b0b04522-e774-4fb4-aba5-3722a875fc75"},"vehicle_type_id":"4","last_reported":1739790474,"current_range_meters":11200,"station_id":"ce4bh192rcd13ifvqdb0","pricing_plan_id":"cebpf4jnsgd1na2vs0mg"},{"bike_id":"e2d31005-6870-49d2-939f-641f1e45e538","system_id":"levelo_inurba_marseille","lat":43.30304,"lon":5.39208,"is_reserved":false,"is_disabled":false,"rental_uris":{"android":"levelo://app?vid=e2d31005-6870-49d2-939f-641f1e45e538","ios":"levelo://app?vid=e2d31005-6870-49d2-939f-641f1e45e538"},"vehicle_type_id":"4","last_reported":1739790474,"current_range_meters":11200,"station_id":"ce4bgkh2rcd13ifvqbk0","pricing_plan_id":"cebpf4jnsgd1na2vs0mg"},{"bike_id":"2b00a42f-9efa-4ced-a356-f0b26c47649f","system_id":"levelo_inurba_marseille","lat":43.28611,"lon":5.35098,"is_reserved":false,"is_disabled":true,"rental_uris":{"android":"levelo://app?vid=2b00a42f-9efa-4ced-a356-f0b26c47649f","ios":"levelo://app?vid=2b00a42f-9efa-4ced-a356-f0b26c47649f"},"vehicle_type_id":"4","last_reported":1739790474,"current_range_meters":11600,"station_id":"ce4bhch2rcd13ifvqeug","pricing_plan_id":"cebpf4jnsgd1na2vs0mg"},{"bike_id":"ff0e35d7-ca04-4d42-9391-1b8c5957ffee","system_id":"levelo_inurba_marseille","lat":43.25825,"lon":5.39431,"is_reserved":false,"is_disabled":false,"rental_uris":{"android":"levelo://app?vid=ff0e35d7-ca04-4d42-9391-1b8c5957ffee","ios":"levelo://app?vid=ff0e35d7-ca04-4d42-9391-1b8c5957ffee"},"vehicle_type_id":"4","last_reported":1739790474,"current_range_meters":11600,"station_id":"ce4bhip2rcd13ifvqft0","pricing_plan_id":"cebpf4jnsgd1na2vs0mg"},{"bike_id":"a6d9c0d5-22e6-4b9a-8886-f7c2fa4f51f7","system_id":"levelo_inurba_marseille","lat":43.26939,"lon":5.40268,"is_reserved":false,"is_disabled":false,"rental_uris":{"android":"levelo://app?vid=a6d9c0d5-22e6-4b9a-8886-f7c2fa4f51f7","ios":"levelo://app?vid=a6d9c0d5-22e6-4b9a-8886-f7c2fa4f51f7"},"vehicle_type_id":"4","last_reported":1739790474,"current_range_meters":11600,"station_id":"cjm6bp8fraef2m0cb0m0","pricing_plan_id":"cebpf4jnsgd1na2vs0mg"},{"bike_id":"7c7c0f20-4ebe-4ae9-a466-5bcf5fc08c06","system_id":"levelo_inurba_marseille","lat":43.2919,"lon":5.35728,"is_reserved":false,"is_disabled":true,"rental_uris":{"android":"levelo://app?vid=7c7c0f20-4ebe-4ae9-a466-5bcf5fc08c06","ios":"levelo://app?vid=7c7c0f20-4ebe-4ae9-a466-5bcf5fc08c06"},"vehicle_type_id":"4","last_reported":1739790474,"current_range_meters":11600,"station_id":"","pricing_plan_id":"cebpf4jnsgd1na2vs0mg"},{"bike_id":"eed1f342-318c-43db-8277-c37879d4056f","system_id":"levelo_inurba_marseille","lat":43.337444,"lon":5.374475,"is_reserved":false,"is_disabled":false,"rental_uris":{"android":"levelo://app?vid=eed1f342-318c-43db-8277-c37879d4056f","ios":"levelo://app?vid=eed1f342-318c-43db-8277-c37879d4056f"},"vehicle_type_id":"4","last_reported":1739790474,"current_range_meters":11600,"station_id":"","pricing_plan_id":"cebpf4jnsgd1na2vs0mg"},{"bike_id":"02bcffcb-e52f-4f9c-8122-c155cd0ed569","system_id":"levelo_inurba_marseille","lat":43.29013,"lon":5.38132,"is_reserved":false,"is_disabled":false,"rental_uris":{"android":"levelo://app?vid=02bcffcb-e52f-4f9c-8122-c155cd0ed569","ios":"levelo://app?vid=02bcffcb-e52f-4f9c-8122-c155cd0ed569"},"vehicle_type_id":"4","last_reported":1739790474,"current_range_meters":12000,"station_id":"ce4bh4p2rcd13ifvqe1g","pricing_plan_id":"cebpf4jnsgd1na2vs0mg"},{"bike_id":"84ec75b2-ffa6-4a41-aa45-280c675dbabc","system_id":"levelo_inurba_marseille","lat":43.292673,"lon":5.401129,"is_reserved":false,"is_disabled":true,"rental_uris":{"android":"levelo://app?vid=84ec75b2-ffa6-4a41-aa45-280c675dbabc","ios":"levelo://app?vid=84ec75b2-ffa6-4a41-aa45-280c675dbabc"},"vehicle_type_id":"4","last_reported":1739790474,"current_range_meters":12000,"station_id":"ce4bh312rcd13ifvqdk0","pricing_plan_id":"cebpf4jnsgd1na2vs0mg"},{"bike_id":"c3d49a8d-5bb9-4c52-aa52-72dee2a04654","system_id":"levelo_inurba_marseille","lat":43.30147,"lon":5.37417,"is_reserved":false,"is_disabled":false,"rental_uris":{"android":"levelo://app?vid=c3d49a8d-5bb9-4c52-aa52-72dee2a04654","ios":"levelo://app?vid=c3d49a8d-5bb9-4c52-aa52-72dee2a04654"},"vehicle_type_id":"4","last_reported":1739790474,"current_range_meters":12400,"station_id":"","pricing_plan_id":"cebpf4jnsgd1na2vs0mg"},{"bike_id":"c7df4232-f75f-4282-8e73-8dcb18167963","system_id":"levelo_inurba_marseille","lat":43.24085,"lon":5.37748,"is_reserved":false,"is_disabled":false,"rental_uris":{"android":"levelo://app?vid=c7df4232-f75f-4282-8e73-8dcb18167963","ios":"levelo://app?vid=c7df4232-f75f-4282-8e73-8dcb18167963"},"vehicle_type_id":"4","last_reported":1739790474,"current_range_meters":12000,"station_id":"ce4bhnp2rcd13ifvqgvg","pricing_plan_id":"cebpf4jnsgd1na2vs0mg"},{"bike_id":"4324608e-6ad2-4e1a-b7c2-9433899a672e","system_id":"levelo_inurba_marseille","lat":43.30297,"lon":5.39219,"is_reserved":false,"is_disabled":false,"rental_uris":{"android":"levelo://app?vid=4324608e-6ad2-4e1a-b7c2-9433899a672e","ios":"levelo://app?vid=4324608e-6ad2-4e1a-b7c2-9433899a672e"},"vehicle_type_id":"4","last_reported":1739790474,"current_range_meters":12000,"station_id":"ce4bgkh2rcd13ifvqbk0","pricing_plan_id":"cebpf4jnsgd1na2vs0mg"},{"bike_id":"63213ce8-ab3b-490e-8b8e-c1a55a68b2ca","system_id":"levelo_inurba_marseille","lat":43.2951,"lon":5.38198,"is_reserved":false,"is_disabled":true,"rental_uris":{"android":"levelo://app?vid=63213ce8-ab3b-490e-8b8e-c1a55a68b2ca","ios":"levelo://app?vid=63213ce8-ab3b-490e-8b8e-c1a55a68b2ca"},"vehicle_type_id":"4","last_reported":1739790474,"current_range_meters":12000,"station_id":"","pricing_plan_id":"cebpf4jnsgd1na2vs0mg"},{"bike_id":"cb8372d6-bad2-4555-89ad-5b495afb0b59","system_id":"levelo_inurba_marseille","lat":43.24822,"lon":5.3744,"is_reserved":false,"is_disabled":false,"rental_uris":{"android":"levelo://app?vid=cb8372d6-bad2-4555-89ad-5b495afb0b59","ios":"levelo://app?vid=cb8372d6-bad2-4555-89ad-5b495afb0b59"},"vehicle_type_id":"4","last_reported":1739790474,"current_range_meters":12400,"station_id":"ce4bhgh2rcd13ifvqfb0","pricing_plan_id":"cebpf4jnsgd1na2vs0mg"},{"bike_id":"4825ab16-79d4-4023-9e78-d2a54b2006c9","system_id":"levelo_inurba_marseille","lat":43.2593,"lon":5.40909,"is_reserved":false,"is_disabled":false,"rental_uris":{"android":"levelo://app?vid=4825ab16-79d4-4023-9e78-d2a54b2006c9","ios":"levelo://app?vid=4825ab16-79d4-4023-9e78-d2a54b2006c9"},"vehicle_type_id":"4","last_reported":1739790474,"current_range_meters":12400,"station_id":"ce4bhm92rcd13ifvqglg","pricing_plan_id":"cebpf4jnsgd1na2vs0mg"},{"bike_id":"55041f5c-8232-4532-bbf3-faea1aa4dc08","system_id":"levelo_inurba_marseille","lat":43.30117,"lon":5.39891,"is_reserved":false,"is_disabled":false,"rental_uris":{"android":"levelo://app?vid=55041f5c-8232-4532-bbf3-faea1aa4dc08","ios":"levelo://app?vid=55041f5c-8232-4532-bbf3-faea1aa4dc08"},"vehicle_type_id":"4","last_reported":1739790474,"current_range_meters":12400,"station_id":"ce4bh0h2rcd13ifvqd40","pricing_plan_id":"cebpf4jnsgd1na2vs0mg"},{"bike_id":"f1b6f970-13fa-46f8-ad51-317c20c8ad97","system_id":"levelo_inurba_marseille","lat":43.31909,"lon":5.40739,"is_reserved":false,"is_disabled":true,"rental_uris":{"android":"levelo://app?vid=f1b6f970-13fa-46f8-ad51-317c20c8ad97","ios":"levelo://app?vid=f1b6f970-13fa-46f8-ad51-317c20c8ad97"},"vehicle_type_id":"4","last_reported":1739790474,"current_range_meters":12800,"station_id":"ce4bhq12rcd13ifvqhig","pricing_plan_id":"cebpf4jnsgd1na2vs0mg"},{"bike_id":"d479d7cc-f6ec-4842-98a4-55e7da70bebc","system_id":"levelo_inurba_marseille","lat":43.2796,"lon":5.38697,"is_reserved":false,"is_disabled":false,"rental_uris":{"android":"levelo://app?vid=d479d7cc-f6ec-4842-98a4-55e7da70bebc","ios":"levelo://app?vid=d479d7cc-f6ec-4842-98a4-55e7da70bebc"},"vehicle_type_id":"4","last_reported":1739790474,"current_range_meters":12800,"station_id":"ce4bhg12rcd13ifvqf80","pricing_plan_id":"cebpf4jnsgd1na2vs0mg"},{"bike_id":"57c8356a-6bfd-497e-a3c6-03643d37dc18","system_id":"levelo_inurba_marseille","lat":43.26575,"lon":5.39016,"is_reserved":false,"is_disabled":false,"rental_uris":{"android":"levelo://app?vid=57c8356a-6bfd-497e-a3c6-03643d37dc18","ios":"levelo://app?vid=57c8356a-6bfd-497e-a3c6-03643d37dc18"},"vehicle_type_id":"4","last_reported":1739790474,"current_range_meters":12800,"station_id":"","pricing_plan_id":"cebpf4jnsgd1na2vs0mg"},{"bike_id":"4485b41d-8ad5-481d-8c6e-243d5823c9cc","system_id":"levelo_inurba_marseille","lat":43.25025,"lon":5.38928,"is_reserved":false,"is_disabled":false,"rental_uris":{"android":"levelo://app?vid=4485b41d-8ad5-481d-8c6e-243d5823c9cc","ios":"levelo://app?vid=4485b41d-8ad5-481d-8c6e-243d5823c9cc"},"vehicle_type_id":"4","last_reported":1739790474,"current_range_meters":12800,"station_id":"ce4bhgp2rcd13ifvqfd0","pricing_plan_id":"cebpf4jnsgd1na2vs0mg"},{"bike_id":"552d736c-53d8-48fb-82e5-b4cdf388327f","system_id":"levelo_inurba_marseille","lat":43.27819,"lon":5.422,"is_reserved":false,"is_disabled":false,"rental_uris":{"android":"levelo://app?vid=552d736c-53d8-48fb-82e5-b4cdf388327f","ios":"levelo://app?vid=552d736c-53d8-48fb-82e5-b4cdf388327f"},"vehicle_type_id":"4","last_reported":1739790474,"current_range_meters":12800,"station_id":"","pricing_plan_id":"cebpf4jnsgd1na2vs0mg"},{"bike_id":"fd6a9638-8c2b-4752-b48e-da3e4115d672","system_id":"levelo_inurba_marseille","lat":43.27197,"lon":5.39198,"is_reserved":false,"is_disabled":false,"rental_uris":{"android":"levelo://app?vid=fd6a9638-8c2b-4752-b48e-da3e4115d672","ios":"levelo://app?vid=fd6a9638-8c2b-4752-b48e-da3e4115d672"},"vehicle_type_id":"4","last_reported":1739790474,"current_range_meters":13600,"station_id":"ce4bhhp2rcd13ifvqfm0","pricing_plan_id":"cebpf4jnsgd1na2vs0mg"},{"bike_id":"511297f0-4659-4cc7-92fe-97cf7cb65fc4","system_id":"levelo_inurba_marseille","lat":43.33601,"lon":5.41038,"is_reserved":false,"is_disabled":false,"rental_uris":{"android":"levelo://app?vid=511297f0-4659-4cc7-92fe-97cf7cb65fc4","ios":"levelo://app?vid=511297f0-4659-4cc7-92fe-97cf7cb65fc4"},"vehicle_type_id":"4","last_reported":1739790474,"current_range_meters":13600,"station_id":"","pricing_plan_id":"cebpf4jnsgd1na2vs0mg"},{"bike_id":"6528e792-6c2b-41ab-b102-37d30001a0e7","system_id":"levelo_inurba_marseille","lat":43.27243,"lon":5.40068,"is_reserved":false,"is_disabled":false,"rental_uris":{"android":"levelo://app?vid=6528e792-6c2b-41ab-b102-37d30001a0e7","ios":"levelo://app?vid=6528e792-6c2b-41ab-b102-37d30001a0e7"},"vehicle_type_id":"4","last_reported":1739790474,"current_range_meters":14000,"station_id":"","pricing_plan_id":"cebpf4jnsgd1na2vs0mg"},{"bike_id":"d2b9e7f7-a14a-492f-98cc-a70205fa4f19","system_id":"levelo_inurba_marseille","lat":43.28274,"lon":5.35062,"is_reserved":false,"is_disabled":false,"rental_uris":{"android":"levelo://app?vid=d2b9e7f7-a14a-492f-98cc-a70205fa4f19","ios":"levelo://app?vid=d2b9e7f7-a14a-492f-98cc-a70205fa4f19"},"vehicle_type_id":"4","last_reported":1739790474,"current_range_meters":14000,"station_id":"ce4bhbp2rcd13ifvqerg","pricing_plan_id":"cebpf4jnsgd1na2vs0mg"},{"bike_id":"4e2b468f-8f4a-4d73-8517-62fa28d3fb4c","system_id":"levelo_inurba_marseille","lat":43.24807,"lon":5.37461,"is_reserved":false,"is_disabled":false,"rental_uris":{"android":"levelo://app?vid=4e2b468f-8f4a-4d73-8517-62fa28d3fb4c","ios":"levelo://app?vid=4e2b468f-8f4a-4d73-8517-62fa28d3fb4c"},"vehicle_type_id":"4","last_reported":1739790474,"current_range_meters":14400,"station_id":"ce4bhgh2rcd13ifvqfb0","pricing_plan_id":"cebpf4jnsgd1na2vs0mg"},{"bike_id":"23e79ded-fa84-4ce9-87b6-f77661a88d71","system_id":"levelo_inurba_marseille","lat":43.3234,"lon":5.40633,"is_reserved":false,"is_disabled":false,"rental_uris":{"android":"levelo://app?vid=23e79ded-fa84-4ce9-87b6-f77661a88d71","ios":"levelo://app?vid=23e79ded-fa84-4ce9-87b6-f77661a88d71"},"vehicle_type_id":"4","last_reported":1739790474,"current_range_meters":14400,"station_id":"ce4bhq92rcd13ifvqhjg","pricing_plan_id":"cebpf4jnsgd1na2vs0mg"},{"bike_id":"d10a8f39-76f2-4e61-889e-c8e2fdb2a7c1","system_id":"levelo_inurba_marseille","lat":43.28827,"lon":5.39339,"is_reserved":false,"is_disabled":true,"rental_uris":{"android":"levelo://app?vid=d10a8f39-76f2-4e61-889e-c8e2fdb2a7c1","ios":"levelo://app?vid=d10a8f39-76f2-4e61-889e-c8e2fdb2a7c1"},"vehicle_type_id":"4","last_reported":1739790474,"current_range_meters":14400,"station_id":"ce4bh2p2rcd13ifvqdi0","pricing_plan_id":"cebpf4jnsgd1na2vs0mg"},{"bike_id":"8a8a6b2e-87cd-498b-bc54-df425c7358d7","system_id":"levelo_inurba_marseille","lat":43.26949,"lon":5.38643,"is_reserved":false,"is_disabled":false,"rental_uris":{"android":"levelo://app?vid=8a8a6b2e-87cd-498b-bc54-df425c7358d7","ios":"levelo://app?vid=8a8a6b2e-87cd-498b-bc54-df425c7358d7"},"vehicle_type_id":"4","last_reported":1739790474,"current_range_meters":14400,"station_id":"ce4bhh92rcd13ifvqfh0","pricing_plan_id":"cebpf4jnsgd1na2vs0mg"},{"bike_id":"1c0df151-95df-47b2-9335-8782ec9e9f03","system_id":"levelo_inurba_marseille","lat":43.32743,"lon":5.39248,"is_reserved":false,"is_disabled":false,"rental_uris":{"android":"levelo://app?vid=1c0df151-95df-47b2-9335-8782ec9e9f03","ios":"levelo://app?vid=1c0df151-95df-47b2-9335-8782ec9e9f03"},"vehicle_type_id":"4","last_reported":1739790474,"current_range_meters":14400,"station_id":"","pricing_plan_id":"cebpf4jnsgd1na2vs0mg"},{"bike_id":"9beb99fa-247c-4be4-994c-ad481a4bc4b6","system_id":"levelo_inurba_marseille","lat":43.23154,"lon":5.43707,"is_reserved":false,"is_disabled":false,"rental_uris":{"android":"levelo://app?vid=9beb99fa-247c-4be4-994c-ad481a4bc4b6","ios":"levelo://app?vid=9beb99fa-247c-4be4-994c-ad481a4bc4b6"},"vehicle_type_id":"4","last_reported":1739790474,"current_range_meters":14400,"station_id":"ce4bhmp2rcd13ifvqgog","pricing_plan_id":"cebpf4jnsgd1na2vs0mg"},{"bike_id":"49ef888a-dc13-4328-91d3-35aa5ca291ea","system_id":"levelo_inurba_marseille","lat":43.31332,"lon":5.39717,"is_reserved":false,"is_disabled":false,"rental_uris":{"android":"levelo://app?vid=49ef888a-dc13-4328-91d3-35aa5ca291ea","ios":"levelo://app?vid=49ef888a-dc13-4328-91d3-35aa5ca291ea"},"vehicle_type_id":"4","last_reported":1739790474,"current_range_meters":14400,"station_id":"ce4bgvp2rcd13ifvqcu0","pricing_plan_id":"cebpf4jnsgd1na2vs0mg"},{"bike_id":"11130826-961d-4121-b96a-08d36b484726","system_id":"levelo_inurba_marseille","lat":43.26941,"lon":5.38644,"is_reserved":false,"is_disabled":false,"rental_uris":{"android":"levelo://app?vid=11130826-961d-4121-b96a-08d36b484726","ios":"levelo://app?vid=11130826-961d-4121-b96a-08d36b484726"},"vehicle_type_id":"4","last_reported":1739790474,"current_range_meters":14800,"station_id":"ce4bhh92rcd13ifvqfh0","pricing_plan_id":"cebpf4jnsgd1na2vs0mg"},{"bike_id":"cd9b4085-c131-4f0b-9c5c-dcc681470367","system_id":"levelo_inurba_marseille","lat":43.32481,"lon":5.3659,"is_reserved":false,"is_disabled":false,"rental_uris":{"android":"levelo://app?vid=cd9b4085-c131-4f0b-9c5c-dcc681470367","ios":"levelo://app?vid=cd9b4085-c131-4f0b-9c5c-dcc681470367"},"vehicle_type_id":"4","last_reported":1739790474,"current_range_meters":15200,"station_id":"ce4bhs12rcd13ifvqhvg","pricing_plan_id":"cebpf4jnsgd1na2vs0mg"},{"bike_id":"0c4d800b-5126-4ebf-a420-722193d89483","system_id":"levelo_inurba_marseille","lat":43.336,"lon":5.41031,"is_reserved":false,"is_disabled":false,"rental_uris":{"android":"levelo://app?vid=0c4d800b-5126-4ebf-a420-722193d89483","ios":"levelo://app?vid=0c4d800b-5126-4ebf-a420-722193d89483"},"vehicle_type_id":"4","last_reported":1739790474,"current_range_meters":15200,"station_id":"ce4bhqh2rcd13ifvqhmg","pricing_plan_id":"cebpf4jnsgd1na2vs0mg"},{"bike_id":"6017b791-cca0-40d5-b223-99afe25e4439","system_id":"levelo_inurba_marseille","lat":43.25926,"lon":5.40912,"is_reserved":false,"is_disabled":false,"rental_uris":{"android":"levelo://app?vid=6017b791-cca0-40d5-b223-99afe25e4439","ios":"levelo://app?vid=6017b791-cca0-40d5-b223-99afe25e4439"},"vehicle_type_id":"4","last_reported":1739790474,"current_range_meters":16000,"station_id":"ce4bhm92rcd13ifvqglg","pricing_plan_id":"cebpf4jnsgd1na2vs0mg"},{"bike_id":"64af24a4-8e38-47da-9a24-c3fcf271b844","system_id":"levelo_inurba_marseille","lat":43.28443,"lon":5.39194,"is_reserved":false,"is_disabled":false,"rental_uris":{"android":"levelo://app?vid=64af24a4-8e38-47da-9a24-c3fcf271b844","ios":"levelo://app?vid=64af24a4-8e38-47da-9a24-c3fcf271b844"},"vehicle_type_id":"4","last_reported":1739790474,"current_range_meters":16000,"station_id":"ce4bhoh2rcd13ifvqh5g","pricing_plan_id":"cebpf4jnsgd1na2vs0mg"},{"bike_id":"cd099e1f-733d-4139-9491-8fdfd02cbc9d","system_id":"levelo_inurba_marseille","lat":43.317549,"lon":5.38816,"is_reserved":false,"is_disabled":false,"rental_uris":{"android":"levelo://app?vid=cd099e1f-733d-4139-9491-8fdfd02cbc9d","ios":"levelo://app?vid=cd099e1f-733d-4139-9491-8fdfd02cbc9d"},"vehicle_type_id":"4","last_reported":1739790474,"current_range_meters":16000,"station_id":"","pricing_plan_id":"cebpf4jnsgd1na2vs0mg"},{"bike_id":"b6e5717e-f90b-48ff-954a-eadd903c636d","system_id":"levelo_inurba_marseille","lat":43.31176,"lon":5.38712,"is_reserved":false,"is_disabled":false,"rental_uris":{"android":"levelo://app?vid=b6e5717e-f90b-48ff-954a-eadd903c636d","ios":"levelo://app?vid=b6e5717e-f90b-48ff-954a-eadd903c636d"},"vehicle_type_id":"4","last_reported":1739790474,"current_range_meters":15200,"station_id":"ce4bgv12rcd13ifvqcp0","pricing_plan_id":"cebpf4jnsgd1na2vs0mg"},{"bike_id":"020f9db3-6048-4a83-8c59-4acc533112c8","system_id":"levelo_inurba_marseille","lat":43.28151,"lon":5.42638,"is_reserved":false,"is_disabled":false,"rental_uris":{"android":"levelo://app?vid=020f9db3-6048-4a83-8c59-4acc533112c8","ios":"levelo://app?vid=020f9db3-6048-4a83-8c59-4acc533112c8"},"vehicle_type_id":"4","last_reported":1739790474,"current_range_meters":16000,"station_id":"ce4bhnh2rcd13ifvqgug","pricing_plan_id":"cebpf4jnsgd1na2vs0mg"},{"bike_id":"e4faeffe-d6ef-42e4-898e-12401a5f7dc5","system_id":"levelo_inurba_marseille","lat":43.29231,"lon":5.36074,"is_reserved":false,"is_disabled":false,"rental_uris":{"android":"levelo://app?vid=e4faeffe-d6ef-42e4-898e-12401a5f7dc5","ios":"levelo://app?vid=e4faeffe-d6ef-42e4-898e-12401a5f7dc5"},"vehicle_type_id":"4","last_reported":1739790474,"current_range_meters":16400,"station_id":"","pricing_plan_id":"cebpf4jnsgd1na2vs0mg"},{"bike_id":"4a42b849-8dce-4679-be4e-fb42f1f7b062","system_id":"levelo_inurba_marseille","lat":43.24178,"lon":5.39731,"is_reserved":false,"is_disabled":false,"rental_uris":{"android":"levelo://app?vid=4a42b849-8dce-4679-be4e-fb42f1f7b062","ios":"levelo://app?vid=4a42b849-8dce-4679-be4e-fb42f1f7b062"},"vehicle_type_id":"4","last_reported":1739790474,"current_range_meters":16400,"station_id":"ce4bhn12rcd13ifvqgpg","pricing_plan_id":"cebpf4jnsgd1na2vs0mg"},{"bike_id":"f2ed1939-a611-4c0c-b834-6691e0118b72","system_id":"levelo_inurba_marseille","lat":43.23197,"lon":5.35558,"is_reserved":false,"is_disabled":false,"rental_uris":{"android":"levelo://app?vid=f2ed1939-a611-4c0c-b834-6691e0118b72","ios":"levelo://app?vid=f2ed1939-a611-4c0c-b834-6691e0118b72"},"vehicle_type_id":"4","last_reported":1739790474,"current_range_meters":16400,"station_id":"ce4bhu92rcd13ifvqi70","pricing_plan_id":"cebpf4jnsgd1na2vs0mg"},{"bike_id":"d626a297-c0ba-4626-8708-6dbddc7af893","system_id":"levelo_inurba_marseille","lat":43.30238,"lon":5.39709,"is_reserved":false,"is_disabled":false,"rental_uris":{"android":"levelo://app?vid=d626a297-c0ba-4626-8708-6dbddc7af893","ios":"levelo://app?vid=d626a297-c0ba-4626-8708-6dbddc7af893"},"vehicle_type_id":"4","last_reported":1739790474,"current_range_meters":16400,"station_id":"ce4bgvh2rcd13ifvqcs0","pricing_plan_id":"cebpf4jnsgd1na2vs0mg"},{"bike_id":"e4bd60cd-9502-4a9f-a52c-a4e2ca2577b2","system_id":"levelo_inurba_marseille","lat":43.24802,"lon":5.37458,"is_reserved":false,"is_disabled":false,"rental_uris":{"android":"levelo://app?vid=e4bd60cd-9502-4a9f-a52c-a4e2ca2577b2","ios":"levelo://app?vid=e4bd60cd-9502-4a9f-a52c-a4e2ca2577b2"},"vehicle_type_id":"4","last_reported":1739790474,"current_range_meters":16400,"station_id":"ce4bhgh2rcd13ifvqfb0","pricing_plan_id":"cebpf4jnsgd1na2vs0mg"},{"bike_id":"e57f9313-8443-49d5-820a-e3f0c205b6f2","system_id":"levelo_inurba_marseille","lat":43.24068,"lon":5.37755,"is_reserved":false,"is_disabled":false,"rental_uris":{"android":"levelo://app?vid=e57f9313-8443-49d5-820a-e3f0c205b6f2","ios":"levelo://app?vid=e57f9313-8443-49d5-820a-e3f0c205b6f2"},"vehicle_type_id":"4","last_reported":1739790474,"current_range_meters":16400,"station_id":"ce4bhnp2rcd13ifvqgvg","pricing_plan_id":"cebpf4jnsgd1na2vs0mg"},{"bike_id":"0eecbd2a-33dc-4d02-9f98-4898b79d8d85","system_id":"levelo_inurba_marseille","lat":43.31372,"lon":5.3851,"is_reserved":false,"is_disabled":false,"rental_uris":{"android":"levelo://app?vid=0eecbd2a-33dc-4d02-9f98-4898b79d8d85","ios":"levelo://app?vid=0eecbd2a-33dc-4d02-9f98-4898b79d8d85"},"vehicle_type_id":"4","last_reported":1739790474,"current_range_meters":16400,"station_id":"ce4bgt92rcd13ifvqcf0","pricing_plan_id":"cebpf4jnsgd1na2vs0mg"},{"bike_id":"9084f880-c05c-41d9-962e-1ab7add2848e","system_id":"levelo_inurba_marseille","lat":43.24089,"lon":5.37785,"is_reserved":false,"is_disabled":false,"rental_uris":{"android":"levelo://app?vid=9084f880-c05c-41d9-962e-1ab7add2848e","ios":"levelo://app?vid=9084f880-c05c-41d9-962e-1ab7add2848e"},"vehicle_type_id":"4","last_reported":1739790474,"current_range_meters":16400,"station_id":"ce4bhnp2rcd13ifvqgvg","pricing_plan_id":"cebpf4jnsgd1na2vs0mg"},{"bike_id":"d1b292e2-afaf-4d01-841f-1489ff1ec4d2","system_id":"levelo_inurba_marseille","lat":43.28151,"lon":5.42643,"is_reserved":false,"is_disabled":false,"rental_uris":{"android":"levelo://app?vid=d1b292e2-afaf-4d01-841f-1489ff1ec4d2","ios":"levelo://app?vid=d1b292e2-afaf-4d01-841f-1489ff1ec4d2"},"vehicle_type_id":"4","last_reported":1739790474,"current_range_meters":16400,"station_id":"ce4bhnh2rcd13ifvqgug","pricing_plan_id":"cebpf4jnsgd1na2vs0mg"},{"bike_id":"91bf3218-0a05-4226-acc9-b3131b7d5a8d","system_id":"levelo_inurba_marseille","lat":43.23964,"lon":5.36624,"is_reserved":false,"is_disabled":false,"rental_uris":{"android":"levelo://app?vid=91bf3218-0a05-4226-acc9-b3131b7d5a8d","ios":"levelo://app?vid=91bf3218-0a05-4226-acc9-b3131b7d5a8d"},"vehicle_type_id":"4","last_reported":1739790474,"current_range_meters":16800,"station_id":"ce4bhi12rcd13ifvqfp0","pricing_plan_id":"cebpf4jnsgd1na2vs0mg"},{"bike_id":"2de7f091-a02e-415f-a947-f017889a6445","system_id":"levelo_inurba_marseille","lat":43.30455,"lon":5.37913,"is_reserved":false,"is_disabled":false,"rental_uris":{"android":"levelo://app?vid=2de7f091-a02e-415f-a947-f017889a6445","ios":"levelo://app?vid=2de7f091-a02e-415f-a947-f017889a6445"},"vehicle_type_id":"4","last_reported":1739790474,"current_range_meters":16800,"station_id":"ce4bgup2rcd13ifvqcn0","pricing_plan_id":"cebpf4jnsgd1na2vs0mg"},{"bike_id":"d9da9ec9-50c3-42fd-9f4d-8da50caac3d0","system_id":"levelo_inurba_marseille","lat":43.269486,"lon":5.38638,"is_reserved":false,"is_disabled":false,"rental_uris":{"android":"levelo://app?vid=d9da9ec9-50c3-42fd-9f4d-8da50caac3d0","ios":"levelo://app?vid=d9da9ec9-50c3-42fd-9f4d-8da50caac3d0"},"vehicle_type_id":"4","last_reported":1739790474,"current_range_meters":16800,"station_id":"ce4bhh92rcd13ifvqfh0","pricing_plan_id":"cebpf4jnsgd1na2vs0mg"},{"bike_id":"8ce31cf8-6349-4b65-884d-c1d6de78b370","system_id":"levelo_inurba_marseille","lat":43.31524,"lon":5.37309,"is_reserved":false,"is_disabled":false,"rental_uris":{"android":"levelo://app?vid=8ce31cf8-6349-4b65-884d-c1d6de78b370","ios":"levelo://app?vid=8ce31cf8-6349-4b65-884d-c1d6de78b370"},"vehicle_type_id":"4","last_reported":1739790474,"current_range_meters":16800,"station_id":"ce4bgt12rcd13ifvqcd0","pricing_plan_id":"cebpf4jnsgd1na2vs0mg"},{"bike_id":"a3d19399-f165-4423-a6ad-9b298564f78d","system_id":"levelo_inurba_marseille","lat":43.2771,"lon":5.41539,"is_reserved":false,"is_disabled":false,"rental_uris":{"android":"levelo://app?vid=a3d19399-f165-4423-a6ad-9b298564f78d","ios":"levelo://app?vid=a3d19399-f165-4423-a6ad-9b298564f78d"},"vehicle_type_id":"4","last_reported":1739790474,"current_range_meters":16800,"station_id":"","pricing_plan_id":"cebpf4jnsgd1na2vs0mg"},{"bike_id":"60b6aa50-aa36-4851-b326-eee475008e2e","system_id":"levelo_inurba_marseille","lat":43.2992,"lon":5.36523,"is_reserved":false,"is_disabled":false,"rental_uris":{"android":"levelo://app?vid=60b6aa50-aa36-4851-b326-eee475008e2e","ios":"levelo://app?vid=60b6aa50-aa36-4851-b326-eee475008e2e"},"vehicle_type_id":"4","last_reported":1739790474,"current_range_meters":16800,"station_id":"ce4bgm92rcd13ifvqbr0","pricing_plan_id":"cebpf4jnsgd1na2vs0mg"},{"bike_id":"3c9435a2-e20f-444c-8b52-ad84f4a507be","system_id":"levelo_inurba_marseille","lat":43.304143,"lon":5.412783,"is_reserved":false,"is_disabled":false,"rental_uris":{"android":"levelo://app?vid=3c9435a2-e20f-444c-8b52-ad84f4a507be","ios":"levelo://app?vid=3c9435a2-e20f-444c-8b52-ad84f4a507be"},"vehicle_type_id":"4","last_reported":1739790474,"current_range_meters":16800,"station_id":"ce4bhop2rcd13ifvqh8g","pricing_plan_id":"cebpf4jnsgd1na2vs0mg"},{"bike_id":"8400608f-9b0c-4949-8392-d9cd9cc2f7d1","system_id":"levelo_inurba_marseille","lat":43.3235,"lon":5.40625,"is_reserved":false,"is_disabled":false,"rental_uris":{"android":"levelo://app?vid=8400608f-9b0c-4949-8392-d9cd9cc2f7d1","ios":"levelo://app?vid=8400608f-9b0c-4949-8392-d9cd9cc2f7d1"},"vehicle_type_id":"4","last_reported":1739790474,"current_range_meters":17200,"station_id":"ce4bhq92rcd13ifvqhjg","pricing_plan_id":"cebpf4jnsgd1na2vs0mg"},{"bike_id":"ee9676c2-4237-4c67-863c-458cd65e632b","system_id":"levelo_inurba_marseille","lat":43.2791,"lon":5.38023,"is_reserved":false,"is_disabled":false,"rental_uris":{"android":"levelo://app?vid=ee9676c2-4237-4c67-863c-458cd65e632b","ios":"levelo://app?vid=ee9676c2-4237-4c67-863c-458cd65e632b"},"vehicle_type_id":"4","last_reported":1739790474,"current_range_meters":17200,"station_id":"ce4bhf92rcd13ifvqf50","pricing_plan_id":"cebpf4jnsgd1na2vs0mg"},{"bike_id":"bb4a3648-09cb-4cc2-9947-bf380533d03f","system_id":"levelo_inurba_marseille","lat":43.31651,"lon":5.37251,"is_reserved":false,"is_disabled":false,"rental_uris":{"android":"levelo://app?vid=bb4a3648-09cb-4cc2-9947-bf380533d03f","ios":"levelo://app?vid=bb4a3648-09cb-4cc2-9947-bf380533d03f"},"vehicle_type_id":"4","last_reported":1739790474,"current_range_meters":17200,"station_id":"","pricing_plan_id":"cebpf4jnsgd1na2vs0mg"},{"bike_id":"0670037e-6153-4469-a590-978963c2b27c","system_id":"levelo_inurba_marseille","lat":43.32495,"lon":5.36564,"is_reserved":false,"is_disabled":false,"rental_uris":{"android":"levelo://app?vid=0670037e-6153-4469-a590-978963c2b27c","ios":"levelo://app?vid=0670037e-6153-4469-a590-978963c2b27c"},"vehicle_type_id":"4","last_reported":1739790474,"current_range_meters":17200,"station_id":"ce4bhs12rcd13ifvqhvg","pricing_plan_id":"cebpf4jnsgd1na2vs0mg"},{"bike_id":"ba53affe-51da-4fd8-aae4-1a001c71ecbe","system_id":"levelo_inurba_marseille","lat":43.29544,"lon":5.37499,"is_reserved":false,"is_disabled":false,"rental_uris":{"android":"levelo://app?vid=ba53affe-51da-4fd8-aae4-1a001c71ecbe","ios":"levelo://app?vid=ba53affe-51da-4fd8-aae4-1a001c71ecbe"},"vehicle_type_id":"4","last_reported":1739790474,"current_range_meters":17600,"station_id":"ce4bgkp2rcd13ifvqbmg","pricing_plan_id":"cebpf4jnsgd1na2vs0mg"},{"bike_id":"429045ef-965c-424d-86d2-d9d4953613dd","system_id":"levelo_inurba_marseille","lat":43.30087,"lon":5.39068,"is_reserved":false,"is_disabled":false,"rental_uris":{"android":"levelo://app?vid=429045ef-965c-424d-86d2-d9d4953613dd","ios":"levelo://app?vid=429045ef-965c-424d-86d2-d9d4953613dd"},"vehicle_type_id":"4","last_reported":1739790474,"current_range_meters":17600,"station_id":"ce4bh192rcd13ifvqdb0","pricing_plan_id":"cebpf4jnsgd1na2vs0mg"},{"bike_id":"b95a2298-8263-4194-8381-ae21067d7697","system_id":"levelo_inurba_marseille","lat":43.27554,"lon":5.38443,"is_reserved":false,"is_disabled":false,"rental_uris":{"android":"levelo://app?vid=b95a2298-8263-4194-8381-ae21067d7697","ios":"levelo://app?vid=b95a2298-8263-4194-8381-ae21067d7697"},"vehicle_type_id":"4","last_reported":1739790474,"current_range_meters":17200,"station_id":"ce4bhh92rcd13ifvqfi0","pricing_plan_id":"cebpf4jnsgd1na2vs0mg"},{"bike_id":"476dbd24-18ba-4028-a019-12e4027930d6","system_id":"levelo_inurba_marseille","lat":43.26213,"lon":5.37453,"is_reserved":false,"is_disabled":false,"rental_uris":{"android":"levelo://app?vid=476dbd24-18ba-4028-a019-12e4027930d6","ios":"levelo://app?vid=476dbd24-18ba-4028-a019-12e4027930d6"},"vehicle_type_id":"4","last_reported":1739790474,"current_range_meters":17600,"station_id":"ce4bhgp2rcd13ifvqfc0","pricing_plan_id":"cebpf4jnsgd1na2vs0mg"},{"bike_id":"0c95993f-f141-442f-9a15-478429bec3fc","system_id":"levelo_inurba_marseille","lat":43.29918,"lon":5.37545,"is_reserved":false,"is_disabled":true,"rental_uris":{"android":"levelo://app?vid=0c95993f-f141-442f-9a15-478429bec3fc","ios":"levelo://app?vid=0c95993f-f141-442f-9a15-478429bec3fc"},"vehicle_type_id":"4","last_reported":1739790474,"current_range_meters":17600,"station_id":"","pricing_plan_id":"cebpf4jnsgd1na2vs0mg"},{"bike_id":"63f6216e-0228-48d4-b7a0-b10323e202ec","system_id":"levelo_inurba_marseille","lat":43.30144,"lon":5.3741,"is_reserved":false,"is_disabled":false,"rental_uris":{"android":"levelo://app?vid=63f6216e-0228-48d4-b7a0-b10323e202ec","ios":"levelo://app?vid=63f6216e-0228-48d4-b7a0-b10323e202ec"},"vehicle_type_id":"4","last_reported":1739790474,"current_range_meters":17600,"station_id":"","pricing_plan_id":"cebpf4jnsgd1na2vs0mg"},{"bike_id":"66b8b85c-e284-453f-aa78-47557eb7f3c7","system_id":"levelo_inurba_marseille","lat":43.27965,"lon":5.38689,"is_reserved":false,"is_disabled":false,"rental_uris":{"android":"levelo://app?vid=66b8b85c-e284-453f-aa78-47557eb7f3c7","ios":"levelo://app?vid=66b8b85c-e284-453f-aa78-47557eb7f3c7"},"vehicle_type_id":"4","last_reported":1739790474,"current_range_meters":17600,"station_id":"ce4bhg12rcd13ifvqf80","pricing_plan_id":"cebpf4jnsgd1na2vs0mg"},{"bike_id":"27dcb452-f61a-4172-8b88-ce60e48f3cf0","system_id":"levelo_inurba_marseille","lat":43.28933,"lon":5.3642,"is_reserved":false,"is_disabled":false,"rental_uris":{"android":"levelo://app?vid=27dcb452-f61a-4172-8b88-ce60e48f3cf0","ios":"levelo://app?vid=27dcb452-f61a-4172-8b88-ce60e48f3cf0"},"vehicle_type_id":"4","last_reported":1739790474,"current_range_meters":17600,"station_id":"ce4bhc92rcd13ifvqetg","pricing_plan_id":"cebpf4jnsgd1na2vs0mg"},{"bike_id":"e493d32f-c7df-48a8-8644-e6c67b333882","system_id":"levelo_inurba_marseille","lat":43.30143,"lon":5.37108,"is_reserved":false,"is_disabled":false,"rental_uris":{"android":"levelo://app?vid=e493d32f-c7df-48a8-8644-e6c67b333882","ios":"levelo://app?vid=e493d32f-c7df-48a8-8644-e6c67b333882"},"vehicle_type_id":"4","last_reported":1739790474,"current_range_meters":17600,"station_id":"","pricing_plan_id":"cebpf4jnsgd1na2vs0mg"},{"bike_id":"ca00440e-2d67-48fa-aa76-51f88fb9398b","system_id":"levelo_inurba_marseille","lat":43.33014,"lon":5.39034,"is_reserved":false,"is_disabled":false,"rental_uris":{"android":"levelo://app?vid=ca00440e-2d67-48fa-aa76-51f88fb9398b","ios":"levelo://app?vid=ca00440e-2d67-48fa-aa76-51f88fb9398b"},"vehicle_type_id":"4","last_reported":1739790474,"current_range_meters":17600,"station_id":"ce4bhr92rcd13ifvqhrg","pricing_plan_id":"cebpf4jnsgd1na2vs0mg"},{"bike_id":"a81f047e-2602-4d29-8821-508c11538471","system_id":"levelo_inurba_marseille","lat":43.22925,"lon":5.35378,"is_reserved":false,"is_disabled":false,"rental_uris":{"android":"levelo://app?vid=a81f047e-2602-4d29-8821-508c11538471","ios":"levelo://app?vid=a81f047e-2602-4d29-8821-508c11538471"},"vehicle_type_id":"4","last_reported":1739790474,"current_range_meters":18000,"station_id":"cpo3532slgdg3j2ikp40","pricing_plan_id":"cebpf4jnsgd1na2vs0mg"},{"bike_id":"e32e6dff-6f6e-4924-8e61-9e469686cbbf","system_id":"levelo_inurba_marseille","lat":43.31712,"lon":5.43709,"is_reserved":false,"is_disabled":false,"rental_uris":{"android":"levelo://app?vid=e32e6dff-6f6e-4924-8e61-9e469686cbbf","ios":"levelo://app?vid=e32e6dff-6f6e-4924-8e61-9e469686cbbf"},"vehicle_type_id":"4","last_reported":1739790474,"current_range_meters":17600,"station_id":"ce4bhp92rcd13ifvqhcg","pricing_plan_id":"cebpf4jnsgd1na2vs0mg"},{"bike_id":"6ec200ed-f04d-4871-95f5-7350157ade2f","system_id":"levelo_inurba_marseille","lat":43.24177,"lon":5.3973,"is_reserved":false,"is_disabled":false,"rental_uris":{"android":"levelo://app?vid=6ec200ed-f04d-4871-95f5-7350157ade2f","ios":"levelo://app?vid=6ec200ed-f04d-4871-95f5-7350157ade2f"},"vehicle_type_id":"4","last_reported":1739790474,"current_range_meters":18000,"station_id":"ce4bhn12rcd13ifvqgpg","pricing_plan_id":"cebpf4jnsgd1na2vs0mg"},{"bike_id":"d9d70e74-0a79-4794-83ab-cc52773e8c3a","system_id":"levelo_inurba_marseille","lat":43.29375,"lon":5.37845,"is_reserved":false,"is_disabled":false,"rental_uris":{"android":"levelo://app?vid=d9d70e74-0a79-4794-83ab-cc52773e8c3a","ios":"levelo://app?vid=d9d70e74-0a79-4794-83ab-cc52773e8c3a"},"vehicle_type_id":"4","last_reported":1739790474,"current_range_meters":18000,"station_id":"ce4bgjh2rcd13ifvqbf0","pricing_plan_id":"cebpf4jnsgd1na2vs0mg"},{"bike_id":"a9e8daf3-70cf-4ca0-a2bf-a2ff80ebc918","system_id":"levelo_inurba_marseille","lat":43.30452,"lon":5.36963,"is_reserved":false,"is_disabled":false,"rental_uris":{"android":"levelo://app?vid=a9e8daf3-70cf-4ca0-a2bf-a2ff80ebc918","ios":"levelo://app?vid=a9e8daf3-70cf-4ca0-a2bf-a2ff80ebc918"},"vehicle_type_id":"4","last_reported":1739790474,"current_range_meters":18000,"station_id":"","pricing_plan_id":"cebpf4jnsgd1na2vs0mg"},{"bike_id":"7f4269dd-2ac5-4b5a-b384-c1682237db47","system_id":"levelo_inurba_marseille","lat":43.26803,"lon":5.40264,"is_reserved":false,"is_disabled":false,"rental_uris":{"android":"levelo://app?vid=7f4269dd-2ac5-4b5a-b384-c1682237db47","ios":"levelo://app?vid=7f4269dd-2ac5-4b5a-b384-c1682237db47"},"vehicle_type_id":"4","last_reported":1739790474,"current_range_meters":18000,"station_id":"ce501612rcd8frsf0b60","pricing_plan_id":"cebpf4jnsgd1na2vs0mg"},{"bike_id":"afa675c9-6ade-4eb9-96ad-160063c7b332","system_id":"levelo_inurba_marseille","lat":43.30532,"lon":5.36549,"is_reserved":false,"is_disabled":false,"rental_uris":{"android":"levelo://app?vid=afa675c9-6ade-4eb9-96ad-160063c7b332","ios":"levelo://app?vid=afa675c9-6ade-4eb9-96ad-160063c7b332"},"vehicle_type_id":"4","last_reported":1739790474,"current_range_meters":18000,"station_id":"ce4bgs12rcd13ifvqcag","pricing_plan_id":"cebpf4jnsgd1na2vs0mg"},{"bike_id":"20bf0f99-c9d5-43d0-bede-cee701a2ad02","system_id":"levelo_inurba_marseille","lat":43.2799,"lon":5.41659,"is_reserved":false,"is_disabled":false,"rental_uris":{"android":"levelo://app?vid=20bf0f99-c9d5-43d0-bede-cee701a2ad02","ios":"levelo://app?vid=20bf0f99-c9d5-43d0-bede-cee701a2ad02"},"vehicle_type_id":"4","last_reported":1739790474,"current_range_meters":18800,"station_id":"ce4bho12rcd13ifvqh1g","pricing_plan_id":"cebpf4jnsgd1na2vs0mg"},{"bike_id":"9f5e2ed3-dbc9-412d-b781-75ed365a25cc","system_id":"levelo_inurba_marseille","lat":43.27046,"lon":5.4026,"is_reserved":false,"is_disabled":false,"rental_uris":{"android":"levelo://app?vid=9f5e2ed3-dbc9-412d-b781-75ed365a25cc","ios":"levelo://app?vid=9f5e2ed3-dbc9-412d-b781-75ed365a25cc"},"vehicle_type_id":"4","last_reported":1739790474,"current_range_meters":19200,"station_id":"ce4bhk92rcd13ifvqgc0","pricing_plan_id":"cebpf4jnsgd1na2vs0mg"},{"bike_id":"ff7f4373-418d-47c4-92b8-8e40f7b617a4","system_id":"levelo_inurba_marseille","lat":43.22921,"lon":5.35379,"is_reserved":false,"is_disabled":false,"rental_uris":{"android":"levelo://app?vid=ff7f4373-418d-47c4-92b8-8e40f7b617a4","ios":"levelo://app?vid=ff7f4373-418d-47c4-92b8-8e40f7b617a4"},"vehicle_type_id":"4","last_reported":1739790474,"current_range_meters":19200,"station_id":"cpo3532slgdg3j2ikp40","pricing_plan_id":"cebpf4jnsgd1na2vs0mg"},{"bike_id":"cdb6918f-3b66-40e5-85e5-96797ec6c113","system_id":"levelo_inurba_marseille","lat":43.29778,"lon":5.37101,"is_reserved":false,"is_disabled":false,"rental_uris":{"android":"levelo://app?vid=cdb6918f-3b66-40e5-85e5-96797ec6c113","ios":"levelo://app?vid=cdb6918f-3b66-40e5-85e5-96797ec6c113"},"vehicle_type_id":"4","last_reported":1739790474,"current_range_meters":18800,"station_id":"ce4bgop2rcd13ifvqc1g","pricing_plan_id":"cebpf4jnsgd1na2vs0mg"},{"bike_id":"95ec9764-6b48-4547-87d5-3531f2b913a2","system_id":"levelo_inurba_marseille","lat":43.32358,"lon":5.38897,"is_reserved":false,"is_disabled":false,"rental_uris":{"android":"levelo://app?vid=95ec9764-6b48-4547-87d5-3531f2b913a2","ios":"levelo://app?vid=95ec9764-6b48-4547-87d5-3531f2b913a2"},"vehicle_type_id":"4","last_reported":1739790474,"current_range_meters":19200,"station_id":"ce4bhqp2rcd13ifvqhog","pricing_plan_id":"cebpf4jnsgd1na2vs0mg"},{"bike_id":"bd6862e2-95ba-4b93-9c48-5aa225231bbd","system_id":"levelo_inurba_marseille","lat":43.31878,"lon":5.40739,"is_reserved":false,"is_disabled":false,"rental_uris":{"android":"levelo://app?vid=bd6862e2-95ba-4b93-9c48-5aa225231bbd","ios":"levelo://app?vid=bd6862e2-95ba-4b93-9c48-5aa225231bbd"},"vehicle_type_id":"4","last_reported":1739790474,"current_range_meters":18800,"station_id":"ce4bhq12rcd13ifvqhig","pricing_plan_id":"cebpf4jnsgd1na2vs0mg"},{"bike_id":"d829381f-6e7a-48ee-95a0-a19481848e58","system_id":"levelo_inurba_marseille","lat":43.28388,"lon":5.39616,"is_reserved":false,"is_disabled":false,"rental_uris":{"android":"levelo://app?vid=d829381f-6e7a-48ee-95a0-a19481848e58","ios":"levelo://app?vid=d829381f-6e7a-48ee-95a0-a19481848e58"},"vehicle_type_id":"4","last_reported":1739790474,"current_range_meters":19200,"station_id":"","pricing_plan_id":"cebpf4jnsgd1na2vs0mg"},{"bike_id":"9dbb2a2a-6935-49c1-b722-29ab9960ce2e","system_id":"levelo_inurba_marseille","lat":43.32361,"lon":5.38883,"is_reserved":false,"is_disabled":false,"rental_uris":{"android":"levelo://app?vid=9dbb2a2a-6935-49c1-b722-29ab9960ce2e","ios":"levelo://app?vid=9dbb2a2a-6935-49c1-b722-29ab9960ce2e"},"vehicle_type_id":"4","last_reported":1739790474,"current_range_meters":19200,"station_id":"ce4bhqp2rcd13ifvqhog","pricing_plan_id":"cebpf4jnsgd1na2vs0mg"},{"bike_id":"b42f074f-4e21-4b45-b0a4-9ed97bdc3bca","system_id":"levelo_inurba_marseille","lat":43.27207,"lon":5.39189,"is_reserved":false,"is_disabled":false,"rental_uris":{"android":"levelo://app?vid=b42f074f-4e21-4b45-b0a4-9ed97bdc3bca","ios":"levelo://app?vid=b42f074f-4e21-4b45-b0a4-9ed97bdc3bca"},"vehicle_type_id":"4","last_reported":1739790474,"current_range_meters":19600,"station_id":"ce4bhhp2rcd13ifvqfm0","pricing_plan_id":"cebpf4jnsgd1na2vs0mg"},{"bike_id":"530010c3-5d85-4fda-a598-7fb37e3eebc7","system_id":"levelo_inurba_marseille","lat":43.24084,"lon":5.37747,"is_reserved":false,"is_disabled":false,"rental_uris":{"android":"levelo://app?vid=530010c3-5d85-4fda-a598-7fb37e3eebc7","ios":"levelo://app?vid=530010c3-5d85-4fda-a598-7fb37e3eebc7"},"vehicle_type_id":"4","last_reported":1739790474,"current_range_meters":19600,"station_id":"ce4bhnp2rcd13ifvqgvg","pricing_plan_id":"cebpf4jnsgd1na2vs0mg"},{"bike_id":"5bd3b795-1c94-4f69-923e-28d6296b76b4","system_id":"levelo_inurba_marseille","lat":43.27988,"lon":5.4166,"is_reserved":false,"is_disabled":false,"rental_uris":{"android":"levelo://app?vid=5bd3b795-1c94-4f69-923e-28d6296b76b4","ios":"levelo://app?vid=5bd3b795-1c94-4f69-923e-28d6296b76b4"},"vehicle_type_id":"4","last_reported":1739790474,"current_range_meters":19600,"station_id":"ce4bho12rcd13ifvqh1g","pricing_plan_id":"cebpf4jnsgd1na2vs0mg"},{"bike_id":"b0225e20-d7ad-4049-97c9-0c86166bd2f5","system_id":"levelo_inurba_marseille","lat":43.28943,"lon":5.36405,"is_reserved":false,"is_disabled":false,"rental_uris":{"android":"levelo://app?vid=b0225e20-d7ad-4049-97c9-0c86166bd2f5","ios":"levelo://app?vid=b0225e20-d7ad-4049-97c9-0c86166bd2f5"},"vehicle_type_id":"4","last_reported":1739790474,"current_range_meters":19200,"station_id":"ce4bhc92rcd13ifvqetg","pricing_plan_id":"cebpf4jnsgd1na2vs0mg"},{"bike_id":"87e4e3d9-887e-4f25-bf58-279367bc8327","system_id":"levelo_inurba_marseille","lat":43.30705,"lon":5.40076,"is_reserved":false,"is_disabled":true,"rental_uris":{"android":"levelo://app?vid=87e4e3d9-887e-4f25-bf58-279367bc8327","ios":"levelo://app?vid=87e4e3d9-887e-4f25-bf58-279367bc8327"},"vehicle_type_id":"4","last_reported":1739790474,"current_range_meters":20000,"station_id":"ce4bh112rcd13ifvqda0","pricing_plan_id":"cebpf4jnsgd1na2vs0mg"},{"bike_id":"3101d273-3481-4f1c-ae64-fe812139a544","system_id":"levelo_inurba_marseille","lat":43.2691,"lon":5.39402,"is_reserved":false,"is_disabled":false,"rental_uris":{"android":"levelo://app?vid=3101d273-3481-4f1c-ae64-fe812139a544","ios":"levelo://app?vid=3101d273-3481-4f1c-ae64-fe812139a544"},"vehicle_type_id":"4","last_reported":1739790474,"current_range_meters":20000,"station_id":"","pricing_plan_id":"cebpf4jnsgd1na2vs0mg"},{"bike_id":"8f88816b-12e8-47f3-b6b6-782c34dca4c4","system_id":"levelo_inurba_marseille","lat":43.27613,"lon":5.36107,"is_reserved":false,"is_disabled":false,"rental_uris":{"android":"levelo://app?vid=8f88816b-12e8-47f3-b6b6-782c34dca4c4","ios":"levelo://app?vid=8f88816b-12e8-47f3-b6b6-782c34dca4c4"},"vehicle_type_id":"4","last_reported":1739790474,"current_range_meters":20000,"station_id":"ce4bgj92rcd13ifvqbe0","pricing_plan_id":"cebpf4jnsgd1na2vs0mg"},{"bike_id":"954882ad-f997-48eb-8b49-af0b0b38bc7e","system_id":"levelo_inurba_marseille","lat":43.31051,"lon":5.37,"is_reserved":false,"is_disabled":false,"rental_uris":{"android":"levelo://app?vid=954882ad-f997-48eb-8b49-af0b0b38bc7e","ios":"levelo://app?vid=954882ad-f997-48eb-8b49-af0b0b38bc7e"},"vehicle_type_id":"4","last_reported":1739790474,"current_range_meters":20000,"station_id":"","pricing_plan_id":"cebpf4jnsgd1na2vs0mg"},{"bike_id":"4d50de08-2cec-428e-9f44-63d60dd7ce1c","system_id":"levelo_inurba_marseille","lat":43.32369,"lon":5.38888,"is_reserved":false,"is_disabled":false,"rental_uris":{"android":"levelo://app?vid=4d50de08-2cec-428e-9f44-63d60dd7ce1c","ios":"levelo://app?vid=4d50de08-2cec-428e-9f44-63d60dd7ce1c"},"vehicle_type_id":"4","last_reported":1739790474,"current_range_meters":20000,"station_id":"ce4bhqp2rcd13ifvqhog","pricing_plan_id":"cebpf4jnsgd1na2vs0mg"},{"bike_id":"5d02355e-fb89-4e79-80a9-441ba8cea8c4","system_id":"levelo_inurba_marseille","lat":43.287181,"lon":5.36081,"is_reserved":false,"is_disabled":false,"rental_uris":{"android":"levelo://app?vid=5d02355e-fb89-4e79-80a9-441ba8cea8c4","ios":"levelo://app?vid=5d02355e-fb89-4e79-80a9-441ba8cea8c4"},"vehicle_type_id":"4","last_reported":1739790474,"current_range_meters":20000,"station_id":"ce4bgs12rcd13ifvqcag","pricing_plan_id":"cebpf4jnsgd1na2vs0mg"},{"bike_id":"7312cda3-bba1-47e6-b097-bd447e567723","system_id":"levelo_inurba_marseille","lat":43.24086,"lon":5.37759,"is_reserved":false,"is_disabled":false,"rental_uris":{"android":"levelo://app?vid=7312cda3-bba1-47e6-b097-bd447e567723","ios":"levelo://app?vid=7312cda3-bba1-47e6-b097-bd447e567723"},"vehicle_type_id":"4","last_reported":1739790474,"current_range_meters":20000,"station_id":"ce4bhnp2rcd13ifvqgvg","pricing_plan_id":"cebpf4jnsgd1na2vs0mg"},{"bike_id":"9d2dfefd-d0c5-461c-802b-941628d53608","system_id":"levelo_inurba_marseille","lat":43.24168,"lon":5.36392,"is_reserved":false,"is_disabled":false,"rental_uris":{"android":"levelo://app?vid=9d2dfefd-d0c5-461c-802b-941628d53608","ios":"levelo://app?vid=9d2dfefd-d0c5-461c-802b-941628d53608"},"vehicle_type_id":"4","last_reported":1739790474,"current_range_meters":20400,"station_id":"cpo36qri1sfpv3e86is0","pricing_plan_id":"cebpf4jnsgd1na2vs0mg"},{"bike_id":"ca34d57f-8407-431e-a59b-312b5dc994a7","system_id":"levelo_inurba_marseille","lat":43.297364,"lon":5.361734,"is_reserved":false,"is_disabled":false,"rental_uris":{"android":"levelo://app?vid=ca34d57f-8407-431e-a59b-312b5dc994a7","ios":"levelo://app?vid=ca34d57f-8407-431e-a59b-312b5dc994a7"},"vehicle_type_id":"4","last_reported":1739790474,"current_range_meters":20000,"station_id":"ce4bgpp2rcd13ifvqc3g","pricing_plan_id":"cebpf4jnsgd1na2vs0mg"},{"bike_id":"f5421568-b607-4bd4-8920-5604ea43dde7","system_id":"levelo_inurba_marseille","lat":43.32444,"lon":5.36567,"is_reserved":false,"is_disabled":false,"rental_uris":{"android":"levelo://app?vid=f5421568-b607-4bd4-8920-5604ea43dde7","ios":"levelo://app?vid=f5421568-b607-4bd4-8920-5604ea43dde7"},"vehicle_type_id":"4","last_reported":1739790474,"current_range_meters":20400,"station_id":"ce4bhs12rcd13ifvqhvg","pricing_plan_id":"cebpf4jnsgd1na2vs0mg"},{"bike_id":"573005e7-fe38-466d-92a2-f315f4d5cf64","system_id":"levelo_inurba_marseille","lat":43.29008,"lon":5.39977,"is_reserved":false,"is_disabled":false,"rental_uris":{"android":"levelo://app?vid=573005e7-fe38-466d-92a2-f315f4d5cf64","ios":"levelo://app?vid=573005e7-fe38-466d-92a2-f315f4d5cf64"},"vehicle_type_id":"4","last_reported":1739790474,"current_range_meters":20400,"station_id":"ce4bh392rcd13ifvqdm0","pricing_plan_id":"cebpf4jnsgd1na2vs0mg"},{"bike_id":"0e081e7f-df8c-4fd0-9f11-5148e11b63b6","system_id":"levelo_inurba_marseille","lat":43.3175,"lon":5.390242,"is_reserved":false,"is_disabled":true,"rental_uris":{"android":"levelo://app?vid=0e081e7f-df8c-4fd0-9f11-5148e11b63b6","ios":"levelo://app?vid=0e081e7f-df8c-4fd0-9f11-5148e11b63b6"},"vehicle_type_id":"4","last_reported":1739790474,"current_range_meters":20400,"station_id":"ce4bhqp2rcd13ifvqhng","pricing_plan_id":"cebpf4jnsgd1na2vs0mg"},{"bike_id":"03d4faad-c15a-48aa-9dae-b9ddb0491fbe","system_id":"levelo_inurba_marseille","lat":43.33716,"lon":5.39206,"is_reserved":false,"is_disabled":false,"rental_uris":{"android":"levelo://app?vid=03d4faad-c15a-48aa-9dae-b9ddb0491fbe","ios":"levelo://app?vid=03d4faad-c15a-48aa-9dae-b9ddb0491fbe"},"vehicle_type_id":"4","last_reported":1739790474,"current_range_meters":20400,"station_id":"ce4bhr92rcd13ifvqhsg","pricing_plan_id":"cebpf4jnsgd1na2vs0mg"},{"bike_id":"db90dd96-e348-4c68-ac8b-20428675b838","system_id":"levelo_inurba_marseille","lat":43.27187,"lon":5.39945,"is_reserved":false,"is_disabled":false,"rental_uris":{"android":"levelo://app?vid=db90dd96-e348-4c68-ac8b-20428675b838","ios":"levelo://app?vid=db90dd96-e348-4c68-ac8b-20428675b838"},"vehicle_type_id":"4","last_reported":1739790474,"current_range_meters":20400,"station_id":"","pricing_plan_id":"cebpf4jnsgd1na2vs0mg"},{"bike_id":"c22b076a-c085-4a58-81f5-c0fa44a6fd44","system_id":"levelo_inurba_marseille","lat":43.23959,"lon":5.36652,"is_reserved":false,"is_disabled":false,"rental_uris":{"android":"levelo://app?vid=c22b076a-c085-4a58-81f5-c0fa44a6fd44","ios":"levelo://app?vid=c22b076a-c085-4a58-81f5-c0fa44a6fd44"},"vehicle_type_id":"4","last_reported":1739790474,"current_range_meters":20400,"station_id":"ce4bhi12rcd13ifvqfp0","pricing_plan_id":"cebpf4jnsgd1na2vs0mg"},{"bike_id":"a14ed9c8-533b-4e1a-9b69-1f32ec257460","system_id":"levelo_inurba_marseille","lat":43.31063,"lon":5.38353,"is_reserved":false,"is_disabled":false,"rental_uris":{"android":"levelo://app?vid=a14ed9c8-533b-4e1a-9b69-1f32ec257460","ios":"levelo://app?vid=a14ed9c8-533b-4e1a-9b69-1f32ec257460"},"vehicle_type_id":"4","last_reported":1739790474,"current_range_meters":20400,"station_id":"ce4bgv92rcd13ifvqcr0","pricing_plan_id":"cebpf4jnsgd1na2vs0mg"},{"bike_id":"a50a2d9b-c87e-42f4-ad29-6a4b59955ce8","system_id":"levelo_inurba_marseille","lat":43.2927,"lon":5.40175,"is_reserved":false,"is_disabled":false,"rental_uris":{"android":"levelo://app?vid=a50a2d9b-c87e-42f4-ad29-6a4b59955ce8","ios":"levelo://app?vid=a50a2d9b-c87e-42f4-ad29-6a4b59955ce8"},"vehicle_type_id":"4","last_reported":1739790474,"current_range_meters":20800,"station_id":"ce4bh312rcd13ifvqdk0","pricing_plan_id":"cebpf4jnsgd1na2vs0mg"},{"bike_id":"e043a0f5-3c50-4f40-869b-368bead2bf38","system_id":"levelo_inurba_marseille","lat":43.292816,"lon":5.368473,"is_reserved":false,"is_disabled":false,"rental_uris":{"android":"levelo://app?vid=e043a0f5-3c50-4f40-869b-368bead2bf38","ios":"levelo://app?vid=e043a0f5-3c50-4f40-869b-368bead2bf38"},"vehicle_type_id":"4","last_reported":1739790474,"current_range_meters":20800,"station_id":"ce4bgip2rcd13ifvqbb0","pricing_plan_id":"cebpf4jnsgd1na2vs0mg"},{"bike_id":"6dda2f23-46bb-4bc4-9193-80a071d223c9","system_id":"levelo_inurba_marseille","lat":43.30602,"lon":5.3672,"is_reserved":false,"is_disabled":false,"rental_uris":{"android":"levelo://app?vid=6dda2f23-46bb-4bc4-9193-80a071d223c9","ios":"levelo://app?vid=6dda2f23-46bb-4bc4-9193-80a071d223c9"},"vehicle_type_id":"4","last_reported":1739790474,"current_range_meters":21600,"station_id":"","pricing_plan_id":"cebpf4jnsgd1na2vs0mg"},{"bike_id":"ea426bc0-bd29-425c-a6c4-e72eade4dbb0","system_id":"levelo_inurba_marseille","lat":43.25107,"lon":5.40313,"is_reserved":false,"is_disabled":false,"rental_uris":{"android":"levelo://app?vid=ea426bc0-bd29-425c-a6c4-e72eade4dbb0","ios":"levelo://app?vid=ea426bc0-bd29-425c-a6c4-e72eade4dbb0"},"vehicle_type_id":"4","last_reported":1739790474,"current_range_meters":21600,"station_id":"ce4bhlh2rcd13ifvqgig","pricing_plan_id":"cebpf4jnsgd1na2vs0mg"},{"bike_id":"893de28b-5e29-4ce9-bd72-5e1fc28ae55c","system_id":"levelo_inurba_marseille","lat":43.23174,"lon":5.43721,"is_reserved":false,"is_disabled":false,"rental_uris":{"android":"levelo://app?vid=893de28b-5e29-4ce9-bd72-5e1fc28ae55c","ios":"levelo://app?vid=893de28b-5e29-4ce9-bd72-5e1fc28ae55c"},"vehicle_type_id":"4","last_reported":1739790474,"current_range_meters":21600,"station_id":"ce4bhmp2rcd13ifvqgog","pricing_plan_id":"cebpf4jnsgd1na2vs0mg"},{"bike_id":"b8011831-5d8d-4c79-aa78-6d6027e7bd25","system_id":"levelo_inurba_marseille","lat":43.3054,"lon":5.36526,"is_reserved":false,"is_disabled":false,"rental_uris":{"android":"levelo://app?vid=b8011831-5d8d-4c79-aa78-6d6027e7bd25","ios":"levelo://app?vid=b8011831-5d8d-4c79-aa78-6d6027e7bd25"},"vehicle_type_id":"4","last_reported":1739790474,"current_range_meters":21600,"station_id":"ce4bgs12rcd13ifvqcag","pricing_plan_id":"cebpf4jnsgd1na2vs0mg"},{"bike_id":"ad6d10e1-9d02-465f-963d-04db7f177e1b","system_id":"levelo_inurba_marseille","lat":43.26488,"lon":5.39542,"is_reserved":false,"is_disabled":false,"rental_uris":{"android":"levelo://app?vid=ad6d10e1-9d02-465f-963d-04db7f177e1b","ios":"levelo://app?vid=ad6d10e1-9d02-465f-963d-04db7f177e1b"},"vehicle_type_id":"4","last_reported":1739790474,"current_range_meters":21600,"station_id":"ce4bhi12rcd13ifvqfq0","pricing_plan_id":"cebpf4jnsgd1na2vs0mg"},{"bike_id":"8d6f43ed-93c8-4975-87ab-e9ed080662dc","system_id":"levelo_inurba_marseille","lat":43.29223,"lon":5.36071,"is_reserved":false,"is_disabled":false,"rental_uris":{"android":"levelo://app?vid=8d6f43ed-93c8-4975-87ab-e9ed080662dc","ios":"levelo://app?vid=8d6f43ed-93c8-4975-87ab-e9ed080662dc"},"vehicle_type_id":"4","last_reported":1739790474,"current_range_meters":21600,"station_id":"ce4bh512rcd13ifvqe2g","pricing_plan_id":"cebpf4jnsgd1na2vs0mg"},{"bike_id":"56526eaa-933b-4fff-8d21-ce3f5de87998","system_id":"levelo_inurba_marseille","lat":43.27991,"lon":5.41652,"is_reserved":false,"is_disabled":false,"rental_uris":{"android":"levelo://app?vid=56526eaa-933b-4fff-8d21-ce3f5de87998","ios":"levelo://app?vid=56526eaa-933b-4fff-8d21-ce3f5de87998"},"vehicle_type_id":"4","last_reported":1739790474,"current_range_meters":21600,"station_id":"ce4bho12rcd13ifvqh1g","pricing_plan_id":"cebpf4jnsgd1na2vs0mg"},{"bike_id":"dbc426a0-df8d-47c4-8e9b-ff42eb28c67f","system_id":"levelo_inurba_marseille","lat":43.28931,"lon":5.36621,"is_reserved":false,"is_disabled":false,"rental_uris":{"android":"levelo://app?vid=dbc426a0-df8d-47c4-8e9b-ff42eb28c67f","ios":"levelo://app?vid=dbc426a0-df8d-47c4-8e9b-ff42eb28c67f"},"vehicle_type_id":"4","last_reported":1739790474,"current_range_meters":21600,"station_id":"ce4bhap2rcd13ifvqek0","pricing_plan_id":"cebpf4jnsgd1na2vs0mg"},{"bike_id":"9e4f6dda-4633-49a6-8916-179c191c81b8","system_id":"levelo_inurba_marseille","lat":43.31322,"lon":5.39692,"is_reserved":false,"is_disabled":false,"rental_uris":{"android":"levelo://app?vid=9e4f6dda-4633-49a6-8916-179c191c81b8","ios":"levelo://app?vid=9e4f6dda-4633-49a6-8916-179c191c81b8"},"vehicle_type_id":"4","last_reported":1739790474,"current_range_meters":21600,"station_id":"ce4bgvp2rcd13ifvqcu0","pricing_plan_id":"cebpf4jnsgd1na2vs0mg"},{"bike_id":"1d63a175-89ef-49ff-9ead-dfe9ed6c22cf","system_id":"levelo_inurba_marseille","lat":43.24687,"lon":5.39425,"is_reserved":false,"is_disabled":false,"rental_uris":{"android":"levelo://app?vid=1d63a175-89ef-49ff-9ead-dfe9ed6c22cf","ios":"levelo://app?vid=1d63a175-89ef-49ff-9ead-dfe9ed6c22cf"},"vehicle_type_id":"4","last_reported":1739790474,"current_range_meters":22000,"station_id":"","pricing_plan_id":"cebpf4jnsgd1na2vs0mg"},{"bike_id":"057db5da-e962-47e3-8c9b-32a3793fecf2","system_id":"levelo_inurba_marseille","lat":43.296,"lon":5.37738,"is_reserved":false,"is_disabled":false,"rental_uris":{"android":"levelo://app?vid=057db5da-e962-47e3-8c9b-32a3793fecf2","ios":"levelo://app?vid=057db5da-e962-47e3-8c9b-32a3793fecf2"},"vehicle_type_id":"4","last_reported":1739790474,"current_range_meters":22000,"station_id":"ce4bgi92rcd13ifvqb90","pricing_plan_id":"cebpf4jnsgd1na2vs0mg"},{"bike_id":"668202cd-911f-46f6-8058-c2fc987b77df","system_id":"levelo_inurba_marseille","lat":43.25938,"lon":5.40919,"is_reserved":false,"is_disabled":false,"rental_uris":{"android":"levelo://app?vid=668202cd-911f-46f6-8058-c2fc987b77df","ios":"levelo://app?vid=668202cd-911f-46f6-8058-c2fc987b77df"},"vehicle_type_id":"4","last_reported":1739790474,"current_range_meters":22000,"station_id":"ce4bhm92rcd13ifvqglg","pricing_plan_id":"cebpf4jnsgd1na2vs0mg"},{"bike_id":"41968bcc-ef34-43af-acb8-22ac58896473","system_id":"levelo_inurba_marseille","lat":43.274294,"lon":5.394134,"is_reserved":false,"is_disabled":true,"rental_uris":{"android":"levelo://app?vid=41968bcc-ef34-43af-acb8-22ac58896473","ios":"levelo://app?vid=41968bcc-ef34-43af-acb8-22ac58896473"},"vehicle_type_id":"4","last_reported":1739790474,"current_range_meters":22400,"station_id":"ce4bhdp2rcd13ifvqf20","pricing_plan_id":"cebpf4jnsgd1na2vs0mg"},{"bike_id":"860a15e9-b874-4ee0-904d-325c9626c0b6","system_id":"levelo_inurba_marseille","lat":43.26951,"lon":5.38636,"is_reserved":false,"is_disabled":false,"rental_uris":{"android":"levelo://app?vid=860a15e9-b874-4ee0-904d-325c9626c0b6","ios":"levelo://app?vid=860a15e9-b874-4ee0-904d-325c9626c0b6"},"vehicle_type_id":"4","last_reported":1739790474,"current_range_meters":22400,"station_id":"ce4bhh92rcd13ifvqfh0","pricing_plan_id":"cebpf4jnsgd1na2vs0mg"},{"bike_id":"00596ab0-7f2c-4aa8-9a64-c801f399adf2","system_id":"levelo_inurba_marseille","lat":43.30147,"lon":5.39863,"is_reserved":false,"is_disabled":false,"rental_uris":{"android":"levelo://app?vid=00596ab0-7f2c-4aa8-9a64-c801f399adf2","ios":"levelo://app?vid=00596ab0-7f2c-4aa8-9a64-c801f399adf2"},"vehicle_type_id":"4","last_reported":1739790474,"current_range_meters":22000,"station_id":"ce4bh0h2rcd13ifvqd40","pricing_plan_id":"cebpf4jnsgd1na2vs0mg"},{"bike_id":"65bb0c03-faac-4221-b709-f71c0fdf3365","system_id":"levelo_inurba_marseille","lat":43.29905,"lon":5.38139,"is_reserved":false,"is_disabled":false,"rental_uris":{"android":"levelo://app?vid=65bb0c03-faac-4221-b709-f71c0fdf3365","ios":"levelo://app?vid=65bb0c03-faac-4221-b709-f71c0fdf3365"},"vehicle_type_id":"4","last_reported":1739790474,"current_range_meters":22800,"station_id":"ce4bgj12rcd13ifvqbc0","pricing_plan_id":"cebpf4jnsgd1na2vs0mg"},{"bike_id":"c5dccbf4-a75a-4965-9fa1-3939cba177eb","system_id":"levelo_inurba_marseille","lat":43.26059,"lon":5.39401,"is_reserved":false,"is_disabled":false,"rental_uris":{"android":"levelo://app?vid=c5dccbf4-a75a-4965-9fa1-3939cba177eb","ios":"levelo://app?vid=c5dccbf4-a75a-4965-9fa1-3939cba177eb"},"vehicle_type_id":"4","last_reported":1739790474,"current_range_meters":22800,"station_id":"ce4bhh92rcd13ifvqfj0","pricing_plan_id":"cebpf4jnsgd1na2vs0mg"},{"bike_id":"e143e45f-4b79-4243-a90e-3437fb713965","system_id":"levelo_inurba_marseille","lat":43.24154,"lon":5.39744,"is_reserved":false,"is_disabled":false,"rental_uris":{"android":"levelo://app?vid=e143e45f-4b79-4243-a90e-3437fb713965","ios":"levelo://app?vid=e143e45f-4b79-4243-a90e-3437fb713965"},"vehicle_type_id":"4","last_reported":1739790474,"current_range_meters":22800,"station_id":"ce4bhn12rcd13ifvqgpg","pricing_plan_id":"cebpf4jnsgd1na2vs0mg"},{"bike_id":"2faad437-769c-4657-a62f-800c606a98d2","system_id":"levelo_inurba_marseille","lat":43.29929,"lon":5.3655,"is_reserved":false,"is_disabled":false,"rental_uris":{"android":"levelo://app?vid=2faad437-769c-4657-a62f-800c606a98d2","ios":"levelo://app?vid=2faad437-769c-4657-a62f-800c606a98d2"},"vehicle_type_id":"4","last_reported":1739790474,"current_range_meters":22800,"station_id":"ce4bgm92rcd13ifvqbr0","pricing_plan_id":"cebpf4jnsgd1na2vs0mg"},{"bike_id":"f7f4c7b2-7866-4f93-8fa6-bcc05a78c0e1","system_id":"levelo_inurba_marseille","lat":43.32362,"lon":5.38888,"is_reserved":false,"is_disabled":false,"rental_uris":{"android":"levelo://app?vid=f7f4c7b2-7866-4f93-8fa6-bcc05a78c0e1","ios":"levelo://app?vid=f7f4c7b2-7866-4f93-8fa6-bcc05a78c0e1"},"vehicle_type_id":"4","last_reported":1739790474,"current_range_meters":22800,"station_id":"ce4bhqp2rcd13ifvqhog","pricing_plan_id":"cebpf4jnsgd1na2vs0mg"},{"bike_id":"140d266e-cf55-41b4-9355-9b7de8b7e5ff","system_id":"levelo_inurba_marseille","lat":43.24176,"lon":5.39688,"is_reserved":false,"is_disabled":false,"rental_uris":{"android":"levelo://app?vid=140d266e-cf55-41b4-9355-9b7de8b7e5ff","ios":"levelo://app?vid=140d266e-cf55-41b4-9355-9b7de8b7e5ff"},"vehicle_type_id":"4","last_reported":1739790474,"current_range_meters":22800,"station_id":"ce4bhn12rcd13ifvqgpg","pricing_plan_id":"cebpf4jnsgd1na2vs0mg"},{"bike_id":"811fee9c-cfc2-43d3-a43e-3f0976b4880b","system_id":"levelo_inurba_marseille","lat":43.24172,"lon":5.3973,"is_reserved":false,"is_disabled":false,"rental_uris":{"android":"levelo://app?vid=811fee9c-cfc2-43d3-a43e-3f0976b4880b","ios":"levelo://app?vid=811fee9c-cfc2-43d3-a43e-3f0976b4880b"},