{"last_updated":1747574333,"ttl":60,"version":"2.2","data":{"bikes":[{"bike_id":"332dbcc9-98b9-46e4-a4a2-f9f3d9423717","system_id":"levelo_inurba_marseille","lat":43.29978,"lon":5.37192,"is_reserved":false,"is_disabled":false,"rental_uris":{"android":"levelo://app?vid=332dbcc9-98b9-46e4-a4a2-f9f3d9423717","ios":"levelo://app?vid=332dbcc9-98b9-46e4-a4a2-f9f3d9423717"},"vehicle_type_id":"4","last_reported":1747574333,"current_range_meters":2000,"station_id":"ce4bgr92rcd13ifvqc7g","pricing_plan_id":"cebpf4jnsgd1na2vs0mg"},{"bike_id":"f52e3cf6-bf3a-420b-8b7e-77c73a38111a","system_id":"levelo_inurba_marseille","lat":43.24799,"lon":5.37444,"is_reserved":false,"is_disabled":false,"rental_uris":{"android":"levelo://app?vid=f52e3cf6-bf3a-420b-8b7e-77c73a38111a","ios":"levelo://app?vid=f52e3cf6-bf3a-420b-8b7e-77c73a38111a"},"vehicle_type_id":"4","last_reported":1747574333,"current_range_meters":2800,"station_id":"ce4bhgh2rcd13ifvqfb0","pricing_plan_id":"cebpf4jnsgd1na2vs0mg"},{"bike_id":"a4063de7-3465-4b39-9bf8-ef1a75de7c2d","system_id":"levelo_inurba_marseille","lat":43.28595,"lon":5.46069,"is_reserved":false,"is_disabled":false,"rental_uris":{"android":"levelo://app?vid=a4063de7-3465-4b39-9bf8-ef1a75de7c2d","ios":"levelo://app?vid=a4063de7-3465-4b39-9bf8-ef1a75de7c2d"},"vehicle_type_id":"4","last_reported":1747574333,"current_range_meters":2800,"station_id":"","pricing_plan_id":"cebpf4jnsgd1na2vs0mg"},{"bike_id":"a3233070-cb64-4098-a190-4008f0c5a0a4","system_id":"levelo_inurba_marseille","lat":43.310751,"lon":5.383565,"is_reserved":false,"is_disabled":false,"rental_uris":{"android":"levelo://app?vid=a3233070-cb64-4098-a190-4008f0c5a0a4","ios":"levelo://app?vid=a3233070-cb64-4098-a190-4008f0c5a0a4"},"vehicle_type_id":"4","last_reported":1747574333,"current_range_meters":2800,"station_id":"ce4bgv92rcd13ifvqcr0","pricing_plan_id":"cebpf4jnsgd1na2vs0mg"},{"bike_id":"ba7d26a8-9cc9-4daa-8234-9eae053e2e8d","system_id":"levelo_inurba_marseille","lat":43.2937,"lon":5.37865,"is_reserved":false,"is_disabled":false,"rental_uris":{"android":"levelo://app?vid=ba7d26a8-9cc9-4daa-8234-9eae053e2e8d","ios":"levelo://app?vid=ba7d26a8-9cc9-4daa-8234-9eae053e2e8d"},"vehicle_type_id":"4","last_reported":1747574333,"current_range_meters":2800,"station_id":"ce4bgjh2rcd13ifvqbf0","pricing_plan_id":"cebpf4jnsgd1na2vs0mg"},{"bike_id":"9bd806ab-49e0-4d25-91ed-fb16c4987967","system_id":"levelo_inurba_marseille","lat":43.27379,"lon":5.36259,"is_reserved":false,"is_disabled":false,"rental_uris":{"android":"levelo://app?vid=9bd806ab-49e0-4d25-91ed-fb16c4987967","ios":"levelo://app?vid=9bd806ab-49e0-4d25-91ed-fb16c4987967"},"vehicle_type_id":"4","last_reported":1747574333,"current_range_meters":3200,"station_id":"ce4bhbh2rcd13ifvqeo0","pricing_plan_id":"cebpf4jnsgd1na2vs0mg"},{"bike_id":"1c89a8d4-bf40-4451-87de-fe5b8f36a03a","system_id":"levelo_inurba_marseille","lat":43.31857,"lon":5.3784,"is_reserved":false,"is_disabled":false,"rental_uris":{"android":"levelo://app?vid=1c89a8d4-bf40-4451-87de-fe5b8f36a03a","ios":"levelo://app?vid=1c89a8d4-bf40-4451-87de-fe5b8f36a03a"},"vehicle_type_id":"4","last_reported":1747574333,"current_range_meters":3200,"station_id":"ce4bgth2rcd13ifvqch0","pricing_plan_id":"cebpf4jnsgd1na2vs0mg"},{"bike_id":"d15fdb15-712b-4377-92c8-31428f2ded7a","system_id":"levelo_inurba_marseille","lat":43.29032,"lon":5.38645,"is_reserved":false,"is_disabled":false,"rental_uris":{"android":"levelo://app?vid=d15fdb15-712b-4377-92c8-31428f2ded7a","ios":"levelo://app?vid=d15fdb15-712b-4377-92c8-31428f2ded7a"},"vehicle_type_id":"4","last_reported":1747574333,"current_range_meters":2800,"station_id":"ce4bh4p2rcd13ifvqe0g","pricing_plan_id":"cebpf4jnsgd1na2vs0mg"},{"bike_id":"fdd5cbe3-0643-4396-9bd6-c7d2320a37fe","system_id":"levelo_inurba_marseille","lat":43.30328,"lon":5.36899,"is_reserved":false,"is_disabled":false,"rental_uris":{"android":"levelo://app?vid=fdd5cbe3-0643-4396-9bd6-c7d2320a37fe","ios":"levelo://app?vid=fdd5cbe3-0643-4396-9bd6-c7d2320a37fe"},"vehicle_type_id":"4","last_reported":1747574333,"current_range_meters":3200,"station_id":"ce4bgqh2rcd13ifvqc5g","pricing_plan_id":"cebpf4jnsgd1na2vs0mg"},{"bike_id":"4b6b0b62-66ab-406b-a1ad-632a61b5e0e2","system_id":"levelo_inurba_marseille","lat":43.21193,"lon":5.35076,"is_reserved":false,"is_disabled":false,"rental_uris":{"android":"levelo://app?vid=4b6b0b62-66ab-406b-a1ad-632a61b5e0e2","ios":"levelo://app?vid=4b6b0b62-66ab-406b-a1ad-632a61b5e0e2"},"vehicle_type_id":"4","last_reported":1747574333,"current_range_meters":3200,"station_id":"st_cvj6sg6p6f1abm77japg","pricing_plan_id":"cebpf4jnsgd1na2vs0mg"},{"bike_id":"3fa58c22-00c6-48db-914d-ec2861a3d890","system_id":"levelo_inurba_marseille","lat":43.31077,"lon":5.40239,"is_reserved":false,"is_disabled":false,"rental_uris":{"android":"levelo://app?vid=3fa58c22-00c6-48db-914d-ec2861a3d890","ios":"levelo://app?vid=3fa58c22-00c6-48db-914d-ec2861a3d890"},"vehicle_type_id":"4","last_reported":1747574333,"current_range_meters":3200,"station_id":"","pricing_plan_id":"cebpf4jnsgd1na2vs0mg"},{"bike_id":"d4357289-99ac-4bd7-bfe1-dde3e7078a69","system_id":"levelo_inurba_marseille","lat":43.3054,"lon":5.36513,"is_reserved":false,"is_disabled":false,"rental_uris":{"android":"levelo://app?vid=d4357289-99ac-4bd7-bfe1-dde3e7078a69","ios":"levelo://app?vid=d4357289-99ac-4bd7-bfe1-dde3e7078a69"},"vehicle_type_id":"4","last_reported":1747574333,"current_range_meters":3200,"station_id":"ce4bgs12rcd13ifvqcag","pricing_plan_id":"cebpf4jnsgd1na2vs0mg"},{"bike_id":"ad2ea47b-8680-46a7-9284-46078b4f12f6","system_id":"levelo_inurba_marseille","lat":43.24385,"lon":5.37061,"is_reserved":false,"is_disabled":false,"rental_uris":{"android":"levelo://app?vid=ad2ea47b-8680-46a7-9284-46078b4f12f6","ios":"levelo://app?vid=ad2ea47b-8680-46a7-9284-46078b4f12f6"},"vehicle_type_id":"4","last_reported":1747574333,"current_range_meters":3600,"station_id":"ce4bhhh2rcd13ifvqfk0","pricing_plan_id":"cebpf4jnsgd1na2vs0mg"},{"bike_id":"44d0b098-f563-42df-a95e-388b32d9372c","system_id":"levelo_inurba_marseille","lat":43.28156,"lon":5.42642,"is_reserved":false,"is_disabled":false,"rental_uris":{"android":"levelo://app?vid=44d0b098-f563-42df-a95e-388b32d9372c","ios":"levelo://app?vid=44d0b098-f563-42df-a95e-388b32d9372c"},"vehicle_type_id":"4","last_reported":1747574333,"current_range_meters":3600,"station_id":"ce4bhnh2rcd13ifvqgug","pricing_plan_id":"cebpf4jnsgd1na2vs0mg"},{"bike_id":"394cadcc-3a78-4403-9bfc-1006acf0fb23","system_id":"levelo_inurba_marseille","lat":43.26213,"lon":5.37946,"is_reserved":false,"is_disabled":true,"rental_uris":{"android":"levelo://app?vid=394cadcc-3a78-4403-9bfc-1006acf0fb23","ios":"levelo://app?vid=394cadcc-3a78-4403-9bfc-1006acf0fb23"},"vehicle_type_id":"4","last_reported":1747574333,"current_range_meters":3600,"station_id":"ce4bhjp2rcd13ifvqg90","pricing_plan_id":"cebpf4jnsgd1na2vs0mg"},{"bike_id":"9f874483-f01a-452a-823f-e9f2d2d5b5ad","system_id":"levelo_inurba_marseille","lat":43.27373,"lon":5.36255,"is_reserved":false,"is_disabled":false,"rental_uris":{"android":"levelo://app?vid=9f874483-f01a-452a-823f-e9f2d2d5b5ad","ios":"levelo://app?vid=9f874483-f01a-452a-823f-e9f2d2d5b5ad"},"vehicle_type_id":"4","last_reported":1747574333,"current_range_meters":3600,"station_id":"ce4bhbh2rcd13ifvqeo0","pricing_plan_id":"cebpf4jnsgd1na2vs0mg"},{"bike_id":"a5ad1576-f826-41bd-988e-2ea5a2306706","system_id":"levelo_inurba_marseille","lat":43.27375,"lon":5.36257,"is_reserved":false,"is_disabled":false,"rental_uris":{"android":"levelo://app?vid=a5ad1576-f826-41bd-988e-2ea5a2306706","ios":"levelo://app?vid=a5ad1576-f826-41bd-988e-2ea5a2306706"},"vehicle_type_id":"4","last_reported":1747574333,"current_range_meters":3600,"station_id":"ce4bhbh2rcd13ifvqeo0","pricing_plan_id":"cebpf4jnsgd1na2vs0mg"},{"bike_id":"9336db23-c324-4a42-ae25-502bafafbd7a","system_id":"levelo_inurba_marseille","lat":43.29894,"lon":5.4367,"is_reserved":false,"is_disabled":false,"rental_uris":{"android":"levelo://app?vid=9336db23-c324-4a42-ae25-502bafafbd7a","ios":"levelo://app?vid=9336db23-c324-4a42-ae25-502bafafbd7a"},"vehicle_type_id":"4","last_reported":1747574333,"current_range_meters":4000,"station_id":"ce4bhpp2rcd13ifvqhfg","pricing_plan_id":"cebpf4jnsgd1na2vs0mg"},{"bike_id":"83df6560-d839-4cc1-b9c4-6c477190f614","system_id":"levelo_inurba_marseille","lat":43.24417,"lon":5.37065,"is_reserved":false,"is_disabled":true,"rental_uris":{"android":"levelo://app?vid=83df6560-d839-4cc1-b9c4-6c477190f614","ios":"levelo://app?vid=83df6560-d839-4cc1-b9c4-6c477190f614"},"vehicle_type_id":"4","last_reported":1747574333,"current_range_meters":4000,"station_id":"ce4bhhh2rcd13ifvqfk0","pricing_plan_id":"cebpf4jnsgd1na2vs0mg"},{"bike_id":"f1033d46-befc-4cac-80d9-e4fa25f6de03","system_id":"levelo_inurba_marseille","lat":43.27825,"lon":5.40707,"is_reserved":false,"is_disabled":false,"rental_uris":{"android":"levelo://app?vid=f1033d46-befc-4cac-80d9-e4fa25f6de03","ios":"levelo://app?vid=f1033d46-befc-4cac-80d9-e4fa25f6de03"},"vehicle_type_id":"4","last_reported":1747574333,"current_range_meters":4000,"station_id":"ce4bhnh2rcd13ifvqgtg","pricing_plan_id":"cebpf4jnsgd1na2vs0mg"},{"bike_id":"837a6204-c113-456b-a9e6-4287c2795077","system_id":"levelo_inurba_marseille","lat":43.30532,"lon":5.36526,"is_reserved":false,"is_disabled":false,"rental_uris":{"android":"levelo://app?vid=837a6204-c113-456b-a9e6-4287c2795077","ios":"levelo://app?vid=837a6204-c113-456b-a9e6-4287c2795077"},"vehicle_type_id":"4","last_reported":1747574333,"current_range_meters":4000,"station_id":"ce4bgs12rcd13ifvqcag","pricing_plan_id":"cebpf4jnsgd1na2vs0mg"},{"bike_id":"3b843dca-d67a-4b0e-916b-710ebb36ec6d","system_id":"levelo_inurba_marseille","lat":43.32517,"lon":5.40139,"is_reserved":false,"is_disabled":false,"rental_uris":{"android":"levelo://app?vid=3b843dca-d67a-4b0e-916b-710ebb36ec6d","ios":"levelo://app?vid=3b843dca-d67a-4b0e-916b-710ebb36ec6d"},"vehicle_type_id":"4","last_reported":1747574333,"current_range_meters":4000,"station_id":"","pricing_plan_id":"cebpf4jnsgd1na2vs0mg"},{"bike_id":"1e5a7839-d218-47a9-988d-f5fdcdfa5acb","system_id":"levelo_inurba_marseille","lat":43.25821,"lon":5.39439,"is_reserved":false,"is_disabled":false,"rental_uris":{"android":"levelo://app?vid=1e5a7839-d218-47a9-988d-f5fdcdfa5acb","ios":"levelo://app?vid=1e5a7839-d218-47a9-988d-f5fdcdfa5acb"},"vehicle_type_id":"4","last_reported":1747574333,"current_range_meters":4000,"station_id":"ce4bhip2rcd13ifvqft0","pricing_plan_id":"cebpf4jnsgd1na2vs0mg"},{"bike_id":"a4058e7b-b7e0-4a8d-99ab-cfc866520935","system_id":"levelo_inurba_marseille","lat":43.23188,"lon":5.39975,"is_reserved":false,"is_disabled":false,"rental_uris":{"android":"levelo://app?vid=a4058e7b-b7e0-4a8d-99ab-cfc866520935","ios":"levelo://app?vid=a4058e7b-b7e0-4a8d-99ab-cfc866520935"},"vehicle_type_id":"4","last_reported":1747574333,"current_range_meters":4000,"station_id":"ce4bhn12rcd13ifvqgqg","pricing_plan_id":"cebpf4jnsgd1na2vs0mg"},{"bike_id":"919fb6a1-94b8-4d5e-9e76-c6d8ee405e54","system_id":"levelo_inurba_marseille","lat":43.24175,"lon":5.39737,"is_reserved":false,"is_disabled":false,"rental_uris":{"android":"levelo://app?vid=919fb6a1-94b8-4d5e-9e76-c6d8ee405e54","ios":"levelo://app?vid=919fb6a1-94b8-4d5e-9e76-c6d8ee405e54"},"vehicle_type_id":"4","last_reported":1747574333,"current_range_meters":4400,"station_id":"ce4bhn12rcd13ifvqgpg","pricing_plan_id":"cebpf4jnsgd1na2vs0mg"},{"bike_id":"e9628834-5e18-46be-8aa9-407979706faf","system_id":"levelo_inurba_marseille","lat":43.28273,"lon":5.35056,"is_reserved":false,"is_disabled":false,"rental_uris":{"android":"levelo://app?vid=e9628834-5e18-46be-8aa9-407979706faf","ios":"levelo://app?vid=e9628834-5e18-46be-8aa9-407979706faf"},"vehicle_type_id":"4","last_reported":1747574333,"current_range_meters":4400,"station_id":"ce4bhbp2rcd13ifvqerg","pricing_plan_id":"cebpf4jnsgd1na2vs0mg"},{"bike_id":"af727e97-a1dd-40ee-b509-9e1d0621ebb5","system_id":"levelo_inurba_marseille","lat":43.286963,"lon":5.373788,"is_reserved":false,"is_disabled":false,"rental_uris":{"android":"levelo://app?vid=af727e97-a1dd-40ee-b509-9e1d0621ebb5","ios":"levelo://app?vid=af727e97-a1dd-40ee-b509-9e1d0621ebb5"},"vehicle_type_id":"4","last_reported":1747574333,"current_range_meters":4000,"station_id":"ce4bh3p2rcd13ifvqdq0","pricing_plan_id":"cebpf4jnsgd1na2vs0mg"},{"bike_id":"43ad80e1-07fc-4b8d-b615-6a0e44cac0c7","system_id":"levelo_inurba_marseille","lat":43.28618,"lon":5.35103,"is_reserved":false,"is_disabled":false,"rental_uris":{"android":"levelo://app?vid=43ad80e1-07fc-4b8d-b615-6a0e44cac0c7","ios":"levelo://app?vid=43ad80e1-07fc-4b8d-b615-6a0e44cac0c7"},"vehicle_type_id":"4","last_reported":1747574333,"current_range_meters":4400,"station_id":"ce4bhch2rcd13ifvqeug","pricing_plan_id":"cebpf4jnsgd1na2vs0mg"},{"bike_id":"be98142e-ab99-4f68-b04a-ff2165061bb2","system_id":"levelo_inurba_marseille","lat":43.269551,"lon":5.386296,"is_reserved":false,"is_disabled":true,"rental_uris":{"android":"levelo://app?vid=be98142e-ab99-4f68-b04a-ff2165061bb2","ios":"levelo://app?vid=be98142e-ab99-4f68-b04a-ff2165061bb2"},"vehicle_type_id":"4","last_reported":1747574333,"current_range_meters":4400,"station_id":"ce4bhh92rcd13ifvqfh0","pricing_plan_id":"cebpf4jnsgd1na2vs0mg"},{"bike_id":"bbda5443-72b0-478a-aaad-922de1a84bda","system_id":"levelo_inurba_marseille","lat":43.231491,"lon":5.437027,"is_reserved":false,"is_disabled":false,"rental_uris":{"android":"levelo://app?vid=bbda5443-72b0-478a-aaad-922de1a84bda","ios":"levelo://app?vid=bbda5443-72b0-478a-aaad-922de1a84bda"},"vehicle_type_id":"4","last_reported":1747574333,"current_range_meters":4400,"station_id":"ce4bhmp2rcd13ifvqgog","pricing_plan_id":"cebpf4jnsgd1na2vs0mg"},{"bike_id":"aa1d8c1e-7594-4615-aa13-56fdebb973d7","system_id":"levelo_inurba_marseille","lat":43.26878,"lon":5.39196,"is_reserved":false,"is_disabled":false,"rental_uris":{"android":"levelo://app?vid=aa1d8c1e-7594-4615-aa13-56fdebb973d7","ios":"levelo://app?vid=aa1d8c1e-7594-4615-aa13-56fdebb973d7"},"vehicle_type_id":"4","last_reported":1747574333,"current_range_meters":4800,"station_id":"","pricing_plan_id":"cebpf4jnsgd1na2vs0mg"},{"bike_id":"23b586d2-457c-4783-8838-e431e899dc73","system_id":"levelo_inurba_marseille","lat":43.30521,"lon":5.36933,"is_reserved":false,"is_disabled":false,"rental_uris":{"android":"levelo://app?vid=23b586d2-457c-4783-8838-e431e899dc73","ios":"levelo://app?vid=23b586d2-457c-4783-8838-e431e899dc73"},"vehicle_type_id":"4","last_reported":1747574333,"current_range_meters":4800,"station_id":"","pricing_plan_id":"cebpf4jnsgd1na2vs0mg"},{"bike_id":"cff74bc7-26a0-4e70-9e3b-f52395cdab58","system_id":"levelo_inurba_marseille","lat":43.25826,"lon":5.39436,"is_reserved":false,"is_disabled":false,"rental_uris":{"android":"levelo://app?vid=cff74bc7-26a0-4e70-9e3b-f52395cdab58","ios":"levelo://app?vid=cff74bc7-26a0-4e70-9e3b-f52395cdab58"},"vehicle_type_id":"4","last_reported":1747574333,"current_range_meters":5600,"station_id":"ce4bhip2rcd13ifvqft0","pricing_plan_id":"cebpf4jnsgd1na2vs0mg"},{"bike_id":"e14f7575-b29c-4546-8e86-70adba1d14c6","system_id":"levelo_inurba_marseille","lat":43.337444,"lon":5.374475,"is_reserved":false,"is_disabled":true,"rental_uris":{"android":"levelo://app?vid=e14f7575-b29c-4546-8e86-70adba1d14c6","ios":"levelo://app?vid=e14f7575-b29c-4546-8e86-70adba1d14c6"},"vehicle_type_id":"4","last_reported":1747574333,"current_range_meters":5600,"station_id":"","pricing_plan_id":"cebpf4jnsgd1na2vs0mg"},{"bike_id":"a5616195-6dc6-4918-af93-bf570d949303","system_id":"levelo_inurba_marseille","lat":43.30543,"lon":5.3653,"is_reserved":false,"is_disabled":false,"rental_uris":{"android":"levelo://app?vid=a5616195-6dc6-4918-af93-bf570d949303","ios":"levelo://app?vid=a5616195-6dc6-4918-af93-bf570d949303"},"vehicle_type_id":"4","last_reported":1747574333,"current_range_meters":5600,"station_id":"ce4bgs12rcd13ifvqcag","pricing_plan_id":"cebpf4jnsgd1na2vs0mg"},{"bike_id":"26892369-63e7-4012-a067-0c10bf463219","system_id":"levelo_inurba_marseille","lat":43.2512,"lon":5.40314,"is_reserved":false,"is_disabled":false,"rental_uris":{"android":"levelo://app?vid=26892369-63e7-4012-a067-0c10bf463219","ios":"levelo://app?vid=26892369-63e7-4012-a067-0c10bf463219"},"vehicle_type_id":"4","last_reported":1747574333,"current_range_meters":4800,"station_id":"ce4bhlh2rcd13ifvqgig","pricing_plan_id":"cebpf4jnsgd1na2vs0mg"},{"bike_id":"b903fb70-8b79-4641-9100-fb1b62cdd85d","system_id":"levelo_inurba_marseille","lat":43.25501,"lon":5.37642,"is_reserved":false,"is_disabled":false,"rental_uris":{"android":"levelo://app?vid=b903fb70-8b79-4641-9100-fb1b62cdd85d","ios":"levelo://app?vid=b903fb70-8b79-4641-9100-fb1b62cdd85d"},"vehicle_type_id":"4","last_reported":1747574333,"current_range_meters":5600,"station_id":"ce4bhh12rcd13ifvqff0","pricing_plan_id":"cebpf4jnsgd1na2vs0mg"},{"bike_id":"8cfc1be5-63bd-471f-a417-7e37abdb3f9d","system_id":"levelo_inurba_marseille","lat":43.231984,"lon":5.35553,"is_reserved":false,"is_disabled":false,"rental_uris":{"android":"levelo://app?vid=8cfc1be5-63bd-471f-a417-7e37abdb3f9d","ios":"levelo://app?vid=8cfc1be5-63bd-471f-a417-7e37abdb3f9d"},"vehicle_type_id":"4","last_reported":1747574333,"current_range_meters":5600,"station_id":"ce4bhu92rcd13ifvqi70","pricing_plan_id":"cebpf4jnsgd1na2vs0mg"},{"bike_id":"ecc71fdc-17ad-48ee-b6e0-6fe21fa6a108","system_id":"levelo_inurba_marseille","lat":43.23058,"lon":5.35483,"is_reserved":false,"is_disabled":false,"rental_uris":{"android":"levelo://app?vid=ecc71fdc-17ad-48ee-b6e0-6fe21fa6a108","ios":"levelo://app?vid=ecc71fdc-17ad-48ee-b6e0-6fe21fa6a108"},"vehicle_type_id":"4","last_reported":1747574333,"current_range_meters":6000,"station_id":"cpo3342slgdg3j2ifvpg","pricing_plan_id":"cebpf4jnsgd1na2vs0mg"},{"bike_id":"e8e11e5a-3be7-495b-81ef-c0723bfd8053","system_id":"levelo_inurba_marseille","lat":43.23059,"lon":5.35488,"is_reserved":false,"is_disabled":false,"rental_uris":{"android":"levelo://app?vid=e8e11e5a-3be7-495b-81ef-c0723bfd8053","ios":"levelo://app?vid=e8e11e5a-3be7-495b-81ef-c0723bfd8053"},"vehicle_type_id":"4","last_reported":1747574333,"current_range_meters":5600,"station_id":"cpo3342slgdg3j2ifvpg","pricing_plan_id":"cebpf4jnsgd1na2vs0mg"},{"bike_id":"6936d568-20e5-4442-b307-62587860a607","system_id":"levelo_inurba_marseille","lat":43.32336,"lon":5.40619,"is_reserved":false,"is_disabled":false,"rental_uris":{"android":"levelo://app?vid=6936d568-20e5-4442-b307-62587860a607","ios":"levelo://app?vid=6936d568-20e5-4442-b307-62587860a607"},"vehicle_type_id":"4","last_reported":1747574333,"current_range_meters":6000,"station_id":"ce4bhq92rcd13ifvqhjg","pricing_plan_id":"cebpf4jnsgd1na2vs0mg"},{"bike_id":"e5013baf-c7d0-4bd2-b1c5-b16df7134711","system_id":"levelo_inurba_marseille","lat":43.27071,"lon":5.42275,"is_reserved":false,"is_disabled":false,"rental_uris":{"android":"levelo://app?vid=e5013baf-c7d0-4bd2-b1c5-b16df7134711","ios":"levelo://app?vid=e5013baf-c7d0-4bd2-b1c5-b16df7134711"},"vehicle_type_id":"4","last_reported":1747574333,"current_range_meters":6000,"station_id":"ce4bhk92rcd13ifvqgb0","pricing_plan_id":"cebpf4jnsgd1na2vs0mg"},{"bike_id":"bac0bf7a-92c7-4a78-af0c-b2e338fe65a7","system_id":"levelo_inurba_marseille","lat":43.25731,"lon":5.41111,"is_reserved":false,"is_disabled":false,"rental_uris":{"android":"levelo://app?vid=bac0bf7a-92c7-4a78-af0c-b2e338fe65a7","ios":"levelo://app?vid=bac0bf7a-92c7-4a78-af0c-b2e338fe65a7"},"vehicle_type_id":"4","last_reported":1747574333,"current_range_meters":6400,"station_id":"ce4bhkp2rcd13ifvqgd0","pricing_plan_id":"cebpf4jnsgd1na2vs0mg"},{"bike_id":"32b3632e-a0f6-4556-85d6-788dc8cab069","system_id":"levelo_inurba_marseille","lat":43.25496,"lon":5.37645,"is_reserved":false,"is_disabled":false,"rental_uris":{"android":"levelo://app?vid=32b3632e-a0f6-4556-85d6-788dc8cab069","ios":"levelo://app?vid=32b3632e-a0f6-4556-85d6-788dc8cab069"},"vehicle_type_id":"4","last_reported":1747574333,"current_range_meters":6400,"station_id":"ce4bhh12rcd13ifvqff0","pricing_plan_id":"cebpf4jnsgd1na2vs0mg"},{"bike_id":"e0fe735b-2325-4a0c-9f0a-2132c368830d","system_id":"levelo_inurba_marseille","lat":43.29053,"lon":5.39977,"is_reserved":false,"is_disabled":true,"rental_uris":{"android":"levelo://app?vid=e0fe735b-2325-4a0c-9f0a-2132c368830d","ios":"levelo://app?vid=e0fe735b-2325-4a0c-9f0a-2132c368830d"},"vehicle_type_id":"4","last_reported":1747574333,"current_range_meters":6400,"station_id":"ce4bh392rcd13ifvqdm0","pricing_plan_id":"cebpf4jnsgd1na2vs0mg"},{"bike_id":"55fb771a-6e76-45c4-a9b7-cda97a0011d0","system_id":"levelo_inurba_marseille","lat":43.28771,"lon":5.38272,"is_reserved":false,"is_disabled":false,"rental_uris":{"android":"levelo://app?vid=55fb771a-6e76-45c4-a9b7-cda97a0011d0","ios":"levelo://app?vid=55fb771a-6e76-45c4-a9b7-cda97a0011d0"},"vehicle_type_id":"4","last_reported":1747574333,"current_range_meters":6400,"station_id":"","pricing_plan_id":"cebpf4jnsgd1na2vs0mg"},{"bike_id":"79bb078b-7209-4bd4-978e-f68ace0406d0","system_id":"levelo_inurba_marseille","lat":43.29027,"lon":5.38651,"is_reserved":false,"is_disabled":true,"rental_uris":{"android":"levelo://app?vid=79bb078b-7209-4bd4-978e-f68ace0406d0","ios":"levelo://app?vid=79bb078b-7209-4bd4-978e-f68ace0406d0"},"vehicle_type_id":"4","last_reported":1747574333,"current_range_meters":6400,"station_id":"ce4bh4p2rcd13ifvqe0g","pricing_plan_id":"cebpf4jnsgd1na2vs0mg"},{"bike_id":"b3441476-9e6c-4f72-9947-dd5d64a1b8bd","system_id":"levelo_inurba_marseille","lat":43.23057,"lon":5.35485,"is_reserved":false,"is_disabled":false,"rental_uris":{"android":"levelo://app?vid=b3441476-9e6c-4f72-9947-dd5d64a1b8bd","ios":"levelo://app?vid=b3441476-9e6c-4f72-9947-dd5d64a1b8bd"},"vehicle_type_id":"4","last_reported":1747574333,"current_range_meters":6400,"station_id":"cpo3342slgdg3j2ifvpg","pricing_plan_id":"cebpf4jnsgd1na2vs0mg"},{"bike_id":"9c7dea60-91cb-4f9b-a74a-b12caba05a4c","system_id":"levelo_inurba_marseille","lat":43.2439,"lon":5.37048,"is_reserved":false,"is_disabled":false,"rental_uris":{"android":"levelo://app?vid=9c7dea60-91cb-4f9b-a74a-b12caba05a4c","ios":"levelo://app?vid=9c7dea60-91cb-4f9b-a74a-b12caba05a4c"},"vehicle_type_id":"4","last_reported":1747574333,"current_range_meters":6400,"station_id":"ce4bhhh2rcd13ifvqfk0","pricing_plan_id":"cebpf4jnsgd1na2vs0mg"},{"bike_id":"4395d38e-cddd-4a12-998e-a146c2e22b58","system_id":"levelo_inurba_marseille","lat":43.27626,"lon":5.3611,"is_reserved":false,"is_disabled":false,"rental_uris":{"android":"levelo://app?vid=4395d38e-cddd-4a12-998e-a146c2e22b58","ios":"levelo://app?vid=4395d38e-cddd-4a12-998e-a146c2e22b58"},"vehicle_type_id":"4","last_reported":1747574333,"current_range_meters":6800,"station_id":"ce4bgj92rcd13ifvqbe0","pricing_plan_id":"cebpf4jnsgd1na2vs0mg"},{"bike_id":"b8e6468b-87db-4ff6-8122-ef13bf5b7c8c","system_id":"levelo_inurba_marseille","lat":43.31379,"lon":5.37916,"is_reserved":false,"is_disabled":false,"rental_uris":{"android":"levelo://app?vid=b8e6468b-87db-4ff6-8122-ef13bf5b7c8c","ios":"levelo://app?vid=b8e6468b-87db-4ff6-8122-ef13bf5b7c8c"},"vehicle_type_id":"4","last_reported":1747574333,"current_range_meters":6800,"station_id":"","pricing_plan_id":"cebpf4jnsgd1na2vs0mg"},{"bike_id":"c9e40692-ddbc-46df-9723-41e3bad5837a","system_id":"levelo_inurba_marseille","lat":43.3206,"lon":5.41532,"is_reserved":false,"is_disabled":false,"rental_uris":{"android":"levelo://app?vid=c9e40692-ddbc-46df-9723-41e3bad5837a","ios":"levelo://app?vid=c9e40692-ddbc-46df-9723-41e3bad5837a"},"vehicle_type_id":"4","last_reported":1747574333,"current_range_meters":6800,"station_id":"ce4bhq92rcd13ifvqhkg","pricing_plan_id":"cebpf4jnsgd1na2vs0mg"},{"bike_id":"d94f28ac-e738-49dc-99d1-db6e974df468","system_id":"levelo_inurba_marseille","lat":43.21192,"lon":5.35073,"is_reserved":false,"is_disabled":false,"rental_uris":{"android":"levelo://app?vid=d94f28ac-e738-49dc-99d1-db6e974df468","ios":"levelo://app?vid=d94f28ac-e738-49dc-99d1-db6e974df468"},"vehicle_type_id":"4","last_reported":1747574333,"current_range_meters":6800,"station_id":"st_cvj6sg6p6f1abm77japg","pricing_plan_id":"cebpf4jnsgd1na2vs0mg"},{"bike_id":"94f4b6da-b75a-4fb4-8e42-b984fa9bc697","system_id":"levelo_inurba_marseille","lat":43.25584,"lon":5.3823,"is_reserved":false,"is_disabled":false,"rental_uris":{"android":"levelo://app?vid=94f4b6da-b75a-4fb4-8e42-b984fa9bc697","ios":"levelo://app?vid=94f4b6da-b75a-4fb4-8e42-b984fa9bc697"},"vehicle_type_id":"4","last_reported":1747574333,"current_range_meters":6800,"station_id":"ce4bhih2rcd13ifvqfs0","pricing_plan_id":"cebpf4jnsgd1na2vs0mg"},{"bike_id":"698c00d0-9d04-474a-9aca-cd5b8e8cadcb","system_id":"levelo_inurba_marseille","lat":43.2653,"lon":5.37301,"is_reserved":false,"is_disabled":false,"rental_uris":{"android":"levelo://app?vid=698c00d0-9d04-474a-9aca-cd5b8e8cadcb","ios":"levelo://app?vid=698c00d0-9d04-474a-9aca-cd5b8e8cadcb"},"vehicle_type_id":"4","last_reported":1747574333,"current_range_meters":6800,"station_id":"ce4bhg12rcd13ifvqf70","pricing_plan_id":"cebpf4jnsgd1na2vs0mg"},{"bike_id":"3e073325-7c74-4b6c-b0bd-9716d89c3c37","system_id":"levelo_inurba_marseille","lat":43.26569,"lon":5.37329,"is_reserved":false,"is_disabled":false,"rental_uris":{"android":"levelo://app?vid=3e073325-7c74-4b6c-b0bd-9716d89c3c37","ios":"levelo://app?vid=3e073325-7c74-4b6c-b0bd-9716d89c3c37"},"vehicle_type_id":"4","last_reported":1747574333,"current_range_meters":6800,"station_id":"ce4bhg12rcd13ifvqf70","pricing_plan_id":"cebpf4jnsgd1na2vs0mg"},{"bike_id":"7894838d-c095-45c9-9b62-7fc118fe6453","system_id":"levelo_inurba_marseille","lat":43.27366,"lon":5.36232,"is_reserved":false,"is_disabled":false,"rental_uris":{"android":"levelo://app?vid=7894838d-c095-45c9-9b62-7fc118fe6453","ios":"levelo://app?vid=7894838d-c095-45c9-9b62-7fc118fe6453"},"vehicle_type_id":"4","last_reported":1747574333,"current_range_meters":6800,"station_id":"ce4bhbh2rcd13ifvqeo0","pricing_plan_id":"cebpf4jnsgd1na2vs0mg"},{"bike_id":"59ff7b50-f418-4917-ada0-c3061d69c404","system_id":"levelo_inurba_marseille","lat":43.25117,"lon":5.40346,"is_reserved":false,"is_disabled":false,"rental_uris":{"android":"levelo://app?vid=59ff7b50-f418-4917-ada0-c3061d69c404","ios":"levelo://app?vid=59ff7b50-f418-4917-ada0-c3061d69c404"},"vehicle_type_id":"4","last_reported":1747574333,"current_range_meters":7200,"station_id":"ce4bhlh2rcd13ifvqgig","pricing_plan_id":"cebpf4jnsgd1na2vs0mg"},{"bike_id":"fda9113e-1a08-4168-b090-db6da3dc6d7d","system_id":"levelo_inurba_marseille","lat":43.25107,"lon":5.40348,"is_reserved":false,"is_disabled":false,"rental_uris":{"android":"levelo://app?vid=fda9113e-1a08-4168-b090-db6da3dc6d7d","ios":"levelo://app?vid=fda9113e-1a08-4168-b090-db6da3dc6d7d"},"vehicle_type_id":"4","last_reported":1747574333,"current_range_meters":7200,"station_id":"ce4bhlh2rcd13ifvqgig","pricing_plan_id":"cebpf4jnsgd1na2vs0mg"},{"bike_id":"90b91ec4-9295-4740-af77-f3512896ed17","system_id":"levelo_inurba_marseille","lat":43.27374,"lon":5.36243,"is_reserved":false,"is_disabled":false,"rental_uris":{"android":"levelo://app?vid=90b91ec4-9295-4740-af77-f3512896ed17","ios":"levelo://app?vid=90b91ec4-9295-4740-af77-f3512896ed17"},"vehicle_type_id":"4","last_reported":1747574333,"current_range_meters":7200,"station_id":"ce4bhbh2rcd13ifvqeo0","pricing_plan_id":"cebpf4jnsgd1na2vs0mg"},{"bike_id":"1eb1573f-4cbd-4b2b-a5aa-d52eb894936b","system_id":"levelo_inurba_marseille","lat":43.25503,"lon":5.3765,"is_reserved":false,"is_disabled":false,"rental_uris":{"android":"levelo://app?vid=1eb1573f-4cbd-4b2b-a5aa-d52eb894936b","ios":"levelo://app?vid=1eb1573f-4cbd-4b2b-a5aa-d52eb894936b"},"vehicle_type_id":"4","last_reported":1747574333,"current_range_meters":7200,"station_id":"ce4bhh12rcd13ifvqff0","pricing_plan_id":"cebpf4jnsgd1na2vs0mg"},{"bike_id":"d19d46c8-6aec-4819-9c5b-f3f1d1ee938c","system_id":"levelo_inurba_marseille","lat":43.28925,"lon":5.38405,"is_reserved":false,"is_disabled":false,"rental_uris":{"android":"levelo://app?vid=d19d46c8-6aec-4819-9c5b-f3f1d1ee938c","ios":"levelo://app?vid=d19d46c8-6aec-4819-9c5b-f3f1d1ee938c"},"vehicle_type_id":"4","last_reported":1747574333,"current_range_meters":6800,"station_id":"ce4bh612rcd13ifvqe6g","pricing_plan_id":"cebpf4jnsgd1na2vs0mg"},{"bike_id":"1ce07e93-cd5d-4003-b37f-7be6f97e7195","system_id":"levelo_inurba_marseille","lat":43.275773,"lon":5.384327,"is_reserved":false,"is_disabled":false,"rental_uris":{"android":"levelo://app?vid=1ce07e93-cd5d-4003-b37f-7be6f97e7195","ios":"levelo://app?vid=1ce07e93-cd5d-4003-b37f-7be6f97e7195"},"vehicle_type_id":"4","last_reported":1747574333,"current_range_meters":6800,"station_id":"ce4bhh92rcd13ifvqfi0","pricing_plan_id":"cebpf4jnsgd1na2vs0mg"},{"bike_id":"ae482ac6-ef21-4129-8ff2-3cf95d62b557","system_id":"levelo_inurba_marseille","lat":43.27208,"lon":5.39173,"is_reserved":false,"is_disabled":false,"rental_uris":{"android":"levelo://app?vid=ae482ac6-ef21-4129-8ff2-3cf95d62b557","ios":"levelo://app?vid=ae482ac6-ef21-4129-8ff2-3cf95d62b557"},"vehicle_type_id":"4","last_reported":1747574333,"current_range_meters":7200,"station_id":"ce4bhhp2rcd13ifvqfm0","pricing_plan_id":"cebpf4jnsgd1na2vs0mg"},{"bike_id":"81c659b6-3a02-46e7-a46f-d340746ad32e","system_id":"levelo_inurba_marseille","lat":43.2738,"lon":5.36252,"is_reserved":false,"is_disabled":true,"rental_uris":{"android":"levelo://app?vid=81c659b6-3a02-46e7-a46f-d340746ad32e","ios":"levelo://app?vid=81c659b6-3a02-46e7-a46f-d340746ad32e"},"vehicle_type_id":"4","last_reported":1747574333,"current_range_meters":7200,"station_id":"ce4bhbh2rcd13ifvqeo0","pricing_plan_id":"cebpf4jnsgd1na2vs0mg"},{"bike_id":"6324812e-8688-49c5-8e61-ad983c518511","system_id":"levelo_inurba_marseille","lat":43.24385,"lon":5.37061,"is_reserved":false,"is_disabled":false,"rental_uris":{"android":"levelo://app?vid=6324812e-8688-49c5-8e61-ad983c518511","ios":"levelo://app?vid=6324812e-8688-49c5-8e61-ad983c518511"},"vehicle_type_id":"4","last_reported":1747574333,"current_range_meters":7200,"station_id":"ce4bhhh2rcd13ifvqfk0","pricing_plan_id":"cebpf4jnsgd1na2vs0mg"},{"bike_id":"af2f3908-848e-4879-9c80-b3ddea1b7f0a","system_id":"levelo_inurba_marseille","lat":43.31183,"lon":5.38759,"is_reserved":false,"is_disabled":true,"rental_uris":{"android":"levelo://app?vid=af2f3908-848e-4879-9c80-b3ddea1b7f0a","ios":"levelo://app?vid=af2f3908-848e-4879-9c80-b3ddea1b7f0a"},"vehicle_type_id":"4","last_reported":1747574333,"current_range_meters":7200,"station_id":"ce4bgv12rcd13ifvqcp0","pricing_plan_id":"cebpf4jnsgd1na2vs0mg"},{"bike_id":"c296a662-6f37-479b-bc09-1afab1934e53","system_id":"levelo_inurba_marseille","lat":43.24181,"lon":5.39737,"is_reserved":false,"is_disabled":false,"rental_uris":{"android":"levelo://app?vid=c296a662-6f37-479b-bc09-1afab1934e53","ios":"levelo://app?vid=c296a662-6f37-479b-bc09-1afab1934e53"},"vehicle_type_id":"4","last_reported":1747574333,"current_range_meters":8000,"station_id":"ce4bhn12rcd13ifvqgpg","pricing_plan_id":"cebpf4jnsgd1na2vs0mg"},{"bike_id":"4b36628f-ee64-409c-bae2-8d25d238748a","system_id":"levelo_inurba_marseille","lat":43.225,"lon":5.34751,"is_reserved":false,"is_disabled":false,"rental_uris":{"android":"levelo://app?vid=4b36628f-ee64-409c-bae2-8d25d238748a","ios":"levelo://app?vid=4b36628f-ee64-409c-bae2-8d25d238748a"},"vehicle_type_id":"4","last_reported":1747574333,"current_range_meters":8000,"station_id":"st_cvj5dfep6f1abm77gieg","pricing_plan_id":"cebpf4jnsgd1na2vs0mg"},{"bike_id":"9d8b2c79-3ca5-4f14-8ae6-6f43aeaa1f73","system_id":"levelo_inurba_marseille","lat":43.231923,"lon":5.355507,"is_reserved":false,"is_disabled":false,"rental_uris":{"android":"levelo://app?vid=9d8b2c79-3ca5-4f14-8ae6-6f43aeaa1f73","ios":"levelo://app?vid=9d8b2c79-3ca5-4f14-8ae6-6f43aeaa1f73"},"vehicle_type_id":"4","last_reported":1747574333,"current_range_meters":8000,"station_id":"ce4bhu92rcd13ifvqi70","pricing_plan_id":"cebpf4jnsgd1na2vs0mg"},{"bike_id":"b07cc4a2-3d35-4cfa-8a46-23f246cc0f0c","system_id":"levelo_inurba_marseille","lat":43.23965,"lon":5.36643,"is_reserved":false,"is_disabled":false,"rental_uris":{"android":"levelo://app?vid=b07cc4a2-3d35-4cfa-8a46-23f246cc0f0c","ios":"levelo://app?vid=b07cc4a2-3d35-4cfa-8a46-23f246cc0f0c"},"vehicle_type_id":"4","last_reported":1747574333,"current_range_meters":8000,"station_id":"ce4bhi12rcd13ifvqfp0","pricing_plan_id":"cebpf4jnsgd1na2vs0mg"},{"bike_id":"f6c84f6b-a270-491f-aa6d-45c4175a32aa","system_id":"levelo_inurba_marseille","lat":43.24386,"lon":5.37053,"is_reserved":false,"is_disabled":false,"rental_uris":{"android":"levelo://app?vid=f6c84f6b-a270-491f-aa6d-45c4175a32aa","ios":"levelo://app?vid=f6c84f6b-a270-491f-aa6d-45c4175a32aa"},"vehicle_type_id":"4","last_reported":1747574333,"current_range_meters":8000,"station_id":"ce4bhhh2rcd13ifvqfk0","pricing_plan_id":"cebpf4jnsgd1na2vs0mg"},{"bike_id":"eb6ad0b5-8b6e-459c-a670-56152878be7b","system_id":"levelo_inurba_marseille","lat":43.240691,"lon":5.377632,"is_reserved":false,"is_disabled":false,"rental_uris":{"android":"levelo://app?vid=eb6ad0b5-8b6e-459c-a670-56152878be7b","ios":"levelo://app?vid=eb6ad0b5-8b6e-459c-a670-56152878be7b"},"vehicle_type_id":"4","last_reported":1747574333,"current_range_meters":8000,"station_id":"ce4bhnp2rcd13ifvqgvg","pricing_plan_id":"cebpf4jnsgd1na2vs0mg"},{"bike_id":"5cf16f92-b693-47c2-9e9c-211b074a5ed2","system_id":"levelo_inurba_marseille","lat":43.2655,"lon":5.3731,"is_reserved":false,"is_disabled":false,"rental_uris":{"android":"levelo://app?vid=5cf16f92-b693-47c2-9e9c-211b074a5ed2","ios":"levelo://app?vid=5cf16f92-b693-47c2-9e9c-211b074a5ed2"},"vehicle_type_id":"4","last_reported":1747574333,"current_range_meters":8000,"station_id":"ce4bhg12rcd13ifvqf70","pricing_plan_id":"cebpf4jnsgd1na2vs0mg"},{"bike_id":"08a6dc05-961e-4ead-ac29-9056c6974088","system_id":"levelo_inurba_marseille","lat":43.27377,"lon":5.36252,"is_reserved":false,"is_disabled":false,"rental_uris":{"android":"levelo://app?vid=08a6dc05-961e-4ead-ac29-9056c6974088","ios":"levelo://app?vid=08a6dc05-961e-4ead-ac29-9056c6974088"},"vehicle_type_id":"4","last_reported":1747574333,"current_range_meters":8400,"station_id":"ce4bhbh2rcd13ifvqeo0","pricing_plan_id":"cebpf4jnsgd1na2vs0mg"},{"bike_id":"aa9446b4-e4c2-4e75-9648-971ccb772673","system_id":"levelo_inurba_marseille","lat":43.274902,"lon":5.424558,"is_reserved":false,"is_disabled":false,"rental_uris":{"android":"levelo://app?vid=aa9446b4-e4c2-4e75-9648-971ccb772673","ios":"levelo://app?vid=aa9446b4-e4c2-4e75-9648-971ccb772673"},"vehicle_type_id":"4","last_reported":1747574333,"current_range_meters":8400,"station_id":"ce4bhn92rcd13ifvqgrg","pricing_plan_id":"cebpf4jnsgd1na2vs0mg"},{"bike_id":"4f07399c-c745-43fd-a202-e30af1c3fcc0","system_id":"levelo_inurba_marseille","lat":43.31173,"lon":5.38715,"is_reserved":false,"is_disabled":false,"rental_uris":{"android":"levelo://app?vid=4f07399c-c745-43fd-a202-e30af1c3fcc0","ios":"levelo://app?vid=4f07399c-c745-43fd-a202-e30af1c3fcc0"},"vehicle_type_id":"4","last_reported":1747574333,"current_range_meters":8000,"station_id":"ce4bgv12rcd13ifvqcp0","pricing_plan_id":"cebpf4jnsgd1na2vs0mg"},{"bike_id":"b934e6da-efb5-4ac5-a51a-eb50220f6e1b","system_id":"levelo_inurba_marseille","lat":43.26981,"lon":5.405886,"is_reserved":false,"is_disabled":true,"rental_uris":{"android":"levelo://app?vid=b934e6da-efb5-4ac5-a51a-eb50220f6e1b","ios":"levelo://app?vid=b934e6da-efb5-4ac5-a51a-eb50220f6e1b"},"vehicle_type_id":"4","last_reported":1747574333,"current_range_meters":8400,"station_id":"","pricing_plan_id":"cebpf4jnsgd1na2vs0mg"},{"bike_id":"c0db4030-ef30-480b-a735-af5435a471ed","system_id":"levelo_inurba_marseille","lat":43.27728,"lon":5.42679,"is_reserved":false,"is_disabled":false,"rental_uris":{"android":"levelo://app?vid=c0db4030-ef30-480b-a735-af5435a471ed","ios":"levelo://app?vid=c0db4030-ef30-480b-a735-af5435a471ed"},"vehicle_type_id":"4","last_reported":1747574333,"current_range_meters":8400,"station_id":"","pricing_plan_id":"cebpf4jnsgd1na2vs0mg"},{"bike_id":"3205bf7a-5365-44f6-aeb0-12f779944ac1","system_id":"levelo_inurba_marseille","lat":43.24082,"lon":5.377572,"is_reserved":false,"is_disabled":false,"rental_uris":{"android":"levelo://app?vid=3205bf7a-5365-44f6-aeb0-12f779944ac1","ios":"levelo://app?vid=3205bf7a-5365-44f6-aeb0-12f779944ac1"},"vehicle_type_id":"4","last_reported":1747574333,"current_range_meters":8400,"station_id":"ce4bhnp2rcd13ifvqgvg","pricing_plan_id":"cebpf4jnsgd1na2vs0mg"},{"bike_id":"3e562258-9698-495a-8db5-0c0e2aafd080","system_id":"levelo_inurba_marseille","lat":43.27615,"lon":5.36099,"is_reserved":false,"is_disabled":false,"rental_uris":{"android":"levelo://app?vid=3e562258-9698-495a-8db5-0c0e2aafd080","ios":"levelo://app?vid=3e562258-9698-495a-8db5-0c0e2aafd080"},"vehicle_type_id":"4","last_reported":1747574333,"current_range_meters":8400,"station_id":"ce4bgj92rcd13ifvqbe0","pricing_plan_id":"cebpf4jnsgd1na2vs0mg"},{"bike_id":"cc987898-b7f6-485f-b5c3-80ab5ff99a0f","system_id":"levelo_inurba_marseille","lat":43.31087,"lon":5.42426,"is_reserved":false,"is_disabled":false,"rental_uris":{"android":"levelo://app?vid=cc987898-b7f6-485f-b5c3-80ab5ff99a0f","ios":"levelo://app?vid=cc987898-b7f6-485f-b5c3-80ab5ff99a0f"},"vehicle_type_id":"4","last_reported":1747574333,"current_range_meters":8400,"station_id":"ce4bhp92rcd13ifvqhag","pricing_plan_id":"cebpf4jnsgd1na2vs0mg"},{"bike_id":"c3e44f74-ae47-4d1d-991d-3fb6d2385856","system_id":"levelo_inurba_marseille","lat":43.23965,"lon":5.36633,"is_reserved":false,"is_disabled":false,"rental_uris":{"android":"levelo://app?vid=c3e44f74-ae47-4d1d-991d-3fb6d2385856","ios":"levelo://app?vid=c3e44f74-ae47-4d1d-991d-3fb6d2385856"},"vehicle_type_id":"4","last_reported":1747574333,"current_range_meters":8400,"station_id":"ce4bhi12rcd13ifvqfp0","pricing_plan_id":"cebpf4jnsgd1na2vs0mg"},{"bike_id":"8d63e703-27f2-463c-a2d3-fa486d374f11","system_id":"levelo_inurba_marseille","lat":43.29711,"lon":5.37704,"is_reserved":false,"is_disabled":false,"rental_uris":{"android":"levelo://app?vid=8d63e703-27f2-463c-a2d3-fa486d374f11","ios":"levelo://app?vid=8d63e703-27f2-463c-a2d3-fa486d374f11"},"vehicle_type_id":"4","last_reported":1747574333,"current_range_meters":8400,"station_id":"ce4bgkh2rcd13ifvqbl0","pricing_plan_id":"cebpf4jnsgd1na2vs0mg"},{"bike_id":"388d3cc1-2c7c-47e8-8753-054135eab29c","system_id":"levelo_inurba_marseille","lat":43.28419,"lon":5.34974,"is_reserved":false,"is_disabled":false,"rental_uris":{"android":"levelo://app?vid=388d3cc1-2c7c-47e8-8753-054135eab29c","ios":"levelo://app?vid=388d3cc1-2c7c-47e8-8753-054135eab29c"},"vehicle_type_id":"4","last_reported":1747574333,"current_range_meters":8400,"station_id":"ce4bhbh2rcd13ifvqepg","pricing_plan_id":"cebpf4jnsgd1na2vs0mg"},{"bike_id":"90025f2d-39c0-44f3-be12-708492469bbe","system_id":"levelo_inurba_marseille","lat":43.23963,"lon":5.3663,"is_reserved":false,"is_disabled":false,"rental_uris":{"android":"levelo://app?vid=90025f2d-39c0-44f3-be12-708492469bbe","ios":"levelo://app?vid=90025f2d-39c0-44f3-be12-708492469bbe"},"vehicle_type_id":"4","last_reported":1747574333,"current_range_meters":8400,"station_id":"ce4bhi12rcd13ifvqfp0","pricing_plan_id":"cebpf4jnsgd1na2vs0mg"},{"bike_id":"c43760ab-47ec-4297-b5ba-58b487bc99e0","system_id":"levelo_inurba_marseille","lat":43.241807,"lon":5.397219,"is_reserved":false,"is_disabled":false,"rental_uris":{"android":"levelo://app?vid=c43760ab-47ec-4297-b5ba-58b487bc99e0","ios":"levelo://app?vid=c43760ab-47ec-4297-b5ba-58b487bc99e0"},"vehicle_type_id":"4","last_reported":1747574333,"current_range_meters":8800,"station_id":"ce4bhn12rcd13ifvqgpg","pricing_plan_id":"cebpf4jnsgd1na2vs0mg"},{"bike_id":"0fb02880-5c6e-4026-9e4a-07529c572b44","system_id":"levelo_inurba_marseille","lat":43.25482,"lon":5.37379,"is_reserved":false,"is_disabled":false,"rental_uris":{"android":"levelo://app?vid=0fb02880-5c6e-4026-9e4a-07529c572b44","ios":"levelo://app?vid=0fb02880-5c6e-4026-9e4a-07529c572b44"},"vehicle_type_id":"4","last_reported":1747574333,"current_range_meters":8800,"station_id":"","pricing_plan_id":"cebpf4jnsgd1na2vs0mg"},{"bike_id":"143027c1-9198-4505-af04-a5d69289be79","system_id":"levelo_inurba_marseille","lat":43.24072,"lon":5.37762,"is_reserved":false,"is_disabled":false,"rental_uris":{"android":"levelo://app?vid=143027c1-9198-4505-af04-a5d69289be79","ios":"levelo://app?vid=143027c1-9198-4505-af04-a5d69289be79"},"vehicle_type_id":"4","last_reported":1747574333,"current_range_meters":8800,"station_id":"ce4bhnp2rcd13ifvqgvg","pricing_plan_id":"cebpf4jnsgd1na2vs0mg"},{"bike_id":"87210ffc-3bfc-4481-ba86-a1c7cefb4f40","system_id":"levelo_inurba_marseille","lat":43.30897,"lon":5.37212,"is_reserved":false,"is_disabled":false,"rental_uris":{"android":"levelo://app?vid=87210ffc-3bfc-4481-ba86-a1c7cefb4f40","ios":"levelo://app?vid=87210ffc-3bfc-4481-ba86-a1c7cefb4f40"},"vehicle_type_id":"4","last_reported":1747574333,"current_range_meters":7200,"station_id":"ce4bguh2rcd13ifvqckg","pricing_plan_id":"cebpf4jnsgd1na2vs0mg"},{"bike_id":"9be12a09-efe5-495b-8ec3-e7e0d7473370","system_id":"levelo_inurba_marseille","lat":43.29608,"lon":5.380985,"is_reserved":false,"is_disabled":true,"rental_uris":{"android":"levelo://app?vid=9be12a09-efe5-495b-8ec3-e7e0d7473370","ios":"levelo://app?vid=9be12a09-efe5-495b-8ec3-e7e0d7473370"},"vehicle_type_id":"4","last_reported":1747574333,"current_range_meters":8800,"station_id":"ce4bgl12rcd13ifvqbo0","pricing_plan_id":"cebpf4jnsgd1na2vs0mg"},{"bike_id":"bc0f318d-a475-42f3-b60a-d885802d4288","system_id":"levelo_inurba_marseille","lat":43.29204,"lon":5.39333,"is_reserved":false,"is_disabled":false,"rental_uris":{"android":"levelo://app?vid=bc0f318d-a475-42f3-b60a-d885802d4288","ios":"levelo://app?vid=bc0f318d-a475-42f3-b60a-d885802d4288"},"vehicle_type_id":"4","last_reported":1747574333,"current_range_meters":8400,"station_id":"ce4bh192rcd13ifvqdd0","pricing_plan_id":"cebpf4jnsgd1na2vs0mg"},{"bike_id":"2cf95623-da6d-4ca2-89af-fed2e2d0d1d5","system_id":"levelo_inurba_marseille","lat":43.22935,"lon":5.35402,"is_reserved":false,"is_disabled":false,"rental_uris":{"android":"levelo://app?vid=2cf95623-da6d-4ca2-89af-fed2e2d0d1d5","ios":"levelo://app?vid=2cf95623-da6d-4ca2-89af-fed2e2d0d1d5"},"vehicle_type_id":"4","last_reported":1747574333,"current_range_meters":8800,"station_id":"cpo3532slgdg3j2ikp40","pricing_plan_id":"cebpf4jnsgd1na2vs0mg"},{"bike_id":"a307851c-ec96-4ea3-bc9c-e5b8fc9f75a2","system_id":"levelo_inurba_marseille","lat":43.23188,"lon":5.35555,"is_reserved":false,"is_disabled":false,"rental_uris":{"android":"levelo://app?vid=a307851c-ec96-4ea3-bc9c-e5b8fc9f75a2","ios":"levelo://app?vid=a307851c-ec96-4ea3-bc9c-e5b8fc9f75a2"},"vehicle_type_id":"4","last_reported":1747574333,"current_range_meters":8800,"station_id":"ce4bhu92rcd13ifvqi70","pricing_plan_id":"cebpf4jnsgd1na2vs0mg"},{"bike_id":"360351a4-eeb4-4767-bc8e-2fbef196134c","system_id":"levelo_inurba_marseille","lat":43.32285,"lon":5.38281,"is_reserved":false,"is_disabled":false,"rental_uris":{"android":"levelo://app?vid=360351a4-eeb4-4767-bc8e-2fbef196134c","ios":"levelo://app?vid=360351a4-eeb4-4767-bc8e-2fbef196134c"},"vehicle_type_id":"4","last_reported":1747574333,"current_range_meters":8800,"station_id":"ce4bhr12rcd13ifvqhqg","pricing_plan_id":"cebpf4jnsgd1na2vs0mg"},{"bike_id":"8e6e4749-5dae-4c8f-98db-5bf2ebcbacd3","system_id":"levelo_inurba_marseille","lat":43.24178,"lon":5.3641,"is_reserved":false,"is_disabled":false,"rental_uris":{"android":"levelo://app?vid=8e6e4749-5dae-4c8f-98db-5bf2ebcbacd3","ios":"levelo://app?vid=8e6e4749-5dae-4c8f-98db-5bf2ebcbacd3"},"vehicle_type_id":"4","last_reported":1747574333,"current_range_meters":8800,"station_id":"cpo36qri1sfpv3e86is0","pricing_plan_id":"cebpf4jnsgd1na2vs0mg"},{"bike_id":"4c33e9a2-0e5c-427f-a7cc-632c63a61d9d","system_id":"levelo_inurba_marseille","lat":43.28347,"lon":5.38105,"is_reserved":false,"is_disabled":true,"rental_uris":{"android":"levelo://app?vid=4c33e9a2-0e5c-427f-a7cc-632c63a61d9d","ios":"levelo://app?vid=4c33e9a2-0e5c-427f-a7cc-632c63a61d9d"},"vehicle_type_id":"4","last_reported":1747574333,"current_range_meters":8800,"station_id":"ce4bh412rcd13ifvqdr0","pricing_plan_id":"cebpf4jnsgd1na2vs0mg"},{"bike_id":"b8632fb6-86db-4533-a17c-fd85f527ce0f","system_id":"levelo_inurba_marseille","lat":43.24167,"lon":5.36393,"is_reserved":false,"is_disabled":false,"rental_uris":{"android":"levelo://app?vid=b8632fb6-86db-4533-a17c-fd85f527ce0f","ios":"levelo://app?vid=b8632fb6-86db-4533-a17c-fd85f527ce0f"},"vehicle_type_id":"4","last_reported":1747574333,"current_range_meters":8800,"station_id":"cpo36qri1sfpv3e86is0","pricing_plan_id":"cebpf4jnsgd1na2vs0mg"},{"bike_id":"d44707a9-59e8-4a25-a4c7-b014bee02309","system_id":"levelo_inurba_marseille","lat":43.24809,"lon":5.37455,"is_reserved":false,"is_disabled":false,"rental_uris":{"android":"levelo://app?vid=d44707a9-59e8-4a25-a4c7-b014bee02309","ios":"levelo://app?vid=d44707a9-59e8-4a25-a4c7-b014bee02309"},"vehicle_type_id":"4","last_reported":1747574333,"current_range_meters":8800,"station_id":"ce4bhgh2rcd13ifvqfb0","pricing_plan_id":"cebpf4jnsgd1na2vs0mg"},{"bike_id":"5d0c204a-30d7-45a4-a38f-6cc374d60c0a","system_id":"levelo_inurba_marseille","lat":43.24158,"lon":5.36431,"is_reserved":false,"is_disabled":false,"rental_uris":{"android":"levelo://app?vid=5d0c204a-30d7-45a4-a38f-6cc374d60c0a","ios":"levelo://app?vid=5d0c204a-30d7-45a4-a38f-6cc374d60c0a"},"vehicle_type_id":"4","last_reported":1747574333,"current_range_meters":9200,"station_id":"cpo36qri1sfpv3e86is0","pricing_plan_id":"cebpf4jnsgd1na2vs0mg"},{"bike_id":"f11291eb-cff8-4934-a96b-ed93a92d1d4c","system_id":"levelo_inurba_marseille","lat":43.23149,"lon":5.43719,"is_reserved":false,"is_disabled":false,"rental_uris":{"android":"levelo://app?vid=f11291eb-cff8-4934-a96b-ed93a92d1d4c","ios":"levelo://app?vid=f11291eb-cff8-4934-a96b-ed93a92d1d4c"},"vehicle_type_id":"4","last_reported":1747574333,"current_range_meters":9200,"station_id":"ce4bhmp2rcd13ifvqgog","pricing_plan_id":"cebpf4jnsgd1na2vs0mg"},{"bike_id":"7502aaf2-e0b6-4e59-86da-36975a13a9d8","system_id":"levelo_inurba_marseille","lat":43.29531,"lon":5.37491,"is_reserved":false,"is_disabled":true,"rental_uris":{"android":"levelo://app?vid=7502aaf2-e0b6-4e59-86da-36975a13a9d8","ios":"levelo://app?vid=7502aaf2-e0b6-4e59-86da-36975a13a9d8"},"vehicle_type_id":"4","last_reported":1747574333,"current_range_meters":9200,"station_id":"ce4bgkp2rcd13ifvqbmg","pricing_plan_id":"cebpf4jnsgd1na2vs0mg"},{"bike_id":"6dcabd22-3cc9-40fb-a0a9-640bde7feea1","system_id":"levelo_inurba_marseille","lat":43.28261,"lon":5.35069,"is_reserved":false,"is_disabled":false,"rental_uris":{"android":"levelo://app?vid=6dcabd22-3cc9-40fb-a0a9-640bde7feea1","ios":"levelo://app?vid=6dcabd22-3cc9-40fb-a0a9-640bde7feea1"},"vehicle_type_id":"4","last_reported":1747574333,"current_range_meters":9200,"station_id":"ce4bhbp2rcd13ifvqerg","pricing_plan_id":"cebpf4jnsgd1na2vs0mg"},{"bike_id":"22c7f6c0-8c2c-4c53-badf-edc636f8da6f","system_id":"levelo_inurba_marseille","lat":43.2828,"lon":5.3507,"is_reserved":false,"is_disabled":false,"rental_uris":{"android":"levelo://app?vid=22c7f6c0-8c2c-4c53-badf-edc636f8da6f","ios":"levelo://app?vid=22c7f6c0-8c2c-4c53-badf-edc636f8da6f"},"vehicle_type_id":"4","last_reported":1747574333,"current_range_meters":9200,"station_id":"ce4bhbp2rcd13ifvqerg","pricing_plan_id":"cebpf4jnsgd1na2vs0mg"},{"bike_id":"4b3297d3-2f19-4578-a387-6277c6a46759","system_id":"levelo_inurba_marseille","lat":43.257229,"lon":5.411115,"is_reserved":false,"is_disabled":false,"rental_uris":{"android":"levelo://app?vid=4b3297d3-2f19-4578-a387-6277c6a46759","ios":"levelo://app?vid=4b3297d3-2f19-4578-a387-6277c6a46759"},"vehicle_type_id":"4","last_reported":1747574333,"current_range_meters":9200,"station_id":"ce4bhkp2rcd13ifvqgd0","pricing_plan_id":"cebpf4jnsgd1na2vs0mg"},{"bike_id":"7e6c935f-c56c-4a8c-b623-29e5356ac514","system_id":"levelo_inurba_marseille","lat":43.28726,"lon":5.36098,"is_reserved":false,"is_disabled":false,"rental_uris":{"android":"levelo://app?vid=7e6c935f-c56c-4a8c-b623-29e5356ac514","ios":"levelo://app?vid=7e6c935f-c56c-4a8c-b623-29e5356ac514"},"vehicle_type_id":"4","last_reported":1747574333,"current_range_meters":8800,"station_id":"cki0cbj6b192h4jlfktg","pricing_plan_id":"cebpf4jnsgd1na2vs0mg"},{"bike_id":"14603e41-b2dd-4757-a53c-2e366aa4f983","system_id":"levelo_inurba_marseille","lat":43.269953,"lon":5.428266,"is_reserved":false,"is_disabled":false,"rental_uris":{"android":"levelo://app?vid=14603e41-b2dd-4757-a53c-2e366aa4f983","ios":"levelo://app?vid=14603e41-b2dd-4757-a53c-2e366aa4f983"},"vehicle_type_id":"4","last_reported":1747574333,"current_range_meters":9200,"station_id":"","pricing_plan_id":"cebpf4jnsgd1na2vs0mg"},{"bike_id":"f58501ec-310c-4ea4-94b9-05e1633073e4","system_id":"levelo_inurba_marseille","lat":43.21192,"lon":5.35085,"is_reserved":false,"is_disabled":false,"rental_uris":{"android":"levelo://app?vid=f58501ec-310c-4ea4-94b9-05e1633073e4","ios":"levelo://app?vid=f58501ec-310c-4ea4-94b9-05e1633073e4"},"vehicle_type_id":"4","last_reported":1747574333,"current_range_meters":9600,"station_id":"st_cvj6sg6p6f1abm77japg","pricing_plan_id":"cebpf4jnsgd1na2vs0mg"},{"bike_id":"8f9fd8b0-b6ae-469b-8aad-d0dee6854062","system_id":"levelo_inurba_marseille","lat":43.24804,"lon":5.37452,"is_reserved":false,"is_disabled":false,"rental_uris":{"android":"levelo://app?vid=8f9fd8b0-b6ae-469b-8aad-d0dee6854062","ios":"levelo://app?vid=8f9fd8b0-b6ae-469b-8aad-d0dee6854062"},"vehicle_type_id":"4","last_reported":1747574333,"current_range_meters":9200,"station_id":"ce4bhgh2rcd13ifvqfb0","pricing_plan_id":"cebpf4jnsgd1na2vs0mg"},{"bike_id":"65d4a7a3-77f4-4c44-a57d-ee22f75e0dd5","system_id":"levelo_inurba_marseille","lat":43.3014,"lon":5.39851,"is_reserved":false,"is_disabled":false,"rental_uris":{"android":"levelo://app?vid=65d4a7a3-77f4-4c44-a57d-ee22f75e0dd5","ios":"levelo://app?vid=65d4a7a3-77f4-4c44-a57d-ee22f75e0dd5"},"vehicle_type_id":"4","last_reported":1747574333,"current_range_meters":9600,"station_id":"ce4bh0h2rcd13ifvqd40","pricing_plan_id":"cebpf4jnsgd1na2vs0mg"},{"bike_id":"2eab994d-a378-4391-894b-b62d11a34041","system_id":"levelo_inurba_marseille","lat":43.23159,"lon":5.43704,"is_reserved":false,"is_disabled":true,"rental_uris":{"android":"levelo://app?vid=2eab994d-a378-4391-894b-b62d11a34041","ios":"levelo://app?vid=2eab994d-a378-4391-894b-b62d11a34041"},"vehicle_type_id":"4","last_reported":1747574333,"current_range_meters":9600,"station_id":"ce4bhmp2rcd13ifvqgog","pricing_plan_id":"cebpf4jnsgd1na2vs0mg"},{"bike_id":"c96f73d1-a1bd-4fb1-b3b0-c5f01ca187a9","system_id":"levelo_inurba_marseille","lat":43.24166,"lon":5.36392,"is_reserved":false,"is_disabled":false,"rental_uris":{"android":"levelo://app?vid=c96f73d1-a1bd-4fb1-b3b0-c5f01ca187a9","ios":"levelo://app?vid=c96f73d1-a1bd-4fb1-b3b0-c5f01ca187a9"},"vehicle_type_id":"4","last_reported":1747574333,"current_range_meters":9600,"station_id":"cpo36qri1sfpv3e86is0","pricing_plan_id":"cebpf4jnsgd1na2vs0mg"},{"bike_id":"d6eccc12-333b-4e3b-85e8-b26a2e057330","system_id":"levelo_inurba_marseille","lat":43.24177,"lon":5.39726,"is_reserved":false,"is_disabled":false,"rental_uris":{"android":"levelo://app?vid=d6eccc12-333b-4e3b-85e8-b26a2e057330","ios":"levelo://app?vid=d6eccc12-333b-4e3b-85e8-b26a2e057330"},"vehicle_type_id":"4","last_reported":1747574333,"current_range_meters":9600,"station_id":"ce4bhn12rcd13ifvqgpg","pricing_plan_id":"cebpf4jnsgd1na2vs0mg"},{"bike_id":"fd77d480-3bb3-4b3c-9d22-38e793294db9","system_id":"levelo_inurba_marseille","lat":43.258111,"lon":5.394283,"is_reserved":false,"is_disabled":false,"rental_uris":{"android":"levelo://app?vid=fd77d480-3bb3-4b3c-9d22-38e793294db9","ios":"levelo://app?vid=fd77d480-3bb3-4b3c-9d22-38e793294db9"},"vehicle_type_id":"4","last_reported":1747574333,"current_range_meters":9600,"station_id":"ce4bhip2rcd13ifvqft0","pricing_plan_id":"cebpf4jnsgd1na2vs0mg"},{"bike_id":"caf4c81d-8b81-4d8d-a4f9-9d00bac7ad70","system_id":"levelo_inurba_marseille","lat":43.30757,"lon":5.42815,"is_reserved":false,"is_disabled":false,"rental_uris":{"android":"levelo://app?vid=caf4c81d-8b81-4d8d-a4f9-9d00bac7ad70","ios":"levelo://app?vid=caf4c81d-8b81-4d8d-a4f9-9d00bac7ad70"},"vehicle_type_id":"4","last_reported":1747574333,"current_range_meters":9600,"station_id":"","pricing_plan_id":"cebpf4jnsgd1na2vs0mg"},{"bike_id":"4e28dfb4-003e-4e81-87b0-c4852d95f103","system_id":"levelo_inurba_marseille","lat":43.23153,"lon":5.43698,"is_reserved":false,"is_disabled":false,"rental_uris":{"android":"levelo://app?vid=4e28dfb4-003e-4e81-87b0-c4852d95f103","ios":"levelo://app?vid=4e28dfb4-003e-4e81-87b0-c4852d95f103"},"vehicle_type_id":"4","last_reported":1747574333,"current_range_meters":9600,"station_id":"ce4bhmp2rcd13ifvqgog","pricing_plan_id":"cebpf4jnsgd1na2vs0mg"},{"bike_id":"d06b8510-75a1-4ec9-ad6d-5a326870b568","system_id":"levelo_inurba_marseille","lat":43.24177,"lon":5.36386,"is_reserved":false,"is_disabled":false,"rental_uris":{"android":"levelo://app?vid=d06b8510-75a1-4ec9-ad6d-5a326870b568","ios":"levelo://app?vid=d06b8510-75a1-4ec9-ad6d-5a326870b568"},"vehicle_type_id":"4","last_reported":1747574333,"current_range_meters":9600,"station_id":"cpo36qri1sfpv3e86is0","pricing_plan_id":"cebpf4jnsgd1na2vs0mg"},{"bike_id":"0410a248-7443-4055-a689-4119a7daf127","system_id":"levelo_inurba_marseille","lat":43.23197,"lon":5.35557,"is_reserved":false,"is_disabled":false,"rental_uris":{"android":"levelo://app?vid=0410a248-7443-4055-a689-4119a7daf127","ios":"levelo://app?vid=0410a248-7443-4055-a689-4119a7daf127"},"vehicle_type_id":"4","last_reported":1747574333,"current_range_meters":9600,"station_id":"ce4bhu92rcd13ifvqi70","pricing_plan_id":"cebpf4jnsgd1na2vs0mg"},{"bike_id":"68a035d7-4f0c-467c-b4a3-aa6ef17901b5","system_id":"levelo_inurba_marseille","lat":43.28419,"lon":5.34988,"is_reserved":false,"is_disabled":false,"rental_uris":{"android":"levelo://app?vid=68a035d7-4f0c-467c-b4a3-aa6ef17901b5","ios":"levelo://app?vid=68a035d7-4f0c-467c-b4a3-aa6ef17901b5"},"vehicle_type_id":"4","last_reported":1747574333,"current_range_meters":10000,"station_id":"ce4bhbh2rcd13ifvqepg","pricing_plan_id":"cebpf4jnsgd1na2vs0mg"},{"bike_id":"8d301145-1b3f-414a-a62f-929588279e23","system_id":"levelo_inurba_marseille","lat":43.28412,"lon":5.3498,"is_reserved":false,"is_disabled":false,"rental_uris":{"android":"levelo://app?vid=8d301145-1b3f-414a-a62f-929588279e23","ios":"levelo://app?vid=8d301145-1b3f-414a-a62f-929588279e23"},"vehicle_type_id":"4","last_reported":1747574333,"current_range_meters":10000,"station_id":"ce4bhbh2rcd13ifvqepg","pricing_plan_id":"cebpf4jnsgd1na2vs0mg"},{"bike_id":"401db98c-8d05-43f5-a5e4-ffa39fbad423","system_id":"levelo_inurba_marseille","lat":43.31487,"lon":5.37306,"is_reserved":false,"is_disabled":false,"rental_uris":{"android":"levelo://app?vid=401db98c-8d05-43f5-a5e4-ffa39fbad423","ios":"levelo://app?vid=401db98c-8d05-43f5-a5e4-ffa39fbad423"},"vehicle_type_id":"4","last_reported":1747574333,"current_range_meters":10000,"station_id":"ce4bgt12rcd13ifvqcd0","pricing_plan_id":"cebpf4jnsgd1na2vs0mg"},{"bike_id":"7d080336-5a2d-419d-8d50-e49d93450255","system_id":"levelo_inurba_marseille","lat":43.291749,"lon":5.371334,"is_reserved":false,"is_disabled":true,"rental_uris":{"android":"levelo://app?vid=7d080336-5a2d-419d-8d50-e49d93450255","ios":"levelo://app?vid=7d080336-5a2d-419d-8d50-e49d93450255"},"vehicle_type_id":"4","last_reported":1747574333,"current_range_meters":10000,"station_id":"ce4bha92rcd13ifvqeh0","pricing_plan_id":"cebpf4jnsgd1na2vs0mg"},{"bike_id":"88c266e6-7038-494f-b358-90ca603fb435","system_id":"levelo_inurba_marseille","lat":43.29577,"lon":5.375028,"is_reserved":false,"is_disabled":true,"rental_uris":{"android":"levelo://app?vid=88c266e6-7038-494f-b358-90ca603fb435","ios":"levelo://app?vid=88c266e6-7038-494f-b358-90ca603fb435"},"vehicle_type_id":"4","last_reported":1747574333,"current_range_meters":10000,"station_id":"ce4bgh92rcd13ifvqb50","pricing_plan_id":"cebpf4jnsgd1na2vs0mg"},{"bike_id":"ffc3ddf2-0082-4578-9e25-c91f5b4279bc","system_id":"levelo_inurba_marseille","lat":43.28318,"lon":5.4112,"is_reserved":false,"is_disabled":false,"rental_uris":{"android":"levelo://app?vid=ffc3ddf2-0082-4578-9e25-c91f5b4279bc","ios":"levelo://app?vid=ffc3ddf2-0082-4578-9e25-c91f5b4279bc"},"vehicle_type_id":"4","last_reported":1747574333,"current_range_meters":10000,"station_id":"","pricing_plan_id":"cebpf4jnsgd1na2vs0mg"},{"bike_id":"495df180-80d7-40e3-affa-3c042f0600fc","system_id":"levelo_inurba_marseille","lat":43.21746,"lon":5.34604,"is_reserved":false,"is_disabled":false,"rental_uris":{"android":"levelo://app?vid=495df180-80d7-40e3-affa-3c042f0600fc","ios":"levelo://app?vid=495df180-80d7-40e3-affa-3c042f0600fc"},"vehicle_type_id":"4","last_reported":1747574333,"current_range_meters":10000,"station_id":"st_cvj6r9ubvosntc0bgbag","pricing_plan_id":"cebpf4jnsgd1na2vs0mg"},{"bike_id":"2fec9bab-bd43-4f16-835f-76d39d28e914","system_id":"levelo_inurba_marseille","lat":43.241689,"lon":5.363986,"is_reserved":false,"is_disabled":false,"rental_uris":{"android":"levelo://app?vid=2fec9bab-bd43-4f16-835f-76d39d28e914","ios":"levelo://app?vid=2fec9bab-bd43-4f16-835f-76d39d28e914"},"vehicle_type_id":"4","last_reported":1747574333,"current_range_meters":10000,"station_id":"cpo36qri1sfpv3e86is0","pricing_plan_id":"cebpf4jnsgd1na2vs0mg"},{"bike_id":"a8416388-f7dc-469d-af9e-e34960387018","system_id":"levelo_inurba_marseille","lat":43.28448,"lon":5.34972,"is_reserved":false,"is_disabled":false,"rental_uris":{"android":"levelo://app?vid=a8416388-f7dc-469d-af9e-e34960387018","ios":"levelo://app?vid=a8416388-f7dc-469d-af9e-e34960387018"},"vehicle_type_id":"4","last_reported":1747574333,"current_range_meters":10000,"station_id":"ce4bhbh2rcd13ifvqepg","pricing_plan_id":"cebpf4jnsgd1na2vs0mg"},{"bike_id":"58f7ce6a-af8b-4b42-a23d-1a7ddcc98e9c","system_id":"levelo_inurba_marseille","lat":43.211897,"lon":5.35074,"is_reserved":false,"is_disabled":false,"rental_uris":{"android":"levelo://app?vid=58f7ce6a-af8b-4b42-a23d-1a7ddcc98e9c","ios":"levelo://app?vid=58f7ce6a-af8b-4b42-a23d-1a7ddcc98e9c"},"vehicle_type_id":"4","last_reported":1747574333,"current_range_meters":10800,"station_id":"st_cvj6sg6p6f1abm77japg","pricing_plan_id":"cebpf4jnsgd1na2vs0mg"},{"bike_id":"0fff26c1-ee5a-45bd-8576-8f20831a7bcd","system_id":"levelo_inurba_marseille","lat":43.29972,"lon":5.3848,"is_reserved":false,"is_disabled":true,"rental_uris":{"android":"levelo://app?vid=0fff26c1-ee5a-45bd-8576-8f20831a7bcd","ios":"levelo://app?vid=0fff26c1-ee5a-45bd-8576-8f20831a7bcd"},"vehicle_type_id":"4","last_reported":1747574333,"current_range_meters":10800,"station_id":"ce4bgj92rcd13ifvqbd0","pricing_plan_id":"cebpf4jnsgd1na2vs0mg"},{"bike_id":"ec260807-29d3-437c-b21b-e3525a6e2eeb","system_id":"levelo_inurba_marseille","lat":43.28412,"lon":5.34975,"is_reserved":false,"is_disabled":false,"rental_uris":{"android":"levelo://app?vid=ec260807-29d3-437c-b21b-e3525a6e2eeb","ios":"levelo://app?vid=ec260807-29d3-437c-b21b-e3525a6e2eeb"},"vehicle_type_id":"4","last_reported":1747574333,"current_range_meters":10800,"station_id":"ce4bhbh2rcd13ifvqepg","pricing_plan_id":"cebpf4jnsgd1na2vs0mg"},{"bike_id":"1b2f0e19-c9dc-4000-8367-67c619535c14","system_id":"levelo_inurba_marseille","lat":43.299436,"lon":5.365269,"is_reserved":false,"is_disabled":true,"rental_uris":{"android":"levelo://app?vid=1b2f0e19-c9dc-4000-8367-67c619535c14","ios":"levelo://app?vid=1b2f0e19-c9dc-4000-8367-67c619535c14"},"vehicle_type_id":"4","last_reported":1747574333,"current_range_meters":10800,"station_id":"ce4bgm92rcd13ifvqbr0","pricing_plan_id":"cebpf4jnsgd1na2vs0mg"},{"bike_id":"cb2942f5-3179-48e8-ba57-9143125fef63","system_id":"levelo_inurba_marseille","lat":43.2511,"lon":5.40335,"is_reserved":false,"is_disabled":false,"rental_uris":{"android":"levelo://app?vid=cb2942f5-3179-48e8-ba57-9143125fef63","ios":"levelo://app?vid=cb2942f5-3179-48e8-ba57-9143125fef63"},"vehicle_type_id":"4","last_reported":1747574333,"current_range_meters":10800,"station_id":"ce4bhlh2rcd13ifvqgig","pricing_plan_id":"cebpf4jnsgd1na2vs0mg"},{"bike_id":"6e1bd625-3ec1-43df-9657-36d71ae09f8d","system_id":"levelo_inurba_marseille","lat":43.33737,"lon":5.37487,"is_reserved":false,"is_disabled":false,"rental_uris":{"android":"levelo://app?vid=6e1bd625-3ec1-43df-9657-36d71ae09f8d","ios":"levelo://app?vid=6e1bd625-3ec1-43df-9657-36d71ae09f8d"},"vehicle_type_id":"4","last_reported":1747574333,"current_range_meters":10800,"station_id":"","pricing_plan_id":"cebpf4jnsgd1na2vs0mg"},{"bike_id":"c608898e-58b6-42f7-903a-6008119c7a64","system_id":"levelo_inurba_marseille","lat":43.24083,"lon":5.3779,"is_reserved":false,"is_disabled":false,"rental_uris":{"android":"levelo://app?vid=c608898e-58b6-42f7-903a-6008119c7a64","ios":"levelo://app?vid=c608898e-58b6-42f7-903a-6008119c7a64"},"vehicle_type_id":"4","last_reported":1747574333,"current_range_meters":10800,"station_id":"ce4bhnp2rcd13ifvqgvg","pricing_plan_id":"cebpf4jnsgd1na2vs0mg"},{"bike_id":"321afb8c-2a04-45d2-89c7-9751331b4818","system_id":"levelo_inurba_marseille","lat":43.26684,"lon":5.38268,"is_reserved":false,"is_disabled":false,"rental_uris":{"android":"levelo://app?vid=321afb8c-2a04-45d2-89c7-9751331b4818","ios":"levelo://app?vid=321afb8c-2a04-45d2-89c7-9751331b4818"},"vehicle_type_id":"4","last_reported":1747574333,"current_range_meters":10800,"station_id":"ce4bhg92rcd13ifvqf90","pricing_plan_id":"cebpf4jnsgd1na2vs0mg"},{"bike_id":"1580b165-ecf9-4c1a-8809-c7db1bc15693","system_id":"levelo_inurba_marseille","lat":43.28421,"lon":5.35021,"is_reserved":false,"is_disabled":false,"rental_uris":{"android":"levelo://app?vid=1580b165-ecf9-4c1a-8809-c7db1bc15693","ios":"levelo://app?vid=1580b165-ecf9-4c1a-8809-c7db1bc15693"},"vehicle_type_id":"4","last_reported":1747574333,"current_range_meters":10800,"station_id":"ce4bhbh2rcd13ifvqepg","pricing_plan_id":"cebpf4jnsgd1na2vs0mg"},{"bike_id":"ddd0b4c1-875c-400f-b9e4-80b94f022dbb","system_id":"levelo_inurba_marseille","lat":43.23201,"lon":5.35587,"is_reserved":false,"is_disabled":false,"rental_uris":{"android":"levelo://app?vid=ddd0b4c1-875c-400f-b9e4-80b94f022dbb","ios":"levelo://app?vid=ddd0b4c1-875c-400f-b9e4-80b94f022dbb"},"vehicle_type_id":"4","last_reported":1747574333,"current_range_meters":11200,"station_id":"ce4bhu92rcd13ifvqi70","pricing_plan_id":"cebpf4jnsgd1na2vs0mg"},{"bike_id":"1b4a335f-32fe-4746-bbf7-08943503aa4d","system_id":"levelo_inurba_marseille","lat":43.25112,"lon":5.4034,"is_reserved":false,"is_disabled":false,"rental_uris":{"android":"levelo://app?vid=1b4a335f-32fe-4746-bbf7-08943503aa4d","ios":"levelo://app?vid=1b4a335f-32fe-4746-bbf7-08943503aa4d"},"vehicle_type_id":"4","last_reported":1747574333,"current_range_meters":11200,"station_id":"ce4bhlh2rcd13ifvqgig","pricing_plan_id":"cebpf4jnsgd1na2vs0mg"},{"bike_id":"02ddba3a-ba03-4ec6-a11f-790f846341a9","system_id":"levelo_inurba_marseille","lat":43.21755,"lon":5.346014,"is_reserved":false,"is_disabled":false,"rental_uris":{"android":"levelo://app?vid=02ddba3a-ba03-4ec6-a11f-790f846341a9","ios":"levelo://app?vid=02ddba3a-ba03-4ec6-a11f-790f846341a9"},"vehicle_type_id":"4","last_reported":1747574333,"current_range_meters":11200,"station_id":"st_cvj6r9ubvosntc0bgbag","pricing_plan_id":"cebpf4jnsgd1na2vs0mg"},{"bike_id":"4745dd8b-a0b2-49db-b417-8a28eecc51d4","system_id":"levelo_inurba_marseille","lat":43.24321,"lon":5.37995,"is_reserved":false,"is_disabled":false,"rental_uris":{"android":"levelo://app?vid=4745dd8b-a0b2-49db-b417-8a28eecc51d4","ios":"levelo://app?vid=4745dd8b-a0b2-49db-b417-8a28eecc51d4"},"vehicle_type_id":"4","last_reported":1747574333,"current_range_meters":11200,"station_id":"","pricing_plan_id":"cebpf4jnsgd1na2vs0mg"},{"bike_id":"3a4bb201-7fa2-4f90-9ba8-20bf58eba273","system_id":"levelo_inurba_marseille","lat":43.24168,"lon":5.3637,"is_reserved":false,"is_disabled":false,"rental_uris":{"android":"levelo://app?vid=3a4bb201-7fa2-4f90-9ba8-20bf58eba273","ios":"levelo://app?vid=3a4bb201-7fa2-4f90-9ba8-20bf58eba273"},"vehicle_type_id":"4","last_reported":1747574333,"current_range_meters":11600,"station_id":"cpo36qri1sfpv3e86is0","pricing_plan_id":"cebpf4jnsgd1na2vs0mg"},{"bike_id":"a2e8ac07-c27d-4596-ac54-d8fb456abf0d","system_id":"levelo_inurba_marseille","lat":43.28253,"lon":5.42428,"is_reserved":false,"is_disabled":false,"rental_uris":{"android":"levelo://app?vid=a2e8ac07-c27d-4596-ac54-d8fb456abf0d","ios":"levelo://app?vid=a2e8ac07-c27d-4596-ac54-d8fb456abf0d"},"vehicle_type_id":"4","last_reported":1747574333,"current_range_meters":11600,"station_id":"","pricing_plan_id":"cebpf4jnsgd1na2vs0mg"},{"bike_id":"84681128-9b85-4b9f-8e87-dacf51b69edb","system_id":"levelo_inurba_marseille","lat":43.21191,"lon":5.3507,"is_reserved":false,"is_disabled":false,"rental_uris":{"android":"levelo://app?vid=84681128-9b85-4b9f-8e87-dacf51b69edb","ios":"levelo://app?vid=84681128-9b85-4b9f-8e87-dacf51b69edb"},"vehicle_type_id":"4","last_reported":1747574333,"current_range_meters":11600,"station_id":"st_cvj6sg6p6f1abm77japg","pricing_plan_id":"cebpf4jnsgd1na2vs0mg"},{"bike_id":"b438695d-9c9f-4ed6-ad79-75697224f732","system_id":"levelo_inurba_marseille","lat":43.23187,"lon":5.35561,"is_reserved":false,"is_disabled":false,"rental_uris":{"android":"levelo://app?vid=b438695d-9c9f-4ed6-ad79-75697224f732","ios":"levelo://app?vid=b438695d-9c9f-4ed6-ad79-75697224f732"},"vehicle_type_id":"4","last_reported":1747574333,"current_range_meters":11600,"station_id":"ce4bhu92rcd13ifvqi70","pricing_plan_id":"cebpf4jnsgd1na2vs0mg"},{"bike_id":"06fb6274-c887-4ce8-9273-400ecb3aef67","system_id":"levelo_inurba_marseille","lat":43.28407,"lon":5.46034,"is_reserved":false,"is_disabled":false,"rental_uris":{"android":"levelo://app?vid=06fb6274-c887-4ce8-9273-400ecb3aef67","ios":"levelo://app?vid=06fb6274-c887-4ce8-9273-400ecb3aef67"},"vehicle_type_id":"4","last_reported":1747574333,"current_range_meters":11600,"station_id":"","pricing_plan_id":"cebpf4jnsgd1na2vs0mg"},{"bike_id":"08510fae-faaa-4c7e-8b63-8318909db753","system_id":"levelo_inurba_marseille","lat":43.21742,"lon":5.34603,"is_reserved":false,"is_disabled":false,"rental_uris":{"android":"levelo://app?vid=08510fae-faaa-4c7e-8b63-8318909db753","ios":"levelo://app?vid=08510fae-faaa-4c7e-8b63-8318909db753"},"vehicle_type_id":"4","last_reported":1747574333,"current_range_meters":12000,"station_id":"st_cvj6r9ubvosntc0bgbag","pricing_plan_id":"cebpf4jnsgd1na2vs0mg"},{"bike_id":"6ee7001e-07ad-49d2-9902-4e2095457f59","system_id":"levelo_inurba_marseille","lat":43.27063,"lon":5.42286,"is_reserved":false,"is_disabled":true,"rental_uris":{"android":"levelo://app?vid=6ee7001e-07ad-49d2-9902-4e2095457f59","ios":"levelo://app?vid=6ee7001e-07ad-49d2-9902-4e2095457f59"},"vehicle_type_id":"4","last_reported":1747574333,"current_range_meters":12000,"station_id":"ce4bhk92rcd13ifvqgb0","pricing_plan_id":"cebpf4jnsgd1na2vs0mg"},{"bike_id":"2d77be1e-e667-4ad9-88d0-501cfa87ce02","system_id":"levelo_inurba_marseille","lat":43.211893,"lon":5.350657,"is_reserved":false,"is_disabled":false,"rental_uris":{"android":"levelo://app?vid=2d77be1e-e667-4ad9-88d0-501cfa87ce02","ios":"levelo://app?vid=2d77be1e-e667-4ad9-88d0-501cfa87ce02"},"vehicle_type_id":"4","last_reported":1747574333,"current_range_meters":12000,"station_id":"st_cvj6sg6p6f1abm77japg","pricing_plan_id":"cebpf4jnsgd1na2vs0mg"},{"bike_id":"c10b2085-8572-4f19-b4e0-a4bdb80c482a","system_id":"levelo_inurba_marseille","lat":43.28633,"lon":5.35105,"is_reserved":false,"is_disabled":false,"rental_uris":{"android":"levelo://app?vid=c10b2085-8572-4f19-b4e0-a4bdb80c482a","ios":"levelo://app?vid=c10b2085-8572-4f19-b4e0-a4bdb80c482a"},"vehicle_type_id":"4","last_reported":1747574333,"current_range_meters":12000,"station_id":"ce4bhch2rcd13ifvqeug","pricing_plan_id":"cebpf4jnsgd1na2vs0mg"},{"bike_id":"be2c3896-fa0c-4a27-a492-db322855c4b2","system_id":"levelo_inurba_marseille","lat":43.25128,"lon":5.40324,"is_reserved":false,"is_disabled":false,"rental_uris":{"android":"levelo://app?vid=be2c3896-fa0c-4a27-a492-db322855c4b2","ios":"levelo://app?vid=be2c3896-fa0c-4a27-a492-db322855c4b2"},"vehicle_type_id":"4","last_reported":1747574333,"current_range_meters":12000,"station_id":"ce4bhlh2rcd13ifvqgig","pricing_plan_id":"cebpf4jnsgd1na2vs0mg"},{"bike_id":"53f19b5e-5bc8-42a2-9d83-057eaeb50837","system_id":"levelo_inurba_marseille","lat":43.305469,"lon":5.366926,"is_reserved":false,"is_disabled":false,"rental_uris":{"android":"levelo://app?vid=53f19b5e-5bc8-42a2-9d83-057eaeb50837","ios":"levelo://app?vid=53f19b5e-5bc8-42a2-9d83-057eaeb50837"},"vehicle_type_id":"4","last_reported":1747574333,"current_range_meters":12000,"station_id":"ce4bgrp2rcd13ifvqc9g","pricing_plan_id":"cebpf4jnsgd1na2vs0mg"},{"bike_id":"cfee810e-8503-4cf6-a017-ace9f3c89097","system_id":"levelo_inurba_marseille","lat":43.27374,"lon":5.36262,"is_reserved":false,"is_disabled":false,"rental_uris":{"android":"levelo://app?vid=cfee810e-8503-4cf6-a017-ace9f3c89097","ios":"levelo://app?vid=cfee810e-8503-4cf6-a017-ace9f3c89097"},"vehicle_type_id":"4","last_reported":1747574333,"current_range_meters":12000,"station_id":"ce4bhbh2rcd13ifvqeo0","pricing_plan_id":"cebpf4jnsgd1na2vs0mg"},{"bike_id":"ae09ee8a-6013-4413-8f85-08be7428afe3","system_id":"levelo_inurba_marseille","lat":43.28438,"lon":5.34979,"is_reserved":false,"is_disabled":false,"rental_uris":{"android":"levelo://app?vid=ae09ee8a-6013-4413-8f85-08be7428afe3","ios":"levelo://app?vid=ae09ee8a-6013-4413-8f85-08be7428afe3"},"vehicle_type_id":"4","last_reported":1747574333,"current_range_meters":12000,"station_id":"ce4bhbh2rcd13ifvqepg","pricing_plan_id":"cebpf4jnsgd1na2vs0mg"},{"bike_id":"55982159-14b0-423d-a8c0-c157cf2770cd","system_id":"levelo_inurba_marseille","lat":43.27758,"lon":5.36249,"is_reserved":false,"is_disabled":false,"rental_uris":{"android":"levelo://app?vid=55982159-14b0-423d-a8c0-c157cf2770cd","ios":"levelo://app?vid=55982159-14b0-423d-a8c0-c157cf2770cd"},"vehicle_type_id":"4","last_reported":1747574333,"current_range_meters":12400,"station_id":"","pricing_plan_id":"cebpf4jnsgd1na2vs0mg"},{"bike_id":"b26a0dd7-cbdc-4ab7-8def-31c4b88b224a","system_id":"levelo_inurba_marseille","lat":43.31214,"lon":5.39245,"is_reserved":false,"is_disabled":false,"rental_uris":{"android":"levelo://app?vid=b26a0dd7-cbdc-4ab7-8def-31c4b88b224a","ios":"levelo://app?vid=b26a0dd7-cbdc-4ab7-8def-31c4b88b224a"},"vehicle_type_id":"4","last_reported":1747574333,"current_range_meters":12400,"station_id":"","pricing_plan_id":"cebpf4jnsgd1na2vs0mg"},{"bike_id":"8206ec62-5856-4cf9-9d98-633c0dec05df","system_id":"levelo_inurba_marseille","lat":43.29633,"lon":5.40604,"is_reserved":false,"is_disabled":false,"rental_uris":{"android":"levelo://app?vid=8206ec62-5856-4cf9-9d98-633c0dec05df","ios":"levelo://app?vid=8206ec62-5856-4cf9-9d98-633c0dec05df"},"vehicle_type_id":"4","last_reported":1747574333,"current_range_meters":12000,"station_id":"ce4bh0h2rcd13ifvqd60","pricing_plan_id":"cebpf4jnsgd1na2vs0mg"},{"bike_id":"7698f913-46d0-4283-89ce-e3d803d4cdb3","system_id":"levelo_inurba_marseille","lat":43.28266,"lon":5.35036,"is_reserved":false,"is_disabled":false,"rental_uris":{"android":"levelo://app?vid=7698f913-46d0-4283-89ce-e3d803d4cdb3","ios":"levelo://app?vid=7698f913-46d0-4283-89ce-e3d803d4cdb3"},"vehicle_type_id":"4","last_reported":1747574333,"current_range_meters":12800,"station_id":"ce4bhbp2rcd13ifvqerg","pricing_plan_id":"cebpf4jnsgd1na2vs0mg"},{"bike_id":"51a33848-f0f0-40ec-b6c6-8948c992d932","system_id":"levelo_inurba_marseille","lat":43.251016,"lon":5.39515,"is_reserved":false,"is_disabled":false,"rental_uris":{"android":"levelo://app?vid=51a33848-f0f0-40ec-b6c6-8948c992d932","ios":"levelo://app?vid=51a33848-f0f0-40ec-b6c6-8948c992d932"},"vehicle_type_id":"4","last_reported":1747574333,"current_range_meters":12800,"station_id":"ce4bhm12rcd13ifvqgkg","pricing_plan_id":"cebpf4jnsgd1na2vs0mg"},{"bike_id":"9f495259-929a-415b-acfb-24d1a8ab8c9e","system_id":"levelo_inurba_marseille","lat":43.23187,"lon":5.35584,"is_reserved":false,"is_disabled":false,"rental_uris":{"android":"levelo://app?vid=9f495259-929a-415b-acfb-24d1a8ab8c9e","ios":"levelo://app?vid=9f495259-929a-415b-acfb-24d1a8ab8c9e"},"vehicle_type_id":"4","last_reported":1747574333,"current_range_meters":12800,"station_id":"ce4bhu92rcd13ifvqi70","pricing_plan_id":"cebpf4jnsgd1na2vs0mg"},{"bike_id":"bf94a327-817c-47af-ae08-ba3fd3be80a2","system_id":"levelo_inurba_marseille","lat":43.2481,"lon":5.37454,"is_reserved":false,"is_disabled":false,"rental_uris":{"android":"levelo://app?vid=bf94a327-817c-47af-ae08-ba3fd3be80a2","ios":"levelo://app?vid=bf94a327-817c-47af-ae08-ba3fd3be80a2"},"vehicle_type_id":"4","last_reported":1747574333,"current_range_meters":12800,"station_id":"ce4bhgh2rcd13ifvqfb0","pricing_plan_id":"cebpf4jnsgd1na2vs0mg"},{"bike_id":"e8c092b6-ea1e-49b4-86f2-ae6140f06f6f","system_id":"levelo_inurba_marseille","lat":43.289192,"lon":5.383954,"is_reserved":false,"is_disabled":true,"rental_uris":{"android":"levelo://app?vid=e8c092b6-ea1e-49b4-86f2-ae6140f06f6f","ios":"levelo://app?vid=e8c092b6-ea1e-49b4-86f2-ae6140f06f6f"},"vehicle_type_id":"4","last_reported":1747574333,"current_range_meters":12800,"station_id":"","pricing_plan_id":"cebpf4jnsgd1na2vs0mg"},{"bike_id":"438875f9-207b-406f-879a-72b6ca1f62d6","system_id":"levelo_inurba_marseille","lat":43.25498,"lon":5.37644,"is_reserved":false,"is_disabled":false,"rental_uris":{"android":"levelo://app?vid=438875f9-207b-406f-879a-72b6ca1f62d6","ios":"levelo://app?vid=438875f9-207b-406f-879a-72b6ca1f62d6"},"vehicle_type_id":"4","last_reported":1747574333,"current_range_meters":12800,"station_id":"ce4bhh12rcd13ifvqff0","pricing_plan_id":"cebpf4jnsgd1na2vs0mg"},{"bike_id":"327f6d26-98fa-4ddd-a2e6-c668a915c9b3","system_id":"levelo_inurba_marseille","lat":43.28409,"lon":5.34988,"is_reserved":false,"is_disabled":false,"rental_uris":{"android":"levelo://app?vid=327f6d26-98fa-4ddd-a2e6-c668a915c9b3","ios":"levelo://app?vid=327f6d26-98fa-4ddd-a2e6-c668a915c9b3"},"vehicle_type_id":"4","last_reported":1747574333,"current_range_meters":13600,"station_id":"ce4bhbh2rcd13ifvqepg","pricing_plan_id":"cebpf4jnsgd1na2vs0mg"},{"bike_id":"068c2813-7fd2-4239-afcd-4c47c8962183","system_id":"levelo_inurba_marseille","lat":43.28622,"lon":5.351,"is_reserved":false,"is_disabled":false,"rental_uris":{"android":"levelo://app?vid=068c2813-7fd2-4239-afcd-4c47c8962183","ios":"levelo://app?vid=068c2813-7fd2-4239-afcd-4c47c8962183"},"vehicle_type_id":"4","last_reported":1747574333,"current_range_meters":13600,"station_id":"ce4bhch2rcd13ifvqeug","pricing_plan_id":"cebpf4jnsgd1na2vs0mg"},{"bike_id":"8c33a95f-90c5-4528-8850-73684fb06dad","system_id":"levelo_inurba_marseille","lat":43.23961,"lon":5.36664,"is_reserved":false,"is_disabled":false,"rental_uris":{"android":"levelo://app?vid=8c33a95f-90c5-4528-8850-73684fb06dad","ios":"levelo://app?vid=8c33a95f-90c5-4528-8850-73684fb06dad"},"vehicle_type_id":"4","last_reported":1747574333,"current_range_meters":13600,"station_id":"ce4bhi12rcd13ifvqfp0","pricing_plan_id":"cebpf4jnsgd1na2vs0mg"},{"bike_id":"1226a745-d765-46c5-8a83-a8a29b839961","system_id":"levelo_inurba_marseille","lat":43.28593,"lon":5.35109,"is_reserved":false,"is_disabled":false,"rental_uris":{"android":"levelo://app?vid=1226a745-d765-46c5-8a83-a8a29b839961","ios":"levelo://app?vid=1226a745-d765-46c5-8a83-a8a29b839961"},"vehicle_type_id":"4","last_reported":1747574333,"current_range_meters":13600,"station_id":"ce4bhch2rcd13ifvqeug","pricing_plan_id":"cebpf4jnsgd1na2vs0mg"},{"bike_id":"01c6b9c4-99fa-41f1-87d1-dd9be28d4334","system_id":"levelo_inurba_marseille","lat":43.21745,"lon":5.34604,"is_reserved":false,"is_disabled":false,"rental_uris":{"android":"levelo://app?vid=01c6b9c4-99fa-41f1-87d1-dd9be28d4334","ios":"levelo://app?vid=01c6b9c4-99fa-41f1-87d1-dd9be28d4334"},"vehicle_type_id":"4","last_reported":1747574333,"current_range_meters":13600,"station_id":"st_cvj6r9ubvosntc0bgbag","pricing_plan_id":"cebpf4jnsgd1na2vs0mg"},{"bike_id":"278ccf48-bc40-40a2-9e40-44c6a4e1f787","system_id":"levelo_inurba_marseille","lat":43.30797,"lon":5.36989,"is_reserved":false,"is_disabled":false,"rental_uris":{"android":"levelo://app?vid=278ccf48-bc40-40a2-9e40-44c6a4e1f787","ios":"levelo://app?vid=278ccf48-bc40-40a2-9e40-44c6a4e1f787"},"vehicle_type_id":"4","last_reported":1747574333,"current_range_meters":13600,"station_id":"","pricing_plan_id":"cebpf4jnsgd1na2vs0mg"},{"bike_id":"1b0a1e8a-ffde-4e7f-89df-30cb05302c74","system_id":"levelo_inurba_marseille","lat":43.211942,"lon":5.350794,"is_reserved":false,"is_disabled":false,"rental_uris":{"android":"levelo://app?vid=1b0a1e8a-ffde-4e7f-89df-30cb05302c74","ios":"levelo://app?vid=1b0a1e8a-ffde-4e7f-89df-30cb05302c74"},"vehicle_type_id":"4","last_reported":1747574333,"current_range_meters":13600,"station_id":"","pricing_plan_id":"cebpf4jnsgd1na2vs0mg"},{"bike_id":"720730e4-c4ad-4e7a-8a9c-436b6eeaaa65","system_id":"levelo_inurba_marseille","lat":43.2679,"lon":5.39422,"is_reserved":false,"is_disabled":false,"rental_uris":{"android":"levelo://app?vid=720730e4-c4ad-4e7a-8a9c-436b6eeaaa65","ios":"levelo://app?vid=720730e4-c4ad-4e7a-8a9c-436b6eeaaa65"},"vehicle_type_id":"4","last_reported":1747574333,"current_range_meters":12400,"station_id":"ce4bhh12rcd13ifvqfg0","pricing_plan_id":"cebpf4jnsgd1na2vs0mg"},{"bike_id":"d8da70fb-a079-460a-9e23-65ed45fe0088","system_id":"levelo_inurba_marseille","lat":43.254944,"lon":5.376594,"is_reserved":false,"is_disabled":true,"rental_uris":{"android":"levelo://app?vid=d8da70fb-a079-460a-9e23-65ed45fe0088","ios":"levelo://app?vid=d8da70fb-a079-460a-9e23-65ed45fe0088"},"vehicle_type_id":"4","last_reported":1747574333,"current_range_meters":14000,"station_id":"ce4bhh12rcd13ifvqff0","pricing_plan_id":"cebpf4jnsgd1na2vs0mg"},{"bike_id":"8344f87c-9dde-43c7-adcf-db60f3048a09","system_id":"levelo_inurba_marseille","lat":43.31172,"lon":5.3871,"is_reserved":false,"is_disabled":false,"rental_uris":{"android":"levelo://app?vid=8344f87c-9dde-43c7-adcf-db60f3048a09","ios":"levelo://app?vid=8344f87c-9dde-43c7-adcf-db60f3048a09"},"vehicle_type_id":"4","last_reported":1747574333,"current_range_meters":14000,"station_id":"ce4bgv12rcd13ifvqcp0","pricing_plan_id":"cebpf4jnsgd1na2vs0mg"},{"bike_id":"84eb87a4-3c1a-4d12-989d-fbeb6bea8f95","system_id":"levelo_inurba_marseille","lat":43.27371,"lon":5.36247,"is_reserved":false,"is_disabled":false,"rental_uris":{"android":"levelo://app?vid=84eb87a4-3c1a-4d12-989d-fbeb6bea8f95","ios":"levelo://app?vid=84eb87a4-3c1a-4d12-989d-fbeb6bea8f95"},"vehicle_type_id":"4","last_reported":1747574333,"current_range_meters":14000,"station_id":"ce4bhbh2rcd13ifvqeo0","pricing_plan_id":"cebpf4jnsgd1na2vs0mg"},{"bike_id":"51736835-8128-4840-b526-bf33d386a6e7","system_id":"levelo_inurba_marseille","lat":43.29906,"lon":5.43657,"is_reserved":false,"is_disabled":true,"rental_uris":{"android":"levelo://app?vid=51736835-8128-4840-b526-bf33d386a6e7","ios":"levelo://app?vid=51736835-8128-4840-b526-bf33d386a6e7"},"vehicle_type_id":"4","last_reported":1747574333,"current_range_meters":14000,"station_id":"ce4bhpp2rcd13ifvqhfg","pricing_plan_id":"cebpf4jnsgd1na2vs0mg"},{"bike_id":"814e2930-a412-47af-849d-26da2abc07f6","system_id":"levelo_inurba_marseille","lat":43.27808,"lon":5.40785,"is_reserved":false,"is_disabled":true,"rental_uris":{"android":"levelo://app?vid=814e2930-a412-47af-849d-26da2abc07f6","ios":"levelo://app?vid=814e2930-a412-47af-849d-26da2abc07f6"},"vehicle_type_id":"4","last_reported":1747574333,"current_range_meters":14000,"station_id":"ce4bhnh2rcd13ifvqgtg","pricing_plan_id":"cebpf4jnsgd1na2vs0mg"},{"bike_id":"1c33b4fe-2443-46fa-9df1-e4b417c295eb","system_id":"levelo_inurba_marseille","lat":43.23063,"lon":5.35479,"is_reserved":false,"is_disabled":false,"rental_uris":{"android":"levelo://app?vid=1c33b4fe-2443-46fa-9df1-e4b417c295eb","ios":"levelo://app?vid=1c33b4fe-2443-46fa-9df1-e4b417c295eb"},"vehicle_type_id":"4","last_reported":1747574333,"current_range_meters":14400,"station_id":"cpo3342slgdg3j2ifvpg","pricing_plan_id":"cebpf4jnsgd1na2vs0mg"},{"bike_id":"74399fdb-270c-45ce-ad32-b252fe204f69","system_id":"levelo_inurba_marseille","lat":43.235972,"lon":5.361687,"is_reserved":false,"is_disabled":false,"rental_uris":{"android":"levelo://app?vid=74399fdb-270c-45ce-ad32-b252fe204f69","ios":"levelo://app?vid=74399fdb-270c-45ce-ad32-b252fe204f69"},"vehicle_type_id":"4","last_reported":1747574333,"current_range_meters":14400,"station_id":"ce4bhu92rcd13ifvqi70","pricing_plan_id":"cebpf4jnsgd1na2vs0mg"},{"bike_id":"f66cad1d-ce37-43fc-a085-01f09fc04611","system_id":"levelo_inurba_marseille","lat":43.22938,"lon":5.35374,"is_reserved":false,"is_disabled":false,"rental_uris":{"android":"levelo://app?vid=f66cad1d-ce37-43fc-a085-01f09fc04611","ios":"levelo://app?vid=f66cad1d-ce37-43fc-a085-01f09fc04611"},"vehicle_type_id":"4","last_reported":1747574333,"current_range_meters":14400,"station_id":"cpo3532slgdg3j2ikp40","pricing_plan_id":"cebpf4jnsgd1na2vs0mg"},{"bike_id":"12c4d802-2c6a-4c71-888e-000ffe312a3f","system_id":"levelo_inurba_marseille","lat":43.32344,"lon":5.36741,"is_reserved":false,"is_disabled":false,"rental_uris":{"android":"levelo://app?vid=12c4d802-2c6a-4c71-888e-000ffe312a3f","ios":"levelo://app?vid=12c4d802-2c6a-4c71-888e-000ffe312a3f"},"vehicle_type_id":"4","last_reported":1747574333,"current_range_meters":14400,"station_id":"ce4bhsh2rcd13ifvqi2g","pricing_plan_id":"cebpf4jnsgd1na2vs0mg"},{"bike_id":"8b77cf3d-d1aa-41a3-807f-16573c2c68fc","system_id":"levelo_inurba_marseille","lat":43.27623,"lon":5.36107,"is_reserved":false,"is_disabled":false,"rental_uris":{"android":"levelo://app?vid=8b77cf3d-d1aa-41a3-807f-16573c2c68fc","ios":"levelo://app?vid=8b77cf3d-d1aa-41a3-807f-16573c2c68fc"},"vehicle_type_id":"4","last_reported":1747574333,"current_range_meters":14400,"station_id":"ce4bgj92rcd13ifvqbe0","pricing_plan_id":"cebpf4jnsgd1na2vs0mg"},{"bike_id":"168ff632-117e-4c12-8961-89fb008f2faf","system_id":"levelo_inurba_marseille","lat":43.27216,"lon":5.39183,"is_reserved":false,"is_disabled":true,"rental_uris":{"android":"levelo://app?vid=168ff632-117e-4c12-8961-89fb008f2faf","ios":"levelo://app?vid=168ff632-117e-4c12-8961-89fb008f2faf"},"vehicle_type_id":"4","last_reported":1747574333,"current_range_meters":14800,"station_id":"ce4bhhp2rcd13ifvqfm0","pricing_plan_id":"cebpf4jnsgd1na2vs0mg"},{"bike_id":"35cfc900-5d4f-4761-a460-1b6fcd078966","system_id":"levelo_inurba_marseille","lat":43.26196,"lon":5.37911,"is_reserved":false,"is_disabled":false,"rental_uris":{"android":"levelo://app?vid=35cfc900-5d4f-4761-a460-1b6fcd078966","ios":"levelo://app?vid=35cfc900-5d4f-4761-a460-1b6fcd078966"},"vehicle_type_id":"4","last_reported":1747574333,"current_range_meters":14400,"station_id":"ce4bhjp2rcd13ifvqg90","pricing_plan_id":"cebpf4jnsgd1na2vs0mg"},{"bike_id":"67f72f62-eb9d-4994-bbcf-c10b28dd838c","system_id":"levelo_inurba_marseille","lat":43.26583,"lon":5.39338,"is_reserved":false,"is_disabled":false,"rental_uris":{"android":"levelo://app?vid=67f72f62-eb9d-4994-bbcf-c10b28dd838c","ios":"levelo://app?vid=67f72f62-eb9d-4994-bbcf-c10b28dd838c"},"vehicle_type_id":"4","last_reported":1747574333,"current_range_meters":14800,"station_id":"","pricing_plan_id":"cebpf4jnsgd1na2vs0mg"},{"bike_id":"1feb9cd1-1982-4831-8055-b0bc15156d8c","system_id":"levelo_inurba_marseille","lat":43.2756,"lon":5.38435,"is_reserved":false,"is_disabled":false,"rental_uris":{"android":"levelo://app?vid=1feb9cd1-1982-4831-8055-b0bc15156d8c","ios":"levelo://app?vid=1feb9cd1-1982-4831-8055-b0bc15156d8c"},"vehicle_type_id":"4","last_reported":1747574333,"current_range_meters":14400,"station_id":"ce4bhh92rcd13ifvqfi0","pricing_plan_id":"cebpf4jnsgd1na2vs0mg"},{"bike_id":"98138392-cfa0-484d-b06e-c8ef04ffa389","system_id":"levelo_inurba_marseille","lat":43.24168,"lon":5.36395,"is_reserved":false,"is_disabled":false,"rental_uris":{"android":"levelo://app?vid=98138392-cfa0-484d-b06e-c8ef04ffa389","ios":"levelo://app?vid=98138392-cfa0-484d-b06e-c8ef04ffa389"},"vehicle_type_id":"4","last_reported":1747574333,"current_range_meters":14800,"station_id":"cpo36qri1sfpv3e86is0","pricing_plan_id":"cebpf4jnsgd1na2vs0mg"},{"bike_id":"4e226aff-cee9-43f3-800d-074a07184a90","system_id":"levelo_inurba_marseille","lat":43.32287,"lon":5.382752,"is_reserved":false,"is_disabled":false,"rental_uris":{"android":"levelo://app?vid=4e226aff-cee9-43f3-800d-074a07184a90","ios":"levelo://app?vid=4e226aff-cee9-43f3-800d-074a07184a90"},"vehicle_type_id":"4","last_reported":1747574333,"current_range_meters":14800,"station_id":"ce4bhr12rcd13ifvqhqg","pricing_plan_id":"cebpf4jnsgd1na2vs0mg"},{"bike_id":"1bba5bdb-ad8e-4a71-b70d-de2728ffb94d","system_id":"levelo_inurba_marseille","lat":43.22489,"lon":5.34871,"is_reserved":false,"is_disabled":false,"rental_uris":{"android":"levelo://app?vid=1bba5bdb-ad8e-4a71-b70d-de2728ffb94d","ios":"levelo://app?vid=1bba5bdb-ad8e-4a71-b70d-de2728ffb94d"},"vehicle_type_id":"4","last_reported":1747574333,"current_range_meters":14800,"station_id":"","pricing_plan_id":"cebpf4jnsgd1na2vs0mg"},{"bike_id":"33fcd34d-24bc-4dcf-91c5-6b01f589ab2e","system_id":"levelo_inurba_marseille","lat":43.24069,"lon":5.37757,"is_reserved":false,"is_disabled":false,"rental_uris":{"android":"levelo://app?vid=33fcd34d-24bc-4dcf-91c5-6b01f589ab2e","ios":"levelo://app?vid=33fcd34d-24bc-4dcf-91c5-6b01f589ab2e"},"vehicle_type_id":"4","last_reported":1747574333,"current_range_meters":14800,"station_id":"ce4bhnp2rcd13ifvqgvg","pricing_plan_id":"cebpf4jnsgd1na2vs0mg"},{"bike_id":"ed34fad4-c48e-4c1a-b9b1-8eb1cd77d573","system_id":"levelo_inurba_marseille","lat":43.30922,"lon":5.38651,"is_reserved":false,"is_disabled":false,"rental_uris":{"android":"levelo://app?vid=ed34fad4-c48e-4c1a-b9b1-8eb1cd77d573","ios":"levelo://app?vid=ed34fad4-c48e-4c1a-b9b1-8eb1cd77d573"},"vehicle_type_id":"4","last_reported":1747574333,"current_range_meters":14800,"station_id":"ce4bgv12rcd13ifvqcp0","pricing_plan_id":"cebpf4jnsgd1na2vs0mg"},{"bike_id":"7be288ce-3f4b-475b-a64b-e986d6f3ae1b","system_id":"levelo_inurba_marseille","lat":43.2455,"lon":5.39519,"is_reserved":false,"is_disabled":false,"rental_uris":{"android":"levelo://app?vid=7be288ce-3f4b-475b-a64b-e986d6f3ae1b","ios":"levelo://app?vid=7be288ce-3f4b-475b-a64b-e986d6f3ae1b"},"vehicle_type_id":"4","last_reported":1747574333,"current_range_meters":14800,"station_id":"ce4bhlp2rcd13ifvqgjg","pricing_plan_id":"cebpf4jnsgd1na2vs0mg"},{"bike_id":"2d43dba1-6ff7-4289-91c8-c617d5aac932","system_id":"levelo_inurba_marseille","lat":43.295716,"lon":5.374921,"is_reserved":false,"is_disabled":true,"rental_uris":{"android":"levelo://app?vid=2d43dba1-6ff7-4289-91c8-c617d5aac932","ios":"levelo://app?vid=2d43dba1-6ff7-4289-91c8-c617d5aac932"},"vehicle_type_id":"4","last_reported":1747574333,"current_range_meters":15200,"station_id":"ce4bgh92rcd13ifvqb50","pricing_plan_id":"cebpf4jnsgd1na2vs0mg"},{"bike_id":"7e51c783-7282-47be-b939-67f3cf3f0703","system_id":"levelo_inurba_marseille","lat":43.2511,"lon":5.40313,"is_reserved":false,"is_disabled":false,"rental_uris":{"android":"levelo://app?vid=7e51c783-7282-47be-b939-67f3cf3f0703","ios":"levelo://app?vid=7e51c783-7282-47be-b939-67f3cf3f0703"},"vehicle_type_id":"4","last_reported":1747574333,"current_range_meters":15200,"station_id":"ce4bhlh2rcd13ifvqgig","pricing_plan_id":"cebpf4jnsgd1na2vs0mg"},{"bike_id":"bf2b2bfb-9733-4bda-908d-03391ae976cc","system_id":"levelo_inurba_marseille","lat":43.31194,"lon":5.41642,"is_reserved":false,"is_disabled":false,"rental_uris":{"android":"levelo://app?vid=bf2b2bfb-9733-4bda-908d-03391ae976cc","ios":"levelo://app?vid=bf2b2bfb-9733-4bda-908d-03391ae976cc"},"vehicle_type_id":"4","last_reported":1747574333,"current_range_meters":15200,"station_id":"","pricing_plan_id":"cebpf4jnsgd1na2vs0mg"},{"bike_id":"f0e132cf-91c0-4bbd-95f6-c58ec1763709","system_id":"levelo_inurba_marseille","lat":43.21202,"lon":5.35079,"is_reserved":false,"is_disabled":false,"rental_uris":{"android":"levelo://app?vid=f0e132cf-91c0-4bbd-95f6-c58ec1763709","ios":"levelo://app?vid=f0e132cf-91c0-4bbd-95f6-c58ec1763709"},"vehicle_type_id":"4","last_reported":1747574333,"current_range_meters":15200,"station_id":"st_cvj6sg6p6f1abm77japg","pricing_plan_id":"cebpf4jnsgd1na2vs0mg"},{"bike_id":"86603db7-b462-4e72-8622-a2dee8bb2920","system_id":"levelo_inurba_marseille","lat":43.337444,"lon":5.374475,"is_reserved":false,"is_disabled":false,"rental_uris":{"android":"levelo://app?vid=86603db7-b462-4e72-8622-a2dee8bb2920","ios":"levelo://app?vid=86603db7-b462-4e72-8622-a2dee8bb2920"},"vehicle_type_id":"4","last_reported":1747574333,"current_range_meters":15200,"station_id":"","pricing_plan_id":"cebpf4jnsgd1na2vs0mg"},{"bike_id":"19456222-7d38-48cf-a950-06daadd07927","system_id":"levelo_inurba_marseille","lat":43.2503,"lon":5.37522,"is_reserved":false,"is_disabled":false,"rental_uris":{"android":"levelo://app?vid=19456222-7d38-48cf-a950-06daadd07927","ios":"levelo://app?vid=19456222-7d38-48cf-a950-06daadd07927"},"vehicle_type_id":"4","last_reported":1747574333,"current_range_meters":16000,"station_id":"","pricing_plan_id":"cebpf4jnsgd1na2vs0mg"},{"bike_id":"fa1838ce-0b76-4a7d-b4cf-2536246f0cf2","system_id":"levelo_inurba_marseille","lat":43.28258,"lon":5.3507,"is_reserved":false,"is_disabled":false,"rental_uris":{"android":"levelo://app?vid=fa1838ce-0b76-4a7d-b4cf-2536246f0cf2","ios":"levelo://app?vid=fa1838ce-0b76-4a7d-b4cf-2536246f0cf2"},"vehicle_type_id":"4","last_reported":1747574333,"current_range_meters":16000,"station_id":"ce4bhbp2rcd13ifvqerg","pricing_plan_id":"cebpf4jnsgd1na2vs0mg"},{"bike_id":"e30bd62c-93cf-4589-abad-553544439191","system_id":"levelo_inurba_marseille","lat":43.2841,"lon":5.34982,"is_reserved":false,"is_disabled":false,"rental_uris":{"android":"levelo://app?vid=e30bd62c-93cf-4589-abad-553544439191","ios":"levelo://app?vid=e30bd62c-93cf-4589-abad-553544439191"},"vehicle_type_id":"4","last_reported":1747574333,"current_range_meters":16000,"station_id":"ce4bhbh2rcd13ifvqepg","pricing_plan_id":"cebpf4jnsgd1na2vs0mg"},{"bike_id":"b96a4e7c-0de7-41da-b086-8b5a8e70a687","system_id":"levelo_inurba_marseille","lat":43.2721,"lon":5.39184,"is_reserved":false,"is_disabled":true,"rental_uris":{"android":"levelo://app?vid=b96a4e7c-0de7-41da-b086-8b5a8e70a687","ios":"levelo://app?vid=b96a4e7c-0de7-41da-b086-8b5a8e70a687"},"vehicle_type_id":"4","last_reported":1747574333,"current_range_meters":16000,"station_id":"ce4bhhp2rcd13ifvqfm0","pricing_plan_id":"cebpf4jnsgd1na2vs0mg"},{"bike_id":"315410c9-6a65-4ebd-a50c-489e9fc18e24","system_id":"levelo_inurba_marseille","lat":43.310813,"lon":5.424317,"is_reserved":false,"is_disabled":false,"rental_uris":{"android":"levelo://app?vid=315410c9-6a65-4ebd-a50c-489e9fc18e24","ios":"levelo://app?vid=315410c9-6a65-4ebd-a50c-489e9fc18e24"},"vehicle_type_id":"4","last_reported":1747574333,"current_range_meters":16000,"station_id":"ce4bhp92rcd13ifvqhag","pricing_plan_id":"cebpf4jnsgd1na2vs0mg"},{"bike_id":"a675f4e5-fc13-43cf-92f6-6acfa57913c0","system_id":"levelo_inurba_marseille","lat":43.290267,"lon":5.381324,"is_reserved":false,"is_disabled":true,"rental_uris":{"android":"levelo://app?vid=a675f4e5-fc13-43cf-92f6-6acfa57913c0","ios":"levelo://app?vid=a675f4e5-fc13-43cf-92f6-6acfa57913c0"},"vehicle_type_id":"4","last_reported":1747574333,"current_range_meters":16000,"station_id":"ce4bh4p2rcd13ifvqe1g","pricing_plan_id":"cebpf4jnsgd1na2vs0mg"},{"bike_id":"d064df0f-4483-4dd0-9850-9a2f51658c62","system_id":"levelo_inurba_marseille","lat":43.21189,"lon":5.35075,"is_reserved":false,"is_disabled":true,"rental_uris":{"android":"levelo://app?vid=d064df0f-4483-4dd0-9850-9a2f51658c62","ios":"levelo://app?vid=d064df0f-4483-4dd0-9850-9a2f51658c62"},"vehicle_type_id":"4","last_reported":1747574333,"current_range_meters":16000,"station_id":"st_cvj6sg6p6f1abm77japg","pricing_plan_id":"cebpf4jnsgd1na2vs0mg"},{"bike_id":"7e85683c-0527-4a85-9ab8-35d06ff2f9ad","system_id":"levelo_inurba_marseille","lat":43.294213,"lon":5.386153,"is_reserved":false,"is_disabled":true,"rental_uris":{"android":"levelo://app?vid=7e85683c-0527-4a85-9ab8-35d06ff2f9ad","ios":"levelo://app?vid=7e85683c-0527-4a85-9ab8-35d06ff2f9ad"},"vehicle_type_id":"4","last_reported":1747574333,"current_range_meters":16000,"station_id":"ce4bh2h2rcd13ifvqdh0","pricing_plan_id":"cebpf4jnsgd1na2vs0mg"},{"bike_id":"cb2ce900-9aef-4b6b-b404-5139005040f7","system_id":"levelo_inurba_marseille","lat":43.30532,"lon":5.36702,"is_reserved":false,"is_disabled":false,"rental_uris":{"android":"levelo://app?vid=cb2ce900-9aef-4b6b-b404-5139005040f7","ios":"levelo://app?vid=cb2ce900-9aef-4b6b-b404-5139005040f7"},"vehicle_type_id":"4","last_reported":1747574333,"current_range_meters":16000,"station_id":"ce4bgrp2rcd13ifvqc9g","pricing_plan_id":"cebpf4jnsgd1na2vs0mg"},{"bike_id":"1bbca78a-c83f-4de6-934f-aa529128ce36","system_id":"levelo_inurba_marseille","lat":43.24155,"lon":5.36414,"is_reserved":false,"is_disabled":false,"rental_uris":{"android":"levelo://app?vid=1bbca78a-c83f-4de6-934f-aa529128ce36","ios":"levelo://app?vid=1bbca78a-c83f-4de6-934f-aa529128ce36"},"vehicle_type_id":"4","last_reported":1747574333,"current_range_meters":16000,"station_id":"cpo36qri1sfpv3e86is0","pricing_plan_id":"cebpf4jnsgd1na2vs0mg"},{"bike_id":"1f9dc5c3-153b-4661-9164-d43de5d8f67c","system_id":"levelo_inurba_marseille","lat":43.271755,"lon":5.409985,"is_reserved":false,"is_disabled":false,"rental_uris":{"android":"levelo://app?vid=1f9dc5c3-153b-4661-9164-d43de5d8f67c","ios":"levelo://app?vid=1f9dc5c3-153b-4661-9164-d43de5d8f67c"},"vehicle_type_id":"4","last_reported":1747574333,"current_range_meters":16000,"station_id":"ce4bhl12rcd13ifvqgf0","pricing_plan_id":"cebpf4jnsgd1na2vs0mg"},{"bike_id":"d3acc3d8-5f5a-46d9-8de1-ce11324a39c4","system_id":"levelo_inurba_marseille","lat":43.23148,"lon":5.43714,"is_reserved":false,"is_disabled":false,"rental_uris":{"android":"levelo://app?vid=d3acc3d8-5f5a-46d9-8de1-ce11324a39c4","ios":"levelo://app?vid=d3acc3d8-5f5a-46d9-8de1-ce11324a39c4"},"vehicle_type_id":"4","last_reported":1747574333,"current_range_meters":16000,"station_id":"ce4bhmp2rcd13ifvqgog","pricing_plan_id":"cebpf4jnsgd1na2vs0mg"},{"bike_id":"ddd4b635-a9b7-4bb8-a716-ca3e148a2b25","system_id":"levelo_inurba_marseille","lat":43.28421,"lon":5.34982,"is_reserved":false,"is_disabled":false,"rental_uris":{"android":"levelo://app?vid=ddd4b635-a9b7-4bb8-a716-ca3e148a2b25","ios":"levelo://app?vid=ddd4b635-a9b7-4bb8-a716-ca3e148a2b25"},"vehicle_type_id":"4","last_reported":1747574333,"current_range_meters":16000,"station_id":"ce4bhbh2rcd13ifvqepg","pricing_plan_id":"cebpf4jnsgd1na2vs0mg"},{"bike_id":"e347a7e0-259e-4073-b09f-d9e3873701b0","system_id":"levelo_inurba_marseille","lat":43.24168,"lon":5.36395,"is_reserved":false,"is_disabled":false,"rental_uris":{"android":"levelo://app?vid=e347a7e0-259e-4073-b09f-d9e3873701b0","ios":"levelo://app?vid=e347a7e0-259e-4073-b09f-d9e3873701b0"},"vehicle_type_id":"4","last_reported":1747574333,"current_range_meters":16000,"station_id":"cpo36qri1sfpv3e86is0","pricing_plan_id":"cebpf4jnsgd1na2vs0mg"},{"bike_id":"bcbdbd69-7be8-42f8-a855-a4358565de8f","system_id":"levelo_inurba_marseille","lat":43.27741,"lon":5.41401,"is_reserved":false,"is_disabled":false,"rental_uris":{"android":"levelo://app?vid=bcbdbd69-7be8-42f8-a855-a4358565de8f","ios":"levelo://app?vid=bcbdbd69-7be8-42f8-a855-a4358565de8f"},"vehicle_type_id":"4","last_reported":1747574333,"current_range_meters":16400,"station_id":"","pricing_plan_id":"cebpf4jnsgd1na2vs0mg"},{"bike_id":"c4941191-ee7a-4d11-b6b6-5bf2048a3483","system_id":"levelo_inurba_marseille","lat":43.2957,"lon":5.37523,"is_reserved":false,"is_disabled":false,"rental_uris":{"android":"levelo://app?vid=c4941191-ee7a-4d11-b6b6-5bf2048a3483","ios":"levelo://app?vid=c4941191-ee7a-4d11-b6b6-5bf2048a3483"},"vehicle_type_id":"4","last_reported":1747574333,"current_range_meters":16400,"station_id":"ce4bgh92rcd13ifvqb50","pricing_plan_id":"cebpf4jnsgd1na2vs0mg"},{"bike_id":"60a4ef8d-92aa-4d82-ace2-2ec46087f3e3","system_id":"levelo_inurba_marseille","lat":43.24162,"lon":5.3643,"is_reserved":false,"is_disabled":false,"rental_uris":{"android":"levelo://app?vid=60a4ef8d-92aa-4d82-ace2-2ec46087f3e3","ios":"levelo://app?vid=60a4ef8d-92aa-4d82-ace2-2ec46087f3e3"},"vehicle_type_id":"4","last_reported":1747574333,"current_range_meters":16400,"station_id":"cpo36qri1sfpv3e86is0","pricing_plan_id":"cebpf4jnsgd1na2vs0mg"},{"bike_id":"842b63b4-ed0b-46f3-b42a-d9f22c2aa509","system_id":"levelo_inurba_marseille","lat":43.21739,"lon":5.34599,"is_reserved":false,"is_disabled":false,"rental_uris":{"android":"levelo://app?vid=842b63b4-ed0b-46f3-b42a-d9f22c2aa509","ios":"levelo://app?vid=842b63b4-ed0b-46f3-b42a-d9f22c2aa509"},"vehicle_type_id":"4","last_reported":1747574333,"current_range_meters":16400,"station_id":"st_cvj6r9ubvosntc0bgbag","pricing_plan_id":"cebpf4jnsgd1na2vs0mg"},{"bike_id":"4ccaa6a3-853a-434b-a7a8-600288bb2729","system_id":"levelo_inurba_marseille","lat":43.28609,"lon":5.37065,"is_reserved":false,"is_disabled":false,"rental_uris":{"android":"levelo://app?vid=4ccaa6a3-853a-434b-a7a8-600288bb2729","ios":"levelo://app?vid=4ccaa6a3-853a-434b-a7a8-600288bb2729"},"vehicle_type_id":"4","last_reported":1747574333,"current_range_meters":16800,"station_id":"ce4bht12rcd13ifvqi60","pricing_plan_id":"cebpf4jnsgd1na2vs0mg"},{"bike_id":"cbf22af3-6c8f-4023-8971-3961263cafe8","system_id":"levelo_inurba_marseille","lat":43.28706,"lon":5.37399,"is_reserved":false,"is_disabled":true,"rental_uris":{"android":"levelo://app?vid=cbf22af3-6c8f-4023-8971-3961263cafe8","ios":"levelo://app?vid=cbf22af3-6c8f-4023-8971-3961263cafe8"},"vehicle_type_id":"4","last_reported":1747574333,"current_range_meters":16800,"station_id":"ce4bh3p2rcd13ifvqdq0","pricing_plan_id":"cebpf4jnsgd1na2vs0mg"},{"bike_id":"e1d50fe4-3c21-4818-a37e-7781c1f77dde","system_id":"levelo_inurba_marseille","lat":43.23959,"lon":5.36653,"is_reserved":false,"is_disabled":false,"rental_uris":{"android":"levelo://app?vid=e1d50fe4-3c21-4818-a37e-7781c1f77dde","ios":"levelo://app?vid=e1d50fe4-3c21-4818-a37e-7781c1f77dde"},"vehicle_type_id":"4","last_reported":1747574333,"current_range_meters":16800,"station_id":"ce4bhi12rcd13ifvqfp0","pricing_plan_id":"cebpf4jnsgd1na2vs0mg"},{"bike_id":"5c16f8a4-ad8b-4bf1-891b-229b882d6b9a","system_id":"levelo_inurba_marseille","lat":43.239677,"lon":5.366312,"is_reserved":false,"is_disabled":false,"rental_uris":{"android":"levelo://app?vid=5c16f8a4-ad8b-4bf1-891b-229b882d6b9a","ios":"levelo://app?vid=5c16f8a4-ad8b-4bf1-891b-229b882d6b9a"},"vehicle_type_id":"4","last_reported":1747574333,"current_range_meters":16800,"station_id":"ce4bhi12rcd13ifvqfp0","pricing_plan_id":"cebpf4jnsgd1na2vs0mg"},{"bike_id":"0c381400-7980-4a4a-9ae9-9df9bb058a45","system_id":"levelo_inurba_marseille","lat":43.297651,"lon":5.365742,"is_reserved":false,"is_disabled":false,"rental_uris":{"android":"levelo://app?vid=0c381400-7980-4a4a-9ae9-9df9bb058a45","ios":"levelo://app?vid=0c381400-7980-4a4a-9ae9-9df9bb058a45"},"vehicle_type_id":"4","last_reported":1747574333,"current_range_meters":16800,"station_id":"ce4bgn12rcd13ifvqbt0","pricing_plan_id":"cebpf4jnsgd1na2vs0mg"},{"bike_id":"26ae3f71-446b-4d48-9715-d0cb78472fbf","system_id":"levelo_inurba_marseille","lat":43.31183,"lon":5.37013,"is_reserved":false,"is_disabled":false,"rental_uris":{"android":"levelo://app?vid=26ae3f71-446b-4d48-9715-d0cb78472fbf","ios":"levelo://app?vid=26ae3f71-446b-4d48-9715-d0cb78472fbf"},"vehicle_type_id":"4","last_reported":1747574333,"current_range_meters":16800,"station_id":"","pricing_plan_id":"cebpf4jnsgd1na2vs0mg"},{"bike_id":"5cef1fb9-3348-463a-a8cb-95ce950a4f6b","system_id":"levelo_inurba_marseille","lat":43.2176,"lon":5.34608,"is_reserved":false,"is_disabled":false,"rental_uris":{"android":"levelo://app?vid=5cef1fb9-3348-463a-a8cb-95ce950a4f6b","ios":"levelo://app?vid=5cef1fb9-3348-463a-a8cb-95ce950a4f6b"},"vehicle_type_id":"4","last_reported":1747574333,"current_range_meters":17200,"station_id":"st_cvj6r9ubvosntc0bgbag","pricing_plan_id":"cebpf4jnsgd1na2vs0mg"},