{"last_updated":1719079790,"ttl":30,"version":"2.2","data":{"bikes":[{"bike_id":"22d6a2a6-4c6f-4962-b15f-7cd715a60466","system_id":"levelo_inurba_marseille","lat":43.31341,"lon":5.367098,"is_reserved":false,"is_disabled":false,"rental_uris":{"android":"levelo://app?vid=22d6a2a6-4c6f-4962-b15f-7cd715a60466","ios":"levelo://app?vid=22d6a2a6-4c6f-4962-b15f-7cd715a60466"},"vehicle_type_id":"4","last_reported":1719079790,"current_range_meters":14000,"station_id":"ce4bgr92rcd13ifvqc6g","pricing_plan_id":"cebpf4jnsgd1na2vs0mg"},{"bike_id":"00ec5e40-bc07-4388-839e-c8143b5294d9","system_id":"levelo_inurba_marseille","lat":43.312239,"lon":5.368562,"is_reserved":false,"is_disabled":false,"rental_uris":{"android":"levelo://app?vid=00ec5e40-bc07-4388-839e-c8143b5294d9","ios":"levelo://app?vid=00ec5e40-bc07-4388-839e-c8143b5294d9"},"vehicle_type_id":"4","last_reported":1719079790,"current_range_meters":28800,"station_id":"ce4bgl92rcd13ifvqbq0","pricing_plan_id":"cebpf4jnsgd1na2vs0mg"},{"bike_id":"f044a52b-8b6e-40f2-89b2-6b57a727b342","system_id":"levelo_inurba_marseille","lat":43.31224,"lon":5.36865,"is_reserved":false,"is_disabled":false,"rental_uris":{"android":"levelo://app?vid=f044a52b-8b6e-40f2-89b2-6b57a727b342","ios":"levelo://app?vid=f044a52b-8b6e-40f2-89b2-6b57a727b342"},"vehicle_type_id":"4","last_reported":1719079790,"current_range_meters":15600,"station_id":"ce4bgl92rcd13ifvqbq0","pricing_plan_id":"cebpf4jnsgd1na2vs0mg"},{"bike_id":"24d509b5-ef37-465b-b8cc-6a71986a5c4f","system_id":"levelo_inurba_marseille","lat":43.308694,"lon":5.368064,"is_reserved":false,"is_disabled":false,"rental_uris":{"android":"levelo://app?vid=24d509b5-ef37-465b-b8cc-6a71986a5c4f","ios":"levelo://app?vid=24d509b5-ef37-465b-b8cc-6a71986a5c4f"},"vehicle_type_id":"4","last_reported":1719079790,"current_range_meters":20000,"station_id":"","pricing_plan_id":"cebpf4jnsgd1na2vs0mg"},{"bike_id":"20f31c62-307b-4c16-93b6-6fcc5accd677","system_id":"levelo_inurba_marseille","lat":43.31458,"lon":5.373641,"is_reserved":false,"is_disabled":false,"rental_uris":{"android":"levelo://app?vid=20f31c62-307b-4c16-93b6-6fcc5accd677","ios":"levelo://app?vid=20f31c62-307b-4c16-93b6-6fcc5accd677"},"vehicle_type_id":"4","last_reported":1719079790,"current_range_meters":15200,"station_id":"","pricing_plan_id":"cebpf4jnsgd1na2vs0mg"},{"bike_id":"a097e2f1-0b43-4c98-9658-d511f8f929e5","system_id":"levelo_inurba_marseille","lat":43.30547,"lon":5.36659,"is_reserved":false,"is_disabled":false,"rental_uris":{"android":"levelo://app?vid=a097e2f1-0b43-4c98-9658-d511f8f929e5","ios":"levelo://app?vid=a097e2f1-0b43-4c98-9658-d511f8f929e5"},"vehicle_type_id":"4","last_reported":1719079790,"current_range_meters":4800,"station_id":"","pricing_plan_id":"cebpf4jnsgd1na2vs0mg"},{"bike_id":"3e6229a9-daa1-4e8e-b7ec-60b28f97252f","system_id":"levelo_inurba_marseille","lat":43.30543,"lon":5.36657,"is_reserved":false,"is_disabled":false,"rental_uris":{"android":"levelo://app?vid=3e6229a9-daa1-4e8e-b7ec-60b28f97252f","ios":"levelo://app?vid=3e6229a9-daa1-4e8e-b7ec-60b28f97252f"},"vehicle_type_id":"4","last_reported":1719079790,"current_range_meters":2800,"station_id":"","pricing_plan_id":"cebpf4jnsgd1na2vs0mg"},{"bike_id":"14949a02-9014-47dd-86ad-edf10bbad455","system_id":"levelo_inurba_marseille","lat":43.305343,"lon":5.367042,"is_reserved":false,"is_disabled":false,"rental_uris":{"android":"levelo://app?vid=14949a02-9014-47dd-86ad-edf10bbad455","ios":"levelo://app?vid=14949a02-9014-47dd-86ad-edf10bbad455"},"vehicle_type_id":"4","last_reported":1719079790,"current_range_meters":30400,"station_id":"","pricing_plan_id":"cebpf4jnsgd1na2vs0mg"},{"bike_id":"a43e7e1e-e283-47ba-bb74-77104a25b45c","system_id":"levelo_inurba_marseille","lat":43.30532,"lon":5.36661,"is_reserved":false,"is_disabled":false,"rental_uris":{"android":"levelo://app?vid=a43e7e1e-e283-47ba-bb74-77104a25b45c","ios":"levelo://app?vid=a43e7e1e-e283-47ba-bb74-77104a25b45c"},"vehicle_type_id":"4","last_reported":1719079790,"current_range_meters":21200,"station_id":"","pricing_plan_id":"cebpf4jnsgd1na2vs0mg"},{"bike_id":"1f1dec8d-0516-4ba9-b06b-d51e6a02d524","system_id":"levelo_inurba_marseille","lat":43.305989,"lon":5.37225,"is_reserved":false,"is_disabled":false,"rental_uris":{"android":"levelo://app?vid=1f1dec8d-0516-4ba9-b06b-d51e6a02d524","ios":"levelo://app?vid=1f1dec8d-0516-4ba9-b06b-d51e6a02d524"},"vehicle_type_id":"4","last_reported":1719079790,"current_range_meters":24400,"station_id":"ce4bgqh2rcd13ifvqc4g","pricing_plan_id":"cebpf4jnsgd1na2vs0mg"},{"bike_id":"d46ab9df-ade0-4f53-a8a7-d2f384f3f540","system_id":"levelo_inurba_marseille","lat":43.31117,"lon":5.3778,"is_reserved":false,"is_disabled":false,"rental_uris":{"android":"levelo://app?vid=d46ab9df-ade0-4f53-a8a7-d2f384f3f540","ios":"levelo://app?vid=d46ab9df-ade0-4f53-a8a7-d2f384f3f540"},"vehicle_type_id":"4","last_reported":1719079790,"current_range_meters":400,"station_id":"ce4bgt92rcd13ifvqcg0","pricing_plan_id":"cebpf4jnsgd1na2vs0mg"},{"bike_id":"60e38103-785c-4ba9-adef-8eecd9d41a43","system_id":"levelo_inurba_marseille","lat":43.307945,"lon":5.376487,"is_reserved":false,"is_disabled":false,"rental_uris":{"android":"levelo://app?vid=60e38103-785c-4ba9-adef-8eecd9d41a43","ios":"levelo://app?vid=60e38103-785c-4ba9-adef-8eecd9d41a43"},"vehicle_type_id":"4","last_reported":1719079790,"current_range_meters":24000,"station_id":"ce4bgv92rcd13ifvqcq0","pricing_plan_id":"cebpf4jnsgd1na2vs0mg"},{"bike_id":"0e6adf41-b4ad-4a1b-83ec-4ea5ea922140","system_id":"levelo_inurba_marseille","lat":43.307945,"lon":5.376487,"is_reserved":false,"is_disabled":false,"rental_uris":{"android":"levelo://app?vid=0e6adf41-b4ad-4a1b-83ec-4ea5ea922140","ios":"levelo://app?vid=0e6adf41-b4ad-4a1b-83ec-4ea5ea922140"},"vehicle_type_id":"4","last_reported":1719079790,"current_range_meters":28800,"station_id":"ce4bgv92rcd13ifvqcq0","pricing_plan_id":"cebpf4jnsgd1na2vs0mg"},{"bike_id":"8d974622-11ad-4574-a5ed-380f0e25b182","system_id":"levelo_inurba_marseille","lat":43.317075,"lon":5.377367,"is_reserved":false,"is_disabled":false,"rental_uris":{"android":"levelo://app?vid=8d974622-11ad-4574-a5ed-380f0e25b182","ios":"levelo://app?vid=8d974622-11ad-4574-a5ed-380f0e25b182"},"vehicle_type_id":"4","last_reported":1719079790,"current_range_meters":24000,"station_id":"ce4bgth2rcd13ifvqch0","pricing_plan_id":"cebpf4jnsgd1na2vs0mg"},{"bike_id":"aab79dad-a1ae-4339-8c96-06cf6a1df262","system_id":"levelo_inurba_marseille","lat":43.317075,"lon":5.377367,"is_reserved":false,"is_disabled":false,"rental_uris":{"android":"levelo://app?vid=aab79dad-a1ae-4339-8c96-06cf6a1df262","ios":"levelo://app?vid=aab79dad-a1ae-4339-8c96-06cf6a1df262"},"vehicle_type_id":"4","last_reported":1719079790,"current_range_meters":3200,"station_id":"ce4bgth2rcd13ifvqch0","pricing_plan_id":"cebpf4jnsgd1na2vs0mg"},{"bike_id":"6e867768-dcb0-4427-a1ef-5f3192670e5d","system_id":"levelo_inurba_marseille","lat":43.31525,"lon":5.37911,"is_reserved":false,"is_disabled":false,"rental_uris":{"android":"levelo://app?vid=6e867768-dcb0-4427-a1ef-5f3192670e5d","ios":"levelo://app?vid=6e867768-dcb0-4427-a1ef-5f3192670e5d"},"vehicle_type_id":"4","last_reported":1719079790,"current_range_meters":0,"station_id":"","pricing_plan_id":"cebpf4jnsgd1na2vs0mg"},{"bike_id":"2cd51ec7-b6ca-4502-90f1-ee33eefb9b73","system_id":"levelo_inurba_marseille","lat":43.30913,"lon":5.37869,"is_reserved":false,"is_disabled":false,"rental_uris":{"android":"levelo://app?vid=2cd51ec7-b6ca-4502-90f1-ee33eefb9b73","ios":"levelo://app?vid=2cd51ec7-b6ca-4502-90f1-ee33eefb9b73"},"vehicle_type_id":"4","last_reported":1719079790,"current_range_meters":31200,"station_id":"","pricing_plan_id":"cebpf4jnsgd1na2vs0mg"},{"bike_id":"5b8007bb-0dd8-4352-b213-d088b8c4b4e0","system_id":"levelo_inurba_marseille","lat":43.31557,"lon":5.38011,"is_reserved":false,"is_disabled":false,"rental_uris":{"android":"levelo://app?vid=5b8007bb-0dd8-4352-b213-d088b8c4b4e0","ios":"levelo://app?vid=5b8007bb-0dd8-4352-b213-d088b8c4b4e0"},"vehicle_type_id":"4","last_reported":1719079790,"current_range_meters":8000,"station_id":"ce4bhsp2rcd13ifvqi50","pricing_plan_id":"cebpf4jnsgd1na2vs0mg"},{"bike_id":"d7febebb-f126-4a6e-8aad-951d2fc0b7cd","system_id":"levelo_inurba_marseille","lat":43.31557,"lon":5.38019,"is_reserved":false,"is_disabled":false,"rental_uris":{"android":"levelo://app?vid=d7febebb-f126-4a6e-8aad-951d2fc0b7cd","ios":"levelo://app?vid=d7febebb-f126-4a6e-8aad-951d2fc0b7cd"},"vehicle_type_id":"4","last_reported":1719079790,"current_range_meters":800,"station_id":"ce4bhsp2rcd13ifvqi50","pricing_plan_id":"cebpf4jnsgd1na2vs0mg"},{"bike_id":"1aa9382d-bd55-4aff-8971-b23615fccdae","system_id":"levelo_inurba_marseille","lat":43.311,"lon":5.38145,"is_reserved":false,"is_disabled":false,"rental_uris":{"android":"levelo://app?vid=1aa9382d-bd55-4aff-8971-b23615fccdae","ios":"levelo://app?vid=1aa9382d-bd55-4aff-8971-b23615fccdae"},"vehicle_type_id":"4","last_reported":1719079790,"current_range_meters":4800,"station_id":"","pricing_plan_id":"cebpf4jnsgd1na2vs0mg"},{"bike_id":"c8d74784-cfa3-4dc0-a55e-c53d6b6b7590","system_id":"levelo_inurba_marseille","lat":43.31295,"lon":5.38188,"is_reserved":false,"is_disabled":false,"rental_uris":{"android":"levelo://app?vid=c8d74784-cfa3-4dc0-a55e-c53d6b6b7590","ios":"levelo://app?vid=c8d74784-cfa3-4dc0-a55e-c53d6b6b7590"},"vehicle_type_id":"4","last_reported":1719079790,"current_range_meters":16400,"station_id":"","pricing_plan_id":"cebpf4jnsgd1na2vs0mg"},{"bike_id":"0172b203-d375-452d-98c3-bb6f301ef01f","system_id":"levelo_inurba_marseille","lat":43.308012,"lon":5.381511,"is_reserved":false,"is_disabled":false,"rental_uris":{"android":"levelo://app?vid=0172b203-d375-452d-98c3-bb6f301ef01f","ios":"levelo://app?vid=0172b203-d375-452d-98c3-bb6f301ef01f"},"vehicle_type_id":"4","last_reported":1719079790,"current_range_meters":30000,"station_id":"ce4bgt12rcd13ifvqce0","pricing_plan_id":"cebpf4jnsgd1na2vs0mg"},{"bike_id":"ed14ec74-1f1c-4cfd-8d26-59aa92fdca8a","system_id":"levelo_inurba_marseille","lat":43.30082,"lon":5.367207,"is_reserved":false,"is_disabled":false,"rental_uris":{"android":"levelo://app?vid=ed14ec74-1f1c-4cfd-8d26-59aa92fdca8a","ios":"levelo://app?vid=ed14ec74-1f1c-4cfd-8d26-59aa92fdca8a"},"vehicle_type_id":"4","last_reported":1719079790,"current_range_meters":25200,"station_id":"","pricing_plan_id":"cebpf4jnsgd1na2vs0mg"},{"bike_id":"b4bef7df-047a-429f-b746-b32d1ebe7639","system_id":"levelo_inurba_marseille","lat":43.309885,"lon":5.382867,"is_reserved":false,"is_disabled":false,"rental_uris":{"android":"levelo://app?vid=b4bef7df-047a-429f-b746-b32d1ebe7639","ios":"levelo://app?vid=b4bef7df-047a-429f-b746-b32d1ebe7639"},"vehicle_type_id":"4","last_reported":1719079790,"current_range_meters":0,"station_id":"","pricing_plan_id":"cebpf4jnsgd1na2vs0mg"},{"bike_id":"bbf9c294-554c-41b2-914f-d91cc4a1b20c","system_id":"levelo_inurba_marseille","lat":43.304606,"lon":5.379026,"is_reserved":false,"is_disabled":false,"rental_uris":{"android":"levelo://app?vid=bbf9c294-554c-41b2-914f-d91cc4a1b20c","ios":"levelo://app?vid=bbf9c294-554c-41b2-914f-d91cc4a1b20c"},"vehicle_type_id":"4","last_reported":1719079790,"current_range_meters":28000,"station_id":"ce4bgup2rcd13ifvqcn0","pricing_plan_id":"cebpf4jnsgd1na2vs0mg"},{"bike_id":"d160c198-2d5f-482c-8fa6-d5eed5b5ebb0","system_id":"levelo_inurba_marseille","lat":43.304606,"lon":5.379026,"is_reserved":false,"is_disabled":false,"rental_uris":{"android":"levelo://app?vid=d160c198-2d5f-482c-8fa6-d5eed5b5ebb0","ios":"levelo://app?vid=d160c198-2d5f-482c-8fa6-d5eed5b5ebb0"},"vehicle_type_id":"4","last_reported":1719079790,"current_range_meters":16800,"station_id":"ce4bgup2rcd13ifvqcn0","pricing_plan_id":"cebpf4jnsgd1na2vs0mg"},{"bike_id":"1a3b2049-3b40-43cc-805e-8cfb34f4287f","system_id":"levelo_inurba_marseille","lat":43.324771,"lon":5.36557,"is_reserved":false,"is_disabled":false,"rental_uris":{"android":"levelo://app?vid=1a3b2049-3b40-43cc-805e-8cfb34f4287f","ios":"levelo://app?vid=1a3b2049-3b40-43cc-805e-8cfb34f4287f"},"vehicle_type_id":"4","last_reported":1719079790,"current_range_meters":16800,"station_id":"ce4bhs12rcd13ifvqhvg","pricing_plan_id":"cebpf4jnsgd1na2vs0mg"},{"bike_id":"cdbf83c5-51e3-44b2-b105-d08117c562ec","system_id":"levelo_inurba_marseille","lat":43.324771,"lon":5.36557,"is_reserved":false,"is_disabled":false,"rental_uris":{"android":"levelo://app?vid=cdbf83c5-51e3-44b2-b105-d08117c562ec","ios":"levelo://app?vid=cdbf83c5-51e3-44b2-b105-d08117c562ec"},"vehicle_type_id":"4","last_reported":1719079790,"current_range_meters":3600,"station_id":"ce4bhs12rcd13ifvqhvg","pricing_plan_id":"cebpf4jnsgd1na2vs0mg"},{"bike_id":"ad726aa4-6660-41a3-b91c-e6875decb13c","system_id":"levelo_inurba_marseille","lat":43.324771,"lon":5.36557,"is_reserved":false,"is_disabled":false,"rental_uris":{"android":"levelo://app?vid=ad726aa4-6660-41a3-b91c-e6875decb13c","ios":"levelo://app?vid=ad726aa4-6660-41a3-b91c-e6875decb13c"},"vehicle_type_id":"4","last_reported":1719079790,"current_range_meters":9200,"station_id":"ce4bhs12rcd13ifvqhvg","pricing_plan_id":"cebpf4jnsgd1na2vs0mg"},{"bike_id":"a181c2bd-cda8-4598-ac39-96d1771e05c7","system_id":"levelo_inurba_marseille","lat":43.310804,"lon":5.38359,"is_reserved":false,"is_disabled":false,"rental_uris":{"android":"levelo://app?vid=a181c2bd-cda8-4598-ac39-96d1771e05c7","ios":"levelo://app?vid=a181c2bd-cda8-4598-ac39-96d1771e05c7"},"vehicle_type_id":"4","last_reported":1719079790,"current_range_meters":5200,"station_id":"ce4bgv92rcd13ifvqcr0","pricing_plan_id":"cebpf4jnsgd1na2vs0mg"},{"bike_id":"977267a5-f4db-4def-99f4-85b7f644d8ad","system_id":"levelo_inurba_marseille","lat":43.310804,"lon":5.38359,"is_reserved":false,"is_disabled":false,"rental_uris":{"android":"levelo://app?vid=977267a5-f4db-4def-99f4-85b7f644d8ad","ios":"levelo://app?vid=977267a5-f4db-4def-99f4-85b7f644d8ad"},"vehicle_type_id":"4","last_reported":1719079790,"current_range_meters":12800,"station_id":"ce4bgv92rcd13ifvqcr0","pricing_plan_id":"cebpf4jnsgd1na2vs0mg"},{"bike_id":"b31587ea-90e3-4300-82dc-c88d14281159","system_id":"levelo_inurba_marseille","lat":43.319935,"lon":5.381699,"is_reserved":false,"is_disabled":false,"rental_uris":{"android":"levelo://app?vid=b31587ea-90e3-4300-82dc-c88d14281159","ios":"levelo://app?vid=b31587ea-90e3-4300-82dc-c88d14281159"},"vehicle_type_id":"4","last_reported":1719079790,"current_range_meters":12800,"station_id":"ce4bhr12rcd13ifvqhpg","pricing_plan_id":"cebpf4jnsgd1na2vs0mg"},{"bike_id":"cefe9064-7d05-4b92-87b0-7b4484fc3c23","system_id":"levelo_inurba_marseille","lat":43.319935,"lon":5.381699,"is_reserved":false,"is_disabled":false,"rental_uris":{"android":"levelo://app?vid=cefe9064-7d05-4b92-87b0-7b4484fc3c23","ios":"levelo://app?vid=cefe9064-7d05-4b92-87b0-7b4484fc3c23"},"vehicle_type_id":"4","last_reported":1719079790,"current_range_meters":18400,"station_id":"ce4bhr12rcd13ifvqhpg","pricing_plan_id":"cebpf4jnsgd1na2vs0mg"},{"bike_id":"d3df22f5-4486-49d4-a52d-5da77ef13279","system_id":"levelo_inurba_marseille","lat":43.319935,"lon":5.381699,"is_reserved":false,"is_disabled":false,"rental_uris":{"android":"levelo://app?vid=d3df22f5-4486-49d4-a52d-5da77ef13279","ios":"levelo://app?vid=d3df22f5-4486-49d4-a52d-5da77ef13279"},"vehicle_type_id":"4","last_reported":1719079790,"current_range_meters":20000,"station_id":"ce4bhr12rcd13ifvqhpg","pricing_plan_id":"cebpf4jnsgd1na2vs0mg"},{"bike_id":"a6657aae-8dbd-44af-8ad3-c09be27ed74e","system_id":"levelo_inurba_marseille","lat":43.313571,"lon":5.384829,"is_reserved":false,"is_disabled":false,"rental_uris":{"android":"levelo://app?vid=a6657aae-8dbd-44af-8ad3-c09be27ed74e","ios":"levelo://app?vid=a6657aae-8dbd-44af-8ad3-c09be27ed74e"},"vehicle_type_id":"4","last_reported":1719079790,"current_range_meters":20400,"station_id":"ce4bgt92rcd13ifvqcf0","pricing_plan_id":"cebpf4jnsgd1na2vs0mg"},{"bike_id":"a72a56b7-d04f-4926-93c5-0054b66cd9c3","system_id":"levelo_inurba_marseille","lat":43.31366,"lon":5.38495,"is_reserved":false,"is_disabled":false,"rental_uris":{"android":"levelo://app?vid=a72a56b7-d04f-4926-93c5-0054b66cd9c3","ios":"levelo://app?vid=a72a56b7-d04f-4926-93c5-0054b66cd9c3"},"vehicle_type_id":"4","last_reported":1719079790,"current_range_meters":22400,"station_id":"ce4bgt92rcd13ifvqcf0","pricing_plan_id":"cebpf4jnsgd1na2vs0mg"},{"bike_id":"f3c2da90-b5fe-4898-a2ee-2c6a5bc61da4","system_id":"levelo_inurba_marseille","lat":43.299724,"lon":5.371829,"is_reserved":false,"is_disabled":false,"rental_uris":{"android":"levelo://app?vid=f3c2da90-b5fe-4898-a2ee-2c6a5bc61da4","ios":"levelo://app?vid=f3c2da90-b5fe-4898-a2ee-2c6a5bc61da4"},"vehicle_type_id":"4","last_reported":1719079790,"current_range_meters":10400,"station_id":"ce4bgr92rcd13ifvqc7g","pricing_plan_id":"cebpf4jnsgd1na2vs0mg"},{"bike_id":"8197b4a0-3ab9-4867-8258-712255219b57","system_id":"levelo_inurba_marseille","lat":43.298433,"lon":5.362774,"is_reserved":false,"is_disabled":false,"rental_uris":{"android":"levelo://app?vid=8197b4a0-3ab9-4867-8258-712255219b57","ios":"levelo://app?vid=8197b4a0-3ab9-4867-8258-712255219b57"},"vehicle_type_id":"4","last_reported":1719079790,"current_range_meters":15600,"station_id":"ce4bgpp2rcd13ifvqc3g","pricing_plan_id":"cebpf4jnsgd1na2vs0mg"},{"bike_id":"9124f624-8dcb-4856-8934-70a2c9aa0da8","system_id":"levelo_inurba_marseille","lat":43.29928,"lon":5.37464,"is_reserved":false,"is_disabled":false,"rental_uris":{"android":"levelo://app?vid=9124f624-8dcb-4856-8934-70a2c9aa0da8","ios":"levelo://app?vid=9124f624-8dcb-4856-8934-70a2c9aa0da8"},"vehicle_type_id":"4","last_reported":1719079790,"current_range_meters":31200,"station_id":"ce4bgjh2rcd13ifvqbg0","pricing_plan_id":"cebpf4jnsgd1na2vs0mg"},{"bike_id":"48aec6d1-07a1-4e99-acb3-65d975993ed1","system_id":"levelo_inurba_marseille","lat":43.305364,"lon":5.384119,"is_reserved":false,"is_disabled":false,"rental_uris":{"android":"levelo://app?vid=48aec6d1-07a1-4e99-acb3-65d975993ed1","ios":"levelo://app?vid=48aec6d1-07a1-4e99-acb3-65d975993ed1"},"vehicle_type_id":"4","last_reported":1719079790,"current_range_meters":6400,"station_id":"ce4bgg92rcd13ifvqb30","pricing_plan_id":"cebpf4jnsgd1na2vs0mg"},{"bike_id":"651936a8-be75-4fe1-8d45-ff08c6dbb3a0","system_id":"levelo_inurba_marseille","lat":43.29781,"lon":5.3712,"is_reserved":false,"is_disabled":false,"rental_uris":{"android":"levelo://app?vid=651936a8-be75-4fe1-8d45-ff08c6dbb3a0","ios":"levelo://app?vid=651936a8-be75-4fe1-8d45-ff08c6dbb3a0"},"vehicle_type_id":"4","last_reported":1719079790,"current_range_meters":25200,"station_id":"ce4bgop2rcd13ifvqc1g","pricing_plan_id":"cebpf4jnsgd1na2vs0mg"},{"bike_id":"a1c14c12-9ce6-4e37-aabc-b7a307d497cc","system_id":"levelo_inurba_marseille","lat":43.322872,"lon":5.382756,"is_reserved":false,"is_disabled":false,"rental_uris":{"android":"levelo://app?vid=a1c14c12-9ce6-4e37-aabc-b7a307d497cc","ios":"levelo://app?vid=a1c14c12-9ce6-4e37-aabc-b7a307d497cc"},"vehicle_type_id":"4","last_reported":1719079790,"current_range_meters":19200,"station_id":"ce4bhr12rcd13ifvqhqg","pricing_plan_id":"cebpf4jnsgd1na2vs0mg"},{"bike_id":"39977067-0c27-44a2-8902-14eff2c94c95","system_id":"levelo_inurba_marseille","lat":43.29718,"lon":5.36599,"is_reserved":false,"is_disabled":false,"rental_uris":{"android":"levelo://app?vid=39977067-0c27-44a2-8902-14eff2c94c95","ios":"levelo://app?vid=39977067-0c27-44a2-8902-14eff2c94c95"},"vehicle_type_id":"4","last_reported":1719079790,"current_range_meters":18400,"station_id":"ce4bgn12rcd13ifvqbt0","pricing_plan_id":"cebpf4jnsgd1na2vs0mg"},{"bike_id":"87cf6a9a-b409-4066-8413-290e1ac45f77","system_id":"levelo_inurba_marseille","lat":43.297163,"lon":5.365866,"is_reserved":false,"is_disabled":false,"rental_uris":{"android":"levelo://app?vid=87cf6a9a-b409-4066-8413-290e1ac45f77","ios":"levelo://app?vid=87cf6a9a-b409-4066-8413-290e1ac45f77"},"vehicle_type_id":"4","last_reported":1719079790,"current_range_meters":14000,"station_id":"ce4bgn12rcd13ifvqbt0","pricing_plan_id":"cebpf4jnsgd1na2vs0mg"},{"bike_id":"b72300bf-8015-45c3-a0e0-885c12ec9e2f","system_id":"levelo_inurba_marseille","lat":43.2968,"lon":5.37291,"is_reserved":false,"is_disabled":false,"rental_uris":{"android":"levelo://app?vid=b72300bf-8015-45c3-a0e0-885c12ec9e2f","ios":"levelo://app?vid=b72300bf-8015-45c3-a0e0-885c12ec9e2f"},"vehicle_type_id":"4","last_reported":1719079790,"current_range_meters":10000,"station_id":"ce4bgk12rcd13ifvqbj0","pricing_plan_id":"cebpf4jnsgd1na2vs0mg"},{"bike_id":"416e81a1-edc1-4614-88fe-b222da2fe502","system_id":"levelo_inurba_marseille","lat":43.296129,"lon":5.370777,"is_reserved":false,"is_disabled":false,"rental_uris":{"android":"levelo://app?vid=416e81a1-edc1-4614-88fe-b222da2fe502","ios":"levelo://app?vid=416e81a1-edc1-4614-88fe-b222da2fe502"},"vehicle_type_id":"4","last_reported":1719079790,"current_range_meters":23600,"station_id":"ce4bgnh2rcd13ifvqc0g","pricing_plan_id":"cebpf4jnsgd1na2vs0mg"},{"bike_id":"ce3d280d-ce53-4414-8fe0-b425cd359442","system_id":"levelo_inurba_marseille","lat":43.29573,"lon":5.367355,"is_reserved":false,"is_disabled":false,"rental_uris":{"android":"levelo://app?vid=ce3d280d-ce53-4414-8fe0-b425cd359442","ios":"levelo://app?vid=ce3d280d-ce53-4414-8fe0-b425cd359442"},"vehicle_type_id":"4","last_reported":1719079790,"current_range_meters":18800,"station_id":"ce4bgph2rcd13ifvqc2g","pricing_plan_id":"cebpf4jnsgd1na2vs0mg"},{"bike_id":"b2f8c189-9044-422e-b64d-4a088a546d2e","system_id":"levelo_inurba_marseille","lat":43.29579,"lon":5.36292,"is_reserved":false,"is_disabled":false,"rental_uris":{"android":"levelo://app?vid=b2f8c189-9044-422e-b64d-4a088a546d2e","ios":"levelo://app?vid=b2f8c189-9044-422e-b64d-4a088a546d2e"},"vehicle_type_id":"4","last_reported":1719079790,"current_range_meters":22000,"station_id":"","pricing_plan_id":"cebpf4jnsgd1na2vs0mg"},{"bike_id":"54ce80a5-cf5b-4ace-a272-a3ac93daadb4","system_id":"levelo_inurba_marseille","lat":43.299028,"lon":5.381509,"is_reserved":false,"is_disabled":false,"rental_uris":{"android":"levelo://app?vid=54ce80a5-cf5b-4ace-a272-a3ac93daadb4","ios":"levelo://app?vid=54ce80a5-cf5b-4ace-a272-a3ac93daadb4"},"vehicle_type_id":"4","last_reported":1719079790,"current_range_meters":21200,"station_id":"ce4bgj12rcd13ifvqbc0","pricing_plan_id":"cebpf4jnsgd1na2vs0mg"},{"bike_id":"e5938561-0503-41f1-89d1-b8c21ece307f","system_id":"levelo_inurba_marseille","lat":43.309589,"lon":5.390258,"is_reserved":false,"is_disabled":false,"rental_uris":{"android":"levelo://app?vid=e5938561-0503-41f1-89d1-b8c21ece307f","ios":"levelo://app?vid=e5938561-0503-41f1-89d1-b8c21ece307f"},"vehicle_type_id":"4","last_reported":1719079790,"current_range_meters":0,"station_id":"ce4bgup2rcd13ifvqco0","pricing_plan_id":"cebpf4jnsgd1na2vs0mg"},{"bike_id":"9122df11-06bc-43b8-8646-fe5307b1aecc","system_id":"levelo_inurba_marseille","lat":43.296935,"lon":5.376544,"is_reserved":false,"is_disabled":false,"rental_uris":{"android":"levelo://app?vid=9122df11-06bc-43b8-8646-fe5307b1aecc","ios":"levelo://app?vid=9122df11-06bc-43b8-8646-fe5307b1aecc"},"vehicle_type_id":"4","last_reported":1719079790,"current_range_meters":6400,"station_id":"ce4bgkh2rcd13ifvqbl0","pricing_plan_id":"cebpf4jnsgd1na2vs0mg"},{"bike_id":"8650426a-4fd0-4268-a3ea-334a59f312f9","system_id":"levelo_inurba_marseille","lat":43.309589,"lon":5.390258,"is_reserved":false,"is_disabled":false,"rental_uris":{"android":"levelo://app?vid=8650426a-4fd0-4268-a3ea-334a59f312f9","ios":"levelo://app?vid=8650426a-4fd0-4268-a3ea-334a59f312f9"},"vehicle_type_id":"4","last_reported":1719079790,"current_range_meters":5600,"station_id":"ce4bgup2rcd13ifvqco0","pricing_plan_id":"cebpf4jnsgd1na2vs0mg"},{"bike_id":"f507a5e3-5f32-47dd-8469-c404bcf707f3","system_id":"levelo_inurba_marseille","lat":43.309589,"lon":5.390258,"is_reserved":false,"is_disabled":false,"rental_uris":{"android":"levelo://app?vid=f507a5e3-5f32-47dd-8469-c404bcf707f3","ios":"levelo://app?vid=f507a5e3-5f32-47dd-8469-c404bcf707f3"},"vehicle_type_id":"4","last_reported":1719079790,"current_range_meters":8800,"station_id":"ce4bgup2rcd13ifvqco0","pricing_plan_id":"cebpf4jnsgd1na2vs0mg"},{"bike_id":"e6842cd9-016e-4b43-ae2a-40f1c5e9028d","system_id":"levelo_inurba_marseille","lat":43.309589,"lon":5.390258,"is_reserved":false,"is_disabled":false,"rental_uris":{"android":"levelo://app?vid=e6842cd9-016e-4b43-ae2a-40f1c5e9028d","ios":"levelo://app?vid=e6842cd9-016e-4b43-ae2a-40f1c5e9028d"},"vehicle_type_id":"4","last_reported":1719079790,"current_range_meters":17600,"station_id":"ce4bgup2rcd13ifvqco0","pricing_plan_id":"cebpf4jnsgd1na2vs0mg"},{"bike_id":"b27acc5f-4269-44fe-b76f-57dbd53fe6bf","system_id":"levelo_inurba_marseille","lat":43.309589,"lon":5.390258,"is_reserved":false,"is_disabled":false,"rental_uris":{"android":"levelo://app?vid=b27acc5f-4269-44fe-b76f-57dbd53fe6bf","ios":"levelo://app?vid=b27acc5f-4269-44fe-b76f-57dbd53fe6bf"},"vehicle_type_id":"4","last_reported":1719079790,"current_range_meters":14400,"station_id":"ce4bgup2rcd13ifvqco0","pricing_plan_id":"cebpf4jnsgd1na2vs0mg"},{"bike_id":"1d0c4229-ca91-4b1c-b486-45013dfba4bd","system_id":"levelo_inurba_marseille","lat":43.317557,"lon":5.390173,"is_reserved":false,"is_disabled":false,"rental_uris":{"android":"levelo://app?vid=1d0c4229-ca91-4b1c-b486-45013dfba4bd","ios":"levelo://app?vid=1d0c4229-ca91-4b1c-b486-45013dfba4bd"},"vehicle_type_id":"4","last_reported":1719079790,"current_range_meters":3200,"station_id":"ce4bhqp2rcd13ifvqhng","pricing_plan_id":"cebpf4jnsgd1na2vs0mg"},{"bike_id":"d4dde6b1-e9fb-4e8f-b86c-4c42989cadaf","system_id":"levelo_inurba_marseille","lat":43.317557,"lon":5.390173,"is_reserved":false,"is_disabled":false,"rental_uris":{"android":"levelo://app?vid=d4dde6b1-e9fb-4e8f-b86c-4c42989cadaf","ios":"levelo://app?vid=d4dde6b1-e9fb-4e8f-b86c-4c42989cadaf"},"vehicle_type_id":"4","last_reported":1719079790,"current_range_meters":23600,"station_id":"ce4bhqp2rcd13ifvqhng","pricing_plan_id":"cebpf4jnsgd1na2vs0mg"},{"bike_id":"dfa3d214-8c3d-4b5b-9dd0-703c647f3ba6","system_id":"levelo_inurba_marseille","lat":43.317557,"lon":5.390173,"is_reserved":false,"is_disabled":false,"rental_uris":{"android":"levelo://app?vid=dfa3d214-8c3d-4b5b-9dd0-703c647f3ba6","ios":"levelo://app?vid=dfa3d214-8c3d-4b5b-9dd0-703c647f3ba6"},"vehicle_type_id":"4","last_reported":1719079790,"current_range_meters":15600,"station_id":"ce4bhqp2rcd13ifvqhng","pricing_plan_id":"cebpf4jnsgd1na2vs0mg"},{"bike_id":"f4adcf7e-0d1b-4318-bc4c-f5af28bd5489","system_id":"levelo_inurba_marseille","lat":43.317557,"lon":5.390173,"is_reserved":false,"is_disabled":false,"rental_uris":{"android":"levelo://app?vid=f4adcf7e-0d1b-4318-bc4c-f5af28bd5489","ios":"levelo://app?vid=f4adcf7e-0d1b-4318-bc4c-f5af28bd5489"},"vehicle_type_id":"4","last_reported":1719079790,"current_range_meters":13200,"station_id":"ce4bhqp2rcd13ifvqhng","pricing_plan_id":"cebpf4jnsgd1na2vs0mg"},{"bike_id":"d5d5b84b-a275-4715-884c-462e8dd16ae2","system_id":"levelo_inurba_marseille","lat":43.295748,"lon":5.37522,"is_reserved":false,"is_disabled":false,"rental_uris":{"android":"levelo://app?vid=d5d5b84b-a275-4715-884c-462e8dd16ae2","ios":"levelo://app?vid=d5d5b84b-a275-4715-884c-462e8dd16ae2"},"vehicle_type_id":"4","last_reported":1719079790,"current_range_meters":26000,"station_id":"ce4bgh92rcd13ifvqb50","pricing_plan_id":"cebpf4jnsgd1na2vs0mg"},{"bike_id":"1a97f3eb-628a-42fd-8357-7a5d0805c06c","system_id":"levelo_inurba_marseille","lat":43.295748,"lon":5.37522,"is_reserved":false,"is_disabled":false,"rental_uris":{"android":"levelo://app?vid=1a97f3eb-628a-42fd-8357-7a5d0805c06c","ios":"levelo://app?vid=1a97f3eb-628a-42fd-8357-7a5d0805c06c"},"vehicle_type_id":"4","last_reported":1719079790,"current_range_meters":10000,"station_id":"ce4bgh92rcd13ifvqb50","pricing_plan_id":"cebpf4jnsgd1na2vs0mg"},{"bike_id":"48ebe034-e3ba-40ba-9515-44bc4ecb848d","system_id":"levelo_inurba_marseille","lat":43.298037,"lon":5.381066,"is_reserved":false,"is_disabled":false,"rental_uris":{"android":"levelo://app?vid=48ebe034-e3ba-40ba-9515-44bc4ecb848d","ios":"levelo://app?vid=48ebe034-e3ba-40ba-9515-44bc4ecb848d"},"vehicle_type_id":"4","last_reported":1719079790,"current_range_meters":25600,"station_id":"ce4bgip2rcd13ifvqbb0","pricing_plan_id":"cebpf4jnsgd1na2vs0mg"},{"bike_id":"0b4ae542-1003-4567-a6ac-860e12cde672","system_id":"levelo_inurba_marseille","lat":43.295748,"lon":5.37522,"is_reserved":false,"is_disabled":false,"rental_uris":{"android":"levelo://app?vid=0b4ae542-1003-4567-a6ac-860e12cde672","ios":"levelo://app?vid=0b4ae542-1003-4567-a6ac-860e12cde672"},"vehicle_type_id":"4","last_reported":1719079790,"current_range_meters":31200,"station_id":"ce4bgh92rcd13ifvqb50","pricing_plan_id":"cebpf4jnsgd1na2vs0mg"},{"bike_id":"8f840ca5-2061-4c28-947d-1efd0d8f26d7","system_id":"levelo_inurba_marseille","lat":43.304274,"lon":5.388873,"is_reserved":false,"is_disabled":false,"rental_uris":{"android":"levelo://app?vid=8f840ca5-2061-4c28-947d-1efd0d8f26d7","ios":"levelo://app?vid=8f840ca5-2061-4c28-947d-1efd0d8f26d7"},"vehicle_type_id":"4","last_reported":1719079790,"current_range_meters":10400,"station_id":"ce4bgk12rcd13ifvqbi0","pricing_plan_id":"cebpf4jnsgd1na2vs0mg"},{"bike_id":"f21de03c-fc1c-49da-be2b-7e33a3a8056e","system_id":"levelo_inurba_marseille","lat":43.304278,"lon":5.388868,"is_reserved":false,"is_disabled":false,"rental_uris":{"android":"levelo://app?vid=f21de03c-fc1c-49da-be2b-7e33a3a8056e","ios":"levelo://app?vid=f21de03c-fc1c-49da-be2b-7e33a3a8056e"},"vehicle_type_id":"4","last_reported":1719079790,"current_range_meters":8400,"station_id":"ce4bgk12rcd13ifvqbi0","pricing_plan_id":"cebpf4jnsgd1na2vs0mg"},{"bike_id":"52d14bf9-0bb0-458d-b794-8e7abca979df","system_id":"levelo_inurba_marseille","lat":43.296263,"lon":5.377094,"is_reserved":false,"is_disabled":false,"rental_uris":{"android":"levelo://app?vid=52d14bf9-0bb0-458d-b794-8e7abca979df","ios":"levelo://app?vid=52d14bf9-0bb0-458d-b794-8e7abca979df"},"vehicle_type_id":"4","last_reported":1719079790,"current_range_meters":9200,"station_id":"ce4bgi92rcd13ifvqb90","pricing_plan_id":"cebpf4jnsgd1na2vs0mg"},{"bike_id":"e4849121-78b1-4896-ae72-a6afdc4245aa","system_id":"levelo_inurba_marseille","lat":43.296277,"lon":5.377108,"is_reserved":false,"is_disabled":false,"rental_uris":{"android":"levelo://app?vid=e4849121-78b1-4896-ae72-a6afdc4245aa","ios":"levelo://app?vid=e4849121-78b1-4896-ae72-a6afdc4245aa"},"vehicle_type_id":"4","last_reported":1719079790,"current_range_meters":22800,"station_id":"ce4bgi92rcd13ifvqb90","pricing_plan_id":"cebpf4jnsgd1na2vs0mg"},{"bike_id":"efd86c5b-07de-49f2-b68b-e41ca04a46ea","system_id":"levelo_inurba_marseille","lat":43.299724,"lon":5.384848,"is_reserved":false,"is_disabled":false,"rental_uris":{"android":"levelo://app?vid=efd86c5b-07de-49f2-b68b-e41ca04a46ea","ios":"levelo://app?vid=efd86c5b-07de-49f2-b68b-e41ca04a46ea"},"vehicle_type_id":"4","last_reported":1719079790,"current_range_meters":24000,"station_id":"ce4bgj92rcd13ifvqbd0","pricing_plan_id":"cebpf4jnsgd1na2vs0mg"},{"bike_id":"fbed0fa7-d0a2-4c23-a275-0b6e81e55252","system_id":"levelo_inurba_marseille","lat":43.295279,"lon":5.375048,"is_reserved":false,"is_disabled":false,"rental_uris":{"android":"levelo://app?vid=fbed0fa7-d0a2-4c23-a275-0b6e81e55252","ios":"levelo://app?vid=fbed0fa7-d0a2-4c23-a275-0b6e81e55252"},"vehicle_type_id":"4","last_reported":1719079790,"current_range_meters":6400,"station_id":"ce4bgkp2rcd13ifvqbmg","pricing_plan_id":"cebpf4jnsgd1na2vs0mg"},{"bike_id":"73f17e5e-a449-4402-8072-a4bf5c8ac28e","system_id":"levelo_inurba_marseille","lat":43.32367,"lon":5.388836,"is_reserved":false,"is_disabled":false,"rental_uris":{"android":"levelo://app?vid=73f17e5e-a449-4402-8072-a4bf5c8ac28e","ios":"levelo://app?vid=73f17e5e-a449-4402-8072-a4bf5c8ac28e"},"vehicle_type_id":"4","last_reported":1719079790,"current_range_meters":9600,"station_id":"ce4bhqp2rcd13ifvqhog","pricing_plan_id":"cebpf4jnsgd1na2vs0mg"},{"bike_id":"41199336-74de-4358-97aa-af41c28dd87b","system_id":"levelo_inurba_marseille","lat":43.32367,"lon":5.388836,"is_reserved":false,"is_disabled":false,"rental_uris":{"android":"levelo://app?vid=41199336-74de-4358-97aa-af41c28dd87b","ios":"levelo://app?vid=41199336-74de-4358-97aa-af41c28dd87b"},"vehicle_type_id":"4","last_reported":1719079790,"current_range_meters":15200,"station_id":"ce4bhqp2rcd13ifvqhog","pricing_plan_id":"cebpf4jnsgd1na2vs0mg"},{"bike_id":"3695f989-fa84-45b2-9588-494574c33500","system_id":"levelo_inurba_marseille","lat":43.32367,"lon":5.388836,"is_reserved":false,"is_disabled":false,"rental_uris":{"android":"levelo://app?vid=3695f989-fa84-45b2-9588-494574c33500","ios":"levelo://app?vid=3695f989-fa84-45b2-9588-494574c33500"},"vehicle_type_id":"4","last_reported":1719079790,"current_range_meters":16400,"station_id":"ce4bhqp2rcd13ifvqhog","pricing_plan_id":"cebpf4jnsgd1na2vs0mg"},{"bike_id":"9c9ad7ff-4a79-4351-850c-d9d918fad406","system_id":"levelo_inurba_marseille","lat":43.32367,"lon":5.388836,"is_reserved":false,"is_disabled":false,"rental_uris":{"android":"levelo://app?vid=9c9ad7ff-4a79-4351-850c-d9d918fad406","ios":"levelo://app?vid=9c9ad7ff-4a79-4351-850c-d9d918fad406"},"vehicle_type_id":"4","last_reported":1719079790,"current_range_meters":0,"station_id":"ce4bhqp2rcd13ifvqhog","pricing_plan_id":"cebpf4jnsgd1na2vs0mg"},{"bike_id":"a0c924d3-cf74-4b6d-a395-925adff07983","system_id":"levelo_inurba_marseille","lat":43.29281,"lon":5.36842,"is_reserved":false,"is_disabled":false,"rental_uris":{"android":"levelo://app?vid=a0c924d3-cf74-4b6d-a395-925adff07983","ios":"levelo://app?vid=a0c924d3-cf74-4b6d-a395-925adff07983"},"vehicle_type_id":"4","last_reported":1719079790,"current_range_meters":18400,"station_id":"ce4bhbp2rcd13ifvqesg","pricing_plan_id":"cebpf4jnsgd1na2vs0mg"},{"bike_id":"c7212556-7668-45b1-a427-db2c977bdd3e","system_id":"levelo_inurba_marseille","lat":43.293259,"lon":5.371586,"is_reserved":false,"is_disabled":false,"rental_uris":{"android":"levelo://app?vid=c7212556-7668-45b1-a427-db2c977bdd3e","ios":"levelo://app?vid=c7212556-7668-45b1-a427-db2c977bdd3e"},"vehicle_type_id":"4","last_reported":1719079790,"current_range_meters":25200,"station_id":"ce4bgh92rcd13ifvqb40","pricing_plan_id":"cebpf4jnsgd1na2vs0mg"},{"bike_id":"2e7d832a-af6c-48af-b25a-4d90c3c1fccf","system_id":"levelo_inurba_marseille","lat":43.293066,"lon":5.371762,"is_reserved":false,"is_disabled":false,"rental_uris":{"android":"levelo://app?vid=2e7d832a-af6c-48af-b25a-4d90c3c1fccf","ios":"levelo://app?vid=2e7d832a-af6c-48af-b25a-4d90c3c1fccf"},"vehicle_type_id":"4","last_reported":1719079790,"current_range_meters":28800,"station_id":"ce4bgh92rcd13ifvqb40","pricing_plan_id":"cebpf4jnsgd1na2vs0mg"},{"bike_id":"33118cef-fa73-4788-9027-93bc147ee2e4","system_id":"levelo_inurba_marseille","lat":43.293009,"lon":5.374584,"is_reserved":false,"is_disabled":false,"rental_uris":{"android":"levelo://app?vid=33118cef-fa73-4788-9027-93bc147ee2e4","ios":"levelo://app?vid=33118cef-fa73-4788-9027-93bc147ee2e4"},"vehicle_type_id":"4","last_reported":1719079790,"current_range_meters":24400,"station_id":"ce4bgi12rcd13ifvqb70","pricing_plan_id":"cebpf4jnsgd1na2vs0mg"},{"bike_id":"437fbc80-3dba-4d4b-8610-0e7b47cf26fa","system_id":"levelo_inurba_marseille","lat":43.293009,"lon":5.374584,"is_reserved":false,"is_disabled":false,"rental_uris":{"android":"levelo://app?vid=437fbc80-3dba-4d4b-8610-0e7b47cf26fa","ios":"levelo://app?vid=437fbc80-3dba-4d4b-8610-0e7b47cf26fa"},"vehicle_type_id":"4","last_reported":1719079790,"current_range_meters":31200,"station_id":"ce4bgi12rcd13ifvqb70","pricing_plan_id":"cebpf4jnsgd1na2vs0mg"},{"bike_id":"4beb057c-c6a8-4ad1-a61e-1a03fb441efe","system_id":"levelo_inurba_marseille","lat":43.305994,"lon":5.393687,"is_reserved":false,"is_disabled":false,"rental_uris":{"android":"levelo://app?vid=4beb057c-c6a8-4ad1-a61e-1a03fb441efe","ios":"levelo://app?vid=4beb057c-c6a8-4ad1-a61e-1a03fb441efe"},"vehicle_type_id":"4","last_reported":1719079790,"current_range_meters":26800,"station_id":"ce4bh0p2rcd13ifvqd80","pricing_plan_id":"cebpf4jnsgd1na2vs0mg"},{"bike_id":"d725f441-816e-447a-92d7-6e19c744fa38","system_id":"levelo_inurba_marseille","lat":43.305994,"lon":5.393687,"is_reserved":false,"is_disabled":false,"rental_uris":{"android":"levelo://app?vid=d725f441-816e-447a-92d7-6e19c744fa38","ios":"levelo://app?vid=d725f441-816e-447a-92d7-6e19c744fa38"},"vehicle_type_id":"4","last_reported":1719079790,"current_range_meters":10800,"station_id":"ce4bh0p2rcd13ifvqd80","pricing_plan_id":"cebpf4jnsgd1na2vs0mg"},{"bike_id":"9275ff8b-f335-4cf4-a4a0-2044da468979","system_id":"levelo_inurba_marseille","lat":43.293009,"lon":5.374584,"is_reserved":false,"is_disabled":false,"rental_uris":{"android":"levelo://app?vid=9275ff8b-f335-4cf4-a4a0-2044da468979","ios":"levelo://app?vid=9275ff8b-f335-4cf4-a4a0-2044da468979"},"vehicle_type_id":"4","last_reported":1719079790,"current_range_meters":31200,"station_id":"ce4bgi12rcd13ifvqb70","pricing_plan_id":"cebpf4jnsgd1na2vs0mg"},{"bike_id":"a5eaafb7-2120-4510-910a-7569026c14aa","system_id":"levelo_inurba_marseille","lat":43.305994,"lon":5.393687,"is_reserved":false,"is_disabled":false,"rental_uris":{"android":"levelo://app?vid=a5eaafb7-2120-4510-910a-7569026c14aa","ios":"levelo://app?vid=a5eaafb7-2120-4510-910a-7569026c14aa"},"vehicle_type_id":"4","last_reported":1719079790,"current_range_meters":1200,"station_id":"ce4bh0p2rcd13ifvqd80","pricing_plan_id":"cebpf4jnsgd1na2vs0mg"},{"bike_id":"7c82170f-0d99-4b50-930c-eba2e5a1b34c","system_id":"levelo_inurba_marseille","lat":43.293009,"lon":5.374584,"is_reserved":false,"is_disabled":false,"rental_uris":{"android":"levelo://app?vid=7c82170f-0d99-4b50-930c-eba2e5a1b34c","ios":"levelo://app?vid=7c82170f-0d99-4b50-930c-eba2e5a1b34c"},"vehicle_type_id":"4","last_reported":1719079790,"current_range_meters":16400,"station_id":"ce4bgi12rcd13ifvqb70","pricing_plan_id":"cebpf4jnsgd1na2vs0mg"},{"bike_id":"eea822fc-917d-4ff7-905a-01bb82ec42c9","system_id":"levelo_inurba_marseille","lat":43.303002,"lon":5.392142,"is_reserved":false,"is_disabled":false,"rental_uris":{"android":"levelo://app?vid=eea822fc-917d-4ff7-905a-01bb82ec42c9","ios":"levelo://app?vid=eea822fc-917d-4ff7-905a-01bb82ec42c9"},"vehicle_type_id":"4","last_reported":1719079790,"current_range_meters":4800,"station_id":"ce4bgkh2rcd13ifvqbk0","pricing_plan_id":"cebpf4jnsgd1na2vs0mg"},{"bike_id":"c122c561-88a9-41e7-a698-9e2eb830be01","system_id":"levelo_inurba_marseille","lat":43.2936,"lon":5.37835,"is_reserved":false,"is_disabled":false,"rental_uris":{"android":"levelo://app?vid=c122c561-88a9-41e7-a698-9e2eb830be01","ios":"levelo://app?vid=c122c561-88a9-41e7-a698-9e2eb830be01"},"vehicle_type_id":"4","last_reported":1719079790,"current_range_meters":30400,"station_id":"ce4bgjh2rcd13ifvqbf0","pricing_plan_id":"cebpf4jnsgd1na2vs0mg"},{"bike_id":"2f36a039-b467-4436-a519-5d3bd2b3097d","system_id":"levelo_inurba_marseille","lat":43.30304,"lon":5.39209,"is_reserved":false,"is_disabled":false,"rental_uris":{"android":"levelo://app?vid=2f36a039-b467-4436-a519-5d3bd2b3097d","ios":"levelo://app?vid=2f36a039-b467-4436-a519-5d3bd2b3097d"},"vehicle_type_id":"4","last_reported":1719079790,"current_range_meters":0,"station_id":"ce4bgkh2rcd13ifvqbk0","pricing_plan_id":"cebpf4jnsgd1na2vs0mg"},{"bike_id":"55a77ce5-31a7-479e-b69c-c7e060ebdc9e","system_id":"levelo_inurba_marseille","lat":43.29374,"lon":5.37839,"is_reserved":false,"is_disabled":false,"rental_uris":{"android":"levelo://app?vid=55a77ce5-31a7-479e-b69c-c7e060ebdc9e","ios":"levelo://app?vid=55a77ce5-31a7-479e-b69c-c7e060ebdc9e"},"vehicle_type_id":"4","last_reported":1719079790,"current_range_meters":11200,"station_id":"ce4bgjh2rcd13ifvqbf0","pricing_plan_id":"cebpf4jnsgd1na2vs0mg"},{"bike_id":"b846069b-79cf-4dd7-98be-69ac71d3d085","system_id":"levelo_inurba_marseille","lat":43.2936,"lon":5.37835,"is_reserved":false,"is_disabled":false,"rental_uris":{"android":"levelo://app?vid=b846069b-79cf-4dd7-98be-69ac71d3d085","ios":"levelo://app?vid=b846069b-79cf-4dd7-98be-69ac71d3d085"},"vehicle_type_id":"4","last_reported":1719079790,"current_range_meters":30000,"station_id":"ce4bgjh2rcd13ifvqbf0","pricing_plan_id":"cebpf4jnsgd1na2vs0mg"},{"bike_id":"a5402d66-5ed4-48cd-aee4-9837243581a4","system_id":"levelo_inurba_marseille","lat":43.2936,"lon":5.37835,"is_reserved":false,"is_disabled":false,"rental_uris":{"android":"levelo://app?vid=a5402d66-5ed4-48cd-aee4-9837243581a4","ios":"levelo://app?vid=a5402d66-5ed4-48cd-aee4-9837243581a4"},"vehicle_type_id":"4","last_reported":1719079790,"current_range_meters":0,"station_id":"ce4bgjh2rcd13ifvqbf0","pricing_plan_id":"cebpf4jnsgd1na2vs0mg"},{"bike_id":"08332bef-763b-4569-9b34-0e571ed515ea","system_id":"levelo_inurba_marseille","lat":43.2936,"lon":5.37835,"is_reserved":false,"is_disabled":false,"rental_uris":{"android":"levelo://app?vid=08332bef-763b-4569-9b34-0e571ed515ea","ios":"levelo://app?vid=08332bef-763b-4569-9b34-0e571ed515ea"},"vehicle_type_id":"4","last_reported":1719079790,"current_range_meters":18400,"station_id":"ce4bgjh2rcd13ifvqbf0","pricing_plan_id":"cebpf4jnsgd1na2vs0mg"},{"bike_id":"bf3b297c-d7ca-4107-ab28-9c0a4837b72a","system_id":"levelo_inurba_marseille","lat":43.302992,"lon":5.392136,"is_reserved":false,"is_disabled":false,"rental_uris":{"android":"levelo://app?vid=bf3b297c-d7ca-4107-ab28-9c0a4837b72a","ios":"levelo://app?vid=bf3b297c-d7ca-4107-ab28-9c0a4837b72a"},"vehicle_type_id":"4","last_reported":1719079790,"current_range_meters":18000,"station_id":"ce4bgkh2rcd13ifvqbk0","pricing_plan_id":"cebpf4jnsgd1na2vs0mg"},{"bike_id":"1610589e-1067-4a29-89a3-0b54c26366a0","system_id":"levelo_inurba_marseille","lat":43.2936,"lon":5.37835,"is_reserved":false,"is_disabled":false,"rental_uris":{"android":"levelo://app?vid=1610589e-1067-4a29-89a3-0b54c26366a0","ios":"levelo://app?vid=1610589e-1067-4a29-89a3-0b54c26366a0"},"vehicle_type_id":"4","last_reported":1719079790,"current_range_meters":4000,"station_id":"ce4bgjh2rcd13ifvqbf0","pricing_plan_id":"cebpf4jnsgd1na2vs0mg"},{"bike_id":"df0b3e62-e5c2-4241-b580-f305871ce845","system_id":"levelo_inurba_marseille","lat":43.2936,"lon":5.37835,"is_reserved":false,"is_disabled":false,"rental_uris":{"android":"levelo://app?vid=df0b3e62-e5c2-4241-b580-f305871ce845","ios":"levelo://app?vid=df0b3e62-e5c2-4241-b580-f305871ce845"},"vehicle_type_id":"4","last_reported":1719079790,"current_range_meters":4800,"station_id":"ce4bgjh2rcd13ifvqbf0","pricing_plan_id":"cebpf4jnsgd1na2vs0mg"},{"bike_id":"218add4e-2c88-49ae-a50d-0cc836a624cc","system_id":"levelo_inurba_marseille","lat":43.302992,"lon":5.392136,"is_reserved":false,"is_disabled":false,"rental_uris":{"android":"levelo://app?vid=218add4e-2c88-49ae-a50d-0cc836a624cc","ios":"levelo://app?vid=218add4e-2c88-49ae-a50d-0cc836a624cc"},"vehicle_type_id":"4","last_reported":1719079790,"current_range_meters":27200,"station_id":"ce4bgkh2rcd13ifvqbk0","pricing_plan_id":"cebpf4jnsgd1na2vs0mg"},{"bike_id":"c72d89a7-42f8-4c0b-b74d-3734820b5653","system_id":"levelo_inurba_marseille","lat":43.2936,"lon":5.37835,"is_reserved":false,"is_disabled":false,"rental_uris":{"android":"levelo://app?vid=c72d89a7-42f8-4c0b-b74d-3734820b5653","ios":"levelo://app?vid=c72d89a7-42f8-4c0b-b74d-3734820b5653"},"vehicle_type_id":"4","last_reported":1719079790,"current_range_meters":31200,"station_id":"ce4bgjh2rcd13ifvqbf0","pricing_plan_id":"cebpf4jnsgd1na2vs0mg"},{"bike_id":"c3a7e810-495c-4f1b-a7ca-d817601edcc9","system_id":"levelo_inurba_marseille","lat":43.2936,"lon":5.37835,"is_reserved":false,"is_disabled":false,"rental_uris":{"android":"levelo://app?vid=c3a7e810-495c-4f1b-a7ca-d817601edcc9","ios":"levelo://app?vid=c3a7e810-495c-4f1b-a7ca-d817601edcc9"},"vehicle_type_id":"4","last_reported":1719079790,"current_range_meters":3600,"station_id":"ce4bgjh2rcd13ifvqbf0","pricing_plan_id":"cebpf4jnsgd1na2vs0mg"},{"bike_id":"9cd97ffc-ac15-46b3-ba14-b3d71d89448c","system_id":"levelo_inurba_marseille","lat":43.292311,"lon":5.360731,"is_reserved":false,"is_disabled":false,"rental_uris":{"android":"levelo://app?vid=9cd97ffc-ac15-46b3-ba14-b3d71d89448c","ios":"levelo://app?vid=9cd97ffc-ac15-46b3-ba14-b3d71d89448c"},"vehicle_type_id":"4","last_reported":1719079790,"current_range_meters":18400,"station_id":"ce4bhbh2rcd13ifvqeqg","pricing_plan_id":"cebpf4jnsgd1na2vs0mg"},{"bike_id":"9a4e1191-1fad-4f5d-8d5a-11dd2a8f2bcd","system_id":"levelo_inurba_marseille","lat":43.2936,"lon":5.37835,"is_reserved":false,"is_disabled":false,"rental_uris":{"android":"levelo://app?vid=9a4e1191-1fad-4f5d-8d5a-11dd2a8f2bcd","ios":"levelo://app?vid=9a4e1191-1fad-4f5d-8d5a-11dd2a8f2bcd"},"vehicle_type_id":"4","last_reported":1719079790,"current_range_meters":28800,"station_id":"ce4bgjh2rcd13ifvqbf0","pricing_plan_id":"cebpf4jnsgd1na2vs0mg"},{"bike_id":"4c202b7e-e502-41f6-96e0-18ff8b751a6b","system_id":"levelo_inurba_marseille","lat":43.29225,"lon":5.36069,"is_reserved":false,"is_disabled":false,"rental_uris":{"android":"levelo://app?vid=4c202b7e-e502-41f6-96e0-18ff8b751a6b","ios":"levelo://app?vid=4c202b7e-e502-41f6-96e0-18ff8b751a6b"},"vehicle_type_id":"4","last_reported":1719079790,"current_range_meters":3600,"station_id":"ce4bhbh2rcd13ifvqeqg","pricing_plan_id":"cebpf4jnsgd1na2vs0mg"},{"bike_id":"f99a336a-9c12-4768-ba6e-9389e9ea2f5f","system_id":"levelo_inurba_marseille","lat":43.292311,"lon":5.360731,"is_reserved":false,"is_disabled":false,"rental_uris":{"android":"levelo://app?vid=f99a336a-9c12-4768-ba6e-9389e9ea2f5f","ios":"levelo://app?vid=f99a336a-9c12-4768-ba6e-9389e9ea2f5f"},"vehicle_type_id":"4","last_reported":1719079790,"current_range_meters":2800,"station_id":"ce4bhbh2rcd13ifvqeqg","pricing_plan_id":"cebpf4jnsgd1na2vs0mg"},{"bike_id":"e3770949-f192-46f4-beeb-dc01053cbde5","system_id":"levelo_inurba_marseille","lat":43.29224,"lon":5.3606,"is_reserved":false,"is_disabled":false,"rental_uris":{"android":"levelo://app?vid=e3770949-f192-46f4-beeb-dc01053cbde5","ios":"levelo://app?vid=e3770949-f192-46f4-beeb-dc01053cbde5"},"vehicle_type_id":"4","last_reported":1719079790,"current_range_meters":0,"station_id":"ce4bhbh2rcd13ifvqeqg","pricing_plan_id":"cebpf4jnsgd1na2vs0mg"},{"bike_id":"c5e90907-ef63-4304-aa0f-8d5032391f20","system_id":"levelo_inurba_marseille","lat":43.29223,"lon":5.36061,"is_reserved":false,"is_disabled":false,"rental_uris":{"android":"levelo://app?vid=c5e90907-ef63-4304-aa0f-8d5032391f20","ios":"levelo://app?vid=c5e90907-ef63-4304-aa0f-8d5032391f20"},"vehicle_type_id":"4","last_reported":1719079790,"current_range_meters":3200,"station_id":"ce4bhbh2rcd13ifvqeqg","pricing_plan_id":"cebpf4jnsgd1na2vs0mg"},{"bike_id":"6cd2bf9b-a5d8-4be5-b088-f9b32d14ac7c","system_id":"levelo_inurba_marseille","lat":43.298764,"lon":5.388973,"is_reserved":false,"is_disabled":false,"rental_uris":{"android":"levelo://app?vid=6cd2bf9b-a5d8-4be5-b088-f9b32d14ac7c","ios":"levelo://app?vid=6cd2bf9b-a5d8-4be5-b088-f9b32d14ac7c"},"vehicle_type_id":"4","last_reported":1719079790,"current_range_meters":5600,"station_id":"ce4bh392rcd13ifvqdl0","pricing_plan_id":"cebpf4jnsgd1na2vs0mg"},{"bike_id":"aec3b25d-5fc2-4570-b14c-58cae923531f","system_id":"levelo_inurba_marseille","lat":43.298764,"lon":5.388973,"is_reserved":false,"is_disabled":false,"rental_uris":{"android":"levelo://app?vid=aec3b25d-5fc2-4570-b14c-58cae923531f","ios":"levelo://app?vid=aec3b25d-5fc2-4570-b14c-58cae923531f"},"vehicle_type_id":"4","last_reported":1719079790,"current_range_meters":4800,"station_id":"ce4bh392rcd13ifvqdl0","pricing_plan_id":"cebpf4jnsgd1na2vs0mg"},{"bike_id":"49667a19-6508-4358-a708-b2a4daa94938","system_id":"levelo_inurba_marseille","lat":43.30885,"lon":5.39635,"is_reserved":false,"is_disabled":false,"rental_uris":{"android":"levelo://app?vid=49667a19-6508-4358-a708-b2a4daa94938","ios":"levelo://app?vid=49667a19-6508-4358-a708-b2a4daa94938"},"vehicle_type_id":"4","last_reported":1719079790,"current_range_meters":0,"station_id":"ce4bh012rcd13ifvqcv0","pricing_plan_id":"cebpf4jnsgd1na2vs0mg"},{"bike_id":"81f9a372-9f46-4e31-8eac-3e18857bbba1","system_id":"levelo_inurba_marseille","lat":43.313291,"lon":5.396838,"is_reserved":false,"is_disabled":false,"rental_uris":{"android":"levelo://app?vid=81f9a372-9f46-4e31-8eac-3e18857bbba1","ios":"levelo://app?vid=81f9a372-9f46-4e31-8eac-3e18857bbba1"},"vehicle_type_id":"4","last_reported":1719079790,"current_range_meters":2000,"station_id":"ce4bgvp2rcd13ifvqcu0","pricing_plan_id":"cebpf4jnsgd1na2vs0mg"},{"bike_id":"d655d8c5-63d3-4bf2-9e55-cd747c737254","system_id":"levelo_inurba_marseille","lat":43.309047,"lon":5.396551,"is_reserved":false,"is_disabled":false,"rental_uris":{"android":"levelo://app?vid=d655d8c5-63d3-4bf2-9e55-cd747c737254","ios":"levelo://app?vid=d655d8c5-63d3-4bf2-9e55-cd747c737254"},"vehicle_type_id":"4","last_reported":1719079790,"current_range_meters":0,"station_id":"ce4bh012rcd13ifvqcv0","pricing_plan_id":"cebpf4jnsgd1na2vs0mg"},{"bike_id":"ec9ca944-4dcb-43f4-a786-ec45762ca88f","system_id":"levelo_inurba_marseille","lat":43.309047,"lon":5.396551,"is_reserved":false,"is_disabled":false,"rental_uris":{"android":"levelo://app?vid=ec9ca944-4dcb-43f4-a786-ec45762ca88f","ios":"levelo://app?vid=ec9ca944-4dcb-43f4-a786-ec45762ca88f"},"vehicle_type_id":"4","last_reported":1719079790,"current_range_meters":8800,"station_id":"ce4bh012rcd13ifvqcv0","pricing_plan_id":"cebpf4jnsgd1na2vs0mg"},{"bike_id":"6d0fd44a-6e15-48c3-b4ca-f7cc12b121e2","system_id":"levelo_inurba_marseille","lat":43.309047,"lon":5.396551,"is_reserved":false,"is_disabled":false,"rental_uris":{"android":"levelo://app?vid=6d0fd44a-6e15-48c3-b4ca-f7cc12b121e2","ios":"levelo://app?vid=6d0fd44a-6e15-48c3-b4ca-f7cc12b121e2"},"vehicle_type_id":"4","last_reported":1719079790,"current_range_meters":30400,"station_id":"ce4bh012rcd13ifvqcv0","pricing_plan_id":"cebpf4jnsgd1na2vs0mg"},{"bike_id":"652f04ee-4011-4a08-9fe6-4abf20ff7261","system_id":"levelo_inurba_marseille","lat":43.309047,"lon":5.396551,"is_reserved":false,"is_disabled":false,"rental_uris":{"android":"levelo://app?vid=652f04ee-4011-4a08-9fe6-4abf20ff7261","ios":"levelo://app?vid=652f04ee-4011-4a08-9fe6-4abf20ff7261"},"vehicle_type_id":"4","last_reported":1719079790,"current_range_meters":17200,"station_id":"ce4bh012rcd13ifvqcv0","pricing_plan_id":"cebpf4jnsgd1na2vs0mg"},{"bike_id":"014855ae-3218-4ccd-ba6b-8806acbc05c5","system_id":"levelo_inurba_marseille","lat":43.309047,"lon":5.396551,"is_reserved":false,"is_disabled":false,"rental_uris":{"android":"levelo://app?vid=014855ae-3218-4ccd-ba6b-8806acbc05c5","ios":"levelo://app?vid=014855ae-3218-4ccd-ba6b-8806acbc05c5"},"vehicle_type_id":"4","last_reported":1719079790,"current_range_meters":3600,"station_id":"ce4bh012rcd13ifvqcv0","pricing_plan_id":"cebpf4jnsgd1na2vs0mg"},{"bike_id":"ab01d602-5dee-4593-a5f2-784b7e7504af","system_id":"levelo_inurba_marseille","lat":43.29529,"lon":5.385581,"is_reserved":false,"is_disabled":false,"rental_uris":{"android":"levelo://app?vid=ab01d602-5dee-4593-a5f2-784b7e7504af","ios":"levelo://app?vid=ab01d602-5dee-4593-a5f2-784b7e7504af"},"vehicle_type_id":"4","last_reported":1719079790,"current_range_meters":17200,"station_id":"ce4bgih2rcd13ifvqba0","pricing_plan_id":"cebpf4jnsgd1na2vs0mg"},{"bike_id":"b34efff9-30bb-4f68-9aab-cc26214d99d1","system_id":"levelo_inurba_marseille","lat":43.29529,"lon":5.385581,"is_reserved":false,"is_disabled":false,"rental_uris":{"android":"levelo://app?vid=b34efff9-30bb-4f68-9aab-cc26214d99d1","ios":"levelo://app?vid=b34efff9-30bb-4f68-9aab-cc26214d99d1"},"vehicle_type_id":"4","last_reported":1719079790,"current_range_meters":9600,"station_id":"ce4bgih2rcd13ifvqba0","pricing_plan_id":"cebpf4jnsgd1na2vs0mg"},{"bike_id":"0feffb02-3132-4c57-bae0-035ef15d35af","system_id":"levelo_inurba_marseille","lat":43.29529,"lon":5.385581,"is_reserved":false,"is_disabled":false,"rental_uris":{"android":"levelo://app?vid=0feffb02-3132-4c57-bae0-035ef15d35af","ios":"levelo://app?vid=0feffb02-3132-4c57-bae0-035ef15d35af"},"vehicle_type_id":"4","last_reported":1719079790,"current_range_meters":28800,"station_id":"ce4bgih2rcd13ifvqba0","pricing_plan_id":"cebpf4jnsgd1na2vs0mg"},{"bike_id":"ad19c4f7-5fb1-4a83-ae96-bf41b092f22f","system_id":"levelo_inurba_marseille","lat":43.29529,"lon":5.385581,"is_reserved":false,"is_disabled":false,"rental_uris":{"android":"levelo://app?vid=ad19c4f7-5fb1-4a83-ae96-bf41b092f22f","ios":"levelo://app?vid=ad19c4f7-5fb1-4a83-ae96-bf41b092f22f"},"vehicle_type_id":"4","last_reported":1719079790,"current_range_meters":18800,"station_id":"ce4bgih2rcd13ifvqba0","pricing_plan_id":"cebpf4jnsgd1na2vs0mg"},{"bike_id":"05dd7773-c1cc-46b1-972d-fa258340129c","system_id":"levelo_inurba_marseille","lat":43.29529,"lon":5.385581,"is_reserved":false,"is_disabled":false,"rental_uris":{"android":"levelo://app?vid=05dd7773-c1cc-46b1-972d-fa258340129c","ios":"levelo://app?vid=05dd7773-c1cc-46b1-972d-fa258340129c"},"vehicle_type_id":"4","last_reported":1719079790,"current_range_meters":0,"station_id":"ce4bgih2rcd13ifvqba0","pricing_plan_id":"cebpf4jnsgd1na2vs0mg"},{"bike_id":"1a30683b-a1dc-4af3-9236-64d781b7edc0","system_id":"levelo_inurba_marseille","lat":43.29529,"lon":5.385581,"is_reserved":false,"is_disabled":false,"rental_uris":{"android":"levelo://app?vid=1a30683b-a1dc-4af3-9236-64d781b7edc0","ios":"levelo://app?vid=1a30683b-a1dc-4af3-9236-64d781b7edc0"},"vehicle_type_id":"4","last_reported":1719079790,"current_range_meters":20400,"station_id":"ce4bgih2rcd13ifvqba0","pricing_plan_id":"cebpf4jnsgd1na2vs0mg"},{"bike_id":"9c3efffe-ad52-47d7-a40c-71b7d5ee7994","system_id":"levelo_inurba_marseille","lat":43.2953,"lon":5.38551,"is_reserved":false,"is_disabled":false,"rental_uris":{"android":"levelo://app?vid=9c3efffe-ad52-47d7-a40c-71b7d5ee7994","ios":"levelo://app?vid=9c3efffe-ad52-47d7-a40c-71b7d5ee7994"},"vehicle_type_id":"4","last_reported":1719079790,"current_range_meters":2000,"station_id":"ce4bgih2rcd13ifvqba0","pricing_plan_id":"cebpf4jnsgd1na2vs0mg"},{"bike_id":"fbae516d-58a4-480a-9ca3-374e0bf60850","system_id":"levelo_inurba_marseille","lat":43.29529,"lon":5.385581,"is_reserved":false,"is_disabled":false,"rental_uris":{"android":"levelo://app?vid=fbae516d-58a4-480a-9ca3-374e0bf60850","ios":"levelo://app?vid=fbae516d-58a4-480a-9ca3-374e0bf60850"},"vehicle_type_id":"4","last_reported":1719079790,"current_range_meters":6800,"station_id":"ce4bgih2rcd13ifvqba0","pricing_plan_id":"cebpf4jnsgd1na2vs0mg"},{"bike_id":"06965ce6-ea9d-4002-bcbe-cda02a085364","system_id":"levelo_inurba_marseille","lat":43.29529,"lon":5.385581,"is_reserved":false,"is_disabled":false,"rental_uris":{"android":"levelo://app?vid=06965ce6-ea9d-4002-bcbe-cda02a085364","ios":"levelo://app?vid=06965ce6-ea9d-4002-bcbe-cda02a085364"},"vehicle_type_id":"4","last_reported":1719079790,"current_range_meters":8000,"station_id":"ce4bgih2rcd13ifvqba0","pricing_plan_id":"cebpf4jnsgd1na2vs0mg"},{"bike_id":"aa89c25d-62c1-4689-bf62-a23dca8c0614","system_id":"levelo_inurba_marseille","lat":43.29529,"lon":5.385581,"is_reserved":false,"is_disabled":false,"rental_uris":{"android":"levelo://app?vid=aa89c25d-62c1-4689-bf62-a23dca8c0614","ios":"levelo://app?vid=aa89c25d-62c1-4689-bf62-a23dca8c0614"},"vehicle_type_id":"4","last_reported":1719079790,"current_range_meters":18000,"station_id":"ce4bgih2rcd13ifvqba0","pricing_plan_id":"cebpf4jnsgd1na2vs0mg"},{"bike_id":"a883cc96-a98a-41ef-9963-9c8afec5b8c8","system_id":"levelo_inurba_marseille","lat":43.290779,"lon":5.371482,"is_reserved":false,"is_disabled":false,"rental_uris":{"android":"levelo://app?vid=a883cc96-a98a-41ef-9963-9c8afec5b8c8","ios":"levelo://app?vid=a883cc96-a98a-41ef-9963-9c8afec5b8c8"},"vehicle_type_id":"4","last_reported":1719079790,"current_range_meters":28800,"station_id":"ce4bh5p2rcd13ifvqe4g","pricing_plan_id":"cebpf4jnsgd1na2vs0mg"},{"bike_id":"30fe302b-92c5-4faf-bad2-cfdd36b0b6e7","system_id":"levelo_inurba_marseille","lat":43.290779,"lon":5.371482,"is_reserved":false,"is_disabled":false,"rental_uris":{"android":"levelo://app?vid=30fe302b-92c5-4faf-bad2-cfdd36b0b6e7","ios":"levelo://app?vid=30fe302b-92c5-4faf-bad2-cfdd36b0b6e7"},"vehicle_type_id":"4","last_reported":1719079790,"current_range_meters":12400,"station_id":"ce4bh5p2rcd13ifvqe4g","pricing_plan_id":"cebpf4jnsgd1na2vs0mg"},{"bike_id":"80daf218-e373-4bff-a1ea-cfd8320644ee","system_id":"levelo_inurba_marseille","lat":43.290779,"lon":5.371482,"is_reserved":false,"is_disabled":false,"rental_uris":{"android":"levelo://app?vid=80daf218-e373-4bff-a1ea-cfd8320644ee","ios":"levelo://app?vid=80daf218-e373-4bff-a1ea-cfd8320644ee"},"vehicle_type_id":"4","last_reported":1719079790,"current_range_meters":0,"station_id":"ce4bh5p2rcd13ifvqe4g","pricing_plan_id":"cebpf4jnsgd1na2vs0mg"},{"bike_id":"59642672-e94b-470d-8a63-fe808b6b562a","system_id":"levelo_inurba_marseille","lat":43.302008,"lon":5.394694,"is_reserved":false,"is_disabled":false,"rental_uris":{"android":"levelo://app?vid=59642672-e94b-470d-8a63-fe808b6b562a","ios":"levelo://app?vid=59642672-e94b-470d-8a63-fe808b6b562a"},"vehicle_type_id":"4","last_reported":1719079790,"current_range_meters":22800,"station_id":"ce4bh0p2rcd13ifvqd70","pricing_plan_id":"cebpf4jnsgd1na2vs0mg"},{"bike_id":"cbf439e9-228c-48cc-a476-9e430140c9bc","system_id":"levelo_inurba_marseille","lat":43.302008,"lon":5.394694,"is_reserved":false,"is_disabled":false,"rental_uris":{"android":"levelo://app?vid=cbf439e9-228c-48cc-a476-9e430140c9bc","ios":"levelo://app?vid=cbf439e9-228c-48cc-a476-9e430140c9bc"},"vehicle_type_id":"4","last_reported":1719079790,"current_range_meters":19600,"station_id":"ce4bh0p2rcd13ifvqd70","pricing_plan_id":"cebpf4jnsgd1na2vs0mg"},{"bike_id":"fd4f93c5-f41e-4136-822a-e20753ab5a4b","system_id":"levelo_inurba_marseille","lat":43.290624,"lon":5.359245,"is_reserved":false,"is_disabled":false,"rental_uris":{"android":"levelo://app?vid=fd4f93c5-f41e-4136-822a-e20753ab5a4b","ios":"levelo://app?vid=fd4f93c5-f41e-4136-822a-e20753ab5a4b"},"vehicle_type_id":"4","last_reported":1719079790,"current_range_meters":5200,"station_id":"ce4bha92rcd13ifvqeg0","pricing_plan_id":"cebpf4jnsgd1na2vs0mg"},{"bike_id":"67047250-8321-4261-b8de-8c095a8ce691","system_id":"levelo_inurba_marseille","lat":43.29471,"lon":5.38668,"is_reserved":false,"is_disabled":false,"rental_uris":{"android":"levelo://app?vid=67047250-8321-4261-b8de-8c095a8ce691","ios":"levelo://app?vid=67047250-8321-4261-b8de-8c095a8ce691"},"vehicle_type_id":"4","last_reported":1719079790,"current_range_meters":5600,"station_id":"","pricing_plan_id":"cebpf4jnsgd1na2vs0mg"},{"bike_id":"1673daf4-cac2-4ed6-964a-24c4eb01b123","system_id":"levelo_inurba_marseille","lat":43.294153,"lon":5.386305,"is_reserved":false,"is_disabled":false,"rental_uris":{"android":"levelo://app?vid=1673daf4-cac2-4ed6-964a-24c4eb01b123","ios":"levelo://app?vid=1673daf4-cac2-4ed6-964a-24c4eb01b123"},"vehicle_type_id":"4","last_reported":1719079790,"current_range_meters":8400,"station_id":"ce4bh2h2rcd13ifvqdh0","pricing_plan_id":"cebpf4jnsgd1na2vs0mg"},{"bike_id":"f347532e-7952-4298-bff7-62d2e73e269e","system_id":"levelo_inurba_marseille","lat":43.290624,"lon":5.359245,"is_reserved":false,"is_disabled":false,"rental_uris":{"android":"levelo://app?vid=f347532e-7952-4298-bff7-62d2e73e269e","ios":"levelo://app?vid=f347532e-7952-4298-bff7-62d2e73e269e"},"vehicle_type_id":"4","last_reported":1719079790,"current_range_meters":0,"station_id":"ce4bha92rcd13ifvqeg0","pricing_plan_id":"cebpf4jnsgd1na2vs0mg"},{"bike_id":"83e44802-0a6e-4a22-96bd-3cf8737abb0b","system_id":"levelo_inurba_marseille","lat":43.304274,"lon":5.397513,"is_reserved":false,"is_disabled":false,"rental_uris":{"android":"levelo://app?vid=83e44802-0a6e-4a22-96bd-3cf8737abb0b","ios":"levelo://app?vid=83e44802-0a6e-4a22-96bd-3cf8737abb0b"},"vehicle_type_id":"4","last_reported":1719079790,"current_range_meters":21200,"station_id":"ce4bh092rcd13ifvqd20","pricing_plan_id":"cebpf4jnsgd1na2vs0mg"},{"bike_id":"691b0087-4ab9-4041-9d5e-9c1286d1d257","system_id":"levelo_inurba_marseille","lat":43.290319,"lon":5.375732,"is_reserved":false,"is_disabled":false,"rental_uris":{"android":"levelo://app?vid=691b0087-4ab9-4041-9d5e-9c1286d1d257","ios":"levelo://app?vid=691b0087-4ab9-4041-9d5e-9c1286d1d257"},"vehicle_type_id":"4","last_reported":1719079790,"current_range_meters":10000,"station_id":"ce4bh692rcd13ifvqe90","pricing_plan_id":"cebpf4jnsgd1na2vs0mg"},{"bike_id":"b0d71403-bc0a-433e-917a-1b9aa310968a","system_id":"levelo_inurba_marseille","lat":43.294153,"lon":5.386305,"is_reserved":false,"is_disabled":false,"rental_uris":{"android":"levelo://app?vid=b0d71403-bc0a-433e-917a-1b9aa310968a","ios":"levelo://app?vid=b0d71403-bc0a-433e-917a-1b9aa310968a"},"vehicle_type_id":"4","last_reported":1719079790,"current_range_meters":26400,"station_id":"ce4bh2h2rcd13ifvqdh0","pricing_plan_id":"cebpf4jnsgd1na2vs0mg"},{"bike_id":"0478fb49-68c1-4b7d-a974-231985103459","system_id":"levelo_inurba_marseille","lat":43.294153,"lon":5.386305,"is_reserved":false,"is_disabled":false,"rental_uris":{"android":"levelo://app?vid=0478fb49-68c1-4b7d-a974-231985103459","ios":"levelo://app?vid=0478fb49-68c1-4b7d-a974-231985103459"},"vehicle_type_id":"4","last_reported":1719079790,"current_range_meters":4000,"station_id":"ce4bh2h2rcd13ifvqdh0","pricing_plan_id":"cebpf4jnsgd1na2vs0mg"},{"bike_id":"fa1bb6e0-c465-467e-b8f3-899fcf4eac02","system_id":"levelo_inurba_marseille","lat":43.294153,"lon":5.386305,"is_reserved":false,"is_disabled":false,"rental_uris":{"android":"levelo://app?vid=fa1bb6e0-c465-467e-b8f3-899fcf4eac02","ios":"levelo://app?vid=fa1bb6e0-c465-467e-b8f3-899fcf4eac02"},"vehicle_type_id":"4","last_reported":1719079790,"current_range_meters":14800,"station_id":"ce4bh2h2rcd13ifvqdh0","pricing_plan_id":"cebpf4jnsgd1na2vs0mg"},{"bike_id":"7b97af5c-98f0-4525-bdb6-01e8eb35b6dc","system_id":"levelo_inurba_marseille","lat":43.294162,"lon":5.386292,"is_reserved":false,"is_disabled":false,"rental_uris":{"android":"levelo://app?vid=7b97af5c-98f0-4525-bdb6-01e8eb35b6dc","ios":"levelo://app?vid=7b97af5c-98f0-4525-bdb6-01e8eb35b6dc"},"vehicle_type_id":"4","last_reported":1719079790,"current_range_meters":20000,"station_id":"ce4bh2h2rcd13ifvqdh0","pricing_plan_id":"cebpf4jnsgd1na2vs0mg"},{"bike_id":"39f6e889-a576-4943-8974-51335ffdfc5e","system_id":"levelo_inurba_marseille","lat":43.289468,"lon":5.363719,"is_reserved":false,"is_disabled":false,"rental_uris":{"android":"levelo://app?vid=39f6e889-a576-4943-8974-51335ffdfc5e","ios":"levelo://app?vid=39f6e889-a576-4943-8974-51335ffdfc5e"},"vehicle_type_id":"4","last_reported":1719079790,"current_range_meters":0,"station_id":"ce4bhc92rcd13ifvqetg","pricing_plan_id":"cebpf4jnsgd1na2vs0mg"},{"bike_id":"e3253210-b9ee-4f48-9618-2e5a6da5292c","system_id":"levelo_inurba_marseille","lat":43.292642,"lon":5.384254,"is_reserved":false,"is_disabled":false,"rental_uris":{"android":"levelo://app?vid=e3253210-b9ee-4f48-9618-2e5a6da5292c","ios":"levelo://app?vid=e3253210-b9ee-4f48-9618-2e5a6da5292c"},"vehicle_type_id":"4","last_reported":1719079790,"current_range_meters":0,"station_id":"ce4bh692rcd13ifvqea0","pricing_plan_id":"cebpf4jnsgd1na2vs0mg"},{"bike_id":"98ddfe87-6653-47e0-ad3b-e84aa772569c","system_id":"levelo_inurba_marseille","lat":43.304274,"lon":5.397513,"is_reserved":false,"is_disabled":false,"rental_uris":{"android":"levelo://app?vid=98ddfe87-6653-47e0-ad3b-e84aa772569c","ios":"levelo://app?vid=98ddfe87-6653-47e0-ad3b-e84aa772569c"},"vehicle_type_id":"4","last_reported":1719079790,"current_range_meters":28000,"station_id":"ce4bh092rcd13ifvqd20","pricing_plan_id":"cebpf4jnsgd1na2vs0mg"},{"bike_id":"72646f27-12a7-459e-b0e0-d31efeb09379","system_id":"levelo_inurba_marseille","lat":43.292642,"lon":5.384254,"is_reserved":false,"is_disabled":false,"rental_uris":{"android":"levelo://app?vid=72646f27-12a7-459e-b0e0-d31efeb09379","ios":"levelo://app?vid=72646f27-12a7-459e-b0e0-d31efeb09379"},"vehicle_type_id":"4","last_reported":1719079790,"current_range_meters":28800,"station_id":"ce4bh692rcd13ifvqea0","pricing_plan_id":"cebpf4jnsgd1na2vs0mg"},{"bike_id":"77a6b8d1-7dca-49f4-847d-6a81e04d9f3f","system_id":"levelo_inurba_marseille","lat":43.292642,"lon":5.384254,"is_reserved":false,"is_disabled":false,"rental_uris":{"android":"levelo://app?vid=77a6b8d1-7dca-49f4-847d-6a81e04d9f3f","ios":"levelo://app?vid=77a6b8d1-7dca-49f4-847d-6a81e04d9f3f"},"vehicle_type_id":"4","last_reported":1719079790,"current_range_meters":15200,"station_id":"ce4bh692rcd13ifvqea0","pricing_plan_id":"cebpf4jnsgd1na2vs0mg"},{"bike_id":"886028ef-93ed-4db9-bc68-8112ffcfa3a3","system_id":"levelo_inurba_marseille","lat":43.29266,"lon":5.38439,"is_reserved":false,"is_disabled":false,"rental_uris":{"android":"levelo://app?vid=886028ef-93ed-4db9-bc68-8112ffcfa3a3","ios":"levelo://app?vid=886028ef-93ed-4db9-bc68-8112ffcfa3a3"},"vehicle_type_id":"4","last_reported":1719079790,"current_range_meters":0,"station_id":"ce4bh692rcd13ifvqea0","pricing_plan_id":"cebpf4jnsgd1na2vs0mg"},{"bike_id":"3a6962c2-8971-490d-999f-5b8a36583839","system_id":"levelo_inurba_marseille","lat":43.304274,"lon":5.397513,"is_reserved":false,"is_disabled":false,"rental_uris":{"android":"levelo://app?vid=3a6962c2-8971-490d-999f-5b8a36583839","ios":"levelo://app?vid=3a6962c2-8971-490d-999f-5b8a36583839"},"vehicle_type_id":"4","last_reported":1719079790,"current_range_meters":22400,"station_id":"ce4bh092rcd13ifvqd20","pricing_plan_id":"cebpf4jnsgd1na2vs0mg"},{"bike_id":"4291b856-2b9e-484a-b971-6c7a4a0102b8","system_id":"levelo_inurba_marseille","lat":43.292642,"lon":5.384254,"is_reserved":false,"is_disabled":false,"rental_uris":{"android":"levelo://app?vid=4291b856-2b9e-484a-b971-6c7a4a0102b8","ios":"levelo://app?vid=4291b856-2b9e-484a-b971-6c7a4a0102b8"},"vehicle_type_id":"4","last_reported":1719079790,"current_range_meters":14800,"station_id":"ce4bh692rcd13ifvqea0","pricing_plan_id":"cebpf4jnsgd1na2vs0mg"},{"bike_id":"4b00eeec-58ca-48c7-97a1-12d48e75630b","system_id":"levelo_inurba_marseille","lat":43.292672,"lon":5.384475,"is_reserved":false,"is_disabled":false,"rental_uris":{"android":"levelo://app?vid=4b00eeec-58ca-48c7-97a1-12d48e75630b","ios":"levelo://app?vid=4b00eeec-58ca-48c7-97a1-12d48e75630b"},"vehicle_type_id":"4","last_reported":1719079790,"current_range_meters":26000,"station_id":"ce4bh692rcd13ifvqea0","pricing_plan_id":"cebpf4jnsgd1na2vs0mg"},{"bike_id":"c856e4c9-b30b-448f-8f26-f44a639b3fbd","system_id":"levelo_inurba_marseille","lat":43.29265,"lon":5.38443,"is_reserved":false,"is_disabled":false,"rental_uris":{"android":"levelo://app?vid=c856e4c9-b30b-448f-8f26-f44a639b3fbd","ios":"levelo://app?vid=c856e4c9-b30b-448f-8f26-f44a639b3fbd"},"vehicle_type_id":"4","last_reported":1719079790,"current_range_meters":25600,"station_id":"ce4bh692rcd13ifvqea0","pricing_plan_id":"cebpf4jnsgd1na2vs0mg"},{"bike_id":"ee40b552-40f6-47bc-a79f-6cdd2b9586fa","system_id":"levelo_inurba_marseille","lat":43.29264,"lon":5.38443,"is_reserved":false,"is_disabled":false,"rental_uris":{"android":"levelo://app?vid=ee40b552-40f6-47bc-a79f-6cdd2b9586fa","ios":"levelo://app?vid=ee40b552-40f6-47bc-a79f-6cdd2b9586fa"},"vehicle_type_id":"4","last_reported":1719079790,"current_range_meters":400,"station_id":"ce4bh692rcd13ifvqea0","pricing_plan_id":"cebpf4jnsgd1na2vs0mg"},{"bike_id":"ef0a579d-4c7d-4bc8-bdb3-f295ae0f4c74","system_id":"levelo_inurba_marseille","lat":43.29266,"lon":5.38451,"is_reserved":false,"is_disabled":false,"rental_uris":{"android":"levelo://app?vid=ef0a579d-4c7d-4bc8-bdb3-f295ae0f4c74","ios":"levelo://app?vid=ef0a579d-4c7d-4bc8-bdb3-f295ae0f4c74"},"vehicle_type_id":"4","last_reported":1719079790,"current_range_meters":28400,"station_id":"ce4bh692rcd13ifvqea0","pricing_plan_id":"cebpf4jnsgd1na2vs0mg"},{"bike_id":"c7bbff29-e906-4ed2-9c19-fcec5da4d707","system_id":"levelo_inurba_marseille","lat":43.290104,"lon":5.356111,"is_reserved":false,"is_disabled":false,"rental_uris":{"android":"levelo://app?vid=c7bbff29-e906-4ed2-9c19-fcec5da4d707","ios":"levelo://app?vid=c7bbff29-e906-4ed2-9c19-fcec5da4d707"},"vehicle_type_id":"4","last_reported":1719079790,"current_range_meters":24000,"station_id":"ce4bhb92rcd13ifvqen0","pricing_plan_id":"cebpf4jnsgd1na2vs0mg"},{"bike_id":"7802ad32-54fa-447b-b210-1a8dc9977bf0","system_id":"levelo_inurba_marseille","lat":43.290103,"lon":5.356114,"is_reserved":false,"is_disabled":false,"rental_uris":{"android":"levelo://app?vid=7802ad32-54fa-447b-b210-1a8dc9977bf0","ios":"levelo://app?vid=7802ad32-54fa-447b-b210-1a8dc9977bf0"},"vehicle_type_id":"4","last_reported":1719079790,"current_range_meters":26400,"station_id":"ce4bhb92rcd13ifvqen0","pricing_plan_id":"cebpf4jnsgd1na2vs0mg"},{"bike_id":"45694430-bc0b-44e4-9242-f7e1116857da","system_id":"levelo_inurba_marseille","lat":43.290995,"lon":5.381361,"is_reserved":false,"is_disabled":false,"rental_uris":{"android":"levelo://app?vid=45694430-bc0b-44e4-9242-f7e1116857da","ios":"levelo://app?vid=45694430-bc0b-44e4-9242-f7e1116857da"},"vehicle_type_id":"4","last_reported":1719079790,"current_range_meters":0,"station_id":"ce4bh512rcd13ifvqe2g","pricing_plan_id":"cebpf4jnsgd1na2vs0mg"},{"bike_id":"e3da7a88-177b-4eeb-951f-1072e1f79e27","system_id":"levelo_inurba_marseille","lat":43.290995,"lon":5.381361,"is_reserved":false,"is_disabled":false,"rental_uris":{"android":"levelo://app?vid=e3da7a88-177b-4eeb-951f-1072e1f79e27","ios":"levelo://app?vid=e3da7a88-177b-4eeb-951f-1072e1f79e27"},"vehicle_type_id":"4","last_reported":1719079790,"current_range_meters":0,"station_id":"ce4bh512rcd13ifvqe2g","pricing_plan_id":"cebpf4jnsgd1na2vs0mg"},{"bike_id":"e2b85264-3ba6-4716-b7dc-70d31a43e5d6","system_id":"levelo_inurba_marseille","lat":43.289741,"lon":5.378306,"is_reserved":false,"is_disabled":false,"rental_uris":{"android":"levelo://app?vid=e2b85264-3ba6-4716-b7dc-70d31a43e5d6","ios":"levelo://app?vid=e2b85264-3ba6-4716-b7dc-70d31a43e5d6"},"vehicle_type_id":"4","last_reported":1719079790,"current_range_meters":31200,"station_id":"ce4bh9p2rcd13ifvqed0","pricing_plan_id":"cebpf4jnsgd1na2vs0mg"},{"bike_id":"3d51333e-3c3e-46b1-bd12-5e5a4b33b1fb","system_id":"levelo_inurba_marseille","lat":43.295169,"lon":5.390426,"is_reserved":false,"is_disabled":false,"rental_uris":{"android":"levelo://app?vid=3d51333e-3c3e-46b1-bd12-5e5a4b33b1fb","ios":"levelo://app?vid=3d51333e-3c3e-46b1-bd12-5e5a4b33b1fb"},"vehicle_type_id":"4","last_reported":1719079790,"current_range_meters":0,"station_id":"ce4bh3p2rcd13ifvqdp0","pricing_plan_id":"cebpf4jnsgd1na2vs0mg"},{"bike_id":"bbd8b6e3-9f4e-4650-bc61-cc78e25ab3e9","system_id":"levelo_inurba_marseille","lat":43.295169,"lon":5.390426,"is_reserved":false,"is_disabled":false,"rental_uris":{"android":"levelo://app?vid=bbd8b6e3-9f4e-4650-bc61-cc78e25ab3e9","ios":"levelo://app?vid=bbd8b6e3-9f4e-4650-bc61-cc78e25ab3e9"},"vehicle_type_id":"4","last_reported":1719079790,"current_range_meters":3600,"station_id":"ce4bh3p2rcd13ifvqdp0","pricing_plan_id":"cebpf4jnsgd1na2vs0mg"},{"bike_id":"f4f121af-7ef8-4ac6-8195-ae161eeaaa5d","system_id":"levelo_inurba_marseille","lat":43.295169,"lon":5.390426,"is_reserved":false,"is_disabled":false,"rental_uris":{"android":"levelo://app?vid=f4f121af-7ef8-4ac6-8195-ae161eeaaa5d","ios":"levelo://app?vid=f4f121af-7ef8-4ac6-8195-ae161eeaaa5d"},"vehicle_type_id":"4","last_reported":1719079790,"current_range_meters":0,"station_id":"ce4bh3p2rcd13ifvqdp0","pricing_plan_id":"cebpf4jnsgd1na2vs0mg"},{"bike_id":"6f90b7cf-37da-4038-9fca-e04e306bd86f","system_id":"levelo_inurba_marseille","lat":43.33026,"lon":5.39044,"is_reserved":false,"is_disabled":false,"rental_uris":{"android":"levelo://app?vid=6f90b7cf-37da-4038-9fca-e04e306bd86f","ios":"levelo://app?vid=6f90b7cf-37da-4038-9fca-e04e306bd86f"},"vehicle_type_id":"4","last_reported":1719079790,"current_range_meters":7600,"station_id":"ce4bhr92rcd13ifvqhrg","pricing_plan_id":"cebpf4jnsgd1na2vs0mg"},{"bike_id":"63959a31-8b44-474a-a210-c15cfd7283d5","system_id":"levelo_inurba_marseille","lat":43.295169,"lon":5.390426,"is_reserved":false,"is_disabled":false,"rental_uris":{"android":"levelo://app?vid=63959a31-8b44-474a-a210-c15cfd7283d5","ios":"levelo://app?vid=63959a31-8b44-474a-a210-c15cfd7283d5"},"vehicle_type_id":"4","last_reported":1719079790,"current_range_meters":7600,"station_id":"ce4bh3p2rcd13ifvqdp0","pricing_plan_id":"cebpf4jnsgd1na2vs0mg"},{"bike_id":"49c38f2e-3409-4c28-9f0f-43be59bccea7","system_id":"levelo_inurba_marseille","lat":43.29525,"lon":5.39052,"is_reserved":false,"is_disabled":false,"rental_uris":{"android":"levelo://app?vid=49c38f2e-3409-4c28-9f0f-43be59bccea7","ios":"levelo://app?vid=49c38f2e-3409-4c28-9f0f-43be59bccea7"},"vehicle_type_id":"4","last_reported":1719079790,"current_range_meters":7200,"station_id":"","pricing_plan_id":"cebpf4jnsgd1na2vs0mg"},{"bike_id":"e3a7c7f9-e1ea-4b46-acbb-191f41b40206","system_id":"levelo_inurba_marseille","lat":43.29024,"lon":5.38151,"is_reserved":false,"is_disabled":false,"rental_uris":{"android":"levelo://app?vid=e3a7c7f9-e1ea-4b46-acbb-191f41b40206","ios":"levelo://app?vid=e3a7c7f9-e1ea-4b46-acbb-191f41b40206"},"vehicle_type_id":"4","last_reported":1719079790,"current_range_meters":31200,"station_id":"ce4bh4p2rcd13ifvqe1g","pricing_plan_id":"cebpf4jnsgd1na2vs0mg"},{"bike_id":"1ddec4e1-bb47-4190-9be4-7d04b6ec0b18","system_id":"levelo_inurba_marseille","lat":43.28856,"lon":5.358371,"is_reserved":false,"is_disabled":false,"rental_uris":{"android":"levelo://app?vid=1ddec4e1-bb47-4190-9be4-7d04b6ec0b18","ios":"levelo://app?vid=1ddec4e1-bb47-4190-9be4-7d04b6ec0b18"},"vehicle_type_id":"4","last_reported":1719079790,"current_range_meters":20000,"station_id":"ce4bhb12rcd13ifvqem0","pricing_plan_id":"cebpf4jnsgd1na2vs0mg"},{"bike_id":"ddf733a6-a5d6-415c-b847-7560671b7cd1","system_id":"levelo_inurba_marseille","lat":43.2901,"lon":5.381269,"is_reserved":false,"is_disabled":false,"rental_uris":{"android":"levelo://app?vid=ddf733a6-a5d6-415c-b847-7560671b7cd1","ios":"levelo://app?vid=ddf733a6-a5d6-415c-b847-7560671b7cd1"},"vehicle_type_id":"4","last_reported":1719079790,"current_range_meters":13600,"station_id":"ce4bh4p2rcd13ifvqe1g","pricing_plan_id":"cebpf4jnsgd1na2vs0mg"},{"bike_id":"7355d68a-5012-4ae6-9979-10b1229883a7","system_id":"levelo_inurba_marseille","lat":43.312609,"lon":5.401662,"is_reserved":false,"is_disabled":false,"rental_uris":{"android":"levelo://app?vid=7355d68a-5012-4ae6-9979-10b1229883a7","ios":"levelo://app?vid=7355d68a-5012-4ae6-9979-10b1229883a7"},"vehicle_type_id":"4","last_reported":1719079790,"current_range_meters":18800,"station_id":"ce4bh092rcd13ifvqd30","pricing_plan_id":"cebpf4jnsgd1na2vs0mg"},{"bike_id":"05092e03-5cef-41c3-9575-df5db7507ebd","system_id":"levelo_inurba_marseille","lat":43.33739,"lon":5.37464,"is_reserved":false,"is_disabled":false,"rental_uris":{"android":"levelo://app?vid=05092e03-5cef-41c3-9575-df5db7507ebd","ios":"levelo://app?vid=05092e03-5cef-41c3-9575-df5db7507ebd"},"vehicle_type_id":"4","last_reported":1719079790,"current_range_meters":18800,"station_id":"","pricing_plan_id":"cebpf4jnsgd1na2vs0mg"},{"bike_id":"b81fcc4e-cad8-4182-84b9-d420bf5181c0","system_id":"levelo_inurba_marseille","lat":43.30934,"lon":5.40141,"is_reserved":false,"is_disabled":false,"rental_uris":{"android":"levelo://app?vid=b81fcc4e-cad8-4182-84b9-d420bf5181c0","ios":"levelo://app?vid=b81fcc4e-cad8-4182-84b9-d420bf5181c0"},"vehicle_type_id":"4","last_reported":1719079790,"current_range_meters":0,"station_id":"","pricing_plan_id":"cebpf4jnsgd1na2vs0mg"},{"bike_id":"5b5cae36-09e1-4bd0-aeb4-83d37c064d16","system_id":"levelo_inurba_marseille","lat":43.3375,"lon":5.37458,"is_reserved":false,"is_disabled":false,"rental_uris":{"android":"levelo://app?vid=5b5cae36-09e1-4bd0-aeb4-83d37c064d16","ios":"levelo://app?vid=5b5cae36-09e1-4bd0-aeb4-83d37c064d16"},"vehicle_type_id":"4","last_reported":1719079790,"current_range_meters":25200,"station_id":"","pricing_plan_id":"cebpf4jnsgd1na2vs0mg"},{"bike_id":"b96c5d51-82b0-4b78-bde4-3aaef404bf1b","system_id":"levelo_inurba_marseille","lat":43.309371,"lon":5.401449,"is_reserved":false,"is_disabled":false,"rental_uris":{"android":"levelo://app?vid=b96c5d51-82b0-4b78-bde4-3aaef404bf1b","ios":"levelo://app?vid=b96c5d51-82b0-4b78-bde4-3aaef404bf1b"},"vehicle_type_id":"4","last_reported":1719079790,"current_range_meters":0,"station_id":"ce4bgvp2rcd13ifvqct0","pricing_plan_id":"cebpf4jnsgd1na2vs0mg"},{"bike_id":"a00c218c-138a-4388-aca4-2952a6961815","system_id":"levelo_inurba_marseille","lat":43.33753,"lon":5.37478,"is_reserved":false,"is_disabled":false,"rental_uris":{"android":"levelo://app?vid=a00c218c-138a-4388-aca4-2952a6961815","ios":"levelo://app?vid=a00c218c-138a-4388-aca4-2952a6961815"},"vehicle_type_id":"4","last_reported":1719079790,"current_range_meters":28400,"station_id":"","pricing_plan_id":"cebpf4jnsgd1na2vs0mg"},{"bike_id":"0e11bbab-a5d9-4098-a6f1-624d89f27c59","system_id":"levelo_inurba_marseille","lat":43.337572,"lon":5.374546,"is_reserved":false,"is_disabled":false,"rental_uris":{"android":"levelo://app?vid=0e11bbab-a5d9-4098-a6f1-624d89f27c59","ios":"levelo://app?vid=0e11bbab-a5d9-4098-a6f1-624d89f27c59"},"vehicle_type_id":"4","last_reported":1719079790,"current_range_meters":23600,"station_id":"","pricing_plan_id":"cebpf4jnsgd1na2vs0mg"},{"bike_id":"db534928-e6a2-47cc-a852-558fe66ed50c","system_id":"levelo_inurba_marseille","lat":43.337583,"lon":5.374633,"is_reserved":false,"is_disabled":false,"rental_uris":{"android":"levelo://app?vid=db534928-e6a2-47cc-a852-558fe66ed50c","ios":"levelo://app?vid=db534928-e6a2-47cc-a852-558fe66ed50c"},"vehicle_type_id":"4","last_reported":1719079790,"current_range_meters":22000,"station_id":"","pricing_plan_id":"cebpf4jnsgd1na2vs0mg"},{"bike_id":"e7be790b-07e4-40f3-b60f-da683b157943","system_id":"levelo_inurba_marseille","lat":43.33033,"lon":5.39238,"is_reserved":false,"is_disabled":false,"rental_uris":{"android":"levelo://app?vid=e7be790b-07e4-40f3-b60f-da683b157943","ios":"levelo://app?vid=e7be790b-07e4-40f3-b60f-da683b157943"},"vehicle_type_id":"4","last_reported":1719079790,"current_range_meters":18000,"station_id":"","pricing_plan_id":"cebpf4jnsgd1na2vs0mg"},{"bike_id":"a77bf3f1-dc55-4e35-8fe0-6292cee970ef","system_id":"levelo_inurba_marseille","lat":43.33035,"lon":5.39239,"is_reserved":false,"is_disabled":false,"rental_uris":{"android":"levelo://app?vid=a77bf3f1-dc55-4e35-8fe0-6292cee970ef","ios":"levelo://app?vid=a77bf3f1-dc55-4e35-8fe0-6292cee970ef"},"vehicle_type_id":"4","last_reported":1719079790,"current_range_meters":20800,"station_id":"","pricing_plan_id":"cebpf4jnsgd1na2vs0mg"},{"bike_id":"68e6bc84-3621-4c11-8b5a-9750c32fe555","system_id":"levelo_inurba_marseille","lat":43.306412,"lon":5.401035,"is_reserved":false,"is_disabled":false,"rental_uris":{"android":"levelo://app?vid=68e6bc84-3621-4c11-8b5a-9750c32fe555","ios":"levelo://app?vid=68e6bc84-3621-4c11-8b5a-9750c32fe555"},"vehicle_type_id":"4","last_reported":1719079790,"current_range_meters":2400,"station_id":"ce4bh112rcd13ifvqda0","pricing_plan_id":"cebpf4jnsgd1na2vs0mg"},{"bike_id":"108f6591-22fa-4402-9e88-2206ffbb4a87","system_id":"levelo_inurba_marseille","lat":43.301117,"lon":5.398795,"is_reserved":false,"is_disabled":false,"rental_uris":{"android":"levelo://app?vid=108f6591-22fa-4402-9e88-2206ffbb4a87","ios":"levelo://app?vid=108f6591-22fa-4402-9e88-2206ffbb4a87"},"vehicle_type_id":"4","last_reported":1719079790,"current_range_meters":2800,"station_id":"ce4bh0h2rcd13ifvqd40","pricing_plan_id":"cebpf4jnsgd1na2vs0mg"},{"bike_id":"1529575d-3c24-4053-9dc4-3fc753c20a3e","system_id":"levelo_inurba_marseille","lat":43.3304,"lon":5.39281,"is_reserved":false,"is_disabled":false,"rental_uris":{"android":"levelo://app?vid=1529575d-3c24-4053-9dc4-3fc753c20a3e","ios":"levelo://app?vid=1529575d-3c24-4053-9dc4-3fc753c20a3e"},"vehicle_type_id":"4","last_reported":1719079790,"current_range_meters":1200,"station_id":"","pricing_plan_id":"cebpf4jnsgd1na2vs0mg"},{"bike_id":"286e87b4-9f57-41c6-b4d2-4a24cec7b480","system_id":"levelo_inurba_marseille","lat":43.287229,"lon":5.36092,"is_reserved":false,"is_disabled":false,"rental_uris":{"android":"levelo://app?vid=286e87b4-9f57-41c6-b4d2-4a24cec7b480","ios":"levelo://app?vid=286e87b4-9f57-41c6-b4d2-4a24cec7b480"},"vehicle_type_id":"4","last_reported":1719079790,"current_range_meters":21600,"station_id":"cki0cbj6b192h4jlfktg","pricing_plan_id":"cebpf4jnsgd1na2vs0mg"},{"bike_id":"79ea8940-8e3b-4e0b-9d0f-ab03c4adc8a2","system_id":"levelo_inurba_marseille","lat":43.286961,"lon":5.373785,"is_reserved":false,"is_disabled":false,"rental_uris":{"android":"levelo://app?vid=79ea8940-8e3b-4e0b-9d0f-ab03c4adc8a2","ios":"levelo://app?vid=79ea8940-8e3b-4e0b-9d0f-ab03c4adc8a2"},"vehicle_type_id":"4","last_reported":1719079790,"current_range_meters":28800,"station_id":"ce4bh3p2rcd13ifvqdq0","pricing_plan_id":"cebpf4jnsgd1na2vs0mg"},{"bike_id":"f2ce30a2-679d-486b-919b-2cdc6485e5b1","system_id":"levelo_inurba_marseille","lat":43.298681,"lon":5.397225,"is_reserved":false,"is_disabled":false,"rental_uris":{"android":"levelo://app?vid=f2ce30a2-679d-486b-919b-2cdc6485e5b1","ios":"levelo://app?vid=f2ce30a2-679d-486b-919b-2cdc6485e5b1"},"vehicle_type_id":"4","last_reported":1719079790,"current_range_meters":11600,"station_id":"ce4bh0h2rcd13ifvqd50","pricing_plan_id":"cebpf4jnsgd1na2vs0mg"},{"bike_id":"741d3dee-da18-4292-9be4-0c6854302fb2","system_id":"levelo_inurba_marseille","lat":43.298681,"lon":5.397225,"is_reserved":false,"is_disabled":false,"rental_uris":{"android":"levelo://app?vid=741d3dee-da18-4292-9be4-0c6854302fb2","ios":"levelo://app?vid=741d3dee-da18-4292-9be4-0c6854302fb2"},"vehicle_type_id":"4","last_reported":1719079790,"current_range_meters":1600,"station_id":"ce4bh0h2rcd13ifvqd50","pricing_plan_id":"cebpf4jnsgd1na2vs0mg"},{"bike_id":"52c00303-bc31-459d-8cc1-b347be0999fa","system_id":"levelo_inurba_marseille","lat":43.286621,"lon":5.363578,"is_reserved":false,"is_disabled":false,"rental_uris":{"android":"levelo://app?vid=52c00303-bc31-459d-8cc1-b347be0999fa","ios":"levelo://app?vid=52c00303-bc31-459d-8cc1-b347be0999fa"},"vehicle_type_id":"4","last_reported":1719079790,"current_range_meters":0,"station_id":"ce4bhah2rcd13ifvqej0","pricing_plan_id":"cebpf4jnsgd1na2vs0mg"},{"bike_id":"7283ede7-2482-4312-bae1-fc25f74d967c","system_id":"levelo_inurba_marseille","lat":43.286593,"lon":5.363346,"is_reserved":false,"is_disabled":false,"rental_uris":{"android":"levelo://app?vid=7283ede7-2482-4312-bae1-fc25f74d967c","ios":"levelo://app?vid=7283ede7-2482-4312-bae1-fc25f74d967c"},"vehicle_type_id":"4","last_reported":1719079790,"current_range_meters":28800,"station_id":"ce4bhah2rcd13ifvqej0","pricing_plan_id":"cebpf4jnsgd1na2vs0mg"},{"bike_id":"4988773c-7802-43bc-85ac-75ed6fb93c17","system_id":"levelo_inurba_marseille","lat":43.302759,"lon":5.400793,"is_reserved":false,"is_disabled":false,"rental_uris":{"android":"levelo://app?vid=4988773c-7802-43bc-85ac-75ed6fb93c17","ios":"levelo://app?vid=4988773c-7802-43bc-85ac-75ed6fb93c17"},"vehicle_type_id":"4","last_reported":1719079790,"current_range_meters":2800,"station_id":"ce4bgvh2rcd13ifvqcs0","pricing_plan_id":"cebpf4jnsgd1na2vs0mg"},{"bike_id":"3bf6a8e4-9a95-4a60-ae01-fd0d960b9f12","system_id":"levelo_inurba_marseille","lat":43.290345,"lon":5.38646,"is_reserved":false,"is_disabled":false,"rental_uris":{"android":"levelo://app?vid=3bf6a8e4-9a95-4a60-ae01-fd0d960b9f12","ios":"levelo://app?vid=3bf6a8e4-9a95-4a60-ae01-fd0d960b9f12"},"vehicle_type_id":"4","last_reported":1719079790,"current_range_meters":8800,"station_id":"ce4bh4p2rcd13ifvqe0g","pricing_plan_id":"cebpf4jnsgd1na2vs0mg"},{"bike_id":"53e8e1b0-1f17-4505-8cb6-3dbe92b3712c","system_id":"levelo_inurba_marseille","lat":43.302759,"lon":5.400793,"is_reserved":false,"is_disabled":false,"rental_uris":{"android":"levelo://app?vid=53e8e1b0-1f17-4505-8cb6-3dbe92b3712c","ios":"levelo://app?vid=53e8e1b0-1f17-4505-8cb6-3dbe92b3712c"},"vehicle_type_id":"4","last_reported":1719079790,"current_range_meters":29600,"station_id":"ce4bgvh2rcd13ifvqcs0","pricing_plan_id":"cebpf4jnsgd1na2vs0mg"},{"bike_id":"a54e87b7-f237-497f-a881-e1ff4fd4fa3f","system_id":"levelo_inurba_marseille","lat":43.289307,"lon":5.38406,"is_reserved":false,"is_disabled":false,"rental_uris":{"android":"levelo://app?vid=a54e87b7-f237-497f-a881-e1ff4fd4fa3f","ios":"levelo://app?vid=a54e87b7-f237-497f-a881-e1ff4fd4fa3f"},"vehicle_type_id":"4","last_reported":1719079790,"current_range_meters":30800,"station_id":"ce4bh612rcd13ifvqe6g","pricing_plan_id":"cebpf4jnsgd1na2vs0mg"},{"bike_id":"d24d4535-bca1-4fdb-951f-7501832732ee","system_id":"levelo_inurba_marseille","lat":43.290336,"lon":5.386425,"is_reserved":false,"is_disabled":false,"rental_uris":{"android":"levelo://app?vid=d24d4535-bca1-4fdb-951f-7501832732ee","ios":"levelo://app?vid=d24d4535-bca1-4fdb-951f-7501832732ee"},"vehicle_type_id":"4","last_reported":1719079790,"current_range_meters":2400,"station_id":"ce4bh4p2rcd13ifvqe0g","pricing_plan_id":"cebpf4jnsgd1na2vs0mg"},{"bike_id":"38ca6b31-338f-47c6-9b81-4bb2964527fa","system_id":"levelo_inurba_marseille","lat":43.290336,"lon":5.386425,"is_reserved":false,"is_disabled":false,"rental_uris":{"android":"levelo://app?vid=38ca6b31-338f-47c6-9b81-4bb2964527fa","ios":"levelo://app?vid=38ca6b31-338f-47c6-9b81-4bb2964527fa"},"vehicle_type_id":"4","last_reported":1719079790,"current_range_meters":800,"station_id":"ce4bh4p2rcd13ifvqe0g","pricing_plan_id":"cebpf4jnsgd1na2vs0mg"},{"bike_id":"c6415d29-d33e-40f8-8498-db45250f3241","system_id":"levelo_inurba_marseille","lat":43.289307,"lon":5.38406,"is_reserved":false,"is_disabled":false,"rental_uris":{"android":"levelo://app?vid=c6415d29-d33e-40f8-8498-db45250f3241","ios":"levelo://app?vid=c6415d29-d33e-40f8-8498-db45250f3241"},"vehicle_type_id":"4","last_reported":1719079790,"current_range_meters":400,"station_id":"ce4bh612rcd13ifvqe6g","pricing_plan_id":"cebpf4jnsgd1na2vs0mg"},{"bike_id":"aacbeece-25a8-41e0-a245-cf9397187c49","system_id":"levelo_inurba_marseille","lat":43.290336,"lon":5.386425,"is_reserved":false,"is_disabled":false,"rental_uris":{"android":"levelo://app?vid=aacbeece-25a8-41e0-a245-cf9397187c49","ios":"levelo://app?vid=aacbeece-25a8-41e0-a245-cf9397187c49"},"vehicle_type_id":"4","last_reported":1719079790,"current_range_meters":9600,"station_id":"ce4bh4p2rcd13ifvqe0g","pricing_plan_id":"cebpf4jnsgd1na2vs0mg"},{"bike_id":"59f007c3-4614-47bf-b2b2-95587818beae","system_id":"levelo_inurba_marseille","lat":43.289307,"lon":5.38406,"is_reserved":false,"is_disabled":false,"rental_uris":{"android":"levelo://app?vid=59f007c3-4614-47bf-b2b2-95587818beae","ios":"levelo://app?vid=59f007c3-4614-47bf-b2b2-95587818beae"},"vehicle_type_id":"4","last_reported":1719079790,"current_range_meters":30400,"station_id":"ce4bh612rcd13ifvqe6g","pricing_plan_id":"cebpf4jnsgd1na2vs0mg"},{"bike_id":"587360f2-f492-4893-8388-af97b6c1bc18","system_id":"levelo_inurba_marseille","lat":43.290345,"lon":5.38646,"is_reserved":false,"is_disabled":false,"rental_uris":{"android":"levelo://app?vid=587360f2-f492-4893-8388-af97b6c1bc18","ios":"levelo://app?vid=587360f2-f492-4893-8388-af97b6c1bc18"},"vehicle_type_id":"4","last_reported":1719079790,"current_range_meters":3200,"station_id":"ce4bh4p2rcd13ifvqe0g","pricing_plan_id":"cebpf4jnsgd1na2vs0mg"},{"bike_id":"61c5a991-fbf2-4af7-b0ec-062d99039e77","system_id":"levelo_inurba_marseille","lat":43.289307,"lon":5.38406,"is_reserved":false,"is_disabled":false,"rental_uris":{"android":"levelo://app?vid=61c5a991-fbf2-4af7-b0ec-062d99039e77","ios":"levelo://app?vid=61c5a991-fbf2-4af7-b0ec-062d99039e77"},"vehicle_type_id":"4","last_reported":1719079790,"current_range_meters":25600,"station_id":"ce4bh612rcd13ifvqe6g","pricing_plan_id":"cebpf4jnsgd1na2vs0mg"},{"bike_id":"e9e97d3f-6fb3-4d78-acb8-0af23edc8c89","system_id":"levelo_inurba_marseille","lat":43.302759,"lon":5.400793,"is_reserved":false,"is_disabled":false,"rental_uris":{"android":"levelo://app?vid=e9e97d3f-6fb3-4d78-acb8-0af23edc8c89","ios":"levelo://app?vid=e9e97d3f-6fb3-4d78-acb8-0af23edc8c89"},"vehicle_type_id":"4","last_reported":1719079790,"current_range_meters":0,"station_id":"ce4bgvh2rcd13ifvqcs0","pricing_plan_id":"cebpf4jnsgd1na2vs0mg"},{"bike_id":"5fc2abc2-fd5b-4516-b65b-163f21669b62","system_id":"levelo_inurba_marseille","lat":43.28613,"lon":5.37056,"is_reserved":false,"is_disabled":false,"rental_uris":{"android":"levelo://app?vid=5fc2abc2-fd5b-4516-b65b-163f21669b62","ios":"levelo://app?vid=5fc2abc2-fd5b-4516-b65b-163f21669b62"},"vehicle_type_id":"4","last_reported":1719079790,"current_range_meters":10000,"station_id":"ce4bht12rcd13ifvqi60","pricing_plan_id":"cebpf4jnsgd1na2vs0mg"},{"bike_id":"255d0524-5b46-4527-aad3-c3e52fd39873","system_id":"levelo_inurba_marseille","lat":43.286039,"lon":5.370681,"is_reserved":false,"is_disabled":false,"rental_uris":{"android":"levelo://app?vid=255d0524-5b46-4527-aad3-c3e52fd39873","ios":"levelo://app?vid=255d0524-5b46-4527-aad3-c3e52fd39873"},"vehicle_type_id":"4","last_reported":1719079790,"current_range_meters":5200,"station_id":"ce4bht12rcd13ifvqi60","pricing_plan_id":"cebpf4jnsgd1na2vs0mg"},{"bike_id":"14521eb3-e9bf-45a7-b7ed-3ff6492e4726","system_id":"levelo_inurba_marseille","lat":43.286039,"lon":5.370679,"is_reserved":false,"is_disabled":false,"rental_uris":{"android":"levelo://app?vid=14521eb3-e9bf-45a7-b7ed-3ff6492e4726","ios":"levelo://app?vid=14521eb3-e9bf-45a7-b7ed-3ff6492e4726"},"vehicle_type_id":"4","last_reported":1719079790,"current_range_meters":8400,"station_id":"ce4bht12rcd13ifvqi60","pricing_plan_id":"cebpf4jnsgd1na2vs0mg"},{"bike_id":"897d22a9-bb37-452e-aa99-46d5f4a2f9a6","system_id":"levelo_inurba_marseille","lat":43.28612,"lon":5.370679,"is_reserved":false,"is_disabled":false,"rental_uris":{"android":"levelo://app?vid=897d22a9-bb37-452e-aa99-46d5f4a2f9a6","ios":"levelo://app?vid=897d22a9-bb37-452e-aa99-46d5f4a2f9a6"},"vehicle_type_id":"4","last_reported":1719079790,"current_range_meters":15200,"station_id":"ce4bht12rcd13ifvqi60","pricing_plan_id":"cebpf4jnsgd1na2vs0mg"},{"bike_id":"1d41d958-eb41-4645-b835-71dc20c0c6c3","system_id":"levelo_inurba_marseille","lat":43.28611,"lon":5.37064,"is_reserved":false,"is_disabled":false,"rental_uris":{"android":"levelo://app?vid=1d41d958-eb41-4645-b835-71dc20c0c6c3","ios":"levelo://app?vid=1d41d958-eb41-4645-b835-71dc20c0c6c3"},"vehicle_type_id":"4","last_reported":1719079790,"current_range_meters":3200,"station_id":"ce4bht12rcd13ifvqi60","pricing_plan_id":"cebpf4jnsgd1na2vs0mg"},{"bike_id":"a6a06696-2ba4-476a-831c-d02a99a532b4","system_id":"levelo_inurba_marseille","lat":43.28607,"lon":5.37065,"is_reserved":false,"is_disabled":false,"rental_uris":{"android":"levelo://app?vid=a6a06696-2ba4-476a-831c-d02a99a532b4","ios":"levelo://app?vid=a6a06696-2ba4-476a-831c-d02a99a532b4"},"vehicle_type_id":"4","last_reported":1719079790,"current_range_meters":400,"station_id":"ce4bht12rcd13ifvqi60","pricing_plan_id":"cebpf4jnsgd1na2vs0mg"},{"bike_id":"82ba0d88-77be-4a0b-8417-981e137042b3","system_id":"levelo_inurba_marseille","lat":43.286039,"lon":5.370681,"is_reserved":false,"is_disabled":false,"rental_uris":{"android":"levelo://app?vid=82ba0d88-77be-4a0b-8417-981e137042b3","ios":"levelo://app?vid=82ba0d88-77be-4a0b-8417-981e137042b3"},"vehicle_type_id":"4","last_reported":1719079790,"current_range_meters":30000,"station_id":"ce4bht12rcd13ifvqi60","pricing_plan_id":"cebpf4jnsgd1na2vs0mg"},{"bike_id":"ca6e1855-ea02-4630-a292-dcc8037574c8","system_id":"levelo_inurba_marseille","lat":43.286039,"lon":5.370679,"is_reserved":false,"is_disabled":false,"rental_uris":{"android":"levelo://app?vid=ca6e1855-ea02-4630-a292-dcc8037574c8","ios":"levelo://app?vid=ca6e1855-ea02-4630-a292-dcc8037574c8"},"vehicle_type_id":"4","last_reported":1719079790,"current_range_meters":15200,"station_id":"ce4bht12rcd13ifvqi60","pricing_plan_id":"cebpf4jnsgd1na2vs0mg"},{"bike_id":"179b14a0-1314-4e12-be18-3ec2dae01f60","system_id":"levelo_inurba_marseille","lat":43.286039,"lon":5.370679,"is_reserved":false,"is_disabled":false,"rental_uris":{"android":"levelo://app?vid=179b14a0-1314-4e12-be18-3ec2dae01f60","ios":"levelo://app?vid=179b14a0-1314-4e12-be18-3ec2dae01f60"},"vehicle_type_id":"4","last_reported":1719079790,"current_range_meters":31200,"station_id":"ce4bht12rcd13ifvqi60","pricing_plan_id":"cebpf4jnsgd1na2vs0mg"},{"bike_id":"5ffabfde-ce23-4714-80c7-329f40382863","system_id":"levelo_inurba_marseille","lat":43.287185,"lon":5.379373,"is_reserved":false,"is_disabled":false,"rental_uris":{"android":"levelo://app?vid=5ffabfde-ce23-4714-80c7-329f40382863","ios":"levelo://app?vid=5ffabfde-ce23-4714-80c7-329f40382863"},"vehicle_type_id":"4","last_reported":1719079790,"current_range_meters":28400,"station_id":"ce4bh9p2rcd13ifvqec0","pricing_plan_id":"cebpf4jnsgd1na2vs0mg"},{"bike_id":"e4711e0c-9f7b-4872-bc50-0f4baac2f70c","system_id":"levelo_inurba_marseille","lat":43.287184,"lon":5.37937,"is_reserved":false,"is_disabled":false,"rental_uris":{"android":"levelo://app?vid=e4711e0c-9f7b-4872-bc50-0f4baac2f70c","ios":"levelo://app?vid=e4711e0c-9f7b-4872-bc50-0f4baac2f70c"},"vehicle_type_id":"4","last_reported":1719079790,"current_range_meters":15200,"station_id":"ce4bh9p2rcd13ifvqec0","pricing_plan_id":"cebpf4jnsgd1na2vs0mg"},{"bike_id":"c9ff0b93-c0a9-46f1-a490-84c5758714c7","system_id":"levelo_inurba_marseille","lat":43.287184,"lon":5.37937,"is_reserved":false,"is_disabled":false,"rental_uris":{"android":"levelo://app?vid=c9ff0b93-c0a9-46f1-a490-84c5758714c7","ios":"levelo://app?vid=c9ff0b93-c0a9-46f1-a490-84c5758714c7"},"vehicle_type_id":"4","last_reported":1719079790,"current_range_meters":10000,"station_id":"ce4bh9p2rcd13ifvqec0","pricing_plan_id":"cebpf4jnsgd1na2vs0mg"},{"bike_id":"92155f01-b013-479a-88f6-6b3e22c59097","system_id":"levelo_inurba_marseille","lat":43.287185,"lon":5.379373,"is_reserved":false,"is_disabled":false,"rental_uris":{"android":"levelo://app?vid=92155f01-b013-479a-88f6-6b3e22c59097","ios":"levelo://app?vid=92155f01-b013-479a-88f6-6b3e22c59097"},"vehicle_type_id":"4","last_reported":1719079790,"current_range_meters":23600,"station_id":"ce4bh9p2rcd13ifvqec0","pricing_plan_id":"cebpf4jnsgd1na2vs0mg"},{"bike_id":"8d0b2234-1fca-45fa-8e3e-9a7e4869033c","system_id":"levelo_inurba_marseille","lat":43.316828,"lon":5.404723,"is_reserved":false,"is_disabled":false,"rental_uris":{"android":"levelo://app?vid=8d0b2234-1fca-45fa-8e3e-9a7e4869033c","ios":"levelo://app?vid=8d0b2234-1fca-45fa-8e3e-9a7e4869033c"},"vehicle_type_id":"4","last_reported":1719079790,"current_range_meters":31200,"station_id":"ce4bh012rcd13ifvqd00","pricing_plan_id":"cebpf4jnsgd1na2vs0mg"},{"bike_id":"ffa2b5dd-b4c6-4cbb-a814-4c7461a1ebf2","system_id":"levelo_inurba_marseille","lat":43.284538,"lon":5.358657,"is_reserved":false,"is_disabled":false,"rental_uris":{"android":"levelo://app?vid=ffa2b5dd-b4c6-4cbb-a814-4c7461a1ebf2","ios":"levelo://app?vid=ffa2b5dd-b4c6-4cbb-a814-4c7461a1ebf2"},"vehicle_type_id":"4","last_reported":1719079790,"current_range_meters":31200,"station_id":"ce4bhah2rcd13ifvqei0","pricing_plan_id":"cebpf4jnsgd1na2vs0mg"},{"bike_id":"5c49e8f2-13f9-4779-8022-6ac286158fcd","system_id":"levelo_inurba_marseille","lat":43.284538,"lon":5.358657,"is_reserved":false,"is_disabled":false,"rental_uris":{"android":"levelo://app?vid=5c49e8f2-13f9-4779-8022-6ac286158fcd","ios":"levelo://app?vid=5c49e8f2-13f9-4779-8022-6ac286158fcd"},"vehicle_type_id":"4","last_reported":1719079790,"current_range_meters":10800,"station_id":"ce4bhah2rcd13ifvqei0","pricing_plan_id":"cebpf4jnsgd1na2vs0mg"},{"bike_id":"666b7379-1439-4a12-a582-af1e7564c6a5","system_id":"levelo_inurba_marseille","lat":43.284534,"lon":5.358662,"is_reserved":false,"is_disabled":false,"rental_uris":{"android":"levelo://app?vid=666b7379-1439-4a12-a582-af1e7564c6a5","ios":"levelo://app?vid=666b7379-1439-4a12-a582-af1e7564c6a5"},"vehicle_type_id":"4","last_reported":1719079790,"current_range_meters":17600,"station_id":"ce4bhah2rcd13ifvqei0","pricing_plan_id":"cebpf4jnsgd1na2vs0mg"},{"bike_id":"7a5bc882-e1cb-44a7-b0c0-b22f1870c759","system_id":"levelo_inurba_marseille","lat":43.294314,"lon":5.397498,"is_reserved":false,"is_disabled":false,"rental_uris":{"android":"levelo://app?vid=7a5bc882-e1cb-44a7-b0c0-b22f1870c759","ios":"levelo://app?vid=7a5bc882-e1cb-44a7-b0c0-b22f1870c759"},"vehicle_type_id":"4","last_reported":1719079790,"current_range_meters":12800,"station_id":"ce4bh3h2rcd13ifvqdo0","pricing_plan_id":"cebpf4jnsgd1na2vs0mg"},{"bike_id":"f79a1387-ee70-42a7-b46e-ba71159441cb","system_id":"levelo_inurba_marseille","lat":43.284538,"lon":5.358657,"is_reserved":false,"is_disabled":false,"rental_uris":{"android":"levelo://app?vid=f79a1387-ee70-42a7-b46e-ba71159441cb","ios":"levelo://app?vid=f79a1387-ee70-42a7-b46e-ba71159441cb"},"vehicle_type_id":"4","last_reported":1719079790,"current_range_meters":28000,"station_id":"ce4bhah2rcd13ifvqei0","pricing_plan_id":"cebpf4jnsgd1na2vs0mg"},{"bike_id":"a83371aa-194d-4df8-9496-bf45dda26c80","system_id":"levelo_inurba_marseille","lat":43.294314,"lon":5.397498,"is_reserved":false,"is_disabled":false,"rental_uris":{"android":"levelo://app?vid=a83371aa-194d-4df8-9496-bf45dda26c80","ios":"levelo://app?vid=a83371aa-194d-4df8-9496-bf45dda26c80"},"vehicle_type_id":"4","last_reported":1719079790,"current_range_meters":6800,"station_id":"ce4bh3h2rcd13ifvqdo0","pricing_plan_id":"cebpf4jnsgd1na2vs0mg"},{"bike_id":"0928f6c2-5100-4822-ae0a-0dabd86bd1d8","system_id":"levelo_inurba_marseille","lat":43.285856,"lon":5.350771,"is_reserved":false,"is_disabled":false,"rental_uris":{"android":"levelo://app?vid=0928f6c2-5100-4822-ae0a-0dabd86bd1d8","ios":"levelo://app?vid=0928f6c2-5100-4822-ae0a-0dabd86bd1d8"},"vehicle_type_id":"4","last_reported":1719079790,"current_range_meters":0,"station_id":"ce4bhch2rcd13ifvqeug","pricing_plan_id":"cebpf4jnsgd1na2vs0mg"},{"bike_id":"a45363cf-028e-4ae8-87a5-9c21971a6de6","system_id":"levelo_inurba_marseille","lat":43.285856,"lon":5.350771,"is_reserved":false,"is_disabled":false,"rental_uris":{"android":"levelo://app?vid=a45363cf-028e-4ae8-87a5-9c21971a6de6","ios":"levelo://app?vid=a45363cf-028e-4ae8-87a5-9c21971a6de6"},"vehicle_type_id":"4","last_reported":1719079790,"current_range_meters":30400,"station_id":"ce4bhch2rcd13ifvqeug","pricing_plan_id":"cebpf4jnsgd1na2vs0mg"},{"bike_id":"1470cb7a-3d3c-4ce1-b4b4-83e21d6430ad","system_id":"levelo_inurba_marseille","lat":43.28421,"lon":5.37515,"is_reserved":false,"is_disabled":false,"rental_uris":{"android":"levelo://app?vid=1470cb7a-3d3c-4ce1-b4b4-83e21d6430ad","ios":"levelo://app?vid=1470cb7a-3d3c-4ce1-b4b4-83e21d6430ad"},"vehicle_type_id":"4","last_reported":1719079790,"current_range_meters":28000,"station_id":"ce4bh412rcd13ifvqds0","pricing_plan_id":"cebpf4jnsgd1na2vs0mg"},{"bike_id":"4551605f-dc67-43ae-8d8b-525e34e058f0","system_id":"levelo_inurba_marseille","lat":43.295713,"lon":5.399639,"is_reserved":false,"is_disabled":false,"rental_uris":{"android":"levelo://app?vid=4551605f-dc67-43ae-8d8b-525e34e058f0","ios":"levelo://app?vid=4551605f-dc67-43ae-8d8b-525e34e058f0"},"vehicle_type_id":"4","last_reported":1719079790,"current_range_meters":800,"station_id":"ce4bh312rcd13ifvqdj0","pricing_plan_id":"cebpf4jnsgd1na2vs0mg"},{"bike_id":"5dda4308-cb42-4d98-9fa2-4fc7df0ec350","system_id":"levelo_inurba_marseille","lat":43.299427,"lon":5.40287,"is_reserved":false,"is_disabled":false,"rental_uris":{"android":"levelo://app?vid=5dda4308-cb42-4d98-9fa2-4fc7df0ec350","ios":"levelo://app?vid=5dda4308-cb42-4d98-9fa2-4fc7df0ec350"},"vehicle_type_id":"4","last_reported":1719079790,"current_range_meters":19600,"station_id":"","pricing_plan_id":"cebpf4jnsgd1na2vs0mg"},{"bike_id":"1e5c4dc5-1d8d-4acb-a29e-5a0461ed123f","system_id":"levelo_inurba_marseille","lat":43.28669,"lon":5.38655,"is_reserved":false,"is_disabled":false,"rental_uris":{"android":"levelo://app?vid=1e5c4dc5-1d8d-4acb-a29e-5a0461ed123f","ios":"levelo://app?vid=1e5c4dc5-1d8d-4acb-a29e-5a0461ed123f"},"vehicle_type_id":"4","last_reported":1719079790,"current_range_meters":14800,"station_id":"ce4bh492rcd13ifvqdug","pricing_plan_id":"cebpf4jnsgd1na2vs0mg"},