{"last_updated":1683392691,"ttl":30,"version":"2.2","data":{"bikes":[{"bike_id":"2c6bca31-c3cb-437b-aa2a-1eb241facdaf","system_id":"levelo_inurba_marseille","lat":43.314811,"lon":5.373104,"is_reserved":false,"is_disabled":false,"rental_uris":{"android":"levelo://app?vid=2c6bca31-c3cb-437b-aa2a-1eb241facdaf","ios":"levelo://app?vid=2c6bca31-c3cb-437b-aa2a-1eb241facdaf"},"vehicle_type_id":"4","last_reported":1683392693,"current_range_meters":9200,"station_id":"ce4bgt12rcd13ifvqcd0","pricing_plan_id":"free"},{"bike_id":"caea2489-5a5d-4f00-8e78-8c319f8ed68e","system_id":"levelo_inurba_marseille","lat":43.3057,"lon":5.36553,"is_reserved":false,"is_disabled":false,"rental_uris":{"android":"levelo://app?vid=caea2489-5a5d-4f00-8e78-8c319f8ed68e","ios":"levelo://app?vid=caea2489-5a5d-4f00-8e78-8c319f8ed68e"},"vehicle_type_id":"4","last_reported":1683392693,"current_range_meters":6000,"station_id":"","pricing_plan_id":"free"},{"bike_id":"092cd6cb-d102-46cd-8754-e113c85ea9d7","system_id":"levelo_inurba_marseille","lat":43.305706,"lon":5.365654,"is_reserved":false,"is_disabled":false,"rental_uris":{"android":"levelo://app?vid=092cd6cb-d102-46cd-8754-e113c85ea9d7","ios":"levelo://app?vid=092cd6cb-d102-46cd-8754-e113c85ea9d7"},"vehicle_type_id":"4","last_reported":1683392693,"current_range_meters":18800,"station_id":"ce4bgs12rcd13ifvqcag","pricing_plan_id":"free"},{"bike_id":"d9aec909-7f17-4156-a0f9-27f751a87fbc","system_id":"levelo_inurba_marseille","lat":43.305714,"lon":5.365633,"is_reserved":false,"is_disabled":false,"rental_uris":{"android":"levelo://app?vid=d9aec909-7f17-4156-a0f9-27f751a87fbc","ios":"levelo://app?vid=d9aec909-7f17-4156-a0f9-27f751a87fbc"},"vehicle_type_id":"4","last_reported":1683392693,"current_range_meters":4800,"station_id":"ce4bgs12rcd13ifvqcag","pricing_plan_id":"free"},{"bike_id":"1a8390bb-9cdf-4064-bd3d-cf60adbb3f57","system_id":"levelo_inurba_marseille","lat":43.305989,"lon":5.37225,"is_reserved":false,"is_disabled":false,"rental_uris":{"android":"levelo://app?vid=1a8390bb-9cdf-4064-bd3d-cf60adbb3f57","ios":"levelo://app?vid=1a8390bb-9cdf-4064-bd3d-cf60adbb3f57"},"vehicle_type_id":"4","last_reported":1683392693,"current_range_meters":5200,"station_id":"ce4bgqh2rcd13ifvqc4g","pricing_plan_id":"free"},{"bike_id":"200e9026-4b75-4ce8-b27f-ea42f2190eda","system_id":"levelo_inurba_marseille","lat":43.305989,"lon":5.37225,"is_reserved":false,"is_disabled":false,"rental_uris":{"android":"levelo://app?vid=200e9026-4b75-4ce8-b27f-ea42f2190eda","ios":"levelo://app?vid=200e9026-4b75-4ce8-b27f-ea42f2190eda"},"vehicle_type_id":"4","last_reported":1683392693,"current_range_meters":26800,"station_id":"ce4bgqh2rcd13ifvqc4g","pricing_plan_id":"free"},{"bike_id":"4a118bd2-cd6a-4967-961e-896da583b882","system_id":"levelo_inurba_marseille","lat":43.305989,"lon":5.37225,"is_reserved":false,"is_disabled":false,"rental_uris":{"android":"levelo://app?vid=4a118bd2-cd6a-4967-961e-896da583b882","ios":"levelo://app?vid=4a118bd2-cd6a-4967-961e-896da583b882"},"vehicle_type_id":"4","last_reported":1683392693,"current_range_meters":31200,"station_id":"ce4bgqh2rcd13ifvqc4g","pricing_plan_id":"free"},{"bike_id":"9638d18e-39a6-4343-9111-dc2e68342263","system_id":"levelo_inurba_marseille","lat":43.305989,"lon":5.37225,"is_reserved":false,"is_disabled":false,"rental_uris":{"android":"levelo://app?vid=9638d18e-39a6-4343-9111-dc2e68342263","ios":"levelo://app?vid=9638d18e-39a6-4343-9111-dc2e68342263"},"vehicle_type_id":"4","last_reported":1683392693,"current_range_meters":1600,"station_id":"ce4bgqh2rcd13ifvqc4g","pricing_plan_id":"free"},{"bike_id":"5203c2d7-f33e-4077-85b3-fef7dce8d89d","system_id":"levelo_inurba_marseille","lat":43.305989,"lon":5.37225,"is_reserved":false,"is_disabled":false,"rental_uris":{"android":"levelo://app?vid=5203c2d7-f33e-4077-85b3-fef7dce8d89d","ios":"levelo://app?vid=5203c2d7-f33e-4077-85b3-fef7dce8d89d"},"vehicle_type_id":"4","last_reported":1683392693,"current_range_meters":16400,"station_id":"ce4bgqh2rcd13ifvqc4g","pricing_plan_id":"free"},{"bike_id":"5a1ebad7-4fa1-40e7-91f8-f01754aa2117","system_id":"levelo_inurba_marseille","lat":43.30313,"lon":5.36455,"is_reserved":false,"is_disabled":false,"rental_uris":{"android":"levelo://app?vid=5a1ebad7-4fa1-40e7-91f8-f01754aa2117","ios":"levelo://app?vid=5a1ebad7-4fa1-40e7-91f8-f01754aa2117"},"vehicle_type_id":"4","last_reported":1683392693,"current_range_meters":6000,"station_id":"","pricing_plan_id":"free"},{"bike_id":"c338a033-0c28-457d-884b-afdc3528f06e","system_id":"levelo_inurba_marseille","lat":43.30304,"lon":5.368987,"is_reserved":false,"is_disabled":false,"rental_uris":{"android":"levelo://app?vid=c338a033-0c28-457d-884b-afdc3528f06e","ios":"levelo://app?vid=c338a033-0c28-457d-884b-afdc3528f06e"},"vehicle_type_id":"4","last_reported":1683392693,"current_range_meters":3600,"station_id":"ce4bgqh2rcd13ifvqc5g","pricing_plan_id":"free"},{"bike_id":"3cda49a1-fb13-4a9c-9171-f33b2e347770","system_id":"levelo_inurba_marseille","lat":43.313571,"lon":5.384829,"is_reserved":false,"is_disabled":false,"rental_uris":{"android":"levelo://app?vid=3cda49a1-fb13-4a9c-9171-f33b2e347770","ios":"levelo://app?vid=3cda49a1-fb13-4a9c-9171-f33b2e347770"},"vehicle_type_id":"4","last_reported":1683392693,"current_range_meters":14400,"station_id":"ce4bgt92rcd13ifvqcf0","pricing_plan_id":"free"},{"bike_id":"f6c64a9d-d5f6-48c4-8a81-960fe0f29fb2","system_id":"levelo_inurba_marseille","lat":43.31363,"lon":5.38524,"is_reserved":false,"is_disabled":false,"rental_uris":{"android":"levelo://app?vid=f6c64a9d-d5f6-48c4-8a81-960fe0f29fb2","ios":"levelo://app?vid=f6c64a9d-d5f6-48c4-8a81-960fe0f29fb2"},"vehicle_type_id":"4","last_reported":1683392693,"current_range_meters":17200,"station_id":"","pricing_plan_id":"free"},{"bike_id":"bcf12486-4d40-4884-969b-2c19f244a968","system_id":"levelo_inurba_marseille","lat":43.29881,"lon":5.36703,"is_reserved":false,"is_disabled":false,"rental_uris":{"android":"levelo://app?vid=bcf12486-4d40-4884-969b-2c19f244a968","ios":"levelo://app?vid=bcf12486-4d40-4884-969b-2c19f244a968"},"vehicle_type_id":"4","last_reported":1683392693,"current_range_meters":0,"station_id":"","pricing_plan_id":"free"},{"bike_id":"709af276-d48d-4035-a5c7-cb7bdb0cefb7","system_id":"levelo_inurba_marseille","lat":43.298433,"lon":5.362774,"is_reserved":false,"is_disabled":false,"rental_uris":{"android":"levelo://app?vid=709af276-d48d-4035-a5c7-cb7bdb0cefb7","ios":"levelo://app?vid=709af276-d48d-4035-a5c7-cb7bdb0cefb7"},"vehicle_type_id":"4","last_reported":1683392693,"current_range_meters":10400,"station_id":"ce4bgpp2rcd13ifvqc3g","pricing_plan_id":"free"},{"bike_id":"aba50e0b-5c25-48f4-bd6d-440f8726f1f3","system_id":"levelo_inurba_marseille","lat":43.3029,"lon":5.38188,"is_reserved":false,"is_disabled":false,"rental_uris":{"android":"levelo://app?vid=aba50e0b-5c25-48f4-bd6d-440f8726f1f3","ios":"levelo://app?vid=aba50e0b-5c25-48f4-bd6d-440f8726f1f3"},"vehicle_type_id":"4","last_reported":1683392693,"current_range_meters":7200,"station_id":"","pricing_plan_id":"free"},{"bike_id":"019b8573-e836-4294-8e17-4e1ca4d970db","system_id":"levelo_inurba_marseille","lat":43.299243,"lon":5.37481,"is_reserved":false,"is_disabled":false,"rental_uris":{"android":"levelo://app?vid=019b8573-e836-4294-8e17-4e1ca4d970db","ios":"levelo://app?vid=019b8573-e836-4294-8e17-4e1ca4d970db"},"vehicle_type_id":"4","last_reported":1683392693,"current_range_meters":19200,"station_id":"ce4bgjh2rcd13ifvqbg0","pricing_plan_id":"free"},{"bike_id":"937f33e6-5bc1-4823-8dcb-e1d756e99517","system_id":"levelo_inurba_marseille","lat":43.31166,"lon":5.38712,"is_reserved":false,"is_disabled":false,"rental_uris":{"android":"levelo://app?vid=937f33e6-5bc1-4823-8dcb-e1d756e99517","ios":"levelo://app?vid=937f33e6-5bc1-4823-8dcb-e1d756e99517"},"vehicle_type_id":"4","last_reported":1683392693,"current_range_meters":10000,"station_id":"ce4bgv12rcd13ifvqcp0","pricing_plan_id":"free"},{"bike_id":"9009c774-2b36-4f19-882c-2e75f3052f30","system_id":"levelo_inurba_marseille","lat":43.299243,"lon":5.374807,"is_reserved":false,"is_disabled":false,"rental_uris":{"android":"levelo://app?vid=9009c774-2b36-4f19-882c-2e75f3052f30","ios":"levelo://app?vid=9009c774-2b36-4f19-882c-2e75f3052f30"},"vehicle_type_id":"4","last_reported":1683392693,"current_range_meters":27600,"station_id":"ce4bgjh2rcd13ifvqbg0","pricing_plan_id":"free"},{"bike_id":"32e36373-44ed-4c2f-a5c1-c8efd422f30b","system_id":"levelo_inurba_marseille","lat":43.299243,"lon":5.374807,"is_reserved":false,"is_disabled":false,"rental_uris":{"android":"levelo://app?vid=32e36373-44ed-4c2f-a5c1-c8efd422f30b","ios":"levelo://app?vid=32e36373-44ed-4c2f-a5c1-c8efd422f30b"},"vehicle_type_id":"4","last_reported":1683392693,"current_range_meters":4400,"station_id":"ce4bgjh2rcd13ifvqbg0","pricing_plan_id":"free"},{"bike_id":"890fd106-26a2-4d06-bc05-ed525b6789a4","system_id":"levelo_inurba_marseille","lat":43.299243,"lon":5.37481,"is_reserved":false,"is_disabled":false,"rental_uris":{"android":"levelo://app?vid=890fd106-26a2-4d06-bc05-ed525b6789a4","ios":"levelo://app?vid=890fd106-26a2-4d06-bc05-ed525b6789a4"},"vehicle_type_id":"4","last_reported":1683392693,"current_range_meters":28400,"station_id":"ce4bgjh2rcd13ifvqbg0","pricing_plan_id":"free"},{"bike_id":"71edc3ae-dfbf-4b95-8647-6ea9aa68dc94","system_id":"levelo_inurba_marseille","lat":43.297774,"lon":5.370875,"is_reserved":false,"is_disabled":false,"rental_uris":{"android":"levelo://app?vid=71edc3ae-dfbf-4b95-8647-6ea9aa68dc94","ios":"levelo://app?vid=71edc3ae-dfbf-4b95-8647-6ea9aa68dc94"},"vehicle_type_id":"4","last_reported":1683392693,"current_range_meters":0,"station_id":"ce4bgop2rcd13ifvqc1g","pricing_plan_id":"free"},{"bike_id":"8c769f9b-6b4c-49bd-bc1b-a0f1c243e35c","system_id":"levelo_inurba_marseille","lat":43.29766,"lon":5.3711,"is_reserved":false,"is_disabled":false,"rental_uris":{"android":"levelo://app?vid=8c769f9b-6b4c-49bd-bc1b-a0f1c243e35c","ios":"levelo://app?vid=8c769f9b-6b4c-49bd-bc1b-a0f1c243e35c"},"vehicle_type_id":"4","last_reported":1683392693,"current_range_meters":400,"station_id":"ce4bgop2rcd13ifvqc1g","pricing_plan_id":"free"},{"bike_id":"cb03d0a7-8198-46ba-b8e4-07d3539f0078","system_id":"levelo_inurba_marseille","lat":43.328371,"lon":5.366912,"is_reserved":false,"is_disabled":false,"rental_uris":{"android":"levelo://app?vid=cb03d0a7-8198-46ba-b8e4-07d3539f0078","ios":"levelo://app?vid=cb03d0a7-8198-46ba-b8e4-07d3539f0078"},"vehicle_type_id":"4","last_reported":1683392693,"current_range_meters":18400,"station_id":"ce4bhs92rcd13ifvqi0g","pricing_plan_id":"free"},{"bike_id":"09054360-699d-4577-bd1c-984ceec4cb01","system_id":"levelo_inurba_marseille","lat":43.328371,"lon":5.366912,"is_reserved":false,"is_disabled":false,"rental_uris":{"android":"levelo://app?vid=09054360-699d-4577-bd1c-984ceec4cb01","ios":"levelo://app?vid=09054360-699d-4577-bd1c-984ceec4cb01"},"vehicle_type_id":"4","last_reported":1683392693,"current_range_meters":6400,"station_id":"ce4bhs92rcd13ifvqi0g","pricing_plan_id":"free"},{"bike_id":"f7058cbd-13d6-4363-8a29-3f09f8ac5d4d","system_id":"levelo_inurba_marseille","lat":43.328371,"lon":5.366912,"is_reserved":false,"is_disabled":false,"rental_uris":{"android":"levelo://app?vid=f7058cbd-13d6-4363-8a29-3f09f8ac5d4d","ios":"levelo://app?vid=f7058cbd-13d6-4363-8a29-3f09f8ac5d4d"},"vehicle_type_id":"4","last_reported":1683392693,"current_range_meters":800,"station_id":"ce4bhs92rcd13ifvqi0g","pricing_plan_id":"free"},{"bike_id":"fa495c37-f7d4-465f-a146-0169143d7693","system_id":"levelo_inurba_marseille","lat":43.328371,"lon":5.366912,"is_reserved":false,"is_disabled":false,"rental_uris":{"android":"levelo://app?vid=fa495c37-f7d4-465f-a146-0169143d7693","ios":"levelo://app?vid=fa495c37-f7d4-465f-a146-0169143d7693"},"vehicle_type_id":"4","last_reported":1683392693,"current_range_meters":14000,"station_id":"ce4bhs92rcd13ifvqi0g","pricing_plan_id":"free"},{"bike_id":"05c44ec8-9bf2-419a-aafa-32210ead3afe","system_id":"levelo_inurba_marseille","lat":43.328371,"lon":5.366912,"is_reserved":false,"is_disabled":false,"rental_uris":{"android":"levelo://app?vid=05c44ec8-9bf2-419a-aafa-32210ead3afe","ios":"levelo://app?vid=05c44ec8-9bf2-419a-aafa-32210ead3afe"},"vehicle_type_id":"4","last_reported":1683392693,"current_range_meters":29600,"station_id":"ce4bhs92rcd13ifvqi0g","pricing_plan_id":"free"},{"bike_id":"aafcc005-5e38-4c52-a10d-6d0f89f0012b","system_id":"levelo_inurba_marseille","lat":43.302008,"lon":5.394694,"is_reserved":false,"is_disabled":false,"rental_uris":{"android":"levelo://app?vid=aafcc005-5e38-4c52-a10d-6d0f89f0012b","ios":"levelo://app?vid=aafcc005-5e38-4c52-a10d-6d0f89f0012b"},"vehicle_type_id":"4","last_reported":1683392693,"current_range_meters":4400,"station_id":"ce4bh0p2rcd13ifvqd70","pricing_plan_id":"free"},{"bike_id":"475a59a3-7ff9-4ece-bba6-f64e33b08fb1","system_id":"levelo_inurba_marseille","lat":43.296921,"lon":5.376579,"is_reserved":false,"is_disabled":false,"rental_uris":{"android":"levelo://app?vid=475a59a3-7ff9-4ece-bba6-f64e33b08fb1","ios":"levelo://app?vid=475a59a3-7ff9-4ece-bba6-f64e33b08fb1"},"vehicle_type_id":"4","last_reported":1683392693,"current_range_meters":0,"station_id":"ce4bgkh2rcd13ifvqbl0","pricing_plan_id":"free"},{"bike_id":"942ebdda-7481-469d-bfda-fc38bd2c11ec","system_id":"levelo_inurba_marseille","lat":43.29689,"lon":5.37687,"is_reserved":false,"is_disabled":false,"rental_uris":{"android":"levelo://app?vid=942ebdda-7481-469d-bfda-fc38bd2c11ec","ios":"levelo://app?vid=942ebdda-7481-469d-bfda-fc38bd2c11ec"},"vehicle_type_id":"4","last_reported":1683392693,"current_range_meters":6800,"station_id":"","pricing_plan_id":"free"},{"bike_id":"60c66c87-4ca4-4156-b8a6-eda8bd157ca4","system_id":"levelo_inurba_marseille","lat":43.317557,"lon":5.390173,"is_reserved":false,"is_disabled":false,"rental_uris":{"android":"levelo://app?vid=60c66c87-4ca4-4156-b8a6-eda8bd157ca4","ios":"levelo://app?vid=60c66c87-4ca4-4156-b8a6-eda8bd157ca4"},"vehicle_type_id":"4","last_reported":1683392693,"current_range_meters":14400,"station_id":"ce4bhqp2rcd13ifvqhng","pricing_plan_id":"free"},{"bike_id":"114bf342-1496-4a5a-bd43-1beb8894787a","system_id":"levelo_inurba_marseille","lat":43.317557,"lon":5.390173,"is_reserved":false,"is_disabled":false,"rental_uris":{"android":"levelo://app?vid=114bf342-1496-4a5a-bd43-1beb8894787a","ios":"levelo://app?vid=114bf342-1496-4a5a-bd43-1beb8894787a"},"vehicle_type_id":"4","last_reported":1683392693,"current_range_meters":23600,"station_id":"ce4bhqp2rcd13ifvqhng","pricing_plan_id":"free"},{"bike_id":"5e26388f-afcc-4ebc-9b1c-d20adac7f39a","system_id":"levelo_inurba_marseille","lat":43.317557,"lon":5.390173,"is_reserved":false,"is_disabled":false,"rental_uris":{"android":"levelo://app?vid=5e26388f-afcc-4ebc-9b1c-d20adac7f39a","ios":"levelo://app?vid=5e26388f-afcc-4ebc-9b1c-d20adac7f39a"},"vehicle_type_id":"4","last_reported":1683392693,"current_range_meters":20400,"station_id":"ce4bhqp2rcd13ifvqhng","pricing_plan_id":"free"},{"bike_id":"b12929ad-f67e-482e-9422-a2c38c6dc721","system_id":"levelo_inurba_marseille","lat":43.298037,"lon":5.381066,"is_reserved":false,"is_disabled":false,"rental_uris":{"android":"levelo://app?vid=b12929ad-f67e-482e-9422-a2c38c6dc721","ios":"levelo://app?vid=b12929ad-f67e-482e-9422-a2c38c6dc721"},"vehicle_type_id":"4","last_reported":1683392693,"current_range_meters":25600,"station_id":"ce4bgip2rcd13ifvqbb0","pricing_plan_id":"free"},{"bike_id":"aaf6e911-0605-42f0-91cc-08391276c1c5","system_id":"levelo_inurba_marseille","lat":43.298037,"lon":5.381066,"is_reserved":false,"is_disabled":false,"rental_uris":{"android":"levelo://app?vid=aaf6e911-0605-42f0-91cc-08391276c1c5","ios":"levelo://app?vid=aaf6e911-0605-42f0-91cc-08391276c1c5"},"vehicle_type_id":"4","last_reported":1683392693,"current_range_meters":16800,"station_id":"ce4bgip2rcd13ifvqbb0","pricing_plan_id":"free"},{"bike_id":"63bef365-652c-4e95-996c-f75f290e2351","system_id":"levelo_inurba_marseille","lat":43.298037,"lon":5.381066,"is_reserved":false,"is_disabled":false,"rental_uris":{"android":"levelo://app?vid=63bef365-652c-4e95-996c-f75f290e2351","ios":"levelo://app?vid=63bef365-652c-4e95-996c-f75f290e2351"},"vehicle_type_id":"4","last_reported":1683392693,"current_range_meters":12000,"station_id":"ce4bgip2rcd13ifvqbb0","pricing_plan_id":"free"},{"bike_id":"8a4138d5-d61a-4022-92aa-3fb893e47b6f","system_id":"levelo_inurba_marseille","lat":43.296263,"lon":5.377094,"is_reserved":false,"is_disabled":false,"rental_uris":{"android":"levelo://app?vid=8a4138d5-d61a-4022-92aa-3fb893e47b6f","ios":"levelo://app?vid=8a4138d5-d61a-4022-92aa-3fb893e47b6f"},"vehicle_type_id":"4","last_reported":1683392693,"current_range_meters":10800,"station_id":"ce4bgi92rcd13ifvqb90","pricing_plan_id":"free"},{"bike_id":"8758ae87-0958-47bf-a801-b2cedd394686","system_id":"levelo_inurba_marseille","lat":43.296263,"lon":5.377094,"is_reserved":false,"is_disabled":false,"rental_uris":{"android":"levelo://app?vid=8758ae87-0958-47bf-a801-b2cedd394686","ios":"levelo://app?vid=8758ae87-0958-47bf-a801-b2cedd394686"},"vehicle_type_id":"4","last_reported":1683392693,"current_range_meters":11200,"station_id":"ce4bgi92rcd13ifvqb90","pricing_plan_id":"free"},{"bike_id":"28f9295d-b3e8-43e6-8998-3936d64a553b","system_id":"levelo_inurba_marseille","lat":43.296263,"lon":5.377094,"is_reserved":false,"is_disabled":false,"rental_uris":{"android":"levelo://app?vid=28f9295d-b3e8-43e6-8998-3936d64a553b","ios":"levelo://app?vid=28f9295d-b3e8-43e6-8998-3936d64a553b"},"vehicle_type_id":"4","last_reported":1683392693,"current_range_meters":0,"station_id":"ce4bgi92rcd13ifvqb90","pricing_plan_id":"free"},{"bike_id":"7c650868-cefd-420b-8370-0b913f487525","system_id":"levelo_inurba_marseille","lat":43.29617,"lon":5.37737,"is_reserved":false,"is_disabled":false,"rental_uris":{"android":"levelo://app?vid=7c650868-cefd-420b-8370-0b913f487525","ios":"levelo://app?vid=7c650868-cefd-420b-8370-0b913f487525"},"vehicle_type_id":"4","last_reported":1683392693,"current_range_meters":21600,"station_id":"ce4bgi92rcd13ifvqb90","pricing_plan_id":"free"},{"bike_id":"6f51322e-704f-4509-bf94-1ac4d2e8dc56","system_id":"levelo_inurba_marseille","lat":43.296263,"lon":5.377094,"is_reserved":false,"is_disabled":false,"rental_uris":{"android":"levelo://app?vid=6f51322e-704f-4509-bf94-1ac4d2e8dc56","ios":"levelo://app?vid=6f51322e-704f-4509-bf94-1ac4d2e8dc56"},"vehicle_type_id":"4","last_reported":1683392693,"current_range_meters":0,"station_id":"ce4bgi92rcd13ifvqb90","pricing_plan_id":"free"},{"bike_id":"db9d116c-d907-4dc7-b5ce-188c5b03fb77","system_id":"levelo_inurba_marseille","lat":43.29608,"lon":5.37732,"is_reserved":false,"is_disabled":false,"rental_uris":{"android":"levelo://app?vid=db9d116c-d907-4dc7-b5ce-188c5b03fb77","ios":"levelo://app?vid=db9d116c-d907-4dc7-b5ce-188c5b03fb77"},"vehicle_type_id":"4","last_reported":1683392693,"current_range_meters":0,"station_id":"","pricing_plan_id":"free"},{"bike_id":"ad1f12ac-2399-47f7-a470-c89d0138031e","system_id":"levelo_inurba_marseille","lat":43.295279,"lon":5.375048,"is_reserved":false,"is_disabled":false,"rental_uris":{"android":"levelo://app?vid=ad1f12ac-2399-47f7-a470-c89d0138031e","ios":"levelo://app?vid=ad1f12ac-2399-47f7-a470-c89d0138031e"},"vehicle_type_id":"4","last_reported":1683392693,"current_range_meters":19200,"station_id":"ce4bgkp2rcd13ifvqbmg","pricing_plan_id":"free"},{"bike_id":"be961f52-23f4-4acb-a1f9-ee4f98360378","system_id":"levelo_inurba_marseille","lat":43.299707,"lon":5.384859,"is_reserved":false,"is_disabled":false,"rental_uris":{"android":"levelo://app?vid=be961f52-23f4-4acb-a1f9-ee4f98360378","ios":"levelo://app?vid=be961f52-23f4-4acb-a1f9-ee4f98360378"},"vehicle_type_id":"4","last_reported":1683392693,"current_range_meters":18000,"station_id":"ce4bgj92rcd13ifvqbd0","pricing_plan_id":"free"},{"bike_id":"bb8349c3-1fed-4862-b38e-3b4f99d6e640","system_id":"levelo_inurba_marseille","lat":43.295279,"lon":5.375048,"is_reserved":false,"is_disabled":false,"rental_uris":{"android":"levelo://app?vid=bb8349c3-1fed-4862-b38e-3b4f99d6e640","ios":"levelo://app?vid=bb8349c3-1fed-4862-b38e-3b4f99d6e640"},"vehicle_type_id":"4","last_reported":1683392693,"current_range_meters":17200,"station_id":"ce4bgkp2rcd13ifvqbmg","pricing_plan_id":"free"},{"bike_id":"1adbd70f-ceb9-4068-b0f7-b0b31ca84505","system_id":"levelo_inurba_marseille","lat":43.29968,"lon":5.38499,"is_reserved":false,"is_disabled":false,"rental_uris":{"android":"levelo://app?vid=1adbd70f-ceb9-4068-b0f7-b0b31ca84505","ios":"levelo://app?vid=1adbd70f-ceb9-4068-b0f7-b0b31ca84505"},"vehicle_type_id":"4","last_reported":1683392693,"current_range_meters":6000,"station_id":"ce4bgj92rcd13ifvqbd0","pricing_plan_id":"free"},{"bike_id":"770b675d-b078-451b-873f-c44f38e2fda4","system_id":"levelo_inurba_marseille","lat":43.295279,"lon":5.375048,"is_reserved":false,"is_disabled":false,"rental_uris":{"android":"levelo://app?vid=770b675d-b078-451b-873f-c44f38e2fda4","ios":"levelo://app?vid=770b675d-b078-451b-873f-c44f38e2fda4"},"vehicle_type_id":"4","last_reported":1683392693,"current_range_meters":19200,"station_id":"ce4bgkp2rcd13ifvqbmg","pricing_plan_id":"free"},{"bike_id":"f0dcfd84-4222-444a-b26d-9f99a892695b","system_id":"levelo_inurba_marseille","lat":43.31453,"lon":5.39262,"is_reserved":false,"is_disabled":false,"rental_uris":{"android":"levelo://app?vid=f0dcfd84-4222-444a-b26d-9f99a892695b","ios":"levelo://app?vid=f0dcfd84-4222-444a-b26d-9f99a892695b"},"vehicle_type_id":"4","last_reported":1683392693,"current_range_meters":6400,"station_id":"","pricing_plan_id":"free"},{"bike_id":"07db69fe-fbf2-4c8e-b96c-9a34e215be24","system_id":"levelo_inurba_marseille","lat":43.299717,"lon":5.384845,"is_reserved":false,"is_disabled":false,"rental_uris":{"android":"levelo://app?vid=07db69fe-fbf2-4c8e-b96c-9a34e215be24","ios":"levelo://app?vid=07db69fe-fbf2-4c8e-b96c-9a34e215be24"},"vehicle_type_id":"4","last_reported":1683392693,"current_range_meters":15200,"station_id":"ce4bgj92rcd13ifvqbd0","pricing_plan_id":"free"},{"bike_id":"32bd314a-afbc-4302-8825-41bfbe960f62","system_id":"levelo_inurba_marseille","lat":43.29601,"lon":5.381084,"is_reserved":false,"is_disabled":false,"rental_uris":{"android":"levelo://app?vid=32bd314a-afbc-4302-8825-41bfbe960f62","ios":"levelo://app?vid=32bd314a-afbc-4302-8825-41bfbe960f62"},"vehicle_type_id":"4","last_reported":1683392693,"current_range_meters":6000,"station_id":"ce4bgl12rcd13ifvqbo0","pricing_plan_id":"free"},{"bike_id":"8e5a5889-888d-4ba6-9302-f758034dcd7d","system_id":"levelo_inurba_marseille","lat":43.293009,"lon":5.374584,"is_reserved":false,"is_disabled":false,"rental_uris":{"android":"levelo://app?vid=8e5a5889-888d-4ba6-9302-f758034dcd7d","ios":"levelo://app?vid=8e5a5889-888d-4ba6-9302-f758034dcd7d"},"vehicle_type_id":"4","last_reported":1683392693,"current_range_meters":31200,"station_id":"ce4bgi12rcd13ifvqb70","pricing_plan_id":"free"},{"bike_id":"be73ee62-5246-45ac-aec0-285a5eece6a0","system_id":"levelo_inurba_marseille","lat":43.293018,"lon":5.374566,"is_reserved":false,"is_disabled":false,"rental_uris":{"android":"levelo://app?vid=be73ee62-5246-45ac-aec0-285a5eece6a0","ios":"levelo://app?vid=be73ee62-5246-45ac-aec0-285a5eece6a0"},"vehicle_type_id":"4","last_reported":1683392693,"current_range_meters":14000,"station_id":"ce4bgi12rcd13ifvqb70","pricing_plan_id":"free"},{"bike_id":"d92db093-d5df-4326-8238-0baf15fbd29a","system_id":"levelo_inurba_marseille","lat":43.293007,"lon":5.37459,"is_reserved":false,"is_disabled":false,"rental_uris":{"android":"levelo://app?vid=d92db093-d5df-4326-8238-0baf15fbd29a","ios":"levelo://app?vid=d92db093-d5df-4326-8238-0baf15fbd29a"},"vehicle_type_id":"4","last_reported":1683392693,"current_range_meters":11600,"station_id":"","pricing_plan_id":"free"},{"bike_id":"62809458-344d-437b-a07e-4827faa33fb6","system_id":"levelo_inurba_marseille","lat":43.293009,"lon":5.374584,"is_reserved":false,"is_disabled":false,"rental_uris":{"android":"levelo://app?vid=62809458-344d-437b-a07e-4827faa33fb6","ios":"levelo://app?vid=62809458-344d-437b-a07e-4827faa33fb6"},"vehicle_type_id":"4","last_reported":1683392693,"current_range_meters":2000,"station_id":"ce4bgi12rcd13ifvqb70","pricing_plan_id":"free"},{"bike_id":"7e11d980-7ae0-4f9b-8dfa-408c76513b11","system_id":"levelo_inurba_marseille","lat":43.2936,"lon":5.37841,"is_reserved":false,"is_disabled":false,"rental_uris":{"android":"levelo://app?vid=7e11d980-7ae0-4f9b-8dfa-408c76513b11","ios":"levelo://app?vid=7e11d980-7ae0-4f9b-8dfa-408c76513b11"},"vehicle_type_id":"4","last_reported":1683392693,"current_range_meters":6800,"station_id":"ce4bgjh2rcd13ifvqbf0","pricing_plan_id":"free"},{"bike_id":"7971f68f-f1b4-42f8-938e-db1ba99de83d","system_id":"levelo_inurba_marseille","lat":43.300852,"lon":5.390859,"is_reserved":false,"is_disabled":false,"rental_uris":{"android":"levelo://app?vid=7971f68f-f1b4-42f8-938e-db1ba99de83d","ios":"levelo://app?vid=7971f68f-f1b4-42f8-938e-db1ba99de83d"},"vehicle_type_id":"4","last_reported":1683392693,"current_range_meters":0,"station_id":"ce4bh192rcd13ifvqdb0","pricing_plan_id":"free"},{"bike_id":"10220ca1-5123-4b88-a95d-8320933db0d1","system_id":"levelo_inurba_marseille","lat":43.29259,"lon":5.37623,"is_reserved":false,"is_disabled":false,"rental_uris":{"android":"levelo://app?vid=10220ca1-5123-4b88-a95d-8320933db0d1","ios":"levelo://app?vid=10220ca1-5123-4b88-a95d-8320933db0d1"},"vehicle_type_id":"4","last_reported":1683392693,"current_range_meters":9200,"station_id":"ce4bgi12rcd13ifvqb80","pricing_plan_id":"free"},{"bike_id":"faab5a62-cbab-41d5-9a5f-60c32434b02a","system_id":"levelo_inurba_marseille","lat":43.29156,"lon":5.37077,"is_reserved":false,"is_disabled":false,"rental_uris":{"android":"levelo://app?vid=faab5a62-cbab-41d5-9a5f-60c32434b02a","ios":"levelo://app?vid=faab5a62-cbab-41d5-9a5f-60c32434b02a"},"vehicle_type_id":"4","last_reported":1683392693,"current_range_meters":10400,"station_id":"","pricing_plan_id":"free"},{"bike_id":"712d22f6-507d-4705-8309-8afe2cb796b3","system_id":"levelo_inurba_marseille","lat":43.313291,"lon":5.396838,"is_reserved":false,"is_disabled":false,"rental_uris":{"android":"levelo://app?vid=712d22f6-507d-4705-8309-8afe2cb796b3","ios":"levelo://app?vid=712d22f6-507d-4705-8309-8afe2cb796b3"},"vehicle_type_id":"4","last_reported":1683392693,"current_range_meters":0,"station_id":"ce4bgvp2rcd13ifvqcu0","pricing_plan_id":"free"},{"bike_id":"7a58697b-d9bf-42fc-b4ee-6975815823f5","system_id":"levelo_inurba_marseille","lat":43.313291,"lon":5.396838,"is_reserved":false,"is_disabled":false,"rental_uris":{"android":"levelo://app?vid=7a58697b-d9bf-42fc-b4ee-6975815823f5","ios":"levelo://app?vid=7a58697b-d9bf-42fc-b4ee-6975815823f5"},"vehicle_type_id":"4","last_reported":1683392693,"current_range_meters":6000,"station_id":"ce4bgvp2rcd13ifvqcu0","pricing_plan_id":"free"},{"bike_id":"ce76e12b-829f-4918-8af8-033c88c83ec7","system_id":"levelo_inurba_marseille","lat":43.313291,"lon":5.396838,"is_reserved":false,"is_disabled":false,"rental_uris":{"android":"levelo://app?vid=ce76e12b-829f-4918-8af8-033c88c83ec7","ios":"levelo://app?vid=ce76e12b-829f-4918-8af8-033c88c83ec7"},"vehicle_type_id":"4","last_reported":1683392693,"current_range_meters":6400,"station_id":"ce4bgvp2rcd13ifvqcu0","pricing_plan_id":"free"},{"bike_id":"fd1dda64-7c8d-45ce-bc70-b99c1b79dc33","system_id":"levelo_inurba_marseille","lat":43.29529,"lon":5.385581,"is_reserved":false,"is_disabled":false,"rental_uris":{"android":"levelo://app?vid=fd1dda64-7c8d-45ce-bc70-b99c1b79dc33","ios":"levelo://app?vid=fd1dda64-7c8d-45ce-bc70-b99c1b79dc33"},"vehicle_type_id":"4","last_reported":1683392693,"current_range_meters":22400,"station_id":"ce4bgih2rcd13ifvqba0","pricing_plan_id":"free"},{"bike_id":"185a7a3d-0018-4bf2-850d-382797c35264","system_id":"levelo_inurba_marseille","lat":43.29529,"lon":5.385581,"is_reserved":false,"is_disabled":false,"rental_uris":{"android":"levelo://app?vid=185a7a3d-0018-4bf2-850d-382797c35264","ios":"levelo://app?vid=185a7a3d-0018-4bf2-850d-382797c35264"},"vehicle_type_id":"4","last_reported":1683392693,"current_range_meters":11600,"station_id":"ce4bgih2rcd13ifvqba0","pricing_plan_id":"free"},{"bike_id":"9440724e-1803-4f84-8756-9e319ee6873c","system_id":"levelo_inurba_marseille","lat":43.29529,"lon":5.385581,"is_reserved":false,"is_disabled":false,"rental_uris":{"android":"levelo://app?vid=9440724e-1803-4f84-8756-9e319ee6873c","ios":"levelo://app?vid=9440724e-1803-4f84-8756-9e319ee6873c"},"vehicle_type_id":"4","last_reported":1683392693,"current_range_meters":18400,"station_id":"ce4bgih2rcd13ifvqba0","pricing_plan_id":"free"},{"bike_id":"84cb5c55-8cda-459c-978d-a7f8dfd20ef2","system_id":"levelo_inurba_marseille","lat":43.29529,"lon":5.385581,"is_reserved":false,"is_disabled":false,"rental_uris":{"android":"levelo://app?vid=84cb5c55-8cda-459c-978d-a7f8dfd20ef2","ios":"levelo://app?vid=84cb5c55-8cda-459c-978d-a7f8dfd20ef2"},"vehicle_type_id":"4","last_reported":1683392693,"current_range_meters":31200,"station_id":"ce4bgih2rcd13ifvqba0","pricing_plan_id":"free"},{"bike_id":"783163fc-9acb-484d-85ae-4ec8e203b511","system_id":"levelo_inurba_marseille","lat":43.290779,"lon":5.371482,"is_reserved":false,"is_disabled":false,"rental_uris":{"android":"levelo://app?vid=783163fc-9acb-484d-85ae-4ec8e203b511","ios":"levelo://app?vid=783163fc-9acb-484d-85ae-4ec8e203b511"},"vehicle_type_id":"4","last_reported":1683392693,"current_range_meters":17600,"station_id":"ce4bh5p2rcd13ifvqe4g","pricing_plan_id":"free"},{"bike_id":"567eafd3-1f7c-4aac-bd78-d4bf2a21256b","system_id":"levelo_inurba_marseille","lat":43.29069,"lon":5.37175,"is_reserved":false,"is_disabled":false,"rental_uris":{"android":"levelo://app?vid=567eafd3-1f7c-4aac-bd78-d4bf2a21256b","ios":"levelo://app?vid=567eafd3-1f7c-4aac-bd78-d4bf2a21256b"},"vehicle_type_id":"4","last_reported":1683392693,"current_range_meters":21600,"station_id":"","pricing_plan_id":"free"},{"bike_id":"663f877c-0b2f-4baf-b43a-095e2b96aebd","system_id":"levelo_inurba_marseille","lat":43.302008,"lon":5.394694,"is_reserved":false,"is_disabled":false,"rental_uris":{"android":"levelo://app?vid=663f877c-0b2f-4baf-b43a-095e2b96aebd","ios":"levelo://app?vid=663f877c-0b2f-4baf-b43a-095e2b96aebd"},"vehicle_type_id":"4","last_reported":1683392693,"current_range_meters":18800,"station_id":"ce4bh0p2rcd13ifvqd70","pricing_plan_id":"free"},{"bike_id":"abe37f50-5a86-43de-8b9a-d088e7422918","system_id":"levelo_inurba_marseille","lat":43.302008,"lon":5.394694,"is_reserved":false,"is_disabled":false,"rental_uris":{"android":"levelo://app?vid=abe37f50-5a86-43de-8b9a-d088e7422918","ios":"levelo://app?vid=abe37f50-5a86-43de-8b9a-d088e7422918"},"vehicle_type_id":"4","last_reported":1683392693,"current_range_meters":18800,"station_id":"ce4bh0p2rcd13ifvqd70","pricing_plan_id":"free"},{"bike_id":"4c21aac1-df52-404c-873b-8c09a925e9b8","system_id":"levelo_inurba_marseille","lat":43.302008,"lon":5.394694,"is_reserved":false,"is_disabled":false,"rental_uris":{"android":"levelo://app?vid=4c21aac1-df52-404c-873b-8c09a925e9b8","ios":"levelo://app?vid=4c21aac1-df52-404c-873b-8c09a925e9b8"},"vehicle_type_id":"4","last_reported":1683392693,"current_range_meters":10000,"station_id":"ce4bh0p2rcd13ifvqd70","pricing_plan_id":"free"},{"bike_id":"c5c1d0a2-a9e0-4b07-94c9-3511a585b14e","system_id":"levelo_inurba_marseille","lat":43.302008,"lon":5.394694,"is_reserved":false,"is_disabled":false,"rental_uris":{"android":"levelo://app?vid=c5c1d0a2-a9e0-4b07-94c9-3511a585b14e","ios":"levelo://app?vid=c5c1d0a2-a9e0-4b07-94c9-3511a585b14e"},"vehicle_type_id":"4","last_reported":1683392693,"current_range_meters":10400,"station_id":"ce4bh0p2rcd13ifvqd70","pricing_plan_id":"free"},{"bike_id":"5257f770-d772-4a5f-9451-f99d2f797a64","system_id":"levelo_inurba_marseille","lat":43.302008,"lon":5.394694,"is_reserved":false,"is_disabled":false,"rental_uris":{"android":"levelo://app?vid=5257f770-d772-4a5f-9451-f99d2f797a64","ios":"levelo://app?vid=5257f770-d772-4a5f-9451-f99d2f797a64"},"vehicle_type_id":"4","last_reported":1683392693,"current_range_meters":17600,"station_id":"ce4bh0p2rcd13ifvqd70","pricing_plan_id":"free"},{"bike_id":"7c634491-4174-472d-bac6-5d1cb646adc2","system_id":"levelo_inurba_marseille","lat":43.290624,"lon":5.359245,"is_reserved":false,"is_disabled":false,"rental_uris":{"android":"levelo://app?vid=7c634491-4174-472d-bac6-5d1cb646adc2","ios":"levelo://app?vid=7c634491-4174-472d-bac6-5d1cb646adc2"},"vehicle_type_id":"4","last_reported":1683392693,"current_range_meters":800,"station_id":"ce4bha92rcd13ifvqeg0","pricing_plan_id":"free"},{"bike_id":"d60f46fc-ffce-4439-a8b1-1b44d9d9aa1c","system_id":"levelo_inurba_marseille","lat":43.290624,"lon":5.359245,"is_reserved":false,"is_disabled":false,"rental_uris":{"android":"levelo://app?vid=d60f46fc-ffce-4439-a8b1-1b44d9d9aa1c","ios":"levelo://app?vid=d60f46fc-ffce-4439-a8b1-1b44d9d9aa1c"},"vehicle_type_id":"4","last_reported":1683392693,"current_range_meters":16400,"station_id":"ce4bha92rcd13ifvqeg0","pricing_plan_id":"free"},{"bike_id":"54d33021-2e4b-458f-8075-22f34341b117","system_id":"levelo_inurba_marseille","lat":43.2904,"lon":5.35928,"is_reserved":false,"is_disabled":false,"rental_uris":{"android":"levelo://app?vid=54d33021-2e4b-458f-8075-22f34341b117","ios":"levelo://app?vid=54d33021-2e4b-458f-8075-22f34341b117"},"vehicle_type_id":"4","last_reported":1683392693,"current_range_meters":4400,"station_id":"","pricing_plan_id":"free"},{"bike_id":"a005a3ab-d0d0-41e3-a816-dd1f5b2bf658","system_id":"levelo_inurba_marseille","lat":43.290624,"lon":5.359245,"is_reserved":false,"is_disabled":false,"rental_uris":{"android":"levelo://app?vid=a005a3ab-d0d0-41e3-a816-dd1f5b2bf658","ios":"levelo://app?vid=a005a3ab-d0d0-41e3-a816-dd1f5b2bf658"},"vehicle_type_id":"4","last_reported":1683392693,"current_range_meters":17200,"station_id":"ce4bha92rcd13ifvqeg0","pricing_plan_id":"free"},{"bike_id":"01dccd2b-6b34-4313-8ba1-45832f421a05","system_id":"levelo_inurba_marseille","lat":43.290624,"lon":5.359245,"is_reserved":false,"is_disabled":false,"rental_uris":{"android":"levelo://app?vid=01dccd2b-6b34-4313-8ba1-45832f421a05","ios":"levelo://app?vid=01dccd2b-6b34-4313-8ba1-45832f421a05"},"vehicle_type_id":"4","last_reported":1683392693,"current_range_meters":6000,"station_id":"ce4bha92rcd13ifvqeg0","pricing_plan_id":"free"},{"bike_id":"1624d1f1-f391-4c78-847b-8021c1b39a45","system_id":"levelo_inurba_marseille","lat":43.294162,"lon":5.386292,"is_reserved":false,"is_disabled":false,"rental_uris":{"android":"levelo://app?vid=1624d1f1-f391-4c78-847b-8021c1b39a45","ios":"levelo://app?vid=1624d1f1-f391-4c78-847b-8021c1b39a45"},"vehicle_type_id":"4","last_reported":1683392693,"current_range_meters":7600,"station_id":"ce4bh2h2rcd13ifvqdh0","pricing_plan_id":"free"},{"bike_id":"4e098f5b-af0e-43a5-bcbe-cd6a14d91ba6","system_id":"levelo_inurba_marseille","lat":43.290319,"lon":5.375732,"is_reserved":false,"is_disabled":false,"rental_uris":{"android":"levelo://app?vid=4e098f5b-af0e-43a5-bcbe-cd6a14d91ba6","ios":"levelo://app?vid=4e098f5b-af0e-43a5-bcbe-cd6a14d91ba6"},"vehicle_type_id":"4","last_reported":1683392693,"current_range_meters":14000,"station_id":"ce4bh692rcd13ifvqe90","pricing_plan_id":"free"},{"bike_id":"1e7160dc-239b-4254-841e-174efed685a6","system_id":"levelo_inurba_marseille","lat":43.294153,"lon":5.386305,"is_reserved":false,"is_disabled":false,"rental_uris":{"android":"levelo://app?vid=1e7160dc-239b-4254-841e-174efed685a6","ios":"levelo://app?vid=1e7160dc-239b-4254-841e-174efed685a6"},"vehicle_type_id":"4","last_reported":1683392693,"current_range_meters":11200,"station_id":"ce4bh2h2rcd13ifvqdh0","pricing_plan_id":"free"},{"bike_id":"ddbb25ec-28da-49c9-abe5-5ffad5c6cf1c","system_id":"levelo_inurba_marseille","lat":43.289417,"lon":5.366323,"is_reserved":false,"is_disabled":false,"rental_uris":{"android":"levelo://app?vid=ddbb25ec-28da-49c9-abe5-5ffad5c6cf1c","ios":"levelo://app?vid=ddbb25ec-28da-49c9-abe5-5ffad5c6cf1c"},"vehicle_type_id":"4","last_reported":1683392693,"current_range_meters":12000,"station_id":"ce4bhap2rcd13ifvqek0","pricing_plan_id":"free"},{"bike_id":"9bf890cd-8509-4954-8c9d-854f21f70468","system_id":"levelo_inurba_marseille","lat":43.290319,"lon":5.375732,"is_reserved":false,"is_disabled":false,"rental_uris":{"android":"levelo://app?vid=9bf890cd-8509-4954-8c9d-854f21f70468","ios":"levelo://app?vid=9bf890cd-8509-4954-8c9d-854f21f70468"},"vehicle_type_id":"4","last_reported":1683392693,"current_range_meters":400,"station_id":"ce4bh692rcd13ifvqe90","pricing_plan_id":"free"},{"bike_id":"7cfd835b-73bb-4dea-b0b9-becb3c2f4e5a","system_id":"levelo_inurba_marseille","lat":43.289468,"lon":5.363719,"is_reserved":false,"is_disabled":false,"rental_uris":{"android":"levelo://app?vid=7cfd835b-73bb-4dea-b0b9-becb3c2f4e5a","ios":"levelo://app?vid=7cfd835b-73bb-4dea-b0b9-becb3c2f4e5a"},"vehicle_type_id":"4","last_reported":1683392693,"current_range_meters":14400,"station_id":"ce4bhc92rcd13ifvqetg","pricing_plan_id":"free"},{"bike_id":"6a97b11f-78e9-4d52-8fee-444777c2ad2d","system_id":"levelo_inurba_marseille","lat":43.289352,"lon":5.366479,"is_reserved":false,"is_disabled":false,"rental_uris":{"android":"levelo://app?vid=6a97b11f-78e9-4d52-8fee-444777c2ad2d","ios":"levelo://app?vid=6a97b11f-78e9-4d52-8fee-444777c2ad2d"},"vehicle_type_id":"4","last_reported":1683392693,"current_range_meters":22800,"station_id":"ce4bhap2rcd13ifvqek0","pricing_plan_id":"free"},{"bike_id":"2dbd5cf6-0ea0-4e2c-a3a6-afcd22665c0b","system_id":"levelo_inurba_marseille","lat":43.289352,"lon":5.366479,"is_reserved":false,"is_disabled":false,"rental_uris":{"android":"levelo://app?vid=2dbd5cf6-0ea0-4e2c-a3a6-afcd22665c0b","ios":"levelo://app?vid=2dbd5cf6-0ea0-4e2c-a3a6-afcd22665c0b"},"vehicle_type_id":"4","last_reported":1683392693,"current_range_meters":31200,"station_id":"ce4bhap2rcd13ifvqek0","pricing_plan_id":"free"},{"bike_id":"a949bbbc-cc67-4478-b137-4d8b504bf014","system_id":"levelo_inurba_marseille","lat":43.294162,"lon":5.386292,"is_reserved":false,"is_disabled":false,"rental_uris":{"android":"levelo://app?vid=a949bbbc-cc67-4478-b137-4d8b504bf014","ios":"levelo://app?vid=a949bbbc-cc67-4478-b137-4d8b504bf014"},"vehicle_type_id":"4","last_reported":1683392693,"current_range_meters":4400,"station_id":"ce4bh2h2rcd13ifvqdh0","pricing_plan_id":"free"},{"bike_id":"92246f0b-3541-4e7f-9a87-09af98a8dda0","system_id":"levelo_inurba_marseille","lat":43.28933,"lon":5.36642,"is_reserved":false,"is_disabled":false,"rental_uris":{"android":"levelo://app?vid=92246f0b-3541-4e7f-9a87-09af98a8dda0","ios":"levelo://app?vid=92246f0b-3541-4e7f-9a87-09af98a8dda0"},"vehicle_type_id":"4","last_reported":1683392693,"current_range_meters":16800,"station_id":"ce4bhap2rcd13ifvqek0","pricing_plan_id":"free"},{"bike_id":"f55d3dd9-48bf-4f08-a914-c59a0b449523","system_id":"levelo_inurba_marseille","lat":43.294162,"lon":5.386292,"is_reserved":false,"is_disabled":false,"rental_uris":{"android":"levelo://app?vid=f55d3dd9-48bf-4f08-a914-c59a0b449523","ios":"levelo://app?vid=f55d3dd9-48bf-4f08-a914-c59a0b449523"},"vehicle_type_id":"4","last_reported":1683392693,"current_range_meters":12800,"station_id":"ce4bh2h2rcd13ifvqdh0","pricing_plan_id":"free"},{"bike_id":"9df0ca31-9fe8-47f5-bb9c-3b5ddb34b792","system_id":"levelo_inurba_marseille","lat":43.289184,"lon":5.366408,"is_reserved":false,"is_disabled":false,"rental_uris":{"android":"levelo://app?vid=9df0ca31-9fe8-47f5-bb9c-3b5ddb34b792","ios":"levelo://app?vid=9df0ca31-9fe8-47f5-bb9c-3b5ddb34b792"},"vehicle_type_id":"4","last_reported":1683392693,"current_range_meters":1200,"station_id":"ce4bhap2rcd13ifvqek0","pricing_plan_id":"free"},{"bike_id":"75d68bfd-cf8d-4741-a739-96fafd5d3960","system_id":"levelo_inurba_marseille","lat":43.28931,"lon":5.36639,"is_reserved":false,"is_disabled":false,"rental_uris":{"android":"levelo://app?vid=75d68bfd-cf8d-4741-a739-96fafd5d3960","ios":"levelo://app?vid=75d68bfd-cf8d-4741-a739-96fafd5d3960"},"vehicle_type_id":"4","last_reported":1683392693,"current_range_meters":20000,"station_id":"ce4bhap2rcd13ifvqek0","pricing_plan_id":"free"},{"bike_id":"b984f9eb-d059-45fc-9d7c-c4e381cf2f8d","system_id":"levelo_inurba_marseille","lat":43.289184,"lon":5.366408,"is_reserved":false,"is_disabled":false,"rental_uris":{"android":"levelo://app?vid=b984f9eb-d059-45fc-9d7c-c4e381cf2f8d","ios":"levelo://app?vid=b984f9eb-d059-45fc-9d7c-c4e381cf2f8d"},"vehicle_type_id":"4","last_reported":1683392693,"current_range_meters":9200,"station_id":"ce4bhap2rcd13ifvqek0","pricing_plan_id":"free"},{"bike_id":"3b84991b-3e54-4cd1-8442-cf7f99ad583c","system_id":"levelo_inurba_marseille","lat":43.289468,"lon":5.363719,"is_reserved":false,"is_disabled":false,"rental_uris":{"android":"levelo://app?vid=3b84991b-3e54-4cd1-8442-cf7f99ad583c","ios":"levelo://app?vid=3b84991b-3e54-4cd1-8442-cf7f99ad583c"},"vehicle_type_id":"4","last_reported":1683392693,"current_range_meters":22000,"station_id":"ce4bhc92rcd13ifvqetg","pricing_plan_id":"free"},{"bike_id":"eba20a81-e057-45ac-84b7-5a5e387483aa","system_id":"levelo_inurba_marseille","lat":43.289184,"lon":5.366408,"is_reserved":false,"is_disabled":false,"rental_uris":{"android":"levelo://app?vid=eba20a81-e057-45ac-84b7-5a5e387483aa","ios":"levelo://app?vid=eba20a81-e057-45ac-84b7-5a5e387483aa"},"vehicle_type_id":"4","last_reported":1683392693,"current_range_meters":31200,"station_id":"ce4bhap2rcd13ifvqek0","pricing_plan_id":"free"},{"bike_id":"6d33557b-b9d6-4a42-80ab-24b1992c44fb","system_id":"levelo_inurba_marseille","lat":43.30495,"lon":5.39747,"is_reserved":false,"is_disabled":false,"rental_uris":{"android":"levelo://app?vid=6d33557b-b9d6-4a42-80ab-24b1992c44fb","ios":"levelo://app?vid=6d33557b-b9d6-4a42-80ab-24b1992c44fb"},"vehicle_type_id":"4","last_reported":1683392693,"current_range_meters":24400,"station_id":"","pricing_plan_id":"free"},{"bike_id":"50f41975-ab89-4ec7-9f00-c48eefe438bc","system_id":"levelo_inurba_marseille","lat":43.294153,"lon":5.386305,"is_reserved":false,"is_disabled":false,"rental_uris":{"android":"levelo://app?vid=50f41975-ab89-4ec7-9f00-c48eefe438bc","ios":"levelo://app?vid=50f41975-ab89-4ec7-9f00-c48eefe438bc"},"vehicle_type_id":"4","last_reported":1683392693,"current_range_meters":16400,"station_id":"ce4bh2h2rcd13ifvqdh0","pricing_plan_id":"free"},{"bike_id":"77bb361a-13b2-4552-9346-6a1b5f82a2c4","system_id":"levelo_inurba_marseille","lat":43.292642,"lon":5.384254,"is_reserved":false,"is_disabled":false,"rental_uris":{"android":"levelo://app?vid=77bb361a-13b2-4552-9346-6a1b5f82a2c4","ios":"levelo://app?vid=77bb361a-13b2-4552-9346-6a1b5f82a2c4"},"vehicle_type_id":"4","last_reported":1683392693,"current_range_meters":15200,"station_id":"ce4bh692rcd13ifvqea0","pricing_plan_id":"free"},{"bike_id":"37c69132-0df8-41a5-ab81-840035c82e19","system_id":"levelo_inurba_marseille","lat":43.292642,"lon":5.384254,"is_reserved":false,"is_disabled":false,"rental_uris":{"android":"levelo://app?vid=37c69132-0df8-41a5-ab81-840035c82e19","ios":"levelo://app?vid=37c69132-0df8-41a5-ab81-840035c82e19"},"vehicle_type_id":"4","last_reported":1683392693,"current_range_meters":20800,"station_id":"ce4bh692rcd13ifvqea0","pricing_plan_id":"free"},{"bike_id":"6d326649-2209-47cf-b9db-27e7b1c8ffc3","system_id":"levelo_inurba_marseille","lat":43.292642,"lon":5.384254,"is_reserved":false,"is_disabled":false,"rental_uris":{"android":"levelo://app?vid=6d326649-2209-47cf-b9db-27e7b1c8ffc3","ios":"levelo://app?vid=6d326649-2209-47cf-b9db-27e7b1c8ffc3"},"vehicle_type_id":"4","last_reported":1683392693,"current_range_meters":8800,"station_id":"ce4bh692rcd13ifvqea0","pricing_plan_id":"free"},{"bike_id":"9993b21d-b92b-455d-bc97-303e3372131d","system_id":"levelo_inurba_marseille","lat":43.33042,"lon":5.38915,"is_reserved":false,"is_disabled":false,"rental_uris":{"android":"levelo://app?vid=9993b21d-b92b-455d-bc97-303e3372131d","ios":"levelo://app?vid=9993b21d-b92b-455d-bc97-303e3372131d"},"vehicle_type_id":"4","last_reported":1683392693,"current_range_meters":26800,"station_id":"ce4bhr92rcd13ifvqhrg","pricing_plan_id":"free"},{"bike_id":"c7d204ce-6619-491c-8812-dc4b0a6a663b","system_id":"levelo_inurba_marseille","lat":43.33041,"lon":5.38917,"is_reserved":false,"is_disabled":false,"rental_uris":{"android":"levelo://app?vid=c7d204ce-6619-491c-8812-dc4b0a6a663b","ios":"levelo://app?vid=c7d204ce-6619-491c-8812-dc4b0a6a663b"},"vehicle_type_id":"4","last_reported":1683392693,"current_range_meters":28400,"station_id":"ce4bhr92rcd13ifvqhrg","pricing_plan_id":"free"},{"bike_id":"10a8eeb7-4f93-4e8d-81bd-f27d3d4ef515","system_id":"levelo_inurba_marseille","lat":43.33041,"lon":5.38918,"is_reserved":false,"is_disabled":false,"rental_uris":{"android":"levelo://app?vid=10a8eeb7-4f93-4e8d-81bd-f27d3d4ef515","ios":"levelo://app?vid=10a8eeb7-4f93-4e8d-81bd-f27d3d4ef515"},"vehicle_type_id":"4","last_reported":1683392693,"current_range_meters":25600,"station_id":"ce4bhr92rcd13ifvqhrg","pricing_plan_id":"free"},{"bike_id":"4da2ea4c-0587-4161-8586-452f9bca890c","system_id":"levelo_inurba_marseille","lat":43.33045,"lon":5.38912,"is_reserved":false,"is_disabled":false,"rental_uris":{"android":"levelo://app?vid=4da2ea4c-0587-4161-8586-452f9bca890c","ios":"levelo://app?vid=4da2ea4c-0587-4161-8586-452f9bca890c"},"vehicle_type_id":"4","last_reported":1683392693,"current_range_meters":19200,"station_id":"ce4bhr92rcd13ifvqhrg","pricing_plan_id":"free"},{"bike_id":"d6233f8b-531d-433b-b8e9-589e3920c098","system_id":"levelo_inurba_marseille","lat":43.33044,"lon":5.38915,"is_reserved":false,"is_disabled":false,"rental_uris":{"android":"levelo://app?vid=d6233f8b-531d-433b-b8e9-589e3920c098","ios":"levelo://app?vid=d6233f8b-531d-433b-b8e9-589e3920c098"},"vehicle_type_id":"4","last_reported":1683392693,"current_range_meters":21200,"station_id":"ce4bhr92rcd13ifvqhrg","pricing_plan_id":"free"},{"bike_id":"da86836b-d020-456b-ad95-a73c452d8db8","system_id":"levelo_inurba_marseille","lat":43.33041,"lon":5.3892,"is_reserved":false,"is_disabled":false,"rental_uris":{"android":"levelo://app?vid=da86836b-d020-456b-ad95-a73c452d8db8","ios":"levelo://app?vid=da86836b-d020-456b-ad95-a73c452d8db8"},"vehicle_type_id":"4","last_reported":1683392693,"current_range_meters":24400,"station_id":"ce4bhr92rcd13ifvqhrg","pricing_plan_id":"free"},{"bike_id":"496fc879-c6a2-4335-9eab-2fdd6a6f8bf1","system_id":"levelo_inurba_marseille","lat":43.33042,"lon":5.38921,"is_reserved":false,"is_disabled":false,"rental_uris":{"android":"levelo://app?vid=496fc879-c6a2-4335-9eab-2fdd6a6f8bf1","ios":"levelo://app?vid=496fc879-c6a2-4335-9eab-2fdd6a6f8bf1"},"vehicle_type_id":"4","last_reported":1683392693,"current_range_meters":16000,"station_id":"ce4bhr92rcd13ifvqhrg","pricing_plan_id":"free"},{"bike_id":"f830b6a5-79ce-4c14-bc5b-cbf7844d7d45","system_id":"levelo_inurba_marseille","lat":43.29008,"lon":5.35611,"is_reserved":false,"is_disabled":false,"rental_uris":{"android":"levelo://app?vid=f830b6a5-79ce-4c14-bc5b-cbf7844d7d45","ios":"levelo://app?vid=f830b6a5-79ce-4c14-bc5b-cbf7844d7d45"},"vehicle_type_id":"4","last_reported":1683392693,"current_range_meters":0,"station_id":"ce4bhb92rcd13ifvqen0","pricing_plan_id":"free"},{"bike_id":"d364d2ad-2c66-4587-a79b-ee0314a1a93f","system_id":"levelo_inurba_marseille","lat":43.33043,"lon":5.3892,"is_reserved":false,"is_disabled":false,"rental_uris":{"android":"levelo://app?vid=d364d2ad-2c66-4587-a79b-ee0314a1a93f","ios":"levelo://app?vid=d364d2ad-2c66-4587-a79b-ee0314a1a93f"},"vehicle_type_id":"4","last_reported":1683392693,"current_range_meters":16800,"station_id":"ce4bhr92rcd13ifvqhrg","pricing_plan_id":"free"},{"bike_id":"c6d8bc85-5d48-4175-a0b2-78b2152265a7","system_id":"levelo_inurba_marseille","lat":43.33044,"lon":5.3892,"is_reserved":false,"is_disabled":false,"rental_uris":{"android":"levelo://app?vid=c6d8bc85-5d48-4175-a0b2-78b2152265a7","ios":"levelo://app?vid=c6d8bc85-5d48-4175-a0b2-78b2152265a7"},"vehicle_type_id":"4","last_reported":1683392693,"current_range_meters":3600,"station_id":"ce4bhr92rcd13ifvqhrg","pricing_plan_id":"free"},{"bike_id":"fe8d863b-eaf3-4fac-9bf6-10fdde4a5bf4","system_id":"levelo_inurba_marseille","lat":43.33044,"lon":5.38921,"is_reserved":false,"is_disabled":false,"rental_uris":{"android":"levelo://app?vid=fe8d863b-eaf3-4fac-9bf6-10fdde4a5bf4","ios":"levelo://app?vid=fe8d863b-eaf3-4fac-9bf6-10fdde4a5bf4"},"vehicle_type_id":"4","last_reported":1683392693,"current_range_meters":0,"station_id":"ce4bhr92rcd13ifvqhrg","pricing_plan_id":"free"},{"bike_id":"8cd5e1e4-e937-439c-bf8a-43fbaac45a10","system_id":"levelo_inurba_marseille","lat":43.33046,"lon":5.38918,"is_reserved":false,"is_disabled":false,"rental_uris":{"android":"levelo://app?vid=8cd5e1e4-e937-439c-bf8a-43fbaac45a10","ios":"levelo://app?vid=8cd5e1e4-e937-439c-bf8a-43fbaac45a10"},"vehicle_type_id":"4","last_reported":1683392693,"current_range_meters":22800,"station_id":"ce4bhr92rcd13ifvqhrg","pricing_plan_id":"free"},{"bike_id":"2a4c9986-79e6-473a-9088-a22214a8de69","system_id":"levelo_inurba_marseille","lat":43.33046,"lon":5.38918,"is_reserved":false,"is_disabled":false,"rental_uris":{"android":"levelo://app?vid=2a4c9986-79e6-473a-9088-a22214a8de69","ios":"levelo://app?vid=2a4c9986-79e6-473a-9088-a22214a8de69"},"vehicle_type_id":"4","last_reported":1683392693,"current_range_meters":15600,"station_id":"ce4bhr92rcd13ifvqhrg","pricing_plan_id":"free"},{"bike_id":"276fe03b-4431-4a2c-b1e5-88809bc1c6ad","system_id":"levelo_inurba_marseille","lat":43.33045,"lon":5.38921,"is_reserved":false,"is_disabled":false,"rental_uris":{"android":"levelo://app?vid=276fe03b-4431-4a2c-b1e5-88809bc1c6ad","ios":"levelo://app?vid=276fe03b-4431-4a2c-b1e5-88809bc1c6ad"},"vehicle_type_id":"4","last_reported":1683392693,"current_range_meters":9600,"station_id":"ce4bhr92rcd13ifvqhrg","pricing_plan_id":"free"},{"bike_id":"03766e9c-191c-4aae-a868-6837431efc33","system_id":"levelo_inurba_marseille","lat":43.295169,"lon":5.390426,"is_reserved":false,"is_disabled":false,"rental_uris":{"android":"levelo://app?vid=03766e9c-191c-4aae-a868-6837431efc33","ios":"levelo://app?vid=03766e9c-191c-4aae-a868-6837431efc33"},"vehicle_type_id":"4","last_reported":1683392693,"current_range_meters":16000,"station_id":"ce4bh3p2rcd13ifvqdp0","pricing_plan_id":"free"},{"bike_id":"90f80e0a-97e3-4dac-a214-28330ae97bbd","system_id":"levelo_inurba_marseille","lat":43.295169,"lon":5.390426,"is_reserved":false,"is_disabled":false,"rental_uris":{"android":"levelo://app?vid=90f80e0a-97e3-4dac-a214-28330ae97bbd","ios":"levelo://app?vid=90f80e0a-97e3-4dac-a214-28330ae97bbd"},"vehicle_type_id":"4","last_reported":1683392693,"current_range_meters":22000,"station_id":"ce4bh3p2rcd13ifvqdp0","pricing_plan_id":"free"},{"bike_id":"5a6e8041-f38b-4f11-b9a0-b320f412a9ee","system_id":"levelo_inurba_marseille","lat":43.295169,"lon":5.390426,"is_reserved":false,"is_disabled":false,"rental_uris":{"android":"levelo://app?vid=5a6e8041-f38b-4f11-b9a0-b320f412a9ee","ios":"levelo://app?vid=5a6e8041-f38b-4f11-b9a0-b320f412a9ee"},"vehicle_type_id":"4","last_reported":1683392693,"current_range_meters":2000,"station_id":"ce4bh3p2rcd13ifvqdp0","pricing_plan_id":"free"},{"bike_id":"d1338cde-b3d1-46b1-8800-7a50c92c327c","system_id":"levelo_inurba_marseille","lat":43.3375,"lon":5.3743,"is_reserved":false,"is_disabled":false,"rental_uris":{"android":"levelo://app?vid=d1338cde-b3d1-46b1-8800-7a50c92c327c","ios":"levelo://app?vid=d1338cde-b3d1-46b1-8800-7a50c92c327c"},"vehicle_type_id":"4","last_reported":1683392693,"current_range_meters":26800,"station_id":"","pricing_plan_id":"free"},{"bike_id":"34320fce-24bb-4291-be42-2c361aed67f0","system_id":"levelo_inurba_marseille","lat":43.33749,"lon":5.37444,"is_reserved":false,"is_disabled":false,"rental_uris":{"android":"levelo://app?vid=34320fce-24bb-4291-be42-2c361aed67f0","ios":"levelo://app?vid=34320fce-24bb-4291-be42-2c361aed67f0"},"vehicle_type_id":"4","last_reported":1683392693,"current_range_meters":23200,"station_id":"","pricing_plan_id":"free"},{"bike_id":"cc5900b6-b927-49fc-82db-4d13a3d02316","system_id":"levelo_inurba_marseille","lat":43.33752,"lon":5.37486,"is_reserved":false,"is_disabled":false,"rental_uris":{"android":"levelo://app?vid=cc5900b6-b927-49fc-82db-4d13a3d02316","ios":"levelo://app?vid=cc5900b6-b927-49fc-82db-4d13a3d02316"},"vehicle_type_id":"4","last_reported":1683392693,"current_range_meters":25600,"station_id":"","pricing_plan_id":"free"},{"bike_id":"ab7b8dc5-9722-47e7-8a78-100d1a674f6d","system_id":"levelo_inurba_marseille","lat":43.33755,"lon":5.3747,"is_reserved":false,"is_disabled":false,"rental_uris":{"android":"levelo://app?vid=ab7b8dc5-9722-47e7-8a78-100d1a674f6d","ios":"levelo://app?vid=ab7b8dc5-9722-47e7-8a78-100d1a674f6d"},"vehicle_type_id":"4","last_reported":1683392693,"current_range_meters":6000,"station_id":"","pricing_plan_id":"free"},{"bike_id":"a5fee152-9ef6-406e-a7ae-6d87801ace08","system_id":"levelo_inurba_marseille","lat":43.30642,"lon":5.401031,"is_reserved":false,"is_disabled":false,"rental_uris":{"android":"levelo://app?vid=a5fee152-9ef6-406e-a7ae-6d87801ace08","ios":"levelo://app?vid=a5fee152-9ef6-406e-a7ae-6d87801ace08"},"vehicle_type_id":"4","last_reported":1683392693,"current_range_meters":0,"station_id":"ce4bh112rcd13ifvqda0","pricing_plan_id":"free"},{"bike_id":"20083ae5-f09f-4d10-9758-3cdd331d6a45","system_id":"levelo_inurba_marseille","lat":43.33762,"lon":5.37467,"is_reserved":false,"is_disabled":false,"rental_uris":{"android":"levelo://app?vid=20083ae5-f09f-4d10-9758-3cdd331d6a45","ios":"levelo://app?vid=20083ae5-f09f-4d10-9758-3cdd331d6a45"},"vehicle_type_id":"4","last_reported":1683392693,"current_range_meters":15200,"station_id":"","pricing_plan_id":"free"},{"bike_id":"db84b57a-c242-4d31-93f3-e9f12005c4b3","system_id":"levelo_inurba_marseille","lat":43.33762,"lon":5.37494,"is_reserved":false,"is_disabled":false,"rental_uris":{"android":"levelo://app?vid=db84b57a-c242-4d31-93f3-e9f12005c4b3","ios":"levelo://app?vid=db84b57a-c242-4d31-93f3-e9f12005c4b3"},"vehicle_type_id":"4","last_reported":1683392693,"current_range_meters":26400,"station_id":"","pricing_plan_id":"free"},{"bike_id":"e35ff35d-ed29-4889-a92b-23e997cab3e5","system_id":"levelo_inurba_marseille","lat":43.30642,"lon":5.401031,"is_reserved":false,"is_disabled":false,"rental_uris":{"android":"levelo://app?vid=e35ff35d-ed29-4889-a92b-23e997cab3e5","ios":"levelo://app?vid=e35ff35d-ed29-4889-a92b-23e997cab3e5"},"vehicle_type_id":"4","last_reported":1683392693,"current_range_meters":8000,"station_id":"ce4bh112rcd13ifvqda0","pricing_plan_id":"free"},{"bike_id":"c452a78d-8a25-4dac-a034-b406e8dd2a51","system_id":"levelo_inurba_marseille","lat":43.28768,"lon":5.35893,"is_reserved":false,"is_disabled":false,"rental_uris":{"android":"levelo://app?vid=c452a78d-8a25-4dac-a034-b406e8dd2a51","ios":"levelo://app?vid=c452a78d-8a25-4dac-a034-b406e8dd2a51"},"vehicle_type_id":"4","last_reported":1683392693,"current_range_meters":4400,"station_id":"","pricing_plan_id":"free"},{"bike_id":"50f7112f-fdcd-4b7d-b262-1951b54b57f7","system_id":"levelo_inurba_marseille","lat":43.286593,"lon":5.363346,"is_reserved":false,"is_disabled":false,"rental_uris":{"android":"levelo://app?vid=50f7112f-fdcd-4b7d-b262-1951b54b57f7","ios":"levelo://app?vid=50f7112f-fdcd-4b7d-b262-1951b54b57f7"},"vehicle_type_id":"4","last_reported":1683392693,"current_range_meters":8000,"station_id":"ce4bhah2rcd13ifvqej0","pricing_plan_id":"free"},{"bike_id":"34a2d67a-58d6-4c40-bc54-f748b1f73176","system_id":"levelo_inurba_marseille","lat":43.298681,"lon":5.397225,"is_reserved":false,"is_disabled":false,"rental_uris":{"android":"levelo://app?vid=34a2d67a-58d6-4c40-bc54-f748b1f73176","ios":"levelo://app?vid=34a2d67a-58d6-4c40-bc54-f748b1f73176"},"vehicle_type_id":"4","last_reported":1683392693,"current_range_meters":18400,"station_id":"ce4bh0h2rcd13ifvqd50","pricing_plan_id":"free"},{"bike_id":"bdb60ac3-059c-4e18-9fdd-2b3a65b9e957","system_id":"levelo_inurba_marseille","lat":43.298681,"lon":5.397225,"is_reserved":false,"is_disabled":false,"rental_uris":{"android":"levelo://app?vid=bdb60ac3-059c-4e18-9fdd-2b3a65b9e957","ios":"levelo://app?vid=bdb60ac3-059c-4e18-9fdd-2b3a65b9e957"},"vehicle_type_id":"4","last_reported":1683392693,"current_range_meters":26400,"station_id":"ce4bh0h2rcd13ifvqd50","pricing_plan_id":"free"},{"bike_id":"2195a4ec-341b-4190-8efe-b07f9a6d9731","system_id":"levelo_inurba_marseille","lat":43.298681,"lon":5.397225,"is_reserved":false,"is_disabled":false,"rental_uris":{"android":"levelo://app?vid=2195a4ec-341b-4190-8efe-b07f9a6d9731","ios":"levelo://app?vid=2195a4ec-341b-4190-8efe-b07f9a6d9731"},"vehicle_type_id":"4","last_reported":1683392693,"current_range_meters":18000,"station_id":"ce4bh0h2rcd13ifvqd50","pricing_plan_id":"free"},{"bike_id":"8ac13413-7571-4625-beb5-0370ab7ba4e4","system_id":"levelo_inurba_marseille","lat":43.298681,"lon":5.397225,"is_reserved":false,"is_disabled":false,"rental_uris":{"android":"levelo://app?vid=8ac13413-7571-4625-beb5-0370ab7ba4e4","ios":"levelo://app?vid=8ac13413-7571-4625-beb5-0370ab7ba4e4"},"vehicle_type_id":"4","last_reported":1683392693,"current_range_meters":19200,"station_id":"ce4bh0h2rcd13ifvqd50","pricing_plan_id":"free"},{"bike_id":"c1243141-6506-4de0-8548-a1398b6b710a","system_id":"levelo_inurba_marseille","lat":43.298681,"lon":5.397225,"is_reserved":false,"is_disabled":false,"rental_uris":{"android":"levelo://app?vid=c1243141-6506-4de0-8548-a1398b6b710a","ios":"levelo://app?vid=c1243141-6506-4de0-8548-a1398b6b710a"},"vehicle_type_id":"4","last_reported":1683392693,"current_range_meters":12400,"station_id":"ce4bh0h2rcd13ifvqd50","pricing_plan_id":"free"},{"bike_id":"52fef0c5-4fac-4f8c-a71b-8a77ffb45c20","system_id":"levelo_inurba_marseille","lat":43.28649,"lon":5.3699,"is_reserved":false,"is_disabled":false,"rental_uris":{"android":"levelo://app?vid=52fef0c5-4fac-4f8c-a71b-8a77ffb45c20","ios":"levelo://app?vid=52fef0c5-4fac-4f8c-a71b-8a77ffb45c20"},"vehicle_type_id":"4","last_reported":1683392693,"current_range_meters":800,"station_id":"","pricing_plan_id":"free"},{"bike_id":"4d998482-866a-4698-a96c-6394b8cbf81b","system_id":"levelo_inurba_marseille","lat":43.295196,"lon":5.39397,"is_reserved":false,"is_disabled":false,"rental_uris":{"android":"levelo://app?vid=4d998482-866a-4698-a96c-6394b8cbf81b","ios":"levelo://app?vid=4d998482-866a-4698-a96c-6394b8cbf81b"},"vehicle_type_id":"4","last_reported":1683392693,"current_range_meters":20400,"station_id":"ce4bh292rcd13ifvqdf0","pricing_plan_id":"free"},{"bike_id":"20e2e5b2-c868-41b3-81c6-0e447ba5307d","system_id":"levelo_inurba_marseille","lat":43.295194,"lon":5.39397,"is_reserved":false,"is_disabled":false,"rental_uris":{"android":"levelo://app?vid=20e2e5b2-c868-41b3-81c6-0e447ba5307d","ios":"levelo://app?vid=20e2e5b2-c868-41b3-81c6-0e447ba5307d"},"vehicle_type_id":"4","last_reported":1683392693,"current_range_meters":13200,"station_id":"ce4bh292rcd13ifvqdf0","pricing_plan_id":"free"},{"bike_id":"bae78dc3-85ba-4168-a583-43490db6d1dd","system_id":"levelo_inurba_marseille","lat":43.295196,"lon":5.39397,"is_reserved":false,"is_disabled":false,"rental_uris":{"android":"levelo://app?vid=bae78dc3-85ba-4168-a583-43490db6d1dd","ios":"levelo://app?vid=bae78dc3-85ba-4168-a583-43490db6d1dd"},"vehicle_type_id":"4","last_reported":1683392693,"current_range_meters":17600,"station_id":"ce4bh292rcd13ifvqdf0","pricing_plan_id":"free"},{"bike_id":"a9d0699d-3092-4f16-89c5-52dc5960b210","system_id":"levelo_inurba_marseille","lat":43.295196,"lon":5.39397,"is_reserved":false,"is_disabled":false,"rental_uris":{"android":"levelo://app?vid=a9d0699d-3092-4f16-89c5-52dc5960b210","ios":"levelo://app?vid=a9d0699d-3092-4f16-89c5-52dc5960b210"},"vehicle_type_id":"4","last_reported":1683392693,"current_range_meters":22800,"station_id":"ce4bh292rcd13ifvqdf0","pricing_plan_id":"free"},{"bike_id":"9f6865a4-f5d7-432a-a342-12a2faa3d646","system_id":"levelo_inurba_marseille","lat":43.295194,"lon":5.39397,"is_reserved":false,"is_disabled":false,"rental_uris":{"android":"levelo://app?vid=9f6865a4-f5d7-432a-a342-12a2faa3d646","ios":"levelo://app?vid=9f6865a4-f5d7-432a-a342-12a2faa3d646"},"vehicle_type_id":"4","last_reported":1683392693,"current_range_meters":20000,"station_id":"ce4bh292rcd13ifvqdf0","pricing_plan_id":"free"},{"bike_id":"c55c77c9-bf1d-4c1d-a713-aa15c4070e9f","system_id":"levelo_inurba_marseille","lat":43.295194,"lon":5.39397,"is_reserved":false,"is_disabled":false,"rental_uris":{"android":"levelo://app?vid=c55c77c9-bf1d-4c1d-a713-aa15c4070e9f","ios":"levelo://app?vid=c55c77c9-bf1d-4c1d-a713-aa15c4070e9f"},"vehicle_type_id":"4","last_reported":1683392693,"current_range_meters":2800,"station_id":"ce4bh292rcd13ifvqdf0","pricing_plan_id":"free"},{"bike_id":"f1ad73cf-896c-4a80-9d54-a810f50ae163","system_id":"levelo_inurba_marseille","lat":43.295196,"lon":5.39397,"is_reserved":false,"is_disabled":false,"rental_uris":{"android":"levelo://app?vid=f1ad73cf-896c-4a80-9d54-a810f50ae163","ios":"levelo://app?vid=f1ad73cf-896c-4a80-9d54-a810f50ae163"},"vehicle_type_id":"4","last_reported":1683392693,"current_range_meters":0,"station_id":"ce4bh292rcd13ifvqdf0","pricing_plan_id":"free"},{"bike_id":"75c0ce26-ba12-4453-a595-4a49c460b213","system_id":"levelo_inurba_marseille","lat":43.29034,"lon":5.3865,"is_reserved":false,"is_disabled":false,"rental_uris":{"android":"levelo://app?vid=75c0ce26-ba12-4453-a595-4a49c460b213","ios":"levelo://app?vid=75c0ce26-ba12-4453-a595-4a49c460b213"},"vehicle_type_id":"4","last_reported":1683392693,"current_range_meters":15200,"station_id":"ce4bh4p2rcd13ifvqe0g","pricing_plan_id":"free"},{"bike_id":"a951bdd1-0f8c-42d3-b722-d9a5b51b7253","system_id":"levelo_inurba_marseille","lat":43.29027,"lon":5.38646,"is_reserved":false,"is_disabled":false,"rental_uris":{"android":"levelo://app?vid=a951bdd1-0f8c-42d3-b722-d9a5b51b7253","ios":"levelo://app?vid=a951bdd1-0f8c-42d3-b722-d9a5b51b7253"},"vehicle_type_id":"4","last_reported":1683392693,"current_range_meters":12800,"station_id":"ce4bh4p2rcd13ifvqe0g","pricing_plan_id":"free"},{"bike_id":"93350c45-b50a-45bc-bda8-a381773e30c1","system_id":"levelo_inurba_marseille","lat":43.30773,"lon":5.40285,"is_reserved":false,"is_disabled":false,"rental_uris":{"android":"levelo://app?vid=93350c45-b50a-45bc-bda8-a381773e30c1","ios":"levelo://app?vid=93350c45-b50a-45bc-bda8-a381773e30c1"},"vehicle_type_id":"4","last_reported":1683392693,"current_range_meters":16400,"station_id":"","pricing_plan_id":"free"},{"bike_id":"82fdc490-a2a2-4d70-aae5-0dead435abb8","system_id":"levelo_inurba_marseille","lat":43.302759,"lon":5.400793,"is_reserved":false,"is_disabled":false,"rental_uris":{"android":"levelo://app?vid=82fdc490-a2a2-4d70-aae5-0dead435abb8","ios":"levelo://app?vid=82fdc490-a2a2-4d70-aae5-0dead435abb8"},"vehicle_type_id":"4","last_reported":1683392693,"current_range_meters":12000,"station_id":"ce4bgvh2rcd13ifvqcs0","pricing_plan_id":"free"},{"bike_id":"773a64d3-a20f-4142-80c6-6c25f29d0c8c","system_id":"levelo_inurba_marseille","lat":43.29022,"lon":5.38645,"is_reserved":false,"is_disabled":false,"rental_uris":{"android":"levelo://app?vid=773a64d3-a20f-4142-80c6-6c25f29d0c8c","ios":"levelo://app?vid=773a64d3-a20f-4142-80c6-6c25f29d0c8c"},"vehicle_type_id":"4","last_reported":1683392693,"current_range_meters":6000,"station_id":"ce4bh4p2rcd13ifvqe0g","pricing_plan_id":"free"},{"bike_id":"67302e52-9967-42f9-9b5a-17ed58b779c4","system_id":"levelo_inurba_marseille","lat":43.2862,"lon":5.37066,"is_reserved":false,"is_disabled":false,"rental_uris":{"android":"levelo://app?vid=67302e52-9967-42f9-9b5a-17ed58b779c4","ios":"levelo://app?vid=67302e52-9967-42f9-9b5a-17ed58b779c4"},"vehicle_type_id":"4","last_reported":1683392693,"current_range_meters":31200,"station_id":"ce4bht12rcd13ifvqi60","pricing_plan_id":"free"},{"bike_id":"26e36541-6eed-4dc2-82ef-b7ee4531ba9d","system_id":"levelo_inurba_marseille","lat":43.286039,"lon":5.370681,"is_reserved":false,"is_disabled":false,"rental_uris":{"android":"levelo://app?vid=26e36541-6eed-4dc2-82ef-b7ee4531ba9d","ios":"levelo://app?vid=26e36541-6eed-4dc2-82ef-b7ee4531ba9d"},"vehicle_type_id":"4","last_reported":1683392693,"current_range_meters":5200,"station_id":"ce4bht12rcd13ifvqi60","pricing_plan_id":"free"},{"bike_id":"af2e84b5-9d04-4b8d-be8d-2ed7b0f9aeb7","system_id":"levelo_inurba_marseille","lat":43.287184,"lon":5.37937,"is_reserved":false,"is_disabled":false,"rental_uris":{"android":"levelo://app?vid=af2e84b5-9d04-4b8d-be8d-2ed7b0f9aeb7","ios":"levelo://app?vid=af2e84b5-9d04-4b8d-be8d-2ed7b0f9aeb7"},"vehicle_type_id":"4","last_reported":1683392693,"current_range_meters":12400,"station_id":"ce4bh9p2rcd13ifvqec0","pricing_plan_id":"free"},{"bike_id":"4dc1f07a-33cd-4e35-879f-88920634ea87","system_id":"levelo_inurba_marseille","lat":43.287185,"lon":5.379373,"is_reserved":false,"is_disabled":false,"rental_uris":{"android":"levelo://app?vid=4dc1f07a-33cd-4e35-879f-88920634ea87","ios":"levelo://app?vid=4dc1f07a-33cd-4e35-879f-88920634ea87"},"vehicle_type_id":"4","last_reported":1683392693,"current_range_meters":0,"station_id":"ce4bh9p2rcd13ifvqec0","pricing_plan_id":"free"},{"bike_id":"e9eb100b-225f-4717-9220-2705e9b31eb3","system_id":"levelo_inurba_marseille","lat":43.316517,"lon":5.404375,"is_reserved":false,"is_disabled":false,"rental_uris":{"android":"levelo://app?vid=e9eb100b-225f-4717-9220-2705e9b31eb3","ios":"levelo://app?vid=e9eb100b-225f-4717-9220-2705e9b31eb3"},"vehicle_type_id":"4","last_reported":1683392693,"current_range_meters":22000,"station_id":"ce4bh012rcd13ifvqd00","pricing_plan_id":"free"},{"bike_id":"23268265-84ce-4c5d-8208-62318557c449","system_id":"levelo_inurba_marseille","lat":43.316517,"lon":5.404375,"is_reserved":false,"is_disabled":false,"rental_uris":{"android":"levelo://app?vid=23268265-84ce-4c5d-8208-62318557c449","ios":"levelo://app?vid=23268265-84ce-4c5d-8208-62318557c449"},"vehicle_type_id":"4","last_reported":1683392693,"current_range_meters":28800,"station_id":"ce4bh012rcd13ifvqd00","pricing_plan_id":"free"},{"bike_id":"27865f6e-c046-4416-9233-48156b6bae2c","system_id":"levelo_inurba_marseille","lat":43.33479,"lon":5.39,"is_reserved":false,"is_disabled":false,"rental_uris":{"android":"levelo://app?vid=27865f6e-c046-4416-9233-48156b6bae2c","ios":"levelo://app?vid=27865f6e-c046-4416-9233-48156b6bae2c"},"vehicle_type_id":"4","last_reported":1683392693,"current_range_meters":26800,"station_id":"","pricing_plan_id":"free"},{"bike_id":"c97b5151-9ea0-4c9a-a7ad-8938b8455bea","system_id":"levelo_inurba_marseille","lat":43.291994,"lon":5.392907,"is_reserved":false,"is_disabled":false,"rental_uris":{"android":"levelo://app?vid=c97b5151-9ea0-4c9a-a7ad-8938b8455bea","ios":"levelo://app?vid=c97b5151-9ea0-4c9a-a7ad-8938b8455bea"},"vehicle_type_id":"4","last_reported":1683392693,"current_range_meters":19600,"station_id":"ce4bh192rcd13ifvqdd0","pricing_plan_id":"free"},{"bike_id":"77b9df57-305e-4f94-b590-40990f5bbc10","system_id":"levelo_inurba_marseille","lat":43.291994,"lon":5.392907,"is_reserved":false,"is_disabled":false,"rental_uris":{"android":"levelo://app?vid=77b9df57-305e-4f94-b590-40990f5bbc10","ios":"levelo://app?vid=77b9df57-305e-4f94-b590-40990f5bbc10"},"vehicle_type_id":"4","last_reported":1683392693,"current_range_meters":24000,"station_id":"ce4bh192rcd13ifvqdd0","pricing_plan_id":"free"},{"bike_id":"3991ce2d-49b3-4ae2-be5e-5340bd2d3488","system_id":"levelo_inurba_marseille","lat":43.291994,"lon":5.392907,"is_reserved":false,"is_disabled":false,"rental_uris":{"android":"levelo://app?vid=3991ce2d-49b3-4ae2-be5e-5340bd2d3488","ios":"levelo://app?vid=3991ce2d-49b3-4ae2-be5e-5340bd2d3488"},"vehicle_type_id":"4","last_reported":1683392693,"current_range_meters":22800,"station_id":"ce4bh192rcd13ifvqdd0","pricing_plan_id":"free"},{"bike_id":"2007a419-1d23-4c17-9722-e617fb373847","system_id":"levelo_inurba_marseille","lat":43.291994,"lon":5.392907,"is_reserved":false,"is_disabled":false,"rental_uris":{"android":"levelo://app?vid=2007a419-1d23-4c17-9722-e617fb373847","ios":"levelo://app?vid=2007a419-1d23-4c17-9722-e617fb373847"},"vehicle_type_id":"4","last_reported":1683392693,"current_range_meters":21600,"station_id":"ce4bh192rcd13ifvqdd0","pricing_plan_id":"free"},{"bike_id":"73ac1b6e-0e73-410f-99d6-8cfe9461fecd","system_id":"levelo_inurba_marseille","lat":43.291994,"lon":5.392907,"is_reserved":false,"is_disabled":false,"rental_uris":{"android":"levelo://app?vid=73ac1b6e-0e73-410f-99d6-8cfe9461fecd","ios":"levelo://app?vid=73ac1b6e-0e73-410f-99d6-8cfe9461fecd"},"vehicle_type_id":"4","last_reported":1683392693,"current_range_meters":12800,"station_id":"ce4bh192rcd13ifvqdd0","pricing_plan_id":"free"},{"bike_id":"964eb5bb-4a64-4838-b1a1-e3c8ab0358e0","system_id":"levelo_inurba_marseille","lat":43.291994,"lon":5.392907,"is_reserved":false,"is_disabled":false,"rental_uris":{"android":"levelo://app?vid=964eb5bb-4a64-4838-b1a1-e3c8ab0358e0","ios":"levelo://app?vid=964eb5bb-4a64-4838-b1a1-e3c8ab0358e0"},"vehicle_type_id":"4","last_reported":1683392693,"current_range_meters":30400,"station_id":"ce4bh192rcd13ifvqdd0","pricing_plan_id":"free"},{"bike_id":"82c88172-b999-43d0-9e41-a0d241fcc8a0","system_id":"levelo_inurba_marseille","lat":43.2846,"lon":5.35888,"is_reserved":false,"is_disabled":false,"rental_uris":{"android":"levelo://app?vid=82c88172-b999-43d0-9e41-a0d241fcc8a0","ios":"levelo://app?vid=82c88172-b999-43d0-9e41-a0d241fcc8a0"},"vehicle_type_id":"4","last_reported":1683392693,"current_range_meters":18000,"station_id":"ce4bhah2rcd13ifvqei0","pricing_plan_id":"free"},{"bike_id":"defe3310-22ac-4458-bc23-657a2b729780","system_id":"levelo_inurba_marseille","lat":43.284534,"lon":5.358662,"is_reserved":false,"is_disabled":false,"rental_uris":{"android":"levelo://app?vid=defe3310-22ac-4458-bc23-657a2b729780","ios":"levelo://app?vid=defe3310-22ac-4458-bc23-657a2b729780"},"vehicle_type_id":"4","last_reported":1683392693,"current_range_meters":25600,"station_id":"ce4bhah2rcd13ifvqei0","pricing_plan_id":"free"},{"bike_id":"4b7ef08e-6541-4aac-a60d-531f7f0a0b17","system_id":"levelo_inurba_marseille","lat":43.28459,"lon":5.3589,"is_reserved":false,"is_disabled":false,"rental_uris":{"android":"levelo://app?vid=4b7ef08e-6541-4aac-a60d-531f7f0a0b17","ios":"levelo://app?vid=4b7ef08e-6541-4aac-a60d-531f7f0a0b17"},"vehicle_type_id":"4","last_reported":1683392693,"current_range_meters":0,"station_id":"ce4bhah2rcd13ifvqei0","pricing_plan_id":"free"},{"bike_id":"d40f6121-67ee-40ee-9dd9-e1b4e7351f54","system_id":"levelo_inurba_marseille","lat":43.284538,"lon":5.358657,"is_reserved":false,"is_disabled":false,"rental_uris":{"android":"levelo://app?vid=d40f6121-67ee-40ee-9dd9-e1b4e7351f54","ios":"levelo://app?vid=d40f6121-67ee-40ee-9dd9-e1b4e7351f54"},"vehicle_type_id":"4","last_reported":1683392693,"current_range_meters":7200,"station_id":"ce4bhah2rcd13ifvqei0","pricing_plan_id":"free"},{"bike_id":"30904f45-ac3d-4830-9a77-a09e9bb12838","system_id":"levelo_inurba_marseille","lat":43.284534,"lon":5.358662,"is_reserved":false,"is_disabled":false,"rental_uris":{"android":"levelo://app?vid=30904f45-ac3d-4830-9a77-a09e9bb12838","ios":"levelo://app?vid=30904f45-ac3d-4830-9a77-a09e9bb12838"},"vehicle_type_id":"4","last_reported":1683392693,"current_range_meters":7200,"station_id":"ce4bhah2rcd13ifvqei0","pricing_plan_id":"free"},{"bike_id":"f7c066c4-4a44-4c54-b06c-b48e8c818795","system_id":"levelo_inurba_marseille","lat":43.284534,"lon":5.358662,"is_reserved":false,"is_disabled":false,"rental_uris":{"android":"levelo://app?vid=f7c066c4-4a44-4c54-b06c-b48e8c818795","ios":"levelo://app?vid=f7c066c4-4a44-4c54-b06c-b48e8c818795"},"vehicle_type_id":"4","last_reported":1683392693,"current_range_meters":6800,"station_id":"ce4bhah2rcd13ifvqei0","pricing_plan_id":"free"},{"bike_id":"55fa244c-0a41-4158-b96a-275c3c98bd42","system_id":"levelo_inurba_marseille","lat":43.284534,"lon":5.358662,"is_reserved":false,"is_disabled":false,"rental_uris":{"android":"levelo://app?vid=55fa244c-0a41-4158-b96a-275c3c98bd42","ios":"levelo://app?vid=55fa244c-0a41-4158-b96a-275c3c98bd42"},"vehicle_type_id":"4","last_reported":1683392693,"current_range_meters":22000,"station_id":"ce4bhah2rcd13ifvqei0","pricing_plan_id":"free"},{"bike_id":"160bcdc8-90af-425f-8f36-08fe229593f6","system_id":"levelo_inurba_marseille","lat":43.284534,"lon":5.358662,"is_reserved":false,"is_disabled":false,"rental_uris":{"android":"levelo://app?vid=160bcdc8-90af-425f-8f36-08fe229593f6","ios":"levelo://app?vid=160bcdc8-90af-425f-8f36-08fe229593f6"},"vehicle_type_id":"4","last_reported":1683392693,"current_range_meters":0,"station_id":"ce4bhah2rcd13ifvqei0","pricing_plan_id":"free"},{"bike_id":"f5427866-bfd3-4b39-904d-82680649f8e8","system_id":"levelo_inurba_marseille","lat":43.284538,"lon":5.358657,"is_reserved":false,"is_disabled":false,"rental_uris":{"android":"levelo://app?vid=f5427866-bfd3-4b39-904d-82680649f8e8","ios":"levelo://app?vid=f5427866-bfd3-4b39-904d-82680649f8e8"},"vehicle_type_id":"4","last_reported":1683392693,"current_range_meters":3200,"station_id":"ce4bhah2rcd13ifvqei0","pricing_plan_id":"free"},{"bike_id":"7cc08887-121b-49de-b1c3-5011f07abcf3","system_id":"levelo_inurba_marseille","lat":43.284534,"lon":5.358662,"is_reserved":false,"is_disabled":false,"rental_uris":{"android":"levelo://app?vid=7cc08887-121b-49de-b1c3-5011f07abcf3","ios":"levelo://app?vid=7cc08887-121b-49de-b1c3-5011f07abcf3"},"vehicle_type_id":"4","last_reported":1683392693,"current_range_meters":4800,"station_id":"ce4bhah2rcd13ifvqei0","pricing_plan_id":"free"},{"bike_id":"38ed11c4-b673-437d-b1d2-68bd95e202db","system_id":"levelo_inurba_marseille","lat":43.284534,"lon":5.358662,"is_reserved":false,"is_disabled":false,"rental_uris":{"android":"levelo://app?vid=38ed11c4-b673-437d-b1d2-68bd95e202db","ios":"levelo://app?vid=38ed11c4-b673-437d-b1d2-68bd95e202db"},"vehicle_type_id":"4","last_reported":1683392693,"current_range_meters":12000,"station_id":"ce4bhah2rcd13ifvqei0","pricing_plan_id":"free"},{"bike_id":"3b39df85-70f4-4f7f-8c57-b5cff0dad827","system_id":"levelo_inurba_marseille","lat":43.295713,"lon":5.399639,"is_reserved":false,"is_disabled":false,"rental_uris":{"android":"levelo://app?vid=3b39df85-70f4-4f7f-8c57-b5cff0dad827","ios":"levelo://app?vid=3b39df85-70f4-4f7f-8c57-b5cff0dad827"},"vehicle_type_id":"4","last_reported":1683392693,"current_range_meters":25200,"station_id":"ce4bh312rcd13ifvqdj0","pricing_plan_id":"free"},{"bike_id":"704704e4-1d9b-4759-86c5-2c0931268fde","system_id":"levelo_inurba_marseille","lat":43.295713,"lon":5.399639,"is_reserved":false,"is_disabled":false,"rental_uris":{"android":"levelo://app?vid=704704e4-1d9b-4759-86c5-2c0931268fde","ios":"levelo://app?vid=704704e4-1d9b-4759-86c5-2c0931268fde"},"vehicle_type_id":"4","last_reported":1683392693,"current_range_meters":14400,"station_id":"ce4bh312rcd13ifvqdj0","pricing_plan_id":"free"},{"bike_id":"0b43c8ac-4d1c-4389-a2f0-7356e609787a","system_id":"levelo_inurba_marseille","lat":43.295713,"lon":5.399639,"is_reserved":false,"is_disabled":false,"rental_uris":{"android":"levelo://app?vid=0b43c8ac-4d1c-4389-a2f0-7356e609787a","ios":"levelo://app?vid=0b43c8ac-4d1c-4389-a2f0-7356e609787a"},"vehicle_type_id":"4","last_reported":1683392693,"current_range_meters":12400,"station_id":"ce4bh312rcd13ifvqdj0","pricing_plan_id":"free"},{"bike_id":"6ce1ae7a-e212-4268-a6fd-21325b47364a","system_id":"levelo_inurba_marseille","lat":43.286595,"lon":5.386795,"is_reserved":false,"is_disabled":false,"rental_uris":{"android":"levelo://app?vid=6ce1ae7a-e212-4268-a6fd-21325b47364a","ios":"levelo://app?vid=6ce1ae7a-e212-4268-a6fd-21325b47364a"},"vehicle_type_id":"4","last_reported":1683392693,"current_range_meters":4000,"station_id":"ce4bh492rcd13ifvqdug","pricing_plan_id":"free"},{"bike_id":"e5f97eb8-ff90-4615-a31e-9ad264626137","system_id":"levelo_inurba_marseille","lat":43.28676,"lon":5.38651,"is_reserved":false,"is_disabled":false,"rental_uris":{"android":"levelo://app?vid=e5f97eb8-ff90-4615-a31e-9ad264626137","ios":"levelo://app?vid=e5f97eb8-ff90-4615-a31e-9ad264626137"},"vehicle_type_id":"4","last_reported":1683392693,"current_range_meters":27600,"station_id":"","pricing_plan_id":"free"},{"bike_id":"14f32d93-17db-462f-8e4e-663eba488c54","system_id":"levelo_inurba_marseille","lat":43.28673,"lon":5.38662,"is_reserved":false,"is_disabled":false,"rental_uris":{"android":"levelo://app?vid=14f32d93-17db-462f-8e4e-663eba488c54","ios":"levelo://app?vid=14f32d93-17db-462f-8e4e-663eba488c54"},"vehicle_type_id":"4","last_reported":1683392693,"current_range_meters":23600,"station_id":"ce4bh492rcd13ifvqdug","pricing_plan_id":"free"},{"bike_id":"3ee5e80a-e8f9-4ed3-a79f-36437fad95e6","system_id":"levelo_inurba_marseille","lat":43.286595,"lon":5.386795,"is_reserved":false,"is_disabled":false,"rental_uris":{"android":"levelo://app?vid=3ee5e80a-e8f9-4ed3-a79f-36437fad95e6","ios":"levelo://app?vid=3ee5e80a-e8f9-4ed3-a79f-36437fad95e6"},"vehicle_type_id":"4","last_reported":1683392693,"current_range_meters":5200,"station_id":"ce4bh492rcd13ifvqdug","pricing_plan_id":"free"},{"bike_id":"24b321b2-20e5-4f0f-8704-0448dbff4f36","system_id":"levelo_inurba_marseille","lat":43.286595,"lon":5.386795,"is_reserved":false,"is_disabled":false,"rental_uris":{"android":"levelo://app?vid=24b321b2-20e5-4f0f-8704-0448dbff4f36","ios":"levelo://app?vid=24b321b2-20e5-4f0f-8704-0448dbff4f36"},"vehicle_type_id":"4","last_reported":1683392693,"current_range_meters":10800,"station_id":"ce4bh492rcd13ifvqdug","pricing_plan_id":"free"},{"bike_id":"04a9be3f-ab96-43ca-89ae-60a0f27cddb3","system_id":"levelo_inurba_marseille","lat":43.286595,"lon":5.386795,"is_reserved":false,"is_disabled":false,"rental_uris":{"android":"levelo://app?vid=04a9be3f-ab96-43ca-89ae-60a0f27cddb3","ios":"levelo://app?vid=04a9be3f-ab96-43ca-89ae-60a0f27cddb3"},"vehicle_type_id":"4","last_reported":1683392693,"current_range_meters":11600,"station_id":"ce4bh492rcd13ifvqdug","pricing_plan_id":"free"},{"bike_id":"c9e4e10b-70ce-4c96-a303-cb0a3fd45bbe","system_id":"levelo_inurba_marseille","lat":43.286595,"lon":5.386795,"is_reserved":false,"is_disabled":false,"rental_uris":{"android":"levelo://app?vid=c9e4e10b-70ce-4c96-a303-cb0a3fd45bbe","ios":"levelo://app?vid=c9e4e10b-70ce-4c96-a303-cb0a3fd45bbe"},"vehicle_type_id":"4","last_reported":1683392693,"current_range_meters":16400,"station_id":"ce4bh492rcd13ifvqdug","pricing_plan_id":"free"},{"bike_id":"e4fb841b-ee30-4f60-9651-70c2181e5e3b","system_id":"levelo_inurba_marseille","lat":43.28655,"lon":5.3867,"is_reserved":false,"is_disabled":false,"rental_uris":{"android":"levelo://app?vid=e4fb841b-ee30-4f60-9651-70c2181e5e3b","ios":"levelo://app?vid=e4fb841b-ee30-4f60-9651-70c2181e5e3b"},"vehicle_type_id":"4","last_reported":1683392693,"current_range_meters":16800,"station_id":"ce4bh492rcd13ifvqdug","pricing_plan_id":"free"},{"bike_id":"9d15d15c-61cc-4e44-9fdd-13284d8c4606","system_id":"levelo_inurba_marseille","lat":43.337168,"lon":5.391825,"is_reserved":false,"is_disabled":false,"rental_uris":{"android":"levelo://app?vid=9d15d15c-61cc-4e44-9fdd-13284d8c4606","ios":"levelo://app?vid=9d15d15c-61cc-4e44-9fdd-13284d8c4606"},"vehicle_type_id":"4","last_reported":1683392693,"current_range_meters":30800,"station_id":"ce4bhr92rcd13ifvqhsg","pricing_plan_id":"free"},{"bike_id":"bff45db0-8068-4648-ad77-86c507a1b75d","system_id":"levelo_inurba_marseille","lat":43.33717,"lon":5.391857,"is_reserved":false,"is_disabled":false,"rental_uris":{"android":"levelo://app?vid=bff45db0-8068-4648-ad77-86c507a1b75d","ios":"levelo://app?vid=bff45db0-8068-4648-ad77-86c507a1b75d"},"vehicle_type_id":"4","last_reported":1683392693,"current_range_meters":9200,"station_id":"ce4bhr92rcd13ifvqhsg","pricing_plan_id":"free"},{"bike_id":"e1c21658-38b6-4599-8770-7a5e72b09fbf","system_id":"levelo_inurba_marseille","lat":43.323464,"lon":5.406297,"is_reserved":false,"is_disabled":false,"rental_uris":{"android":"levelo://app?vid=e1c21658-38b6-4599-8770-7a5e72b09fbf","ios":"levelo://app?vid=e1c21658-38b6-4599-8770-7a5e72b09fbf"},"vehicle_type_id":"4","last_reported":1683392693,"current_range_meters":26000,"station_id":"ce4bhq92rcd13ifvqhjg","pricing_plan_id":"free"},{"bike_id":"c9c4f49a-801c-4a26-8233-f9fb4c97e2ff","system_id":"levelo_inurba_marseille","lat":43.33717,"lon":5.391857,"is_reserved":false,"is_disabled":false,"rental_uris":{"android":"levelo://app?vid=c9c4f49a-801c-4a26-8233-f9fb4c97e2ff","ios":"levelo://app?vid=c9c4f49a-801c-4a26-8233-f9fb4c97e2ff"},"vehicle_type_id":"4","last_reported":1683392693,"current_range_meters":4400,"station_id":"ce4bhr92rcd13ifvqhsg","pricing_plan_id":"free"},{"bike_id":"98f3c427-d8f4-49fb-84dc-e58a2224bcf6","system_id":"levelo_inurba_marseille","lat":43.284793,"lon":5.384113,"is_reserved":false,"is_disabled":false,"rental_uris":{"android":"levelo://app?vid=98f3c427-d8f4-49fb-84dc-e58a2224bcf6","ios":"levelo://app?vid=98f3c427-d8f4-49fb-84dc-e58a2224bcf6"},"vehicle_type_id":"4","last_reported":1683392693,"current_range_meters":13600,"station_id":"ce4bh512rcd13ifvqe3g","pricing_plan_id":"free"},{"bike_id":"4d6d9a11-51dd-47bf-b5ab-c3376bd9f980","system_id":"levelo_inurba_marseille","lat":43.284793,"lon":5.384113,"is_reserved":false,"is_disabled":false,"rental_uris":{"android":"levelo://app?vid=4d6d9a11-51dd-47bf-b5ab-c3376bd9f980","ios":"levelo://app?vid=4d6d9a11-51dd-47bf-b5ab-c3376bd9f980"},"vehicle_type_id":"4","last_reported":1683392693,"current_range_meters":22000,"station_id":"ce4bh512rcd13ifvqe3g","pricing_plan_id":"free"},{"bike_id":"9027c3cd-9230-4cf0-8f93-bd84eb91db4f","system_id":"levelo_inurba_marseille","lat":43.284793,"lon":5.384113,"is_reserved":false,"is_disabled":false,"rental_uris":{"android":"levelo://app?vid=9027c3cd-9230-4cf0-8f93-bd84eb91db4f","ios":"levelo://app?vid=9027c3cd-9230-4cf0-8f93-bd84eb91db4f"},"vehicle_type_id":"4","last_reported":1683392693,"current_range_meters":21600,"station_id":"ce4bh512rcd13ifvqe3g","pricing_plan_id":"free"},{"bike_id":"b7ee7192-e81c-4b07-86d6-a52d9b59e0d2","system_id":"levelo_inurba_marseille","lat":43.284793,"lon":5.384113,"is_reserved":false,"is_disabled":false,"rental_uris":{"android":"levelo://app?vid=b7ee7192-e81c-4b07-86d6-a52d9b59e0d2","ios":"levelo://app?vid=b7ee7192-e81c-4b07-86d6-a52d9b59e0d2"},"vehicle_type_id":"4","last_reported":1683392693,"current_range_meters":400,"station_id":"ce4bh512rcd13ifvqe3g","pricing_plan_id":"free"},{"bike_id":"83dff5ca-45f7-4c32-91e8-72e996de04dd","system_id":"levelo_inurba_marseille","lat":43.284777,"lon":5.384152,"is_reserved":false,"is_disabled":false,"rental_uris":{"android":"levelo://app?vid=83dff5ca-45f7-4c32-91e8-72e996de04dd","ios":"levelo://app?vid=83dff5ca-45f7-4c32-91e8-72e996de04dd"},"vehicle_type_id":"4","last_reported":1683392693,"current_range_meters":16000,"station_id":"ce4bh512rcd13ifvqe3g","pricing_plan_id":"free"},{"bike_id":"382e097b-b898-4279-b8c0-fe9e0129da3e","system_id":"levelo_inurba_marseille","lat":43.284793,"lon":5.384113,"is_reserved":false,"is_disabled":false,"rental_uris":{"android":"levelo://app?vid=382e097b-b898-4279-b8c0-fe9e0129da3e","ios":"levelo://app?vid=382e097b-b898-4279-b8c0-fe9e0129da3e"},"vehicle_type_id":"4","last_reported":1683392693,"current_range_meters":2800,"station_id":"ce4bh512rcd13ifvqe3g","pricing_plan_id":"free"},{"bike_id":"a240ad54-2dca-42b3-af85-b7c77dfa3a59","system_id":"levelo_inurba_marseille","lat":43.28474,"lon":5.38422,"is_reserved":false,"is_disabled":false,"rental_uris":{"android":"levelo://app?vid=a240ad54-2dca-42b3-af85-b7c77dfa3a59","ios":"levelo://app?vid=a240ad54-2dca-42b3-af85-b7c77dfa3a59"},"vehicle_type_id":"4","last_reported":1683392693,"current_range_meters":20000,"station_id":"ce4bh512rcd13ifvqe3g","pricing_plan_id":"free"},{"bike_id":"ad3cdfdb-0864-4cce-8a5d-05a05de94244","system_id":"levelo_inurba_marseille","lat":43.30085,"lon":5.40582,"is_reserved":false,"is_disabled":false,"rental_uris":{"android":"levelo://app?vid=ad3cdfdb-0864-4cce-8a5d-05a05de94244","ios":"levelo://app?vid=ad3cdfdb-0864-4cce-8a5d-05a05de94244"},"vehicle_type_id":"4","last_reported":1683392693,"current_range_meters":20000,"station_id":"","pricing_plan_id":"free"},{"bike_id":"9864ef19-f500-4261-bdcd-9e1148455c0c","system_id":"levelo_inurba_marseille","lat":43.284793,"lon":5.384119,"is_reserved":false,"is_disabled":false,"rental_uris":{"android":"levelo://app?vid=9864ef19-f500-4261-bdcd-9e1148455c0c","ios":"levelo://app?vid=9864ef19-f500-4261-bdcd-9e1148455c0c"},"vehicle_type_id":"4","last_reported":1683392693,"current_range_meters":11600,"station_id":"ce4bh512rcd13ifvqe3g","pricing_plan_id":"free"},{"bike_id":"5ecbb4ed-ecc4-42e1-9678-4203cc1fe095","system_id":"levelo_inurba_marseille","lat":43.284787,"lon":5.384116,"is_reserved":false,"is_disabled":false,"rental_uris":{"android":"levelo://app?vid=5ecbb4ed-ecc4-42e1-9678-4203cc1fe095","ios":"levelo://app?vid=5ecbb4ed-ecc4-42e1-9678-4203cc1fe095"},"vehicle_type_id":"4","last_reported":1683392693,"current_range_meters":800,"station_id":"ce4bh512rcd13ifvqe3g","pricing_plan_id":"free"},{"bike_id":"78a4aaa3-d760-4999-83f6-f78ae70e74ef","system_id":"levelo_inurba_marseille","lat":43.284793,"lon":5.384113,"is_reserved":false,"is_disabled":false,"rental_uris":{"android":"levelo://app?vid=78a4aaa3-d760-4999-83f6-f78ae70e74ef","ios":"levelo://app?vid=78a4aaa3-d760-4999-83f6-f78ae70e74ef"},"vehicle_type_id":"4","last_reported":1683392693,"current_range_meters":5200,"station_id":"ce4bh512rcd13ifvqe3g","pricing_plan_id":"free"},{"bike_id":"fe8e6ad3-e1ea-4058-ba98-f2f910d4832b","system_id":"levelo_inurba_marseille","lat":43.284787,"lon":5.384116,"is_reserved":false,"is_disabled":false,"rental_uris":{"android":"levelo://app?vid=fe8e6ad3-e1ea-4058-ba98-f2f910d4832b","ios":"levelo://app?vid=fe8e6ad3-e1ea-4058-ba98-f2f910d4832b"},"vehicle_type_id":"4","last_reported":1683392693,"current_range_meters":29200,"station_id":"ce4bh512rcd13ifvqe3g","pricing_plan_id":"free"},{"bike_id":"dedfafd4-18a1-4033-b1fa-faa1e98011f5","system_id":"levelo_inurba_marseille","lat":43.284793,"lon":5.384113,"is_reserved":false,"is_disabled":false,"rental_uris":{"android":"levelo://app?vid=dedfafd4-18a1-4033-b1fa-faa1e98011f5","ios":"levelo://app?vid=dedfafd4-18a1-4033-b1fa-faa1e98011f5"},"vehicle_type_id":"4","last_reported":1683392693,"current_range_meters":13200,"station_id":"ce4bh512rcd13ifvqe3g","pricing_plan_id":"free"},{"bike_id":"2c8a0e10-7937-4dfc-9e7c-100a81ac9c70","system_id":"levelo_inurba_marseille","lat":43.284793,"lon":5.384119,"is_reserved":false,"is_disabled":false,"rental_uris":{"android":"levelo://app?vid=2c8a0e10-7937-4dfc-9e7c-100a81ac9c70","ios":"levelo://app?vid=2c8a0e10-7937-4dfc-9e7c-100a81ac9c70"},"vehicle_type_id":"4","last_reported":1683392693,"current_range_meters":23200,"station_id":"ce4bh512rcd13ifvqe3g","pricing_plan_id":"free"},{"bike_id":"73053310-9afa-47f3-86ba-f08d9b242fce","system_id":"levelo_inurba_marseille","lat":43.288497,"lon":5.393089,"is_reserved":false,"is_disabled":false,"rental_uris":{"android":"levelo://app?vid=73053310-9afa-47f3-86ba-f08d9b242fce","ios":"levelo://app?vid=73053310-9afa-47f3-86ba-f08d9b242fce"},"vehicle_type_id":"4","last_reported":1683392693,"current_range_meters":1600,"station_id":"ce4bh2p2rcd13ifvqdi0","pricing_plan_id":"free"},{"bike_id":"2bf5c283-ec57-4396-aed1-bd1dcf4023e6","system_id":"levelo_inurba_marseille","lat":43.288501,"lon":5.393087,"is_reserved":false,"is_disabled":false,"rental_uris":{"android":"levelo://app?vid=2bf5c283-ec57-4396-aed1-bd1dcf4023e6","ios":"levelo://app?vid=2bf5c283-ec57-4396-aed1-bd1dcf4023e6"},"vehicle_type_id":"4","last_reported":1683392693,"current_range_meters":18000,"station_id":"ce4bh2p2rcd13ifvqdi0","pricing_plan_id":"free"},{"bike_id":"cc5204f2-c7b8-467b-9737-8ec95c4589e4","system_id":"levelo_inurba_marseille","lat":43.283494,"lon":5.380945,"is_reserved":false,"is_disabled":false,"rental_uris":{"android":"levelo://app?vid=cc5204f2-c7b8-467b-9737-8ec95c4589e4","ios":"levelo://app?vid=cc5204f2-c7b8-467b-9737-8ec95c4589e4"},"vehicle_type_id":"4","last_reported":1683392693,"current_range_meters":3200,"station_id":"ce4bh412rcd13ifvqdr0","pricing_plan_id":"free"},{"bike_id":"0cd4849b-8115-41de-8d60-5817d6a76a07","system_id":"levelo_inurba_marseille","lat":43.284159,"lon":5.349798,"is_reserved":false,"is_disabled":false,"rental_uris":{"android":"levelo://app?vid=0cd4849b-8115-41de-8d60-5817d6a76a07","ios":"levelo://app?vid=0cd4849b-8115-41de-8d60-5817d6a76a07"},"vehicle_type_id":"4","last_reported":1683392693,"current_range_meters":6800,"station_id":"","pricing_plan_id":"free"},{"bike_id":"d1cd756f-783d-4fd6-8f08-6bf2d7cc3d63","system_id":"levelo_inurba_marseille","lat":43.292724,"lon":5.401131,"is_reserved":false,"is_disabled":false,"rental_uris":{"android":"levelo://app?vid=d1cd756f-783d-4fd6-8f08-6bf2d7cc3d63","ios":"levelo://app?vid=d1cd756f-783d-4fd6-8f08-6bf2d7cc3d63"},"vehicle_type_id":"4","last_reported":1683392693,"current_range_meters":22800,"station_id":"ce4bh312rcd13ifvqdk0","pricing_plan_id":"free"},{"bike_id":"7024ecac-573b-4fe1-81e7-354eb85e1af7","system_id":"levelo_inurba_marseille","lat":43.292724,"lon":5.401131,"is_reserved":false,"is_disabled":false,"rental_uris":{"android":"levelo://app?vid=7024ecac-573b-4fe1-81e7-354eb85e1af7","ios":"levelo://app?vid=7024ecac-573b-4fe1-81e7-354eb85e1af7"},"vehicle_type_id":"4","last_reported":1683392693,"current_range_meters":22000,"station_id":"ce4bh312rcd13ifvqdk0","pricing_plan_id":"free"},{"bike_id":"5b17723c-e3e7-4af0-8af1-a59a192bfd62","system_id":"levelo_inurba_marseille","lat":43.282754,"lon":5.350519,"is_reserved":false,"is_disabled":false,"rental_uris":{"android":"levelo://app?vid=5b17723c-e3e7-4af0-8af1-a59a192bfd62","ios":"levelo://app?vid=5b17723c-e3e7-4af0-8af1-a59a192bfd62"},"vehicle_type_id":"4","last_reported":1683392693,"current_range_meters":0,"station_id":"ce4bhbp2rcd13ifvqerg","pricing_plan_id":"free"},{"bike_id":"76242f32-c407-44d4-84d7-fa1d50b0f9dc","system_id":"levelo_inurba_marseille","lat":43.32444,"lon":5.40831,"is_reserved":false,"is_disabled":false,"rental_uris":{"android":"levelo://app?vid=76242f32-c407-44d4-84d7-fa1d50b0f9dc","ios":"levelo://app?vid=76242f32-c407-44d4-84d7-fa1d50b0f9dc"},"vehicle_type_id":"4","last_reported":1683392693,"current_range_meters":2400,"station_id":"","pricing_plan_id":"free"},{"bike_id":"8d8cee22-38bc-40f2-a1d7-6ccfcc2769ef","system_id":"levelo_inurba_marseille","lat":43.280382,"lon":5.369291,"is_reserved":false,"is_disabled":false,"rental_uris":{"android":"levelo://app?vid=8d8cee22-38bc-40f2-a1d7-6ccfcc2769ef","ios":"levelo://app?vid=8d8cee22-38bc-40f2-a1d7-6ccfcc2769ef"},"vehicle_type_id":"4","last_reported":1683392693,"current_range_meters":31200,"station_id":"ce4bha12rcd13ifvqef0","pricing_plan_id":"free"},{"bike_id":"4196b876-cbec-4ec7-a07e-6a11cbd96bad","system_id":"levelo_inurba_marseille","lat":43.28039,"lon":5.369297,"is_reserved":false,"is_disabled":false,"rental_uris":{"android":"levelo://app?vid=4196b876-cbec-4ec7-a07e-6a11cbd96bad","ios":"levelo://app?vid=4196b876-cbec-4ec7-a07e-6a11cbd96bad"},"vehicle_type_id":"4","last_reported":1683392693,"current_range_meters":28400,"station_id":"ce4bha12rcd13ifvqef0","pricing_plan_id":"free"},{"bike_id":"6a69bc9b-b8b7-40a3-ad7c-9dea50410139","system_id":"levelo_inurba_marseille","lat":43.280382,"lon":5.369291,"is_reserved":false,"is_disabled":false,"rental_uris":{"android":"levelo://app?vid=6a69bc9b-b8b7-40a3-ad7c-9dea50410139","ios":"levelo://app?vid=6a69bc9b-b8b7-40a3-ad7c-9dea50410139"},"vehicle_type_id":"4","last_reported":1683392693,"current_range_meters":27600,"station_id":"ce4bha12rcd13ifvqef0","pricing_plan_id":"free"},{"bike_id":"bc8b220c-1d8d-4dc7-8a6f-cbfacece3bdf","system_id":"levelo_inurba_marseille","lat":43.28035,"lon":5.3694,"is_reserved":false,"is_disabled":false,"rental_uris":{"android":"levelo://app?vid=bc8b220c-1d8d-4dc7-8a6f-cbfacece3bdf","ios":"levelo://app?vid=bc8b220c-1d8d-4dc7-8a6f-cbfacece3bdf"},"vehicle_type_id":"4","last_reported":1683392693,"current_range_meters":13200,"station_id":"ce4bha12rcd13ifvqef0","pricing_plan_id":"free"},{"bike_id":"98c39b1c-9e7a-44ec-a8ea-ac75789a6a6c","system_id":"levelo_inurba_marseille","lat":43.280382,"lon":5.369291,"is_reserved":false,"is_disabled":false,"rental_uris":{"android":"levelo://app?vid=98c39b1c-9e7a-44ec-a8ea-ac75789a6a6c","ios":"levelo://app?vid=98c39b1c-9e7a-44ec-a8ea-ac75789a6a6c"},"vehicle_type_id":"4","last_reported":1683392693,"current_range_meters":29600,"station_id":"ce4bha12rcd13ifvqef0","pricing_plan_id":"free"},{"bike_id":"980d1eb5-7021-4311-8bd9-5d8a5661d45b","system_id":"levelo_inurba_marseille","lat":43.28033,"lon":5.36938,"is_reserved":false,"is_disabled":false,"rental_uris":{"android":"levelo://app?vid=980d1eb5-7021-4311-8bd9-5d8a5661d45b","ios":"levelo://app?vid=980d1eb5-7021-4311-8bd9-5d8a5661d45b"},"vehicle_type_id":"4","last_reported":1683392693,"current_range_meters":0,"station_id":"ce4bha12rcd13ifvqef0","pricing_plan_id":"free"},{"bike_id":"4ef604d1-ffd1-4e66-9a76-5c7192359f81","system_id":"levelo_inurba_marseille","lat":43.28033,"lon":5.36948,"is_reserved":false,"is_disabled":false,"rental_uris":{"android":"levelo://app?vid=4ef604d1-ffd1-4e66-9a76-5c7192359f81","ios":"levelo://app?vid=4ef604d1-ffd1-4e66-9a76-5c7192359f81"},"vehicle_type_id":"4","last_reported":1683392693,"current_range_meters":12400,"station_id":"ce4bha12rcd13ifvqef0","pricing_plan_id":"free"},{"bike_id":"fa541099-72bc-4e12-a8b6-0f17bbc79b3c","system_id":"levelo_inurba_marseille","lat":43.28029,"lon":5.36945,"is_reserved":false,"is_disabled":false,"rental_uris":{"android":"levelo://app?vid=fa541099-72bc-4e12-a8b6-0f17bbc79b3c","ios":"levelo://app?vid=fa541099-72bc-4e12-a8b6-0f17bbc79b3c"},"vehicle_type_id":"4","last_reported":1683392693,"current_range_meters":14400,"station_id":"ce4bha12rcd13ifvqef0","pricing_plan_id":"free"},{"bike_id":"3f4dbe27-0488-44f8-a7cb-300c6f51e380","system_id":"levelo_inurba_marseille","lat":43.290412,"lon":5.399633,"is_reserved":false,"is_disabled":false,"rental_uris":{"android":"levelo://app?vid=3f4dbe27-0488-44f8-a7cb-300c6f51e380","ios":"levelo://app?vid=3f4dbe27-0488-44f8-a7cb-300c6f51e380"},"vehicle_type_id":"4","last_reported":1683392693,"current_range_meters":2000,"station_id":"ce4bh392rcd13ifvqdm0","pricing_plan_id":"free"},{"bike_id":"74ea2db9-2007-4596-a41d-44c206f6fe20","system_id":"levelo_inurba_marseille","lat":43.29041,"lon":5.399634,"is_reserved":false,"is_disabled":false,"rental_uris":{"android":"levelo://app?vid=74ea2db9-2007-4596-a41d-44c206f6fe20","ios":"levelo://app?vid=74ea2db9-2007-4596-a41d-44c206f6fe20"},"vehicle_type_id":"4","last_reported":1683392693,"current_range_meters":1200,"station_id":"ce4bh392rcd13ifvqdm0","pricing_plan_id":"free"},{"bike_id":"d25a73e8-5e23-4b3f-94de-b52857018995","system_id":"levelo_inurba_marseille","lat":43.29041,"lon":5.399634,"is_reserved":false,"is_disabled":false,"rental_uris":{"android":"levelo://app?vid=d25a73e8-5e23-4b3f-94de-b52857018995","ios":"levelo://app?vid=d25a73e8-5e23-4b3f-94de-b52857018995"},"vehicle_type_id":"4","last_reported":1683392693,"current_range_meters":9600,"station_id":"ce4bh392rcd13ifvqdm0","pricing_plan_id":"free"},{"bike_id":"e4bbeff7-61d5-4a82-8f73-5850dca2fae7","system_id":"levelo_inurba_marseille","lat":43.29041,"lon":5.399634,"is_reserved":false,"is_disabled":false,"rental_uris":{"android":"levelo://app?vid=e4bbeff7-61d5-4a82-8f73-5850dca2fae7","ios":"levelo://app?vid=e4bbeff7-61d5-4a82-8f73-5850dca2fae7"},"vehicle_type_id":"4","last_reported":1683392693,"current_range_meters":9200,"station_id":"ce4bh392rcd13ifvqdm0","pricing_plan_id":"free"},{"bike_id":"3b017715-06de-4038-9126-f44fbf4e15f6","system_id":"levelo_inurba_marseille","lat":43.296263,"lon":5.40601,"is_reserved":false,"is_disabled":false,"rental_uris":{"android":"levelo://app?vid=3b017715-06de-4038-9126-f44fbf4e15f6","ios":"levelo://app?vid=3b017715-06de-4038-9126-f44fbf4e15f6"},"vehicle_type_id":"4","last_reported":1683392693,"current_range_meters":6400,"station_id":"ce4bh0h2rcd13ifvqd60","pricing_plan_id":"free"},{"bike_id":"788fbad8-2bd1-4846-a73f-5b4168d0dab4","system_id":"levelo_inurba_marseille","lat":43.296263,"lon":5.40601,"is_reserved":false,"is_disabled":false,"rental_uris":{"android":"levelo://app?vid=788fbad8-2bd1-4846-a73f-5b4168d0dab4","ios":"levelo://app?vid=788fbad8-2bd1-4846-a73f-5b4168d0dab4"},"vehicle_type_id":"4","last_reported":1683392693,"current_range_meters":30000,"station_id":"ce4bh0h2rcd13ifvqd60","pricing_plan_id":"free"},{"bike_id":"48132ec9-16ee-43a6-98b3-a79756a60d8e","system_id":"levelo_inurba_marseille","lat":43.281044,"lon":5.378308,"is_reserved":false,"is_disabled":false,"rental_uris":{"android":"levelo://app?vid=48132ec9-16ee-43a6-98b3-a79756a60d8e","ios":"levelo://app?vid=48132ec9-16ee-43a6-98b3-a79756a60d8e"},"vehicle_type_id":"4","last_reported":1683392693,"current_range_meters":800,"station_id":"ce4bha12rcd13ifvqee0","pricing_plan_id":"free"},{"bike_id":"0b61ee63-0c73-484e-aae0-a670b830301a","system_id":"levelo_inurba_marseille","lat":43.296263,"lon":5.40601,"is_reserved":false,"is_disabled":false,"rental_uris":{"android":"levelo://app?vid=0b61ee63-0c73-484e-aae0-a670b830301a","ios":"levelo://app?vid=0b61ee63-0c73-484e-aae0-a670b830301a"},"vehicle_type_id":"4","last_reported":1683392693,"current_range_meters":8000,"station_id":"ce4bh0h2rcd13ifvqd60","pricing_plan_id":"free"},{"bike_id":"b5c95d40-66a2-42c2-bcbc-dd5c7c12a04c","system_id":"levelo_inurba_marseille","lat":43.296263,"lon":5.40601,"is_reserved":false,"is_disabled":false,"rental_uris":{"android":"levelo://app?vid=b5c95d40-66a2-42c2-bcbc-dd5c7c12a04c","ios":"levelo://app?vid=b5c95d40-66a2-42c2-bcbc-dd5c7c12a04c"},"vehicle_type_id":"4","last_reported":1683392693,"current_range_meters":1200,"station_id":"ce4bh0h2rcd13ifvqd60","pricing_plan_id":"free"},{"bike_id":"674ea47f-69c2-418a-8281-784bd57fb5c5","system_id":"levelo_inurba_marseille","lat":43.296263,"lon":5.40601,"is_reserved":false,"is_disabled":false,"rental_uris":{"android":"levelo://app?vid=674ea47f-69c2-418a-8281-784bd57fb5c5","ios":"levelo://app?vid=674ea47f-69c2-418a-8281-784bd57fb5c5"},"vehicle_type_id":"4","last_reported":1683392693,"current_range_meters":26000,"station_id":"ce4bh0h2rcd13ifvqd60","pricing_plan_id":"free"},{"bike_id":"dfc755de-760f-480d-8cce-858d06d687df","system_id":"levelo_inurba_marseille","lat":43.284523,"lon":5.392055,"is_reserved":false,"is_disabled":false,"rental_uris":{"android":"levelo://app?vid=dfc755de-760f-480d-8cce-858d06d687df","ios":"levelo://app?vid=dfc755de-760f-480d-8cce-858d06d687df"},"vehicle_type_id":"4","last_reported":1683392693,"current_range_meters":0,"station_id":"ce4bhoh2rcd13ifvqh5g","pricing_plan_id":"free"},{"bike_id":"01046538-2877-449c-a96a-a857db217b06","system_id":"levelo_inurba_marseille","lat":43.28445,"lon":5.39199,"is_reserved":false,"is_disabled":false,"rental_uris":{"android":"levelo://app?vid=01046538-2877-449c-a96a-a857db217b06","ios":"levelo://app?vid=01046538-2877-449c-a96a-a857db217b06"},"vehicle_type_id":"4","last_reported":1683392693,"current_range_meters":800,"station_id":"ce4bhoh2rcd13ifvqh5g","pricing_plan_id":"free"},{"bike_id":"08ec1e73-bda8-4c9d-9cf5-5ebc7e56bd97","system_id":"levelo_inurba_marseille","lat":43.284462,"lon":5.392121,"is_reserved":false,"is_disabled":false,"rental_uris":{"android":"levelo://app?vid=08ec1e73-bda8-4c9d-9cf5-5ebc7e56bd97","ios":"levelo://app?vid=08ec1e73-bda8-4c9d-9cf5-5ebc7e56bd97"},"vehicle_type_id":"4","last_reported":1683392693,"current_range_meters":20000,"station_id":"ce4bhoh2rcd13ifvqh5g","pricing_plan_id":"free"},{"bike_id":"5a966d5c-9b26-48af-9923-cfd8c01ebec5","system_id":"levelo_inurba_marseille","lat":43.28439,"lon":5.39198,"is_reserved":false,"is_disabled":false,"rental_uris":{"android":"levelo://app?vid=5a966d5c-9b26-48af-9923-cfd8c01ebec5","ios":"levelo://app?vid=5a966d5c-9b26-48af-9923-cfd8c01ebec5"},"vehicle_type_id":"4","last_reported":1683392693,"current_range_meters":1600,"station_id":"ce4bhoh2rcd13ifvqh5g","pricing_plan_id":"free"},