{"last_updated":1701288451,"ttl":30,"version":"2.2","data":{"bikes":[{"bike_id":"4aac5522-1c29-4759-af83-ee8fc109674c","system_id":"levelo_inurba_marseille","lat":43.312239,"lon":5.368562,"is_reserved":false,"is_disabled":false,"rental_uris":{"android":"levelo://app?vid=4aac5522-1c29-4759-af83-ee8fc109674c","ios":"levelo://app?vid=4aac5522-1c29-4759-af83-ee8fc109674c"},"vehicle_type_id":"4","last_reported":1701288452,"current_range_meters":0,"station_id":"ce4bgl92rcd13ifvqbq0","pricing_plan_id":"free"},{"bike_id":"d13540b1-5b75-4a5f-ba1f-5559ff31534f","system_id":"levelo_inurba_marseille","lat":43.309076,"lon":5.368465,"is_reserved":false,"is_disabled":false,"rental_uris":{"android":"levelo://app?vid=d13540b1-5b75-4a5f-ba1f-5559ff31534f","ios":"levelo://app?vid=d13540b1-5b75-4a5f-ba1f-5559ff31534f"},"vehicle_type_id":"4","last_reported":1701288452,"current_range_meters":7600,"station_id":"ce4bgn92rcd13ifvqbvg","pricing_plan_id":"free"},{"bike_id":"81b766a1-4db5-43ef-8085-8ddbac893459","system_id":"levelo_inurba_marseille","lat":43.309076,"lon":5.368465,"is_reserved":false,"is_disabled":false,"rental_uris":{"android":"levelo://app?vid=81b766a1-4db5-43ef-8085-8ddbac893459","ios":"levelo://app?vid=81b766a1-4db5-43ef-8085-8ddbac893459"},"vehicle_type_id":"4","last_reported":1701288452,"current_range_meters":8800,"station_id":"ce4bgn92rcd13ifvqbvg","pricing_plan_id":"free"},{"bike_id":"054b1570-f75c-423b-b756-858dd77075ce","system_id":"levelo_inurba_marseille","lat":43.305368,"lon":5.367343,"is_reserved":false,"is_disabled":false,"rental_uris":{"android":"levelo://app?vid=054b1570-f75c-423b-b756-858dd77075ce","ios":"levelo://app?vid=054b1570-f75c-423b-b756-858dd77075ce"},"vehicle_type_id":"4","last_reported":1701288452,"current_range_meters":0,"station_id":"ce4bgrp2rcd13ifvqc9g","pricing_plan_id":"free"},{"bike_id":"8773678d-6485-4372-8962-fe23dd52c0a9","system_id":"levelo_inurba_marseille","lat":43.305368,"lon":5.367343,"is_reserved":false,"is_disabled":false,"rental_uris":{"android":"levelo://app?vid=8773678d-6485-4372-8962-fe23dd52c0a9","ios":"levelo://app?vid=8773678d-6485-4372-8962-fe23dd52c0a9"},"vehicle_type_id":"4","last_reported":1701288452,"current_range_meters":0,"station_id":"ce4bgrp2rcd13ifvqc9g","pricing_plan_id":"free"},{"bike_id":"e36c7b60-c091-4484-93c9-fb7fd4af682f","system_id":"levelo_inurba_marseille","lat":43.305706,"lon":5.365654,"is_reserved":false,"is_disabled":false,"rental_uris":{"android":"levelo://app?vid=e36c7b60-c091-4484-93c9-fb7fd4af682f","ios":"levelo://app?vid=e36c7b60-c091-4484-93c9-fb7fd4af682f"},"vehicle_type_id":"4","last_reported":1701288452,"current_range_meters":30000,"station_id":"ce4bgs12rcd13ifvqcag","pricing_plan_id":"free"},{"bike_id":"a5a1f660-4534-4fb9-8454-879e8d98f038","system_id":"levelo_inurba_marseille","lat":43.31114,"lon":5.37765,"is_reserved":false,"is_disabled":false,"rental_uris":{"android":"levelo://app?vid=a5a1f660-4534-4fb9-8454-879e8d98f038","ios":"levelo://app?vid=a5a1f660-4534-4fb9-8454-879e8d98f038"},"vehicle_type_id":"4","last_reported":1701288452,"current_range_meters":400,"station_id":"ce4bgt92rcd13ifvqcg0","pricing_plan_id":"free"},{"bike_id":"a65d8a1e-4b97-4ef3-9d14-d89e925a6a64","system_id":"levelo_inurba_marseille","lat":43.31129,"lon":5.37773,"is_reserved":false,"is_disabled":false,"rental_uris":{"android":"levelo://app?vid=a65d8a1e-4b97-4ef3-9d14-d89e925a6a64","ios":"levelo://app?vid=a65d8a1e-4b97-4ef3-9d14-d89e925a6a64"},"vehicle_type_id":"4","last_reported":1701288452,"current_range_meters":23200,"station_id":"ce4bgt92rcd13ifvqcg0","pricing_plan_id":"free"},{"bike_id":"b5129530-3639-47e5-92b6-d358b01a2cff","system_id":"levelo_inurba_marseille","lat":43.308214,"lon":5.376616,"is_reserved":false,"is_disabled":false,"rental_uris":{"android":"levelo://app?vid=b5129530-3639-47e5-92b6-d358b01a2cff","ios":"levelo://app?vid=b5129530-3639-47e5-92b6-d358b01a2cff"},"vehicle_type_id":"4","last_reported":1701288452,"current_range_meters":24000,"station_id":"ce4bgv92rcd13ifvqcq0","pricing_plan_id":"free"},{"bike_id":"f427a2c3-6e4a-446b-ae2f-9be8aa7f4122","system_id":"levelo_inurba_marseille","lat":43.31719,"lon":5.376813,"is_reserved":false,"is_disabled":false,"rental_uris":{"android":"levelo://app?vid=f427a2c3-6e4a-446b-ae2f-9be8aa7f4122","ios":"levelo://app?vid=f427a2c3-6e4a-446b-ae2f-9be8aa7f4122"},"vehicle_type_id":"4","last_reported":1701288452,"current_range_meters":8400,"station_id":"ce4bgth2rcd13ifvqch0","pricing_plan_id":"free"},{"bike_id":"e913f328-1e31-4c22-bd87-f809ea246de4","system_id":"levelo_inurba_marseille","lat":43.317168,"lon":5.376883,"is_reserved":false,"is_disabled":false,"rental_uris":{"android":"levelo://app?vid=e913f328-1e31-4c22-bd87-f809ea246de4","ios":"levelo://app?vid=e913f328-1e31-4c22-bd87-f809ea246de4"},"vehicle_type_id":"4","last_reported":1701288452,"current_range_meters":10800,"station_id":"ce4bgth2rcd13ifvqch0","pricing_plan_id":"free"},{"bike_id":"4e72fa06-7259-4754-9376-39f08247e48f","system_id":"levelo_inurba_marseille","lat":43.307945,"lon":5.376487,"is_reserved":false,"is_disabled":false,"rental_uris":{"android":"levelo://app?vid=4e72fa06-7259-4754-9376-39f08247e48f","ios":"levelo://app?vid=4e72fa06-7259-4754-9376-39f08247e48f"},"vehicle_type_id":"4","last_reported":1701288452,"current_range_meters":3600,"station_id":"ce4bgv92rcd13ifvqcq0","pricing_plan_id":"free"},{"bike_id":"80e145bf-9a54-4fb4-abfa-0314c775dc38","system_id":"levelo_inurba_marseille","lat":43.317075,"lon":5.377367,"is_reserved":false,"is_disabled":false,"rental_uris":{"android":"levelo://app?vid=80e145bf-9a54-4fb4-abfa-0314c775dc38","ios":"levelo://app?vid=80e145bf-9a54-4fb4-abfa-0314c775dc38"},"vehicle_type_id":"4","last_reported":1701288452,"current_range_meters":15600,"station_id":"ce4bgth2rcd13ifvqch0","pricing_plan_id":"free"},{"bike_id":"2d5364de-a476-444c-a69a-21971e7eea70","system_id":"levelo_inurba_marseille","lat":43.303033,"lon":5.368973,"is_reserved":false,"is_disabled":false,"rental_uris":{"android":"levelo://app?vid=2d5364de-a476-444c-a69a-21971e7eea70","ios":"levelo://app?vid=2d5364de-a476-444c-a69a-21971e7eea70"},"vehicle_type_id":"4","last_reported":1701288452,"current_range_meters":11200,"station_id":"ce4bgqh2rcd13ifvqc5g","pricing_plan_id":"free"},{"bike_id":"2685a600-2542-45f2-ac2f-a74ef9b33f52","system_id":"levelo_inurba_marseille","lat":43.315119,"lon":5.380593,"is_reserved":false,"is_disabled":false,"rental_uris":{"android":"levelo://app?vid=2685a600-2542-45f2-ac2f-a74ef9b33f52","ios":"levelo://app?vid=2685a600-2542-45f2-ac2f-a74ef9b33f52"},"vehicle_type_id":"4","last_reported":1701288452,"current_range_meters":14400,"station_id":"ce4bhsp2rcd13ifvqi50","pricing_plan_id":"free"},{"bike_id":"3e09080e-9db5-4c48-951f-c5f672a60264","system_id":"levelo_inurba_marseille","lat":43.321466,"lon":5.374868,"is_reserved":false,"is_disabled":false,"rental_uris":{"android":"levelo://app?vid=3e09080e-9db5-4c48-951f-c5f672a60264","ios":"levelo://app?vid=3e09080e-9db5-4c48-951f-c5f672a60264"},"vehicle_type_id":"4","last_reported":1701288452,"current_range_meters":6800,"station_id":"","pricing_plan_id":"free"},{"bike_id":"a6ecf4bb-eed6-4380-9c1e-317f0ccb52a6","system_id":"levelo_inurba_marseille","lat":43.30473,"lon":5.37905,"is_reserved":false,"is_disabled":false,"rental_uris":{"android":"levelo://app?vid=a6ecf4bb-eed6-4380-9c1e-317f0ccb52a6","ios":"levelo://app?vid=a6ecf4bb-eed6-4380-9c1e-317f0ccb52a6"},"vehicle_type_id":"4","last_reported":1701288452,"current_range_meters":0,"station_id":"ce4bgup2rcd13ifvqcn0","pricing_plan_id":"free"},{"bike_id":"b82a5407-3dc0-4be2-bdc2-0389b4414ee4","system_id":"levelo_inurba_marseille","lat":43.30459,"lon":5.379,"is_reserved":false,"is_disabled":false,"rental_uris":{"android":"levelo://app?vid=b82a5407-3dc0-4be2-bdc2-0389b4414ee4","ios":"levelo://app?vid=b82a5407-3dc0-4be2-bdc2-0389b4414ee4"},"vehicle_type_id":"4","last_reported":1701288452,"current_range_meters":0,"station_id":"ce4bgup2rcd13ifvqcn0","pricing_plan_id":"free"},{"bike_id":"3e01df68-27f0-42b4-ac09-2ec4a13acda6","system_id":"levelo_inurba_marseille","lat":43.319935,"lon":5.381699,"is_reserved":false,"is_disabled":false,"rental_uris":{"android":"levelo://app?vid=3e01df68-27f0-42b4-ac09-2ec4a13acda6","ios":"levelo://app?vid=3e01df68-27f0-42b4-ac09-2ec4a13acda6"},"vehicle_type_id":"4","last_reported":1701288452,"current_range_meters":11600,"station_id":"ce4bhr12rcd13ifvqhpg","pricing_plan_id":"free"},{"bike_id":"5f404070-e56a-43ba-b7ae-b95c51c02b1e","system_id":"levelo_inurba_marseille","lat":43.319993,"lon":5.381523,"is_reserved":false,"is_disabled":false,"rental_uris":{"android":"levelo://app?vid=5f404070-e56a-43ba-b7ae-b95c51c02b1e","ios":"levelo://app?vid=5f404070-e56a-43ba-b7ae-b95c51c02b1e"},"vehicle_type_id":"4","last_reported":1701288452,"current_range_meters":0,"station_id":"ce4bhr12rcd13ifvqhpg","pricing_plan_id":"free"},{"bike_id":"2275aca5-3158-4c2c-8022-ca5d2714bc86","system_id":"levelo_inurba_marseille","lat":43.319997,"lon":5.381594,"is_reserved":false,"is_disabled":false,"rental_uris":{"android":"levelo://app?vid=2275aca5-3158-4c2c-8022-ca5d2714bc86","ios":"levelo://app?vid=2275aca5-3158-4c2c-8022-ca5d2714bc86"},"vehicle_type_id":"4","last_reported":1701288452,"current_range_meters":25600,"station_id":"ce4bhr12rcd13ifvqhpg","pricing_plan_id":"free"},{"bike_id":"4116419b-7f75-406e-9ba8-00a14e021f44","system_id":"levelo_inurba_marseille","lat":43.313571,"lon":5.384829,"is_reserved":false,"is_disabled":false,"rental_uris":{"android":"levelo://app?vid=4116419b-7f75-406e-9ba8-00a14e021f44","ios":"levelo://app?vid=4116419b-7f75-406e-9ba8-00a14e021f44"},"vehicle_type_id":"4","last_reported":1701288452,"current_range_meters":6000,"station_id":"ce4bgt92rcd13ifvqcf0","pricing_plan_id":"free"},{"bike_id":"f03199f1-49f8-47f3-b8ad-8fca9dc30b2c","system_id":"levelo_inurba_marseille","lat":43.313571,"lon":5.384829,"is_reserved":false,"is_disabled":false,"rental_uris":{"android":"levelo://app?vid=f03199f1-49f8-47f3-b8ad-8fca9dc30b2c","ios":"levelo://app?vid=f03199f1-49f8-47f3-b8ad-8fca9dc30b2c"},"vehicle_type_id":"4","last_reported":1701288452,"current_range_meters":0,"station_id":"ce4bgt92rcd13ifvqcf0","pricing_plan_id":"free"},{"bike_id":"63dd2ac5-22e6-4b2a-9d19-d5e61844cb75","system_id":"levelo_inurba_marseille","lat":43.313571,"lon":5.384829,"is_reserved":false,"is_disabled":false,"rental_uris":{"android":"levelo://app?vid=63dd2ac5-22e6-4b2a-9d19-d5e61844cb75","ios":"levelo://app?vid=63dd2ac5-22e6-4b2a-9d19-d5e61844cb75"},"vehicle_type_id":"4","last_reported":1701288452,"current_range_meters":27200,"station_id":"ce4bgt92rcd13ifvqcf0","pricing_plan_id":"free"},{"bike_id":"9932764a-3948-4788-b226-8a5f8749e452","system_id":"levelo_inurba_marseille","lat":43.299222,"lon":5.365554,"is_reserved":false,"is_disabled":false,"rental_uris":{"android":"levelo://app?vid=9932764a-3948-4788-b226-8a5f8749e452","ios":"levelo://app?vid=9932764a-3948-4788-b226-8a5f8749e452"},"vehicle_type_id":"4","last_reported":1701288452,"current_range_meters":4000,"station_id":"ce4bgm92rcd13ifvqbr0","pricing_plan_id":"free"},{"bike_id":"0f85c1b6-68fb-4f8c-abd0-257f6d875c63","system_id":"levelo_inurba_marseille","lat":43.29936,"lon":5.36551,"is_reserved":false,"is_disabled":false,"rental_uris":{"android":"levelo://app?vid=0f85c1b6-68fb-4f8c-abd0-257f6d875c63","ios":"levelo://app?vid=0f85c1b6-68fb-4f8c-abd0-257f6d875c63"},"vehicle_type_id":"4","last_reported":1701288452,"current_range_meters":8000,"station_id":"ce4bgm92rcd13ifvqbr0","pricing_plan_id":"free"},{"bike_id":"3b916fe5-2bd5-4934-a59d-efe3ebe1abe0","system_id":"levelo_inurba_marseille","lat":43.299222,"lon":5.365554,"is_reserved":false,"is_disabled":false,"rental_uris":{"android":"levelo://app?vid=3b916fe5-2bd5-4934-a59d-efe3ebe1abe0","ios":"levelo://app?vid=3b916fe5-2bd5-4934-a59d-efe3ebe1abe0"},"vehicle_type_id":"4","last_reported":1701288452,"current_range_meters":19200,"station_id":"ce4bgm92rcd13ifvqbr0","pricing_plan_id":"free"},{"bike_id":"599d5a0e-2b58-493c-8b33-fb44bd5e4493","system_id":"levelo_inurba_marseille","lat":43.299724,"lon":5.371829,"is_reserved":false,"is_disabled":false,"rental_uris":{"android":"levelo://app?vid=599d5a0e-2b58-493c-8b33-fb44bd5e4493","ios":"levelo://app?vid=599d5a0e-2b58-493c-8b33-fb44bd5e4493"},"vehicle_type_id":"4","last_reported":1701288452,"current_range_meters":5200,"station_id":"ce4bgr92rcd13ifvqc7g","pricing_plan_id":"free"},{"bike_id":"f1869728-27c0-49cb-b803-0f676cca23b4","system_id":"levelo_inurba_marseille","lat":43.311722,"lon":5.387247,"is_reserved":false,"is_disabled":false,"rental_uris":{"android":"levelo://app?vid=f1869728-27c0-49cb-b803-0f676cca23b4","ios":"levelo://app?vid=f1869728-27c0-49cb-b803-0f676cca23b4"},"vehicle_type_id":"4","last_reported":1701288452,"current_range_meters":800,"station_id":"ce4bgv12rcd13ifvqcp0","pricing_plan_id":"free"},{"bike_id":"179dd9e3-b810-4d64-90e2-ff30ca9ac636","system_id":"levelo_inurba_marseille","lat":43.311722,"lon":5.387247,"is_reserved":false,"is_disabled":false,"rental_uris":{"android":"levelo://app?vid=179dd9e3-b810-4d64-90e2-ff30ca9ac636","ios":"levelo://app?vid=179dd9e3-b810-4d64-90e2-ff30ca9ac636"},"vehicle_type_id":"4","last_reported":1701288452,"current_range_meters":19200,"station_id":"ce4bgv12rcd13ifvqcp0","pricing_plan_id":"free"},{"bike_id":"aebb5f1f-3a1e-4323-a4f0-ae83e0b78d14","system_id":"levelo_inurba_marseille","lat":43.327603,"lon":5.36705,"is_reserved":false,"is_disabled":false,"rental_uris":{"android":"levelo://app?vid=aebb5f1f-3a1e-4323-a4f0-ae83e0b78d14","ios":"levelo://app?vid=aebb5f1f-3a1e-4323-a4f0-ae83e0b78d14"},"vehicle_type_id":"4","last_reported":1701288452,"current_range_meters":27200,"station_id":"","pricing_plan_id":"free"},{"bike_id":"0da4b62f-0db6-4479-8cb1-8d25ba70b760","system_id":"levelo_inurba_marseille","lat":43.322872,"lon":5.382756,"is_reserved":false,"is_disabled":false,"rental_uris":{"android":"levelo://app?vid=0da4b62f-0db6-4479-8cb1-8d25ba70b760","ios":"levelo://app?vid=0da4b62f-0db6-4479-8cb1-8d25ba70b760"},"vehicle_type_id":"4","last_reported":1701288452,"current_range_meters":30400,"station_id":"ce4bhr12rcd13ifvqhqg","pricing_plan_id":"free"},{"bike_id":"d36e4daa-8cbf-4921-b012-b92a6a8b8bf6","system_id":"levelo_inurba_marseille","lat":43.322872,"lon":5.382756,"is_reserved":false,"is_disabled":false,"rental_uris":{"android":"levelo://app?vid=d36e4daa-8cbf-4921-b012-b92a6a8b8bf6","ios":"levelo://app?vid=d36e4daa-8cbf-4921-b012-b92a6a8b8bf6"},"vehicle_type_id":"4","last_reported":1701288452,"current_range_meters":27200,"station_id":"ce4bhr12rcd13ifvqhqg","pricing_plan_id":"free"},{"bike_id":"3486d651-45b6-46b6-82dc-903d5fa070d2","system_id":"levelo_inurba_marseille","lat":43.32831,"lon":5.36675,"is_reserved":false,"is_disabled":false,"rental_uris":{"android":"levelo://app?vid=3486d651-45b6-46b6-82dc-903d5fa070d2","ios":"levelo://app?vid=3486d651-45b6-46b6-82dc-903d5fa070d2"},"vehicle_type_id":"4","last_reported":1701288452,"current_range_meters":19200,"station_id":"ce4bhs92rcd13ifvqi0g","pricing_plan_id":"free"},{"bike_id":"d56645c8-48ee-46f8-81ce-5b18bf2eef13","system_id":"levelo_inurba_marseille","lat":43.297163,"lon":5.365866,"is_reserved":false,"is_disabled":false,"rental_uris":{"android":"levelo://app?vid=d56645c8-48ee-46f8-81ce-5b18bf2eef13","ios":"levelo://app?vid=d56645c8-48ee-46f8-81ce-5b18bf2eef13"},"vehicle_type_id":"4","last_reported":1701288452,"current_range_meters":30000,"station_id":"ce4bgn12rcd13ifvqbt0","pricing_plan_id":"free"},{"bike_id":"e9ab0315-6181-435b-b867-b18be155f794","system_id":"levelo_inurba_marseille","lat":43.297163,"lon":5.365866,"is_reserved":false,"is_disabled":false,"rental_uris":{"android":"levelo://app?vid=e9ab0315-6181-435b-b867-b18be155f794","ios":"levelo://app?vid=e9ab0315-6181-435b-b867-b18be155f794"},"vehicle_type_id":"4","last_reported":1701288452,"current_range_meters":26400,"station_id":"ce4bgn12rcd13ifvqbt0","pricing_plan_id":"free"},{"bike_id":"3c655d81-69bd-4de9-b72e-2190c7749aaf","system_id":"levelo_inurba_marseille","lat":43.297163,"lon":5.365866,"is_reserved":false,"is_disabled":false,"rental_uris":{"android":"levelo://app?vid=3c655d81-69bd-4de9-b72e-2190c7749aaf","ios":"levelo://app?vid=3c655d81-69bd-4de9-b72e-2190c7749aaf"},"vehicle_type_id":"4","last_reported":1701288452,"current_range_meters":7600,"station_id":"ce4bgn12rcd13ifvqbt0","pricing_plan_id":"free"},{"bike_id":"56768e4e-9386-4af4-86a9-5511352d419c","system_id":"levelo_inurba_marseille","lat":43.29593,"lon":5.36729,"is_reserved":false,"is_disabled":false,"rental_uris":{"android":"levelo://app?vid=56768e4e-9386-4af4-86a9-5511352d419c","ios":"levelo://app?vid=56768e4e-9386-4af4-86a9-5511352d419c"},"vehicle_type_id":"4","last_reported":1701288452,"current_range_meters":10800,"station_id":"ce4bgph2rcd13ifvqc2g","pricing_plan_id":"free"},{"bike_id":"f3449596-e9b3-46af-9337-6058b9c8cebb","system_id":"levelo_inurba_marseille","lat":43.29573,"lon":5.367355,"is_reserved":false,"is_disabled":false,"rental_uris":{"android":"levelo://app?vid=f3449596-e9b3-46af-9337-6058b9c8cebb","ios":"levelo://app?vid=f3449596-e9b3-46af-9337-6058b9c8cebb"},"vehicle_type_id":"4","last_reported":1701288452,"current_range_meters":17600,"station_id":"ce4bgph2rcd13ifvqc2g","pricing_plan_id":"free"},{"bike_id":"79541276-f99e-49d1-9903-e7446b57fa22","system_id":"levelo_inurba_marseille","lat":43.29573,"lon":5.367355,"is_reserved":false,"is_disabled":false,"rental_uris":{"android":"levelo://app?vid=79541276-f99e-49d1-9903-e7446b57fa22","ios":"levelo://app?vid=79541276-f99e-49d1-9903-e7446b57fa22"},"vehicle_type_id":"4","last_reported":1701288452,"current_range_meters":13600,"station_id":"ce4bgph2rcd13ifvqc2g","pricing_plan_id":"free"},{"bike_id":"3afbbc0c-a3a3-4ca9-877d-10a026dbf24a","system_id":"levelo_inurba_marseille","lat":43.309478,"lon":5.390095,"is_reserved":false,"is_disabled":false,"rental_uris":{"android":"levelo://app?vid=3afbbc0c-a3a3-4ca9-877d-10a026dbf24a","ios":"levelo://app?vid=3afbbc0c-a3a3-4ca9-877d-10a026dbf24a"},"vehicle_type_id":"4","last_reported":1701288452,"current_range_meters":4000,"station_id":"","pricing_plan_id":"free"},{"bike_id":"800b6f9e-26fa-4122-8074-d299dfc67cc4","system_id":"levelo_inurba_marseille","lat":43.296921,"lon":5.376579,"is_reserved":false,"is_disabled":false,"rental_uris":{"android":"levelo://app?vid=800b6f9e-26fa-4122-8074-d299dfc67cc4","ios":"levelo://app?vid=800b6f9e-26fa-4122-8074-d299dfc67cc4"},"vehicle_type_id":"4","last_reported":1701288452,"current_range_meters":11200,"station_id":"ce4bgkh2rcd13ifvqbl0","pricing_plan_id":"free"},{"bike_id":"2584c8b3-8f2b-496a-a98d-06b2ee8c7f56","system_id":"levelo_inurba_marseille","lat":43.309589,"lon":5.390258,"is_reserved":false,"is_disabled":false,"rental_uris":{"android":"levelo://app?vid=2584c8b3-8f2b-496a-a98d-06b2ee8c7f56","ios":"levelo://app?vid=2584c8b3-8f2b-496a-a98d-06b2ee8c7f56"},"vehicle_type_id":"4","last_reported":1701288452,"current_range_meters":19200,"station_id":"ce4bgup2rcd13ifvqco0","pricing_plan_id":"free"},{"bike_id":"58af9d59-5609-444f-84df-f6e9140e1c96","system_id":"levelo_inurba_marseille","lat":43.30955,"lon":5.3904,"is_reserved":false,"is_disabled":false,"rental_uris":{"android":"levelo://app?vid=58af9d59-5609-444f-84df-f6e9140e1c96","ios":"levelo://app?vid=58af9d59-5609-444f-84df-f6e9140e1c96"},"vehicle_type_id":"4","last_reported":1701288452,"current_range_meters":0,"station_id":"ce4bgup2rcd13ifvqco0","pricing_plan_id":"free"},{"bike_id":"8b09b7e4-b7ce-43f3-8ce5-06710057fbb2","system_id":"levelo_inurba_marseille","lat":43.296921,"lon":5.376579,"is_reserved":false,"is_disabled":false,"rental_uris":{"android":"levelo://app?vid=8b09b7e4-b7ce-43f3-8ce5-06710057fbb2","ios":"levelo://app?vid=8b09b7e4-b7ce-43f3-8ce5-06710057fbb2"},"vehicle_type_id":"4","last_reported":1701288452,"current_range_meters":10000,"station_id":"ce4bgkh2rcd13ifvqbl0","pricing_plan_id":"free"},{"bike_id":"2b9b2ec5-f3c9-4640-b75a-456672f2fd59","system_id":"levelo_inurba_marseille","lat":43.317557,"lon":5.390173,"is_reserved":false,"is_disabled":false,"rental_uris":{"android":"levelo://app?vid=2b9b2ec5-f3c9-4640-b75a-456672f2fd59","ios":"levelo://app?vid=2b9b2ec5-f3c9-4640-b75a-456672f2fd59"},"vehicle_type_id":"4","last_reported":1701288452,"current_range_meters":20800,"station_id":"ce4bhqp2rcd13ifvqhng","pricing_plan_id":"free"},{"bike_id":"057ae66f-c5eb-4cf3-ad62-ae217c15f56b","system_id":"levelo_inurba_marseille","lat":43.317557,"lon":5.390173,"is_reserved":false,"is_disabled":false,"rental_uris":{"android":"levelo://app?vid=057ae66f-c5eb-4cf3-ad62-ae217c15f56b","ios":"levelo://app?vid=057ae66f-c5eb-4cf3-ad62-ae217c15f56b"},"vehicle_type_id":"4","last_reported":1701288452,"current_range_meters":30400,"station_id":"ce4bhqp2rcd13ifvqhng","pricing_plan_id":"free"},{"bike_id":"6ed22076-9ba5-4488-a16d-4aa18d2dd911","system_id":"levelo_inurba_marseille","lat":43.317557,"lon":5.390173,"is_reserved":false,"is_disabled":false,"rental_uris":{"android":"levelo://app?vid=6ed22076-9ba5-4488-a16d-4aa18d2dd911","ios":"levelo://app?vid=6ed22076-9ba5-4488-a16d-4aa18d2dd911"},"vehicle_type_id":"4","last_reported":1701288452,"current_range_meters":1200,"station_id":"ce4bhqp2rcd13ifvqhng","pricing_plan_id":"free"},{"bike_id":"8dd6119c-7aef-4d30-9ad4-05127783a43f","system_id":"levelo_inurba_marseille","lat":43.28856,"lon":5.358371,"is_reserved":false,"is_disabled":false,"rental_uris":{"android":"levelo://app?vid=8dd6119c-7aef-4d30-9ad4-05127783a43f","ios":"levelo://app?vid=8dd6119c-7aef-4d30-9ad4-05127783a43f"},"vehicle_type_id":"4","last_reported":1701288452,"current_range_meters":3600,"station_id":"ce4bhb12rcd13ifvqem0","pricing_plan_id":"free"},{"bike_id":"6af7e66f-08f1-4697-a9f4-8f296282f0e6","system_id":"levelo_inurba_marseille","lat":43.299717,"lon":5.384845,"is_reserved":false,"is_disabled":false,"rental_uris":{"android":"levelo://app?vid=6af7e66f-08f1-4697-a9f4-8f296282f0e6","ios":"levelo://app?vid=6af7e66f-08f1-4697-a9f4-8f296282f0e6"},"vehicle_type_id":"4","last_reported":1701288452,"current_range_meters":21200,"station_id":"ce4bgj92rcd13ifvqbd0","pricing_plan_id":"free"},{"bike_id":"c5937ec4-3ce2-49ac-89f5-53d311da4efa","system_id":"levelo_inurba_marseille","lat":43.29601,"lon":5.381084,"is_reserved":false,"is_disabled":false,"rental_uris":{"android":"levelo://app?vid=c5937ec4-3ce2-49ac-89f5-53d311da4efa","ios":"levelo://app?vid=c5937ec4-3ce2-49ac-89f5-53d311da4efa"},"vehicle_type_id":"4","last_reported":1701288452,"current_range_meters":20800,"station_id":"ce4bgl12rcd13ifvqbo0","pricing_plan_id":"free"},{"bike_id":"9f5cf04a-c8d7-49c4-90ac-0a6ca57cf80d","system_id":"levelo_inurba_marseille","lat":43.293259,"lon":5.371586,"is_reserved":false,"is_disabled":false,"rental_uris":{"android":"levelo://app?vid=9f5cf04a-c8d7-49c4-90ac-0a6ca57cf80d","ios":"levelo://app?vid=9f5cf04a-c8d7-49c4-90ac-0a6ca57cf80d"},"vehicle_type_id":"4","last_reported":1701288452,"current_range_meters":21600,"station_id":"ce4bgh92rcd13ifvqb40","pricing_plan_id":"free"},{"bike_id":"2a968822-1d84-4313-8c11-1bb6a88f296e","system_id":"levelo_inurba_marseille","lat":43.293259,"lon":5.371586,"is_reserved":false,"is_disabled":false,"rental_uris":{"android":"levelo://app?vid=2a968822-1d84-4313-8c11-1bb6a88f296e","ios":"levelo://app?vid=2a968822-1d84-4313-8c11-1bb6a88f296e"},"vehicle_type_id":"4","last_reported":1701288452,"current_range_meters":14400,"station_id":"ce4bgh92rcd13ifvqb40","pricing_plan_id":"free"},{"bike_id":"26f7a164-f9c5-4308-bfae-a2e36d46f5df","system_id":"levelo_inurba_marseille","lat":43.292311,"lon":5.360731,"is_reserved":false,"is_disabled":false,"rental_uris":{"android":"levelo://app?vid=26f7a164-f9c5-4308-bfae-a2e36d46f5df","ios":"levelo://app?vid=26f7a164-f9c5-4308-bfae-a2e36d46f5df"},"vehicle_type_id":"4","last_reported":1701288452,"current_range_meters":27200,"station_id":"ce4bhbh2rcd13ifvqeqg","pricing_plan_id":"free"},{"bike_id":"5474cdc2-9768-41dd-9e51-b467ed9038b0","system_id":"levelo_inurba_marseille","lat":43.30085,"lon":5.390856,"is_reserved":false,"is_disabled":false,"rental_uris":{"android":"levelo://app?vid=5474cdc2-9768-41dd-9e51-b467ed9038b0","ios":"levelo://app?vid=5474cdc2-9768-41dd-9e51-b467ed9038b0"},"vehicle_type_id":"4","last_reported":1701288452,"current_range_meters":0,"station_id":"ce4bh192rcd13ifvqdb0","pricing_plan_id":"free"},{"bike_id":"44b4b9ea-51a9-4d38-9369-1f416da09232","system_id":"levelo_inurba_marseille","lat":43.292663,"lon":5.376394,"is_reserved":false,"is_disabled":false,"rental_uris":{"android":"levelo://app?vid=44b4b9ea-51a9-4d38-9369-1f416da09232","ios":"levelo://app?vid=44b4b9ea-51a9-4d38-9369-1f416da09232"},"vehicle_type_id":"4","last_reported":1701288452,"current_range_meters":6400,"station_id":"ce4bgi12rcd13ifvqb80","pricing_plan_id":"free"},{"bike_id":"4da3bf1b-bf8d-4611-af60-1aa233178f5f","system_id":"levelo_inurba_marseille","lat":43.29172,"lon":5.37155,"is_reserved":false,"is_disabled":false,"rental_uris":{"android":"levelo://app?vid=4da3bf1b-bf8d-4611-af60-1aa233178f5f","ios":"levelo://app?vid=4da3bf1b-bf8d-4611-af60-1aa233178f5f"},"vehicle_type_id":"4","last_reported":1701288452,"current_range_meters":14800,"station_id":"ce4bha92rcd13ifvqeh0","pricing_plan_id":"free"},{"bike_id":"9fc02e1b-18cf-4ba2-a4b6-43fb4433d289","system_id":"levelo_inurba_marseille","lat":43.30888,"lon":5.39628,"is_reserved":false,"is_disabled":false,"rental_uris":{"android":"levelo://app?vid=9fc02e1b-18cf-4ba2-a4b6-43fb4433d289","ios":"levelo://app?vid=9fc02e1b-18cf-4ba2-a4b6-43fb4433d289"},"vehicle_type_id":"4","last_reported":1701288452,"current_range_meters":0,"station_id":"ce4bh012rcd13ifvqcv0","pricing_plan_id":"free"},{"bike_id":"491bef61-9fa1-4e6b-b784-a5eb36985a19","system_id":"levelo_inurba_marseille","lat":43.291994,"lon":5.357886,"is_reserved":false,"is_disabled":false,"rental_uris":{"android":"levelo://app?vid=491bef61-9fa1-4e6b-b784-a5eb36985a19","ios":"levelo://app?vid=491bef61-9fa1-4e6b-b784-a5eb36985a19"},"vehicle_type_id":"4","last_reported":1701288452,"current_range_meters":1200,"station_id":"ce4bhb12rcd13ifvqel0","pricing_plan_id":"free"},{"bike_id":"d238bbc1-eafd-42fe-a3bb-9d5f0d9b701c","system_id":"levelo_inurba_marseille","lat":43.313291,"lon":5.396838,"is_reserved":false,"is_disabled":false,"rental_uris":{"android":"levelo://app?vid=d238bbc1-eafd-42fe-a3bb-9d5f0d9b701c","ios":"levelo://app?vid=d238bbc1-eafd-42fe-a3bb-9d5f0d9b701c"},"vehicle_type_id":"4","last_reported":1701288452,"current_range_meters":0,"station_id":"ce4bgvp2rcd13ifvqcu0","pricing_plan_id":"free"},{"bike_id":"d83f094f-82ea-4268-83eb-6c4ef0f8caeb","system_id":"levelo_inurba_marseille","lat":43.313261,"lon":5.396869,"is_reserved":false,"is_disabled":false,"rental_uris":{"android":"levelo://app?vid=d83f094f-82ea-4268-83eb-6c4ef0f8caeb","ios":"levelo://app?vid=d83f094f-82ea-4268-83eb-6c4ef0f8caeb"},"vehicle_type_id":"4","last_reported":1701288452,"current_range_meters":13600,"station_id":"","pricing_plan_id":"free"},{"bike_id":"7c3a263f-151a-4a8a-88c3-35f7de6c51ae","system_id":"levelo_inurba_marseille","lat":43.3133,"lon":5.39688,"is_reserved":false,"is_disabled":false,"rental_uris":{"android":"levelo://app?vid=7c3a263f-151a-4a8a-88c3-35f7de6c51ae","ios":"levelo://app?vid=7c3a263f-151a-4a8a-88c3-35f7de6c51ae"},"vehicle_type_id":"4","last_reported":1701288452,"current_range_meters":31200,"station_id":"ce4bgvp2rcd13ifvqcu0","pricing_plan_id":"free"},{"bike_id":"d736a3a0-e0ba-44c9-be47-b2c5d3595594","system_id":"levelo_inurba_marseille","lat":43.313301,"lon":5.396926,"is_reserved":false,"is_disabled":false,"rental_uris":{"android":"levelo://app?vid=d736a3a0-e0ba-44c9-be47-b2c5d3595594","ios":"levelo://app?vid=d736a3a0-e0ba-44c9-be47-b2c5d3595594"},"vehicle_type_id":"4","last_reported":1701288452,"current_range_meters":29200,"station_id":"ce4bgvp2rcd13ifvqcu0","pricing_plan_id":"free"},{"bike_id":"4a09bbcc-4a9b-4e20-a1dd-dc2d704c2936","system_id":"levelo_inurba_marseille","lat":43.313294,"lon":5.39696,"is_reserved":false,"is_disabled":false,"rental_uris":{"android":"levelo://app?vid=4a09bbcc-4a9b-4e20-a1dd-dc2d704c2936","ios":"levelo://app?vid=4a09bbcc-4a9b-4e20-a1dd-dc2d704c2936"},"vehicle_type_id":"4","last_reported":1701288452,"current_range_meters":29600,"station_id":"ce4bgvp2rcd13ifvqcu0","pricing_plan_id":"free"},{"bike_id":"0cb1e899-3d53-4ba5-a36f-60a2254d2879","system_id":"levelo_inurba_marseille","lat":43.29529,"lon":5.385581,"is_reserved":false,"is_disabled":false,"rental_uris":{"android":"levelo://app?vid=0cb1e899-3d53-4ba5-a36f-60a2254d2879","ios":"levelo://app?vid=0cb1e899-3d53-4ba5-a36f-60a2254d2879"},"vehicle_type_id":"4","last_reported":1701288452,"current_range_meters":5200,"station_id":"ce4bgih2rcd13ifvqba0","pricing_plan_id":"free"},{"bike_id":"49fee729-ff3e-451a-ac12-7dde25fd963e","system_id":"levelo_inurba_marseille","lat":43.290779,"lon":5.371482,"is_reserved":false,"is_disabled":false,"rental_uris":{"android":"levelo://app?vid=49fee729-ff3e-451a-ac12-7dde25fd963e","ios":"levelo://app?vid=49fee729-ff3e-451a-ac12-7dde25fd963e"},"vehicle_type_id":"4","last_reported":1701288452,"current_range_meters":28400,"station_id":"ce4bh5p2rcd13ifvqe4g","pricing_plan_id":"free"},{"bike_id":"2724cc8f-085b-459c-b2b4-8796f455ea3f","system_id":"levelo_inurba_marseille","lat":43.290631,"lon":5.359244,"is_reserved":false,"is_disabled":false,"rental_uris":{"android":"levelo://app?vid=2724cc8f-085b-459c-b2b4-8796f455ea3f","ios":"levelo://app?vid=2724cc8f-085b-459c-b2b4-8796f455ea3f"},"vehicle_type_id":"4","last_reported":1701288452,"current_range_meters":3200,"station_id":"ce4bha92rcd13ifvqeg0","pricing_plan_id":"free"},{"bike_id":"d35d6791-1bbd-4dd6-bd15-c74924fc078b","system_id":"levelo_inurba_marseille","lat":43.294153,"lon":5.386305,"is_reserved":false,"is_disabled":false,"rental_uris":{"android":"levelo://app?vid=d35d6791-1bbd-4dd6-bd15-c74924fc078b","ios":"levelo://app?vid=d35d6791-1bbd-4dd6-bd15-c74924fc078b"},"vehicle_type_id":"4","last_reported":1701288452,"current_range_meters":29600,"station_id":"ce4bh2h2rcd13ifvqdh0","pricing_plan_id":"free"},{"bike_id":"3618bff0-e2d0-4021-8472-3709cb15c861","system_id":"levelo_inurba_marseille","lat":43.28942,"lon":5.36633,"is_reserved":false,"is_disabled":false,"rental_uris":{"android":"levelo://app?vid=3618bff0-e2d0-4021-8472-3709cb15c861","ios":"levelo://app?vid=3618bff0-e2d0-4021-8472-3709cb15c861"},"vehicle_type_id":"4","last_reported":1701288452,"current_range_meters":0,"station_id":"ce4bhap2rcd13ifvqek0","pricing_plan_id":"free"},{"bike_id":"561600c7-fb29-4c6e-b6e3-ba6ec1022b99","system_id":"levelo_inurba_marseille","lat":43.2894,"lon":5.36637,"is_reserved":false,"is_disabled":false,"rental_uris":{"android":"levelo://app?vid=561600c7-fb29-4c6e-b6e3-ba6ec1022b99","ios":"levelo://app?vid=561600c7-fb29-4c6e-b6e3-ba6ec1022b99"},"vehicle_type_id":"4","last_reported":1701288452,"current_range_meters":6400,"station_id":"ce4bhap2rcd13ifvqek0","pricing_plan_id":"free"},{"bike_id":"e4c01e5c-0fdc-4477-b5de-a75a94a6bd02","system_id":"levelo_inurba_marseille","lat":43.289184,"lon":5.366408,"is_reserved":false,"is_disabled":false,"rental_uris":{"android":"levelo://app?vid=e4c01e5c-0fdc-4477-b5de-a75a94a6bd02","ios":"levelo://app?vid=e4c01e5c-0fdc-4477-b5de-a75a94a6bd02"},"vehicle_type_id":"4","last_reported":1701288452,"current_range_meters":11200,"station_id":"ce4bhap2rcd13ifvqek0","pricing_plan_id":"free"},{"bike_id":"164db871-a446-476d-8fc7-00cc85951711","system_id":"levelo_inurba_marseille","lat":43.29056,"lon":5.37791,"is_reserved":false,"is_disabled":false,"rental_uris":{"android":"levelo://app?vid=164db871-a446-476d-8fc7-00cc85951711","ios":"levelo://app?vid=164db871-a446-476d-8fc7-00cc85951711"},"vehicle_type_id":"4","last_reported":1701288452,"current_range_meters":0,"station_id":"","pricing_plan_id":"free"},{"bike_id":"dd2169e6-d554-4534-bbc7-6685222618d8","system_id":"levelo_inurba_marseille","lat":43.290103,"lon":5.356114,"is_reserved":false,"is_disabled":false,"rental_uris":{"android":"levelo://app?vid=dd2169e6-d554-4534-bbc7-6685222618d8","ios":"levelo://app?vid=dd2169e6-d554-4534-bbc7-6685222618d8"},"vehicle_type_id":"4","last_reported":1701288452,"current_range_meters":800,"station_id":"ce4bhb92rcd13ifvqen0","pricing_plan_id":"free"},{"bike_id":"54bbdb35-5117-4013-8623-1db83b6dca71","system_id":"levelo_inurba_marseille","lat":43.290103,"lon":5.356114,"is_reserved":false,"is_disabled":false,"rental_uris":{"android":"levelo://app?vid=54bbdb35-5117-4013-8623-1db83b6dca71","ios":"levelo://app?vid=54bbdb35-5117-4013-8623-1db83b6dca71"},"vehicle_type_id":"4","last_reported":1701288452,"current_range_meters":12800,"station_id":"ce4bhb92rcd13ifvqen0","pricing_plan_id":"free"},{"bike_id":"ad2f7736-9eec-4d71-a71a-65726625f89e","system_id":"levelo_inurba_marseille","lat":43.33043,"lon":5.3892,"is_reserved":false,"is_disabled":false,"rental_uris":{"android":"levelo://app?vid=ad2f7736-9eec-4d71-a71a-65726625f89e","ios":"levelo://app?vid=ad2f7736-9eec-4d71-a71a-65726625f89e"},"vehicle_type_id":"4","last_reported":1701288452,"current_range_meters":4400,"station_id":"ce4bhr92rcd13ifvqhrg","pricing_plan_id":"free"},{"bike_id":"17a1f976-5147-4e4b-8261-df6c06701252","system_id":"levelo_inurba_marseille","lat":43.290104,"lon":5.356111,"is_reserved":false,"is_disabled":false,"rental_uris":{"android":"levelo://app?vid=17a1f976-5147-4e4b-8261-df6c06701252","ios":"levelo://app?vid=17a1f976-5147-4e4b-8261-df6c06701252"},"vehicle_type_id":"4","last_reported":1701288452,"current_range_meters":18000,"station_id":"ce4bhb92rcd13ifvqen0","pricing_plan_id":"free"},{"bike_id":"779897a0-4cd7-4b0a-b661-81cd390537ac","system_id":"levelo_inurba_marseille","lat":43.290995,"lon":5.381361,"is_reserved":false,"is_disabled":false,"rental_uris":{"android":"levelo://app?vid=779897a0-4cd7-4b0a-b661-81cd390537ac","ios":"levelo://app?vid=779897a0-4cd7-4b0a-b661-81cd390537ac"},"vehicle_type_id":"4","last_reported":1701288452,"current_range_meters":28800,"station_id":"ce4bh512rcd13ifvqe2g","pricing_plan_id":"free"},{"bike_id":"f7c8068e-b978-4859-8c8c-ff247f81e158","system_id":"levelo_inurba_marseille","lat":43.295169,"lon":5.390426,"is_reserved":false,"is_disabled":false,"rental_uris":{"android":"levelo://app?vid=f7c8068e-b978-4859-8c8c-ff247f81e158","ios":"levelo://app?vid=f7c8068e-b978-4859-8c8c-ff247f81e158"},"vehicle_type_id":"4","last_reported":1701288452,"current_range_meters":21600,"station_id":"ce4bh3p2rcd13ifvqdp0","pricing_plan_id":"free"},{"bike_id":"bd5a5c31-6495-426c-82e9-f1d928ff8b17","system_id":"levelo_inurba_marseille","lat":43.28856,"lon":5.358371,"is_reserved":false,"is_disabled":false,"rental_uris":{"android":"levelo://app?vid=bd5a5c31-6495-426c-82e9-f1d928ff8b17","ios":"levelo://app?vid=bd5a5c31-6495-426c-82e9-f1d928ff8b17"},"vehicle_type_id":"4","last_reported":1701288452,"current_range_meters":9600,"station_id":"ce4bhb12rcd13ifvqem0","pricing_plan_id":"free"},{"bike_id":"5ddd24b1-903a-4eeb-bd20-5d4de09bb75d","system_id":"levelo_inurba_marseille","lat":43.28856,"lon":5.358371,"is_reserved":false,"is_disabled":false,"rental_uris":{"android":"levelo://app?vid=5ddd24b1-903a-4eeb-bd20-5d4de09bb75d","ios":"levelo://app?vid=5ddd24b1-903a-4eeb-bd20-5d4de09bb75d"},"vehicle_type_id":"4","last_reported":1701288452,"current_range_meters":7200,"station_id":"ce4bhb12rcd13ifvqem0","pricing_plan_id":"free"},{"bike_id":"98ddda32-c298-4de9-9ca2-0877a836d041","system_id":"levelo_inurba_marseille","lat":43.28856,"lon":5.358371,"is_reserved":false,"is_disabled":false,"rental_uris":{"android":"levelo://app?vid=98ddda32-c298-4de9-9ca2-0877a836d041","ios":"levelo://app?vid=98ddda32-c298-4de9-9ca2-0877a836d041"},"vehicle_type_id":"4","last_reported":1701288452,"current_range_meters":26400,"station_id":"ce4bhb12rcd13ifvqem0","pricing_plan_id":"free"},{"bike_id":"58b62225-256e-4d7a-addd-88854b12de0e","system_id":"levelo_inurba_marseille","lat":43.28856,"lon":5.358371,"is_reserved":false,"is_disabled":false,"rental_uris":{"android":"levelo://app?vid=58b62225-256e-4d7a-addd-88854b12de0e","ios":"levelo://app?vid=58b62225-256e-4d7a-addd-88854b12de0e"},"vehicle_type_id":"4","last_reported":1701288452,"current_range_meters":20800,"station_id":"ce4bhb12rcd13ifvqem0","pricing_plan_id":"free"},{"bike_id":"2b60fbc5-8a3c-4ff8-9dcb-0c2608237bd5","system_id":"levelo_inurba_marseille","lat":43.28856,"lon":5.358371,"is_reserved":false,"is_disabled":false,"rental_uris":{"android":"levelo://app?vid=2b60fbc5-8a3c-4ff8-9dcb-0c2608237bd5","ios":"levelo://app?vid=2b60fbc5-8a3c-4ff8-9dcb-0c2608237bd5"},"vehicle_type_id":"4","last_reported":1701288452,"current_range_meters":10400,"station_id":"ce4bhb12rcd13ifvqem0","pricing_plan_id":"free"},{"bike_id":"fb7aa3a5-ca37-4bac-bdbb-c731879eb205","system_id":"levelo_inurba_marseille","lat":43.28856,"lon":5.358371,"is_reserved":false,"is_disabled":false,"rental_uris":{"android":"levelo://app?vid=fb7aa3a5-ca37-4bac-bdbb-c731879eb205","ios":"levelo://app?vid=fb7aa3a5-ca37-4bac-bdbb-c731879eb205"},"vehicle_type_id":"4","last_reported":1701288452,"current_range_meters":4800,"station_id":"ce4bhb12rcd13ifvqem0","pricing_plan_id":"free"},{"bike_id":"9b423f68-d616-48b9-84f8-80768552cb20","system_id":"levelo_inurba_marseille","lat":43.30935,"lon":5.40143,"is_reserved":false,"is_disabled":false,"rental_uris":{"android":"levelo://app?vid=9b423f68-d616-48b9-84f8-80768552cb20","ios":"levelo://app?vid=9b423f68-d616-48b9-84f8-80768552cb20"},"vehicle_type_id":"4","last_reported":1701288452,"current_range_meters":3600,"station_id":"ce4bgvp2rcd13ifvqct0","pricing_plan_id":"free"},{"bike_id":"fb5f170d-2490-4436-87a6-bba2582b13d8","system_id":"levelo_inurba_marseille","lat":43.33749,"lon":5.37451,"is_reserved":false,"is_disabled":false,"rental_uris":{"android":"levelo://app?vid=fb5f170d-2490-4436-87a6-bba2582b13d8","ios":"levelo://app?vid=fb5f170d-2490-4436-87a6-bba2582b13d8"},"vehicle_type_id":"4","last_reported":1701288452,"current_range_meters":19600,"station_id":"","pricing_plan_id":"free"},{"bike_id":"959c7334-9895-402a-ad4a-727ec9a0454a","system_id":"levelo_inurba_marseille","lat":43.33763,"lon":5.3742,"is_reserved":false,"is_disabled":false,"rental_uris":{"android":"levelo://app?vid=959c7334-9895-402a-ad4a-727ec9a0454a","ios":"levelo://app?vid=959c7334-9895-402a-ad4a-727ec9a0454a"},"vehicle_type_id":"4","last_reported":1701288452,"current_range_meters":28800,"station_id":"","pricing_plan_id":"free"},{"bike_id":"6ea13113-8a59-4240-b979-38b120a1f26f","system_id":"levelo_inurba_marseille","lat":43.30654,"lon":5.40092,"is_reserved":false,"is_disabled":false,"rental_uris":{"android":"levelo://app?vid=6ea13113-8a59-4240-b979-38b120a1f26f","ios":"levelo://app?vid=6ea13113-8a59-4240-b979-38b120a1f26f"},"vehicle_type_id":"4","last_reported":1701288452,"current_range_meters":0,"station_id":"ce4bh112rcd13ifvqda0","pricing_plan_id":"free"},{"bike_id":"b3834300-b6a7-43a6-808d-939a0e67ac00","system_id":"levelo_inurba_marseille","lat":43.301117,"lon":5.398795,"is_reserved":false,"is_disabled":false,"rental_uris":{"android":"levelo://app?vid=b3834300-b6a7-43a6-808d-939a0e67ac00","ios":"levelo://app?vid=b3834300-b6a7-43a6-808d-939a0e67ac00"},"vehicle_type_id":"4","last_reported":1701288452,"current_range_meters":24800,"station_id":"ce4bh0h2rcd13ifvqd40","pricing_plan_id":"free"},{"bike_id":"4e4eedf1-3ef4-41e1-bc4d-30c27abbde77","system_id":"levelo_inurba_marseille","lat":43.28727,"lon":5.36078,"is_reserved":false,"is_disabled":false,"rental_uris":{"android":"levelo://app?vid=4e4eedf1-3ef4-41e1-bc4d-30c27abbde77","ios":"levelo://app?vid=4e4eedf1-3ef4-41e1-bc4d-30c27abbde77"},"vehicle_type_id":"4","last_reported":1701288452,"current_range_meters":24000,"station_id":"cki0cbj6b192h4jlfktg","pricing_plan_id":"free"},{"bike_id":"aa6beeb4-d406-4a8a-8945-4e13fd7c0445","system_id":"levelo_inurba_marseille","lat":43.28727,"lon":5.36078,"is_reserved":false,"is_disabled":false,"rental_uris":{"android":"levelo://app?vid=aa6beeb4-d406-4a8a-8945-4e13fd7c0445","ios":"levelo://app?vid=aa6beeb4-d406-4a8a-8945-4e13fd7c0445"},"vehicle_type_id":"4","last_reported":1701288452,"current_range_meters":7200,"station_id":"cki0cbj6b192h4jlfktg","pricing_plan_id":"free"},{"bike_id":"08e6fbc7-0e72-42c6-b27b-f10786339583","system_id":"levelo_inurba_marseille","lat":43.28727,"lon":5.36078,"is_reserved":false,"is_disabled":false,"rental_uris":{"android":"levelo://app?vid=08e6fbc7-0e72-42c6-b27b-f10786339583","ios":"levelo://app?vid=08e6fbc7-0e72-42c6-b27b-f10786339583"},"vehicle_type_id":"4","last_reported":1701288452,"current_range_meters":0,"station_id":"cki0cbj6b192h4jlfktg","pricing_plan_id":"free"},{"bike_id":"636089dd-2d6e-40b7-91a2-c6a464f7ed6e","system_id":"levelo_inurba_marseille","lat":43.298681,"lon":5.397225,"is_reserved":false,"is_disabled":false,"rental_uris":{"android":"levelo://app?vid=636089dd-2d6e-40b7-91a2-c6a464f7ed6e","ios":"levelo://app?vid=636089dd-2d6e-40b7-91a2-c6a464f7ed6e"},"vehicle_type_id":"4","last_reported":1701288452,"current_range_meters":19200,"station_id":"ce4bh0h2rcd13ifvqd50","pricing_plan_id":"free"},{"bike_id":"3271ebef-eb64-4d61-a56d-6fbba47001ff","system_id":"levelo_inurba_marseille","lat":43.298681,"lon":5.397225,"is_reserved":false,"is_disabled":false,"rental_uris":{"android":"levelo://app?vid=3271ebef-eb64-4d61-a56d-6fbba47001ff","ios":"levelo://app?vid=3271ebef-eb64-4d61-a56d-6fbba47001ff"},"vehicle_type_id":"4","last_reported":1701288452,"current_range_meters":18000,"station_id":"ce4bh0h2rcd13ifvqd50","pricing_plan_id":"free"},{"bike_id":"713f67b8-b4c7-4572-95f9-6af4967dff9c","system_id":"levelo_inurba_marseille","lat":43.287018,"lon":5.373835,"is_reserved":false,"is_disabled":false,"rental_uris":{"android":"levelo://app?vid=713f67b8-b4c7-4572-95f9-6af4967dff9c","ios":"levelo://app?vid=713f67b8-b4c7-4572-95f9-6af4967dff9c"},"vehicle_type_id":"4","last_reported":1701288452,"current_range_meters":0,"station_id":"ce4bh3p2rcd13ifvqdq0","pricing_plan_id":"free"},{"bike_id":"d4bf3a1c-6ca4-42b6-b1eb-ff77eb67050d","system_id":"levelo_inurba_marseille","lat":43.286593,"lon":5.363346,"is_reserved":false,"is_disabled":false,"rental_uris":{"android":"levelo://app?vid=d4bf3a1c-6ca4-42b6-b1eb-ff77eb67050d","ios":"levelo://app?vid=d4bf3a1c-6ca4-42b6-b1eb-ff77eb67050d"},"vehicle_type_id":"4","last_reported":1701288452,"current_range_meters":20400,"station_id":"ce4bhah2rcd13ifvqej0","pricing_plan_id":"free"},{"bike_id":"a6d74121-9155-4c42-89f3-dc9e62877c2c","system_id":"levelo_inurba_marseille","lat":43.298681,"lon":5.397225,"is_reserved":false,"is_disabled":false,"rental_uris":{"android":"levelo://app?vid=a6d74121-9155-4c42-89f3-dc9e62877c2c","ios":"levelo://app?vid=a6d74121-9155-4c42-89f3-dc9e62877c2c"},"vehicle_type_id":"4","last_reported":1701288452,"current_range_meters":3600,"station_id":"ce4bh0h2rcd13ifvqd50","pricing_plan_id":"free"},{"bike_id":"5ac8e1af-c0cc-43cb-bd71-f0606fb7b957","system_id":"levelo_inurba_marseille","lat":43.286961,"lon":5.373785,"is_reserved":false,"is_disabled":false,"rental_uris":{"android":"levelo://app?vid=5ac8e1af-c0cc-43cb-bd71-f0606fb7b957","ios":"levelo://app?vid=5ac8e1af-c0cc-43cb-bd71-f0606fb7b957"},"vehicle_type_id":"4","last_reported":1701288452,"current_range_meters":12800,"station_id":"ce4bh3p2rcd13ifvqdq0","pricing_plan_id":"free"},{"bike_id":"d982c5fe-8eb5-4349-a005-02a803f3c810","system_id":"levelo_inurba_marseille","lat":43.295196,"lon":5.39397,"is_reserved":false,"is_disabled":false,"rental_uris":{"android":"levelo://app?vid=d982c5fe-8eb5-4349-a005-02a803f3c810","ios":"levelo://app?vid=d982c5fe-8eb5-4349-a005-02a803f3c810"},"vehicle_type_id":"4","last_reported":1701288452,"current_range_meters":1200,"station_id":"ce4bh292rcd13ifvqdf0","pricing_plan_id":"free"},{"bike_id":"85f4ba32-c0a4-4b43-96ff-951eeafc0a39","system_id":"levelo_inurba_marseille","lat":43.295196,"lon":5.39397,"is_reserved":false,"is_disabled":false,"rental_uris":{"android":"levelo://app?vid=85f4ba32-c0a4-4b43-96ff-951eeafc0a39","ios":"levelo://app?vid=85f4ba32-c0a4-4b43-96ff-951eeafc0a39"},"vehicle_type_id":"4","last_reported":1701288452,"current_range_meters":29600,"station_id":"ce4bh292rcd13ifvqdf0","pricing_plan_id":"free"},{"bike_id":"3d83c1a0-fa96-4530-b403-dcfd3550b22a","system_id":"levelo_inurba_marseille","lat":43.29028,"lon":5.38634,"is_reserved":false,"is_disabled":false,"rental_uris":{"android":"levelo://app?vid=3d83c1a0-fa96-4530-b403-dcfd3550b22a","ios":"levelo://app?vid=3d83c1a0-fa96-4530-b403-dcfd3550b22a"},"vehicle_type_id":"4","last_reported":1701288452,"current_range_meters":30400,"station_id":"ce4bh4p2rcd13ifvqe0g","pricing_plan_id":"free"},{"bike_id":"56c4ae0d-1bcc-4bb5-8f29-e0bcdb0f54ea","system_id":"levelo_inurba_marseille","lat":43.295196,"lon":5.39397,"is_reserved":false,"is_disabled":false,"rental_uris":{"android":"levelo://app?vid=56c4ae0d-1bcc-4bb5-8f29-e0bcdb0f54ea","ios":"levelo://app?vid=56c4ae0d-1bcc-4bb5-8f29-e0bcdb0f54ea"},"vehicle_type_id":"4","last_reported":1701288452,"current_range_meters":8800,"station_id":"ce4bh292rcd13ifvqdf0","pricing_plan_id":"free"},{"bike_id":"25755960-aa3b-4310-a962-6897f27bf45b","system_id":"levelo_inurba_marseille","lat":43.29029,"lon":5.38646,"is_reserved":false,"is_disabled":false,"rental_uris":{"android":"levelo://app?vid=25755960-aa3b-4310-a962-6897f27bf45b","ios":"levelo://app?vid=25755960-aa3b-4310-a962-6897f27bf45b"},"vehicle_type_id":"4","last_reported":1701288452,"current_range_meters":16400,"station_id":"ce4bh4p2rcd13ifvqe0g","pricing_plan_id":"free"},{"bike_id":"8296418a-b4a9-4348-b696-b19482c12906","system_id":"levelo_inurba_marseille","lat":43.290209,"lon":5.386473,"is_reserved":false,"is_disabled":false,"rental_uris":{"android":"levelo://app?vid=8296418a-b4a9-4348-b696-b19482c12906","ios":"levelo://app?vid=8296418a-b4a9-4348-b696-b19482c12906"},"vehicle_type_id":"4","last_reported":1701288452,"current_range_meters":30800,"station_id":"ce4bh4p2rcd13ifvqe0g","pricing_plan_id":"free"},{"bike_id":"2848fd84-2d2a-461a-9ebd-5290d4f2583f","system_id":"levelo_inurba_marseille","lat":43.291994,"lon":5.392907,"is_reserved":false,"is_disabled":false,"rental_uris":{"android":"levelo://app?vid=2848fd84-2d2a-461a-9ebd-5290d4f2583f","ios":"levelo://app?vid=2848fd84-2d2a-461a-9ebd-5290d4f2583f"},"vehicle_type_id":"4","last_reported":1701288452,"current_range_meters":14800,"station_id":"ce4bh192rcd13ifvqdd0","pricing_plan_id":"free"},{"bike_id":"02fcc584-c8b8-4992-9f27-1b91b53f8229","system_id":"levelo_inurba_marseille","lat":43.28464,"lon":5.35894,"is_reserved":false,"is_disabled":false,"rental_uris":{"android":"levelo://app?vid=02fcc584-c8b8-4992-9f27-1b91b53f8229","ios":"levelo://app?vid=02fcc584-c8b8-4992-9f27-1b91b53f8229"},"vehicle_type_id":"4","last_reported":1701288452,"current_range_meters":0,"station_id":"ce4bhah2rcd13ifvqei0","pricing_plan_id":"free"},{"bike_id":"424878aa-cf47-4537-9705-92018b29218c","system_id":"levelo_inurba_marseille","lat":43.284534,"lon":5.358662,"is_reserved":false,"is_disabled":false,"rental_uris":{"android":"levelo://app?vid=424878aa-cf47-4537-9705-92018b29218c","ios":"levelo://app?vid=424878aa-cf47-4537-9705-92018b29218c"},"vehicle_type_id":"4","last_reported":1701288452,"current_range_meters":17600,"station_id":"ce4bhah2rcd13ifvqei0","pricing_plan_id":"free"},{"bike_id":"92ef320b-a6b1-419c-a06a-ac77dfd0d2e3","system_id":"levelo_inurba_marseille","lat":43.294314,"lon":5.397498,"is_reserved":false,"is_disabled":false,"rental_uris":{"android":"levelo://app?vid=92ef320b-a6b1-419c-a06a-ac77dfd0d2e3","ios":"levelo://app?vid=92ef320b-a6b1-419c-a06a-ac77dfd0d2e3"},"vehicle_type_id":"4","last_reported":1701288452,"current_range_meters":22800,"station_id":"ce4bh3h2rcd13ifvqdo0","pricing_plan_id":"free"},{"bike_id":"72468243-3a7c-4a9e-9a5c-2fe0917825ae","system_id":"levelo_inurba_marseille","lat":43.294314,"lon":5.397513,"is_reserved":false,"is_disabled":false,"rental_uris":{"android":"levelo://app?vid=72468243-3a7c-4a9e-9a5c-2fe0917825ae","ios":"levelo://app?vid=72468243-3a7c-4a9e-9a5c-2fe0917825ae"},"vehicle_type_id":"4","last_reported":1701288452,"current_range_meters":25200,"station_id":"ce4bh3h2rcd13ifvqdo0","pricing_plan_id":"free"},{"bike_id":"7f32492e-99c0-4825-bdff-35f98f328367","system_id":"levelo_inurba_marseille","lat":43.285856,"lon":5.350771,"is_reserved":false,"is_disabled":false,"rental_uris":{"android":"levelo://app?vid=7f32492e-99c0-4825-bdff-35f98f328367","ios":"levelo://app?vid=7f32492e-99c0-4825-bdff-35f98f328367"},"vehicle_type_id":"4","last_reported":1701288452,"current_range_meters":15200,"station_id":"ce4bhch2rcd13ifvqeug","pricing_plan_id":"free"},{"bike_id":"f9601311-7b5a-45ca-b201-3634bd08062d","system_id":"levelo_inurba_marseille","lat":43.28615,"lon":5.35101,"is_reserved":false,"is_disabled":false,"rental_uris":{"android":"levelo://app?vid=f9601311-7b5a-45ca-b201-3634bd08062d","ios":"levelo://app?vid=f9601311-7b5a-45ca-b201-3634bd08062d"},"vehicle_type_id":"4","last_reported":1701288452,"current_range_meters":20400,"station_id":"ce4bhch2rcd13ifvqeug","pricing_plan_id":"free"},{"bike_id":"5b395cb3-32e0-4f55-b680-293b4b44f3b2","system_id":"levelo_inurba_marseille","lat":43.283998,"lon":5.375062,"is_reserved":false,"is_disabled":false,"rental_uris":{"android":"levelo://app?vid=5b395cb3-32e0-4f55-b680-293b4b44f3b2","ios":"levelo://app?vid=5b395cb3-32e0-4f55-b680-293b4b44f3b2"},"vehicle_type_id":"4","last_reported":1701288452,"current_range_meters":1200,"station_id":"ce4bh412rcd13ifvqds0","pricing_plan_id":"free"},{"bike_id":"ca0cb280-d504-40db-a112-95a6f83f85bc","system_id":"levelo_inurba_marseille","lat":43.295713,"lon":5.399639,"is_reserved":false,"is_disabled":false,"rental_uris":{"android":"levelo://app?vid=ca0cb280-d504-40db-a112-95a6f83f85bc","ios":"levelo://app?vid=ca0cb280-d504-40db-a112-95a6f83f85bc"},"vehicle_type_id":"4","last_reported":1701288452,"current_range_meters":5600,"station_id":"ce4bh312rcd13ifvqdj0","pricing_plan_id":"free"},{"bike_id":"0a01a476-ee65-43f0-86ce-1b71d00c4784","system_id":"levelo_inurba_marseille","lat":43.29795,"lon":5.404086,"is_reserved":false,"is_disabled":false,"rental_uris":{"android":"levelo://app?vid=0a01a476-ee65-43f0-86ce-1b71d00c4784","ios":"levelo://app?vid=0a01a476-ee65-43f0-86ce-1b71d00c4784"},"vehicle_type_id":"4","last_reported":1701288452,"current_range_meters":27200,"station_id":"ce4bh112rcd13ifvqd90","pricing_plan_id":"free"},{"bike_id":"39173b6c-5c4e-4507-8015-07d87cc7e0ad","system_id":"levelo_inurba_marseille","lat":43.283494,"lon":5.380945,"is_reserved":false,"is_disabled":false,"rental_uris":{"android":"levelo://app?vid=39173b6c-5c4e-4507-8015-07d87cc7e0ad","ios":"levelo://app?vid=39173b6c-5c4e-4507-8015-07d87cc7e0ad"},"vehicle_type_id":"4","last_reported":1701288452,"current_range_meters":18400,"station_id":"ce4bh412rcd13ifvqdr0","pricing_plan_id":"free"},{"bike_id":"d2120d76-0fad-47eb-b244-dc59d199f1f4","system_id":"levelo_inurba_marseille","lat":43.333403,"lon":5.398706,"is_reserved":false,"is_disabled":false,"rental_uris":{"android":"levelo://app?vid=d2120d76-0fad-47eb-b244-dc59d199f1f4","ios":"levelo://app?vid=d2120d76-0fad-47eb-b244-dc59d199f1f4"},"vehicle_type_id":"4","last_reported":1701288452,"current_range_meters":2000,"station_id":"","pricing_plan_id":"free"},{"bike_id":"03a2720d-c89d-4b2b-8eac-8284e65277bd","system_id":"levelo_inurba_marseille","lat":43.283498,"lon":5.380948,"is_reserved":false,"is_disabled":false,"rental_uris":{"android":"levelo://app?vid=03a2720d-c89d-4b2b-8eac-8284e65277bd","ios":"levelo://app?vid=03a2720d-c89d-4b2b-8eac-8284e65277bd"},"vehicle_type_id":"4","last_reported":1701288452,"current_range_meters":1600,"station_id":"ce4bh412rcd13ifvqdr0","pricing_plan_id":"free"},{"bike_id":"30a97aca-b684-4e51-aa70-f687ae0f0064","system_id":"levelo_inurba_marseille","lat":43.28276,"lon":5.35053,"is_reserved":false,"is_disabled":false,"rental_uris":{"android":"levelo://app?vid=30a97aca-b684-4e51-aa70-f687ae0f0064","ios":"levelo://app?vid=30a97aca-b684-4e51-aa70-f687ae0f0064"},"vehicle_type_id":"4","last_reported":1701288452,"current_range_meters":0,"station_id":"ce4bhbp2rcd13ifvqerg","pricing_plan_id":"free"},{"bike_id":"963d6a9c-7612-4a37-803a-3af335937e69","system_id":"levelo_inurba_marseille","lat":43.282754,"lon":5.350519,"is_reserved":false,"is_disabled":false,"rental_uris":{"android":"levelo://app?vid=963d6a9c-7612-4a37-803a-3af335937e69","ios":"levelo://app?vid=963d6a9c-7612-4a37-803a-3af335937e69"},"vehicle_type_id":"4","last_reported":1701288452,"current_range_meters":21200,"station_id":"ce4bhbp2rcd13ifvqerg","pricing_plan_id":"free"},{"bike_id":"f3edfa28-1f6b-4879-b4f7-158bdbbdee95","system_id":"levelo_inurba_marseille","lat":43.280382,"lon":5.369291,"is_reserved":false,"is_disabled":false,"rental_uris":{"android":"levelo://app?vid=f3edfa28-1f6b-4879-b4f7-158bdbbdee95","ios":"levelo://app?vid=f3edfa28-1f6b-4879-b4f7-158bdbbdee95"},"vehicle_type_id":"4","last_reported":1701288452,"current_range_meters":30400,"station_id":"ce4bha12rcd13ifvqef0","pricing_plan_id":"free"},{"bike_id":"b39cf2b2-ecca-4141-a4e9-def827cec38f","system_id":"levelo_inurba_marseille","lat":43.2804,"lon":5.36937,"is_reserved":false,"is_disabled":false,"rental_uris":{"android":"levelo://app?vid=b39cf2b2-ecca-4141-a4e9-def827cec38f","ios":"levelo://app?vid=b39cf2b2-ecca-4141-a4e9-def827cec38f"},"vehicle_type_id":"4","last_reported":1701288452,"current_range_meters":6000,"station_id":"ce4bha12rcd13ifvqef0","pricing_plan_id":"free"},{"bike_id":"275d6402-0ea6-4af0-8fc5-9b35462d469f","system_id":"levelo_inurba_marseille","lat":43.280382,"lon":5.369291,"is_reserved":false,"is_disabled":false,"rental_uris":{"android":"levelo://app?vid=275d6402-0ea6-4af0-8fc5-9b35462d469f","ios":"levelo://app?vid=275d6402-0ea6-4af0-8fc5-9b35462d469f"},"vehicle_type_id":"4","last_reported":1701288452,"current_range_meters":16000,"station_id":"ce4bha12rcd13ifvqef0","pricing_plan_id":"free"},{"bike_id":"730d6574-35f2-4c7e-a4c2-72ac67eb3b70","system_id":"levelo_inurba_marseille","lat":43.280382,"lon":5.369291,"is_reserved":false,"is_disabled":false,"rental_uris":{"android":"levelo://app?vid=730d6574-35f2-4c7e-a4c2-72ac67eb3b70","ios":"levelo://app?vid=730d6574-35f2-4c7e-a4c2-72ac67eb3b70"},"vehicle_type_id":"4","last_reported":1701288452,"current_range_meters":28800,"station_id":"ce4bha12rcd13ifvqef0","pricing_plan_id":"free"},{"bike_id":"f6ebb7a9-b097-4f65-bad2-e6900739b283","system_id":"levelo_inurba_marseille","lat":43.28039,"lon":5.369297,"is_reserved":false,"is_disabled":false,"rental_uris":{"android":"levelo://app?vid=f6ebb7a9-b097-4f65-bad2-e6900739b283","ios":"levelo://app?vid=f6ebb7a9-b097-4f65-bad2-e6900739b283"},"vehicle_type_id":"4","last_reported":1701288452,"current_range_meters":29200,"station_id":"ce4bha12rcd13ifvqef0","pricing_plan_id":"free"},{"bike_id":"50b9c447-0cd6-4d43-9fd6-b2b09fd4d1df","system_id":"levelo_inurba_marseille","lat":43.281044,"lon":5.378308,"is_reserved":false,"is_disabled":false,"rental_uris":{"android":"levelo://app?vid=50b9c447-0cd6-4d43-9fd6-b2b09fd4d1df","ios":"levelo://app?vid=50b9c447-0cd6-4d43-9fd6-b2b09fd4d1df"},"vehicle_type_id":"4","last_reported":1701288452,"current_range_meters":16800,"station_id":"ce4bha12rcd13ifvqee0","pricing_plan_id":"free"},{"bike_id":"c5715a9c-fe69-4bd7-8288-472041893a9d","system_id":"levelo_inurba_marseille","lat":43.296263,"lon":5.40601,"is_reserved":false,"is_disabled":false,"rental_uris":{"android":"levelo://app?vid=c5715a9c-fe69-4bd7-8288-472041893a9d","ios":"levelo://app?vid=c5715a9c-fe69-4bd7-8288-472041893a9d"},"vehicle_type_id":"4","last_reported":1701288452,"current_range_meters":4000,"station_id":"ce4bh0h2rcd13ifvqd60","pricing_plan_id":"free"},{"bike_id":"29c0ce43-fe61-4c99-a846-f386a86ae7f7","system_id":"levelo_inurba_marseille","lat":43.284462,"lon":5.392121,"is_reserved":false,"is_disabled":false,"rental_uris":{"android":"levelo://app?vid=29c0ce43-fe61-4c99-a846-f386a86ae7f7","ios":"levelo://app?vid=29c0ce43-fe61-4c99-a846-f386a86ae7f7"},"vehicle_type_id":"4","last_reported":1701288452,"current_range_meters":22400,"station_id":"ce4bhoh2rcd13ifvqh5g","pricing_plan_id":"free"},{"bike_id":"fba1bf70-eee7-4253-be10-052639b58afc","system_id":"levelo_inurba_marseille","lat":43.284462,"lon":5.392121,"is_reserved":false,"is_disabled":false,"rental_uris":{"android":"levelo://app?vid=fba1bf70-eee7-4253-be10-052639b58afc","ios":"levelo://app?vid=fba1bf70-eee7-4253-be10-052639b58afc"},"vehicle_type_id":"4","last_reported":1701288452,"current_range_meters":11600,"station_id":"ce4bhoh2rcd13ifvqh5g","pricing_plan_id":"free"},{"bike_id":"393a927a-5e84-4b98-ac83-113d36c799a8","system_id":"levelo_inurba_marseille","lat":43.28573,"lon":5.394992,"is_reserved":false,"is_disabled":false,"rental_uris":{"android":"levelo://app?vid=393a927a-5e84-4b98-ac83-113d36c799a8","ios":"levelo://app?vid=393a927a-5e84-4b98-ac83-113d36c799a8"},"vehicle_type_id":"4","last_reported":1701288452,"current_range_meters":19600,"station_id":"ce4bh292rcd13ifvqdg0","pricing_plan_id":"free"},{"bike_id":"1eadb113-98d0-409f-9e5b-aa6d8e60ffc5","system_id":"levelo_inurba_marseille","lat":43.28573,"lon":5.394992,"is_reserved":false,"is_disabled":false,"rental_uris":{"android":"levelo://app?vid=1eadb113-98d0-409f-9e5b-aa6d8e60ffc5","ios":"levelo://app?vid=1eadb113-98d0-409f-9e5b-aa6d8e60ffc5"},"vehicle_type_id":"4","last_reported":1701288452,"current_range_meters":10400,"station_id":"ce4bh292rcd13ifvqdg0","pricing_plan_id":"free"},{"bike_id":"010d9f9f-5238-4fb9-b42b-e62d985c34ce","system_id":"levelo_inurba_marseille","lat":43.304188,"lon":5.412904,"is_reserved":false,"is_disabled":false,"rental_uris":{"android":"levelo://app?vid=010d9f9f-5238-4fb9-b42b-e62d985c34ce","ios":"levelo://app?vid=010d9f9f-5238-4fb9-b42b-e62d985c34ce"},"vehicle_type_id":"4","last_reported":1701288452,"current_range_meters":18800,"station_id":"ce4bhop2rcd13ifvqh8g","pricing_plan_id":"free"},{"bike_id":"83397cea-2635-43e5-b2fa-f1ab4be41b4c","system_id":"levelo_inurba_marseille","lat":43.279087,"lon":5.380114,"is_reserved":false,"is_disabled":false,"rental_uris":{"android":"levelo://app?vid=83397cea-2635-43e5-b2fa-f1ab4be41b4c","ios":"levelo://app?vid=83397cea-2635-43e5-b2fa-f1ab4be41b4c"},"vehicle_type_id":"4","last_reported":1701288452,"current_range_meters":7200,"station_id":"ce4bhf92rcd13ifvqf50","pricing_plan_id":"free"},{"bike_id":"297497a8-4cae-4ee7-9a12-2ed1c5e454d3","system_id":"levelo_inurba_marseille","lat":43.279087,"lon":5.380114,"is_reserved":false,"is_disabled":false,"rental_uris":{"android":"levelo://app?vid=297497a8-4cae-4ee7-9a12-2ed1c5e454d3","ios":"levelo://app?vid=297497a8-4cae-4ee7-9a12-2ed1c5e454d3"},"vehicle_type_id":"4","last_reported":1701288452,"current_range_meters":4400,"station_id":"ce4bhf92rcd13ifvqf50","pricing_plan_id":"free"},{"bike_id":"65007239-262e-4ded-a710-dd1385475011","system_id":"levelo_inurba_marseille","lat":43.279087,"lon":5.380114,"is_reserved":false,"is_disabled":false,"rental_uris":{"android":"levelo://app?vid=65007239-262e-4ded-a710-dd1385475011","ios":"levelo://app?vid=65007239-262e-4ded-a710-dd1385475011"},"vehicle_type_id":"4","last_reported":1701288452,"current_range_meters":5600,"station_id":"ce4bhf92rcd13ifvqf50","pricing_plan_id":"free"},{"bike_id":"d3f94c3f-5f27-4d6a-9476-bee86f0d7b10","system_id":"levelo_inurba_marseille","lat":43.287154,"lon":5.399979,"is_reserved":false,"is_disabled":false,"rental_uris":{"android":"levelo://app?vid=d3f94c3f-5f27-4d6a-9476-bee86f0d7b10","ios":"levelo://app?vid=d3f94c3f-5f27-4d6a-9476-bee86f0d7b10"},"vehicle_type_id":"4","last_reported":1701288452,"current_range_meters":0,"station_id":"ce4bho92rcd13ifvqh3g","pricing_plan_id":"free"},{"bike_id":"9d142aeb-b679-4d87-a6b0-de38f0581765","system_id":"levelo_inurba_marseille","lat":43.336148,"lon":5.410349,"is_reserved":false,"is_disabled":false,"rental_uris":{"android":"levelo://app?vid=9d142aeb-b679-4d87-a6b0-de38f0581765","ios":"levelo://app?vid=9d142aeb-b679-4d87-a6b0-de38f0581765"},"vehicle_type_id":"4","last_reported":1701288452,"current_range_meters":22000,"station_id":"ce4bhqh2rcd13ifvqhmg","pricing_plan_id":"free"},{"bike_id":"4dfe3209-9d78-4a45-9d5e-710d41e729d6","system_id":"levelo_inurba_marseille","lat":43.279663,"lon":5.38741,"is_reserved":false,"is_disabled":false,"rental_uris":{"android":"levelo://app?vid=4dfe3209-9d78-4a45-9d5e-710d41e729d6","ios":"levelo://app?vid=4dfe3209-9d78-4a45-9d5e-710d41e729d6"},"vehicle_type_id":"4","last_reported":1701288452,"current_range_meters":0,"station_id":"ce4bhg12rcd13ifvqf80","pricing_plan_id":"free"},{"bike_id":"f13fb715-bd30-468f-8ae7-f9eec9b22af2","system_id":"levelo_inurba_marseille","lat":43.303837,"lon":5.418724,"is_reserved":false,"is_disabled":false,"rental_uris":{"android":"levelo://app?vid=f13fb715-bd30-468f-8ae7-f9eec9b22af2","ios":"levelo://app?vid=f13fb715-bd30-468f-8ae7-f9eec9b22af2"},"vehicle_type_id":"4","last_reported":1701288452,"current_range_meters":7200,"station_id":"ce4bhop2rcd13ifvqh7g","pricing_plan_id":"free"},{"bike_id":"f446fc7b-7371-4f46-a6d1-ad41abff8e72","system_id":"levelo_inurba_marseille","lat":43.27841,"lon":5.39188,"is_reserved":false,"is_disabled":false,"rental_uris":{"android":"levelo://app?vid=f446fc7b-7371-4f46-a6d1-ad41abff8e72","ios":"levelo://app?vid=f446fc7b-7371-4f46-a6d1-ad41abff8e72"},"vehicle_type_id":"4","last_reported":1701288452,"current_range_meters":31200,"station_id":"ce4bhjp2rcd13ifvqga0","pricing_plan_id":"free"},{"bike_id":"6f4b33e5-56e0-48a2-969b-d8d5c5b771f7","system_id":"levelo_inurba_marseille","lat":43.2784,"lon":5.392116,"is_reserved":false,"is_disabled":false,"rental_uris":{"android":"levelo://app?vid=6f4b33e5-56e0-48a2-969b-d8d5c5b771f7","ios":"levelo://app?vid=6f4b33e5-56e0-48a2-969b-d8d5c5b771f7"},"vehicle_type_id":"4","last_reported":1701288452,"current_range_meters":31200,"station_id":"ce4bhjp2rcd13ifvqga0","pricing_plan_id":"free"},{"bike_id":"aeb6aae8-277f-467f-8c00-8f540be5604a","system_id":"levelo_inurba_marseille","lat":43.278326,"lon":5.391948,"is_reserved":false,"is_disabled":false,"rental_uris":{"android":"levelo://app?vid=aeb6aae8-277f-467f-8c00-8f540be5604a","ios":"levelo://app?vid=aeb6aae8-277f-467f-8c00-8f540be5604a"},"vehicle_type_id":"4","last_reported":1701288452,"current_range_meters":29600,"station_id":"ce4bhjp2rcd13ifvqga0","pricing_plan_id":"free"},{"bike_id":"296f705c-8804-4ce5-861e-e9c04f4fe098","system_id":"levelo_inurba_marseille","lat":43.27832,"lon":5.39204,"is_reserved":false,"is_disabled":false,"rental_uris":{"android":"levelo://app?vid=296f705c-8804-4ce5-861e-e9c04f4fe098","ios":"levelo://app?vid=296f705c-8804-4ce5-861e-e9c04f4fe098"},"vehicle_type_id":"4","last_reported":1701288452,"current_range_meters":31200,"station_id":"ce4bhjp2rcd13ifvqga0","pricing_plan_id":"free"},{"bike_id":"f59b01e5-c77b-4ef6-9fb1-6abc4f596a3e","system_id":"levelo_inurba_marseille","lat":43.278396,"lon":5.392251,"is_reserved":false,"is_disabled":false,"rental_uris":{"android":"levelo://app?vid=f59b01e5-c77b-4ef6-9fb1-6abc4f596a3e","ios":"levelo://app?vid=f59b01e5-c77b-4ef6-9fb1-6abc4f596a3e"},"vehicle_type_id":"4","last_reported":1701288452,"current_range_meters":10000,"station_id":"","pricing_plan_id":"free"},{"bike_id":"51906621-8246-492d-ac66-399d5e20cda5","system_id":"levelo_inurba_marseille","lat":43.278399,"lon":5.392139,"is_reserved":false,"is_disabled":false,"rental_uris":{"android":"levelo://app?vid=51906621-8246-492d-ac66-399d5e20cda5","ios":"levelo://app?vid=51906621-8246-492d-ac66-399d5e20cda5"},"vehicle_type_id":"4","last_reported":1701288452,"current_range_meters":31200,"station_id":"ce4bhjp2rcd13ifvqga0","pricing_plan_id":"free"},{"bike_id":"02bbaec1-5fe3-4433-9407-81171b2a94ea","system_id":"levelo_inurba_marseille","lat":43.275625,"lon":5.384392,"is_reserved":false,"is_disabled":false,"rental_uris":{"android":"levelo://app?vid=02bbaec1-5fe3-4433-9407-81171b2a94ea","ios":"levelo://app?vid=02bbaec1-5fe3-4433-9407-81171b2a94ea"},"vehicle_type_id":"4","last_reported":1701288452,"current_range_meters":28800,"station_id":"ce4bhh92rcd13ifvqfi0","pricing_plan_id":"free"},{"bike_id":"a76aea1e-f460-4283-9591-8fd8c7ac0ea7","system_id":"levelo_inurba_marseille","lat":43.340907,"lon":5.406097,"is_reserved":false,"is_disabled":false,"rental_uris":{"android":"levelo://app?vid=a76aea1e-f460-4283-9591-8fd8c7ac0ea7","ios":"levelo://app?vid=a76aea1e-f460-4283-9591-8fd8c7ac0ea7"},"vehicle_type_id":"4","last_reported":1701288452,"current_range_meters":14400,"station_id":"","pricing_plan_id":"free"},{"bike_id":"2ff8d530-edfd-4dcb-b395-370a78501d2b","system_id":"levelo_inurba_marseille","lat":43.275948,"lon":5.389352,"is_reserved":false,"is_disabled":false,"rental_uris":{"android":"levelo://app?vid=2ff8d530-edfd-4dcb-b395-370a78501d2b","ios":"levelo://app?vid=2ff8d530-edfd-4dcb-b395-370a78501d2b"},"vehicle_type_id":"4","last_reported":1701288452,"current_range_meters":26400,"station_id":"","pricing_plan_id":"free"},{"bike_id":"ebda0b6e-7465-4608-841e-9d7a331ae123","system_id":"levelo_inurba_marseille","lat":43.279952,"lon":5.400085,"is_reserved":false,"is_disabled":false,"rental_uris":{"android":"levelo://app?vid=ebda0b6e-7465-4608-841e-9d7a331ae123","ios":"levelo://app?vid=ebda0b6e-7465-4608-841e-9d7a331ae123"},"vehicle_type_id":"4","last_reported":1701288452,"current_range_meters":24400,"station_id":"ce4bho92rcd13ifvqh4g","pricing_plan_id":"free"},{"bike_id":"3c50c062-4b6b-4e52-ac0a-ef7174711fa9","system_id":"levelo_inurba_marseille","lat":43.279952,"lon":5.400085,"is_reserved":false,"is_disabled":false,"rental_uris":{"android":"levelo://app?vid=3c50c062-4b6b-4e52-ac0a-ef7174711fa9","ios":"levelo://app?vid=3c50c062-4b6b-4e52-ac0a-ef7174711fa9"},"vehicle_type_id":"4","last_reported":1701288452,"current_range_meters":15600,"station_id":"ce4bho92rcd13ifvqh4g","pricing_plan_id":"free"},{"bike_id":"21ddbadc-07ce-401b-9682-78c5fa0ea2a7","system_id":"levelo_inurba_marseille","lat":43.279952,"lon":5.400085,"is_reserved":false,"is_disabled":false,"rental_uris":{"android":"levelo://app?vid=21ddbadc-07ce-401b-9682-78c5fa0ea2a7","ios":"levelo://app?vid=21ddbadc-07ce-401b-9682-78c5fa0ea2a7"},"vehicle_type_id":"4","last_reported":1701288452,"current_range_meters":3200,"station_id":"ce4bho92rcd13ifvqh4g","pricing_plan_id":"free"},{"bike_id":"e98eba07-97b1-4f3c-8fb1-be6640a2c3b7","system_id":"levelo_inurba_marseille","lat":43.279952,"lon":5.400085,"is_reserved":false,"is_disabled":false,"rental_uris":{"android":"levelo://app?vid=e98eba07-97b1-4f3c-8fb1-be6640a2c3b7","ios":"levelo://app?vid=e98eba07-97b1-4f3c-8fb1-be6640a2c3b7"},"vehicle_type_id":"4","last_reported":1701288452,"current_range_meters":28000,"station_id":"ce4bho92rcd13ifvqh4g","pricing_plan_id":"free"},{"bike_id":"26bdd0b4-350e-4474-8ebf-56e9ab6b60cd","system_id":"levelo_inurba_marseille","lat":43.317121,"lon":5.423936,"is_reserved":false,"is_disabled":false,"rental_uris":{"android":"levelo://app?vid=26bdd0b4-350e-4474-8ebf-56e9ab6b60cd","ios":"levelo://app?vid=26bdd0b4-350e-4474-8ebf-56e9ab6b60cd"},"vehicle_type_id":"4","last_reported":1701288452,"current_range_meters":800,"station_id":"ce4bhp92rcd13ifvqhbg","pricing_plan_id":"free"},{"bike_id":"69074476-d243-4f41-9b35-a2ca1c437551","system_id":"levelo_inurba_marseille","lat":43.317121,"lon":5.423936,"is_reserved":false,"is_disabled":false,"rental_uris":{"android":"levelo://app?vid=69074476-d243-4f41-9b35-a2ca1c437551","ios":"levelo://app?vid=69074476-d243-4f41-9b35-a2ca1c437551"},"vehicle_type_id":"4","last_reported":1701288452,"current_range_meters":30400,"station_id":"ce4bhp92rcd13ifvqhbg","pricing_plan_id":"free"},{"bike_id":"e8aeb496-4a18-4308-979c-7e2191e3cb3e","system_id":"levelo_inurba_marseille","lat":43.274099,"lon":5.394019,"is_reserved":false,"is_disabled":false,"rental_uris":{"android":"levelo://app?vid=e8aeb496-4a18-4308-979c-7e2191e3cb3e","ios":"levelo://app?vid=e8aeb496-4a18-4308-979c-7e2191e3cb3e"},"vehicle_type_id":"4","last_reported":1701288452,"current_range_meters":400,"station_id":"ce4bhdp2rcd13ifvqf20","pricing_plan_id":"free"},{"bike_id":"4629788e-4f7a-4103-b95e-583d0b30f54b","system_id":"levelo_inurba_marseille","lat":43.27283,"lon":5.39092,"is_reserved":false,"is_disabled":false,"rental_uris":{"android":"levelo://app?vid=4629788e-4f7a-4103-b95e-583d0b30f54b","ios":"levelo://app?vid=4629788e-4f7a-4103-b95e-583d0b30f54b"},"vehicle_type_id":"4","last_reported":1701288452,"current_range_meters":0,"station_id":"ce4bhgp2rcd13ifvqfe0","pricing_plan_id":"free"},{"bike_id":"2d7ce65d-107c-453e-98f2-39dc9b2bea8c","system_id":"levelo_inurba_marseille","lat":43.295523,"lon":5.422926,"is_reserved":false,"is_disabled":false,"rental_uris":{"android":"levelo://app?vid=2d7ce65d-107c-453e-98f2-39dc9b2bea8c","ios":"levelo://app?vid=2d7ce65d-107c-453e-98f2-39dc9b2bea8c"},"vehicle_type_id":"4","last_reported":1701288452,"current_range_meters":6400,"station_id":"ce4bhph2rcd13ifvqhdg","pricing_plan_id":"free"},{"bike_id":"d6196e04-2494-4446-a9da-1bc4c12e52ee","system_id":"levelo_inurba_marseille","lat":43.295523,"lon":5.422926,"is_reserved":false,"is_disabled":false,"rental_uris":{"android":"levelo://app?vid=d6196e04-2494-4446-a9da-1bc4c12e52ee","ios":"levelo://app?vid=d6196e04-2494-4446-a9da-1bc4c12e52ee"},"vehicle_type_id":"4","last_reported":1701288452,"current_range_meters":8800,"station_id":"ce4bhph2rcd13ifvqhdg","pricing_plan_id":"free"},{"bike_id":"0120dbbf-4353-4df3-96d2-747d00c5e0f6","system_id":"levelo_inurba_marseille","lat":43.2952,"lon":5.42276,"is_reserved":false,"is_disabled":false,"rental_uris":{"android":"levelo://app?vid=0120dbbf-4353-4df3-96d2-747d00c5e0f6","ios":"levelo://app?vid=0120dbbf-4353-4df3-96d2-747d00c5e0f6"},"vehicle_type_id":"4","last_reported":1701288452,"current_range_meters":23600,"station_id":"ce4bhph2rcd13ifvqhdg","pricing_plan_id":"free"},{"bike_id":"a77ff4ee-8be9-4d58-9101-6e5b4c0186f4","system_id":"levelo_inurba_marseille","lat":43.278128,"lon":5.407195,"is_reserved":false,"is_disabled":false,"rental_uris":{"android":"levelo://app?vid=a77ff4ee-8be9-4d58-9101-6e5b4c0186f4","ios":"levelo://app?vid=a77ff4ee-8be9-4d58-9101-6e5b4c0186f4"},"vehicle_type_id":"4","last_reported":1701288452,"current_range_meters":15600,"station_id":"ce4bhnh2rcd13ifvqgtg","pricing_plan_id":"free"},{"bike_id":"c09e085d-eabd-4fb4-ace5-929570319fe2","system_id":"levelo_inurba_marseille","lat":43.278128,"lon":5.407195,"is_reserved":false,"is_disabled":false,"rental_uris":{"android":"levelo://app?vid=c09e085d-eabd-4fb4-ace5-929570319fe2","ios":"levelo://app?vid=c09e085d-eabd-4fb4-ace5-929570319fe2"},"vehicle_type_id":"4","last_reported":1701288452,"current_range_meters":11600,"station_id":"ce4bhnh2rcd13ifvqgtg","pricing_plan_id":"free"},{"bike_id":"f9705fc0-e748-4d29-8bc7-e4ad532fff27","system_id":"levelo_inurba_marseille","lat":43.278128,"lon":5.407195,"is_reserved":false,"is_disabled":false,"rental_uris":{"android":"levelo://app?vid=f9705fc0-e748-4d29-8bc7-e4ad532fff27","ios":"levelo://app?vid=f9705fc0-e748-4d29-8bc7-e4ad532fff27"},"vehicle_type_id":"4","last_reported":1701288452,"current_range_meters":10800,"station_id":"ce4bhnh2rcd13ifvqgtg","pricing_plan_id":"free"},{"bike_id":"897c7477-704f-4ada-86df-3c153fdea6b8","system_id":"levelo_inurba_marseille","lat":43.2655,"lon":5.37289,"is_reserved":false,"is_disabled":false,"rental_uris":{"android":"levelo://app?vid=897c7477-704f-4ada-86df-3c153fdea6b8","ios":"levelo://app?vid=897c7477-704f-4ada-86df-3c153fdea6b8"},"vehicle_type_id":"4","last_reported":1701288452,"current_range_meters":0,"station_id":"ce4bhg12rcd13ifvqf70","pricing_plan_id":"free"},{"bike_id":"528b783f-e77c-4c63-a690-1c24ce98a7a7","system_id":"levelo_inurba_marseille","lat":43.279742,"lon":5.38744,"is_reserved":false,"is_disabled":false,"rental_uris":{"android":"levelo://app?vid=528b783f-e77c-4c63-a690-1c24ce98a7a7","ios":"levelo://app?vid=528b783f-e77c-4c63-a690-1c24ce98a7a7"},"vehicle_type_id":"4","last_reported":1701288452,"current_range_meters":13600,"station_id":"ce4bhg12rcd13ifvqf80","pricing_plan_id":"free"},{"bike_id":"5dbe04d5-739d-4939-b5df-e692e6329413","system_id":"levelo_inurba_marseille","lat":43.265714,"lon":5.372891,"is_reserved":false,"is_disabled":false,"rental_uris":{"android":"levelo://app?vid=5dbe04d5-739d-4939-b5df-e692e6329413","ios":"levelo://app?vid=5dbe04d5-739d-4939-b5df-e692e6329413"},"vehicle_type_id":"4","last_reported":1701288452,"current_range_meters":22800,"station_id":"ce4bhg12rcd13ifvqf70","pricing_plan_id":"free"},{"bike_id":"678707f0-f18b-4526-938d-cbb54df77004","system_id":"levelo_inurba_marseille","lat":43.268155,"lon":5.3964,"is_reserved":false,"is_disabled":false,"rental_uris":{"android":"levelo://app?vid=678707f0-f18b-4526-938d-cbb54df77004","ios":"levelo://app?vid=678707f0-f18b-4526-938d-cbb54df77004"},"vehicle_type_id":"4","last_reported":1701288452,"current_range_meters":30400,"station_id":"","pricing_plan_id":"free"},{"bike_id":"0d006465-d816-465b-bbac-7bf816938765","system_id":"levelo_inurba_marseille","lat":43.317104,"lon":5.436818,"is_reserved":false,"is_disabled":false,"rental_uris":{"android":"levelo://app?vid=0d006465-d816-465b-bbac-7bf816938765","ios":"levelo://app?vid=0d006465-d816-465b-bbac-7bf816938765"},"vehicle_type_id":"4","last_reported":1701288452,"current_range_meters":23200,"station_id":"ce4bhp92rcd13ifvqhcg","pricing_plan_id":"free"},{"bike_id":"f554caff-ea27-4c9a-835c-3ef548d12f07","system_id":"levelo_inurba_marseille","lat":43.317104,"lon":5.436818,"is_reserved":false,"is_disabled":false,"rental_uris":{"android":"levelo://app?vid=f554caff-ea27-4c9a-835c-3ef548d12f07","ios":"levelo://app?vid=f554caff-ea27-4c9a-835c-3ef548d12f07"},"vehicle_type_id":"4","last_reported":1701288452,"current_range_meters":5600,"station_id":"ce4bhp92rcd13ifvqhcg","pricing_plan_id":"free"},{"bike_id":"a840c070-fc43-4b8e-aaa0-06a7984fb6f2","system_id":"levelo_inurba_marseille","lat":43.317104,"lon":5.436818,"is_reserved":false,"is_disabled":false,"rental_uris":{"android":"levelo://app?vid=a840c070-fc43-4b8e-aaa0-06a7984fb6f2","ios":"levelo://app?vid=a840c070-fc43-4b8e-aaa0-06a7984fb6f2"},"vehicle_type_id":"4","last_reported":1701288452,"current_range_meters":3600,"station_id":"ce4bhp92rcd13ifvqhcg","pricing_plan_id":"free"},{"bike_id":"1c859d8c-6823-4772-9abb-da577a635321","system_id":"levelo_inurba_marseille","lat":43.317104,"lon":5.436818,"is_reserved":false,"is_disabled":false,"rental_uris":{"android":"levelo://app?vid=1c859d8c-6823-4772-9abb-da577a635321","ios":"levelo://app?vid=1c859d8c-6823-4772-9abb-da577a635321"},"vehicle_type_id":"4","last_reported":1701288452,"current_range_meters":20400,"station_id":"ce4bhp92rcd13ifvqhcg","pricing_plan_id":"free"},{"bike_id":"99d63533-62af-4498-b6d6-41c459d84925","system_id":"levelo_inurba_marseille","lat":43.317104,"lon":5.436818,"is_reserved":false,"is_disabled":false,"rental_uris":{"android":"levelo://app?vid=99d63533-62af-4498-b6d6-41c459d84925","ios":"levelo://app?vid=99d63533-62af-4498-b6d6-41c459d84925"},"vehicle_type_id":"4","last_reported":1701288452,"current_range_meters":22400,"station_id":"ce4bhp92rcd13ifvqhcg","pricing_plan_id":"free"},{"bike_id":"3b0c0bb4-5989-4886-a288-42d1a3878a2b","system_id":"levelo_inurba_marseille","lat":43.27175,"lon":5.40987,"is_reserved":false,"is_disabled":false,"rental_uris":{"android":"levelo://app?vid=3b0c0bb4-5989-4886-a288-42d1a3878a2b","ios":"levelo://app?vid=3b0c0bb4-5989-4886-a288-42d1a3878a2b"},"vehicle_type_id":"4","last_reported":1701288452,"current_range_meters":0,"station_id":"ce4bhl12rcd13ifvqgf0","pricing_plan_id":"free"},{"bike_id":"03e17a8f-3f64-4b8c-a621-076b090d5338","system_id":"levelo_inurba_marseille","lat":43.271368,"lon":5.40928,"is_reserved":false,"is_disabled":false,"rental_uris":{"android":"levelo://app?vid=03e17a8f-3f64-4b8c-a621-076b090d5338","ios":"levelo://app?vid=03e17a8f-3f64-4b8c-a621-076b090d5338"},"vehicle_type_id":"4","last_reported":1701288452,"current_range_meters":5600,"station_id":"ce4bhl12rcd13ifvqgf0","pricing_plan_id":"free"},{"bike_id":"c27ac3f7-47c8-4e42-aa5d-a5083ed3eb8a","system_id":"levelo_inurba_marseille","lat":43.271388,"lon":5.409269,"is_reserved":false,"is_disabled":false,"rental_uris":{"android":"levelo://app?vid=c27ac3f7-47c8-4e42-aa5d-a5083ed3eb8a","ios":"levelo://app?vid=c27ac3f7-47c8-4e42-aa5d-a5083ed3eb8a"},"vehicle_type_id":"4","last_reported":1701288452,"current_range_meters":10400,"station_id":"ce4bhl12rcd13ifvqgf0","pricing_plan_id":"free"},{"bike_id":"dc772c2e-ac69-47d6-b792-dd769a980214","system_id":"levelo_inurba_marseille","lat":43.267959,"lon":5.402685,"is_reserved":false,"is_disabled":false,"rental_uris":{"android":"levelo://app?vid=dc772c2e-ac69-47d6-b792-dd769a980214","ios":"levelo://app?vid=dc772c2e-ac69-47d6-b792-dd769a980214"},"vehicle_type_id":"4","last_reported":1701288452,"current_range_meters":19200,"station_id":"ce501612rcd8frsf0b60","pricing_plan_id":"free"},{"bike_id":"0048fac2-56d5-4842-9efe-a79340b04119","system_id":"levelo_inurba_marseille","lat":43.29896,"lon":5.43665,"is_reserved":false,"is_disabled":false,"rental_uris":{"android":"levelo://app?vid=0048fac2-56d5-4842-9efe-a79340b04119","ios":"levelo://app?vid=0048fac2-56d5-4842-9efe-a79340b04119"},"vehicle_type_id":"4","last_reported":1701288452,"current_range_meters":15200,"station_id":"ce4bhpp2rcd13ifvqhfg","pricing_plan_id":"free"},{"bike_id":"2cbd4b3c-d8dd-4b95-ac76-1323d53b4182","system_id":"levelo_inurba_marseille","lat":43.281548,"lon":5.42643,"is_reserved":false,"is_disabled":false,"rental_uris":{"android":"levelo://app?vid=2cbd4b3c-d8dd-4b95-ac76-1323d53b4182","ios":"levelo://app?vid=2cbd4b3c-d8dd-4b95-ac76-1323d53b4182"},"vehicle_type_id":"4","last_reported":1701288452,"current_range_meters":31200,"station_id":"ce4bhnh2rcd13ifvqgug","pricing_plan_id":"free"},{"bike_id":"6a423f92-9b07-4949-8514-2ee167e03bcf","system_id":"levelo_inurba_marseille","lat":43.281548,"lon":5.42643,"is_reserved":false,"is_disabled":false,"rental_uris":{"android":"levelo://app?vid=6a423f92-9b07-4949-8514-2ee167e03bcf","ios":"levelo://app?vid=6a423f92-9b07-4949-8514-2ee167e03bcf"},"vehicle_type_id":"4","last_reported":1701288452,"current_range_meters":30400,"station_id":"ce4bhnh2rcd13ifvqgug","pricing_plan_id":"free"},{"bike_id":"bd71c321-451e-4db9-9483-b3fea5f99947","system_id":"levelo_inurba_marseille","lat":43.281548,"lon":5.42643,"is_reserved":false,"is_disabled":false,"rental_uris":{"android":"levelo://app?vid=bd71c321-451e-4db9-9483-b3fea5f99947","ios":"levelo://app?vid=bd71c321-451e-4db9-9483-b3fea5f99947"},"vehicle_type_id":"4","last_reported":1701288452,"current_range_meters":27600,"station_id":"ce4bhnh2rcd13ifvqgug","pricing_plan_id":"free"},{"bike_id":"5d6c08b1-f1a5-4de3-874d-829b5159ed1d","system_id":"levelo_inurba_marseille","lat":43.281548,"lon":5.42643,"is_reserved":false,"is_disabled":false,"rental_uris":{"android":"levelo://app?vid=5d6c08b1-f1a5-4de3-874d-829b5159ed1d","ios":"levelo://app?vid=5d6c08b1-f1a5-4de3-874d-829b5159ed1d"},"vehicle_type_id":"4","last_reported":1701288452,"current_range_meters":23200,"station_id":"ce4bhnh2rcd13ifvqgug","pricing_plan_id":"free"},{"bike_id":"7dd4c909-c4b2-400f-9b7a-caa808388dc4","system_id":"levelo_inurba_marseille","lat":43.281548,"lon":5.42643,"is_reserved":false,"is_disabled":false,"rental_uris":{"android":"levelo://app?vid=7dd4c909-c4b2-400f-9b7a-caa808388dc4","ios":"levelo://app?vid=7dd4c909-c4b2-400f-9b7a-caa808388dc4"},"vehicle_type_id":"4","last_reported":1701288452,"current_range_meters":12400,"station_id":"ce4bhnh2rcd13ifvqgug","pricing_plan_id":"free"},{"bike_id":"54e7103a-044b-433e-9f97-9f60b9ff0bee","system_id":"levelo_inurba_marseille","lat":43.281548,"lon":5.42643,"is_reserved":false,"is_disabled":false,"rental_uris":{"android":"levelo://app?vid=54e7103a-044b-433e-9f97-9f60b9ff0bee","ios":"levelo://app?vid=54e7103a-044b-433e-9f97-9f60b9ff0bee"},"vehicle_type_id":"4","last_reported":1701288452,"current_range_meters":23600,"station_id":"ce4bhnh2rcd13ifvqgug","pricing_plan_id":"free"},{"bike_id":"85158950-5b86-488b-bdb1-726b8dfbb936","system_id":"levelo_inurba_marseille","lat":43.281548,"lon":5.42643,"is_reserved":false,"is_disabled":false,"rental_uris":{"android":"levelo://app?vid=85158950-5b86-488b-bdb1-726b8dfbb936","ios":"levelo://app?vid=85158950-5b86-488b-bdb1-726b8dfbb936"},"vehicle_type_id":"4","last_reported":1701288452,"current_range_meters":15600,"station_id":"ce4bhnh2rcd13ifvqgug","pricing_plan_id":"free"},{"bike_id":"00d1bf49-5f2f-40eb-ba1c-6d61ac984990","system_id":"levelo_inurba_marseille","lat":43.281548,"lon":5.42643,"is_reserved":false,"is_disabled":false,"rental_uris":{"android":"levelo://app?vid=00d1bf49-5f2f-40eb-ba1c-6d61ac984990","ios":"levelo://app?vid=00d1bf49-5f2f-40eb-ba1c-6d61ac984990"},"vehicle_type_id":"4","last_reported":1701288452,"current_range_meters":30000,"station_id":"ce4bhnh2rcd13ifvqgug","pricing_plan_id":"free"},{"bike_id":"7baa4dae-5ff5-45bd-9045-4ec4654b3982","system_id":"levelo_inurba_marseille","lat":43.2607,"lon":5.393983,"is_reserved":false,"is_disabled":false,"rental_uris":{"android":"levelo://app?vid=7baa4dae-5ff5-45bd-9045-4ec4654b3982","ios":"levelo://app?vid=7baa4dae-5ff5-45bd-9045-4ec4654b3982"},"vehicle_type_id":"4","last_reported":1701288452,"current_range_meters":29200,"station_id":"ce4bhh92rcd13ifvqfj0","pricing_plan_id":"free"},{"bike_id":"b74473d7-0b92-45e6-9d92-59c5340adf39","system_id":"levelo_inurba_marseille","lat":43.25579,"lon":5.38221,"is_reserved":false,"is_disabled":false,"rental_uris":{"android":"levelo://app?vid=b74473d7-0b92-45e6-9d92-59c5340adf39","ios":"levelo://app?vid=b74473d7-0b92-45e6-9d92-59c5340adf39"},"vehicle_type_id":"4","last_reported":1701288452,"current_range_meters":14800,"station_id":"ce4bhih2rcd13ifvqfs0","pricing_plan_id":"free"},{"bike_id":"ecf17c06-f85c-45b3-88f9-e573b3bb3c29","system_id":"levelo_inurba_marseille","lat":43.258224,"lon":5.394369,"is_reserved":false,"is_disabled":false,"rental_uris":{"android":"levelo://app?vid=ecf17c06-f85c-45b3-88f9-e573b3bb3c29","ios":"levelo://app?vid=ecf17c06-f85c-45b3-88f9-e573b3bb3c29"},"vehicle_type_id":"4","last_reported":1701288452,"current_range_meters":30000,"station_id":"ce4bhip2rcd13ifvqft0","pricing_plan_id":"free"},{"bike_id":"3b0f699e-2b6d-4da8-9d03-bd57bb6bc7ad","system_id":"levelo_inurba_marseille","lat":43.258224,"lon":5.394369,"is_reserved":false,"is_disabled":false,"rental_uris":{"android":"levelo://app?vid=3b0f699e-2b6d-4da8-9d03-bd57bb6bc7ad","ios":"levelo://app?vid=3b0f699e-2b6d-4da8-9d03-bd57bb6bc7ad"},"vehicle_type_id":"4","last_reported":1701288452,"current_range_meters":21200,"station_id":"ce4bhip2rcd13ifvqft0","pricing_plan_id":"free"},{"bike_id":"003084a1-cb56-44fd-99f6-4389aa54116c","system_id":"levelo_inurba_marseille","lat":43.258224,"lon":5.394369,"is_reserved":false,"is_disabled":false,"rental_uris":{"android":"levelo://app?vid=003084a1-cb56-44fd-99f6-4389aa54116c","ios":"levelo://app?vid=003084a1-cb56-44fd-99f6-4389aa54116c"},"vehicle_type_id":"4","last_reported":1701288452,"current_range_meters":12400,"station_id":"ce4bhip2rcd13ifvqft0","pricing_plan_id":"free"},{"bike_id":"9b44a643-1166-4c95-9594-56d6a6b9e969","system_id":"levelo_inurba_marseille","lat":43.258224,"lon":5.394369,"is_reserved":false,"is_disabled":false,"rental_uris":{"android":"levelo://app?vid=9b44a643-1166-4c95-9594-56d6a6b9e969","ios":"levelo://app?vid=9b44a643-1166-4c95-9594-56d6a6b9e969"},"vehicle_type_id":"4","last_reported":1701288452,"current_range_meters":28000,"station_id":"ce4bhip2rcd13ifvqft0","pricing_plan_id":"free"},{"bike_id":"4e0bd320-2cd9-4caa-8a11-234b11e8d880","system_id":"levelo_inurba_marseille","lat":43.254947,"lon":5.376454,"is_reserved":false,"is_disabled":false,"rental_uris":{"android":"levelo://app?vid=4e0bd320-2cd9-4caa-8a11-234b11e8d880","ios":"levelo://app?vid=4e0bd320-2cd9-4caa-8a11-234b11e8d880"},"vehicle_type_id":"4","last_reported":1701288452,"current_range_meters":2000,"station_id":"ce4bhh12rcd13ifvqff0","pricing_plan_id":"free"},{"bike_id":"19029ed7-bf97-4f4d-a8c2-7d27e70ef7f7","system_id":"levelo_inurba_marseille","lat":43.270721,"lon":5.422764,"is_reserved":false,"is_disabled":false,"rental_uris":{"android":"levelo://app?vid=19029ed7-bf97-4f4d-a8c2-7d27e70ef7f7","ios":"levelo://app?vid=19029ed7-bf97-4f4d-a8c2-7d27e70ef7f7"},"vehicle_type_id":"4","last_reported":1701288452,"current_range_meters":30000,"station_id":"ce4bhk92rcd13ifvqgb0","pricing_plan_id":"free"},{"bike_id":"ccee216e-5faf-4999-b768-7a0903d5fe3e","system_id":"levelo_inurba_marseille","lat":43.259013,"lon":5.409301,"is_reserved":false,"is_disabled":false,"rental_uris":{"android":"levelo://app?vid=ccee216e-5faf-4999-b768-7a0903d5fe3e","ios":"levelo://app?vid=ccee216e-5faf-4999-b768-7a0903d5fe3e"},"vehicle_type_id":"4","last_reported":1701288452,"current_range_meters":6000,"station_id":"ce4bhm92rcd13ifvqglg","pricing_plan_id":"free"},{"bike_id":"916224f8-83b6-4e7c-8933-ae5fb7bcd879","system_id":"levelo_inurba_marseille","lat":43.257079,"lon":5.411051,"is_reserved":false,"is_disabled":false,"rental_uris":{"android":"levelo://app?vid=916224f8-83b6-4e7c-8933-ae5fb7bcd879","ios":"levelo://app?vid=916224f8-83b6-4e7c-8933-ae5fb7bcd879"},"vehicle_type_id":"4","last_reported":1701288452,"current_range_meters":28800,"station_id":"ce4bhkp2rcd13ifvqgd0","pricing_plan_id":"free"},{"bike_id":"89a99e0e-84f9-4cb4-9aa6-53df93c20d13","system_id":"levelo_inurba_marseille","lat":43.2572,"lon":5.41115,"is_reserved":false,"is_disabled":false,"rental_uris":{"android":"levelo://app?vid=89a99e0e-84f9-4cb4-9aa6-53df93c20d13","ios":"levelo://app?vid=89a99e0e-84f9-4cb4-9aa6-53df93c20d13"},"vehicle_type_id":"4","last_reported":1701288452,"current_range_meters":21200,"station_id":"ce4bhkp2rcd13ifvqgd0","pricing_plan_id":"free"},{"bike_id":"9509c40c-2a9f-4895-b657-250555260673","system_id":"levelo_inurba_marseille","lat":43.2479,"lon":5.374457,"is_reserved":false,"is_disabled":false,"rental_uris":{"android":"levelo://app?vid=9509c40c-2a9f-4895-b657-250555260673","ios":"levelo://app?vid=9509c40c-2a9f-4895-b657-250555260673"},"vehicle_type_id":"4","last_reported":1701288452,"current_range_meters":8000,"station_id":"ce4bhgh2rcd13ifvqfb0","pricing_plan_id":"free"},{"bike_id":"4967ab4e-a884-4957-bdb9-f89f823e0acd","system_id":"levelo_inurba_marseille","lat":43.25092,"lon":5.3952,"is_reserved":false,"is_disabled":false,"rental_uris":{"android":"levelo://app?vid=4967ab4e-a884-4957-bdb9-f89f823e0acd","ios":"levelo://app?vid=4967ab4e-a884-4957-bdb9-f89f823e0acd"},"vehicle_type_id":"4","last_reported":1701288452,"current_range_meters":30000,"station_id":"ce4bhm12rcd13ifvqgkg","pricing_plan_id":"free"},{"bike_id":"1ee6ccac-fa0e-40cb-ad63-a576623c103c","system_id":"levelo_inurba_marseille","lat":43.250966,"lon":5.395186,"is_reserved":false,"is_disabled":false,"rental_uris":{"android":"levelo://app?vid=1ee6ccac-fa0e-40cb-ad63-a576623c103c","ios":"levelo://app?vid=1ee6ccac-fa0e-40cb-ad63-a576623c103c"},"vehicle_type_id":"4","last_reported":1701288452,"current_range_meters":31200,"station_id":"ce4bhm12rcd13ifvqgkg","pricing_plan_id":"free"},{"bike_id":"9228a6fe-c5e2-45f4-a167-7f60ff317749","system_id":"levelo_inurba_marseille","lat":43.250966,"lon":5.395186,"is_reserved":false,"is_disabled":false,"rental_uris":{"android":"levelo://app?vid=9228a6fe-c5e2-45f4-a167-7f60ff317749","ios":"levelo://app?vid=9228a6fe-c5e2-45f4-a167-7f60ff317749"},"vehicle_type_id":"4","last_reported":1701288452,"current_range_meters":28000,"station_id":"ce4bhm12rcd13ifvqgkg","pricing_plan_id":"free"},{"bike_id":"987ff51d-b31d-4176-9915-e7c653778fdc","system_id":"levelo_inurba_marseille","lat":43.250966,"lon":5.395186,"is_reserved":false,"is_disabled":false,"rental_uris":{"android":"levelo://app?vid=987ff51d-b31d-4176-9915-e7c653778fdc","ios":"levelo://app?vid=987ff51d-b31d-4176-9915-e7c653778fdc"},"vehicle_type_id":"4","last_reported":1701288452,"current_range_meters":9200,"station_id":"ce4bhm12rcd13ifvqgkg","pricing_plan_id":"free"},{"bike_id":"f2e7ea44-1802-445c-b14e-d15b1d57b78d","system_id":"levelo_inurba_marseille","lat":43.24693,"lon":5.382096,"is_reserved":false,"is_disabled":false,"rental_uris":{"android":"levelo://app?vid=f2e7ea44-1802-445c-b14e-d15b1d57b78d","ios":"levelo://app?vid=f2e7ea44-1802-445c-b14e-d15b1d57b78d"},"vehicle_type_id":"4","last_reported":1701288452,"current_range_meters":10800,"station_id":"ce4bhih2rcd13ifvqfr0","pricing_plan_id":"free"},{"bike_id":"5ad1a78d-ff92-4702-80f1-f578973a3ab4","system_id":"levelo_inurba_marseille","lat":43.25102,"lon":5.403214,"is_reserved":false,"is_disabled":false,"rental_uris":{"android":"levelo://app?vid=5ad1a78d-ff92-4702-80f1-f578973a3ab4","ios":"levelo://app?vid=5ad1a78d-ff92-4702-80f1-f578973a3ab4"},"vehicle_type_id":"4","last_reported":1701288452,"current_range_meters":16400,"station_id":"ce4bhlh2rcd13ifvqgig","pricing_plan_id":"free"},{"bike_id":"5911d145-f8c8-44e9-afa8-bf232365c635","system_id":"levelo_inurba_marseille","lat":43.25102,"lon":5.403214,"is_reserved":false,"is_disabled":false,"rental_uris":{"android":"levelo://app?vid=5911d145-f8c8-44e9-afa8-bf232365c635","ios":"levelo://app?vid=5911d145-f8c8-44e9-afa8-bf232365c635"},"vehicle_type_id":"4","last_reported":1701288452,"current_range_meters":11200,"station_id":"ce4bhlh2rcd13ifvqgig","pricing_plan_id":"free"},{"bike_id":"524470ea-9b23-4c47-872d-e8b62210fee3","system_id":"levelo_inurba_marseille","lat":43.25102,"lon":5.403214,"is_reserved":false,"is_disabled":false,"rental_uris":{"android":"levelo://app?vid=524470ea-9b23-4c47-872d-e8b62210fee3","ios":"levelo://app?vid=524470ea-9b23-4c47-872d-e8b62210fee3"},"vehicle_type_id":"4","last_reported":1701288452,"current_range_meters":27200,"station_id":"ce4bhlh2rcd13ifvqgig","pricing_plan_id":"free"},{"bike_id":"f639acdd-7efb-492c-8765-ce9d356aeefc","system_id":"levelo_inurba_marseille","lat":43.24658,"lon":5.38893,"is_reserved":false,"is_disabled":false,"rental_uris":{"android":"levelo://app?vid=f639acdd-7efb-492c-8765-ce9d356aeefc","ios":"levelo://app?vid=f639acdd-7efb-492c-8765-ce9d356aeefc"},"vehicle_type_id":"4","last_reported":1701288452,"current_range_meters":4400,"station_id":"ce4bhg12rcd13ifvqf60","pricing_plan_id":"free"},{"bike_id":"e3d09a6b-46f8-4049-9245-e5b95a6446e7","system_id":"levelo_inurba_marseille","lat":43.246461,"lon":5.389014,"is_reserved":false,"is_disabled":false,"rental_uris":{"android":"levelo://app?vid=e3d09a6b-46f8-4049-9245-e5b95a6446e7","ios":"levelo://app?vid=e3d09a6b-46f8-4049-9245-e5b95a6446e7"},"vehicle_type_id":"4","last_reported":1701288452,"current_range_meters":29200,"station_id":"ce4bhg12rcd13ifvqf60","pricing_plan_id":"free"},{"bike_id":"515f5ba1-12e1-4db2-9fd8-4bcf104b3778","system_id":"levelo_inurba_marseille","lat":43.246467,"lon":5.388984,"is_reserved":false,"is_disabled":false,"rental_uris":{"android":"levelo://app?vid=515f5ba1-12e1-4db2-9fd8-4bcf104b3778","ios":"levelo://app?vid=515f5ba1-12e1-4db2-9fd8-4bcf104b3778"},"vehicle_type_id":"4","last_reported":1701288452,"current_range_meters":29200,"station_id":"ce4bhg12rcd13ifvqf60","pricing_plan_id":"free"},{"bike_id":"d24d75ab-5b89-4fed-aec9-cdbe284f48f5","system_id":"levelo_inurba_marseille","lat":43.246467,"lon":5.388984,"is_reserved":false,"is_disabled":false,"rental_uris":{"android":"levelo://app?vid=d24d75ab-5b89-4fed-aec9-cdbe284f48f5","ios":"levelo://app?vid=d24d75ab-5b89-4fed-aec9-cdbe284f48f5"},"vehicle_type_id":"4","last_reported":1701288452,"current_range_meters":18400,"station_id":"ce4bhg12rcd13ifvqf60","pricing_plan_id":"free"},{"bike_id":"e92ab474-a5bd-471e-9e22-08fc877b9fc4","system_id":"levelo_inurba_marseille","lat":43.243884,"lon":5.370736,"is_reserved":false,"is_disabled":false,"rental_uris":{"android":"levelo://app?vid=e92ab474-a5bd-471e-9e22-08fc877b9fc4","ios":"levelo://app?vid=e92ab474-a5bd-471e-9e22-08fc877b9fc4"},"vehicle_type_id":"4","last_reported":1701288452,"current_range_meters":20800,"station_id":"ce4bhhh2rcd13ifvqfk0","pricing_plan_id":"free"},{"bike_id":"285dece3-9d26-4a73-9d21-5686695f9c74","system_id":"levelo_inurba_marseille","lat":43.24382,"lon":5.37052,"is_reserved":false,"is_disabled":false,"rental_uris":{"android":"levelo://app?vid=285dece3-9d26-4a73-9d21-5686695f9c74","ios":"levelo://app?vid=285dece3-9d26-4a73-9d21-5686695f9c74"},"vehicle_type_id":"4","last_reported":1701288452,"current_range_meters":6000,"station_id":"ce4bhhh2rcd13ifvqfk0","pricing_plan_id":"free"},{"bike_id":"bae450d4-0dd8-4937-a099-78153b6b9a44","system_id":"levelo_inurba_marseille","lat":43.2455,"lon":5.39523,"is_reserved":false,"is_disabled":false,"rental_uris":{"android":"levelo://app?vid=bae450d4-0dd8-4937-a099-78153b6b9a44","ios":"levelo://app?vid=bae450d4-0dd8-4937-a099-78153b6b9a44"},"vehicle_type_id":"4","last_reported":1701288452,"current_range_meters":0,"station_id":"ce4bhlp2rcd13ifvqgjg","pricing_plan_id":"free"},{"bike_id":"c25e2f8e-e410-4de7-afb3-54cc9c79ad32","system_id":"levelo_inurba_marseille","lat":43.245581,"lon":5.395069,"is_reserved":false,"is_disabled":false,"rental_uris":{"android":"levelo://app?vid=c25e2f8e-e410-4de7-afb3-54cc9c79ad32","ios":"levelo://app?vid=c25e2f8e-e410-4de7-afb3-54cc9c79ad32"},"vehicle_type_id":"4","last_reported":1701288452,"current_range_meters":9200,"station_id":"ce4bhlp2rcd13ifvqgjg","pricing_plan_id":"free"},{"bike_id":"89a262b1-744b-4962-bf8c-ec45ae71b53d","system_id":"levelo_inurba_marseille","lat":43.24076,"lon":5.37759,"is_reserved":false,"is_disabled":false,"rental_uris":{"android":"levelo://app?vid=89a262b1-744b-4962-bf8c-ec45ae71b53d","ios":"levelo://app?vid=89a262b1-744b-4962-bf8c-ec45ae71b53d"},"vehicle_type_id":"4","last_reported":1701288452,"current_range_meters":10000,"station_id":"ce4bhnp2rcd13ifvqgvg","pricing_plan_id":"free"},{"bike_id":"72cddfac-add6-49c8-8c38-8b67a598d05b","system_id":"levelo_inurba_marseille","lat":43.24073,"lon":5.37764,"is_reserved":false,"is_disabled":false,"rental_uris":{"android":"levelo://app?vid=72cddfac-add6-49c8-8c38-8b67a598d05b","ios":"levelo://app?vid=72cddfac-add6-49c8-8c38-8b67a598d05b"},"vehicle_type_id":"4","last_reported":1701288452,"current_range_meters":20400,"station_id":"ce4bhnp2rcd13ifvqgvg","pricing_plan_id":"free"},{"bike_id":"a4f78971-c959-4252-a3c2-be5c31a13a53","system_id":"levelo_inurba_marseille","lat":43.240623,"lon":5.377642,"is_reserved":false,"is_disabled":false,"rental_uris":{"android":"levelo://app?vid=a4f78971-c959-4252-a3c2-be5c31a13a53","ios":"levelo://app?vid=a4f78971-c959-4252-a3c2-be5c31a13a53"},"vehicle_type_id":"4","last_reported":1701288452,"current_range_meters":26800,"station_id":"ce4bhnp2rcd13ifvqgvg","pricing_plan_id":"free"},{"bike_id":"929d1267-85aa-433e-bcdf-d579ff90976b","system_id":"levelo_inurba_marseille","lat":43.24725,"lon":5.41216,"is_reserved":false,"is_disabled":false,"rental_uris":{"android":"levelo://app?vid=929d1267-85aa-433e-bcdf-d579ff90976b","ios":"levelo://app?vid=929d1267-85aa-433e-bcdf-d579ff90976b"},"vehicle_type_id":"4","last_reported":1701288452,"current_range_meters":8800,"station_id":"","pricing_plan_id":"free"},{"bike_id":"5823558f-5e45-4b8f-8bb1-5079aaae37c9","system_id":"levelo_inurba_marseille","lat":43.231923,"lon":5.355545,"is_reserved":false,"is_disabled":false,"rental_uris":{"android":"levelo://app?vid=5823558f-5e45-4b8f-8bb1-5079aaae37c9","ios":"levelo://app?vid=5823558f-5e45-4b8f-8bb1-5079aaae37c9"},"vehicle_type_id":"4","last_reported":1701288452,"current_range_meters":16800,"station_id":"ce4bhu92rcd13ifvqi70","pricing_plan_id":"free"},{"bike_id":"be42eec5-4aaf-4f1c-8445-219a8901db92","system_id":"levelo_inurba_marseille","lat":43.231923,"lon":5.355545,"is_reserved":false,"is_disabled":false,"rental_uris":{"android":"levelo://app?vid=be42eec5-4aaf-4f1c-8445-219a8901db92","ios":"levelo://app?vid=be42eec5-4aaf-4f1c-8445-219a8901db92"},"vehicle_type_id":"4","last_reported":1701288452,"current_range_meters":4000,"station_id":"ce4bhu92rcd13ifvqi70","pricing_plan_id":"free"},{"bike_id":"26cd3036-9e31-4635-8449-e01c086f6041","system_id":"levelo_inurba_marseille","lat":43.231923,"lon":5.355545,"is_reserved":false,"is_disabled":false,"rental_uris":{"android":"levelo://app?vid=26cd3036-9e31-4635-8449-e01c086f6041","ios":"levelo://app?vid=26cd3036-9e31-4635-8449-e01c086f6041"},"vehicle_type_id":"4","last_reported":1701288452,"current_range_meters":21600,"station_id":"ce4bhu92rcd13ifvqi70","pricing_plan_id":"free"},{"bike_id":"b37cf8bc-ef87-4960-b38c-3279b894369f","system_id":"levelo_inurba_marseille","lat":43.231923,"lon":5.355545,"is_reserved":false,"is_disabled":false,"rental_uris":{"android":"levelo://app?vid=b37cf8bc-ef87-4960-b38c-3279b894369f","ios":"levelo://app?vid=b37cf8bc-ef87-4960-b38c-3279b894369f"},"vehicle_type_id":"4","last_reported":1701288452,"current_range_meters":31200,"station_id":"ce4bhu92rcd13ifvqi70","pricing_plan_id":"free"},{"bike_id":"3bbe1fd5-b7d2-484c-969b-f57a381950c3","system_id":"levelo_inurba_marseille","lat":43.231923,"lon":5.355545,"is_reserved":false,"is_disabled":false,"rental_uris":{"android":"levelo://app?vid=3bbe1fd5-b7d2-484c-969b-f57a381950c3","ios":"levelo://app?vid=3bbe1fd5-b7d2-484c-969b-f57a381950c3"},"vehicle_type_id":"4","last_reported":1701288452,"current_range_meters":14000,"station_id":"ce4bhu92rcd13ifvqi70","pricing_plan_id":"free"},{"bike_id":"d1703505-b125-4a98-a807-11024241bc04","system_id":"levelo_inurba_marseille","lat":43.231923,"lon":5.355545,"is_reserved":false,"is_disabled":false,"rental_uris":{"android":"levelo://app?vid=d1703505-b125-4a98-a807-11024241bc04","ios":"levelo://app?vid=d1703505-b125-4a98-a807-11024241bc04"},"vehicle_type_id":"4","last_reported":1701288452,"current_range_meters":31200,"station_id":"ce4bhu92rcd13ifvqi70","pricing_plan_id":"free"},{"bike_id":"6a15bd61-65f5-44c0-9706-42eeb78c349c","system_id":"levelo_inurba_marseille","lat":43.231919,"lon":5.355532,"is_reserved":false,"is_disabled":false,"rental_uris":{"android":"levelo://app?vid=6a15bd61-65f5-44c0-9706-42eeb78c349c","ios":"levelo://app?vid=6a15bd61-65f5-44c0-9706-42eeb78c349c"},"vehicle_type_id":"4","last_reported":1701288452,"current_range_meters":31200,"station_id":"ce4bhu92rcd13ifvqi70","pricing_plan_id":"free"},{"bike_id":"675c970c-c0cf-4822-a023-175273da4489","system_id":"levelo_inurba_marseille","lat":43.231923,"lon":5.355545,"is_reserved":false,"is_disabled":false,"rental_uris":{"android":"levelo://app?vid=675c970c-c0cf-4822-a023-175273da4489","ios":"levelo://app?vid=675c970c-c0cf-4822-a023-175273da4489"},"vehicle_type_id":"4","last_reported":1701288452,"current_range_meters":10400,"station_id":"ce4bhu92rcd13ifvqi70","pricing_plan_id":"free"},{"bike_id":"c0c7fee1-5737-446f-a765-fa607e9e3e85","system_id":"levelo_inurba_marseille","lat":43.231793,"lon":5.400044,"is_reserved":false,"is_disabled":false,"rental_uris":{"android":"levelo://app?vid=c0c7fee1-5737-446f-a765-fa607e9e3e85","ios":"levelo://app?vid=c0c7fee1-5737-446f-a765-fa607e9e3e85"},"vehicle_type_id":"4","last_reported":1701288452,"current_range_meters":20000,"station_id":"ce4bhn12rcd13ifvqgqg","pricing_plan_id":"free"},{"bike_id":"aa92b96d-64d8-4c3b-a126-5fd9d905cd28","system_id":"levelo_inurba_marseille","lat":43.231793,"lon":5.400044,"is_reserved":false,"is_disabled":false,"rental_uris":{"android":"levelo://app?vid=aa92b96d-64d8-4c3b-a126-5fd9d905cd28","ios":"levelo://app?vid=aa92b96d-64d8-4c3b-a126-5fd9d905cd28"},"vehicle_type_id":"4","last_reported":1701288452,"current_range_meters":31200,"station_id":"ce4bhn12rcd13ifvqgqg","pricing_plan_id":"free"},{"bike_id":"5c24af45-4ee2-4093-93e4-b4426fd403c2","system_id":"levelo_inurba_marseille","lat":43.231794,"lon":5.400052,"is_reserved":false,"is_disabled":false,"rental_uris":{"android":"levelo://app?vid=5c24af45-4ee2-4093-93e4-b4426fd403c2","ios":"levelo://app?vid=5c24af45-4ee2-4093-93e4-b4426fd403c2"},"vehicle_type_id":"4","last_reported":1701288452,"current_range_meters":28800,"station_id":"ce4bhn12rcd13ifvqgqg","pricing_plan_id":"free"},{"bike_id":"017c7298-0a0b-4b52-accd-1cfa244cac68","system_id":"levelo_inurba_marseille","lat":43.231793,"lon":5.400044,"is_reserved":false,"is_disabled":false,"rental_uris":{"android":"levelo://app?vid=017c7298-0a0b-4b52-accd-1cfa244cac68","ios":"levelo://app?vid=017c7298-0a0b-4b52-accd-1cfa244cac68"},