{"last_updated":1698591954,"ttl":30,"version":"2.2","data":{"bikes":[{"bike_id":"b98199d2-bf65-43cb-ae27-329b3fbc2828","system_id":"levelo_inurba_marseille","lat":43.31341,"lon":5.367098,"is_reserved":false,"is_disabled":false,"rental_uris":{"android":"levelo://app?vid=b98199d2-bf65-43cb-ae27-329b3fbc2828","ios":"levelo://app?vid=b98199d2-bf65-43cb-ae27-329b3fbc2828"},"vehicle_type_id":"4","last_reported":1698591954,"current_range_meters":26400,"station_id":"ce4bgr92rcd13ifvqc6g","pricing_plan_id":"free"},{"bike_id":"e6f13275-b733-4ea4-a1d3-36db1e1fafc9","system_id":"levelo_inurba_marseille","lat":43.312239,"lon":5.368562,"is_reserved":false,"is_disabled":false,"rental_uris":{"android":"levelo://app?vid=e6f13275-b733-4ea4-a1d3-36db1e1fafc9","ios":"levelo://app?vid=e6f13275-b733-4ea4-a1d3-36db1e1fafc9"},"vehicle_type_id":"4","last_reported":1698591954,"current_range_meters":19200,"station_id":"ce4bgl92rcd13ifvqbq0","pricing_plan_id":"free"},{"bike_id":"eeb14cab-b9de-47e0-ad17-b5b543d16e82","system_id":"levelo_inurba_marseille","lat":43.31235,"lon":5.36844,"is_reserved":false,"is_disabled":false,"rental_uris":{"android":"levelo://app?vid=eeb14cab-b9de-47e0-ad17-b5b543d16e82","ios":"levelo://app?vid=eeb14cab-b9de-47e0-ad17-b5b543d16e82"},"vehicle_type_id":"4","last_reported":1698591954,"current_range_meters":14800,"station_id":"ce4bgl92rcd13ifvqbq0","pricing_plan_id":"free"},{"bike_id":"7b9b73e4-465c-48a1-b774-834da6637e69","system_id":"levelo_inurba_marseille","lat":43.31225,"lon":5.36858,"is_reserved":false,"is_disabled":false,"rental_uris":{"android":"levelo://app?vid=7b9b73e4-465c-48a1-b774-834da6637e69","ios":"levelo://app?vid=7b9b73e4-465c-48a1-b774-834da6637e69"},"vehicle_type_id":"4","last_reported":1698591954,"current_range_meters":29200,"station_id":"ce4bgl92rcd13ifvqbq0","pricing_plan_id":"free"},{"bike_id":"04102567-4af9-4a03-a151-95eecf38847b","system_id":"levelo_inurba_marseille","lat":43.312239,"lon":5.368562,"is_reserved":false,"is_disabled":false,"rental_uris":{"android":"levelo://app?vid=04102567-4af9-4a03-a151-95eecf38847b","ios":"levelo://app?vid=04102567-4af9-4a03-a151-95eecf38847b"},"vehicle_type_id":"4","last_reported":1698591954,"current_range_meters":27600,"station_id":"ce4bgl92rcd13ifvqbq0","pricing_plan_id":"free"},{"bike_id":"6b46eb9a-cb30-4520-a423-9b9ed03e9e53","system_id":"levelo_inurba_marseille","lat":43.312239,"lon":5.368562,"is_reserved":false,"is_disabled":false,"rental_uris":{"android":"levelo://app?vid=6b46eb9a-cb30-4520-a423-9b9ed03e9e53","ios":"levelo://app?vid=6b46eb9a-cb30-4520-a423-9b9ed03e9e53"},"vehicle_type_id":"4","last_reported":1698591954,"current_range_meters":23600,"station_id":"ce4bgl92rcd13ifvqbq0","pricing_plan_id":"free"},{"bike_id":"b1cb48cb-22d4-4cd4-97b0-038c1cf723b7","system_id":"levelo_inurba_marseille","lat":43.315186,"lon":5.371432,"is_reserved":false,"is_disabled":false,"rental_uris":{"android":"levelo://app?vid=b1cb48cb-22d4-4cd4-97b0-038c1cf723b7","ios":"levelo://app?vid=b1cb48cb-22d4-4cd4-97b0-038c1cf723b7"},"vehicle_type_id":"4","last_reported":1698591954,"current_range_meters":15200,"station_id":"","pricing_plan_id":"free"},{"bike_id":"ffa3171c-f29f-4b91-a1bd-61a39da4b471","system_id":"levelo_inurba_marseille","lat":43.31229,"lon":5.37643,"is_reserved":false,"is_disabled":false,"rental_uris":{"android":"levelo://app?vid=ffa3171c-f29f-4b91-a1bd-61a39da4b471","ios":"levelo://app?vid=ffa3171c-f29f-4b91-a1bd-61a39da4b471"},"vehicle_type_id":"4","last_reported":1698591954,"current_range_meters":25600,"station_id":"","pricing_plan_id":"free"},{"bike_id":"89b7efd8-25bd-4d3f-8ced-42d1d14ca939","system_id":"levelo_inurba_marseille","lat":43.305596,"lon":5.365986,"is_reserved":false,"is_disabled":false,"rental_uris":{"android":"levelo://app?vid=89b7efd8-25bd-4d3f-8ced-42d1d14ca939","ios":"levelo://app?vid=89b7efd8-25bd-4d3f-8ced-42d1d14ca939"},"vehicle_type_id":"4","last_reported":1698591954,"current_range_meters":18400,"station_id":"ce4bgs12rcd13ifvqcag","pricing_plan_id":"free"},{"bike_id":"f252b071-dddd-4e5f-ad07-506846af6d1a","system_id":"levelo_inurba_marseille","lat":43.30549,"lon":5.36539,"is_reserved":false,"is_disabled":false,"rental_uris":{"android":"levelo://app?vid=f252b071-dddd-4e5f-ad07-506846af6d1a","ios":"levelo://app?vid=f252b071-dddd-4e5f-ad07-506846af6d1a"},"vehicle_type_id":"4","last_reported":1698591954,"current_range_meters":14400,"station_id":"ce4bgs12rcd13ifvqcag","pricing_plan_id":"free"},{"bike_id":"ab5a0bbc-71f7-455b-a3ff-28c5e249f832","system_id":"levelo_inurba_marseille","lat":43.305312,"lon":5.36718,"is_reserved":false,"is_disabled":false,"rental_uris":{"android":"levelo://app?vid=ab5a0bbc-71f7-455b-a3ff-28c5e249f832","ios":"levelo://app?vid=ab5a0bbc-71f7-455b-a3ff-28c5e249f832"},"vehicle_type_id":"4","last_reported":1698591954,"current_range_meters":0,"station_id":"ce4bgrp2rcd13ifvqc9g","pricing_plan_id":"free"},{"bike_id":"ea6e1fec-c744-452e-a48b-195057e098e7","system_id":"levelo_inurba_marseille","lat":43.30539,"lon":5.3652,"is_reserved":false,"is_disabled":false,"rental_uris":{"android":"levelo://app?vid=ea6e1fec-c744-452e-a48b-195057e098e7","ios":"levelo://app?vid=ea6e1fec-c744-452e-a48b-195057e098e7"},"vehicle_type_id":"4","last_reported":1698591954,"current_range_meters":0,"station_id":"ce4bgs12rcd13ifvqcag","pricing_plan_id":"free"},{"bike_id":"c3548fae-8ad7-4347-87f1-0952339d7e95","system_id":"levelo_inurba_marseille","lat":43.30603,"lon":5.37233,"is_reserved":false,"is_disabled":false,"rental_uris":{"android":"levelo://app?vid=c3548fae-8ad7-4347-87f1-0952339d7e95","ios":"levelo://app?vid=c3548fae-8ad7-4347-87f1-0952339d7e95"},"vehicle_type_id":"4","last_reported":1698591954,"current_range_meters":30400,"station_id":"ce4bgqh2rcd13ifvqc4g","pricing_plan_id":"free"},{"bike_id":"c8743d09-6f28-4aac-91cc-2f9facaa9f44","system_id":"levelo_inurba_marseille","lat":43.315372,"lon":5.380323,"is_reserved":false,"is_disabled":false,"rental_uris":{"android":"levelo://app?vid=c8743d09-6f28-4aac-91cc-2f9facaa9f44","ios":"levelo://app?vid=c8743d09-6f28-4aac-91cc-2f9facaa9f44"},"vehicle_type_id":"4","last_reported":1698591954,"current_range_meters":0,"station_id":"ce4bhsp2rcd13ifvqi50","pricing_plan_id":"free"},{"bike_id":"76ccd7e9-5a84-4823-97ba-75798160fcd4","system_id":"levelo_inurba_marseille","lat":43.315514,"lon":5.380477,"is_reserved":false,"is_disabled":false,"rental_uris":{"android":"levelo://app?vid=76ccd7e9-5a84-4823-97ba-75798160fcd4","ios":"levelo://app?vid=76ccd7e9-5a84-4823-97ba-75798160fcd4"},"vehicle_type_id":"4","last_reported":1698591954,"current_range_meters":21600,"station_id":"ce4bhsp2rcd13ifvqi50","pricing_plan_id":"free"},{"bike_id":"03c4a15b-f8b2-4cc8-8208-f33e3d642683","system_id":"levelo_inurba_marseille","lat":43.301939,"lon":5.366286,"is_reserved":false,"is_disabled":false,"rental_uris":{"android":"levelo://app?vid=03c4a15b-f8b2-4cc8-8208-f33e3d642683","ios":"levelo://app?vid=03c4a15b-f8b2-4cc8-8208-f33e3d642683"},"vehicle_type_id":"4","last_reported":1698591954,"current_range_meters":22000,"station_id":"ce4bgrh2rcd13ifvqc8g","pricing_plan_id":"free"},{"bike_id":"d0c0d454-297b-47ca-b0cd-4819935799d0","system_id":"levelo_inurba_marseille","lat":43.301939,"lon":5.366286,"is_reserved":false,"is_disabled":false,"rental_uris":{"android":"levelo://app?vid=d0c0d454-297b-47ca-b0cd-4819935799d0","ios":"levelo://app?vid=d0c0d454-297b-47ca-b0cd-4819935799d0"},"vehicle_type_id":"4","last_reported":1698591954,"current_range_meters":24000,"station_id":"ce4bgrh2rcd13ifvqc8g","pricing_plan_id":"free"},{"bike_id":"4477084d-efeb-4b5b-b8b9-9711d64db7b3","system_id":"levelo_inurba_marseille","lat":43.32231,"lon":5.37562,"is_reserved":false,"is_disabled":false,"rental_uris":{"android":"levelo://app?vid=4477084d-efeb-4b5b-b8b9-9711d64db7b3","ios":"levelo://app?vid=4477084d-efeb-4b5b-b8b9-9711d64db7b3"},"vehicle_type_id":"4","last_reported":1698591954,"current_range_meters":22800,"station_id":"","pricing_plan_id":"free"},{"bike_id":"e3f253a1-9788-4492-938f-39b642fbd881","system_id":"levelo_inurba_marseille","lat":43.3245,"lon":5.36788,"is_reserved":false,"is_disabled":false,"rental_uris":{"android":"levelo://app?vid=e3f253a1-9788-4492-938f-39b642fbd881","ios":"levelo://app?vid=e3f253a1-9788-4492-938f-39b642fbd881"},"vehicle_type_id":"4","last_reported":1698591954,"current_range_meters":5600,"station_id":"","pricing_plan_id":"free"},{"bike_id":"d797f1e6-f3ca-4ad7-8b56-5ed6191da53c","system_id":"levelo_inurba_marseille","lat":43.304606,"lon":5.379026,"is_reserved":false,"is_disabled":false,"rental_uris":{"android":"levelo://app?vid=d797f1e6-f3ca-4ad7-8b56-5ed6191da53c","ios":"levelo://app?vid=d797f1e6-f3ca-4ad7-8b56-5ed6191da53c"},"vehicle_type_id":"4","last_reported":1698591954,"current_range_meters":26000,"station_id":"ce4bgup2rcd13ifvqcn0","pricing_plan_id":"free"},{"bike_id":"41685321-e39f-43f1-b73a-848e8d1acff7","system_id":"levelo_inurba_marseille","lat":43.304606,"lon":5.379026,"is_reserved":false,"is_disabled":false,"rental_uris":{"android":"levelo://app?vid=41685321-e39f-43f1-b73a-848e8d1acff7","ios":"levelo://app?vid=41685321-e39f-43f1-b73a-848e8d1acff7"},"vehicle_type_id":"4","last_reported":1698591954,"current_range_meters":24000,"station_id":"ce4bgup2rcd13ifvqcn0","pricing_plan_id":"free"},{"bike_id":"3ba8fa1c-5d50-4016-a9f8-0f37a296e900","system_id":"levelo_inurba_marseille","lat":43.31105,"lon":5.38327,"is_reserved":false,"is_disabled":false,"rental_uris":{"android":"levelo://app?vid=3ba8fa1c-5d50-4016-a9f8-0f37a296e900","ios":"levelo://app?vid=3ba8fa1c-5d50-4016-a9f8-0f37a296e900"},"vehicle_type_id":"4","last_reported":1698591954,"current_range_meters":26400,"station_id":"","pricing_plan_id":"free"},{"bike_id":"3cd7dee2-8582-426c-9dd2-e6d0f5dcc291","system_id":"levelo_inurba_marseille","lat":43.30143,"lon":5.37413,"is_reserved":false,"is_disabled":false,"rental_uris":{"android":"levelo://app?vid=3cd7dee2-8582-426c-9dd2-e6d0f5dcc291","ios":"levelo://app?vid=3cd7dee2-8582-426c-9dd2-e6d0f5dcc291"},"vehicle_type_id":"4","last_reported":1698591954,"current_range_meters":28000,"station_id":"ce4bgs92rcd13ifvqcc0","pricing_plan_id":"free"},{"bike_id":"563c758c-c5d9-4f39-af3a-39eb75d565ff","system_id":"levelo_inurba_marseille","lat":43.30144,"lon":5.37424,"is_reserved":false,"is_disabled":false,"rental_uris":{"android":"levelo://app?vid=563c758c-c5d9-4f39-af3a-39eb75d565ff","ios":"levelo://app?vid=563c758c-c5d9-4f39-af3a-39eb75d565ff"},"vehicle_type_id":"4","last_reported":1698591954,"current_range_meters":26800,"station_id":"ce4bgs92rcd13ifvqcc0","pricing_plan_id":"free"},{"bike_id":"fc02e2ae-46d2-4894-adf1-f15319f52b68","system_id":"levelo_inurba_marseille","lat":43.299222,"lon":5.365554,"is_reserved":false,"is_disabled":false,"rental_uris":{"android":"levelo://app?vid=fc02e2ae-46d2-4894-adf1-f15319f52b68","ios":"levelo://app?vid=fc02e2ae-46d2-4894-adf1-f15319f52b68"},"vehicle_type_id":"4","last_reported":1698591954,"current_range_meters":24000,"station_id":"ce4bgm92rcd13ifvqbr0","pricing_plan_id":"free"},{"bike_id":"5ba66772-20b6-408d-a6c3-0df1cd4bb678","system_id":"levelo_inurba_marseille","lat":43.3264,"lon":5.367334,"is_reserved":false,"is_disabled":false,"rental_uris":{"android":"levelo://app?vid=5ba66772-20b6-408d-a6c3-0df1cd4bb678","ios":"levelo://app?vid=5ba66772-20b6-408d-a6c3-0df1cd4bb678"},"vehicle_type_id":"4","last_reported":1698591954,"current_range_meters":13600,"station_id":"","pricing_plan_id":"free"},{"bike_id":"32ccaa37-8c7a-42fc-ab6a-4b9901ad5461","system_id":"levelo_inurba_marseille","lat":43.298433,"lon":5.362774,"is_reserved":false,"is_disabled":false,"rental_uris":{"android":"levelo://app?vid=32ccaa37-8c7a-42fc-ab6a-4b9901ad5461","ios":"levelo://app?vid=32ccaa37-8c7a-42fc-ab6a-4b9901ad5461"},"vehicle_type_id":"4","last_reported":1698591954,"current_range_meters":4000,"station_id":"ce4bgpp2rcd13ifvqc3g","pricing_plan_id":"free"},{"bike_id":"67d061b0-5a3d-46e9-9384-07727f202a1b","system_id":"levelo_inurba_marseille","lat":43.298433,"lon":5.362774,"is_reserved":false,"is_disabled":false,"rental_uris":{"android":"levelo://app?vid=67d061b0-5a3d-46e9-9384-07727f202a1b","ios":"levelo://app?vid=67d061b0-5a3d-46e9-9384-07727f202a1b"},"vehicle_type_id":"4","last_reported":1698591954,"current_range_meters":11600,"station_id":"ce4bgpp2rcd13ifvqc3g","pricing_plan_id":"free"},{"bike_id":"ce5f8838-6b80-4c39-afe3-fdbb5ac2e51a","system_id":"levelo_inurba_marseille","lat":43.298433,"lon":5.362774,"is_reserved":false,"is_disabled":false,"rental_uris":{"android":"levelo://app?vid=ce5f8838-6b80-4c39-afe3-fdbb5ac2e51a","ios":"levelo://app?vid=ce5f8838-6b80-4c39-afe3-fdbb5ac2e51a"},"vehicle_type_id":"4","last_reported":1698591954,"current_range_meters":12400,"station_id":"ce4bgpp2rcd13ifvqc3g","pricing_plan_id":"free"},{"bike_id":"2c0c416c-9c1e-4780-8180-916eacc841e5","system_id":"levelo_inurba_marseille","lat":43.298433,"lon":5.362774,"is_reserved":false,"is_disabled":false,"rental_uris":{"android":"levelo://app?vid=2c0c416c-9c1e-4780-8180-916eacc841e5","ios":"levelo://app?vid=2c0c416c-9c1e-4780-8180-916eacc841e5"},"vehicle_type_id":"4","last_reported":1698591954,"current_range_meters":4800,"station_id":"ce4bgpp2rcd13ifvqc3g","pricing_plan_id":"free"},{"bike_id":"3a6a997f-31ea-49e4-806a-88a610f7e65b","system_id":"levelo_inurba_marseille","lat":43.298433,"lon":5.362774,"is_reserved":false,"is_disabled":false,"rental_uris":{"android":"levelo://app?vid=3a6a997f-31ea-49e4-806a-88a610f7e65b","ios":"levelo://app?vid=3a6a997f-31ea-49e4-806a-88a610f7e65b"},"vehicle_type_id":"4","last_reported":1698591954,"current_range_meters":1200,"station_id":"ce4bgpp2rcd13ifvqc3g","pricing_plan_id":"free"},{"bike_id":"423355fa-9955-438a-9714-128127eff667","system_id":"levelo_inurba_marseille","lat":43.298433,"lon":5.362774,"is_reserved":false,"is_disabled":false,"rental_uris":{"android":"levelo://app?vid=423355fa-9955-438a-9714-128127eff667","ios":"levelo://app?vid=423355fa-9955-438a-9714-128127eff667"},"vehicle_type_id":"4","last_reported":1698591954,"current_range_meters":23200,"station_id":"ce4bgpp2rcd13ifvqc3g","pricing_plan_id":"free"},{"bike_id":"aa998a66-4499-49a9-a5d6-27d559922948","system_id":"levelo_inurba_marseille","lat":43.298433,"lon":5.362774,"is_reserved":false,"is_disabled":false,"rental_uris":{"android":"levelo://app?vid=aa998a66-4499-49a9-a5d6-27d559922948","ios":"levelo://app?vid=aa998a66-4499-49a9-a5d6-27d559922948"},"vehicle_type_id":"4","last_reported":1698591954,"current_range_meters":4400,"station_id":"ce4bgpp2rcd13ifvqc3g","pricing_plan_id":"free"},{"bike_id":"8d522652-3408-4ffc-96af-bf0a766c1867","system_id":"levelo_inurba_marseille","lat":43.299243,"lon":5.374807,"is_reserved":false,"is_disabled":false,"rental_uris":{"android":"levelo://app?vid=8d522652-3408-4ffc-96af-bf0a766c1867","ios":"levelo://app?vid=8d522652-3408-4ffc-96af-bf0a766c1867"},"vehicle_type_id":"4","last_reported":1698591954,"current_range_meters":2800,"station_id":"ce4bgjh2rcd13ifvqbg0","pricing_plan_id":"free"},{"bike_id":"c6559a3f-a4d8-4077-8628-8aa95056666f","system_id":"levelo_inurba_marseille","lat":43.297794,"lon":5.370888,"is_reserved":false,"is_disabled":false,"rental_uris":{"android":"levelo://app?vid=c6559a3f-a4d8-4077-8628-8aa95056666f","ios":"levelo://app?vid=c6559a3f-a4d8-4077-8628-8aa95056666f"},"vehicle_type_id":"4","last_reported":1698591954,"current_range_meters":25200,"station_id":"ce4bgop2rcd13ifvqc1g","pricing_plan_id":"free"},{"bike_id":"1f580447-7b2c-4630-9a51-33e28281b372","system_id":"levelo_inurba_marseille","lat":43.322872,"lon":5.382756,"is_reserved":false,"is_disabled":false,"rental_uris":{"android":"levelo://app?vid=1f580447-7b2c-4630-9a51-33e28281b372","ios":"levelo://app?vid=1f580447-7b2c-4630-9a51-33e28281b372"},"vehicle_type_id":"4","last_reported":1698591954,"current_range_meters":23600,"station_id":"ce4bhr12rcd13ifvqhqg","pricing_plan_id":"free"},{"bike_id":"d7197a87-95ba-4b24-ba88-10c6ae102454","system_id":"levelo_inurba_marseille","lat":43.328371,"lon":5.366909,"is_reserved":false,"is_disabled":false,"rental_uris":{"android":"levelo://app?vid=d7197a87-95ba-4b24-ba88-10c6ae102454","ios":"levelo://app?vid=d7197a87-95ba-4b24-ba88-10c6ae102454"},"vehicle_type_id":"4","last_reported":1698591954,"current_range_meters":0,"station_id":"ce4bhs92rcd13ifvqi0g","pricing_plan_id":"free"},{"bike_id":"2bf09692-7151-4aba-9fa7-8ce1d6106004","system_id":"levelo_inurba_marseille","lat":43.328303,"lon":5.366873,"is_reserved":false,"is_disabled":false,"rental_uris":{"android":"levelo://app?vid=2bf09692-7151-4aba-9fa7-8ce1d6106004","ios":"levelo://app?vid=2bf09692-7151-4aba-9fa7-8ce1d6106004"},"vehicle_type_id":"4","last_reported":1698591954,"current_range_meters":8800,"station_id":"","pricing_plan_id":"free"},{"bike_id":"deb05987-5bcd-42a7-bd6f-81b335a9433e","system_id":"levelo_inurba_marseille","lat":43.32831,"lon":5.36685,"is_reserved":false,"is_disabled":false,"rental_uris":{"android":"levelo://app?vid=deb05987-5bcd-42a7-bd6f-81b335a9433e","ios":"levelo://app?vid=deb05987-5bcd-42a7-bd6f-81b335a9433e"},"vehicle_type_id":"4","last_reported":1698591954,"current_range_meters":2000,"station_id":"ce4bhs92rcd13ifvqi0g","pricing_plan_id":"free"},{"bike_id":"48152b97-b7f5-4c0c-b42a-d161443ffe79","system_id":"levelo_inurba_marseille","lat":43.29718,"lon":5.36612,"is_reserved":false,"is_disabled":false,"rental_uris":{"android":"levelo://app?vid=48152b97-b7f5-4c0c-b42a-d161443ffe79","ios":"levelo://app?vid=48152b97-b7f5-4c0c-b42a-d161443ffe79"},"vehicle_type_id":"4","last_reported":1698591954,"current_range_meters":6400,"station_id":"ce4bgn12rcd13ifvqbt0","pricing_plan_id":"free"},{"bike_id":"86bb0a20-8123-4e0e-84f3-756c4bdb05df","system_id":"levelo_inurba_marseille","lat":43.32832,"lon":5.36686,"is_reserved":false,"is_disabled":false,"rental_uris":{"android":"levelo://app?vid=86bb0a20-8123-4e0e-84f3-756c4bdb05df","ios":"levelo://app?vid=86bb0a20-8123-4e0e-84f3-756c4bdb05df"},"vehicle_type_id":"4","last_reported":1698591954,"current_range_meters":20000,"station_id":"ce4bhs92rcd13ifvqi0g","pricing_plan_id":"free"},{"bike_id":"9e186f55-d906-4b54-9553-eed70e222375","system_id":"levelo_inurba_marseille","lat":43.323159,"lon":5.382863,"is_reserved":false,"is_disabled":false,"rental_uris":{"android":"levelo://app?vid=9e186f55-d906-4b54-9553-eed70e222375","ios":"levelo://app?vid=9e186f55-d906-4b54-9553-eed70e222375"},"vehicle_type_id":"4","last_reported":1698591954,"current_range_meters":22800,"station_id":"ce4bhr12rcd13ifvqhqg","pricing_plan_id":"free"},{"bike_id":"0e8233d2-0d57-470f-8c07-e9f753046a4f","system_id":"levelo_inurba_marseille","lat":43.323173,"lon":5.382924,"is_reserved":false,"is_disabled":false,"rental_uris":{"android":"levelo://app?vid=0e8233d2-0d57-470f-8c07-e9f753046a4f","ios":"levelo://app?vid=0e8233d2-0d57-470f-8c07-e9f753046a4f"},"vehicle_type_id":"4","last_reported":1698591954,"current_range_meters":26800,"station_id":"ce4bhr12rcd13ifvqhqg","pricing_plan_id":"free"},{"bike_id":"3b2c36a8-5e3e-4360-9494-fdf3ca6ef316","system_id":"levelo_inurba_marseille","lat":43.318769,"lon":5.387495,"is_reserved":false,"is_disabled":false,"rental_uris":{"android":"levelo://app?vid=3b2c36a8-5e3e-4360-9494-fdf3ca6ef316","ios":"levelo://app?vid=3b2c36a8-5e3e-4360-9494-fdf3ca6ef316"},"vehicle_type_id":"4","last_reported":1698591954,"current_range_meters":0,"station_id":"","pricing_plan_id":"free"},{"bike_id":"dd1c0b20-019a-4f88-ae15-bb2c3eed70ed","system_id":"levelo_inurba_marseille","lat":43.31882,"lon":5.3883,"is_reserved":false,"is_disabled":false,"rental_uris":{"android":"levelo://app?vid=dd1c0b20-019a-4f88-ae15-bb2c3eed70ed","ios":"levelo://app?vid=dd1c0b20-019a-4f88-ae15-bb2c3eed70ed"},"vehicle_type_id":"4","last_reported":1698591954,"current_range_meters":0,"station_id":"","pricing_plan_id":"free"},{"bike_id":"7c939295-468b-4149-8768-e36e92462dd5","system_id":"levelo_inurba_marseille","lat":43.296129,"lon":5.370777,"is_reserved":false,"is_disabled":false,"rental_uris":{"android":"levelo://app?vid=7c939295-468b-4149-8768-e36e92462dd5","ios":"levelo://app?vid=7c939295-468b-4149-8768-e36e92462dd5"},"vehicle_type_id":"4","last_reported":1698591954,"current_range_meters":0,"station_id":"ce4bgnh2rcd13ifvqc0g","pricing_plan_id":"free"},{"bike_id":"f3d0381f-7a2d-409e-a12f-bd3d9095653d","system_id":"levelo_inurba_marseille","lat":43.329673,"lon":5.365468,"is_reserved":false,"is_disabled":false,"rental_uris":{"android":"levelo://app?vid=f3d0381f-7a2d-409e-a12f-bd3d9095653d","ios":"levelo://app?vid=f3d0381f-7a2d-409e-a12f-bd3d9095653d"},"vehicle_type_id":"4","last_reported":1698591954,"current_range_meters":1200,"station_id":"","pricing_plan_id":"free"},{"bike_id":"21c7d586-a251-45c6-b4c4-9a49607eb34d","system_id":"levelo_inurba_marseille","lat":43.29573,"lon":5.367355,"is_reserved":false,"is_disabled":false,"rental_uris":{"android":"levelo://app?vid=21c7d586-a251-45c6-b4c4-9a49607eb34d","ios":"levelo://app?vid=21c7d586-a251-45c6-b4c4-9a49607eb34d"},"vehicle_type_id":"4","last_reported":1698591954,"current_range_meters":30800,"station_id":"ce4bgph2rcd13ifvqc2g","pricing_plan_id":"free"},{"bike_id":"a5d4cb87-97ed-4f62-b525-c3e0b62985cc","system_id":"levelo_inurba_marseille","lat":43.309589,"lon":5.390258,"is_reserved":false,"is_disabled":false,"rental_uris":{"android":"levelo://app?vid=a5d4cb87-97ed-4f62-b525-c3e0b62985cc","ios":"levelo://app?vid=a5d4cb87-97ed-4f62-b525-c3e0b62985cc"},"vehicle_type_id":"4","last_reported":1698591954,"current_range_meters":5200,"station_id":"ce4bgup2rcd13ifvqco0","pricing_plan_id":"free"},{"bike_id":"de3cd094-b5ea-4505-a985-04e52f17a9c4","system_id":"levelo_inurba_marseille","lat":43.309589,"lon":5.390258,"is_reserved":false,"is_disabled":false,"rental_uris":{"android":"levelo://app?vid=de3cd094-b5ea-4505-a985-04e52f17a9c4","ios":"levelo://app?vid=de3cd094-b5ea-4505-a985-04e52f17a9c4"},"vehicle_type_id":"4","last_reported":1698591954,"current_range_meters":4000,"station_id":"ce4bgup2rcd13ifvqco0","pricing_plan_id":"free"},{"bike_id":"f49dbde8-e06b-4a1c-940b-1794d27e9b3e","system_id":"levelo_inurba_marseille","lat":43.296935,"lon":5.376544,"is_reserved":false,"is_disabled":false,"rental_uris":{"android":"levelo://app?vid=f49dbde8-e06b-4a1c-940b-1794d27e9b3e","ios":"levelo://app?vid=f49dbde8-e06b-4a1c-940b-1794d27e9b3e"},"vehicle_type_id":"4","last_reported":1698591954,"current_range_meters":18400,"station_id":"ce4bgkh2rcd13ifvqbl0","pricing_plan_id":"free"},{"bike_id":"abad3530-428d-4c3c-8321-f7c754e2826e","system_id":"levelo_inurba_marseille","lat":43.309047,"lon":5.396551,"is_reserved":false,"is_disabled":false,"rental_uris":{"android":"levelo://app?vid=abad3530-428d-4c3c-8321-f7c754e2826e","ios":"levelo://app?vid=abad3530-428d-4c3c-8321-f7c754e2826e"},"vehicle_type_id":"4","last_reported":1698591954,"current_range_meters":2800,"station_id":"ce4bh012rcd13ifvqcv0","pricing_plan_id":"free"},{"bike_id":"e11a0e1e-fd9f-4a60-b29f-e1d46eb5e8e2","system_id":"levelo_inurba_marseille","lat":43.295767,"lon":5.375085,"is_reserved":false,"is_disabled":false,"rental_uris":{"android":"levelo://app?vid=e11a0e1e-fd9f-4a60-b29f-e1d46eb5e8e2","ios":"levelo://app?vid=e11a0e1e-fd9f-4a60-b29f-e1d46eb5e8e2"},"vehicle_type_id":"4","last_reported":1698591954,"current_range_meters":28800,"station_id":"ce4bgh92rcd13ifvqb50","pricing_plan_id":"free"},{"bike_id":"1b8f96df-4efb-4a97-a0a9-6f6ded1a4231","system_id":"levelo_inurba_marseille","lat":43.29574,"lon":5.37518,"is_reserved":false,"is_disabled":false,"rental_uris":{"android":"levelo://app?vid=1b8f96df-4efb-4a97-a0a9-6f6ded1a4231","ios":"levelo://app?vid=1b8f96df-4efb-4a97-a0a9-6f6ded1a4231"},"vehicle_type_id":"4","last_reported":1698591954,"current_range_meters":7200,"station_id":"ce4bgh92rcd13ifvqb50","pricing_plan_id":"free"},{"bike_id":"b0a91bcd-2d44-43d3-8e95-b28285e869f5","system_id":"levelo_inurba_marseille","lat":43.296263,"lon":5.377094,"is_reserved":false,"is_disabled":false,"rental_uris":{"android":"levelo://app?vid=b0a91bcd-2d44-43d3-8e95-b28285e869f5","ios":"levelo://app?vid=b0a91bcd-2d44-43d3-8e95-b28285e869f5"},"vehicle_type_id":"4","last_reported":1698591954,"current_range_meters":31200,"station_id":"ce4bgi92rcd13ifvqb90","pricing_plan_id":"free"},{"bike_id":"01ad14b3-a9f6-420b-8dd7-6315a0b3481f","system_id":"levelo_inurba_marseille","lat":43.295279,"lon":5.375048,"is_reserved":false,"is_disabled":false,"rental_uris":{"android":"levelo://app?vid=01ad14b3-a9f6-420b-8dd7-6315a0b3481f","ios":"levelo://app?vid=01ad14b3-a9f6-420b-8dd7-6315a0b3481f"},"vehicle_type_id":"4","last_reported":1698591954,"current_range_meters":25200,"station_id":"ce4bgkp2rcd13ifvqbmg","pricing_plan_id":"free"},{"bike_id":"fc2490c3-7a69-47c0-8ecb-49038513e8ab","system_id":"levelo_inurba_marseille","lat":43.299724,"lon":5.384848,"is_reserved":false,"is_disabled":false,"rental_uris":{"android":"levelo://app?vid=fc2490c3-7a69-47c0-8ecb-49038513e8ab","ios":"levelo://app?vid=fc2490c3-7a69-47c0-8ecb-49038513e8ab"},"vehicle_type_id":"4","last_reported":1698591954,"current_range_meters":0,"station_id":"ce4bgj92rcd13ifvqbd0","pricing_plan_id":"free"},{"bike_id":"a44d4353-91bf-4a59-abd6-cbbfe13c49a1","system_id":"levelo_inurba_marseille","lat":43.292749,"lon":5.368402,"is_reserved":false,"is_disabled":false,"rental_uris":{"android":"levelo://app?vid=a44d4353-91bf-4a59-abd6-cbbfe13c49a1","ios":"levelo://app?vid=a44d4353-91bf-4a59-abd6-cbbfe13c49a1"},"vehicle_type_id":"4","last_reported":1698591954,"current_range_meters":5200,"station_id":"ce4bhbp2rcd13ifvqesg","pricing_plan_id":"free"},{"bike_id":"13541381-a278-43e0-8612-8f2f0ca7951f","system_id":"levelo_inurba_marseille","lat":43.29291,"lon":5.37445,"is_reserved":false,"is_disabled":false,"rental_uris":{"android":"levelo://app?vid=13541381-a278-43e0-8612-8f2f0ca7951f","ios":"levelo://app?vid=13541381-a278-43e0-8612-8f2f0ca7951f"},"vehicle_type_id":"4","last_reported":1698591954,"current_range_meters":0,"station_id":"ce4bgi12rcd13ifvqb70","pricing_plan_id":"free"},{"bike_id":"14d14a9e-7a69-4e64-b842-60364d7bce0a","system_id":"levelo_inurba_marseille","lat":43.30085,"lon":5.390856,"is_reserved":false,"is_disabled":false,"rental_uris":{"android":"levelo://app?vid=14d14a9e-7a69-4e64-b842-60364d7bce0a","ios":"levelo://app?vid=14d14a9e-7a69-4e64-b842-60364d7bce0a"},"vehicle_type_id":"4","last_reported":1698591954,"current_range_meters":18800,"station_id":"ce4bh192rcd13ifvqdb0","pricing_plan_id":"free"},{"bike_id":"d97b8922-ffca-4ea6-86b4-fabd4b9f65f9","system_id":"levelo_inurba_marseille","lat":43.292663,"lon":5.376389,"is_reserved":false,"is_disabled":false,"rental_uris":{"android":"levelo://app?vid=d97b8922-ffca-4ea6-86b4-fabd4b9f65f9","ios":"levelo://app?vid=d97b8922-ffca-4ea6-86b4-fabd4b9f65f9"},"vehicle_type_id":"4","last_reported":1698591954,"current_range_meters":10800,"station_id":"ce4bgi12rcd13ifvqb80","pricing_plan_id":"free"},{"bike_id":"40883ba8-9eb3-42ea-86dd-515031e9560e","system_id":"levelo_inurba_marseille","lat":43.291675,"lon":5.371583,"is_reserved":false,"is_disabled":false,"rental_uris":{"android":"levelo://app?vid=40883ba8-9eb3-42ea-86dd-515031e9560e","ios":"levelo://app?vid=40883ba8-9eb3-42ea-86dd-515031e9560e"},"vehicle_type_id":"4","last_reported":1698591954,"current_range_meters":14400,"station_id":"ce4bha92rcd13ifvqeh0","pricing_plan_id":"free"},{"bike_id":"d81b0dc1-7198-4968-a512-5052cebf9461","system_id":"levelo_inurba_marseille","lat":43.29192,"lon":5.35793,"is_reserved":false,"is_disabled":false,"rental_uris":{"android":"levelo://app?vid=d81b0dc1-7198-4968-a512-5052cebf9461","ios":"levelo://app?vid=d81b0dc1-7198-4968-a512-5052cebf9461"},"vehicle_type_id":"4","last_reported":1698591954,"current_range_meters":22800,"station_id":"ce4bhb12rcd13ifvqel0","pricing_plan_id":"free"},{"bike_id":"e51faa20-fa91-4ccf-81a4-a3ab80ba0e15","system_id":"levelo_inurba_marseille","lat":43.313291,"lon":5.396838,"is_reserved":false,"is_disabled":false,"rental_uris":{"android":"levelo://app?vid=e51faa20-fa91-4ccf-81a4-a3ab80ba0e15","ios":"levelo://app?vid=e51faa20-fa91-4ccf-81a4-a3ab80ba0e15"},"vehicle_type_id":"4","last_reported":1698591954,"current_range_meters":21600,"station_id":"ce4bgvp2rcd13ifvqcu0","pricing_plan_id":"free"},{"bike_id":"730a7004-bf59-41b7-84f3-3374e1dc7d1e","system_id":"levelo_inurba_marseille","lat":43.29529,"lon":5.385581,"is_reserved":false,"is_disabled":false,"rental_uris":{"android":"levelo://app?vid=730a7004-bf59-41b7-84f3-3374e1dc7d1e","ios":"levelo://app?vid=730a7004-bf59-41b7-84f3-3374e1dc7d1e"},"vehicle_type_id":"4","last_reported":1698591954,"current_range_meters":7200,"station_id":"ce4bgih2rcd13ifvqba0","pricing_plan_id":"free"},{"bike_id":"d546df0a-32a9-4676-ba99-00f811412266","system_id":"levelo_inurba_marseille","lat":43.29529,"lon":5.385581,"is_reserved":false,"is_disabled":false,"rental_uris":{"android":"levelo://app?vid=d546df0a-32a9-4676-ba99-00f811412266","ios":"levelo://app?vid=d546df0a-32a9-4676-ba99-00f811412266"},"vehicle_type_id":"4","last_reported":1698591954,"current_range_meters":25200,"station_id":"ce4bgih2rcd13ifvqba0","pricing_plan_id":"free"},{"bike_id":"52d3dcf7-c971-4ebe-8653-5145ebe55a07","system_id":"levelo_inurba_marseille","lat":43.290779,"lon":5.371482,"is_reserved":false,"is_disabled":false,"rental_uris":{"android":"levelo://app?vid=52d3dcf7-c971-4ebe-8653-5145ebe55a07","ios":"levelo://app?vid=52d3dcf7-c971-4ebe-8653-5145ebe55a07"},"vehicle_type_id":"4","last_reported":1698591954,"current_range_meters":18800,"station_id":"ce4bh5p2rcd13ifvqe4g","pricing_plan_id":"free"},{"bike_id":"506b226c-3fd7-46b7-bf31-713dc258af43","system_id":"levelo_inurba_marseille","lat":43.290779,"lon":5.371482,"is_reserved":false,"is_disabled":false,"rental_uris":{"android":"levelo://app?vid=506b226c-3fd7-46b7-bf31-713dc258af43","ios":"levelo://app?vid=506b226c-3fd7-46b7-bf31-713dc258af43"},"vehicle_type_id":"4","last_reported":1698591954,"current_range_meters":15200,"station_id":"ce4bh5p2rcd13ifvqe4g","pricing_plan_id":"free"},{"bike_id":"50c64f09-d946-4bff-8400-623fd9975e98","system_id":"levelo_inurba_marseille","lat":43.290779,"lon":5.371482,"is_reserved":false,"is_disabled":false,"rental_uris":{"android":"levelo://app?vid=50c64f09-d946-4bff-8400-623fd9975e98","ios":"levelo://app?vid=50c64f09-d946-4bff-8400-623fd9975e98"},"vehicle_type_id":"4","last_reported":1698591954,"current_range_meters":11200,"station_id":"ce4bh5p2rcd13ifvqe4g","pricing_plan_id":"free"},{"bike_id":"d7fbf79e-3909-481f-90a2-d4d3c651396e","system_id":"levelo_inurba_marseille","lat":43.302008,"lon":5.394694,"is_reserved":false,"is_disabled":false,"rental_uris":{"android":"levelo://app?vid=d7fbf79e-3909-481f-90a2-d4d3c651396e","ios":"levelo://app?vid=d7fbf79e-3909-481f-90a2-d4d3c651396e"},"vehicle_type_id":"4","last_reported":1698591954,"current_range_meters":8400,"station_id":"ce4bh0p2rcd13ifvqd70","pricing_plan_id":"free"},{"bike_id":"551973be-1aca-47c7-b802-574a75bdf8f5","system_id":"levelo_inurba_marseille","lat":43.289184,"lon":5.366408,"is_reserved":false,"is_disabled":false,"rental_uris":{"android":"levelo://app?vid=551973be-1aca-47c7-b802-574a75bdf8f5","ios":"levelo://app?vid=551973be-1aca-47c7-b802-574a75bdf8f5"},"vehicle_type_id":"4","last_reported":1698591954,"current_range_meters":21200,"station_id":"ce4bhap2rcd13ifvqek0","pricing_plan_id":"free"},{"bike_id":"fd19d3be-7dbe-4e46-840f-fd62c974e9e5","system_id":"levelo_inurba_marseille","lat":43.289468,"lon":5.363719,"is_reserved":false,"is_disabled":false,"rental_uris":{"android":"levelo://app?vid=fd19d3be-7dbe-4e46-840f-fd62c974e9e5","ios":"levelo://app?vid=fd19d3be-7dbe-4e46-840f-fd62c974e9e5"},"vehicle_type_id":"4","last_reported":1698591954,"current_range_meters":20800,"station_id":"ce4bhc92rcd13ifvqetg","pricing_plan_id":"free"},{"bike_id":"779f5361-2d7f-44f1-97e0-2cac5dc00937","system_id":"levelo_inurba_marseille","lat":43.304274,"lon":5.397513,"is_reserved":false,"is_disabled":false,"rental_uris":{"android":"levelo://app?vid=779f5361-2d7f-44f1-97e0-2cac5dc00937","ios":"levelo://app?vid=779f5361-2d7f-44f1-97e0-2cac5dc00937"},"vehicle_type_id":"4","last_reported":1698591954,"current_range_meters":19200,"station_id":"ce4bh092rcd13ifvqd20","pricing_plan_id":"free"},{"bike_id":"0e0e1bf2-25a2-43ee-a0c5-e8933ee4bcba","system_id":"levelo_inurba_marseille","lat":43.292644,"lon":5.384257,"is_reserved":false,"is_disabled":false,"rental_uris":{"android":"levelo://app?vid=0e0e1bf2-25a2-43ee-a0c5-e8933ee4bcba","ios":"levelo://app?vid=0e0e1bf2-25a2-43ee-a0c5-e8933ee4bcba"},"vehicle_type_id":"4","last_reported":1698591954,"current_range_meters":26400,"station_id":"ce4bh692rcd13ifvqea0","pricing_plan_id":"free"},{"bike_id":"e5017902-94fe-4101-b27f-5f87fee9af25","system_id":"levelo_inurba_marseille","lat":43.304274,"lon":5.397513,"is_reserved":false,"is_disabled":false,"rental_uris":{"android":"levelo://app?vid=e5017902-94fe-4101-b27f-5f87fee9af25","ios":"levelo://app?vid=e5017902-94fe-4101-b27f-5f87fee9af25"},"vehicle_type_id":"4","last_reported":1698591954,"current_range_meters":28000,"station_id":"ce4bh092rcd13ifvqd20","pricing_plan_id":"free"},{"bike_id":"fd44fdd3-de5c-45a4-b066-0349e1eb9653","system_id":"levelo_inurba_marseille","lat":43.304274,"lon":5.397513,"is_reserved":false,"is_disabled":false,"rental_uris":{"android":"levelo://app?vid=fd44fdd3-de5c-45a4-b066-0349e1eb9653","ios":"levelo://app?vid=fd44fdd3-de5c-45a4-b066-0349e1eb9653"},"vehicle_type_id":"4","last_reported":1698591954,"current_range_meters":6400,"station_id":"ce4bh092rcd13ifvqd20","pricing_plan_id":"free"},{"bike_id":"e9d7bc2b-d9ac-41e2-b556-a55986b92b46","system_id":"levelo_inurba_marseille","lat":43.292642,"lon":5.384254,"is_reserved":false,"is_disabled":false,"rental_uris":{"android":"levelo://app?vid=e9d7bc2b-d9ac-41e2-b556-a55986b92b46","ios":"levelo://app?vid=e9d7bc2b-d9ac-41e2-b556-a55986b92b46"},"vehicle_type_id":"4","last_reported":1698591954,"current_range_meters":4800,"station_id":"ce4bh692rcd13ifvqea0","pricing_plan_id":"free"},{"bike_id":"e4f147be-ca2b-444c-b78d-a6eb278bb177","system_id":"levelo_inurba_marseille","lat":43.304296,"lon":5.397513,"is_reserved":false,"is_disabled":false,"rental_uris":{"android":"levelo://app?vid=e4f147be-ca2b-444c-b78d-a6eb278bb177","ios":"levelo://app?vid=e4f147be-ca2b-444c-b78d-a6eb278bb177"},"vehicle_type_id":"4","last_reported":1698591954,"current_range_meters":18000,"station_id":"ce4bh092rcd13ifvqd20","pricing_plan_id":"free"},{"bike_id":"a9254403-61d5-47b4-86ea-af629316ad0d","system_id":"levelo_inurba_marseille","lat":43.290104,"lon":5.356111,"is_reserved":false,"is_disabled":false,"rental_uris":{"android":"levelo://app?vid=a9254403-61d5-47b4-86ea-af629316ad0d","ios":"levelo://app?vid=a9254403-61d5-47b4-86ea-af629316ad0d"},"vehicle_type_id":"4","last_reported":1698591954,"current_range_meters":0,"station_id":"ce4bhb92rcd13ifvqen0","pricing_plan_id":"free"},{"bike_id":"e42b4898-9312-4b86-ac73-b4af08d3e541","system_id":"levelo_inurba_marseille","lat":43.290103,"lon":5.356114,"is_reserved":false,"is_disabled":false,"rental_uris":{"android":"levelo://app?vid=e42b4898-9312-4b86-ac73-b4af08d3e541","ios":"levelo://app?vid=e42b4898-9312-4b86-ac73-b4af08d3e541"},"vehicle_type_id":"4","last_reported":1698591954,"current_range_meters":800,"station_id":"ce4bhb92rcd13ifvqen0","pricing_plan_id":"free"},{"bike_id":"6b89a510-3c53-447f-8de5-ed3c2d1da0e6","system_id":"levelo_inurba_marseille","lat":43.290995,"lon":5.381361,"is_reserved":false,"is_disabled":false,"rental_uris":{"android":"levelo://app?vid=6b89a510-3c53-447f-8de5-ed3c2d1da0e6","ios":"levelo://app?vid=6b89a510-3c53-447f-8de5-ed3c2d1da0e6"},"vehicle_type_id":"4","last_reported":1698591954,"current_range_meters":13200,"station_id":"ce4bh512rcd13ifvqe2g","pricing_plan_id":"free"},{"bike_id":"04176ca3-23c6-451e-843f-b09fd061c513","system_id":"levelo_inurba_marseille","lat":43.290995,"lon":5.381361,"is_reserved":false,"is_disabled":false,"rental_uris":{"android":"levelo://app?vid=04176ca3-23c6-451e-843f-b09fd061c513","ios":"levelo://app?vid=04176ca3-23c6-451e-843f-b09fd061c513"},"vehicle_type_id":"4","last_reported":1698591954,"current_range_meters":15200,"station_id":"ce4bh512rcd13ifvqe2g","pricing_plan_id":"free"},{"bike_id":"dff77ab6-9a52-4b65-baa3-07e6a65c9fa4","system_id":"levelo_inurba_marseille","lat":43.2936,"lon":5.37835,"is_reserved":false,"is_disabled":false,"rental_uris":{"android":"levelo://app?vid=dff77ab6-9a52-4b65-baa3-07e6a65c9fa4","ios":"levelo://app?vid=dff77ab6-9a52-4b65-baa3-07e6a65c9fa4"},"vehicle_type_id":"4","last_reported":1698591954,"current_range_meters":16400,"station_id":"ce4bgjh2rcd13ifvqbf0","pricing_plan_id":"free"},{"bike_id":"3ff521da-ffa7-4bb4-85df-efc86b2e3456","system_id":"levelo_inurba_marseille","lat":43.29093,"lon":5.38126,"is_reserved":false,"is_disabled":false,"rental_uris":{"android":"levelo://app?vid=3ff521da-ffa7-4bb4-85df-efc86b2e3456","ios":"levelo://app?vid=3ff521da-ffa7-4bb4-85df-efc86b2e3456"},"vehicle_type_id":"4","last_reported":1698591954,"current_range_meters":20800,"station_id":"ce4bh512rcd13ifvqe2g","pricing_plan_id":"free"},{"bike_id":"dec8d15b-ef65-42a0-959b-ef86c5388923","system_id":"levelo_inurba_marseille","lat":43.29091,"lon":5.38126,"is_reserved":false,"is_disabled":false,"rental_uris":{"android":"levelo://app?vid=dec8d15b-ef65-42a0-959b-ef86c5388923","ios":"levelo://app?vid=dec8d15b-ef65-42a0-959b-ef86c5388923"},"vehicle_type_id":"4","last_reported":1698591954,"current_range_meters":16000,"station_id":"ce4bh512rcd13ifvqe2g","pricing_plan_id":"free"},{"bike_id":"f92e2c1e-c634-4291-b64b-10a32279e668","system_id":"levelo_inurba_marseille","lat":43.2909,"lon":5.38128,"is_reserved":false,"is_disabled":false,"rental_uris":{"android":"levelo://app?vid=f92e2c1e-c634-4291-b64b-10a32279e668","ios":"levelo://app?vid=f92e2c1e-c634-4291-b64b-10a32279e668"},"vehicle_type_id":"4","last_reported":1698591954,"current_range_meters":10800,"station_id":"ce4bh512rcd13ifvqe2g","pricing_plan_id":"free"},{"bike_id":"b1b8bad6-8ae4-4555-9c7c-471f669c50f8","system_id":"levelo_inurba_marseille","lat":43.29091,"lon":5.38135,"is_reserved":false,"is_disabled":false,"rental_uris":{"android":"levelo://app?vid=b1b8bad6-8ae4-4555-9c7c-471f669c50f8","ios":"levelo://app?vid=b1b8bad6-8ae4-4555-9c7c-471f669c50f8"},"vehicle_type_id":"4","last_reported":1698591954,"current_range_meters":17600,"station_id":"ce4bh512rcd13ifvqe2g","pricing_plan_id":"free"},{"bike_id":"619d7cfa-1d2d-4e98-a0b3-af4f88c232cb","system_id":"levelo_inurba_marseille","lat":43.29091,"lon":5.38146,"is_reserved":false,"is_disabled":false,"rental_uris":{"android":"levelo://app?vid=619d7cfa-1d2d-4e98-a0b3-af4f88c232cb","ios":"levelo://app?vid=619d7cfa-1d2d-4e98-a0b3-af4f88c232cb"},"vehicle_type_id":"4","last_reported":1698591954,"current_range_meters":21200,"station_id":"ce4bh512rcd13ifvqe2g","pricing_plan_id":"free"},{"bike_id":"e0d713cd-ec81-44ec-8ba4-571dd76a2b05","system_id":"levelo_inurba_marseille","lat":43.295169,"lon":5.390426,"is_reserved":false,"is_disabled":false,"rental_uris":{"android":"levelo://app?vid=e0d713cd-ec81-44ec-8ba4-571dd76a2b05","ios":"levelo://app?vid=e0d713cd-ec81-44ec-8ba4-571dd76a2b05"},"vehicle_type_id":"4","last_reported":1698591954,"current_range_meters":24000,"station_id":"ce4bh3p2rcd13ifvqdp0","pricing_plan_id":"free"},{"bike_id":"af286a6d-d49b-4114-a047-9052cd19f331","system_id":"levelo_inurba_marseille","lat":43.297934,"lon":5.393532,"is_reserved":false,"is_disabled":false,"rental_uris":{"android":"levelo://app?vid=af286a6d-d49b-4114-a047-9052cd19f331","ios":"levelo://app?vid=af286a6d-d49b-4114-a047-9052cd19f331"},"vehicle_type_id":"4","last_reported":1698591954,"current_range_meters":0,"station_id":"chh1huq6cuj3fo74tm60","pricing_plan_id":"free"},{"bike_id":"224522a7-8b3a-4866-8f2a-8a25bccb4a88","system_id":"levelo_inurba_marseille","lat":43.289743,"lon":5.378304,"is_reserved":false,"is_disabled":false,"rental_uris":{"android":"levelo://app?vid=224522a7-8b3a-4866-8f2a-8a25bccb4a88","ios":"levelo://app?vid=224522a7-8b3a-4866-8f2a-8a25bccb4a88"},"vehicle_type_id":"4","last_reported":1698591954,"current_range_meters":6400,"station_id":"ce4bh9p2rcd13ifvqed0","pricing_plan_id":"free"},{"bike_id":"46d032f9-836f-4918-8089-f11c689c8f0a","system_id":"levelo_inurba_marseille","lat":43.330005,"lon":5.39118,"is_reserved":false,"is_disabled":false,"rental_uris":{"android":"levelo://app?vid=46d032f9-836f-4918-8089-f11c689c8f0a","ios":"levelo://app?vid=46d032f9-836f-4918-8089-f11c689c8f0a"},"vehicle_type_id":"4","last_reported":1698591954,"current_range_meters":14800,"station_id":"ce4bhr92rcd13ifvqhrg","pricing_plan_id":"free"},{"bike_id":"8e030aaa-0bee-488b-83fa-9ada18d9b179","system_id":"levelo_inurba_marseille","lat":43.290094,"lon":5.381264,"is_reserved":false,"is_disabled":false,"rental_uris":{"android":"levelo://app?vid=8e030aaa-0bee-488b-83fa-9ada18d9b179","ios":"levelo://app?vid=8e030aaa-0bee-488b-83fa-9ada18d9b179"},"vehicle_type_id":"4","last_reported":1698591954,"current_range_meters":16400,"station_id":"ce4bh4p2rcd13ifvqe1g","pricing_plan_id":"free"},{"bike_id":"7eee132d-c16f-40b1-a30e-ed37e62e7857","system_id":"levelo_inurba_marseille","lat":43.2901,"lon":5.381269,"is_reserved":false,"is_disabled":false,"rental_uris":{"android":"levelo://app?vid=7eee132d-c16f-40b1-a30e-ed37e62e7857","ios":"levelo://app?vid=7eee132d-c16f-40b1-a30e-ed37e62e7857"},"vehicle_type_id":"4","last_reported":1698591954,"current_range_meters":14400,"station_id":"ce4bh4p2rcd13ifvqe1g","pricing_plan_id":"free"},{"bike_id":"11e7f64b-2958-42eb-b904-b3f02dd1e5fd","system_id":"levelo_inurba_marseille","lat":43.3127,"lon":5.40173,"is_reserved":false,"is_disabled":false,"rental_uris":{"android":"levelo://app?vid=11e7f64b-2958-42eb-b904-b3f02dd1e5fd","ios":"levelo://app?vid=11e7f64b-2958-42eb-b904-b3f02dd1e5fd"},"vehicle_type_id":"4","last_reported":1698591954,"current_range_meters":14000,"station_id":"ce4bh092rcd13ifvqd30","pricing_plan_id":"free"},{"bike_id":"ffc3fe4d-9429-4086-94ef-8f19136b3b3f","system_id":"levelo_inurba_marseille","lat":43.33756,"lon":5.37454,"is_reserved":false,"is_disabled":false,"rental_uris":{"android":"levelo://app?vid=ffc3fe4d-9429-4086-94ef-8f19136b3b3f","ios":"levelo://app?vid=ffc3fe4d-9429-4086-94ef-8f19136b3b3f"},"vehicle_type_id":"4","last_reported":1698591954,"current_range_meters":30400,"station_id":"","pricing_plan_id":"free"},{"bike_id":"b231822a-119b-4312-911c-e2fb07219e92","system_id":"levelo_inurba_marseille","lat":43.33761,"lon":5.374602,"is_reserved":false,"is_disabled":false,"rental_uris":{"android":"levelo://app?vid=b231822a-119b-4312-911c-e2fb07219e92","ios":"levelo://app?vid=b231822a-119b-4312-911c-e2fb07219e92"},"vehicle_type_id":"4","last_reported":1698591954,"current_range_meters":28400,"station_id":"","pricing_plan_id":"free"},{"bike_id":"9bdbf5e7-5a25-44e5-a9b0-84ff1b2027e5","system_id":"levelo_inurba_marseille","lat":43.301117,"lon":5.398795,"is_reserved":false,"is_disabled":false,"rental_uris":{"android":"levelo://app?vid=9bdbf5e7-5a25-44e5-a9b0-84ff1b2027e5","ios":"levelo://app?vid=9bdbf5e7-5a25-44e5-a9b0-84ff1b2027e5"},"vehicle_type_id":"4","last_reported":1698591954,"current_range_meters":12400,"station_id":"ce4bh0h2rcd13ifvqd40","pricing_plan_id":"free"},{"bike_id":"8d726f7d-be2a-4412-8a8b-b886e28a2838","system_id":"levelo_inurba_marseille","lat":43.286961,"lon":5.373785,"is_reserved":false,"is_disabled":false,"rental_uris":{"android":"levelo://app?vid=8d726f7d-be2a-4412-8a8b-b886e28a2838","ios":"levelo://app?vid=8d726f7d-be2a-4412-8a8b-b886e28a2838"},"vehicle_type_id":"4","last_reported":1698591954,"current_range_meters":3200,"station_id":"ce4bh3p2rcd13ifvqdq0","pricing_plan_id":"free"},{"bike_id":"d767efca-877b-447d-8a4c-a01d53304bc3","system_id":"levelo_inurba_marseille","lat":43.286591,"lon":5.363346,"is_reserved":false,"is_disabled":false,"rental_uris":{"android":"levelo://app?vid=d767efca-877b-447d-8a4c-a01d53304bc3","ios":"levelo://app?vid=d767efca-877b-447d-8a4c-a01d53304bc3"},"vehicle_type_id":"4","last_reported":1698591954,"current_range_meters":30000,"station_id":"ce4bhah2rcd13ifvqej0","pricing_plan_id":"free"},{"bike_id":"758a08b4-074e-416f-9861-3792dc9c0f73","system_id":"levelo_inurba_marseille","lat":43.286961,"lon":5.373785,"is_reserved":false,"is_disabled":false,"rental_uris":{"android":"levelo://app?vid=758a08b4-074e-416f-9861-3792dc9c0f73","ios":"levelo://app?vid=758a08b4-074e-416f-9861-3792dc9c0f73"},"vehicle_type_id":"4","last_reported":1698591954,"current_range_meters":16000,"station_id":"ce4bh3p2rcd13ifvqdq0","pricing_plan_id":"free"},{"bike_id":"f3005a69-d45a-4faa-985c-c132897d385d","system_id":"levelo_inurba_marseille","lat":43.302759,"lon":5.400793,"is_reserved":false,"is_disabled":false,"rental_uris":{"android":"levelo://app?vid=f3005a69-d45a-4faa-985c-c132897d385d","ios":"levelo://app?vid=f3005a69-d45a-4faa-985c-c132897d385d"},"vehicle_type_id":"4","last_reported":1698591954,"current_range_meters":0,"station_id":"ce4bgvh2rcd13ifvqcs0","pricing_plan_id":"free"},{"bike_id":"d6727cca-b931-46e2-b50d-3827928b41af","system_id":"levelo_inurba_marseille","lat":43.29034,"lon":5.3864,"is_reserved":false,"is_disabled":false,"rental_uris":{"android":"levelo://app?vid=d6727cca-b931-46e2-b50d-3827928b41af","ios":"levelo://app?vid=d6727cca-b931-46e2-b50d-3827928b41af"},"vehicle_type_id":"4","last_reported":1698591954,"current_range_meters":22400,"station_id":"","pricing_plan_id":"free"},{"bike_id":"bcdd8f9d-4cb0-4788-818e-ae036283b112","system_id":"levelo_inurba_marseille","lat":43.2903,"lon":5.38636,"is_reserved":false,"is_disabled":false,"rental_uris":{"android":"levelo://app?vid=bcdd8f9d-4cb0-4788-818e-ae036283b112","ios":"levelo://app?vid=bcdd8f9d-4cb0-4788-818e-ae036283b112"},"vehicle_type_id":"4","last_reported":1698591954,"current_range_meters":17200,"station_id":"","pricing_plan_id":"free"},{"bike_id":"84171853-3d9f-4b38-9a7b-0da3cdad53ff","system_id":"levelo_inurba_marseille","lat":43.29026,"lon":5.38638,"is_reserved":false,"is_disabled":false,"rental_uris":{"android":"levelo://app?vid=84171853-3d9f-4b38-9a7b-0da3cdad53ff","ios":"levelo://app?vid=84171853-3d9f-4b38-9a7b-0da3cdad53ff"},"vehicle_type_id":"4","last_reported":1698591954,"current_range_meters":30000,"station_id":"ce4bh4p2rcd13ifvqe0g","pricing_plan_id":"free"},{"bike_id":"2195f49e-4704-4f8f-ae9e-a8fdb45b0ac9","system_id":"levelo_inurba_marseille","lat":43.29029,"lon":5.38645,"is_reserved":false,"is_disabled":false,"rental_uris":{"android":"levelo://app?vid=2195f49e-4704-4f8f-ae9e-a8fdb45b0ac9","ios":"levelo://app?vid=2195f49e-4704-4f8f-ae9e-a8fdb45b0ac9"},"vehicle_type_id":"4","last_reported":1698591954,"current_range_meters":20000,"station_id":"","pricing_plan_id":"free"},{"bike_id":"945ec313-0edc-4210-a9e2-a7d081da09d0","system_id":"levelo_inurba_marseille","lat":43.289307,"lon":5.38406,"is_reserved":false,"is_disabled":false,"rental_uris":{"android":"levelo://app?vid=945ec313-0edc-4210-a9e2-a7d081da09d0","ios":"levelo://app?vid=945ec313-0edc-4210-a9e2-a7d081da09d0"},"vehicle_type_id":"4","last_reported":1698591954,"current_range_meters":400,"station_id":"ce4bh612rcd13ifvqe6g","pricing_plan_id":"free"},{"bike_id":"f2333910-897f-4706-b441-6ef60121e7af","system_id":"levelo_inurba_marseille","lat":43.28615,"lon":5.37072,"is_reserved":false,"is_disabled":false,"rental_uris":{"android":"levelo://app?vid=f2333910-897f-4706-b441-6ef60121e7af","ios":"levelo://app?vid=f2333910-897f-4706-b441-6ef60121e7af"},"vehicle_type_id":"4","last_reported":1698591954,"current_range_meters":22800,"station_id":"ce4bht12rcd13ifvqi60","pricing_plan_id":"free"},{"bike_id":"66ee9767-2670-485d-b86c-0069f86b4cce","system_id":"levelo_inurba_marseille","lat":43.286039,"lon":5.370679,"is_reserved":false,"is_disabled":false,"rental_uris":{"android":"levelo://app?vid=66ee9767-2670-485d-b86c-0069f86b4cce","ios":"levelo://app?vid=66ee9767-2670-485d-b86c-0069f86b4cce"},"vehicle_type_id":"4","last_reported":1698591954,"current_range_meters":25600,"station_id":"ce4bht12rcd13ifvqi60","pricing_plan_id":"free"},{"bike_id":"7c8e7bba-91e5-414d-8776-948f962cf2f5","system_id":"levelo_inurba_marseille","lat":43.286039,"lon":5.370679,"is_reserved":false,"is_disabled":false,"rental_uris":{"android":"levelo://app?vid=7c8e7bba-91e5-414d-8776-948f962cf2f5","ios":"levelo://app?vid=7c8e7bba-91e5-414d-8776-948f962cf2f5"},"vehicle_type_id":"4","last_reported":1698591954,"current_range_meters":31200,"station_id":"ce4bht12rcd13ifvqi60","pricing_plan_id":"free"},{"bike_id":"f70abc1c-3141-426a-9feb-d1a2e9dbcec4","system_id":"levelo_inurba_marseille","lat":43.28611,"lon":5.37064,"is_reserved":false,"is_disabled":false,"rental_uris":{"android":"levelo://app?vid=f70abc1c-3141-426a-9feb-d1a2e9dbcec4","ios":"levelo://app?vid=f70abc1c-3141-426a-9feb-d1a2e9dbcec4"},"vehicle_type_id":"4","last_reported":1698591954,"current_range_meters":30400,"station_id":"ce4bht12rcd13ifvqi60","pricing_plan_id":"free"},{"bike_id":"57b6e0d7-87b7-4822-8bb5-cac7697ff551","system_id":"levelo_inurba_marseille","lat":43.28611,"lon":5.37067,"is_reserved":false,"is_disabled":false,"rental_uris":{"android":"levelo://app?vid=57b6e0d7-87b7-4822-8bb5-cac7697ff551","ios":"levelo://app?vid=57b6e0d7-87b7-4822-8bb5-cac7697ff551"},"vehicle_type_id":"4","last_reported":1698591954,"current_range_meters":31200,"station_id":"ce4bht12rcd13ifvqi60","pricing_plan_id":"free"},{"bike_id":"100d0f7a-ed0e-48c2-91df-f16a3e22988b","system_id":"levelo_inurba_marseille","lat":43.286103,"lon":5.370629,"is_reserved":false,"is_disabled":false,"rental_uris":{"android":"levelo://app?vid=100d0f7a-ed0e-48c2-91df-f16a3e22988b","ios":"levelo://app?vid=100d0f7a-ed0e-48c2-91df-f16a3e22988b"},"vehicle_type_id":"4","last_reported":1698591954,"current_range_meters":20800,"station_id":"","pricing_plan_id":"free"},{"bike_id":"cf70840e-bac9-4e64-a2da-23b5bb082dba","system_id":"levelo_inurba_marseille","lat":43.286039,"lon":5.370679,"is_reserved":false,"is_disabled":false,"rental_uris":{"android":"levelo://app?vid=cf70840e-bac9-4e64-a2da-23b5bb082dba","ios":"levelo://app?vid=cf70840e-bac9-4e64-a2da-23b5bb082dba"},"vehicle_type_id":"4","last_reported":1698591954,"current_range_meters":30800,"station_id":"ce4bht12rcd13ifvqi60","pricing_plan_id":"free"},{"bike_id":"98f15d0e-1f5b-4708-bde8-d593b88a9b9a","system_id":"levelo_inurba_marseille","lat":43.286039,"lon":5.370679,"is_reserved":false,"is_disabled":false,"rental_uris":{"android":"levelo://app?vid=98f15d0e-1f5b-4708-bde8-d593b88a9b9a","ios":"levelo://app?vid=98f15d0e-1f5b-4708-bde8-d593b88a9b9a"},"vehicle_type_id":"4","last_reported":1698591954,"current_range_meters":30000,"station_id":"ce4bht12rcd13ifvqi60","pricing_plan_id":"free"},{"bike_id":"85346ebe-b06a-4437-907f-6a4217d1933a","system_id":"levelo_inurba_marseille","lat":43.306412,"lon":5.401035,"is_reserved":false,"is_disabled":false,"rental_uris":{"android":"levelo://app?vid=85346ebe-b06a-4437-907f-6a4217d1933a","ios":"levelo://app?vid=85346ebe-b06a-4437-907f-6a4217d1933a"},"vehicle_type_id":"4","last_reported":1698591954,"current_range_meters":16400,"station_id":"ce4bh112rcd13ifvqda0","pricing_plan_id":"free"},{"bike_id":"af800ffb-88fd-463b-98a6-c5a215ad676e","system_id":"levelo_inurba_marseille","lat":43.286039,"lon":5.370679,"is_reserved":false,"is_disabled":false,"rental_uris":{"android":"levelo://app?vid=af800ffb-88fd-463b-98a6-c5a215ad676e","ios":"levelo://app?vid=af800ffb-88fd-463b-98a6-c5a215ad676e"},"vehicle_type_id":"4","last_reported":1698591954,"current_range_meters":31200,"station_id":"ce4bht12rcd13ifvqi60","pricing_plan_id":"free"},{"bike_id":"191c5f13-27df-4271-95fb-7d43294976fd","system_id":"levelo_inurba_marseille","lat":43.287185,"lon":5.379373,"is_reserved":false,"is_disabled":false,"rental_uris":{"android":"levelo://app?vid=191c5f13-27df-4271-95fb-7d43294976fd","ios":"levelo://app?vid=191c5f13-27df-4271-95fb-7d43294976fd"},"vehicle_type_id":"4","last_reported":1698591954,"current_range_meters":13600,"station_id":"ce4bh9p2rcd13ifvqec0","pricing_plan_id":"free"},{"bike_id":"7351fb26-6c57-47b5-a4d9-a72dd27e4d44","system_id":"levelo_inurba_marseille","lat":43.28723,"lon":5.37947,"is_reserved":false,"is_disabled":false,"rental_uris":{"android":"levelo://app?vid=7351fb26-6c57-47b5-a4d9-a72dd27e4d44","ios":"levelo://app?vid=7351fb26-6c57-47b5-a4d9-a72dd27e4d44"},"vehicle_type_id":"4","last_reported":1698591954,"current_range_meters":3200,"station_id":"ce4bh9p2rcd13ifvqec0","pricing_plan_id":"free"},{"bike_id":"52301fe9-e803-4bc6-a61f-41920fd9e43d","system_id":"levelo_inurba_marseille","lat":43.287184,"lon":5.37937,"is_reserved":false,"is_disabled":false,"rental_uris":{"android":"levelo://app?vid=52301fe9-e803-4bc6-a61f-41920fd9e43d","ios":"levelo://app?vid=52301fe9-e803-4bc6-a61f-41920fd9e43d"},"vehicle_type_id":"4","last_reported":1698591954,"current_range_meters":14800,"station_id":"ce4bh9p2rcd13ifvqec0","pricing_plan_id":"free"},{"bike_id":"5295d6b3-a09d-4c0b-9682-3a773ed62487","system_id":"levelo_inurba_marseille","lat":43.28721,"lon":5.37946,"is_reserved":false,"is_disabled":false,"rental_uris":{"android":"levelo://app?vid=5295d6b3-a09d-4c0b-9682-3a773ed62487","ios":"levelo://app?vid=5295d6b3-a09d-4c0b-9682-3a773ed62487"},"vehicle_type_id":"4","last_reported":1698591954,"current_range_meters":6400,"station_id":"ce4bh9p2rcd13ifvqec0","pricing_plan_id":"free"},{"bike_id":"0ed4d45e-3236-4f44-9b2b-15d3885b430e","system_id":"levelo_inurba_marseille","lat":43.284534,"lon":5.358662,"is_reserved":false,"is_disabled":false,"rental_uris":{"android":"levelo://app?vid=0ed4d45e-3236-4f44-9b2b-15d3885b430e","ios":"levelo://app?vid=0ed4d45e-3236-4f44-9b2b-15d3885b430e"},"vehicle_type_id":"4","last_reported":1698591954,"current_range_meters":15200,"station_id":"ce4bhah2rcd13ifvqei0","pricing_plan_id":"free"},{"bike_id":"b4f9146a-66c7-481e-8ede-2ac746d3987b","system_id":"levelo_inurba_marseille","lat":43.294314,"lon":5.397498,"is_reserved":false,"is_disabled":false,"rental_uris":{"android":"levelo://app?vid=b4f9146a-66c7-481e-8ede-2ac746d3987b","ios":"levelo://app?vid=b4f9146a-66c7-481e-8ede-2ac746d3987b"},"vehicle_type_id":"4","last_reported":1698591954,"current_range_meters":22800,"station_id":"ce4bh3h2rcd13ifvqdo0","pricing_plan_id":"free"},{"bike_id":"51faff55-ca87-4c22-9547-e884d17236b1","system_id":"levelo_inurba_marseille","lat":43.294314,"lon":5.397498,"is_reserved":false,"is_disabled":false,"rental_uris":{"android":"levelo://app?vid=51faff55-ca87-4c22-9547-e884d17236b1","ios":"levelo://app?vid=51faff55-ca87-4c22-9547-e884d17236b1"},"vehicle_type_id":"4","last_reported":1698591954,"current_range_meters":3600,"station_id":"ce4bh3h2rcd13ifvqdo0","pricing_plan_id":"free"},{"bike_id":"512a7448-656e-42d8-96a1-c5c8fc76f7ed","system_id":"levelo_inurba_marseille","lat":43.285856,"lon":5.350771,"is_reserved":false,"is_disabled":false,"rental_uris":{"android":"levelo://app?vid=512a7448-656e-42d8-96a1-c5c8fc76f7ed","ios":"levelo://app?vid=512a7448-656e-42d8-96a1-c5c8fc76f7ed"},"vehicle_type_id":"4","last_reported":1698591954,"current_range_meters":21200,"station_id":"ce4bhch2rcd13ifvqeug","pricing_plan_id":"free"},{"bike_id":"b30089d5-9225-4d78-a97d-f08f26eae22c","system_id":"levelo_inurba_marseille","lat":43.28615,"lon":5.35102,"is_reserved":false,"is_disabled":false,"rental_uris":{"android":"levelo://app?vid=b30089d5-9225-4d78-a97d-f08f26eae22c","ios":"levelo://app?vid=b30089d5-9225-4d78-a97d-f08f26eae22c"},"vehicle_type_id":"4","last_reported":1698591954,"current_range_meters":20800,"station_id":"ce4bhch2rcd13ifvqeug","pricing_plan_id":"free"},{"bike_id":"7e0652e3-eb2b-45a6-9d9b-b16b615f8503","system_id":"levelo_inurba_marseille","lat":43.284534,"lon":5.358662,"is_reserved":false,"is_disabled":false,"rental_uris":{"android":"levelo://app?vid=7e0652e3-eb2b-45a6-9d9b-b16b615f8503","ios":"levelo://app?vid=7e0652e3-eb2b-45a6-9d9b-b16b615f8503"},"vehicle_type_id":"4","last_reported":1698591954,"current_range_meters":5600,"station_id":"ce4bhah2rcd13ifvqei0","pricing_plan_id":"free"},{"bike_id":"40536142-fd05-408d-a4b2-807d225f314f","system_id":"levelo_inurba_marseille","lat":43.283998,"lon":5.375062,"is_reserved":false,"is_disabled":false,"rental_uris":{"android":"levelo://app?vid=40536142-fd05-408d-a4b2-807d225f314f","ios":"levelo://app?vid=40536142-fd05-408d-a4b2-807d225f314f"},"vehicle_type_id":"4","last_reported":1698591954,"current_range_meters":31200,"station_id":"ce4bh412rcd13ifvqds0","pricing_plan_id":"free"},{"bike_id":"221223a7-d328-4e18-a83a-462ac224d99f","system_id":"levelo_inurba_marseille","lat":43.284308,"lon":5.35801,"is_reserved":false,"is_disabled":false,"rental_uris":{"android":"levelo://app?vid=221223a7-d328-4e18-a83a-462ac224d99f","ios":"levelo://app?vid=221223a7-d328-4e18-a83a-462ac224d99f"},"vehicle_type_id":"4","last_reported":1698591954,"current_range_meters":4400,"station_id":"","pricing_plan_id":"free"},{"bike_id":"851bb45b-b6dd-4655-8b09-84f0e9094739","system_id":"levelo_inurba_marseille","lat":43.283998,"lon":5.375062,"is_reserved":false,"is_disabled":false,"rental_uris":{"android":"levelo://app?vid=851bb45b-b6dd-4655-8b09-84f0e9094739","ios":"levelo://app?vid=851bb45b-b6dd-4655-8b09-84f0e9094739"},"vehicle_type_id":"4","last_reported":1698591954,"current_range_meters":31200,"station_id":"ce4bh412rcd13ifvqds0","pricing_plan_id":"free"},{"bike_id":"07cb1417-14c8-427c-9f3c-ec8122faf04b","system_id":"levelo_inurba_marseille","lat":43.283998,"lon":5.375062,"is_reserved":false,"is_disabled":false,"rental_uris":{"android":"levelo://app?vid=07cb1417-14c8-427c-9f3c-ec8122faf04b","ios":"levelo://app?vid=07cb1417-14c8-427c-9f3c-ec8122faf04b"},"vehicle_type_id":"4","last_reported":1698591954,"current_range_meters":18000,"station_id":"ce4bh412rcd13ifvqds0","pricing_plan_id":"free"},{"bike_id":"62b385b6-8ece-4e40-b519-1708171c637d","system_id":"levelo_inurba_marseille","lat":43.283998,"lon":5.375062,"is_reserved":false,"is_disabled":false,"rental_uris":{"android":"levelo://app?vid=62b385b6-8ece-4e40-b519-1708171c637d","ios":"levelo://app?vid=62b385b6-8ece-4e40-b519-1708171c637d"},"vehicle_type_id":"4","last_reported":1698591954,"current_range_meters":26400,"station_id":"ce4bh412rcd13ifvqds0","pricing_plan_id":"free"},{"bike_id":"875606ad-e77c-471b-b42e-5dc282285cfc","system_id":"levelo_inurba_marseille","lat":43.286595,"lon":5.386795,"is_reserved":false,"is_disabled":false,"rental_uris":{"android":"levelo://app?vid=875606ad-e77c-471b-b42e-5dc282285cfc","ios":"levelo://app?vid=875606ad-e77c-471b-b42e-5dc282285cfc"},"vehicle_type_id":"4","last_reported":1698591954,"current_range_meters":6800,"station_id":"ce4bh492rcd13ifvqdug","pricing_plan_id":"free"},{"bike_id":"15bdef24-340e-4fcc-8b69-a97001c44759","system_id":"levelo_inurba_marseille","lat":43.33752,"lon":5.39113,"is_reserved":false,"is_disabled":false,"rental_uris":{"android":"levelo://app?vid=15bdef24-340e-4fcc-8b69-a97001c44759","ios":"levelo://app?vid=15bdef24-340e-4fcc-8b69-a97001c44759"},"vehicle_type_id":"4","last_reported":1698591954,"current_range_meters":31200,"station_id":"","pricing_plan_id":"free"},{"bike_id":"6b330d8d-2292-4634-bc5c-8d4cf261fbba","system_id":"levelo_inurba_marseille","lat":43.284876,"lon":5.384286,"is_reserved":false,"is_disabled":false,"rental_uris":{"android":"levelo://app?vid=6b330d8d-2292-4634-bc5c-8d4cf261fbba","ios":"levelo://app?vid=6b330d8d-2292-4634-bc5c-8d4cf261fbba"},"vehicle_type_id":"4","last_reported":1698591954,"current_range_meters":31200,"station_id":"ce4bh512rcd13ifvqe3g","pricing_plan_id":"free"},{"bike_id":"ccf0ec3c-a02e-4d02-8bd9-096f7aa2d233","system_id":"levelo_inurba_marseille","lat":43.2848,"lon":5.38419,"is_reserved":false,"is_disabled":false,"rental_uris":{"android":"levelo://app?vid=ccf0ec3c-a02e-4d02-8bd9-096f7aa2d233","ios":"levelo://app?vid=ccf0ec3c-a02e-4d02-8bd9-096f7aa2d233"},"vehicle_type_id":"4","last_reported":1698591954,"current_range_meters":4800,"station_id":"ce4bh512rcd13ifvqe3g","pricing_plan_id":"free"},{"bike_id":"c74f086c-c912-4fd3-9246-3a3094388af8","system_id":"levelo_inurba_marseille","lat":43.284793,"lon":5.384113,"is_reserved":false,"is_disabled":false,"rental_uris":{"android":"levelo://app?vid=c74f086c-c912-4fd3-9246-3a3094388af8","ios":"levelo://app?vid=c74f086c-c912-4fd3-9246-3a3094388af8"},"vehicle_type_id":"4","last_reported":1698591954,"current_range_meters":31200,"station_id":"ce4bh512rcd13ifvqe3g","pricing_plan_id":"free"},{"bike_id":"83db0e2e-4146-4159-8acc-bf9a8fba26e1","system_id":"levelo_inurba_marseille","lat":43.28479,"lon":5.38422,"is_reserved":false,"is_disabled":false,"rental_uris":{"android":"levelo://app?vid=83db0e2e-4146-4159-8acc-bf9a8fba26e1","ios":"levelo://app?vid=83db0e2e-4146-4159-8acc-bf9a8fba26e1"},"vehicle_type_id":"4","last_reported":1698591954,"current_range_meters":28400,"station_id":"ce4bh512rcd13ifvqe3g","pricing_plan_id":"free"},{"bike_id":"431a75dc-2022-49dd-8eed-1630870e6634","system_id":"levelo_inurba_marseille","lat":43.284793,"lon":5.384119,"is_reserved":false,"is_disabled":false,"rental_uris":{"android":"levelo://app?vid=431a75dc-2022-49dd-8eed-1630870e6634","ios":"levelo://app?vid=431a75dc-2022-49dd-8eed-1630870e6634"},"vehicle_type_id":"4","last_reported":1698591954,"current_range_meters":28800,"station_id":"ce4bh512rcd13ifvqe3g","pricing_plan_id":"free"},{"bike_id":"2897241c-7b86-499e-86b9-ad31a996a97f","system_id":"levelo_inurba_marseille","lat":43.288501,"lon":5.393087,"is_reserved":false,"is_disabled":false,"rental_uris":{"android":"levelo://app?vid=2897241c-7b86-499e-86b9-ad31a996a97f","ios":"levelo://app?vid=2897241c-7b86-499e-86b9-ad31a996a97f"},"vehicle_type_id":"4","last_reported":1698591954,"current_range_meters":24400,"station_id":"ce4bh2p2rcd13ifvqdi0","pricing_plan_id":"free"},{"bike_id":"2f666bbb-190f-4291-ade2-95e2c0cfd815","system_id":"levelo_inurba_marseille","lat":43.325281,"lon":5.405683,"is_reserved":false,"is_disabled":false,"rental_uris":{"android":"levelo://app?vid=2f666bbb-190f-4291-ade2-95e2c0cfd815","ios":"levelo://app?vid=2f666bbb-190f-4291-ade2-95e2c0cfd815"},"vehicle_type_id":"4","last_reported":1698591954,"current_range_meters":14000,"station_id":"","pricing_plan_id":"free"},{"bike_id":"cea74d8b-0b74-417f-9fe1-f4b880ce4c4c","system_id":"levelo_inurba_marseille","lat":43.288501,"lon":5.393087,"is_reserved":false,"is_disabled":false,"rental_uris":{"android":"levelo://app?vid=cea74d8b-0b74-417f-9fe1-f4b880ce4c4c","ios":"levelo://app?vid=cea74d8b-0b74-417f-9fe1-f4b880ce4c4c"},"vehicle_type_id":"4","last_reported":1698591954,"current_range_meters":18800,"station_id":"ce4bh2p2rcd13ifvqdi0","pricing_plan_id":"free"},{"bike_id":"0c8c58c7-3bf7-420e-b2a9-6404ff6ffcc9","system_id":"levelo_inurba_marseille","lat":43.283494,"lon":5.380945,"is_reserved":false,"is_disabled":false,"rental_uris":{"android":"levelo://app?vid=0c8c58c7-3bf7-420e-b2a9-6404ff6ffcc9","ios":"levelo://app?vid=0c8c58c7-3bf7-420e-b2a9-6404ff6ffcc9"},"vehicle_type_id":"4","last_reported":1698591954,"current_range_meters":12000,"station_id":"ce4bh412rcd13ifvqdr0","pricing_plan_id":"free"},{"bike_id":"ed29dd6b-a3a7-45cb-b3fa-adf81554578e","system_id":"levelo_inurba_marseille","lat":43.288497,"lon":5.393089,"is_reserved":false,"is_disabled":false,"rental_uris":{"android":"levelo://app?vid=ed29dd6b-a3a7-45cb-b3fa-adf81554578e","ios":"levelo://app?vid=ed29dd6b-a3a7-45cb-b3fa-adf81554578e"},"vehicle_type_id":"4","last_reported":1698591954,"current_range_meters":7200,"station_id":"ce4bh2p2rcd13ifvqdi0","pricing_plan_id":"free"},{"bike_id":"57e78c24-3222-475a-a9c9-7c40ad891251","system_id":"levelo_inurba_marseille","lat":43.283498,"lon":5.380948,"is_reserved":false,"is_disabled":false,"rental_uris":{"android":"levelo://app?vid=57e78c24-3222-475a-a9c9-7c40ad891251","ios":"levelo://app?vid=57e78c24-3222-475a-a9c9-7c40ad891251"},"vehicle_type_id":"4","last_reported":1698591954,"current_range_meters":17600,"station_id":"ce4bh412rcd13ifvqdr0","pricing_plan_id":"free"},{"bike_id":"f4683ee3-2765-4b49-b668-cba1bfe6d86f","system_id":"levelo_inurba_marseille","lat":43.284219,"lon":5.3497,"is_reserved":false,"is_disabled":false,"rental_uris":{"android":"levelo://app?vid=f4683ee3-2765-4b49-b668-cba1bfe6d86f","ios":"levelo://app?vid=f4683ee3-2765-4b49-b668-cba1bfe6d86f"},"vehicle_type_id":"4","last_reported":1698591954,"current_range_meters":27200,"station_id":"ce4bhbh2rcd13ifvqepg","pricing_plan_id":"free"},{"bike_id":"cc451d3b-c5d5-42a6-85a8-1aee6bc5bcda","system_id":"levelo_inurba_marseille","lat":43.284217,"lon":5.349697,"is_reserved":false,"is_disabled":false,"rental_uris":{"android":"levelo://app?vid=cc451d3b-c5d5-42a6-85a8-1aee6bc5bcda","ios":"levelo://app?vid=cc451d3b-c5d5-42a6-85a8-1aee6bc5bcda"},"vehicle_type_id":"4","last_reported":1698591954,"current_range_meters":20400,"station_id":"ce4bhbh2rcd13ifvqepg","pricing_plan_id":"free"},{"bike_id":"6c9b1804-71f3-4dc7-b856-122f311c8c37","system_id":"levelo_inurba_marseille","lat":43.282754,"lon":5.350519,"is_reserved":false,"is_disabled":false,"rental_uris":{"android":"levelo://app?vid=6c9b1804-71f3-4dc7-b856-122f311c8c37","ios":"levelo://app?vid=6c9b1804-71f3-4dc7-b856-122f311c8c37"},"vehicle_type_id":"4","last_reported":1698591954,"current_range_meters":11200,"station_id":"ce4bhbp2rcd13ifvqerg","pricing_plan_id":"free"},{"bike_id":"8415bb76-1a91-4f2d-bae4-e82131d34b48","system_id":"levelo_inurba_marseille","lat":43.282754,"lon":5.350519,"is_reserved":false,"is_disabled":false,"rental_uris":{"android":"levelo://app?vid=8415bb76-1a91-4f2d-bae4-e82131d34b48","ios":"levelo://app?vid=8415bb76-1a91-4f2d-bae4-e82131d34b48"},"vehicle_type_id":"4","last_reported":1698591954,"current_range_meters":25600,"station_id":"ce4bhbp2rcd13ifvqerg","pricing_plan_id":"free"},{"bike_id":"782f6d69-8181-4631-ab7f-ee32cf18ffcb","system_id":"levelo_inurba_marseille","lat":43.282744,"lon":5.350533,"is_reserved":false,"is_disabled":false,"rental_uris":{"android":"levelo://app?vid=782f6d69-8181-4631-ab7f-ee32cf18ffcb","ios":"levelo://app?vid=782f6d69-8181-4631-ab7f-ee32cf18ffcb"},"vehicle_type_id":"4","last_reported":1698591954,"current_range_meters":0,"station_id":"ce4bhbp2rcd13ifvqerg","pricing_plan_id":"free"},{"bike_id":"f465819f-a76f-43d6-bcac-4eefd2cc3a1e","system_id":"levelo_inurba_marseille","lat":43.28039,"lon":5.369297,"is_reserved":false,"is_disabled":false,"rental_uris":{"android":"levelo://app?vid=f465819f-a76f-43d6-bcac-4eefd2cc3a1e","ios":"levelo://app?vid=f465819f-a76f-43d6-bcac-4eefd2cc3a1e"},"vehicle_type_id":"4","last_reported":1698591954,"current_range_meters":25600,"station_id":"ce4bha12rcd13ifvqef0","pricing_plan_id":"free"},{"bike_id":"1ca242fe-6084-4f9b-8b54-35d465872844","system_id":"levelo_inurba_marseille","lat":43.29041,"lon":5.399634,"is_reserved":false,"is_disabled":false,"rental_uris":{"android":"levelo://app?vid=1ca242fe-6084-4f9b-8b54-35d465872844","ios":"levelo://app?vid=1ca242fe-6084-4f9b-8b54-35d465872844"},"vehicle_type_id":"4","last_reported":1698591954,"current_range_meters":21200,"station_id":"ce4bh392rcd13ifvqdm0","pricing_plan_id":"free"},{"bike_id":"d196922f-95b6-417b-b316-4257c32f2e84","system_id":"levelo_inurba_marseille","lat":43.281044,"lon":5.378308,"is_reserved":false,"is_disabled":false,"rental_uris":{"android":"levelo://app?vid=d196922f-95b6-417b-b316-4257c32f2e84","ios":"levelo://app?vid=d196922f-95b6-417b-b316-4257c32f2e84"},"vehicle_type_id":"4","last_reported":1698591954,"current_range_meters":30000,"station_id":"ce4bha12rcd13ifvqee0","pricing_plan_id":"free"},{"bike_id":"3d025afb-b4d5-434c-b2f6-7f60435b236b","system_id":"levelo_inurba_marseille","lat":43.281044,"lon":5.378308,"is_reserved":false,"is_disabled":false,"rental_uris":{"android":"levelo://app?vid=3d025afb-b4d5-434c-b2f6-7f60435b236b","ios":"levelo://app?vid=3d025afb-b4d5-434c-b2f6-7f60435b236b"},"vehicle_type_id":"4","last_reported":1698591954,"current_range_meters":25200,"station_id":"ce4bha12rcd13ifvqee0","pricing_plan_id":"free"},{"bike_id":"88ded2ec-88b6-4cbf-aeb6-8257528e3fed","system_id":"levelo_inurba_marseille","lat":43.281044,"lon":5.378308,"is_reserved":false,"is_disabled":false,"rental_uris":{"android":"levelo://app?vid=88ded2ec-88b6-4cbf-aeb6-8257528e3fed","ios":"levelo://app?vid=88ded2ec-88b6-4cbf-aeb6-8257528e3fed"},"vehicle_type_id":"4","last_reported":1698591954,"current_range_meters":15600,"station_id":"ce4bha12rcd13ifvqee0","pricing_plan_id":"free"},{"bike_id":"3636c0bd-cae2-48e3-9cee-ca8b07a25849","system_id":"levelo_inurba_marseille","lat":43.281044,"lon":5.378308,"is_reserved":false,"is_disabled":false,"rental_uris":{"android":"levelo://app?vid=3636c0bd-cae2-48e3-9cee-ca8b07a25849","ios":"levelo://app?vid=3636c0bd-cae2-48e3-9cee-ca8b07a25849"},"vehicle_type_id":"4","last_reported":1698591954,"current_range_meters":3600,"station_id":"ce4bha12rcd13ifvqee0","pricing_plan_id":"free"},{"bike_id":"27c00d97-02cc-46dc-beba-fcedabacf487","system_id":"levelo_inurba_marseille","lat":43.281044,"lon":5.378308,"is_reserved":false,"is_disabled":false,"rental_uris":{"android":"levelo://app?vid=27c00d97-02cc-46dc-beba-fcedabacf487","ios":"levelo://app?vid=27c00d97-02cc-46dc-beba-fcedabacf487"},"vehicle_type_id":"4","last_reported":1698591954,"current_range_meters":28800,"station_id":"ce4bha12rcd13ifvqee0","pricing_plan_id":"free"},{"bike_id":"d445e7dc-8f39-4198-8d15-1838ad42556e","system_id":"levelo_inurba_marseille","lat":43.296263,"lon":5.40601,"is_reserved":false,"is_disabled":false,"rental_uris":{"android":"levelo://app?vid=d445e7dc-8f39-4198-8d15-1838ad42556e","ios":"levelo://app?vid=d445e7dc-8f39-4198-8d15-1838ad42556e"},"vehicle_type_id":"4","last_reported":1698591954,"current_range_meters":20400,"station_id":"ce4bh0h2rcd13ifvqd60","pricing_plan_id":"free"},{"bike_id":"1e24d428-7b7b-467a-8200-d7a3ed9482ac","system_id":"levelo_inurba_marseille","lat":43.281044,"lon":5.378308,"is_reserved":false,"is_disabled":false,"rental_uris":{"android":"levelo://app?vid=1e24d428-7b7b-467a-8200-d7a3ed9482ac","ios":"levelo://app?vid=1e24d428-7b7b-467a-8200-d7a3ed9482ac"},"vehicle_type_id":"4","last_reported":1698591954,"current_range_meters":8400,"station_id":"ce4bha12rcd13ifvqee0","pricing_plan_id":"free"},{"bike_id":"2ff4290a-953b-40dc-9c7e-2436150f81c2","system_id":"levelo_inurba_marseille","lat":43.281474,"lon":5.383478,"is_reserved":false,"is_disabled":false,"rental_uris":{"android":"levelo://app?vid=2ff4290a-953b-40dc-9c7e-2436150f81c2","ios":"levelo://app?vid=2ff4290a-953b-40dc-9c7e-2436150f81c2"},"vehicle_type_id":"4","last_reported":1698591954,"current_range_meters":4000,"station_id":"","pricing_plan_id":"free"},{"bike_id":"c8f286eb-4f3b-40ec-9e60-b04e23f1a564","system_id":"levelo_inurba_marseille","lat":43.284462,"lon":5.392121,"is_reserved":false,"is_disabled":false,"rental_uris":{"android":"levelo://app?vid=c8f286eb-4f3b-40ec-9e60-b04e23f1a564","ios":"levelo://app?vid=c8f286eb-4f3b-40ec-9e60-b04e23f1a564"},"vehicle_type_id":"4","last_reported":1698591954,"current_range_meters":11200,"station_id":"ce4bhoh2rcd13ifvqh5g","pricing_plan_id":"free"},{"bike_id":"9c3d6cb4-ff9e-4690-8c6e-8837e2258e55","system_id":"levelo_inurba_marseille","lat":43.304197,"lon":5.41282,"is_reserved":false,"is_disabled":false,"rental_uris":{"android":"levelo://app?vid=9c3d6cb4-ff9e-4690-8c6e-8837e2258e55","ios":"levelo://app?vid=9c3d6cb4-ff9e-4690-8c6e-8837e2258e55"},"vehicle_type_id":"4","last_reported":1698591954,"current_range_meters":26800,"station_id":"ce4bhop2rcd13ifvqh8g","pricing_plan_id":"free"},{"bike_id":"32380048-e302-4a4f-9b54-c4ededcaef77","system_id":"levelo_inurba_marseille","lat":43.28121,"lon":5.38937,"is_reserved":false,"is_disabled":false,"rental_uris":{"android":"levelo://app?vid=32380048-e302-4a4f-9b54-c4ededcaef77","ios":"levelo://app?vid=32380048-e302-4a4f-9b54-c4ededcaef77"},"vehicle_type_id":"4","last_reported":1698591954,"current_range_meters":22400,"station_id":"","pricing_plan_id":"free"},{"bike_id":"e3d2c9cc-c6f9-4236-b083-c2c335dc163e","system_id":"levelo_inurba_marseille","lat":43.299579,"lon":5.413255,"is_reserved":false,"is_disabled":false,"rental_uris":{"android":"levelo://app?vid=e3d2c9cc-c6f9-4236-b083-c2c335dc163e","ios":"levelo://app?vid=e3d2c9cc-c6f9-4236-b083-c2c335dc163e"},"vehicle_type_id":"4","last_reported":1698591954,"current_range_meters":19600,"station_id":"ce4bhp12rcd13ifvqh9g","pricing_plan_id":"free"},{"bike_id":"063aab5d-df81-449d-aacd-9053f0eb8bd4","system_id":"levelo_inurba_marseille","lat":43.32033,"lon":5.4157,"is_reserved":false,"is_disabled":false,"rental_uris":{"android":"levelo://app?vid=063aab5d-df81-449d-aacd-9053f0eb8bd4","ios":"levelo://app?vid=063aab5d-df81-449d-aacd-9053f0eb8bd4"},"vehicle_type_id":"4","last_reported":1698591954,"current_range_meters":17200,"station_id":"ce4bhq92rcd13ifvqhkg","pricing_plan_id":"free"},{"bike_id":"b5fcfdb9-423f-449d-bd04-f8da31ec2dad","system_id":"levelo_inurba_marseille","lat":43.292569,"lon":5.409107,"is_reserved":false,"is_disabled":false,"rental_uris":{"android":"levelo://app?vid=b5fcfdb9-423f-449d-bd04-f8da31ec2dad","ios":"levelo://app?vid=b5fcfdb9-423f-449d-bd04-f8da31ec2dad"},"vehicle_type_id":"4","last_reported":1698591954,"current_range_meters":24800,"station_id":"ce4bh192rcd13ifvqdc0","pricing_plan_id":"free"},{"bike_id":"e06c6de6-378e-47d0-afbb-06f3a39ee2b0","system_id":"levelo_inurba_marseille","lat":43.325233,"lon":5.414318,"is_reserved":false,"is_disabled":false,"rental_uris":{"android":"levelo://app?vid=e06c6de6-378e-47d0-afbb-06f3a39ee2b0","ios":"levelo://app?vid=e06c6de6-378e-47d0-afbb-06f3a39ee2b0"},"vehicle_type_id":"4","last_reported":1698591954,"current_range_meters":30000,"station_id":"ce4bhq12rcd13ifvqhhg","pricing_plan_id":"free"},{"bike_id":"5adbf391-dbc0-4687-aebb-0ea9707bc73b","system_id":"levelo_inurba_marseille","lat":43.276179,"lon":5.361009,"is_reserved":false,"is_disabled":false,"rental_uris":{"android":"levelo://app?vid=5adbf391-dbc0-4687-aebb-0ea9707bc73b","ios":"levelo://app?vid=5adbf391-dbc0-4687-aebb-0ea9707bc73b"},"vehicle_type_id":"4","last_reported":1698591954,"current_range_meters":19200,"station_id":"ce4bgj92rcd13ifvqbe0","pricing_plan_id":"free"},{"bike_id":"ab441268-3e03-4104-94cc-7705d60c6788","system_id":"levelo_inurba_marseille","lat":43.347892,"lon":5.348552,"is_reserved":false,"is_disabled":false,"rental_uris":{"android":"levelo://app?vid=ab441268-3e03-4104-94cc-7705d60c6788","ios":"levelo://app?vid=ab441268-3e03-4104-94cc-7705d60c6788"},"vehicle_type_id":"4","last_reported":1698591954,"current_range_meters":15200,"station_id":"","pricing_plan_id":"free"},{"bike_id":"c2315ce7-d731-421e-8a1f-f8e6db6b3743","system_id":"levelo_inurba_marseille","lat":43.280784,"lon":5.396622,"is_reserved":false,"is_disabled":false,"rental_uris":{"android":"levelo://app?vid=c2315ce7-d731-421e-8a1f-f8e6db6b3743","ios":"levelo://app?vid=c2315ce7-d731-421e-8a1f-f8e6db6b3743"},"vehicle_type_id":"4","last_reported":1698591954,"current_range_meters":17200,"station_id":"ce4bho12rcd13ifvqh2g","pricing_plan_id":"free"},{"bike_id":"5ee14db0-c068-4f24-9eea-5ae8d817faf0","system_id":"levelo_inurba_marseille","lat":43.273613,"lon":5.362705,"is_reserved":false,"is_disabled":false,"rental_uris":{"android":"levelo://app?vid=5ee14db0-c068-4f24-9eea-5ae8d817faf0","ios":"levelo://app?vid=5ee14db0-c068-4f24-9eea-5ae8d817faf0"},"vehicle_type_id":"4","last_reported":1698591954,"current_range_meters":6000,"station_id":"ce4bhbh2rcd13ifvqeo0","pricing_plan_id":"free"},{"bike_id":"ad792d74-0fe0-4f28-8273-babb3dc4f382","system_id":"levelo_inurba_marseille","lat":43.273613,"lon":5.362705,"is_reserved":false,"is_disabled":false,"rental_uris":{"android":"levelo://app?vid=ad792d74-0fe0-4f28-8273-babb3dc4f382","ios":"levelo://app?vid=ad792d74-0fe0-4f28-8273-babb3dc4f382"},"vehicle_type_id":"4","last_reported":1698591954,"current_range_meters":0,"station_id":"ce4bhbh2rcd13ifvqeo0","pricing_plan_id":"free"},{"bike_id":"ed9e19da-b424-452f-bfe4-3e4aa8528b32","system_id":"levelo_inurba_marseille","lat":43.273613,"lon":5.362705,"is_reserved":false,"is_disabled":false,"rental_uris":{"android":"levelo://app?vid=ed9e19da-b424-452f-bfe4-3e4aa8528b32","ios":"levelo://app?vid=ed9e19da-b424-452f-bfe4-3e4aa8528b32"},"vehicle_type_id":"4","last_reported":1698591954,"current_range_meters":31200,"station_id":"ce4bhbh2rcd13ifvqeo0","pricing_plan_id":"free"},{"bike_id":"ea6c4e17-4ac4-48df-8d47-4b4ec147b928","system_id":"levelo_inurba_marseille","lat":43.27371,"lon":5.36243,"is_reserved":false,"is_disabled":false,"rental_uris":{"android":"levelo://app?vid=ea6c4e17-4ac4-48df-8d47-4b4ec147b928","ios":"levelo://app?vid=ea6c4e17-4ac4-48df-8d47-4b4ec147b928"},"vehicle_type_id":"4","last_reported":1698591954,"current_range_meters":18400,"station_id":"","pricing_plan_id":"free"},{"bike_id":"87655bad-c379-4e5f-876c-a1d2ebe97fb2","system_id":"levelo_inurba_marseille","lat":43.336134,"lon":5.410341,"is_reserved":false,"is_disabled":false,"rental_uris":{"android":"levelo://app?vid=87655bad-c379-4e5f-876c-a1d2ebe97fb2","ios":"levelo://app?vid=87655bad-c379-4e5f-876c-a1d2ebe97fb2"},"vehicle_type_id":"4","last_reported":1698591954,"current_range_meters":15600,"station_id":"ce4bhqh2rcd13ifvqhmg","pricing_plan_id":"free"},{"bike_id":"6fe9797b-7798-4863-967a-555c52665805","system_id":"levelo_inurba_marseille","lat":43.276769,"lon":5.388787,"is_reserved":false,"is_disabled":false,"rental_uris":{"android":"levelo://app?vid=6fe9797b-7798-4863-967a-555c52665805","ios":"levelo://app?vid=6fe9797b-7798-4863-967a-555c52665805"},"vehicle_type_id":"4","last_reported":1698591954,"current_range_meters":28400,"station_id":"ce4bhi12rcd13ifvqfo0","pricing_plan_id":"free"},{"bike_id":"5dc758e7-e9a7-48c9-814d-64987b63a05a","system_id":"levelo_inurba_marseille","lat":43.276771,"lon":5.388799,"is_reserved":false,"is_disabled":false,"rental_uris":{"android":"levelo://app?vid=5dc758e7-e9a7-48c9-814d-64987b63a05a","ios":"levelo://app?vid=5dc758e7-e9a7-48c9-814d-64987b63a05a"},"vehicle_type_id":"4","last_reported":1698591954,"current_range_meters":25200,"station_id":"ce4bhi12rcd13ifvqfo0","pricing_plan_id":"free"},{"bike_id":"01b14aaf-b7fc-41e8-b11c-f5f9ba41824f","system_id":"levelo_inurba_marseille","lat":43.275304,"lon":5.385787,"is_reserved":false,"is_disabled":false,"rental_uris":{"android":"levelo://app?vid=01b14aaf-b7fc-41e8-b11c-f5f9ba41824f","ios":"levelo://app?vid=01b14aaf-b7fc-41e8-b11c-f5f9ba41824f"},"vehicle_type_id":"4","last_reported":1698591954,"current_range_meters":5600,"station_id":"","pricing_plan_id":"free"},{"bike_id":"b551e140-c728-4830-8633-76944f446eec","system_id":"levelo_inurba_marseille","lat":43.279979,"lon":5.400129,"is_reserved":false,"is_disabled":false,"rental_uris":{"android":"levelo://app?vid=b551e140-c728-4830-8633-76944f446eec","ios":"levelo://app?vid=b551e140-c728-4830-8633-76944f446eec"},"vehicle_type_id":"4","last_reported":1698591954,"current_range_meters":31200,"station_id":"ce4bho92rcd13ifvqh4g","pricing_plan_id":"free"},{"bike_id":"e64ec2c4-5126-435b-ac80-9840575e2e21","system_id":"levelo_inurba_marseille","lat":43.279952,"lon":5.400085,"is_reserved":false,"is_disabled":false,"rental_uris":{"android":"levelo://app?vid=e64ec2c4-5126-435b-ac80-9840575e2e21","ios":"levelo://app?vid=e64ec2c4-5126-435b-ac80-9840575e2e21"},"vehicle_type_id":"4","last_reported":1698591954,"current_range_meters":1200,"station_id":"ce4bho92rcd13ifvqh4g","pricing_plan_id":"free"},{"bike_id":"82047b19-780e-4f24-a5c7-850b68a0b058","system_id":"levelo_inurba_marseille","lat":43.27992,"lon":5.40025,"is_reserved":false,"is_disabled":false,"rental_uris":{"android":"levelo://app?vid=82047b19-780e-4f24-a5c7-850b68a0b058","ios":"levelo://app?vid=82047b19-780e-4f24-a5c7-850b68a0b058"},"vehicle_type_id":"4","last_reported":1698591954,"current_range_meters":31200,"station_id":"ce4bho92rcd13ifvqh4g","pricing_plan_id":"free"},{"bike_id":"c08f1a51-d1c7-444a-b8cf-e0bbc1214c97","system_id":"levelo_inurba_marseille","lat":43.317121,"lon":5.423936,"is_reserved":false,"is_disabled":false,"rental_uris":{"android":"levelo://app?vid=c08f1a51-d1c7-444a-b8cf-e0bbc1214c97","ios":"levelo://app?vid=c08f1a51-d1c7-444a-b8cf-e0bbc1214c97"},"vehicle_type_id":"4","last_reported":1698591954,"current_range_meters":30000,"station_id":"ce4bhp92rcd13ifvqhbg","pricing_plan_id":"free"},{"bike_id":"c5547a94-5c4c-4dba-8cdf-afe6b163ecda","system_id":"levelo_inurba_marseille","lat":43.310785,"lon":5.424305,"is_reserved":false,"is_disabled":false,"rental_uris":{"android":"levelo://app?vid=c5547a94-5c4c-4dba-8cdf-afe6b163ecda","ios":"levelo://app?vid=c5547a94-5c4c-4dba-8cdf-afe6b163ecda"},"vehicle_type_id":"4","last_reported":1698591954,"current_range_meters":16800,"station_id":"ce4bhp92rcd13ifvqhag","pricing_plan_id":"free"},{"bike_id":"cefd86e6-517f-44ff-add3-5f9c84b01404","system_id":"levelo_inurba_marseille","lat":43.310785,"lon":5.424305,"is_reserved":false,"is_disabled":false,"rental_uris":{"android":"levelo://app?vid=cefd86e6-517f-44ff-add3-5f9c84b01404","ios":"levelo://app?vid=cefd86e6-517f-44ff-add3-5f9c84b01404"},"vehicle_type_id":"4","last_reported":1698591954,"current_range_meters":9200,"station_id":"ce4bhp92rcd13ifvqhag","pricing_plan_id":"free"},{"bike_id":"69af5f81-4e43-4e05-8090-98f54655cd52","system_id":"levelo_inurba_marseille","lat":43.310785,"lon":5.424305,"is_reserved":false,"is_disabled":false,"rental_uris":{"android":"levelo://app?vid=69af5f81-4e43-4e05-8090-98f54655cd52","ios":"levelo://app?vid=69af5f81-4e43-4e05-8090-98f54655cd52"},"vehicle_type_id":"4","last_reported":1698591954,"current_range_meters":31600,"station_id":"ce4bhp92rcd13ifvqhag","pricing_plan_id":"free"},{"bike_id":"8a2b96c9-70db-40c5-8ffe-c8ce325e8c8f","system_id":"levelo_inurba_marseille","lat":43.310785,"lon":5.424305,"is_reserved":false,"is_disabled":false,"rental_uris":{"android":"levelo://app?vid=8a2b96c9-70db-40c5-8ffe-c8ce325e8c8f","ios":"levelo://app?vid=8a2b96c9-70db-40c5-8ffe-c8ce325e8c8f"},"vehicle_type_id":"4","last_reported":1698591954,"current_range_meters":30000,"station_id":"ce4bhp92rcd13ifvqhag","pricing_plan_id":"free"},{"bike_id":"d58dc1b0-a920-45a9-b8ae-bc43ae7fdaaf","system_id":"levelo_inurba_marseille","lat":43.31078,"lon":5.42434,"is_reserved":false,"is_disabled":false,"rental_uris":{"android":"levelo://app?vid=d58dc1b0-a920-45a9-b8ae-bc43ae7fdaaf","ios":"levelo://app?vid=d58dc1b0-a920-45a9-b8ae-bc43ae7fdaaf"},"vehicle_type_id":"4","last_reported":1698591954,"current_range_meters":13600,"station_id":"ce4bhp92rcd13ifvqhag","pricing_plan_id":"free"},{"bike_id":"10771e27-9dfa-483f-a879-18ff14f74247","system_id":"levelo_inurba_marseille","lat":43.310021,"lon":5.425067,"is_reserved":false,"is_disabled":false,"rental_uris":{"android":"levelo://app?vid=10771e27-9dfa-483f-a879-18ff14f74247","ios":"levelo://app?vid=10771e27-9dfa-483f-a879-18ff14f74247"},"vehicle_type_id":"4","last_reported":1698591954,"current_range_meters":0,"station_id":"","pricing_plan_id":"free"},{"bike_id":"291a32c9-e8fe-4c60-819c-bf8d640a2016","system_id":"levelo_inurba_marseille","lat":43.2936,"lon":5.37835,"is_reserved":false,"is_disabled":false,"rental_uris":{"android":"levelo://app?vid=291a32c9-e8fe-4c60-819c-bf8d640a2016","ios":"levelo://app?vid=291a32c9-e8fe-4c60-819c-bf8d640a2016"},"vehicle_type_id":"4","last_reported":1698591954,"current_range_meters":19600,"station_id":"ce4bgjh2rcd13ifvqbf0","pricing_plan_id":"free"},{"bike_id":"bc0e24a7-6ada-4199-bab8-a343f13b13fe","system_id":"levelo_inurba_marseille","lat":43.272332,"lon":5.392339,"is_reserved":false,"is_disabled":false,"rental_uris":{"android":"levelo://app?vid=bc0e24a7-6ada-4199-bab8-a343f13b13fe","ios":"levelo://app?vid=bc0e24a7-6ada-4199-bab8-a343f13b13fe"},"vehicle_type_id":"4","last_reported":1698591954,"current_range_meters":0,"station_id":"","pricing_plan_id":"free"},{"bike_id":"4688c12f-f70e-4a6b-a7bf-724c19673686","system_id":"levelo_inurba_marseille","lat":43.27216,"lon":5.39257,"is_reserved":false,"is_disabled":false,"rental_uris":{"android":"levelo://app?vid=4688c12f-f70e-4a6b-a7bf-724c19673686","ios":"levelo://app?vid=4688c12f-f70e-4a6b-a7bf-724c19673686"},"vehicle_type_id":"4","last_reported":1698591954,"current_range_meters":26000,"station_id":"","pricing_plan_id":"free"},{"bike_id":"00c97efd-b495-443e-bdc1-0c3565cedcdb","system_id":"levelo_inurba_marseille","lat":43.278128,"lon":5.407195,"is_reserved":false,"is_disabled":false,"rental_uris":{"android":"levelo://app?vid=00c97efd-b495-443e-bdc1-0c3565cedcdb","ios":"levelo://app?vid=00c97efd-b495-443e-bdc1-0c3565cedcdb"},"vehicle_type_id":"4","last_reported":1698591954,"current_range_meters":11600,"station_id":"ce4bhnh2rcd13ifvqgtg","pricing_plan_id":"free"},{"bike_id":"8bc9eab4-3d56-4372-b56b-1be40fa89abc","system_id":"levelo_inurba_marseille","lat":43.278128,"lon":5.407195,"is_reserved":false,"is_disabled":false,"rental_uris":{"android":"levelo://app?vid=8bc9eab4-3d56-4372-b56b-1be40fa89abc","ios":"levelo://app?vid=8bc9eab4-3d56-4372-b56b-1be40fa89abc"},"vehicle_type_id":"4","last_reported":1698591954,"current_range_meters":28800,"station_id":"ce4bhnh2rcd13ifvqgtg","pricing_plan_id":"free"},{"bike_id":"b4089e34-c2d4-41cc-9d82-32af2b37902d","system_id":"levelo_inurba_marseille","lat":43.278128,"lon":5.407195,"is_reserved":false,"is_disabled":false,"rental_uris":{"android":"levelo://app?vid=b4089e34-c2d4-41cc-9d82-32af2b37902d","ios":"levelo://app?vid=b4089e34-c2d4-41cc-9d82-32af2b37902d"},"vehicle_type_id":"4","last_reported":1698591954,"current_range_meters":26000,"station_id":"ce4bhnh2rcd13ifvqgtg","pricing_plan_id":"free"},{"bike_id":"b45094c0-e576-4b87-9a26-59cd5a3e108e","system_id":"levelo_inurba_marseille","lat":43.278128,"lon":5.407195,"is_reserved":false,"is_disabled":false,"rental_uris":{"android":"levelo://app?vid=b45094c0-e576-4b87-9a26-59cd5a3e108e","ios":"levelo://app?vid=b45094c0-e576-4b87-9a26-59cd5a3e108e"},"vehicle_type_id":"4","last_reported":1698591954,"current_range_meters":25200,"station_id":"ce4bhnh2rcd13ifvqgtg","pricing_plan_id":"free"},{"bike_id":"6241ca19-c1e6-4ab1-a630-7163570f8645","system_id":"levelo_inurba_marseille","lat":43.278128,"lon":5.407195,"is_reserved":false,"is_disabled":false,"rental_uris":{"android":"levelo://app?vid=6241ca19-c1e6-4ab1-a630-7163570f8645","ios":"levelo://app?vid=6241ca19-c1e6-4ab1-a630-7163570f8645"},"vehicle_type_id":"4","last_reported":1698591954,"current_range_meters":8000,"station_id":"ce4bhnh2rcd13ifvqgtg","pricing_plan_id":"free"},{"bike_id":"bcb1807a-a27b-4e61-9c2c-2ea4f85195cb","system_id":"levelo_inurba_marseille","lat":43.278128,"lon":5.407195,"is_reserved":false,"is_disabled":false,"rental_uris":{"android":"levelo://app?vid=bcb1807a-a27b-4e61-9c2c-2ea4f85195cb","ios":"levelo://app?vid=bcb1807a-a27b-4e61-9c2c-2ea4f85195cb"},"vehicle_type_id":"4","last_reported":1698591954,"current_range_meters":29200,"station_id":"ce4bhnh2rcd13ifvqgtg","pricing_plan_id":"free"},{"bike_id":"212bb06c-76ad-4c2d-b26c-2a3759a61c1c","system_id":"levelo_inurba_marseille","lat":43.26953,"lon":5.38632,"is_reserved":false,"is_disabled":false,"rental_uris":{"android":"levelo://app?vid=212bb06c-76ad-4c2d-b26c-2a3759a61c1c","ios":"levelo://app?vid=212bb06c-76ad-4c2d-b26c-2a3759a61c1c"},"vehicle_type_id":"4","last_reported":1698591954,"current_range_meters":8400,"station_id":"ce4bhh92rcd13ifvqfh0","pricing_plan_id":"free"},{"bike_id":"7e6dea1f-fbd3-47e0-b046-c02c9d54f066","system_id":"levelo_inurba_marseille","lat":43.279548,"lon":5.410534,"is_reserved":false,"is_disabled":false,"rental_uris":{"android":"levelo://app?vid=7e6dea1f-fbd3-47e0-b046-c02c9d54f066","ios":"levelo://app?vid=7e6dea1f-fbd3-47e0-b046-c02c9d54f066"},"vehicle_type_id":"4","last_reported":1698591954,"current_range_meters":4400,"station_id":"","pricing_plan_id":"free"},{"bike_id":"891e1734-0f2b-4304-8bd4-989a6a3bbdb4","system_id":"levelo_inurba_marseille","lat":43.279465,"lon":5.410561,"is_reserved":false,"is_disabled":false,"rental_uris":{"android":"levelo://app?vid=891e1734-0f2b-4304-8bd4-989a6a3bbdb4","ios":"levelo://app?vid=891e1734-0f2b-4304-8bd4-989a6a3bbdb4"},"vehicle_type_id":"4","last_reported":1698591954,"current_range_meters":22000,"station_id":"ce4bhnp2rcd13ifvqh0g","pricing_plan_id":"free"},{"bike_id":"fdf817ff-671a-40f5-af16-4b014a09f881","system_id":"levelo_inurba_marseille","lat":43.27938,"lon":5.41034,"is_reserved":false,"is_disabled":false,"rental_uris":{"android":"levelo://app?vid=fdf817ff-671a-40f5-af16-4b014a09f881","ios":"levelo://app?vid=fdf817ff-671a-40f5-af16-4b014a09f881"},"vehicle_type_id":"4","last_reported":1698591954,"current_range_meters":31200,"station_id":"ce4bhnp2rcd13ifvqh0g","pricing_plan_id":"free"},{"bike_id":"65845971-d0c7-463b-b358-7eee340858da","system_id":"levelo_inurba_marseille","lat":43.27943,"lon":5.4105,"is_reserved":false,"is_disabled":false,"rental_uris":{"android":"levelo://app?vid=65845971-d0c7-463b-b358-7eee340858da","ios":"levelo://app?vid=65845971-d0c7-463b-b358-7eee340858da"},"vehicle_type_id":"4","last_reported":1698591954,"current_range_meters":17200,"station_id":"ce4bhnp2rcd13ifvqh0g","pricing_plan_id":"free"},{"bike_id":"7972e31a-4996-4a8e-8bac-ba8485508dfc","system_id":"levelo_inurba_marseille","lat":43.279465,"lon":5.410561,"is_reserved":false,"is_disabled":false,"rental_uris":{"android":"levelo://app?vid=7972e31a-4996-4a8e-8bac-ba8485508dfc","ios":"levelo://app?vid=7972e31a-4996-4a8e-8bac-ba8485508dfc"},"vehicle_type_id":"4","last_reported":1698591954,"current_range_meters":19200,"station_id":"ce4bhnp2rcd13ifvqh0g","pricing_plan_id":"free"},{"bike_id":"9d69e8ac-f2c1-4923-9b1f-884e2594e7b5","system_id":"levelo_inurba_marseille","lat":43.269319,"lon":5.389397,"is_reserved":false,"is_disabled":false,"rental_uris":{"android":"levelo://app?vid=9d69e8ac-f2c1-4923-9b1f-884e2594e7b5","ios":"levelo://app?vid=9d69e8ac-f2c1-4923-9b1f-884e2594e7b5"},"vehicle_type_id":"4","last_reported":1698591954,"current_range_meters":0,"station_id":"ce4bhhh2rcd13ifvqfl0","pricing_plan_id":"free"},{"bike_id":"66a46cce-2509-423f-8e36-ccbf8c1330ab","system_id":"levelo_inurba_marseille","lat":43.269319,"lon":5.389397,"is_reserved":false,"is_disabled":false,"rental_uris":{"android":"levelo://app?vid=66a46cce-2509-423f-8e36-ccbf8c1330ab","ios":"levelo://app?vid=66a46cce-2509-423f-8e36-ccbf8c1330ab"},"vehicle_type_id":"4","last_reported":1698591954,"current_range_meters":21200,"station_id":"ce4bhhh2rcd13ifvqfl0","pricing_plan_id":"free"},{"bike_id":"835f5c42-614e-494e-b417-fce97badf15c","system_id":"levelo_inurba_marseille","lat":43.269319,"lon":5.389397,"is_reserved":false,"is_disabled":false,"rental_uris":{"android":"levelo://app?vid=835f5c42-614e-494e-b417-fce97badf15c","ios":"levelo://app?vid=835f5c42-614e-494e-b417-fce97badf15c"},"vehicle_type_id":"4","last_reported":1698591954,"current_range_meters":29600,"station_id":"ce4bhhh2rcd13ifvqfl0","pricing_plan_id":"free"},{"bike_id":"73956a34-24c9-412d-9b56-b3f857801c70","system_id":"levelo_inurba_marseille","lat":43.26681,"lon":5.382694,"is_reserved":false,"is_disabled":false,"rental_uris":{"android":"levelo://app?vid=73956a34-24c9-412d-9b56-b3f857801c70","ios":"levelo://app?vid=73956a34-24c9-412d-9b56-b3f857801c70"},"vehicle_type_id":"4","last_reported":1698591954,"current_range_meters":3600,"station_id":"ce4bhg92rcd13ifvqf90","pricing_plan_id":"free"},{"bike_id":"39f33626-35cc-44a6-b357-378b85a8e3fa","system_id":"levelo_inurba_marseille","lat":43.26681,"lon":5.382694,"is_reserved":false,"is_disabled":false,"rental_uris":{"android":"levelo://app?vid=39f33626-35cc-44a6-b357-378b85a8e3fa","ios":"levelo://app?vid=39f33626-35cc-44a6-b357-378b85a8e3fa"},"vehicle_type_id":"4","last_reported":1698591954,"current_range_meters":13600,"station_id":"ce4bhg92rcd13ifvqf90","pricing_plan_id":"free"},{"bike_id":"e390d6f8-8426-4f7c-b0af-263838d5d3c3","system_id":"levelo_inurba_marseille","lat":43.26556,"lon":5.37285,"is_reserved":false,"is_disabled":false,"rental_uris":{"android":"levelo://app?vid=e390d6f8-8426-4f7c-b0af-263838d5d3c3","ios":"levelo://app?vid=e390d6f8-8426-4f7c-b0af-263838d5d3c3"},"vehicle_type_id":"4","last_reported":1698591954,"current_range_meters":19600,"station_id":"ce4bhg12rcd13ifvqf70","pricing_plan_id":"free"},{"bike_id":"7f269472-8834-4dfa-ac90-7607488897d7","system_id":"levelo_inurba_marseille","lat":43.26555,"lon":5.37284,"is_reserved":false,"is_disabled":false,"rental_uris":{"android":"levelo://app?vid=7f269472-8834-4dfa-ac90-7607488897d7","ios":"levelo://app?vid=7f269472-8834-4dfa-ac90-7607488897d7"},"vehicle_type_id":"4","last_reported":1698591954,"current_range_meters":9200,"station_id":"ce4bhg12rcd13ifvqf70","pricing_plan_id":"free"},{"bike_id":"1234a1b4-d89c-4ae2-8a41-9c22dafa1c18","system_id":"levelo_inurba_marseille","lat":43.26554,"lon":5.37293,"is_reserved":false,"is_disabled":false,"rental_uris":{"android":"levelo://app?vid=1234a1b4-d89c-4ae2-8a41-9c22dafa1c18","ios":"levelo://app?vid=1234a1b4-d89c-4ae2-8a41-9c22dafa1c18"},"vehicle_type_id":"4","last_reported":1698591954,"current_range_meters":22400,"station_id":"ce4bhg12rcd13ifvqf70","pricing_plan_id":"free"},{"bike_id":"b398ffa2-2ac0-48b7-af29-c591b984bf02","system_id":"levelo_inurba_marseille","lat":43.26552,"lon":5.37286,"is_reserved":false,"is_disabled":false,"rental_uris":{"android":"levelo://app?vid=b398ffa2-2ac0-48b7-af29-c591b984bf02","ios":"levelo://app?vid=b398ffa2-2ac0-48b7-af29-c591b984bf02"},"vehicle_type_id":"4","last_reported":1698591954,"current_range_meters":0,"station_id":"ce4bhg12rcd13ifvqf70","pricing_plan_id":"free"},{"bike_id":"e610933f-f657-4bb4-a514-3746cfe6b8b3","system_id":"levelo_inurba_marseille","lat":43.279919,"lon":5.416561,"is_reserved":false,"is_disabled":false,"rental_uris":{"android":"levelo://app?vid=e610933f-f657-4bb4-a514-3746cfe6b8b3","ios":"levelo://app?vid=e610933f-f657-4bb4-a514-3746cfe6b8b3"},"vehicle_type_id":"4","last_reported":1698591954,"current_range_meters":26000,"station_id":"ce4bho12rcd13ifvqh1g","pricing_plan_id":"free"},{"bike_id":"c0935692-12f1-42b1-b13c-c163e54b33e1","system_id":"levelo_inurba_marseille","lat":43.27997,"lon":5.41671,"is_reserved":false,"is_disabled":false,"rental_uris":{"android":"levelo://app?vid=c0935692-12f1-42b1-b13c-c163e54b33e1","ios":"levelo://app?vid=c0935692-12f1-42b1-b13c-c163e54b33e1"},"vehicle_type_id":"4","last_reported":1698591954,"current_range_meters":14000,"station_id":"ce4bho12rcd13ifvqh1g","pricing_plan_id":"free"},{"bike_id":"2687313b-4537-4b0d-956b-7965a5770ee1","system_id":"levelo_inurba_marseille","lat":43.328212,"lon":5.431596,"is_reserved":false,"is_disabled":false,"rental_uris":{"android":"levelo://app?vid=2687313b-4537-4b0d-956b-7965a5770ee1","ios":"levelo://app?vid=2687313b-4537-4b0d-956b-7965a5770ee1"},"vehicle_type_id":"4","last_reported":1698591954,"current_range_meters":15200,"station_id":"","pricing_plan_id":"free"},{"bike_id":"1cb3f577-fb04-4e28-a15d-87951d1577d9","system_id":"levelo_inurba_marseille","lat":43.308051,"lon":5.43527,"is_reserved":false,"is_disabled":false,"rental_uris":{"android":"levelo://app?vid=1cb3f577-fb04-4e28-a15d-87951d1577d9","ios":"levelo://app?vid=1cb3f577-fb04-4e28-a15d-87951d1577d9"},"vehicle_type_id":"4","last_reported":1698591954,"current_range_meters":29600,"station_id":"ce4bhph2rcd13ifvqheg","pricing_plan_id":"free"},{"bike_id":"ce56f942-f540-46a3-af44-427e7947be87","system_id":"levelo_inurba_marseille","lat":43.308051,"lon":5.43527,"is_reserved":false,"is_disabled":false,"rental_uris":{"android":"levelo://app?vid=ce56f942-f540-46a3-af44-427e7947be87","ios":"levelo://app?vid=ce56f942-f540-46a3-af44-427e7947be87"},"vehicle_type_id":"4","last_reported":1698591954,"current_range_meters":18400,"station_id":"ce4bhph2rcd13ifvqheg","pricing_plan_id":"free"},{"bike_id":"77bd88b0-94d4-432b-ad78-b34f813520ea","system_id":"levelo_inurba_marseille","lat":43.2656,"lon":5.390132,"is_reserved":false,"is_disabled":false,"rental_uris":{"android":"levelo://app?vid=77bd88b0-94d4-432b-ad78-b34f813520ea","ios":"levelo://app?vid=77bd88b0-94d4-432b-ad78-b34f813520ea"},"vehicle_type_id":"4","last_reported":1698591954,"current_range_meters":3200,"station_id":"ce4bhe12rcd13ifvqf30","pricing_plan_id":"free"},{"bike_id":"efbbef42-b150-48eb-8784-926fdd2e78dc","system_id":"levelo_inurba_marseille","lat":43.26553,"lon":5.38992,"is_reserved":false,"is_disabled":false,"rental_uris":{"android":"levelo://app?vid=efbbef42-b150-48eb-8784-926fdd2e78dc","ios":"levelo://app?vid=efbbef42-b150-48eb-8784-926fdd2e78dc"},"vehicle_type_id":"4","last_reported":1698591954,"current_range_meters":29600,"station_id":"ce4bhe12rcd13ifvqf30","pricing_plan_id":"free"},{"bike_id":"2d46cc0c-65c6-4834-956d-7090ad78794e","system_id":"levelo_inurba_marseille","lat":43.265463,"lon":5.389935,"is_reserved":false,"is_disabled":false,"rental_uris":{"android":"levelo://app?vid=2d46cc0c-65c6-4834-956d-7090ad78794e","ios":"levelo://app?vid=2d46cc0c-65c6-4834-956d-7090ad78794e"},"vehicle_type_id":"4","last_reported":1698591954,"current_range_meters":6000,"station_id":"ce4bhe12rcd13ifvqf30","pricing_plan_id":"free"},{"bike_id":"160e5d81-1669-440c-ba28-bc7fb9824630","system_id":"levelo_inurba_marseille","lat":43.26943,"lon":5.40245,"is_reserved":false,"is_disabled":false,"rental_uris":{"android":"levelo://app?vid=160e5d81-1669-440c-ba28-bc7fb9824630","ios":"levelo://app?vid=160e5d81-1669-440c-ba28-bc7fb9824630"},"vehicle_type_id":"4","last_reported":1698591954,"current_range_meters":20800,"station_id":"cjm6bp8fraef2m0cb0m0","pricing_plan_id":"free"},{"bike_id":"87d4e233-5391-46ce-987b-188dcbff647a","system_id":"levelo_inurba_marseille","lat":43.26944,"lon":5.40254,"is_reserved":false,"is_disabled":false,"rental_uris":{"android":"levelo://app?vid=87d4e233-5391-46ce-987b-188dcbff647a","ios":"levelo://app?vid=87d4e233-5391-46ce-987b-188dcbff647a"},"vehicle_type_id":"4","last_reported":1698591954,"current_range_meters":24000,"station_id":"cjm6bp8fraef2m0cb0m0","pricing_plan_id":"free"},{"bike_id":"ec475fa5-8bc0-4f00-8b67-d58798d47746","system_id":"levelo_inurba_marseille","lat":43.26941,"lon":5.40248,"is_reserved":false,"is_disabled":false,"rental_uris":{"android":"levelo://app?vid=ec475fa5-8bc0-4f00-8b67-d58798d47746","ios":"levelo://app?vid=ec475fa5-8bc0-4f00-8b67-d58798d47746"},"vehicle_type_id":"4","last_reported":1698591954,"current_range_meters":31200,"station_id":"cjm6bp8fraef2m0cb0m0","pricing_plan_id":"free"},{"bike_id":"2bb5d85e-0c84-41a2-b9d7-05c8930d80bf","system_id":"levelo_inurba_marseille","lat":43.269403,"lon":5.402528,"is_reserved":false,"is_disabled":false,"rental_uris":{"android":"levelo://app?vid=2bb5d85e-0c84-41a2-b9d7-05c8930d80bf","ios":"levelo://app?vid=2bb5d85e-0c84-41a2-b9d7-05c8930d80bf"},"vehicle_type_id":"4","last_reported":1698591954,"current_range_meters":23200,"station_id":"cjm6bp8fraef2m0cb0m0","pricing_plan_id":"free"},{"bike_id":"45ef9769-e3c1-4f9e-b204-2e6a0ab904cc","system_id":"levelo_inurba_marseille","lat":43.26939,"lon":5.40251,"is_reserved":false,"is_disabled":false,"rental_uris":{"android":"levelo://app?vid=45ef9769-e3c1-4f9e-b204-2e6a0ab904cc","ios":"levelo://app?vid=45ef9769-e3c1-4f9e-b204-2e6a0ab904cc"},"vehicle_type_id":"4","last_reported":1698591954,"current_range_meters":27600,"station_id":"cjm6bp8fraef2m0cb0m0","pricing_plan_id":"free"},{"bike_id":"d419506d-86c5-4e7d-bb9a-037df1de93ba","system_id":"levelo_inurba_marseille","lat":43.269393,"lon":5.40253,"is_reserved":false,"is_disabled":false,"rental_uris":{"android":"levelo://app?vid=d419506d-86c5-4e7d-bb9a-037df1de93ba","ios":"levelo://app?vid=d419506d-86c5-4e7d-bb9a-037df1de93ba"},"vehicle_type_id":"4","last_reported":1698591954,"current_range_meters":20000,"station_id":"cjm6bp8fraef2m0cb0m0","pricing_plan_id":"free"},{"bike_id":"12a7ee7a-5284-464f-b1fc-1f344847fb7a","system_id":"levelo_inurba_marseille","lat":43.26939,"lon":5.40255,"is_reserved":false,"is_disabled":false,"rental_uris":{"android":"levelo://app?vid=12a7ee7a-5284-464f-b1fc-1f344847fb7a","ios":"levelo://app?vid=12a7ee7a-5284-464f-b1fc-1f344847fb7a"},"vehicle_type_id":"4","last_reported":1698591954,"current_range_meters":22800,"station_id":"cjm6bp8fraef2m0cb0m0","pricing_plan_id":"free"},