{"last_updated":1704999941,"ttl":30,"version":"2.2","data":{"bikes":[{"bike_id":"f9b4517c-1064-423f-b666-2e9bc79f4e20","system_id":"levelo_inurba_marseille","lat":43.313391,"lon":5.36706,"is_reserved":false,"is_disabled":false,"rental_uris":{"android":"levelo://app?vid=f9b4517c-1064-423f-b666-2e9bc79f4e20","ios":"levelo://app?vid=f9b4517c-1064-423f-b666-2e9bc79f4e20"},"vehicle_type_id":"4","last_reported":1704999941,"current_range_meters":8400,"station_id":"ce4bgr92rcd13ifvqc6g","pricing_plan_id":"free"},{"bike_id":"5168445e-a665-4326-8951-35ccc53c93b1","system_id":"levelo_inurba_marseille","lat":43.312239,"lon":5.368562,"is_reserved":false,"is_disabled":false,"rental_uris":{"android":"levelo://app?vid=5168445e-a665-4326-8951-35ccc53c93b1","ios":"levelo://app?vid=5168445e-a665-4326-8951-35ccc53c93b1"},"vehicle_type_id":"4","last_reported":1704999941,"current_range_meters":2800,"station_id":"ce4bgl92rcd13ifvqbq0","pricing_plan_id":"free"},{"bike_id":"bd85cbf3-072e-4f07-ab93-e52a10faf322","system_id":"levelo_inurba_marseille","lat":43.314811,"lon":5.373103,"is_reserved":false,"is_disabled":false,"rental_uris":{"android":"levelo://app?vid=bd85cbf3-072e-4f07-ab93-e52a10faf322","ios":"levelo://app?vid=bd85cbf3-072e-4f07-ab93-e52a10faf322"},"vehicle_type_id":"4","last_reported":1704999941,"current_range_meters":9200,"station_id":"ce4bgt12rcd13ifvqcd0","pricing_plan_id":"free"},{"bike_id":"7b3b699f-3f99-4e35-89af-d56ef1f73cc7","system_id":"levelo_inurba_marseille","lat":43.31503,"lon":5.37288,"is_reserved":false,"is_disabled":false,"rental_uris":{"android":"levelo://app?vid=7b3b699f-3f99-4e35-89af-d56ef1f73cc7","ios":"levelo://app?vid=7b3b699f-3f99-4e35-89af-d56ef1f73cc7"},"vehicle_type_id":"4","last_reported":1704999941,"current_range_meters":19600,"station_id":"ce4bgt12rcd13ifvqcd0","pricing_plan_id":"free"},{"bike_id":"9fbdc117-b73a-432c-abe8-5158e19fc2b8","system_id":"levelo_inurba_marseille","lat":43.314811,"lon":5.373103,"is_reserved":false,"is_disabled":false,"rental_uris":{"android":"levelo://app?vid=9fbdc117-b73a-432c-abe8-5158e19fc2b8","ios":"levelo://app?vid=9fbdc117-b73a-432c-abe8-5158e19fc2b8"},"vehicle_type_id":"4","last_reported":1704999941,"current_range_meters":20800,"station_id":"ce4bgt12rcd13ifvqcd0","pricing_plan_id":"free"},{"bike_id":"e0396644-f627-4b71-9cf2-66e56a61337b","system_id":"levelo_inurba_marseille","lat":43.314811,"lon":5.373104,"is_reserved":false,"is_disabled":false,"rental_uris":{"android":"levelo://app?vid=e0396644-f627-4b71-9cf2-66e56a61337b","ios":"levelo://app?vid=e0396644-f627-4b71-9cf2-66e56a61337b"},"vehicle_type_id":"4","last_reported":1704999941,"current_range_meters":30400,"station_id":"ce4bgt12rcd13ifvqcd0","pricing_plan_id":"free"},{"bike_id":"f4d81838-2662-4020-96b7-19c59a438e3a","system_id":"levelo_inurba_marseille","lat":43.314811,"lon":5.373104,"is_reserved":false,"is_disabled":false,"rental_uris":{"android":"levelo://app?vid=f4d81838-2662-4020-96b7-19c59a438e3a","ios":"levelo://app?vid=f4d81838-2662-4020-96b7-19c59a438e3a"},"vehicle_type_id":"4","last_reported":1704999941,"current_range_meters":11200,"station_id":"ce4bgt12rcd13ifvqcd0","pricing_plan_id":"free"},{"bike_id":"493c552c-07c0-4ceb-91b7-b6dbb00ce75d","system_id":"levelo_inurba_marseille","lat":43.308813,"lon":5.37199,"is_reserved":false,"is_disabled":false,"rental_uris":{"android":"levelo://app?vid=493c552c-07c0-4ceb-91b7-b6dbb00ce75d","ios":"levelo://app?vid=493c552c-07c0-4ceb-91b7-b6dbb00ce75d"},"vehicle_type_id":"4","last_reported":1704999941,"current_range_meters":18000,"station_id":"ce4bguh2rcd13ifvqckg","pricing_plan_id":"free"},{"bike_id":"2b90f563-cb6c-4058-a889-b88b42e8a671","system_id":"levelo_inurba_marseille","lat":43.305706,"lon":5.365654,"is_reserved":false,"is_disabled":false,"rental_uris":{"android":"levelo://app?vid=2b90f563-cb6c-4058-a889-b88b42e8a671","ios":"levelo://app?vid=2b90f563-cb6c-4058-a889-b88b42e8a671"},"vehicle_type_id":"4","last_reported":1704999941,"current_range_meters":10800,"station_id":"ce4bgs12rcd13ifvqcag","pricing_plan_id":"free"},{"bike_id":"5e5e3d7d-668e-4e3e-80bf-93e6dbe542a2","system_id":"levelo_inurba_marseille","lat":43.326605,"lon":5.409903,"is_reserved":false,"is_disabled":false,"rental_uris":{"android":"levelo://app?vid=5e5e3d7d-668e-4e3e-80bf-93e6dbe542a2","ios":"levelo://app?vid=5e5e3d7d-668e-4e3e-80bf-93e6dbe542a2"},"vehicle_type_id":"4","last_reported":1704999941,"current_range_meters":24400,"station_id":"ce4bhpp2rcd13ifvqhgg","pricing_plan_id":"free"},{"bike_id":"92de907d-f2a7-425a-a220-775b0124ae29","system_id":"levelo_inurba_marseille","lat":43.307945,"lon":5.376487,"is_reserved":false,"is_disabled":false,"rental_uris":{"android":"levelo://app?vid=92de907d-f2a7-425a-a220-775b0124ae29","ios":"levelo://app?vid=92de907d-f2a7-425a-a220-775b0124ae29"},"vehicle_type_id":"4","last_reported":1704999941,"current_range_meters":20400,"station_id":"ce4bgv92rcd13ifvqcq0","pricing_plan_id":"free"},{"bike_id":"4d461b85-1a0e-4623-8399-e9448b273b12","system_id":"levelo_inurba_marseille","lat":43.317075,"lon":5.377367,"is_reserved":false,"is_disabled":false,"rental_uris":{"android":"levelo://app?vid=4d461b85-1a0e-4623-8399-e9448b273b12","ios":"levelo://app?vid=4d461b85-1a0e-4623-8399-e9448b273b12"},"vehicle_type_id":"4","last_reported":1704999941,"current_range_meters":31600,"station_id":"ce4bgth2rcd13ifvqch0","pricing_plan_id":"free"},{"bike_id":"6037dcd5-149c-4903-b2fd-d261e491b3b8","system_id":"levelo_inurba_marseille","lat":43.317075,"lon":5.377367,"is_reserved":false,"is_disabled":false,"rental_uris":{"android":"levelo://app?vid=6037dcd5-149c-4903-b2fd-d261e491b3b8","ios":"levelo://app?vid=6037dcd5-149c-4903-b2fd-d261e491b3b8"},"vehicle_type_id":"4","last_reported":1704999941,"current_range_meters":11200,"station_id":"ce4bgth2rcd13ifvqch0","pricing_plan_id":"free"},{"bike_id":"10c7ca0c-5b38-4f0b-b97a-aa76113893e5","system_id":"levelo_inurba_marseille","lat":43.31709,"lon":5.37756,"is_reserved":false,"is_disabled":false,"rental_uris":{"android":"levelo://app?vid=10c7ca0c-5b38-4f0b-b97a-aa76113893e5","ios":"levelo://app?vid=10c7ca0c-5b38-4f0b-b97a-aa76113893e5"},"vehicle_type_id":"4","last_reported":1704999941,"current_range_meters":26400,"station_id":"ce4bgth2rcd13ifvqch0","pricing_plan_id":"free"},{"bike_id":"4fb6c33f-6a2d-4cb9-b5f5-71a4f8b0b1b3","system_id":"levelo_inurba_marseille","lat":43.317113,"lon":5.377569,"is_reserved":false,"is_disabled":false,"rental_uris":{"android":"levelo://app?vid=4fb6c33f-6a2d-4cb9-b5f5-71a4f8b0b1b3","ios":"levelo://app?vid=4fb6c33f-6a2d-4cb9-b5f5-71a4f8b0b1b3"},"vehicle_type_id":"4","last_reported":1704999941,"current_range_meters":26800,"station_id":"ce4bgth2rcd13ifvqch0","pricing_plan_id":"free"},{"bike_id":"4703778a-a799-41e5-b078-4160f07f1fec","system_id":"levelo_inurba_marseille","lat":43.317075,"lon":5.377367,"is_reserved":false,"is_disabled":false,"rental_uris":{"android":"levelo://app?vid=4703778a-a799-41e5-b078-4160f07f1fec","ios":"levelo://app?vid=4703778a-a799-41e5-b078-4160f07f1fec"},"vehicle_type_id":"4","last_reported":1704999941,"current_range_meters":24000,"station_id":"ce4bgth2rcd13ifvqch0","pricing_plan_id":"free"},{"bike_id":"ce8ef29b-c139-4a6a-9dfa-cc2726dc2071","system_id":"levelo_inurba_marseille","lat":43.308012,"lon":5.381511,"is_reserved":false,"is_disabled":false,"rental_uris":{"android":"levelo://app?vid=ce8ef29b-c139-4a6a-9dfa-cc2726dc2071","ios":"levelo://app?vid=ce8ef29b-c139-4a6a-9dfa-cc2726dc2071"},"vehicle_type_id":"4","last_reported":1704999941,"current_range_meters":22400,"station_id":"ce4bgt12rcd13ifvqce0","pricing_plan_id":"free"},{"bike_id":"1c887121-e800-4522-870b-cca647071770","system_id":"levelo_inurba_marseille","lat":43.308012,"lon":5.381511,"is_reserved":false,"is_disabled":false,"rental_uris":{"android":"levelo://app?vid=1c887121-e800-4522-870b-cca647071770","ios":"levelo://app?vid=1c887121-e800-4522-870b-cca647071770"},"vehicle_type_id":"4","last_reported":1704999941,"current_range_meters":14800,"station_id":"ce4bgt12rcd13ifvqce0","pricing_plan_id":"free"},{"bike_id":"8b7697d8-b3d8-425d-97bb-e7c8c28241a6","system_id":"levelo_inurba_marseille","lat":43.308012,"lon":5.381511,"is_reserved":false,"is_disabled":false,"rental_uris":{"android":"levelo://app?vid=8b7697d8-b3d8-425d-97bb-e7c8c28241a6","ios":"levelo://app?vid=8b7697d8-b3d8-425d-97bb-e7c8c28241a6"},"vehicle_type_id":"4","last_reported":1704999941,"current_range_meters":21200,"station_id":"ce4bgt12rcd13ifvqce0","pricing_plan_id":"free"},{"bike_id":"336144cc-aa51-4db9-b027-1a0f494cdc6b","system_id":"levelo_inurba_marseille","lat":43.308012,"lon":5.381511,"is_reserved":false,"is_disabled":false,"rental_uris":{"android":"levelo://app?vid=336144cc-aa51-4db9-b027-1a0f494cdc6b","ios":"levelo://app?vid=336144cc-aa51-4db9-b027-1a0f494cdc6b"},"vehicle_type_id":"4","last_reported":1704999941,"current_range_meters":26400,"station_id":"ce4bgt12rcd13ifvqce0","pricing_plan_id":"free"},{"bike_id":"17d5aa7a-d266-4716-b295-94b854bf8eaa","system_id":"levelo_inurba_marseille","lat":43.308012,"lon":5.381511,"is_reserved":false,"is_disabled":false,"rental_uris":{"android":"levelo://app?vid=17d5aa7a-d266-4716-b295-94b854bf8eaa","ios":"levelo://app?vid=17d5aa7a-d266-4716-b295-94b854bf8eaa"},"vehicle_type_id":"4","last_reported":1704999941,"current_range_meters":29600,"station_id":"ce4bgt12rcd13ifvqce0","pricing_plan_id":"free"},{"bike_id":"1f870116-b2d4-4ef6-91b7-023cb8587099","system_id":"levelo_inurba_marseille","lat":43.300827,"lon":5.365856,"is_reserved":false,"is_disabled":false,"rental_uris":{"android":"levelo://app?vid=1f870116-b2d4-4ef6-91b7-023cb8587099","ios":"levelo://app?vid=1f870116-b2d4-4ef6-91b7-023cb8587099"},"vehicle_type_id":"4","last_reported":1704999941,"current_range_meters":8000,"station_id":"","pricing_plan_id":"free"},{"bike_id":"95c66925-a057-4b14-8720-7991897bea9d","system_id":"levelo_inurba_marseille","lat":43.304606,"lon":5.379026,"is_reserved":false,"is_disabled":false,"rental_uris":{"android":"levelo://app?vid=95c66925-a057-4b14-8720-7991897bea9d","ios":"levelo://app?vid=95c66925-a057-4b14-8720-7991897bea9d"},"vehicle_type_id":"4","last_reported":1704999941,"current_range_meters":18000,"station_id":"ce4bgup2rcd13ifvqcn0","pricing_plan_id":"free"},{"bike_id":"d67a9692-4209-4ab8-894a-e96cd1211d97","system_id":"levelo_inurba_marseille","lat":43.324765,"lon":5.365599,"is_reserved":false,"is_disabled":false,"rental_uris":{"android":"levelo://app?vid=d67a9692-4209-4ab8-894a-e96cd1211d97","ios":"levelo://app?vid=d67a9692-4209-4ab8-894a-e96cd1211d97"},"vehicle_type_id":"4","last_reported":1704999941,"current_range_meters":25600,"station_id":"ce4bhs12rcd13ifvqhvg","pricing_plan_id":"free"},{"bike_id":"d48fe32b-6256-4d76-98cc-9bbe0b03d9a7","system_id":"levelo_inurba_marseille","lat":43.301429,"lon":5.37413,"is_reserved":false,"is_disabled":false,"rental_uris":{"android":"levelo://app?vid=d48fe32b-6256-4d76-98cc-9bbe0b03d9a7","ios":"levelo://app?vid=d48fe32b-6256-4d76-98cc-9bbe0b03d9a7"},"vehicle_type_id":"4","last_reported":1704999941,"current_range_meters":25200,"station_id":"ce4bgs92rcd13ifvqcc0","pricing_plan_id":"free"},{"bike_id":"6a0590f3-4f02-4f03-92b0-24f761ad0b23","system_id":"levelo_inurba_marseille","lat":43.319935,"lon":5.381699,"is_reserved":false,"is_disabled":false,"rental_uris":{"android":"levelo://app?vid=6a0590f3-4f02-4f03-92b0-24f761ad0b23","ios":"levelo://app?vid=6a0590f3-4f02-4f03-92b0-24f761ad0b23"},"vehicle_type_id":"4","last_reported":1704999941,"current_range_meters":16400,"station_id":"ce4bhr12rcd13ifvqhpg","pricing_plan_id":"free"},{"bike_id":"e28685a9-930b-4d8a-8fd6-7dc9c706bbe2","system_id":"levelo_inurba_marseille","lat":43.313571,"lon":5.384829,"is_reserved":false,"is_disabled":false,"rental_uris":{"android":"levelo://app?vid=e28685a9-930b-4d8a-8fd6-7dc9c706bbe2","ios":"levelo://app?vid=e28685a9-930b-4d8a-8fd6-7dc9c706bbe2"},"vehicle_type_id":"4","last_reported":1704999941,"current_range_meters":16800,"station_id":"ce4bgt92rcd13ifvqcf0","pricing_plan_id":"free"},{"bike_id":"24c587ef-f4fd-45ef-b56b-f8d88f395bb8","system_id":"levelo_inurba_marseille","lat":43.313571,"lon":5.384829,"is_reserved":false,"is_disabled":false,"rental_uris":{"android":"levelo://app?vid=24c587ef-f4fd-45ef-b56b-f8d88f395bb8","ios":"levelo://app?vid=24c587ef-f4fd-45ef-b56b-f8d88f395bb8"},"vehicle_type_id":"4","last_reported":1704999941,"current_range_meters":21600,"station_id":"ce4bgt92rcd13ifvqcf0","pricing_plan_id":"free"},{"bike_id":"4c8caf4a-f696-4ef0-a1cf-41a5dde689de","system_id":"levelo_inurba_marseille","lat":43.313571,"lon":5.384829,"is_reserved":false,"is_disabled":false,"rental_uris":{"android":"levelo://app?vid=4c8caf4a-f696-4ef0-a1cf-41a5dde689de","ios":"levelo://app?vid=4c8caf4a-f696-4ef0-a1cf-41a5dde689de"},"vehicle_type_id":"4","last_reported":1704999941,"current_range_meters":14800,"station_id":"ce4bgt92rcd13ifvqcf0","pricing_plan_id":"free"},{"bike_id":"5e3ae350-92fc-4f1a-91e5-fca6c6157e9c","system_id":"levelo_inurba_marseille","lat":43.314305,"lon":5.385497,"is_reserved":false,"is_disabled":false,"rental_uris":{"android":"levelo://app?vid=5e3ae350-92fc-4f1a-91e5-fca6c6157e9c","ios":"levelo://app?vid=5e3ae350-92fc-4f1a-91e5-fca6c6157e9c"},"vehicle_type_id":"4","last_reported":1704999941,"current_range_meters":3600,"station_id":"","pricing_plan_id":"free"},{"bike_id":"17757fc0-dde4-470b-9975-35e395ce3bc2","system_id":"levelo_inurba_marseille","lat":43.305364,"lon":5.384119,"is_reserved":false,"is_disabled":false,"rental_uris":{"android":"levelo://app?vid=17757fc0-dde4-470b-9975-35e395ce3bc2","ios":"levelo://app?vid=17757fc0-dde4-470b-9975-35e395ce3bc2"},"vehicle_type_id":"4","last_reported":1704999941,"current_range_meters":24000,"station_id":"ce4bgg92rcd13ifvqb30","pricing_plan_id":"free"},{"bike_id":"e98bc26b-751b-4694-a01b-7f78e955e1a2","system_id":"levelo_inurba_marseille","lat":43.311722,"lon":5.387247,"is_reserved":false,"is_disabled":false,"rental_uris":{"android":"levelo://app?vid=e98bc26b-751b-4694-a01b-7f78e955e1a2","ios":"levelo://app?vid=e98bc26b-751b-4694-a01b-7f78e955e1a2"},"vehicle_type_id":"4","last_reported":1704999941,"current_range_meters":20800,"station_id":"ce4bgv12rcd13ifvqcp0","pricing_plan_id":"free"},{"bike_id":"8aa9446f-04a1-44b2-bc1a-70577ab3021a","system_id":"levelo_inurba_marseille","lat":43.322872,"lon":5.382756,"is_reserved":false,"is_disabled":false,"rental_uris":{"android":"levelo://app?vid=8aa9446f-04a1-44b2-bc1a-70577ab3021a","ios":"levelo://app?vid=8aa9446f-04a1-44b2-bc1a-70577ab3021a"},"vehicle_type_id":"4","last_reported":1704999941,"current_range_meters":31200,"station_id":"ce4bhr12rcd13ifvqhqg","pricing_plan_id":"free"},{"bike_id":"1229937f-b15f-4120-8710-32f074f3579a","system_id":"levelo_inurba_marseille","lat":43.322872,"lon":5.382756,"is_reserved":false,"is_disabled":false,"rental_uris":{"android":"levelo://app?vid=1229937f-b15f-4120-8710-32f074f3579a","ios":"levelo://app?vid=1229937f-b15f-4120-8710-32f074f3579a"},"vehicle_type_id":"4","last_reported":1704999941,"current_range_meters":31200,"station_id":"ce4bhr12rcd13ifvqhqg","pricing_plan_id":"free"},{"bike_id":"37230247-9ff4-43f8-976c-bfd885c364cc","system_id":"levelo_inurba_marseille","lat":43.322872,"lon":5.382756,"is_reserved":false,"is_disabled":false,"rental_uris":{"android":"levelo://app?vid=37230247-9ff4-43f8-976c-bfd885c364cc","ios":"levelo://app?vid=37230247-9ff4-43f8-976c-bfd885c364cc"},"vehicle_type_id":"4","last_reported":1704999941,"current_range_meters":31600,"station_id":"ce4bhr12rcd13ifvqhqg","pricing_plan_id":"free"},{"bike_id":"c0c847ea-83f0-4e06-9678-e7646050a3c7","system_id":"levelo_inurba_marseille","lat":43.322872,"lon":5.382756,"is_reserved":false,"is_disabled":false,"rental_uris":{"android":"levelo://app?vid=c0c847ea-83f0-4e06-9678-e7646050a3c7","ios":"levelo://app?vid=c0c847ea-83f0-4e06-9678-e7646050a3c7"},"vehicle_type_id":"4","last_reported":1704999941,"current_range_meters":31600,"station_id":"ce4bhr12rcd13ifvqhqg","pricing_plan_id":"free"},{"bike_id":"b776e6d9-9dba-4c26-99a6-55a777e3bc47","system_id":"levelo_inurba_marseille","lat":43.322872,"lon":5.382756,"is_reserved":false,"is_disabled":false,"rental_uris":{"android":"levelo://app?vid=b776e6d9-9dba-4c26-99a6-55a777e3bc47","ios":"levelo://app?vid=b776e6d9-9dba-4c26-99a6-55a777e3bc47"},"vehicle_type_id":"4","last_reported":1704999941,"current_range_meters":21600,"station_id":"ce4bhr12rcd13ifvqhqg","pricing_plan_id":"free"},{"bike_id":"ec735675-fa6a-448c-98b7-d9fbcd2cec5b","system_id":"levelo_inurba_marseille","lat":43.322872,"lon":5.382756,"is_reserved":false,"is_disabled":false,"rental_uris":{"android":"levelo://app?vid=ec735675-fa6a-448c-98b7-d9fbcd2cec5b","ios":"levelo://app?vid=ec735675-fa6a-448c-98b7-d9fbcd2cec5b"},"vehicle_type_id":"4","last_reported":1704999941,"current_range_meters":10400,"station_id":"ce4bhr12rcd13ifvqhqg","pricing_plan_id":"free"},{"bike_id":"fb45f142-a2e6-4b54-b6fd-5660ca2c1fe5","system_id":"levelo_inurba_marseille","lat":43.328235,"lon":5.366778,"is_reserved":false,"is_disabled":false,"rental_uris":{"android":"levelo://app?vid=fb45f142-a2e6-4b54-b6fd-5660ca2c1fe5","ios":"levelo://app?vid=fb45f142-a2e6-4b54-b6fd-5660ca2c1fe5"},"vehicle_type_id":"4","last_reported":1704999941,"current_range_meters":17600,"station_id":"ce4bhs92rcd13ifvqi0g","pricing_plan_id":"free"},{"bike_id":"d68ce626-ef98-4d52-b3b3-f34d703a806b","system_id":"levelo_inurba_marseille","lat":43.328249,"lon":5.366841,"is_reserved":false,"is_disabled":false,"rental_uris":{"android":"levelo://app?vid=d68ce626-ef98-4d52-b3b3-f34d703a806b","ios":"levelo://app?vid=d68ce626-ef98-4d52-b3b3-f34d703a806b"},"vehicle_type_id":"4","last_reported":1704999941,"current_range_meters":16000,"station_id":"ce4bhs92rcd13ifvqi0g","pricing_plan_id":"free"},{"bike_id":"a70069dc-f773-452d-9d3a-320d0014d11e","system_id":"levelo_inurba_marseille","lat":43.328259,"lon":5.366788,"is_reserved":false,"is_disabled":false,"rental_uris":{"android":"levelo://app?vid=a70069dc-f773-452d-9d3a-320d0014d11e","ios":"levelo://app?vid=a70069dc-f773-452d-9d3a-320d0014d11e"},"vehicle_type_id":"4","last_reported":1704999941,"current_range_meters":12800,"station_id":"ce4bhs92rcd13ifvqi0g","pricing_plan_id":"free"},{"bike_id":"68fb1e16-a9bd-4b64-9d7b-d0e67ffc0fc2","system_id":"levelo_inurba_marseille","lat":43.297163,"lon":5.365866,"is_reserved":false,"is_disabled":false,"rental_uris":{"android":"levelo://app?vid=68fb1e16-a9bd-4b64-9d7b-d0e67ffc0fc2","ios":"levelo://app?vid=68fb1e16-a9bd-4b64-9d7b-d0e67ffc0fc2"},"vehicle_type_id":"4","last_reported":1704999941,"current_range_meters":27200,"station_id":"ce4bgn12rcd13ifvqbt0","pricing_plan_id":"free"},{"bike_id":"331410e4-8362-40e5-8b58-6a53f46a25bd","system_id":"levelo_inurba_marseille","lat":43.32828,"lon":5.366742,"is_reserved":false,"is_disabled":false,"rental_uris":{"android":"levelo://app?vid=331410e4-8362-40e5-8b58-6a53f46a25bd","ios":"levelo://app?vid=331410e4-8362-40e5-8b58-6a53f46a25bd"},"vehicle_type_id":"4","last_reported":1704999941,"current_range_meters":26800,"station_id":"ce4bhs92rcd13ifvqi0g","pricing_plan_id":"free"},{"bike_id":"1f1a5220-6426-49f4-89de-c9c79ed6428d","system_id":"levelo_inurba_marseille","lat":43.328295,"lon":5.36679,"is_reserved":false,"is_disabled":false,"rental_uris":{"android":"levelo://app?vid=1f1a5220-6426-49f4-89de-c9c79ed6428d","ios":"levelo://app?vid=1f1a5220-6426-49f4-89de-c9c79ed6428d"},"vehicle_type_id":"4","last_reported":1704999941,"current_range_meters":26000,"station_id":"ce4bhs92rcd13ifvqi0g","pricing_plan_id":"free"},{"bike_id":"b417e045-2acd-45ab-8543-5d87cc32d878","system_id":"levelo_inurba_marseille","lat":43.328295,"lon":5.366715,"is_reserved":false,"is_disabled":false,"rental_uris":{"android":"levelo://app?vid=b417e045-2acd-45ab-8543-5d87cc32d878","ios":"levelo://app?vid=b417e045-2acd-45ab-8543-5d87cc32d878"},"vehicle_type_id":"4","last_reported":1704999941,"current_range_meters":24400,"station_id":"ce4bhs92rcd13ifvqi0g","pricing_plan_id":"free"},{"bike_id":"7b9958fe-cb69-4b86-8077-c6eefd22d5f1","system_id":"levelo_inurba_marseille","lat":43.32831,"lon":5.36677,"is_reserved":false,"is_disabled":false,"rental_uris":{"android":"levelo://app?vid=7b9958fe-cb69-4b86-8077-c6eefd22d5f1","ios":"levelo://app?vid=7b9958fe-cb69-4b86-8077-c6eefd22d5f1"},"vehicle_type_id":"4","last_reported":1704999941,"current_range_meters":25200,"station_id":"ce4bhs92rcd13ifvqi0g","pricing_plan_id":"free"},{"bike_id":"ef7bcaa0-cc81-4e08-af4b-aa4d543a0b88","system_id":"levelo_inurba_marseille","lat":43.297163,"lon":5.365866,"is_reserved":false,"is_disabled":false,"rental_uris":{"android":"levelo://app?vid=ef7bcaa0-cc81-4e08-af4b-aa4d543a0b88","ios":"levelo://app?vid=ef7bcaa0-cc81-4e08-af4b-aa4d543a0b88"},"vehicle_type_id":"4","last_reported":1704999941,"current_range_meters":31200,"station_id":"ce4bgn12rcd13ifvqbt0","pricing_plan_id":"free"},{"bike_id":"0c003f15-986d-43ea-8c65-9cfd489b722b","system_id":"levelo_inurba_marseille","lat":43.32832,"lon":5.36683,"is_reserved":false,"is_disabled":false,"rental_uris":{"android":"levelo://app?vid=0c003f15-986d-43ea-8c65-9cfd489b722b","ios":"levelo://app?vid=0c003f15-986d-43ea-8c65-9cfd489b722b"},"vehicle_type_id":"4","last_reported":1704999941,"current_range_meters":16400,"station_id":"ce4bhs92rcd13ifvqi0g","pricing_plan_id":"free"},{"bike_id":"ce773b9f-b267-43ee-a871-c8a229254015","system_id":"levelo_inurba_marseille","lat":43.328373,"lon":5.366902,"is_reserved":false,"is_disabled":false,"rental_uris":{"android":"levelo://app?vid=ce773b9f-b267-43ee-a871-c8a229254015","ios":"levelo://app?vid=ce773b9f-b267-43ee-a871-c8a229254015"},"vehicle_type_id":"4","last_reported":1704999941,"current_range_meters":21600,"station_id":"ce4bhs92rcd13ifvqi0g","pricing_plan_id":"free"},{"bike_id":"30f8693f-6be0-48b2-9028-bcba9d6c72a0","system_id":"levelo_inurba_marseille","lat":43.328379,"lon":5.36675,"is_reserved":false,"is_disabled":false,"rental_uris":{"android":"levelo://app?vid=30f8693f-6be0-48b2-9028-bcba9d6c72a0","ios":"levelo://app?vid=30f8693f-6be0-48b2-9028-bcba9d6c72a0"},"vehicle_type_id":"4","last_reported":1704999941,"current_range_meters":29600,"station_id":"ce4bhs92rcd13ifvqi0g","pricing_plan_id":"free"},{"bike_id":"096e4b5c-c4bd-4912-949a-da870d21a6e6","system_id":"levelo_inurba_marseille","lat":43.297163,"lon":5.365866,"is_reserved":false,"is_disabled":false,"rental_uris":{"android":"levelo://app?vid=096e4b5c-c4bd-4912-949a-da870d21a6e6","ios":"levelo://app?vid=096e4b5c-c4bd-4912-949a-da870d21a6e6"},"vehicle_type_id":"4","last_reported":1704999941,"current_range_meters":7200,"station_id":"ce4bgn12rcd13ifvqbt0","pricing_plan_id":"free"},{"bike_id":"0e21c0e1-cd91-41f5-a668-23429ce9066e","system_id":"levelo_inurba_marseille","lat":43.296801,"lon":5.372822,"is_reserved":false,"is_disabled":false,"rental_uris":{"android":"levelo://app?vid=0e21c0e1-cd91-41f5-a668-23429ce9066e","ios":"levelo://app?vid=0e21c0e1-cd91-41f5-a668-23429ce9066e"},"vehicle_type_id":"4","last_reported":1704999941,"current_range_meters":6800,"station_id":"","pricing_plan_id":"free"},{"bike_id":"45eee4bd-6800-43d9-acf2-6485fca420f1","system_id":"levelo_inurba_marseille","lat":43.296059,"lon":5.367933,"is_reserved":false,"is_disabled":false,"rental_uris":{"android":"levelo://app?vid=45eee4bd-6800-43d9-acf2-6485fca420f1","ios":"levelo://app?vid=45eee4bd-6800-43d9-acf2-6485fca420f1"},"vehicle_type_id":"4","last_reported":1704999941,"current_range_meters":18000,"station_id":"","pricing_plan_id":"free"},{"bike_id":"ff1ffd52-ef61-4cec-b1a1-69d22ac79845","system_id":"levelo_inurba_marseille","lat":43.296129,"lon":5.370777,"is_reserved":false,"is_disabled":false,"rental_uris":{"android":"levelo://app?vid=ff1ffd52-ef61-4cec-b1a1-69d22ac79845","ios":"levelo://app?vid=ff1ffd52-ef61-4cec-b1a1-69d22ac79845"},"vehicle_type_id":"4","last_reported":1704999941,"current_range_meters":28000,"station_id":"ce4bgnh2rcd13ifvqc0g","pricing_plan_id":"free"},{"bike_id":"55b01c61-bd28-40ad-ac83-f6cc33770313","system_id":"levelo_inurba_marseille","lat":43.296935,"lon":5.376544,"is_reserved":false,"is_disabled":false,"rental_uris":{"android":"levelo://app?vid=55b01c61-bd28-40ad-ac83-f6cc33770313","ios":"levelo://app?vid=55b01c61-bd28-40ad-ac83-f6cc33770313"},"vehicle_type_id":"4","last_reported":1704999941,"current_range_meters":5200,"station_id":"ce4bgkh2rcd13ifvqbl0","pricing_plan_id":"free"},{"bike_id":"b9470094-4555-4f89-9bb3-8b648ab442a3","system_id":"levelo_inurba_marseille","lat":43.299202,"lon":5.381513,"is_reserved":false,"is_disabled":false,"rental_uris":{"android":"levelo://app?vid=b9470094-4555-4f89-9bb3-8b648ab442a3","ios":"levelo://app?vid=b9470094-4555-4f89-9bb3-8b648ab442a3"},"vehicle_type_id":"4","last_reported":1704999941,"current_range_meters":9200,"station_id":"","pricing_plan_id":"free"},{"bike_id":"acfba496-5c0b-4d39-b7f9-c56ad4757e32","system_id":"levelo_inurba_marseille","lat":43.296935,"lon":5.376544,"is_reserved":false,"is_disabled":false,"rental_uris":{"android":"levelo://app?vid=acfba496-5c0b-4d39-b7f9-c56ad4757e32","ios":"levelo://app?vid=acfba496-5c0b-4d39-b7f9-c56ad4757e32"},"vehicle_type_id":"4","last_reported":1704999941,"current_range_meters":24800,"station_id":"ce4bgkh2rcd13ifvqbl0","pricing_plan_id":"free"},{"bike_id":"2f52b402-a719-4249-af67-151b061b87c4","system_id":"levelo_inurba_marseille","lat":43.317557,"lon":5.390173,"is_reserved":false,"is_disabled":false,"rental_uris":{"android":"levelo://app?vid=2f52b402-a719-4249-af67-151b061b87c4","ios":"levelo://app?vid=2f52b402-a719-4249-af67-151b061b87c4"},"vehicle_type_id":"4","last_reported":1704999941,"current_range_meters":21200,"station_id":"ce4bhqp2rcd13ifvqhng","pricing_plan_id":"free"},{"bike_id":"c9df60c9-08ba-48cd-a42f-ecd6c080137f","system_id":"levelo_inurba_marseille","lat":43.317557,"lon":5.390173,"is_reserved":false,"is_disabled":false,"rental_uris":{"android":"levelo://app?vid=c9df60c9-08ba-48cd-a42f-ecd6c080137f","ios":"levelo://app?vid=c9df60c9-08ba-48cd-a42f-ecd6c080137f"},"vehicle_type_id":"4","last_reported":1704999941,"current_range_meters":24000,"station_id":"ce4bhqp2rcd13ifvqhng","pricing_plan_id":"free"},{"bike_id":"1b74400c-e6ee-4f90-91ec-87e0c680ac50","system_id":"levelo_inurba_marseille","lat":43.317557,"lon":5.390173,"is_reserved":false,"is_disabled":false,"rental_uris":{"android":"levelo://app?vid=1b74400c-e6ee-4f90-91ec-87e0c680ac50","ios":"levelo://app?vid=1b74400c-e6ee-4f90-91ec-87e0c680ac50"},"vehicle_type_id":"4","last_reported":1704999941,"current_range_meters":27600,"station_id":"ce4bhqp2rcd13ifvqhng","pricing_plan_id":"free"},{"bike_id":"1deb1d59-2c99-4c51-99f6-662bd03d476a","system_id":"levelo_inurba_marseille","lat":43.298037,"lon":5.381066,"is_reserved":false,"is_disabled":false,"rental_uris":{"android":"levelo://app?vid=1deb1d59-2c99-4c51-99f6-662bd03d476a","ios":"levelo://app?vid=1deb1d59-2c99-4c51-99f6-662bd03d476a"},"vehicle_type_id":"4","last_reported":1704999941,"current_range_meters":29200,"station_id":"ce4bgip2rcd13ifvqbb0","pricing_plan_id":"free"},{"bike_id":"0a5e3e02-c44b-47e3-b6b6-1259e40c4573","system_id":"levelo_inurba_marseille","lat":43.29797,"lon":5.38095,"is_reserved":false,"is_disabled":false,"rental_uris":{"android":"levelo://app?vid=0a5e3e02-c44b-47e3-b6b6-1259e40c4573","ios":"levelo://app?vid=0a5e3e02-c44b-47e3-b6b6-1259e40c4573"},"vehicle_type_id":"4","last_reported":1704999941,"current_range_meters":24400,"station_id":"ce4bgip2rcd13ifvqbb0","pricing_plan_id":"free"},{"bike_id":"82e1b5b6-75c4-4f4e-a5a9-fa09176448ee","system_id":"levelo_inurba_marseille","lat":43.295748,"lon":5.37522,"is_reserved":false,"is_disabled":false,"rental_uris":{"android":"levelo://app?vid=82e1b5b6-75c4-4f4e-a5a9-fa09176448ee","ios":"levelo://app?vid=82e1b5b6-75c4-4f4e-a5a9-fa09176448ee"},"vehicle_type_id":"4","last_reported":1704999941,"current_range_meters":0,"station_id":"ce4bgh92rcd13ifvqb50","pricing_plan_id":"free"},{"bike_id":"de12157c-940a-4016-bb4c-1f075c973d25","system_id":"levelo_inurba_marseille","lat":43.304278,"lon":5.388868,"is_reserved":false,"is_disabled":false,"rental_uris":{"android":"levelo://app?vid=de12157c-940a-4016-bb4c-1f075c973d25","ios":"levelo://app?vid=de12157c-940a-4016-bb4c-1f075c973d25"},"vehicle_type_id":"4","last_reported":1704999941,"current_range_meters":15600,"station_id":"ce4bgk12rcd13ifvqbi0","pricing_plan_id":"free"},{"bike_id":"8dd237e6-84eb-4a6b-920c-739a905832b6","system_id":"levelo_inurba_marseille","lat":43.2956,"lon":5.37518,"is_reserved":false,"is_disabled":false,"rental_uris":{"android":"levelo://app?vid=8dd237e6-84eb-4a6b-920c-739a905832b6","ios":"levelo://app?vid=8dd237e6-84eb-4a6b-920c-739a905832b6"},"vehicle_type_id":"4","last_reported":1704999941,"current_range_meters":6400,"station_id":"ce4bgh92rcd13ifvqb50","pricing_plan_id":"free"},{"bike_id":"f1194645-4cc4-475a-8742-2db1c6b784d8","system_id":"levelo_inurba_marseille","lat":43.297833,"lon":5.38119,"is_reserved":false,"is_disabled":false,"rental_uris":{"android":"levelo://app?vid=f1194645-4cc4-475a-8742-2db1c6b784d8","ios":"levelo://app?vid=f1194645-4cc4-475a-8742-2db1c6b784d8"},"vehicle_type_id":"4","last_reported":1704999941,"current_range_meters":0,"station_id":"ce4bgip2rcd13ifvqbb0","pricing_plan_id":"free"},{"bike_id":"fce3f379-d7c6-41e6-83d0-78b64dd0bf41","system_id":"levelo_inurba_marseille","lat":43.299822,"lon":5.384954,"is_reserved":false,"is_disabled":false,"rental_uris":{"android":"levelo://app?vid=fce3f379-d7c6-41e6-83d0-78b64dd0bf41","ios":"levelo://app?vid=fce3f379-d7c6-41e6-83d0-78b64dd0bf41"},"vehicle_type_id":"4","last_reported":1704999941,"current_range_meters":0,"station_id":"ce4bgj92rcd13ifvqbd0","pricing_plan_id":"free"},{"bike_id":"dbb0f1f9-a981-4d81-b928-9eeb62762dd0","system_id":"levelo_inurba_marseille","lat":43.299717,"lon":5.384845,"is_reserved":false,"is_disabled":false,"rental_uris":{"android":"levelo://app?vid=dbb0f1f9-a981-4d81-b928-9eeb62762dd0","ios":"levelo://app?vid=dbb0f1f9-a981-4d81-b928-9eeb62762dd0"},"vehicle_type_id":"4","last_reported":1704999941,"current_range_meters":4800,"station_id":"ce4bgj92rcd13ifvqbd0","pricing_plan_id":"free"},{"bike_id":"8631b99a-e35b-44da-9582-92eee1c088ec","system_id":"levelo_inurba_marseille","lat":43.299724,"lon":5.384848,"is_reserved":false,"is_disabled":false,"rental_uris":{"android":"levelo://app?vid=8631b99a-e35b-44da-9582-92eee1c088ec","ios":"levelo://app?vid=8631b99a-e35b-44da-9582-92eee1c088ec"},"vehicle_type_id":"4","last_reported":1704999941,"current_range_meters":800,"station_id":"ce4bgj92rcd13ifvqbd0","pricing_plan_id":"free"},{"bike_id":"a14107c8-6d51-4b3f-857f-720944001ab3","system_id":"levelo_inurba_marseille","lat":43.299724,"lon":5.384848,"is_reserved":false,"is_disabled":false,"rental_uris":{"android":"levelo://app?vid=a14107c8-6d51-4b3f-857f-720944001ab3","ios":"levelo://app?vid=a14107c8-6d51-4b3f-857f-720944001ab3"},"vehicle_type_id":"4","last_reported":1704999941,"current_range_meters":9600,"station_id":"ce4bgj92rcd13ifvqbd0","pricing_plan_id":"free"},{"bike_id":"38fb15e2-97fd-4f68-ae2d-4c0fe510a864","system_id":"levelo_inurba_marseille","lat":43.323696,"lon":5.388665,"is_reserved":false,"is_disabled":false,"rental_uris":{"android":"levelo://app?vid=38fb15e2-97fd-4f68-ae2d-4c0fe510a864","ios":"levelo://app?vid=38fb15e2-97fd-4f68-ae2d-4c0fe510a864"},"vehicle_type_id":"4","last_reported":1704999941,"current_range_meters":21200,"station_id":"ce4bhqp2rcd13ifvqhog","pricing_plan_id":"free"},{"bike_id":"c7855a59-39c1-4341-9257-1f0a6e40a20a","system_id":"levelo_inurba_marseille","lat":43.32367,"lon":5.388836,"is_reserved":false,"is_disabled":false,"rental_uris":{"android":"levelo://app?vid=c7855a59-39c1-4341-9257-1f0a6e40a20a","ios":"levelo://app?vid=c7855a59-39c1-4341-9257-1f0a6e40a20a"},"vehicle_type_id":"4","last_reported":1704999941,"current_range_meters":10800,"station_id":"ce4bhqp2rcd13ifvqhog","pricing_plan_id":"free"},{"bike_id":"cafe7be7-3bdd-4002-988b-fcafc6455e75","system_id":"levelo_inurba_marseille","lat":43.32351,"lon":5.38893,"is_reserved":false,"is_disabled":false,"rental_uris":{"android":"levelo://app?vid=cafe7be7-3bdd-4002-988b-fcafc6455e75","ios":"levelo://app?vid=cafe7be7-3bdd-4002-988b-fcafc6455e75"},"vehicle_type_id":"4","last_reported":1704999941,"current_range_meters":16400,"station_id":"ce4bhqp2rcd13ifvqhog","pricing_plan_id":"free"},{"bike_id":"0ab7a87b-f568-4965-a7d5-d547f8364640","system_id":"levelo_inurba_marseille","lat":43.323633,"lon":5.38883,"is_reserved":false,"is_disabled":false,"rental_uris":{"android":"levelo://app?vid=0ab7a87b-f568-4965-a7d5-d547f8364640","ios":"levelo://app?vid=0ab7a87b-f568-4965-a7d5-d547f8364640"},"vehicle_type_id":"4","last_reported":1704999941,"current_range_meters":8400,"station_id":"ce4bhqp2rcd13ifvqhog","pricing_plan_id":"free"},{"bike_id":"556a4a10-46c7-4faa-a5cd-846a5cf46bed","system_id":"levelo_inurba_marseille","lat":43.32367,"lon":5.388836,"is_reserved":false,"is_disabled":false,"rental_uris":{"android":"levelo://app?vid=556a4a10-46c7-4faa-a5cd-846a5cf46bed","ios":"levelo://app?vid=556a4a10-46c7-4faa-a5cd-846a5cf46bed"},"vehicle_type_id":"4","last_reported":1704999941,"current_range_meters":27600,"station_id":"ce4bhqp2rcd13ifvqhog","pricing_plan_id":"free"},{"bike_id":"53bcccdd-f8f4-4713-a7f0-5bfceffa3b71","system_id":"levelo_inurba_marseille","lat":43.32367,"lon":5.388836,"is_reserved":false,"is_disabled":false,"rental_uris":{"android":"levelo://app?vid=53bcccdd-f8f4-4713-a7f0-5bfceffa3b71","ios":"levelo://app?vid=53bcccdd-f8f4-4713-a7f0-5bfceffa3b71"},"vehicle_type_id":"4","last_reported":1704999941,"current_range_meters":25200,"station_id":"ce4bhqp2rcd13ifvqhog","pricing_plan_id":"free"},{"bike_id":"83466757-55a1-43f3-ad37-0db2fa94c736","system_id":"levelo_inurba_marseille","lat":43.32367,"lon":5.388836,"is_reserved":false,"is_disabled":false,"rental_uris":{"android":"levelo://app?vid=83466757-55a1-43f3-ad37-0db2fa94c736","ios":"levelo://app?vid=83466757-55a1-43f3-ad37-0db2fa94c736"},"vehicle_type_id":"4","last_reported":1704999941,"current_range_meters":22000,"station_id":"ce4bhqp2rcd13ifvqhog","pricing_plan_id":"free"},{"bike_id":"5b7ef1a3-a12c-4144-815b-274e83c02169","system_id":"levelo_inurba_marseille","lat":43.32367,"lon":5.388836,"is_reserved":false,"is_disabled":false,"rental_uris":{"android":"levelo://app?vid=5b7ef1a3-a12c-4144-815b-274e83c02169","ios":"levelo://app?vid=5b7ef1a3-a12c-4144-815b-274e83c02169"},"vehicle_type_id":"4","last_reported":1704999941,"current_range_meters":14000,"station_id":"ce4bhqp2rcd13ifvqhog","pricing_plan_id":"free"},{"bike_id":"a543be44-eb65-4189-aa5a-bf347333dea9","system_id":"levelo_inurba_marseille","lat":43.32367,"lon":5.388836,"is_reserved":false,"is_disabled":false,"rental_uris":{"android":"levelo://app?vid=a543be44-eb65-4189-aa5a-bf347333dea9","ios":"levelo://app?vid=a543be44-eb65-4189-aa5a-bf347333dea9"},"vehicle_type_id":"4","last_reported":1704999941,"current_range_meters":28400,"station_id":"ce4bhqp2rcd13ifvqhog","pricing_plan_id":"free"},{"bike_id":"396335ba-5ca5-4426-9db4-13f74ac83ef5","system_id":"levelo_inurba_marseille","lat":43.29601,"lon":5.381084,"is_reserved":false,"is_disabled":false,"rental_uris":{"android":"levelo://app?vid=396335ba-5ca5-4426-9db4-13f74ac83ef5","ios":"levelo://app?vid=396335ba-5ca5-4426-9db4-13f74ac83ef5"},"vehicle_type_id":"4","last_reported":1704999941,"current_range_meters":29600,"station_id":"ce4bgl12rcd13ifvqbo0","pricing_plan_id":"free"},{"bike_id":"ed070972-45a3-424c-a684-e4639a562aac","system_id":"levelo_inurba_marseille","lat":43.292749,"lon":5.368402,"is_reserved":false,"is_disabled":false,"rental_uris":{"android":"levelo://app?vid=ed070972-45a3-424c-a684-e4639a562aac","ios":"levelo://app?vid=ed070972-45a3-424c-a684-e4639a562aac"},"vehicle_type_id":"4","last_reported":1704999941,"current_range_meters":6000,"station_id":"ce4bhbp2rcd13ifvqesg","pricing_plan_id":"free"},{"bike_id":"8922e96f-2207-473d-a8f6-17c7d9287b77","system_id":"levelo_inurba_marseille","lat":43.292749,"lon":5.368402,"is_reserved":false,"is_disabled":false,"rental_uris":{"android":"levelo://app?vid=8922e96f-2207-473d-a8f6-17c7d9287b77","ios":"levelo://app?vid=8922e96f-2207-473d-a8f6-17c7d9287b77"},"vehicle_type_id":"4","last_reported":1704999941,"current_range_meters":18800,"station_id":"ce4bhbp2rcd13ifvqesg","pricing_plan_id":"free"},{"bike_id":"acc9f548-6ba5-4ebf-bfe8-eab60ad0fd1e","system_id":"levelo_inurba_marseille","lat":43.293249,"lon":5.371578,"is_reserved":false,"is_disabled":false,"rental_uris":{"android":"levelo://app?vid=acc9f548-6ba5-4ebf-bfe8-eab60ad0fd1e","ios":"levelo://app?vid=acc9f548-6ba5-4ebf-bfe8-eab60ad0fd1e"},"vehicle_type_id":"4","last_reported":1704999941,"current_range_meters":14000,"station_id":"ce4bgh92rcd13ifvqb40","pricing_plan_id":"free"},{"bike_id":"4c9495e0-49d5-41bd-8764-71f3d0c5428d","system_id":"levelo_inurba_marseille","lat":43.29274,"lon":5.36844,"is_reserved":false,"is_disabled":false,"rental_uris":{"android":"levelo://app?vid=4c9495e0-49d5-41bd-8764-71f3d0c5428d","ios":"levelo://app?vid=4c9495e0-49d5-41bd-8764-71f3d0c5428d"},"vehicle_type_id":"4","last_reported":1704999941,"current_range_meters":15600,"station_id":"ce4bhbp2rcd13ifvqesg","pricing_plan_id":"free"},{"bike_id":"041d056b-7d97-49a4-ac82-4a5cf7f0017e","system_id":"levelo_inurba_marseille","lat":43.29269,"lon":5.36839,"is_reserved":false,"is_disabled":false,"rental_uris":{"android":"levelo://app?vid=041d056b-7d97-49a4-ac82-4a5cf7f0017e","ios":"levelo://app?vid=041d056b-7d97-49a4-ac82-4a5cf7f0017e"},"vehicle_type_id":"4","last_reported":1704999941,"current_range_meters":9600,"station_id":"ce4bhbp2rcd13ifvqesg","pricing_plan_id":"free"},{"bike_id":"2f258294-0311-48a3-a344-212ddee71b70","system_id":"levelo_inurba_marseille","lat":43.293009,"lon":5.374584,"is_reserved":false,"is_disabled":false,"rental_uris":{"android":"levelo://app?vid=2f258294-0311-48a3-a344-212ddee71b70","ios":"levelo://app?vid=2f258294-0311-48a3-a344-212ddee71b70"},"vehicle_type_id":"4","last_reported":1704999941,"current_range_meters":19200,"station_id":"ce4bgi12rcd13ifvqb70","pricing_plan_id":"free"},{"bike_id":"c425845b-3da1-4149-b86d-0a2771c3b9bd","system_id":"levelo_inurba_marseille","lat":43.293009,"lon":5.374584,"is_reserved":false,"is_disabled":false,"rental_uris":{"android":"levelo://app?vid=c425845b-3da1-4149-b86d-0a2771c3b9bd","ios":"levelo://app?vid=c425845b-3da1-4149-b86d-0a2771c3b9bd"},"vehicle_type_id":"4","last_reported":1704999941,"current_range_meters":30000,"station_id":"ce4bgi12rcd13ifvqb70","pricing_plan_id":"free"},{"bike_id":"edc2e377-5ec5-4e9b-a030-cc1f3f401749","system_id":"levelo_inurba_marseille","lat":43.2936,"lon":5.37835,"is_reserved":false,"is_disabled":false,"rental_uris":{"android":"levelo://app?vid=edc2e377-5ec5-4e9b-a030-cc1f3f401749","ios":"levelo://app?vid=edc2e377-5ec5-4e9b-a030-cc1f3f401749"},"vehicle_type_id":"4","last_reported":1704999941,"current_range_meters":12400,"station_id":"ce4bgjh2rcd13ifvqbf0","pricing_plan_id":"free"},{"bike_id":"4d217b16-a1ba-429f-994b-abaa5e5b6032","system_id":"levelo_inurba_marseille","lat":43.293702,"lon":5.378692,"is_reserved":false,"is_disabled":false,"rental_uris":{"android":"levelo://app?vid=4d217b16-a1ba-429f-994b-abaa5e5b6032","ios":"levelo://app?vid=4d217b16-a1ba-429f-994b-abaa5e5b6032"},"vehicle_type_id":"4","last_reported":1704999941,"current_range_meters":0,"station_id":"ce4bgjh2rcd13ifvqbf0","pricing_plan_id":"free"},{"bike_id":"f2b7b109-3954-4dfb-9ca1-2ef956e5a33d","system_id":"levelo_inurba_marseille","lat":43.300852,"lon":5.390859,"is_reserved":false,"is_disabled":false,"rental_uris":{"android":"levelo://app?vid=f2b7b109-3954-4dfb-9ca1-2ef956e5a33d","ios":"levelo://app?vid=f2b7b109-3954-4dfb-9ca1-2ef956e5a33d"},"vehicle_type_id":"4","last_reported":1704999941,"current_range_meters":18800,"station_id":"ce4bh192rcd13ifvqdb0","pricing_plan_id":"free"},{"bike_id":"0889f8f0-ed65-4d35-8964-b18ab865ca46","system_id":"levelo_inurba_marseille","lat":43.2922,"lon":5.36055,"is_reserved":false,"is_disabled":false,"rental_uris":{"android":"levelo://app?vid=0889f8f0-ed65-4d35-8964-b18ab865ca46","ios":"levelo://app?vid=0889f8f0-ed65-4d35-8964-b18ab865ca46"},"vehicle_type_id":"4","last_reported":1704999941,"current_range_meters":23600,"station_id":"ce4bhbh2rcd13ifvqeqg","pricing_plan_id":"free"},{"bike_id":"e7792b1b-bb03-4e3d-a9b3-ce080cd6f87b","system_id":"levelo_inurba_marseille","lat":43.291675,"lon":5.371583,"is_reserved":false,"is_disabled":false,"rental_uris":{"android":"levelo://app?vid=e7792b1b-bb03-4e3d-a9b3-ce080cd6f87b","ios":"levelo://app?vid=e7792b1b-bb03-4e3d-a9b3-ce080cd6f87b"},"vehicle_type_id":"4","last_reported":1704999941,"current_range_meters":17600,"station_id":"ce4bha92rcd13ifvqeh0","pricing_plan_id":"free"},{"bike_id":"de56557d-c14c-4636-9655-25edb9b638fb","system_id":"levelo_inurba_marseille","lat":43.298743,"lon":5.388997,"is_reserved":false,"is_disabled":false,"rental_uris":{"android":"levelo://app?vid=de56557d-c14c-4636-9655-25edb9b638fb","ios":"levelo://app?vid=de56557d-c14c-4636-9655-25edb9b638fb"},"vehicle_type_id":"4","last_reported":1704999941,"current_range_meters":18800,"station_id":"","pricing_plan_id":"free"},{"bike_id":"2b7b92f0-8dfc-468b-b42f-bd945286fe8a","system_id":"levelo_inurba_marseille","lat":43.298744,"lon":5.389074,"is_reserved":false,"is_disabled":false,"rental_uris":{"android":"levelo://app?vid=2b7b92f0-8dfc-468b-b42f-bd945286fe8a","ios":"levelo://app?vid=2b7b92f0-8dfc-468b-b42f-bd945286fe8a"},"vehicle_type_id":"4","last_reported":1704999941,"current_range_meters":22000,"station_id":"","pricing_plan_id":"free"},{"bike_id":"5496cfe8-6863-4fe1-bc1a-75eaaf91faa1","system_id":"levelo_inurba_marseille","lat":43.291671,"lon":5.371575,"is_reserved":false,"is_disabled":false,"rental_uris":{"android":"levelo://app?vid=5496cfe8-6863-4fe1-bc1a-75eaaf91faa1","ios":"levelo://app?vid=5496cfe8-6863-4fe1-bc1a-75eaaf91faa1"},"vehicle_type_id":"4","last_reported":1704999941,"current_range_meters":22800,"station_id":"ce4bha92rcd13ifvqeh0","pricing_plan_id":"free"},{"bike_id":"2e716eeb-b217-4e99-9631-735e22b905fd","system_id":"levelo_inurba_marseille","lat":43.291675,"lon":5.371583,"is_reserved":false,"is_disabled":false,"rental_uris":{"android":"levelo://app?vid=2e716eeb-b217-4e99-9631-735e22b905fd","ios":"levelo://app?vid=2e716eeb-b217-4e99-9631-735e22b905fd"},"vehicle_type_id":"4","last_reported":1704999941,"current_range_meters":12400,"station_id":"ce4bha92rcd13ifvqeh0","pricing_plan_id":"free"},{"bike_id":"46142241-4eba-4e3f-9401-f8a60b8f498a","system_id":"levelo_inurba_marseille","lat":43.29867,"lon":5.38907,"is_reserved":false,"is_disabled":false,"rental_uris":{"android":"levelo://app?vid=46142241-4eba-4e3f-9401-f8a60b8f498a","ios":"levelo://app?vid=46142241-4eba-4e3f-9401-f8a60b8f498a"},"vehicle_type_id":"4","last_reported":1704999941,"current_range_meters":21200,"station_id":"","pricing_plan_id":"free"},{"bike_id":"92155204-48db-4a56-b407-9ff6d64ceaa9","system_id":"levelo_inurba_marseille","lat":43.29875,"lon":5.38919,"is_reserved":false,"is_disabled":false,"rental_uris":{"android":"levelo://app?vid=92155204-48db-4a56-b407-9ff6d64ceaa9","ios":"levelo://app?vid=92155204-48db-4a56-b407-9ff6d64ceaa9"},"vehicle_type_id":"4","last_reported":1704999941,"current_range_meters":14800,"station_id":"","pricing_plan_id":"free"},{"bike_id":"65384567-57f1-4b4d-a323-ac10b0636e11","system_id":"levelo_inurba_marseille","lat":43.29875,"lon":5.3892,"is_reserved":false,"is_disabled":false,"rental_uris":{"android":"levelo://app?vid=65384567-57f1-4b4d-a323-ac10b0636e11","ios":"levelo://app?vid=65384567-57f1-4b4d-a323-ac10b0636e11"},"vehicle_type_id":"4","last_reported":1704999941,"current_range_meters":27200,"station_id":"","pricing_plan_id":"free"},{"bike_id":"bbf83efa-482d-407b-b012-acdf1893df7c","system_id":"levelo_inurba_marseille","lat":43.29874,"lon":5.38921,"is_reserved":false,"is_disabled":false,"rental_uris":{"android":"levelo://app?vid=bbf83efa-482d-407b-b012-acdf1893df7c","ios":"levelo://app?vid=bbf83efa-482d-407b-b012-acdf1893df7c"},"vehicle_type_id":"4","last_reported":1704999941,"current_range_meters":17600,"station_id":"","pricing_plan_id":"free"},{"bike_id":"572fb94f-6a3b-478f-9d1a-0572ba62cfbf","system_id":"levelo_inurba_marseille","lat":43.29157,"lon":5.37159,"is_reserved":false,"is_disabled":false,"rental_uris":{"android":"levelo://app?vid=572fb94f-6a3b-478f-9d1a-0572ba62cfbf","ios":"levelo://app?vid=572fb94f-6a3b-478f-9d1a-0572ba62cfbf"},"vehicle_type_id":"4","last_reported":1704999941,"current_range_meters":22400,"station_id":"ce4bha92rcd13ifvqeh0","pricing_plan_id":"free"},{"bike_id":"fa90f463-1b70-495e-8fb4-456a5738a650","system_id":"levelo_inurba_marseille","lat":43.309038,"lon":5.396546,"is_reserved":false,"is_disabled":false,"rental_uris":{"android":"levelo://app?vid=fa90f463-1b70-495e-8fb4-456a5738a650","ios":"levelo://app?vid=fa90f463-1b70-495e-8fb4-456a5738a650"},"vehicle_type_id":"4","last_reported":1704999941,"current_range_meters":31200,"station_id":"ce4bh012rcd13ifvqcv0","pricing_plan_id":"free"},{"bike_id":"6d1f0210-6d4f-4d59-99a2-525efd2a68cb","system_id":"levelo_inurba_marseille","lat":43.291994,"lon":5.357886,"is_reserved":false,"is_disabled":false,"rental_uris":{"android":"levelo://app?vid=6d1f0210-6d4f-4d59-99a2-525efd2a68cb","ios":"levelo://app?vid=6d1f0210-6d4f-4d59-99a2-525efd2a68cb"},"vehicle_type_id":"4","last_reported":1704999941,"current_range_meters":2800,"station_id":"ce4bhb12rcd13ifvqel0","pricing_plan_id":"free"},{"bike_id":"d9db5480-4b14-4be3-afc2-18f57f440831","system_id":"levelo_inurba_marseille","lat":43.31336,"lon":5.39685,"is_reserved":false,"is_disabled":false,"rental_uris":{"android":"levelo://app?vid=d9db5480-4b14-4be3-afc2-18f57f440831","ios":"levelo://app?vid=d9db5480-4b14-4be3-afc2-18f57f440831"},"vehicle_type_id":"4","last_reported":1704999941,"current_range_meters":14000,"station_id":"ce4bgvp2rcd13ifvqcu0","pricing_plan_id":"free"},{"bike_id":"46d7e87f-44cf-4331-add7-054b0786dcbc","system_id":"levelo_inurba_marseille","lat":43.31334,"lon":5.39687,"is_reserved":false,"is_disabled":false,"rental_uris":{"android":"levelo://app?vid=46d7e87f-44cf-4331-add7-054b0786dcbc","ios":"levelo://app?vid=46d7e87f-44cf-4331-add7-054b0786dcbc"},"vehicle_type_id":"4","last_reported":1704999941,"current_range_meters":4000,"station_id":"ce4bgvp2rcd13ifvqcu0","pricing_plan_id":"free"},{"bike_id":"25e73d19-1a29-4693-80c2-5157b3beecfe","system_id":"levelo_inurba_marseille","lat":43.309038,"lon":5.396546,"is_reserved":false,"is_disabled":false,"rental_uris":{"android":"levelo://app?vid=25e73d19-1a29-4693-80c2-5157b3beecfe","ios":"levelo://app?vid=25e73d19-1a29-4693-80c2-5157b3beecfe"},"vehicle_type_id":"4","last_reported":1704999941,"current_range_meters":31200,"station_id":"ce4bh012rcd13ifvqcv0","pricing_plan_id":"free"},{"bike_id":"3945c867-4c23-483d-9b90-fbb78eb575c0","system_id":"levelo_inurba_marseille","lat":43.31337,"lon":5.3969,"is_reserved":false,"is_disabled":false,"rental_uris":{"android":"levelo://app?vid=3945c867-4c23-483d-9b90-fbb78eb575c0","ios":"levelo://app?vid=3945c867-4c23-483d-9b90-fbb78eb575c0"},"vehicle_type_id":"4","last_reported":1704999941,"current_range_meters":18400,"station_id":"ce4bgvp2rcd13ifvqcu0","pricing_plan_id":"free"},{"bike_id":"7c5e9d96-b2a4-4cf1-879c-1a2f8b35f344","system_id":"levelo_inurba_marseille","lat":43.291994,"lon":5.357886,"is_reserved":false,"is_disabled":false,"rental_uris":{"android":"levelo://app?vid=7c5e9d96-b2a4-4cf1-879c-1a2f8b35f344","ios":"levelo://app?vid=7c5e9d96-b2a4-4cf1-879c-1a2f8b35f344"},"vehicle_type_id":"4","last_reported":1704999941,"current_range_meters":30400,"station_id":"ce4bhb12rcd13ifvqel0","pricing_plan_id":"free"},{"bike_id":"e86e8910-9624-4b42-b332-f7af4d58293c","system_id":"levelo_inurba_marseille","lat":43.309047,"lon":5.396551,"is_reserved":false,"is_disabled":false,"rental_uris":{"android":"levelo://app?vid=e86e8910-9624-4b42-b332-f7af4d58293c","ios":"levelo://app?vid=e86e8910-9624-4b42-b332-f7af4d58293c"},"vehicle_type_id":"4","last_reported":1704999941,"current_range_meters":14000,"station_id":"ce4bh012rcd13ifvqcv0","pricing_plan_id":"free"},{"bike_id":"bc41725d-f855-415e-83e4-ec0f53f8b549","system_id":"levelo_inurba_marseille","lat":43.309038,"lon":5.396546,"is_reserved":false,"is_disabled":false,"rental_uris":{"android":"levelo://app?vid=bc41725d-f855-415e-83e4-ec0f53f8b549","ios":"levelo://app?vid=bc41725d-f855-415e-83e4-ec0f53f8b549"},"vehicle_type_id":"4","last_reported":1704999941,"current_range_meters":29200,"station_id":"ce4bh012rcd13ifvqcv0","pricing_plan_id":"free"},{"bike_id":"43e3c829-2deb-43ef-8b69-a848c378c386","system_id":"levelo_inurba_marseille","lat":43.31331,"lon":5.39698,"is_reserved":false,"is_disabled":false,"rental_uris":{"android":"levelo://app?vid=43e3c829-2deb-43ef-8b69-a848c378c386","ios":"levelo://app?vid=43e3c829-2deb-43ef-8b69-a848c378c386"},"vehicle_type_id":"4","last_reported":1704999941,"current_range_meters":23600,"station_id":"ce4bgvp2rcd13ifvqcu0","pricing_plan_id":"free"},{"bike_id":"918626eb-65cd-4d5a-bbb4-d75265aa8a1c","system_id":"levelo_inurba_marseille","lat":43.313291,"lon":5.396838,"is_reserved":false,"is_disabled":false,"rental_uris":{"android":"levelo://app?vid=918626eb-65cd-4d5a-bbb4-d75265aa8a1c","ios":"levelo://app?vid=918626eb-65cd-4d5a-bbb4-d75265aa8a1c"},"vehicle_type_id":"4","last_reported":1704999941,"current_range_meters":24800,"station_id":"ce4bgvp2rcd13ifvqcu0","pricing_plan_id":"free"},{"bike_id":"a7284cfc-2e64-4f3f-a01b-6cc25383c2ad","system_id":"levelo_inurba_marseille","lat":43.291994,"lon":5.357886,"is_reserved":false,"is_disabled":false,"rental_uris":{"android":"levelo://app?vid=a7284cfc-2e64-4f3f-a01b-6cc25383c2ad","ios":"levelo://app?vid=a7284cfc-2e64-4f3f-a01b-6cc25383c2ad"},"vehicle_type_id":"4","last_reported":1704999941,"current_range_meters":12800,"station_id":"ce4bhb12rcd13ifvqel0","pricing_plan_id":"free"},{"bike_id":"a46ac0a0-15f6-49ab-90cb-31e315446361","system_id":"levelo_inurba_marseille","lat":43.313296,"lon":5.397006,"is_reserved":false,"is_disabled":false,"rental_uris":{"android":"levelo://app?vid=a46ac0a0-15f6-49ab-90cb-31e315446361","ios":"levelo://app?vid=a46ac0a0-15f6-49ab-90cb-31e315446361"},"vehicle_type_id":"4","last_reported":1704999941,"current_range_meters":0,"station_id":"ce4bgvp2rcd13ifvqcu0","pricing_plan_id":"free"},{"bike_id":"27397cfc-1b70-48d5-b106-1890a7993412","system_id":"levelo_inurba_marseille","lat":43.309047,"lon":5.396551,"is_reserved":false,"is_disabled":false,"rental_uris":{"android":"levelo://app?vid=27397cfc-1b70-48d5-b106-1890a7993412","ios":"levelo://app?vid=27397cfc-1b70-48d5-b106-1890a7993412"},"vehicle_type_id":"4","last_reported":1704999941,"current_range_meters":24800,"station_id":"ce4bh012rcd13ifvqcv0","pricing_plan_id":"free"},{"bike_id":"d11d309c-3608-4787-a697-d5b845c4be2f","system_id":"levelo_inurba_marseille","lat":43.290779,"lon":5.371482,"is_reserved":false,"is_disabled":false,"rental_uris":{"android":"levelo://app?vid=d11d309c-3608-4787-a697-d5b845c4be2f","ios":"levelo://app?vid=d11d309c-3608-4787-a697-d5b845c4be2f"},"vehicle_type_id":"4","last_reported":1704999941,"current_range_meters":1600,"station_id":"ce4bh5p2rcd13ifvqe4g","pricing_plan_id":"free"},{"bike_id":"5dec7569-3c58-419e-8643-862ba724c75c","system_id":"levelo_inurba_marseille","lat":43.290779,"lon":5.371482,"is_reserved":false,"is_disabled":false,"rental_uris":{"android":"levelo://app?vid=5dec7569-3c58-419e-8643-862ba724c75c","ios":"levelo://app?vid=5dec7569-3c58-419e-8643-862ba724c75c"},"vehicle_type_id":"4","last_reported":1704999941,"current_range_meters":18400,"station_id":"ce4bh5p2rcd13ifvqe4g","pricing_plan_id":"free"},{"bike_id":"545a782e-9c03-4aeb-a49b-36759c2afe15","system_id":"levelo_inurba_marseille","lat":43.290779,"lon":5.371482,"is_reserved":false,"is_disabled":false,"rental_uris":{"android":"levelo://app?vid=545a782e-9c03-4aeb-a49b-36759c2afe15","ios":"levelo://app?vid=545a782e-9c03-4aeb-a49b-36759c2afe15"},"vehicle_type_id":"4","last_reported":1704999941,"current_range_meters":0,"station_id":"ce4bh5p2rcd13ifvqe4g","pricing_plan_id":"free"},{"bike_id":"901d5ed4-5397-47c3-afa1-335acd05d4c5","system_id":"levelo_inurba_marseille","lat":43.302008,"lon":5.394694,"is_reserved":false,"is_disabled":false,"rental_uris":{"android":"levelo://app?vid=901d5ed4-5397-47c3-afa1-335acd05d4c5","ios":"levelo://app?vid=901d5ed4-5397-47c3-afa1-335acd05d4c5"},"vehicle_type_id":"4","last_reported":1704999941,"current_range_meters":23600,"station_id":"ce4bh0p2rcd13ifvqd70","pricing_plan_id":"free"},{"bike_id":"c24afb26-7f38-4a98-8975-2210737db3e1","system_id":"levelo_inurba_marseille","lat":43.302008,"lon":5.394694,"is_reserved":false,"is_disabled":false,"rental_uris":{"android":"levelo://app?vid=c24afb26-7f38-4a98-8975-2210737db3e1","ios":"levelo://app?vid=c24afb26-7f38-4a98-8975-2210737db3e1"},"vehicle_type_id":"4","last_reported":1704999941,"current_range_meters":4000,"station_id":"ce4bh0p2rcd13ifvqd70","pricing_plan_id":"free"},{"bike_id":"eb3a1c83-33fe-4d51-8c51-256107aae8d1","system_id":"levelo_inurba_marseille","lat":43.294162,"lon":5.386292,"is_reserved":false,"is_disabled":false,"rental_uris":{"android":"levelo://app?vid=eb3a1c83-33fe-4d51-8c51-256107aae8d1","ios":"levelo://app?vid=eb3a1c83-33fe-4d51-8c51-256107aae8d1"},"vehicle_type_id":"4","last_reported":1704999941,"current_range_meters":14000,"station_id":"ce4bh2h2rcd13ifvqdh0","pricing_plan_id":"free"},{"bike_id":"f68b7e75-73b5-475c-ab30-9175ca15d0c6","system_id":"levelo_inurba_marseille","lat":43.290327,"lon":5.375711,"is_reserved":false,"is_disabled":false,"rental_uris":{"android":"levelo://app?vid=f68b7e75-73b5-475c-ab30-9175ca15d0c6","ios":"levelo://app?vid=f68b7e75-73b5-475c-ab30-9175ca15d0c6"},"vehicle_type_id":"4","last_reported":1704999941,"current_range_meters":23600,"station_id":"ce4bh692rcd13ifvqe90","pricing_plan_id":"free"},{"bike_id":"56ac0cf3-bd85-4362-9c5b-3a4f156be4db","system_id":"levelo_inurba_marseille","lat":43.294153,"lon":5.386305,"is_reserved":false,"is_disabled":false,"rental_uris":{"android":"levelo://app?vid=56ac0cf3-bd85-4362-9c5b-3a4f156be4db","ios":"levelo://app?vid=56ac0cf3-bd85-4362-9c5b-3a4f156be4db"},"vehicle_type_id":"4","last_reported":1704999941,"current_range_meters":3600,"station_id":"ce4bh2h2rcd13ifvqdh0","pricing_plan_id":"free"},{"bike_id":"da48b3db-53f4-4c33-84d4-38144b226e71","system_id":"levelo_inurba_marseille","lat":43.294162,"lon":5.386292,"is_reserved":false,"is_disabled":false,"rental_uris":{"android":"levelo://app?vid=da48b3db-53f4-4c33-84d4-38144b226e71","ios":"levelo://app?vid=da48b3db-53f4-4c33-84d4-38144b226e71"},"vehicle_type_id":"4","last_reported":1704999941,"current_range_meters":15200,"station_id":"ce4bh2h2rcd13ifvqdh0","pricing_plan_id":"free"},{"bike_id":"6b637229-3d4a-4513-8803-2505a67f8778","system_id":"levelo_inurba_marseille","lat":43.289184,"lon":5.366408,"is_reserved":false,"is_disabled":false,"rental_uris":{"android":"levelo://app?vid=6b637229-3d4a-4513-8803-2505a67f8778","ios":"levelo://app?vid=6b637229-3d4a-4513-8803-2505a67f8778"},"vehicle_type_id":"4","last_reported":1704999941,"current_range_meters":19600,"station_id":"ce4bhap2rcd13ifvqek0","pricing_plan_id":"free"},{"bike_id":"aefba47d-a92a-477a-a658-af8148ab1365","system_id":"levelo_inurba_marseille","lat":43.289468,"lon":5.363719,"is_reserved":false,"is_disabled":false,"rental_uris":{"android":"levelo://app?vid=aefba47d-a92a-477a-a658-af8148ab1365","ios":"levelo://app?vid=aefba47d-a92a-477a-a658-af8148ab1365"},"vehicle_type_id":"4","last_reported":1704999941,"current_range_meters":16000,"station_id":"ce4bhc92rcd13ifvqetg","pricing_plan_id":"free"},{"bike_id":"b6221352-f87f-4d8f-a62d-2cda7890689c","system_id":"levelo_inurba_marseille","lat":43.289184,"lon":5.366408,"is_reserved":false,"is_disabled":false,"rental_uris":{"android":"levelo://app?vid=b6221352-f87f-4d8f-a62d-2cda7890689c","ios":"levelo://app?vid=b6221352-f87f-4d8f-a62d-2cda7890689c"},"vehicle_type_id":"4","last_reported":1704999941,"current_range_meters":20400,"station_id":"ce4bhap2rcd13ifvqek0","pricing_plan_id":"free"},{"bike_id":"68a71624-867d-4227-88bb-a5b61a2fe39c","system_id":"levelo_inurba_marseille","lat":43.289184,"lon":5.366408,"is_reserved":false,"is_disabled":false,"rental_uris":{"android":"levelo://app?vid=68a71624-867d-4227-88bb-a5b61a2fe39c","ios":"levelo://app?vid=68a71624-867d-4227-88bb-a5b61a2fe39c"},"vehicle_type_id":"4","last_reported":1704999941,"current_range_meters":13600,"station_id":"ce4bhap2rcd13ifvqek0","pricing_plan_id":"free"},{"bike_id":"969aa3a6-a618-4aea-977e-3f7a24d9b323","system_id":"levelo_inurba_marseille","lat":43.289184,"lon":5.366408,"is_reserved":false,"is_disabled":false,"rental_uris":{"android":"levelo://app?vid=969aa3a6-a618-4aea-977e-3f7a24d9b323","ios":"levelo://app?vid=969aa3a6-a618-4aea-977e-3f7a24d9b323"},"vehicle_type_id":"4","last_reported":1704999941,"current_range_meters":28400,"station_id":"ce4bhap2rcd13ifvqek0","pricing_plan_id":"free"},{"bike_id":"122cafeb-cfcc-47ac-a70a-3fe88cbf25d6","system_id":"levelo_inurba_marseille","lat":43.289184,"lon":5.366408,"is_reserved":false,"is_disabled":false,"rental_uris":{"android":"levelo://app?vid=122cafeb-cfcc-47ac-a70a-3fe88cbf25d6","ios":"levelo://app?vid=122cafeb-cfcc-47ac-a70a-3fe88cbf25d6"},"vehicle_type_id":"4","last_reported":1704999941,"current_range_meters":16800,"station_id":"ce4bhap2rcd13ifvqek0","pricing_plan_id":"free"},{"bike_id":"162f2360-90a6-449e-8730-f7c45d7acc41","system_id":"levelo_inurba_marseille","lat":43.289184,"lon":5.366408,"is_reserved":false,"is_disabled":false,"rental_uris":{"android":"levelo://app?vid=162f2360-90a6-449e-8730-f7c45d7acc41","ios":"levelo://app?vid=162f2360-90a6-449e-8730-f7c45d7acc41"},"vehicle_type_id":"4","last_reported":1704999941,"current_range_meters":12000,"station_id":"ce4bhap2rcd13ifvqek0","pricing_plan_id":"free"},{"bike_id":"e93b3ae2-7305-4db8-920d-cc0a100e4f96","system_id":"levelo_inurba_marseille","lat":43.289184,"lon":5.366408,"is_reserved":false,"is_disabled":false,"rental_uris":{"android":"levelo://app?vid=e93b3ae2-7305-4db8-920d-cc0a100e4f96","ios":"levelo://app?vid=e93b3ae2-7305-4db8-920d-cc0a100e4f96"},"vehicle_type_id":"4","last_reported":1704999941,"current_range_meters":24800,"station_id":"ce4bhap2rcd13ifvqek0","pricing_plan_id":"free"},{"bike_id":"47d27662-8cff-4f06-af9c-7428b68ceb7e","system_id":"levelo_inurba_marseille","lat":43.289184,"lon":5.366408,"is_reserved":false,"is_disabled":false,"rental_uris":{"android":"levelo://app?vid=47d27662-8cff-4f06-af9c-7428b68ceb7e","ios":"levelo://app?vid=47d27662-8cff-4f06-af9c-7428b68ceb7e"},"vehicle_type_id":"4","last_reported":1704999941,"current_range_meters":29600,"station_id":"ce4bhap2rcd13ifvqek0","pricing_plan_id":"free"},{"bike_id":"d717acf6-49c1-40ab-8a23-02c8ff23fb87","system_id":"levelo_inurba_marseille","lat":43.289184,"lon":5.366408,"is_reserved":false,"is_disabled":false,"rental_uris":{"android":"levelo://app?vid=d717acf6-49c1-40ab-8a23-02c8ff23fb87","ios":"levelo://app?vid=d717acf6-49c1-40ab-8a23-02c8ff23fb87"},"vehicle_type_id":"4","last_reported":1704999941,"current_range_meters":29600,"station_id":"ce4bhap2rcd13ifvqek0","pricing_plan_id":"free"},{"bike_id":"70a8cc79-cb96-47d1-b277-df62a68a790c","system_id":"levelo_inurba_marseille","lat":43.289468,"lon":5.363719,"is_reserved":false,"is_disabled":false,"rental_uris":{"android":"levelo://app?vid=70a8cc79-cb96-47d1-b277-df62a68a790c","ios":"levelo://app?vid=70a8cc79-cb96-47d1-b277-df62a68a790c"},"vehicle_type_id":"4","last_reported":1704999941,"current_range_meters":4800,"station_id":"ce4bhc92rcd13ifvqetg","pricing_plan_id":"free"},{"bike_id":"9dc4783b-2f10-4913-8b4f-f8a7c95f757f","system_id":"levelo_inurba_marseille","lat":43.289468,"lon":5.363719,"is_reserved":false,"is_disabled":false,"rental_uris":{"android":"levelo://app?vid=9dc4783b-2f10-4913-8b4f-f8a7c95f757f","ios":"levelo://app?vid=9dc4783b-2f10-4913-8b4f-f8a7c95f757f"},"vehicle_type_id":"4","last_reported":1704999941,"current_range_meters":28400,"station_id":"ce4bhc92rcd13ifvqetg","pricing_plan_id":"free"},{"bike_id":"cbe9ae7f-a445-4f39-a67a-52cc7c364683","system_id":"levelo_inurba_marseille","lat":43.292644,"lon":5.384257,"is_reserved":false,"is_disabled":false,"rental_uris":{"android":"levelo://app?vid=cbe9ae7f-a445-4f39-a67a-52cc7c364683","ios":"levelo://app?vid=cbe9ae7f-a445-4f39-a67a-52cc7c364683"},"vehicle_type_id":"4","last_reported":1704999941,"current_range_meters":1600,"station_id":"ce4bh692rcd13ifvqea0","pricing_plan_id":"free"},{"bike_id":"a220fd68-2c6e-4f2d-a669-cd5530ab480b","system_id":"levelo_inurba_marseille","lat":43.292642,"lon":5.384254,"is_reserved":false,"is_disabled":false,"rental_uris":{"android":"levelo://app?vid=a220fd68-2c6e-4f2d-a669-cd5530ab480b","ios":"levelo://app?vid=a220fd68-2c6e-4f2d-a669-cd5530ab480b"},"vehicle_type_id":"4","last_reported":1704999941,"current_range_meters":0,"station_id":"ce4bh692rcd13ifvqea0","pricing_plan_id":"free"},{"bike_id":"1b49f687-2dd7-4f8c-8294-54817bbde24c","system_id":"levelo_inurba_marseille","lat":43.304296,"lon":5.397513,"is_reserved":false,"is_disabled":false,"rental_uris":{"android":"levelo://app?vid=1b49f687-2dd7-4f8c-8294-54817bbde24c","ios":"levelo://app?vid=1b49f687-2dd7-4f8c-8294-54817bbde24c"},"vehicle_type_id":"4","last_reported":1704999941,"current_range_meters":16400,"station_id":"ce4bh092rcd13ifvqd20","pricing_plan_id":"free"},{"bike_id":"ee5d8d66-63fc-4217-acc0-70809fa3eb16","system_id":"levelo_inurba_marseille","lat":43.292644,"lon":5.384257,"is_reserved":false,"is_disabled":false,"rental_uris":{"android":"levelo://app?vid=ee5d8d66-63fc-4217-acc0-70809fa3eb16","ios":"levelo://app?vid=ee5d8d66-63fc-4217-acc0-70809fa3eb16"},"vehicle_type_id":"4","last_reported":1704999941,"current_range_meters":12400,"station_id":"ce4bh692rcd13ifvqea0","pricing_plan_id":"free"},{"bike_id":"ed94d506-e1a0-4770-a4f6-d546a8f68c17","system_id":"levelo_inurba_marseille","lat":43.292644,"lon":5.384257,"is_reserved":false,"is_disabled":false,"rental_uris":{"android":"levelo://app?vid=ed94d506-e1a0-4770-a4f6-d546a8f68c17","ios":"levelo://app?vid=ed94d506-e1a0-4770-a4f6-d546a8f68c17"},"vehicle_type_id":"4","last_reported":1704999941,"current_range_meters":4800,"station_id":"ce4bh692rcd13ifvqea0","pricing_plan_id":"free"},{"bike_id":"58d9b0d1-3ecb-4f3c-b85c-6f61faba6ed3","system_id":"levelo_inurba_marseille","lat":43.290103,"lon":5.356114,"is_reserved":false,"is_disabled":false,"rental_uris":{"android":"levelo://app?vid=58d9b0d1-3ecb-4f3c-b85c-6f61faba6ed3","ios":"levelo://app?vid=58d9b0d1-3ecb-4f3c-b85c-6f61faba6ed3"},"vehicle_type_id":"4","last_reported":1704999941,"current_range_meters":23600,"station_id":"ce4bhb92rcd13ifvqen0","pricing_plan_id":"free"},{"bike_id":"50709688-6a3d-490b-ba55-40650daca795","system_id":"levelo_inurba_marseille","lat":43.290103,"lon":5.356114,"is_reserved":false,"is_disabled":false,"rental_uris":{"android":"levelo://app?vid=50709688-6a3d-490b-ba55-40650daca795","ios":"levelo://app?vid=50709688-6a3d-490b-ba55-40650daca795"},"vehicle_type_id":"4","last_reported":1704999941,"current_range_meters":23600,"station_id":"ce4bhb92rcd13ifvqen0","pricing_plan_id":"free"},{"bike_id":"012e9413-71f1-40f6-8f5e-d324c8ebec0e","system_id":"levelo_inurba_marseille","lat":43.290104,"lon":5.356111,"is_reserved":false,"is_disabled":false,"rental_uris":{"android":"levelo://app?vid=012e9413-71f1-40f6-8f5e-d324c8ebec0e","ios":"levelo://app?vid=012e9413-71f1-40f6-8f5e-d324c8ebec0e"},"vehicle_type_id":"4","last_reported":1704999941,"current_range_meters":18000,"station_id":"ce4bhb92rcd13ifvqen0","pricing_plan_id":"free"},{"bike_id":"db4cb9db-aa51-4530-8fb1-6fc512380a39","system_id":"levelo_inurba_marseille","lat":43.290024,"lon":5.356129,"is_reserved":false,"is_disabled":false,"rental_uris":{"android":"levelo://app?vid=db4cb9db-aa51-4530-8fb1-6fc512380a39","ios":"levelo://app?vid=db4cb9db-aa51-4530-8fb1-6fc512380a39"},"vehicle_type_id":"4","last_reported":1704999941,"current_range_meters":22800,"station_id":"","pricing_plan_id":"free"},{"bike_id":"c01314d7-1ab9-4278-862e-e43df7570a49","system_id":"levelo_inurba_marseille","lat":43.297815,"lon":5.393548,"is_reserved":false,"is_disabled":false,"rental_uris":{"android":"levelo://app?vid=c01314d7-1ab9-4278-862e-e43df7570a49","ios":"levelo://app?vid=c01314d7-1ab9-4278-862e-e43df7570a49"},"vehicle_type_id":"4","last_reported":1704999941,"current_range_meters":8000,"station_id":"chh1huq6cuj3fo74tm60","pricing_plan_id":"free"},{"bike_id":"80599f20-d75d-4d26-a842-764dcc8e0cfe","system_id":"levelo_inurba_marseille","lat":43.33013,"lon":5.39033,"is_reserved":false,"is_disabled":false,"rental_uris":{"android":"levelo://app?vid=80599f20-d75d-4d26-a842-764dcc8e0cfe","ios":"levelo://app?vid=80599f20-d75d-4d26-a842-764dcc8e0cfe"},"vehicle_type_id":"4","last_reported":1704999941,"current_range_meters":17600,"station_id":"","pricing_plan_id":"free"},{"bike_id":"0904bcbe-6b2e-4fb4-84b3-9666a350d09e","system_id":"levelo_inurba_marseille","lat":43.3302,"lon":5.39033,"is_reserved":false,"is_disabled":false,"rental_uris":{"android":"levelo://app?vid=0904bcbe-6b2e-4fb4-84b3-9666a350d09e","ios":"levelo://app?vid=0904bcbe-6b2e-4fb4-84b3-9666a350d09e"},"vehicle_type_id":"4","last_reported":1704999941,"current_range_meters":11200,"station_id":"","pricing_plan_id":"free"},{"bike_id":"d0fa698e-0323-44a3-bcf0-58c128afdc40","system_id":"levelo_inurba_marseille","lat":43.295169,"lon":5.390426,"is_reserved":false,"is_disabled":false,"rental_uris":{"android":"levelo://app?vid=d0fa698e-0323-44a3-bcf0-58c128afdc40","ios":"levelo://app?vid=d0fa698e-0323-44a3-bcf0-58c128afdc40"},"vehicle_type_id":"4","last_reported":1704999941,"current_range_meters":15200,"station_id":"ce4bh3p2rcd13ifvqdp0","pricing_plan_id":"free"},{"bike_id":"d0823403-2070-4163-bec2-e8fbdaa17087","system_id":"levelo_inurba_marseille","lat":43.297828,"lon":5.393475,"is_reserved":false,"is_disabled":false,"rental_uris":{"android":"levelo://app?vid=d0823403-2070-4163-bec2-e8fbdaa17087","ios":"levelo://app?vid=d0823403-2070-4163-bec2-e8fbdaa17087"},"vehicle_type_id":"4","last_reported":1704999941,"current_range_meters":26400,"station_id":"chh1huq6cuj3fo74tm60","pricing_plan_id":"free"},{"bike_id":"8637f6d8-0cae-4710-a307-32973ee3e703","system_id":"levelo_inurba_marseille","lat":43.295169,"lon":5.390426,"is_reserved":false,"is_disabled":false,"rental_uris":{"android":"levelo://app?vid=8637f6d8-0cae-4710-a307-32973ee3e703","ios":"levelo://app?vid=8637f6d8-0cae-4710-a307-32973ee3e703"},"vehicle_type_id":"4","last_reported":1704999941,"current_range_meters":18800,"station_id":"ce4bh3p2rcd13ifvqdp0","pricing_plan_id":"free"},{"bike_id":"49658f1f-95d3-4f7f-a903-fbeacc92dafa","system_id":"levelo_inurba_marseille","lat":43.295169,"lon":5.390426,"is_reserved":false,"is_disabled":false,"rental_uris":{"android":"levelo://app?vid=49658f1f-95d3-4f7f-a903-fbeacc92dafa","ios":"levelo://app?vid=49658f1f-95d3-4f7f-a903-fbeacc92dafa"},"vehicle_type_id":"4","last_reported":1704999941,"current_range_meters":0,"station_id":"ce4bh3p2rcd13ifvqdp0","pricing_plan_id":"free"},{"bike_id":"c8dfd4e1-b8a2-4a47-81f8-65e2d2497f1d","system_id":"levelo_inurba_marseille","lat":43.33017,"lon":5.39046,"is_reserved":false,"is_disabled":false,"rental_uris":{"android":"levelo://app?vid=c8dfd4e1-b8a2-4a47-81f8-65e2d2497f1d","ios":"levelo://app?vid=c8dfd4e1-b8a2-4a47-81f8-65e2d2497f1d"},"vehicle_type_id":"4","last_reported":1704999941,"current_range_meters":30000,"station_id":"","pricing_plan_id":"free"},{"bike_id":"9ff5941f-d86b-4d3a-8d9b-6e95602c207f","system_id":"levelo_inurba_marseille","lat":43.295169,"lon":5.390426,"is_reserved":false,"is_disabled":false,"rental_uris":{"android":"levelo://app?vid=9ff5941f-d86b-4d3a-8d9b-6e95602c207f","ios":"levelo://app?vid=9ff5941f-d86b-4d3a-8d9b-6e95602c207f"},"vehicle_type_id":"4","last_reported":1704999941,"current_range_meters":31600,"station_id":"ce4bh3p2rcd13ifvqdp0","pricing_plan_id":"free"},{"bike_id":"29877edf-f914-4818-a395-be7aee9e9d72","system_id":"levelo_inurba_marseille","lat":43.33024,"lon":5.39038,"is_reserved":false,"is_disabled":false,"rental_uris":{"android":"levelo://app?vid=29877edf-f914-4818-a395-be7aee9e9d72","ios":"levelo://app?vid=29877edf-f914-4818-a395-be7aee9e9d72"},"vehicle_type_id":"4","last_reported":1704999941,"current_range_meters":19600,"station_id":"","pricing_plan_id":"free"},{"bike_id":"fe108f99-4139-4020-acb3-711e6f40cdcf","system_id":"levelo_inurba_marseille","lat":43.295169,"lon":5.390426,"is_reserved":false,"is_disabled":false,"rental_uris":{"android":"levelo://app?vid=fe108f99-4139-4020-acb3-711e6f40cdcf","ios":"levelo://app?vid=fe108f99-4139-4020-acb3-711e6f40cdcf"},"vehicle_type_id":"4","last_reported":1704999941,"current_range_meters":21200,"station_id":"ce4bh3p2rcd13ifvqdp0","pricing_plan_id":"free"},{"bike_id":"e7dcaaa9-cc06-45af-bfbd-9ecd35e01aae","system_id":"levelo_inurba_marseille","lat":43.330198,"lon":5.390463,"is_reserved":false,"is_disabled":false,"rental_uris":{"android":"levelo://app?vid=e7dcaaa9-cc06-45af-bfbd-9ecd35e01aae","ios":"levelo://app?vid=e7dcaaa9-cc06-45af-bfbd-9ecd35e01aae"},"vehicle_type_id":"4","last_reported":1704999941,"current_range_meters":17600,"station_id":"","pricing_plan_id":"free"},{"bike_id":"8fe359a3-7109-4a83-a4f9-b0904a0a2302","system_id":"levelo_inurba_marseille","lat":43.330264,"lon":5.390392,"is_reserved":false,"is_disabled":false,"rental_uris":{"android":"levelo://app?vid=8fe359a3-7109-4a83-a4f9-b0904a0a2302","ios":"levelo://app?vid=8fe359a3-7109-4a83-a4f9-b0904a0a2302"},"vehicle_type_id":"4","last_reported":1704999941,"current_range_meters":18800,"station_id":"","pricing_plan_id":"free"},{"bike_id":"4e808507-0e18-4e18-9ea4-5dafe1ce4990","system_id":"levelo_inurba_marseille","lat":43.295169,"lon":5.390426,"is_reserved":false,"is_disabled":false,"rental_uris":{"android":"levelo://app?vid=4e808507-0e18-4e18-9ea4-5dafe1ce4990","ios":"levelo://app?vid=4e808507-0e18-4e18-9ea4-5dafe1ce4990"},"vehicle_type_id":"4","last_reported":1704999941,"current_range_meters":20800,"station_id":"ce4bh3p2rcd13ifvqdp0","pricing_plan_id":"free"},{"bike_id":"f075a941-d4ba-4711-bdaa-989dd4b0bb45","system_id":"levelo_inurba_marseille","lat":43.295169,"lon":5.390426,"is_reserved":false,"is_disabled":false,"rental_uris":{"android":"levelo://app?vid=f075a941-d4ba-4711-bdaa-989dd4b0bb45","ios":"levelo://app?vid=f075a941-d4ba-4711-bdaa-989dd4b0bb45"},"vehicle_type_id":"4","last_reported":1704999941,"current_range_meters":30400,"station_id":"ce4bh3p2rcd13ifvqdp0","pricing_plan_id":"free"},{"bike_id":"058ca645-c40f-4dde-813c-bc560e1710cc","system_id":"levelo_inurba_marseille","lat":43.297797,"lon":5.393557,"is_reserved":false,"is_disabled":false,"rental_uris":{"android":"levelo://app?vid=058ca645-c40f-4dde-813c-bc560e1710cc","ios":"levelo://app?vid=058ca645-c40f-4dde-813c-bc560e1710cc"},"vehicle_type_id":"4","last_reported":1704999941,"current_range_meters":20800,"station_id":"chh1huq6cuj3fo74tm60","pricing_plan_id":"free"},{"bike_id":"25fbee09-e328-4565-8086-dfd5d4b4a0ab","system_id":"levelo_inurba_marseille","lat":43.295169,"lon":5.390426,"is_reserved":false,"is_disabled":false,"rental_uris":{"android":"levelo://app?vid=25fbee09-e328-4565-8086-dfd5d4b4a0ab","ios":"levelo://app?vid=25fbee09-e328-4565-8086-dfd5d4b4a0ab"},"vehicle_type_id":"4","last_reported":1704999941,"current_range_meters":27600,"station_id":"ce4bh3p2rcd13ifvqdp0","pricing_plan_id":"free"},{"bike_id":"d290d5fb-a452-4812-a30b-6dd29b08acc4","system_id":"levelo_inurba_marseille","lat":43.295169,"lon":5.390426,"is_reserved":false,"is_disabled":false,"rental_uris":{"android":"levelo://app?vid=d290d5fb-a452-4812-a30b-6dd29b08acc4","ios":"levelo://app?vid=d290d5fb-a452-4812-a30b-6dd29b08acc4"},"vehicle_type_id":"4","last_reported":1704999941,"current_range_meters":13600,"station_id":"ce4bh3p2rcd13ifvqdp0","pricing_plan_id":"free"},{"bike_id":"e0fc462b-d274-4653-b05d-8e799e350e05","system_id":"levelo_inurba_marseille","lat":43.295169,"lon":5.390426,"is_reserved":false,"is_disabled":false,"rental_uris":{"android":"levelo://app?vid=e0fc462b-d274-4653-b05d-8e799e350e05","ios":"levelo://app?vid=e0fc462b-d274-4653-b05d-8e799e350e05"},"vehicle_type_id":"4","last_reported":1704999941,"current_range_meters":29600,"station_id":"ce4bh3p2rcd13ifvqdp0","pricing_plan_id":"free"},{"bike_id":"fbd2ca6a-333e-4506-a9e0-f63e06fb2bb5","system_id":"levelo_inurba_marseille","lat":43.295169,"lon":5.390426,"is_reserved":false,"is_disabled":false,"rental_uris":{"android":"levelo://app?vid=fbd2ca6a-333e-4506-a9e0-f63e06fb2bb5","ios":"levelo://app?vid=fbd2ca6a-333e-4506-a9e0-f63e06fb2bb5"},"vehicle_type_id":"4","last_reported":1704999941,"current_range_meters":23200,"station_id":"ce4bh3p2rcd13ifvqdp0","pricing_plan_id":"free"},{"bike_id":"86a5786a-0a69-40b4-b34f-5180d142ff48","system_id":"levelo_inurba_marseille","lat":43.295169,"lon":5.390426,"is_reserved":false,"is_disabled":false,"rental_uris":{"android":"levelo://app?vid=86a5786a-0a69-40b4-b34f-5180d142ff48","ios":"levelo://app?vid=86a5786a-0a69-40b4-b34f-5180d142ff48"},"vehicle_type_id":"4","last_reported":1704999941,"current_range_meters":21600,"station_id":"ce4bh3p2rcd13ifvqdp0","pricing_plan_id":"free"},{"bike_id":"57a9e790-e938-4953-a578-654c8db7c6b3","system_id":"levelo_inurba_marseille","lat":43.295169,"lon":5.390426,"is_reserved":false,"is_disabled":false,"rental_uris":{"android":"levelo://app?vid=57a9e790-e938-4953-a578-654c8db7c6b3","ios":"levelo://app?vid=57a9e790-e938-4953-a578-654c8db7c6b3"},"vehicle_type_id":"4","last_reported":1704999941,"current_range_meters":31200,"station_id":"ce4bh3p2rcd13ifvqdp0","pricing_plan_id":"free"},{"bike_id":"0714a4a6-67eb-4d48-acb6-9eb2c57020ed","system_id":"levelo_inurba_marseille","lat":43.295169,"lon":5.390426,"is_reserved":false,"is_disabled":false,"rental_uris":{"android":"levelo://app?vid=0714a4a6-67eb-4d48-acb6-9eb2c57020ed","ios":"levelo://app?vid=0714a4a6-67eb-4d48-acb6-9eb2c57020ed"},"vehicle_type_id":"4","last_reported":1704999941,"current_range_meters":14800,"station_id":"ce4bh3p2rcd13ifvqdp0","pricing_plan_id":"free"},{"bike_id":"725d0a4f-0595-4c35-a754-3c2cb4923bf2","system_id":"levelo_inurba_marseille","lat":43.295169,"lon":5.390426,"is_reserved":false,"is_disabled":false,"rental_uris":{"android":"levelo://app?vid=725d0a4f-0595-4c35-a754-3c2cb4923bf2","ios":"levelo://app?vid=725d0a4f-0595-4c35-a754-3c2cb4923bf2"},"vehicle_type_id":"4","last_reported":1704999941,"current_range_meters":28000,"station_id":"ce4bh3p2rcd13ifvqdp0","pricing_plan_id":"free"},{"bike_id":"e7563d82-2e3d-42f8-abe5-63a03148a63f","system_id":"levelo_inurba_marseille","lat":43.28856,"lon":5.358371,"is_reserved":false,"is_disabled":false,"rental_uris":{"android":"levelo://app?vid=e7563d82-2e3d-42f8-abe5-63a03148a63f","ios":"levelo://app?vid=e7563d82-2e3d-42f8-abe5-63a03148a63f"},"vehicle_type_id":"4","last_reported":1704999941,"current_range_meters":27200,"station_id":"ce4bhb12rcd13ifvqem0","pricing_plan_id":"free"},{"bike_id":"33319782-2899-4236-b2fc-ad67d705f30f","system_id":"levelo_inurba_marseille","lat":43.28856,"lon":5.358371,"is_reserved":false,"is_disabled":false,"rental_uris":{"android":"levelo://app?vid=33319782-2899-4236-b2fc-ad67d705f30f","ios":"levelo://app?vid=33319782-2899-4236-b2fc-ad67d705f30f"},"vehicle_type_id":"4","last_reported":1704999941,"current_range_meters":27600,"station_id":"ce4bhb12rcd13ifvqem0","pricing_plan_id":"free"},{"bike_id":"74d86ee4-b8cf-46bd-bf46-e99b5204b8f9","system_id":"levelo_inurba_marseille","lat":43.28856,"lon":5.358371,"is_reserved":false,"is_disabled":false,"rental_uris":{"android":"levelo://app?vid=74d86ee4-b8cf-46bd-bf46-e99b5204b8f9","ios":"levelo://app?vid=74d86ee4-b8cf-46bd-bf46-e99b5204b8f9"},"vehicle_type_id":"4","last_reported":1704999941,"current_range_meters":19200,"station_id":"ce4bhb12rcd13ifvqem0","pricing_plan_id":"free"},{"bike_id":"22814eeb-fe60-4a11-8744-9879914e728f","system_id":"levelo_inurba_marseille","lat":43.309371,"lon":5.401449,"is_reserved":false,"is_disabled":false,"rental_uris":{"android":"levelo://app?vid=22814eeb-fe60-4a11-8744-9879914e728f","ios":"levelo://app?vid=22814eeb-fe60-4a11-8744-9879914e728f"},"vehicle_type_id":"4","last_reported":1704999941,"current_range_meters":9600,"station_id":"ce4bgvp2rcd13ifvqct0","pricing_plan_id":"free"},{"bike_id":"dd401ffe-c0da-4f7a-8d65-b8fce458540e","system_id":"levelo_inurba_marseille","lat":43.3374,"lon":5.37448,"is_reserved":false,"is_disabled":false,"rental_uris":{"android":"levelo://app?vid=dd401ffe-c0da-4f7a-8d65-b8fce458540e","ios":"levelo://app?vid=dd401ffe-c0da-4f7a-8d65-b8fce458540e"},"vehicle_type_id":"4","last_reported":1704999941,"current_range_meters":22400,"station_id":"","pricing_plan_id":"free"},{"bike_id":"15ea7858-b2ed-4d73-b95a-779a48b45d34","system_id":"levelo_inurba_marseille","lat":43.312609,"lon":5.401662,"is_reserved":false,"is_disabled":false,"rental_uris":{"android":"levelo://app?vid=15ea7858-b2ed-4d73-b95a-779a48b45d34","ios":"levelo://app?vid=15ea7858-b2ed-4d73-b95a-779a48b45d34"},"vehicle_type_id":"4","last_reported":1704999941,"current_range_meters":16800,"station_id":"ce4bh092rcd13ifvqd30","pricing_plan_id":"free"},{"bike_id":"2a557ac6-22d9-485a-b7dd-3cf7663be2be","system_id":"levelo_inurba_marseille","lat":43.312609,"lon":5.401662,"is_reserved":false,"is_disabled":false,"rental_uris":{"android":"levelo://app?vid=2a557ac6-22d9-485a-b7dd-3cf7663be2be","ios":"levelo://app?vid=2a557ac6-22d9-485a-b7dd-3cf7663be2be"},"vehicle_type_id":"4","last_reported":1704999941,"current_range_meters":13200,"station_id":"ce4bh092rcd13ifvqd30","pricing_plan_id":"free"},{"bike_id":"00013623-5361-4b74-9040-a4d9aa055b64","system_id":"levelo_inurba_marseille","lat":43.30938,"lon":5.40139,"is_reserved":false,"is_disabled":false,"rental_uris":{"android":"levelo://app?vid=00013623-5361-4b74-9040-a4d9aa055b64","ios":"levelo://app?vid=00013623-5361-4b74-9040-a4d9aa055b64"},"vehicle_type_id":"4","last_reported":1704999941,"current_range_meters":26800,"station_id":"ce4bgvp2rcd13ifvqct0","pricing_plan_id":"free"},{"bike_id":"7dbbd0d0-0fe0-4a7e-bce3-6765ff51695c","system_id":"levelo_inurba_marseille","lat":43.31277,"lon":5.40171,"is_reserved":false,"is_disabled":false,"rental_uris":{"android":"levelo://app?vid=7dbbd0d0-0fe0-4a7e-bce3-6765ff51695c","ios":"levelo://app?vid=7dbbd0d0-0fe0-4a7e-bce3-6765ff51695c"},"vehicle_type_id":"4","last_reported":1704999941,"current_range_meters":30000,"station_id":"ce4bh092rcd13ifvqd30","pricing_plan_id":"free"},{"bike_id":"6e91b5a3-b719-4be8-9446-cba5dec2bc33","system_id":"levelo_inurba_marseille","lat":43.309371,"lon":5.401449,"is_reserved":false,"is_disabled":false,"rental_uris":{"android":"levelo://app?vid=6e91b5a3-b719-4be8-9446-cba5dec2bc33","ios":"levelo://app?vid=6e91b5a3-b719-4be8-9446-cba5dec2bc33"},"vehicle_type_id":"4","last_reported":1704999941,"current_range_meters":0,"station_id":"ce4bgvp2rcd13ifvqct0","pricing_plan_id":"free"},{"bike_id":"b87fbd4c-5846-45b8-92d5-d54acca46972","system_id":"levelo_inurba_marseille","lat":43.309371,"lon":5.401449,"is_reserved":false,"is_disabled":false,"rental_uris":{"android":"levelo://app?vid=b87fbd4c-5846-45b8-92d5-d54acca46972","ios":"levelo://app?vid=b87fbd4c-5846-45b8-92d5-d54acca46972"},"vehicle_type_id":"4","last_reported":1704999941,"current_range_meters":22800,"station_id":"ce4bgvp2rcd13ifvqct0","pricing_plan_id":"free"},{"bike_id":"d4632afc-35e3-4069-86f7-ff142e5cadb3","system_id":"levelo_inurba_marseille","lat":43.31277,"lon":5.40173,"is_reserved":false,"is_disabled":false,"rental_uris":{"android":"levelo://app?vid=d4632afc-35e3-4069-86f7-ff142e5cadb3","ios":"levelo://app?vid=d4632afc-35e3-4069-86f7-ff142e5cadb3"},"vehicle_type_id":"4","last_reported":1704999941,"current_range_meters":13200,"station_id":"ce4bh092rcd13ifvqd30","pricing_plan_id":"free"},{"bike_id":"d575caef-2b53-4899-9b1e-271e38eac812","system_id":"levelo_inurba_marseille","lat":43.30928,"lon":5.40142,"is_reserved":false,"is_disabled":false,"rental_uris":{"android":"levelo://app?vid=d575caef-2b53-4899-9b1e-271e38eac812","ios":"levelo://app?vid=d575caef-2b53-4899-9b1e-271e38eac812"},"vehicle_type_id":"4","last_reported":1704999941,"current_range_meters":26000,"station_id":"ce4bgvp2rcd13ifvqct0","pricing_plan_id":"free"},{"bike_id":"07d7104d-5ee2-4ff2-b3d9-f8f9edd0ad53","system_id":"levelo_inurba_marseille","lat":43.30929,"lon":5.40143,"is_reserved":false,"is_disabled":false,"rental_uris":{"android":"levelo://app?vid=07d7104d-5ee2-4ff2-b3d9-f8f9edd0ad53","ios":"levelo://app?vid=07d7104d-5ee2-4ff2-b3d9-f8f9edd0ad53"},"vehicle_type_id":"4","last_reported":1704999941,"current_range_meters":17200,"station_id":"ce4bgvp2rcd13ifvqct0","pricing_plan_id":"free"},{"bike_id":"0431c259-37f8-4ab9-8ca7-6ecd05ea0a19","system_id":"levelo_inurba_marseille","lat":43.309371,"lon":5.401449,"is_reserved":false,"is_disabled":false,"rental_uris":{"android":"levelo://app?vid=0431c259-37f8-4ab9-8ca7-6ecd05ea0a19","ios":"levelo://app?vid=0431c259-37f8-4ab9-8ca7-6ecd05ea0a19"},"vehicle_type_id":"4","last_reported":1704999941,"current_range_meters":6400,"station_id":"ce4bgvp2rcd13ifvqct0","pricing_plan_id":"free"},{"bike_id":"640217e1-caa8-48b6-b30c-7f2a7a56db15","system_id":"levelo_inurba_marseille","lat":43.30931,"lon":5.40146,"is_reserved":false,"is_disabled":false,"rental_uris":{"android":"levelo://app?vid=640217e1-caa8-48b6-b30c-7f2a7a56db15","ios":"levelo://app?vid=640217e1-caa8-48b6-b30c-7f2a7a56db15"},"vehicle_type_id":"4","last_reported":1704999941,"current_range_meters":24400,"station_id":"ce4bgvp2rcd13ifvqct0","pricing_plan_id":"free"},{"bike_id":"d977fa02-4383-45bb-b005-e18c525e392a","system_id":"levelo_inurba_marseille","lat":43.337486,"lon":5.374584,"is_reserved":false,"is_disabled":false,"rental_uris":{"android":"levelo://app?vid=d977fa02-4383-45bb-b005-e18c525e392a","ios":"levelo://app?vid=d977fa02-4383-45bb-b005-e18c525e392a"},"vehicle_type_id":"4","last_reported":1704999941,"current_range_meters":21200,"station_id":"","pricing_plan_id":"free"},{"bike_id":"6b88bec0-0096-45c5-9762-e4f8787be6ee","system_id":"levelo_inurba_marseille","lat":43.312609,"lon":5.401662,"is_reserved":false,"is_disabled":false,"rental_uris":{"android":"levelo://app?vid=6b88bec0-0096-45c5-9762-e4f8787be6ee","ios":"levelo://app?vid=6b88bec0-0096-45c5-9762-e4f8787be6ee"},"vehicle_type_id":"4","last_reported":1704999941,"current_range_meters":400,"station_id":"ce4bh092rcd13ifvqd30","pricing_plan_id":"free"},{"bike_id":"e6b414c9-54ac-4a4b-905d-e8b009155f7d","system_id":"levelo_inurba_marseille","lat":43.337516,"lon":5.374533,"is_reserved":false,"is_disabled":false,"rental_uris":{"android":"levelo://app?vid=e6b414c9-54ac-4a4b-905d-e8b009155f7d","ios":"levelo://app?vid=e6b414c9-54ac-4a4b-905d-e8b009155f7d"},"vehicle_type_id":"4","last_reported":1704999941,"current_range_meters":26000,"station_id":"","pricing_plan_id":"free"},{"bike_id":"94e23f1b-dbf5-4680-8560-03f0ad22de3d","system_id":"levelo_inurba_marseille","lat":43.3093,"lon":5.4015,"is_reserved":false,"is_disabled":false,"rental_uris":{"android":"levelo://app?vid=94e23f1b-dbf5-4680-8560-03f0ad22de3d","ios":"levelo://app?vid=94e23f1b-dbf5-4680-8560-03f0ad22de3d"},"vehicle_type_id":"4","last_reported":1704999941,"current_range_meters":12800,"station_id":"ce4bgvp2rcd13ifvqct0","pricing_plan_id":"free"},{"bike_id":"cb019ca3-9e8d-480b-9ad5-8ee476f75c25","system_id":"levelo_inurba_marseille","lat":43.306412,"lon":5.401035,"is_reserved":false,"is_disabled":false,"rental_uris":{"android":"levelo://app?vid=cb019ca3-9e8d-480b-9ad5-8ee476f75c25","ios":"levelo://app?vid=cb019ca3-9e8d-480b-9ad5-8ee476f75c25"},"vehicle_type_id":"4","last_reported":1704999941,"current_range_meters":23200,"station_id":"ce4bh112rcd13ifvqda0","pricing_plan_id":"free"},{"bike_id":"1dacac17-d2bc-497f-99d5-e12744329d09","system_id":"levelo_inurba_marseille","lat":43.306412,"lon":5.401035,"is_reserved":false,"is_disabled":false,"rental_uris":{"android":"levelo://app?vid=1dacac17-d2bc-497f-99d5-e12744329d09","ios":"levelo://app?vid=1dacac17-d2bc-497f-99d5-e12744329d09"},"vehicle_type_id":"4","last_reported":1704999941,"current_range_meters":22800,"station_id":"ce4bh112rcd13ifvqda0","pricing_plan_id":"free"},{"bike_id":"f2405833-6e9c-4a74-b868-5b525cac8876","system_id":"levelo_inurba_marseille","lat":43.30926,"lon":5.40154,"is_reserved":false,"is_disabled":false,"rental_uris":{"android":"levelo://app?vid=f2405833-6e9c-4a74-b868-5b525cac8876","ios":"levelo://app?vid=f2405833-6e9c-4a74-b868-5b525cac8876"},"vehicle_type_id":"4","last_reported":1704999941,"current_range_meters":11600,"station_id":"ce4bgvp2rcd13ifvqct0","pricing_plan_id":"free"},{"bike_id":"afdb4d06-b2e3-4fbb-b398-43c1a3b99dd1","system_id":"levelo_inurba_marseille","lat":43.309371,"lon":5.401449,"is_reserved":false,"is_disabled":false,"rental_uris":{"android":"levelo://app?vid=afdb4d06-b2e3-4fbb-b398-43c1a3b99dd1","ios":"levelo://app?vid=afdb4d06-b2e3-4fbb-b398-43c1a3b99dd1"},"vehicle_type_id":"4","last_reported":1704999941,"current_range_meters":25600,"station_id":"ce4bgvp2rcd13ifvqct0","pricing_plan_id":"free"},{"bike_id":"f481ef2c-f442-421b-be8c-fb1c4d039a61","system_id":"levelo_inurba_marseille","lat":43.309371,"lon":5.401449,"is_reserved":false,"is_disabled":false,"rental_uris":{"android":"levelo://app?vid=f481ef2c-f442-421b-be8c-fb1c4d039a61","ios":"levelo://app?vid=f481ef2c-f442-421b-be8c-fb1c4d039a61"},"vehicle_type_id":"4","last_reported":1704999941,"current_range_meters":18400,"station_id":"ce4bgvp2rcd13ifvqct0","pricing_plan_id":"free"},{"bike_id":"b8dad847-38ab-4856-81fc-b5c1a2bb4a3c","system_id":"levelo_inurba_marseille","lat":43.30642,"lon":5.401031,"is_reserved":false,"is_disabled":false,"rental_uris":{"android":"levelo://app?vid=b8dad847-38ab-4856-81fc-b5c1a2bb4a3c","ios":"levelo://app?vid=b8dad847-38ab-4856-81fc-b5c1a2bb4a3c"},"vehicle_type_id":"4","last_reported":1704999941,"current_range_meters":2400,"station_id":"ce4bh112rcd13ifvqda0","pricing_plan_id":"free"},{"bike_id":"2d31d90c-18cc-493a-ad93-91a966057af0","system_id":"levelo_inurba_marseille","lat":43.33762,"lon":5.37465,"is_reserved":false,"is_disabled":false,"rental_uris":{"android":"levelo://app?vid=2d31d90c-18cc-493a-ad93-91a966057af0","ios":"levelo://app?vid=2d31d90c-18cc-493a-ad93-91a966057af0"},"vehicle_type_id":"4","last_reported":1704999941,"current_range_meters":27200,"station_id":"","pricing_plan_id":"free"},{"bike_id":"04363b7e-0ad4-4554-8a0d-6126fa8981bc","system_id":"levelo_inurba_marseille","lat":43.30642,"lon":5.401031,"is_reserved":false,"is_disabled":false,"rental_uris":{"android":"levelo://app?vid=04363b7e-0ad4-4554-8a0d-6126fa8981bc","ios":"levelo://app?vid=04363b7e-0ad4-4554-8a0d-6126fa8981bc"},"vehicle_type_id":"4","last_reported":1704999941,"current_range_meters":22400,"station_id":"ce4bh112rcd13ifvqda0","pricing_plan_id":"free"},{"bike_id":"a9824bca-b0dd-47e1-823f-a61b3552cfdc","system_id":"levelo_inurba_marseille","lat":43.306412,"lon":5.401035,"is_reserved":false,"is_disabled":false,"rental_uris":{"android":"levelo://app?vid=a9824bca-b0dd-47e1-823f-a61b3552cfdc","ios":"levelo://app?vid=a9824bca-b0dd-47e1-823f-a61b3552cfdc"},"vehicle_type_id":"4","last_reported":1704999941,"current_range_meters":26000,"station_id":"ce4bh112rcd13ifvqda0","pricing_plan_id":"free"},{"bike_id":"ba20405e-5c07-4fbb-9d48-1cc1fd2cfb8a","system_id":"levelo_inurba_marseille","lat":43.30642,"lon":5.401031,"is_reserved":false,"is_disabled":false,"rental_uris":{"android":"levelo://app?vid=ba20405e-5c07-4fbb-9d48-1cc1fd2cfb8a","ios":"levelo://app?vid=ba20405e-5c07-4fbb-9d48-1cc1fd2cfb8a"},"vehicle_type_id":"4","last_reported":1704999941,"current_range_meters":17600,"station_id":"ce4bh112rcd13ifvqda0","pricing_plan_id":"free"},{"bike_id":"37f52a4b-c08d-4417-a59d-e5b27e597f53","system_id":"levelo_inurba_marseille","lat":43.306523,"lon":5.400975,"is_reserved":false,"is_disabled":false,"rental_uris":{"android":"levelo://app?vid=37f52a4b-c08d-4417-a59d-e5b27e597f53","ios":"levelo://app?vid=37f52a4b-c08d-4417-a59d-e5b27e597f53"},"vehicle_type_id":"4","last_reported":1704999941,"current_range_meters":25600,"station_id":"ce4bh112rcd13ifvqda0","pricing_plan_id":"free"},{"bike_id":"77e212bf-2a4c-475e-98a6-62d3ed5da087","system_id":"levelo_inurba_marseille","lat":43.30642,"lon":5.401031,"is_reserved":false,"is_disabled":false,"rental_uris":{"android":"levelo://app?vid=77e212bf-2a4c-475e-98a6-62d3ed5da087","ios":"levelo://app?vid=77e212bf-2a4c-475e-98a6-62d3ed5da087"},"vehicle_type_id":"4","last_reported":1704999941,"current_range_meters":24400,"station_id":"ce4bh112rcd13ifvqda0","pricing_plan_id":"free"},{"bike_id":"979f4289-125b-415e-8553-9f4e8183c788","system_id":"levelo_inurba_marseille","lat":43.3377,"lon":5.3746,"is_reserved":false,"is_disabled":false,"rental_uris":{"android":"levelo://app?vid=979f4289-125b-415e-8553-9f4e8183c788","ios":"levelo://app?vid=979f4289-125b-415e-8553-9f4e8183c788"},"vehicle_type_id":"4","last_reported":1704999941,"current_range_meters":29200,"station_id":"","pricing_plan_id":"free"},{"bike_id":"e7159978-ccca-4b3f-841b-c3f8ec92da80","system_id":"levelo_inurba_marseille","lat":43.30648,"lon":5.40101,"is_reserved":false,"is_disabled":false,"rental_uris":{"android":"levelo://app?vid=e7159978-ccca-4b3f-841b-c3f8ec92da80","ios":"levelo://app?vid=e7159978-ccca-4b3f-841b-c3f8ec92da80"},"vehicle_type_id":"4","last_reported":1704999941,"current_range_meters":5600,"station_id":"ce4bh112rcd13ifvqda0","pricing_plan_id":"free"},{"bike_id":"978077dc-88ed-4006-aabd-75e07d467835","system_id":"levelo_inurba_marseille","lat":43.301117,"lon":5.398795,"is_reserved":false,"is_disabled":false,"rental_uris":{"android":"levelo://app?vid=978077dc-88ed-4006-aabd-75e07d467835","ios":"levelo://app?vid=978077dc-88ed-4006-aabd-75e07d467835"},"vehicle_type_id":"4","last_reported":1704999941,"current_range_meters":31600,"station_id":"ce4bh0h2rcd13ifvqd40","pricing_plan_id":"free"},{"bike_id":"a6e52713-96bc-4233-b95e-dae2ea120b15","system_id":"levelo_inurba_marseille","lat":43.30143,"lon":5.39863,"is_reserved":false,"is_disabled":false,"rental_uris":{"android":"levelo://app?vid=a6e52713-96bc-4233-b95e-dae2ea120b15","ios":"levelo://app?vid=a6e52713-96bc-4233-b95e-dae2ea120b15"},"vehicle_type_id":"4","last_reported":1704999941,"current_range_meters":10800,"station_id":"ce4bh0h2rcd13ifvqd40","pricing_plan_id":"free"},{"bike_id":"a1846e00-e8d2-4052-ad26-4906ce2c456b","system_id":"levelo_inurba_marseille","lat":43.301117,"lon":5.398795,"is_reserved":false,"is_disabled":false,"rental_uris":{"android":"levelo://app?vid=a1846e00-e8d2-4052-ad26-4906ce2c456b","ios":"levelo://app?vid=a1846e00-e8d2-4052-ad26-4906ce2c456b"},"vehicle_type_id":"4","last_reported":1704999941,"current_range_meters":12400,"station_id":"ce4bh0h2rcd13ifvqd40","pricing_plan_id":"free"},{"bike_id":"c266321e-1b83-414c-85df-bb2b4c7290e4","system_id":"levelo_inurba_marseille","lat":43.287829,"lon":5.375698,"is_reserved":false,"is_disabled":false,"rental_uris":{"android":"levelo://app?vid=c266321e-1b83-414c-85df-bb2b4c7290e4","ios":"levelo://app?vid=c266321e-1b83-414c-85df-bb2b4c7290e4"},"vehicle_type_id":"4","last_reported":1704999941,"current_range_meters":13600,"station_id":"","pricing_plan_id":"free"},{"bike_id":"9c048256-12bf-4fbe-9d99-64504afe65eb","system_id":"levelo_inurba_marseille","lat":43.301117,"lon":5.398795,"is_reserved":false,"is_disabled":false,"rental_uris":{"android":"levelo://app?vid=9c048256-12bf-4fbe-9d99-64504afe65eb","ios":"levelo://app?vid=9c048256-12bf-4fbe-9d99-64504afe65eb"},"vehicle_type_id":"4","last_reported":1704999941,"current_range_meters":12400,"station_id":"ce4bh0h2rcd13ifvqd40","pricing_plan_id":"free"},{"bike_id":"ca0cda56-6791-4942-bf40-c8790fce475d","system_id":"levelo_inurba_marseille","lat":43.30137,"lon":5.39864,"is_reserved":false,"is_disabled":false,"rental_uris":{"android":"levelo://app?vid=ca0cda56-6791-4942-bf40-c8790fce475d","ios":"levelo://app?vid=ca0cda56-6791-4942-bf40-c8790fce475d"},"vehicle_type_id":"4","last_reported":1704999941,"current_range_meters":0,"station_id":"ce4bh0h2rcd13ifvqd40","pricing_plan_id":"free"},{"bike_id":"f3682688-b079-4f02-8c11-8db7ac98b34e","system_id":"levelo_inurba_marseille","lat":43.28732,"lon":5.360739,"is_reserved":false,"is_disabled":false,"rental_uris":{"android":"levelo://app?vid=f3682688-b079-4f02-8c11-8db7ac98b34e","ios":"levelo://app?vid=f3682688-b079-4f02-8c11-8db7ac98b34e"},"vehicle_type_id":"4","last_reported":1704999941,"current_range_meters":23600,"station_id":"cki0cbj6b192h4jlfktg","pricing_plan_id":"free"},{"bike_id":"a4e66af0-89e2-4e98-b04b-e5bb31b530e6","system_id":"levelo_inurba_marseille","lat":43.28727,"lon":5.36078,"is_reserved":false,"is_disabled":false,"rental_uris":{"android":"levelo://app?vid=a4e66af0-89e2-4e98-b04b-e5bb31b530e6","ios":"levelo://app?vid=a4e66af0-89e2-4e98-b04b-e5bb31b530e6"},"vehicle_type_id":"4","last_reported":1704999941,"current_range_meters":20400,"station_id":"cki0cbj6b192h4jlfktg","pricing_plan_id":"free"},{"bike_id":"5a0b1cd9-f6c7-4372-863c-80046f90865c","system_id":"levelo_inurba_marseille","lat":43.28727,"lon":5.36078,"is_reserved":false,"is_disabled":false,"rental_uris":{"android":"levelo://app?vid=5a0b1cd9-f6c7-4372-863c-80046f90865c","ios":"levelo://app?vid=5a0b1cd9-f6c7-4372-863c-80046f90865c"},"vehicle_type_id":"4","last_reported":1704999941,"current_range_meters":31200,"station_id":"cki0cbj6b192h4jlfktg","pricing_plan_id":"free"},{"bike_id":"c5c48f76-9372-4c4c-8a8a-3549f1214b17","system_id":"levelo_inurba_marseille","lat":43.28724,"lon":5.36084,"is_reserved":false,"is_disabled":false,"rental_uris":{"android":"levelo://app?vid=c5c48f76-9372-4c4c-8a8a-3549f1214b17","ios":"levelo://app?vid=c5c48f76-9372-4c4c-8a8a-3549f1214b17"},"vehicle_type_id":"4","last_reported":1704999941,"current_range_meters":23600,"station_id":"cki0cbj6b192h4jlfktg","pricing_plan_id":"free"},{"bike_id":"deb8eb55-b317-4c0a-a46e-6dae13875cef","system_id":"levelo_inurba_marseille","lat":43.28727,"lon":5.36078,"is_reserved":false,"is_disabled":false,"rental_uris":{"android":"levelo://app?vid=deb8eb55-b317-4c0a-a46e-6dae13875cef","ios":"levelo://app?vid=deb8eb55-b317-4c0a-a46e-6dae13875cef"},"vehicle_type_id":"4","last_reported":1704999941,"current_range_meters":16000,"station_id":"cki0cbj6b192h4jlfktg","pricing_plan_id":"free"},{"bike_id":"20e0275c-546c-4d2d-a6bf-b2f29fd72a2c","system_id":"levelo_inurba_marseille","lat":43.301117,"lon":5.398795,"is_reserved":false,"is_disabled":false,"rental_uris":{"android":"levelo://app?vid=20e0275c-546c-4d2d-a6bf-b2f29fd72a2c","ios":"levelo://app?vid=20e0275c-546c-4d2d-a6bf-b2f29fd72a2c"},"vehicle_type_id":"4","last_reported":1704999941,"current_range_meters":24000,"station_id":"ce4bh0h2rcd13ifvqd40","pricing_plan_id":"free"},{"bike_id":"3a52dc04-358f-456d-ab67-ae2d88dfb19c","system_id":"levelo_inurba_marseille","lat":43.298681,"lon":5.397225,"is_reserved":false,"is_disabled":false,"rental_uris":{"android":"levelo://app?vid=3a52dc04-358f-456d-ab67-ae2d88dfb19c","ios":"levelo://app?vid=3a52dc04-358f-456d-ab67-ae2d88dfb19c"},"vehicle_type_id":"4","last_reported":1704999941,"current_range_meters":22400,"station_id":"ce4bh0h2rcd13ifvqd50","pricing_plan_id":"free"},{"bike_id":"80e2913a-8f27-4801-9452-5bcd43adbc79","system_id":"levelo_inurba_marseille","lat":43.286591,"lon":5.363346,"is_reserved":false,"is_disabled":false,"rental_uris":{"android":"levelo://app?vid=80e2913a-8f27-4801-9452-5bcd43adbc79","ios":"levelo://app?vid=80e2913a-8f27-4801-9452-5bcd43adbc79"},"vehicle_type_id":"4","last_reported":1704999941,"current_range_meters":13200,"station_id":"ce4bhah2rcd13ifvqej0","pricing_plan_id":"free"},{"bike_id":"27057d80-9e92-4a27-92cd-3a9fc07e0f58","system_id":"levelo_inurba_marseille","lat":43.298681,"lon":5.397225,"is_reserved":false,"is_disabled":false,"rental_uris":{"android":"levelo://app?vid=27057d80-9e92-4a27-92cd-3a9fc07e0f58","ios":"levelo://app?vid=27057d80-9e92-4a27-92cd-3a9fc07e0f58"},"vehicle_type_id":"4","last_reported":1704999941,"current_range_meters":24000,"station_id":"ce4bh0h2rcd13ifvqd50","pricing_plan_id":"free"},{"bike_id":"5fadf8e0-ac60-45a2-b9d9-f1431817f02e","system_id":"levelo_inurba_marseille","lat":43.286593,"lon":5.363346,"is_reserved":false,"is_disabled":false,"rental_uris":{"android":"levelo://app?vid=5fadf8e0-ac60-45a2-b9d9-f1431817f02e","ios":"levelo://app?vid=5fadf8e0-ac60-45a2-b9d9-f1431817f02e"},"vehicle_type_id":"4","last_reported":1704999941,"current_range_meters":18400,"station_id":"ce4bhah2rcd13ifvqej0","pricing_plan_id":"free"},{"bike_id":"2456047d-54ee-4214-8d23-d26aefccdb12","system_id":"levelo_inurba_marseille","lat":43.298681,"lon":5.397225,"is_reserved":false,"is_disabled":false,"rental_uris":{"android":"levelo://app?vid=2456047d-54ee-4214-8d23-d26aefccdb12","ios":"levelo://app?vid=2456047d-54ee-4214-8d23-d26aefccdb12"},"vehicle_type_id":"4","last_reported":1704999941,"current_range_meters":16000,"station_id":"ce4bh0h2rcd13ifvqd50","pricing_plan_id":"free"},{"bike_id":"41bd9a0c-c885-4b0c-a250-459ce264fbd1","system_id":"levelo_inurba_marseille","lat":43.286593,"lon":5.363346,"is_reserved":false,"is_disabled":false,"rental_uris":{"android":"levelo://app?vid=41bd9a0c-c885-4b0c-a250-459ce264fbd1","ios":"levelo://app?vid=41bd9a0c-c885-4b0c-a250-459ce264fbd1"},"vehicle_type_id":"4","last_reported":1704999941,"current_range_meters":27200,"station_id":"ce4bhah2rcd13ifvqej0","pricing_plan_id":"free"},{"bike_id":"46bf23ce-09f2-4a81-b5cc-75c7e764f736","system_id":"levelo_inurba_marseille","lat":43.286591,"lon":5.363346,"is_reserved":false,"is_disabled":false,"rental_uris":{"android":"levelo://app?vid=46bf23ce-09f2-4a81-b5cc-75c7e764f736","ios":"levelo://app?vid=46bf23ce-09f2-4a81-b5cc-75c7e764f736"},"vehicle_type_id":"4","last_reported":1704999941,"current_range_meters":8000,"station_id":"ce4bhah2rcd13ifvqej0","pricing_plan_id":"free"},{"bike_id":"b7d3cd76-23ea-4f19-b6e6-ac08c86607c1","system_id":"levelo_inurba_marseille","lat":43.298681,"lon":5.397225,"is_reserved":false,"is_disabled":false,"rental_uris":{"android":"levelo://app?vid=b7d3cd76-23ea-4f19-b6e6-ac08c86607c1","ios":"levelo://app?vid=b7d3cd76-23ea-4f19-b6e6-ac08c86607c1"},"vehicle_type_id":"4","last_reported":1704999941,"current_range_meters":19200,"station_id":"ce4bh0h2rcd13ifvqd50","pricing_plan_id":"free"},{"bike_id":"011e3c8e-9a55-47d0-b37b-4fe319f4da27","system_id":"levelo_inurba_marseille","lat":43.298681,"lon":5.397225,"is_reserved":false,"is_disabled":false,"rental_uris":{"android":"levelo://app?vid=011e3c8e-9a55-47d0-b37b-4fe319f4da27","ios":"levelo://app?vid=011e3c8e-9a55-47d0-b37b-4fe319f4da27"},"vehicle_type_id":"4","last_reported":1704999941,"current_range_meters":7200,"station_id":"ce4bh0h2rcd13ifvqd50","pricing_plan_id":"free"},{"bike_id":"92135c6c-7013-4dc3-a04e-c693ea95379d","system_id":"levelo_inurba_marseille","lat":43.286591,"lon":5.363346,"is_reserved":false,"is_disabled":false,"rental_uris":{"android":"levelo://app?vid=92135c6c-7013-4dc3-a04e-c693ea95379d","ios":"levelo://app?vid=92135c6c-7013-4dc3-a04e-c693ea95379d"},"vehicle_type_id":"4","last_reported":1704999941,"current_range_meters":8000,"station_id":"ce4bhah2rcd13ifvqej0","pricing_plan_id":"free"},{"bike_id":"b82acb9d-d92b-4c72-b42b-37ef07fcfa19","system_id":"levelo_inurba_marseille","lat":43.286591,"lon":5.363346,"is_reserved":false,"is_disabled":false,"rental_uris":{"android":"levelo://app?vid=b82acb9d-d92b-4c72-b42b-37ef07fcfa19","ios":"levelo://app?vid=b82acb9d-d92b-4c72-b42b-37ef07fcfa19"},"vehicle_type_id":"4","last_reported":1704999941,"current_range_meters":1600,"station_id":"ce4bhah2rcd13ifvqej0","pricing_plan_id":"free"},{"bike_id":"773f0276-95a7-4abb-8dea-573ab1eaa558","system_id":"levelo_inurba_marseille","lat":43.286591,"lon":5.363346,"is_reserved":false,"is_disabled":false,"rental_uris":{"android":"levelo://app?vid=773f0276-95a7-4abb-8dea-573ab1eaa558","ios":"levelo://app?vid=773f0276-95a7-4abb-8dea-573ab1eaa558"},"vehicle_type_id":"4","last_reported":1704999941,"current_range_meters":3600,"station_id":"ce4bhah2rcd13ifvqej0","pricing_plan_id":"free"},