{"last_updated":1746299255,"ttl":60,"version":"2.2","data":{"bikes":[{"bike_id":"50547906-fcfe-49e0-99a3-02e1920a11db","system_id":"levelo_inurba_marseille","lat":43.30974,"lon":5.39016,"is_reserved":false,"is_disabled":true,"rental_uris":{"android":"levelo://app?vid=50547906-fcfe-49e0-99a3-02e1920a11db","ios":"levelo://app?vid=50547906-fcfe-49e0-99a3-02e1920a11db"},"vehicle_type_id":"4","last_reported":1746299255,"current_range_meters":3200,"station_id":"ce4bgup2rcd13ifvqco0","pricing_plan_id":"cebpf4jnsgd1na2vs0mg"},{"bike_id":"dcebea1a-40b1-4757-95af-2ddcf95b9b7c","system_id":"levelo_inurba_marseille","lat":43.2942,"lon":5.38628,"is_reserved":false,"is_disabled":false,"rental_uris":{"android":"levelo://app?vid=dcebea1a-40b1-4757-95af-2ddcf95b9b7c","ios":"levelo://app?vid=dcebea1a-40b1-4757-95af-2ddcf95b9b7c"},"vehicle_type_id":"4","last_reported":1746299255,"current_range_meters":3200,"station_id":"ce4bh2h2rcd13ifvqdh0","pricing_plan_id":"cebpf4jnsgd1na2vs0mg"},{"bike_id":"5a8122b9-97f5-4e94-b954-193a46a808df","system_id":"levelo_inurba_marseille","lat":43.27611,"lon":5.36109,"is_reserved":false,"is_disabled":false,"rental_uris":{"android":"levelo://app?vid=5a8122b9-97f5-4e94-b954-193a46a808df","ios":"levelo://app?vid=5a8122b9-97f5-4e94-b954-193a46a808df"},"vehicle_type_id":"4","last_reported":1746299255,"current_range_meters":3200,"station_id":"ce4bgj92rcd13ifvqbe0","pricing_plan_id":"cebpf4jnsgd1na2vs0mg"},{"bike_id":"6510ba33-44f5-4306-823a-a136f3b87e8b","system_id":"levelo_inurba_marseille","lat":43.29514,"lon":5.37516,"is_reserved":false,"is_disabled":false,"rental_uris":{"android":"levelo://app?vid=6510ba33-44f5-4306-823a-a136f3b87e8b","ios":"levelo://app?vid=6510ba33-44f5-4306-823a-a136f3b87e8b"},"vehicle_type_id":"4","last_reported":1746299255,"current_range_meters":3200,"station_id":"ce4bgkp2rcd13ifvqbmg","pricing_plan_id":"cebpf4jnsgd1na2vs0mg"},{"bike_id":"a27cf8fe-f801-49fb-84c0-d2069af44da7","system_id":"levelo_inurba_marseille","lat":43.30268,"lon":5.37721,"is_reserved":false,"is_disabled":false,"rental_uris":{"android":"levelo://app?vid=a27cf8fe-f801-49fb-84c0-d2069af44da7","ios":"levelo://app?vid=a27cf8fe-f801-49fb-84c0-d2069af44da7"},"vehicle_type_id":"4","last_reported":1746299255,"current_range_meters":3200,"station_id":"ce4bguh2rcd13ifvqcj0","pricing_plan_id":"cebpf4jnsgd1na2vs0mg"},{"bike_id":"572f3806-80c1-48ad-ae3d-d199679bae09","system_id":"levelo_inurba_marseille","lat":43.248135,"lon":5.374813,"is_reserved":false,"is_disabled":false,"rental_uris":{"android":"levelo://app?vid=572f3806-80c1-48ad-ae3d-d199679bae09","ios":"levelo://app?vid=572f3806-80c1-48ad-ae3d-d199679bae09"},"vehicle_type_id":"4","last_reported":1746299255,"current_range_meters":3200,"station_id":"ce4bhhh2rcd13ifvqfk0","pricing_plan_id":"cebpf4jnsgd1na2vs0mg"},{"bike_id":"7971fe93-5f1d-4a59-8508-b415e64fcb18","system_id":"levelo_inurba_marseille","lat":43.30954,"lon":5.37368,"is_reserved":false,"is_disabled":false,"rental_uris":{"android":"levelo://app?vid=7971fe93-5f1d-4a59-8508-b415e64fcb18","ios":"levelo://app?vid=7971fe93-5f1d-4a59-8508-b415e64fcb18"},"vehicle_type_id":"4","last_reported":1746299255,"current_range_meters":3200,"station_id":"","pricing_plan_id":"cebpf4jnsgd1na2vs0mg"},{"bike_id":"01094e35-d98b-459b-93b9-6eaae48ab681","system_id":"levelo_inurba_marseille","lat":43.30916,"lon":5.40156,"is_reserved":false,"is_disabled":true,"rental_uris":{"android":"levelo://app?vid=01094e35-d98b-459b-93b9-6eaae48ab681","ios":"levelo://app?vid=01094e35-d98b-459b-93b9-6eaae48ab681"},"vehicle_type_id":"4","last_reported":1746299255,"current_range_meters":3600,"station_id":"ce4bgvp2rcd13ifvqct0","pricing_plan_id":"cebpf4jnsgd1na2vs0mg"},{"bike_id":"47e94594-8dc8-4203-aa71-7a581a026dd5","system_id":"levelo_inurba_marseille","lat":43.28473,"lon":5.38417,"is_reserved":false,"is_disabled":false,"rental_uris":{"android":"levelo://app?vid=47e94594-8dc8-4203-aa71-7a581a026dd5","ios":"levelo://app?vid=47e94594-8dc8-4203-aa71-7a581a026dd5"},"vehicle_type_id":"4","last_reported":1746299255,"current_range_meters":3600,"station_id":"ce4bh512rcd13ifvqe3g","pricing_plan_id":"cebpf4jnsgd1na2vs0mg"},{"bike_id":"60a288ab-f5b2-4a54-9338-bee0275847be","system_id":"levelo_inurba_marseille","lat":43.28721,"lon":5.36081,"is_reserved":false,"is_disabled":false,"rental_uris":{"android":"levelo://app?vid=60a288ab-f5b2-4a54-9338-bee0275847be","ios":"levelo://app?vid=60a288ab-f5b2-4a54-9338-bee0275847be"},"vehicle_type_id":"4","last_reported":1746299255,"current_range_meters":3200,"station_id":"cki0cbj6b192h4jlfktg","pricing_plan_id":"cebpf4jnsgd1na2vs0mg"},{"bike_id":"20be6633-d8cb-4b27-9c7d-b32875391e90","system_id":"levelo_inurba_marseille","lat":43.28028,"lon":5.36947,"is_reserved":false,"is_disabled":false,"rental_uris":{"android":"levelo://app?vid=20be6633-d8cb-4b27-9c7d-b32875391e90","ios":"levelo://app?vid=20be6633-d8cb-4b27-9c7d-b32875391e90"},"vehicle_type_id":"4","last_reported":1746299255,"current_range_meters":4000,"station_id":"ce4bha12rcd13ifvqef0","pricing_plan_id":"cebpf4jnsgd1na2vs0mg"},{"bike_id":"a4625ade-936e-47a9-85c3-42609915966f","system_id":"levelo_inurba_marseille","lat":43.306488,"lon":5.40087,"is_reserved":false,"is_disabled":false,"rental_uris":{"android":"levelo://app?vid=a4625ade-936e-47a9-85c3-42609915966f","ios":"levelo://app?vid=a4625ade-936e-47a9-85c3-42609915966f"},"vehicle_type_id":"4","last_reported":1746299255,"current_range_meters":4000,"station_id":"ce4bh112rcd13ifvqda0","pricing_plan_id":"cebpf4jnsgd1na2vs0mg"},{"bike_id":"932f8e2a-f3d3-4bf5-b799-ade38619f1cf","system_id":"levelo_inurba_marseille","lat":43.31261,"lon":5.40174,"is_reserved":false,"is_disabled":false,"rental_uris":{"android":"levelo://app?vid=932f8e2a-f3d3-4bf5-b799-ade38619f1cf","ios":"levelo://app?vid=932f8e2a-f3d3-4bf5-b799-ade38619f1cf"},"vehicle_type_id":"4","last_reported":1746299255,"current_range_meters":3600,"station_id":"ce4bh092rcd13ifvqd30","pricing_plan_id":"cebpf4jnsgd1na2vs0mg"},{"bike_id":"f0259f55-382d-4317-a5a3-c63365a0d76b","system_id":"levelo_inurba_marseille","lat":43.25526,"lon":5.41802,"is_reserved":false,"is_disabled":false,"rental_uris":{"android":"levelo://app?vid=f0259f55-382d-4317-a5a3-c63365a0d76b","ios":"levelo://app?vid=f0259f55-382d-4317-a5a3-c63365a0d76b"},"vehicle_type_id":"4","last_reported":1746299255,"current_range_meters":4400,"station_id":"","pricing_plan_id":"cebpf4jnsgd1na2vs0mg"},{"bike_id":"d1e9e436-378c-43ea-b9a3-b6efb8ba7c11","system_id":"levelo_inurba_marseille","lat":43.29247,"lon":5.38442,"is_reserved":false,"is_disabled":false,"rental_uris":{"android":"levelo://app?vid=d1e9e436-378c-43ea-b9a3-b6efb8ba7c11","ios":"levelo://app?vid=d1e9e436-378c-43ea-b9a3-b6efb8ba7c11"},"vehicle_type_id":"4","last_reported":1746299255,"current_range_meters":4400,"station_id":"ce4bh692rcd13ifvqea0","pricing_plan_id":"cebpf4jnsgd1na2vs0mg"},{"bike_id":"bd3a942b-03f7-4084-8d46-6b6b535e0869","system_id":"levelo_inurba_marseille","lat":43.31485,"lon":5.37311,"is_reserved":false,"is_disabled":false,"rental_uris":{"android":"levelo://app?vid=bd3a942b-03f7-4084-8d46-6b6b535e0869","ios":"levelo://app?vid=bd3a942b-03f7-4084-8d46-6b6b535e0869"},"vehicle_type_id":"4","last_reported":1746299255,"current_range_meters":4400,"station_id":"ce4bgt12rcd13ifvqcd0","pricing_plan_id":"cebpf4jnsgd1na2vs0mg"},{"bike_id":"02f9a5fe-d086-4eef-bbdb-bc2f1bc7cab8","system_id":"levelo_inurba_marseille","lat":43.29526,"lon":5.38547,"is_reserved":false,"is_disabled":false,"rental_uris":{"android":"levelo://app?vid=02f9a5fe-d086-4eef-bbdb-bc2f1bc7cab8","ios":"levelo://app?vid=02f9a5fe-d086-4eef-bbdb-bc2f1bc7cab8"},"vehicle_type_id":"4","last_reported":1746299255,"current_range_meters":4400,"station_id":"ce4bgih2rcd13ifvqba0","pricing_plan_id":"cebpf4jnsgd1na2vs0mg"},{"bike_id":"7855ba9a-7482-4a85-a33e-99b64f226f50","system_id":"levelo_inurba_marseille","lat":43.27664,"lon":5.38871,"is_reserved":false,"is_disabled":false,"rental_uris":{"android":"levelo://app?vid=7855ba9a-7482-4a85-a33e-99b64f226f50","ios":"levelo://app?vid=7855ba9a-7482-4a85-a33e-99b64f226f50"},"vehicle_type_id":"4","last_reported":1746299255,"current_range_meters":4400,"station_id":"ce4bhi12rcd13ifvqfo0","pricing_plan_id":"cebpf4jnsgd1na2vs0mg"},{"bike_id":"81551900-9505-45f6-ab5b-04bae0448a3a","system_id":"levelo_inurba_marseille","lat":43.27496,"lon":5.42455,"is_reserved":false,"is_disabled":false,"rental_uris":{"android":"levelo://app?vid=81551900-9505-45f6-ab5b-04bae0448a3a","ios":"levelo://app?vid=81551900-9505-45f6-ab5b-04bae0448a3a"},"vehicle_type_id":"4","last_reported":1746299255,"current_range_meters":4800,"station_id":"ce4bhn92rcd13ifvqgrg","pricing_plan_id":"cebpf4jnsgd1na2vs0mg"},{"bike_id":"a8ad71e5-662c-438b-af2c-6a7cf5113056","system_id":"levelo_inurba_marseille","lat":43.28079,"lon":5.39659,"is_reserved":false,"is_disabled":false,"rental_uris":{"android":"levelo://app?vid=a8ad71e5-662c-438b-af2c-6a7cf5113056","ios":"levelo://app?vid=a8ad71e5-662c-438b-af2c-6a7cf5113056"},"vehicle_type_id":"4","last_reported":1746299255,"current_range_meters":5600,"station_id":"ce4bho12rcd13ifvqh2g","pricing_plan_id":"cebpf4jnsgd1na2vs0mg"},{"bike_id":"b3aab662-4c06-42f4-8981-d5cefb65447a","system_id":"levelo_inurba_marseille","lat":43.28038,"lon":5.36942,"is_reserved":false,"is_disabled":false,"rental_uris":{"android":"levelo://app?vid=b3aab662-4c06-42f4-8981-d5cefb65447a","ios":"levelo://app?vid=b3aab662-4c06-42f4-8981-d5cefb65447a"},"vehicle_type_id":"4","last_reported":1746299255,"current_range_meters":5600,"station_id":"ce4bha12rcd13ifvqef0","pricing_plan_id":"cebpf4jnsgd1na2vs0mg"},{"bike_id":"abcfb4e5-1fcf-4de7-a8dc-c378d4ea00d0","system_id":"levelo_inurba_marseille","lat":43.29249,"lon":5.38441,"is_reserved":false,"is_disabled":false,"rental_uris":{"android":"levelo://app?vid=abcfb4e5-1fcf-4de7-a8dc-c378d4ea00d0","ios":"levelo://app?vid=abcfb4e5-1fcf-4de7-a8dc-c378d4ea00d0"},"vehicle_type_id":"4","last_reported":1746299255,"current_range_meters":5600,"station_id":"ce4bh692rcd13ifvqea0","pricing_plan_id":"cebpf4jnsgd1na2vs0mg"},{"bike_id":"db1f7f8d-56d4-4f1d-8287-db5921479c21","system_id":"levelo_inurba_marseille","lat":43.25495,"lon":5.37654,"is_reserved":false,"is_disabled":false,"rental_uris":{"android":"levelo://app?vid=db1f7f8d-56d4-4f1d-8287-db5921479c21","ios":"levelo://app?vid=db1f7f8d-56d4-4f1d-8287-db5921479c21"},"vehicle_type_id":"4","last_reported":1746299255,"current_range_meters":5600,"station_id":"ce4bhh12rcd13ifvqff0","pricing_plan_id":"cebpf4jnsgd1na2vs0mg"},{"bike_id":"94b91464-3f8d-4227-8944-50ade8db51ec","system_id":"levelo_inurba_marseille","lat":43.30537,"lon":5.36709,"is_reserved":false,"is_disabled":false,"rental_uris":{"android":"levelo://app?vid=94b91464-3f8d-4227-8944-50ade8db51ec","ios":"levelo://app?vid=94b91464-3f8d-4227-8944-50ade8db51ec"},"vehicle_type_id":"4","last_reported":1746299255,"current_range_meters":5600,"station_id":"ce4bgrp2rcd13ifvqc9g","pricing_plan_id":"cebpf4jnsgd1na2vs0mg"},{"bike_id":"dbae1b56-8aa7-4371-8a00-78b02da8ad5b","system_id":"levelo_inurba_marseille","lat":43.27813,"lon":5.40719,"is_reserved":false,"is_disabled":false,"rental_uris":{"android":"levelo://app?vid=dbae1b56-8aa7-4371-8a00-78b02da8ad5b","ios":"levelo://app?vid=dbae1b56-8aa7-4371-8a00-78b02da8ad5b"},"vehicle_type_id":"4","last_reported":1746299255,"current_range_meters":5600,"station_id":"ce4bhnh2rcd13ifvqgtg","pricing_plan_id":"cebpf4jnsgd1na2vs0mg"},{"bike_id":"72eeeb84-931e-4402-a8a8-22e5d8ec26cd","system_id":"levelo_inurba_marseille","lat":43.31475,"lon":5.3732,"is_reserved":false,"is_disabled":false,"rental_uris":{"android":"levelo://app?vid=72eeeb84-931e-4402-a8a8-22e5d8ec26cd","ios":"levelo://app?vid=72eeeb84-931e-4402-a8a8-22e5d8ec26cd"},"vehicle_type_id":"4","last_reported":1746299255,"current_range_meters":4800,"station_id":"ce4bgt12rcd13ifvqcd0","pricing_plan_id":"cebpf4jnsgd1na2vs0mg"},{"bike_id":"23119e4f-0e29-493e-a873-544057f83776","system_id":"levelo_inurba_marseille","lat":43.26809,"lon":5.40255,"is_reserved":false,"is_disabled":true,"rental_uris":{"android":"levelo://app?vid=23119e4f-0e29-493e-a873-544057f83776","ios":"levelo://app?vid=23119e4f-0e29-493e-a873-544057f83776"},"vehicle_type_id":"4","last_reported":1746299255,"current_range_meters":5600,"station_id":"ce501612rcd8frsf0b60","pricing_plan_id":"cebpf4jnsgd1na2vs0mg"},{"bike_id":"7fd054e3-c4bb-4d47-92e1-00aed6395a16","system_id":"levelo_inurba_marseille","lat":43.29306,"lon":5.37459,"is_reserved":false,"is_disabled":false,"rental_uris":{"android":"levelo://app?vid=7fd054e3-c4bb-4d47-92e1-00aed6395a16","ios":"levelo://app?vid=7fd054e3-c4bb-4d47-92e1-00aed6395a16"},"vehicle_type_id":"4","last_reported":1746299255,"current_range_meters":5600,"station_id":"ce4bgi12rcd13ifvqb70","pricing_plan_id":"cebpf4jnsgd1na2vs0mg"},{"bike_id":"23bad533-0c66-4eca-91f9-6d8fa547f311","system_id":"levelo_inurba_marseille","lat":43.29252,"lon":5.37621,"is_reserved":false,"is_disabled":false,"rental_uris":{"android":"levelo://app?vid=23bad533-0c66-4eca-91f9-6d8fa547f311","ios":"levelo://app?vid=23bad533-0c66-4eca-91f9-6d8fa547f311"},"vehicle_type_id":"4","last_reported":1746299255,"current_range_meters":5600,"station_id":"ce4bgi12rcd13ifvqb80","pricing_plan_id":"cebpf4jnsgd1na2vs0mg"},{"bike_id":"e94157e8-761b-4dcc-add9-d8ad66923769","system_id":"levelo_inurba_marseille","lat":43.243887,"lon":5.370674,"is_reserved":false,"is_disabled":false,"rental_uris":{"android":"levelo://app?vid=e94157e8-761b-4dcc-add9-d8ad66923769","ios":"levelo://app?vid=e94157e8-761b-4dcc-add9-d8ad66923769"},"vehicle_type_id":"4","last_reported":1746299255,"current_range_meters":5600,"station_id":"cpo3532slgdg3j2ikp40","pricing_plan_id":"cebpf4jnsgd1na2vs0mg"},{"bike_id":"8f2ec0bb-bd0b-4f42-8a04-3df3667b9dbe","system_id":"levelo_inurba_marseille","lat":43.272101,"lon":5.391784,"is_reserved":false,"is_disabled":false,"rental_uris":{"android":"levelo://app?vid=8f2ec0bb-bd0b-4f42-8a04-3df3667b9dbe","ios":"levelo://app?vid=8f2ec0bb-bd0b-4f42-8a04-3df3667b9dbe"},"vehicle_type_id":"4","last_reported":1746299255,"current_range_meters":6000,"station_id":"","pricing_plan_id":"cebpf4jnsgd1na2vs0mg"},{"bike_id":"d47219ea-21a5-4537-87ee-69e40f83d9ed","system_id":"levelo_inurba_marseille","lat":43.32315,"lon":5.38894,"is_reserved":false,"is_disabled":false,"rental_uris":{"android":"levelo://app?vid=d47219ea-21a5-4537-87ee-69e40f83d9ed","ios":"levelo://app?vid=d47219ea-21a5-4537-87ee-69e40f83d9ed"},"vehicle_type_id":"4","last_reported":1746299255,"current_range_meters":6000,"station_id":"","pricing_plan_id":"cebpf4jnsgd1na2vs0mg"},{"bike_id":"c2074749-6caa-4706-ba6e-6b44cf5810e9","system_id":"levelo_inurba_marseille","lat":43.29601,"lon":5.38096,"is_reserved":false,"is_disabled":false,"rental_uris":{"android":"levelo://app?vid=c2074749-6caa-4706-ba6e-6b44cf5810e9","ios":"levelo://app?vid=c2074749-6caa-4706-ba6e-6b44cf5810e9"},"vehicle_type_id":"4","last_reported":1746299255,"current_range_meters":6000,"station_id":"ce4bgl12rcd13ifvqbo0","pricing_plan_id":"cebpf4jnsgd1na2vs0mg"},{"bike_id":"6c79f859-1552-41c9-a2fe-8e99ade5205a","system_id":"levelo_inurba_marseille","lat":43.32039,"lon":5.41551,"is_reserved":false,"is_disabled":false,"rental_uris":{"android":"levelo://app?vid=6c79f859-1552-41c9-a2fe-8e99ade5205a","ios":"levelo://app?vid=6c79f859-1552-41c9-a2fe-8e99ade5205a"},"vehicle_type_id":"4","last_reported":1746299255,"current_range_meters":6000,"station_id":"ce4bhq92rcd13ifvqhkg","pricing_plan_id":"cebpf4jnsgd1na2vs0mg"},{"bike_id":"cc716e2b-4d5e-423d-8f92-4ba4277adc07","system_id":"levelo_inurba_marseille","lat":43.281175,"lon":5.378301,"is_reserved":false,"is_disabled":false,"rental_uris":{"android":"levelo://app?vid=cc716e2b-4d5e-423d-8f92-4ba4277adc07","ios":"levelo://app?vid=cc716e2b-4d5e-423d-8f92-4ba4277adc07"},"vehicle_type_id":"4","last_reported":1746299255,"current_range_meters":6400,"station_id":"ce4bha12rcd13ifvqee0","pricing_plan_id":"cebpf4jnsgd1na2vs0mg"},{"bike_id":"df9dae76-1641-4d3c-a728-36ed048b2740","system_id":"levelo_inurba_marseille","lat":43.29249,"lon":5.38445,"is_reserved":false,"is_disabled":true,"rental_uris":{"android":"levelo://app?vid=df9dae76-1641-4d3c-a728-36ed048b2740","ios":"levelo://app?vid=df9dae76-1641-4d3c-a728-36ed048b2740"},"vehicle_type_id":"4","last_reported":1746299255,"current_range_meters":6400,"station_id":"ce4bh692rcd13ifvqea0","pricing_plan_id":"cebpf4jnsgd1na2vs0mg"},{"bike_id":"e0bb3e81-3be4-4f35-ad80-b1838d0fa85e","system_id":"levelo_inurba_marseille","lat":43.241693,"lon":5.39738,"is_reserved":false,"is_disabled":false,"rental_uris":{"android":"levelo://app?vid=e0bb3e81-3be4-4f35-ad80-b1838d0fa85e","ios":"levelo://app?vid=e0bb3e81-3be4-4f35-ad80-b1838d0fa85e"},"vehicle_type_id":"4","last_reported":1746299255,"current_range_meters":6400,"station_id":"ce4bhn12rcd13ifvqgpg","pricing_plan_id":"cebpf4jnsgd1na2vs0mg"},{"bike_id":"af3e9b18-0377-4f95-bfff-e9aa6bbfed1a","system_id":"levelo_inurba_marseille","lat":43.29574,"lon":5.39959,"is_reserved":false,"is_disabled":false,"rental_uris":{"android":"levelo://app?vid=af3e9b18-0377-4f95-bfff-e9aa6bbfed1a","ios":"levelo://app?vid=af3e9b18-0377-4f95-bfff-e9aa6bbfed1a"},"vehicle_type_id":"4","last_reported":1746299255,"current_range_meters":6400,"station_id":"ce4bh312rcd13ifvqdj0","pricing_plan_id":"cebpf4jnsgd1na2vs0mg"},{"bike_id":"204887fa-5fce-42a2-be9a-99d79cc91fa9","system_id":"levelo_inurba_marseille","lat":43.28038,"lon":5.36947,"is_reserved":false,"is_disabled":false,"rental_uris":{"android":"levelo://app?vid=204887fa-5fce-42a2-be9a-99d79cc91fa9","ios":"levelo://app?vid=204887fa-5fce-42a2-be9a-99d79cc91fa9"},"vehicle_type_id":"4","last_reported":1746299255,"current_range_meters":6400,"station_id":"ce4bha12rcd13ifvqef0","pricing_plan_id":"cebpf4jnsgd1na2vs0mg"},{"bike_id":"a63323c1-854c-4282-a551-79574fa19a10","system_id":"levelo_inurba_marseille","lat":43.27494,"lon":5.42449,"is_reserved":false,"is_disabled":false,"rental_uris":{"android":"levelo://app?vid=a63323c1-854c-4282-a551-79574fa19a10","ios":"levelo://app?vid=a63323c1-854c-4282-a551-79574fa19a10"},"vehicle_type_id":"4","last_reported":1746299255,"current_range_meters":6800,"station_id":"ce4bhn92rcd13ifvqgrg","pricing_plan_id":"cebpf4jnsgd1na2vs0mg"},{"bike_id":"d11b7274-ad1d-4343-a0b8-143798db8be1","system_id":"levelo_inurba_marseille","lat":43.22923,"lon":5.35372,"is_reserved":false,"is_disabled":true,"rental_uris":{"android":"levelo://app?vid=d11b7274-ad1d-4343-a0b8-143798db8be1","ios":"levelo://app?vid=d11b7274-ad1d-4343-a0b8-143798db8be1"},"vehicle_type_id":"4","last_reported":1746299255,"current_range_meters":6800,"station_id":"cpo3532slgdg3j2ikp40","pricing_plan_id":"cebpf4jnsgd1na2vs0mg"},{"bike_id":"b9b02ac0-3486-45b2-bdfb-bfa67e931eef","system_id":"levelo_inurba_marseille","lat":43.27999,"lon":5.4002,"is_reserved":false,"is_disabled":false,"rental_uris":{"android":"levelo://app?vid=b9b02ac0-3486-45b2-bdfb-bfa67e931eef","ios":"levelo://app?vid=b9b02ac0-3486-45b2-bdfb-bfa67e931eef"},"vehicle_type_id":"4","last_reported":1746299255,"current_range_meters":6800,"station_id":"ce4bho92rcd13ifvqh4g","pricing_plan_id":"cebpf4jnsgd1na2vs0mg"},{"bike_id":"51900178-50f0-47b3-94f6-452e3ee783c8","system_id":"levelo_inurba_marseille","lat":43.29905,"lon":5.43685,"is_reserved":false,"is_disabled":false,"rental_uris":{"android":"levelo://app?vid=51900178-50f0-47b3-94f6-452e3ee783c8","ios":"levelo://app?vid=51900178-50f0-47b3-94f6-452e3ee783c8"},"vehicle_type_id":"4","last_reported":1746299255,"current_range_meters":6800,"station_id":"ce4bhpp2rcd13ifvqhfg","pricing_plan_id":"cebpf4jnsgd1na2vs0mg"},{"bike_id":"215e7328-f089-4406-84b8-d742bd07d56d","system_id":"levelo_inurba_marseille","lat":43.23962,"lon":5.36624,"is_reserved":false,"is_disabled":false,"rental_uris":{"android":"levelo://app?vid=215e7328-f089-4406-84b8-d742bd07d56d","ios":"levelo://app?vid=215e7328-f089-4406-84b8-d742bd07d56d"},"vehicle_type_id":"4","last_reported":1746299255,"current_range_meters":6800,"station_id":"ce4bhi12rcd13ifvqfp0","pricing_plan_id":"cebpf4jnsgd1na2vs0mg"},{"bike_id":"4341dfab-438e-4d1a-8a6a-87a65b8fed8c","system_id":"levelo_inurba_marseille","lat":43.29909,"lon":5.38117,"is_reserved":false,"is_disabled":true,"rental_uris":{"android":"levelo://app?vid=4341dfab-438e-4d1a-8a6a-87a65b8fed8c","ios":"levelo://app?vid=4341dfab-438e-4d1a-8a6a-87a65b8fed8c"},"vehicle_type_id":"4","last_reported":1746299255,"current_range_meters":6800,"station_id":"ce4bgj12rcd13ifvqbc0","pricing_plan_id":"cebpf4jnsgd1na2vs0mg"},{"bike_id":"a4d73c4b-569c-4f0a-aef3-7c1291fb4272","system_id":"levelo_inurba_marseille","lat":43.268,"lon":5.40266,"is_reserved":false,"is_disabled":false,"rental_uris":{"android":"levelo://app?vid=a4d73c4b-569c-4f0a-aef3-7c1291fb4272","ios":"levelo://app?vid=a4d73c4b-569c-4f0a-aef3-7c1291fb4272"},"vehicle_type_id":"4","last_reported":1746299255,"current_range_meters":6800,"station_id":"ce501612rcd8frsf0b60","pricing_plan_id":"cebpf4jnsgd1na2vs0mg"},{"bike_id":"558433e4-aa86-437f-8d2b-ce4227cc47f5","system_id":"levelo_inurba_marseille","lat":43.29303,"lon":5.37461,"is_reserved":false,"is_disabled":false,"rental_uris":{"android":"levelo://app?vid=558433e4-aa86-437f-8d2b-ce4227cc47f5","ios":"levelo://app?vid=558433e4-aa86-437f-8d2b-ce4227cc47f5"},"vehicle_type_id":"4","last_reported":1746299255,"current_range_meters":7200,"station_id":"ce4bgi12rcd13ifvqb70","pricing_plan_id":"cebpf4jnsgd1na2vs0mg"},{"bike_id":"be9042c4-716a-416e-af52-c92d47776467","system_id":"levelo_inurba_marseille","lat":43.30924,"lon":5.40143,"is_reserved":false,"is_disabled":true,"rental_uris":{"android":"levelo://app?vid=be9042c4-716a-416e-af52-c92d47776467","ios":"levelo://app?vid=be9042c4-716a-416e-af52-c92d47776467"},"vehicle_type_id":"4","last_reported":1746299255,"current_range_meters":7200,"station_id":"ce4bgvp2rcd13ifvqct0","pricing_plan_id":"cebpf4jnsgd1na2vs0mg"},{"bike_id":"719ac357-4fce-462c-ba17-c43e0d0bb33c","system_id":"levelo_inurba_marseille","lat":43.2962,"lon":5.377205,"is_reserved":false,"is_disabled":false,"rental_uris":{"android":"levelo://app?vid=719ac357-4fce-462c-ba17-c43e0d0bb33c","ios":"levelo://app?vid=719ac357-4fce-462c-ba17-c43e0d0bb33c"},"vehicle_type_id":"4","last_reported":1746299255,"current_range_meters":7200,"station_id":"ce4bgkh2rcd13ifvqbl0","pricing_plan_id":"cebpf4jnsgd1na2vs0mg"},{"bike_id":"721f19a3-6fc8-4aa3-b8d6-b74174066f05","system_id":"levelo_inurba_marseille","lat":43.31998,"lon":5.38159,"is_reserved":false,"is_disabled":false,"rental_uris":{"android":"levelo://app?vid=721f19a3-6fc8-4aa3-b8d6-b74174066f05","ios":"levelo://app?vid=721f19a3-6fc8-4aa3-b8d6-b74174066f05"},"vehicle_type_id":"4","last_reported":1746299255,"current_range_meters":7200,"station_id":"ce4bhr12rcd13ifvqhpg","pricing_plan_id":"cebpf4jnsgd1na2vs0mg"},{"bike_id":"b2be516e-2f32-4594-b4de-c3e58b68706d","system_id":"levelo_inurba_marseille","lat":43.29268,"lon":5.36843,"is_reserved":false,"is_disabled":true,"rental_uris":{"android":"levelo://app?vid=b2be516e-2f32-4594-b4de-c3e58b68706d","ios":"levelo://app?vid=b2be516e-2f32-4594-b4de-c3e58b68706d"},"vehicle_type_id":"4","last_reported":1746299255,"current_range_meters":7200,"station_id":"ce4bhbp2rcd13ifvqesg","pricing_plan_id":"cebpf4jnsgd1na2vs0mg"},{"bike_id":"7d4bec24-4615-4f43-a813-1d9f213f6f7d","system_id":"levelo_inurba_marseille","lat":43.293,"lon":5.37473,"is_reserved":false,"is_disabled":false,"rental_uris":{"android":"levelo://app?vid=7d4bec24-4615-4f43-a813-1d9f213f6f7d","ios":"levelo://app?vid=7d4bec24-4615-4f43-a813-1d9f213f6f7d"},"vehicle_type_id":"4","last_reported":1746299255,"current_range_meters":7200,"station_id":"ce4bgi12rcd13ifvqb70","pricing_plan_id":"cebpf4jnsgd1na2vs0mg"},{"bike_id":"92210e78-e127-4022-a749-c10e13a919ed","system_id":"levelo_inurba_marseille","lat":43.28706,"lon":5.39993,"is_reserved":false,"is_disabled":false,"rental_uris":{"android":"levelo://app?vid=92210e78-e127-4022-a749-c10e13a919ed","ios":"levelo://app?vid=92210e78-e127-4022-a749-c10e13a919ed"},"vehicle_type_id":"4","last_reported":1746299255,"current_range_meters":6800,"station_id":"ce4bho92rcd13ifvqh3g","pricing_plan_id":"cebpf4jnsgd1na2vs0mg"},{"bike_id":"717a1afa-516d-4cb4-813d-2d1223bbf443","system_id":"levelo_inurba_marseille","lat":43.3053,"lon":5.38414,"is_reserved":false,"is_disabled":false,"rental_uris":{"android":"levelo://app?vid=717a1afa-516d-4cb4-813d-2d1223bbf443","ios":"levelo://app?vid=717a1afa-516d-4cb4-813d-2d1223bbf443"},"vehicle_type_id":"4","last_reported":1746299255,"current_range_meters":6800,"station_id":"ce4bgg92rcd13ifvqb30","pricing_plan_id":"cebpf4jnsgd1na2vs0mg"},{"bike_id":"12feefd1-4655-4538-a6a2-9651d667ff69","system_id":"levelo_inurba_marseille","lat":43.30745,"lon":5.37385,"is_reserved":false,"is_disabled":false,"rental_uris":{"android":"levelo://app?vid=12feefd1-4655-4538-a6a2-9651d667ff69","ios":"levelo://app?vid=12feefd1-4655-4538-a6a2-9651d667ff69"},"vehicle_type_id":"4","last_reported":1746299255,"current_range_meters":7200,"station_id":"","pricing_plan_id":"cebpf4jnsgd1na2vs0mg"},{"bike_id":"f9dd4f17-929a-4e6f-9d53-59974caaec72","system_id":"levelo_inurba_marseille","lat":43.27325,"lon":5.39075,"is_reserved":false,"is_disabled":false,"rental_uris":{"android":"levelo://app?vid=f9dd4f17-929a-4e6f-9d53-59974caaec72","ios":"levelo://app?vid=f9dd4f17-929a-4e6f-9d53-59974caaec72"},"vehicle_type_id":"4","last_reported":1746299255,"current_range_meters":7200,"station_id":"ce4bhgp2rcd13ifvqfe0","pricing_plan_id":"cebpf4jnsgd1na2vs0mg"},{"bike_id":"e341752c-8655-4500-bdaa-1fbfa4780079","system_id":"levelo_inurba_marseille","lat":43.29097,"lon":5.37159,"is_reserved":false,"is_disabled":true,"rental_uris":{"android":"levelo://app?vid=e341752c-8655-4500-bdaa-1fbfa4780079","ios":"levelo://app?vid=e341752c-8655-4500-bdaa-1fbfa4780079"},"vehicle_type_id":"4","last_reported":1746299255,"current_range_meters":8000,"station_id":"ce4bh5p2rcd13ifvqe4g","pricing_plan_id":"cebpf4jnsgd1na2vs0mg"},{"bike_id":"1d833b2e-56a0-46f2-a9c3-803d385c31b6","system_id":"levelo_inurba_marseille","lat":43.2926,"lon":5.38439,"is_reserved":false,"is_disabled":false,"rental_uris":{"android":"levelo://app?vid=1d833b2e-56a0-46f2-a9c3-803d385c31b6","ios":"levelo://app?vid=1d833b2e-56a0-46f2-a9c3-803d385c31b6"},"vehicle_type_id":"4","last_reported":1746299255,"current_range_meters":8000,"station_id":"ce4bh692rcd13ifvqea0","pricing_plan_id":"cebpf4jnsgd1na2vs0mg"},{"bike_id":"5fa2f546-ad88-4f09-a3c5-94878725ba58","system_id":"levelo_inurba_marseille","lat":43.29311,"lon":5.37456,"is_reserved":false,"is_disabled":false,"rental_uris":{"android":"levelo://app?vid=5fa2f546-ad88-4f09-a3c5-94878725ba58","ios":"levelo://app?vid=5fa2f546-ad88-4f09-a3c5-94878725ba58"},"vehicle_type_id":"4","last_reported":1746299255,"current_range_meters":8000,"station_id":"ce4bgi12rcd13ifvqb70","pricing_plan_id":"cebpf4jnsgd1na2vs0mg"},{"bike_id":"96c7dd24-e2a1-4e23-af58-e05b6abedd76","system_id":"levelo_inurba_marseille","lat":43.26199,"lon":5.37453,"is_reserved":false,"is_disabled":false,"rental_uris":{"android":"levelo://app?vid=96c7dd24-e2a1-4e23-af58-e05b6abedd76","ios":"levelo://app?vid=96c7dd24-e2a1-4e23-af58-e05b6abedd76"},"vehicle_type_id":"4","last_reported":1746299255,"current_range_meters":8000,"station_id":"ce4bhgp2rcd13ifvqfc0","pricing_plan_id":"cebpf4jnsgd1na2vs0mg"},{"bike_id":"208c1a96-c46f-4193-b924-3bf7033ea14e","system_id":"levelo_inurba_marseille","lat":43.23201,"lon":5.35566,"is_reserved":false,"is_disabled":false,"rental_uris":{"android":"levelo://app?vid=208c1a96-c46f-4193-b924-3bf7033ea14e","ios":"levelo://app?vid=208c1a96-c46f-4193-b924-3bf7033ea14e"},"vehicle_type_id":"4","last_reported":1746299255,"current_range_meters":8000,"station_id":"ce4bhu92rcd13ifvqi70","pricing_plan_id":"cebpf4jnsgd1na2vs0mg"},{"bike_id":"ab28c8fd-54f3-4157-be7b-5cfbd799b7bd","system_id":"levelo_inurba_marseille","lat":43.29256,"lon":5.38437,"is_reserved":false,"is_disabled":false,"rental_uris":{"android":"levelo://app?vid=ab28c8fd-54f3-4157-be7b-5cfbd799b7bd","ios":"levelo://app?vid=ab28c8fd-54f3-4157-be7b-5cfbd799b7bd"},"vehicle_type_id":"4","last_reported":1746299255,"current_range_meters":8000,"station_id":"ce4bh692rcd13ifvqea0","pricing_plan_id":"cebpf4jnsgd1na2vs0mg"},{"bike_id":"0e8155a7-6285-45d2-8251-57aa101c2275","system_id":"levelo_inurba_marseille","lat":43.29532,"lon":5.38545,"is_reserved":false,"is_disabled":false,"rental_uris":{"android":"levelo://app?vid=0e8155a7-6285-45d2-8251-57aa101c2275","ios":"levelo://app?vid=0e8155a7-6285-45d2-8251-57aa101c2275"},"vehicle_type_id":"4","last_reported":1746299255,"current_range_meters":8000,"station_id":"ce4bgih2rcd13ifvqba0","pricing_plan_id":"cebpf4jnsgd1na2vs0mg"},{"bike_id":"1d63b939-5eb7-447f-8bed-ffc3267da1de","system_id":"levelo_inurba_marseille","lat":43.29313,"lon":5.37451,"is_reserved":false,"is_disabled":false,"rental_uris":{"android":"levelo://app?vid=1d63b939-5eb7-447f-8bed-ffc3267da1de","ios":"levelo://app?vid=1d63b939-5eb7-447f-8bed-ffc3267da1de"},"vehicle_type_id":"4","last_reported":1746299255,"current_range_meters":8000,"station_id":"ce4bgi12rcd13ifvqb70","pricing_plan_id":"cebpf4jnsgd1na2vs0mg"},{"bike_id":"eb198822-0bbc-403f-b5e6-6b63b0e51a43","system_id":"levelo_inurba_marseille","lat":43.29568,"lon":5.39958,"is_reserved":false,"is_disabled":false,"rental_uris":{"android":"levelo://app?vid=eb198822-0bbc-403f-b5e6-6b63b0e51a43","ios":"levelo://app?vid=eb198822-0bbc-403f-b5e6-6b63b0e51a43"},"vehicle_type_id":"4","last_reported":1746299255,"current_range_meters":8400,"station_id":"ce4bh312rcd13ifvqdj0","pricing_plan_id":"cebpf4jnsgd1na2vs0mg"},{"bike_id":"f4c5aafe-6ee3-4f74-be67-4cf5bca938e0","system_id":"levelo_inurba_marseille","lat":43.24183,"lon":5.39722,"is_reserved":false,"is_disabled":false,"rental_uris":{"android":"levelo://app?vid=f4c5aafe-6ee3-4f74-be67-4cf5bca938e0","ios":"levelo://app?vid=f4c5aafe-6ee3-4f74-be67-4cf5bca938e0"},"vehicle_type_id":"4","last_reported":1746299255,"current_range_meters":8000,"station_id":"ce4bhn12rcd13ifvqgpg","pricing_plan_id":"cebpf4jnsgd1na2vs0mg"},{"bike_id":"39d83911-e17e-4776-b8f2-6450602c8696","system_id":"levelo_inurba_marseille","lat":43.298937,"lon":5.436582,"is_reserved":false,"is_disabled":false,"rental_uris":{"android":"levelo://app?vid=39d83911-e17e-4776-b8f2-6450602c8696","ios":"levelo://app?vid=39d83911-e17e-4776-b8f2-6450602c8696"},"vehicle_type_id":"4","last_reported":1746299255,"current_range_meters":8400,"station_id":"ce4bhpp2rcd13ifvqhfg","pricing_plan_id":"cebpf4jnsgd1na2vs0mg"},{"bike_id":"e27ce41e-d31e-4411-a762-387f29d91877","system_id":"levelo_inurba_marseille","lat":43.295619,"lon":5.422909,"is_reserved":false,"is_disabled":false,"rental_uris":{"android":"levelo://app?vid=e27ce41e-d31e-4411-a762-387f29d91877","ios":"levelo://app?vid=e27ce41e-d31e-4411-a762-387f29d91877"},"vehicle_type_id":"4","last_reported":1746299255,"current_range_meters":8400,"station_id":"ce4bhph2rcd13ifvqhdg","pricing_plan_id":"cebpf4jnsgd1na2vs0mg"},{"bike_id":"ce7c0d82-f1ca-45b3-9ce9-471fbb0b2f0b","system_id":"levelo_inurba_marseille","lat":43.24388,"lon":5.3706,"is_reserved":false,"is_disabled":false,"rental_uris":{"android":"levelo://app?vid=ce7c0d82-f1ca-45b3-9ce9-471fbb0b2f0b","ios":"levelo://app?vid=ce7c0d82-f1ca-45b3-9ce9-471fbb0b2f0b"},"vehicle_type_id":"4","last_reported":1746299255,"current_range_meters":8400,"station_id":"ce4bhhh2rcd13ifvqfk0","pricing_plan_id":"cebpf4jnsgd1na2vs0mg"},{"bike_id":"4f0f7c59-7fd3-4546-928e-b61dae61c598","system_id":"levelo_inurba_marseille","lat":43.29556,"lon":5.37517,"is_reserved":false,"is_disabled":false,"rental_uris":{"android":"levelo://app?vid=4f0f7c59-7fd3-4546-928e-b61dae61c598","ios":"levelo://app?vid=4f0f7c59-7fd3-4546-928e-b61dae61c598"},"vehicle_type_id":"4","last_reported":1746299255,"current_range_meters":6800,"station_id":"ce4bgh92rcd13ifvqb50","pricing_plan_id":"cebpf4jnsgd1na2vs0mg"},{"bike_id":"570b486c-50df-4f1f-97df-caa86c0d419e","system_id":"levelo_inurba_marseille","lat":43.33714,"lon":5.35554,"is_reserved":false,"is_disabled":false,"rental_uris":{"android":"levelo://app?vid=570b486c-50df-4f1f-97df-caa86c0d419e","ios":"levelo://app?vid=570b486c-50df-4f1f-97df-caa86c0d419e"},"vehicle_type_id":"4","last_reported":1746299255,"current_range_meters":8400,"station_id":"","pricing_plan_id":"cebpf4jnsgd1na2vs0mg"},{"bike_id":"5c280b9f-54e4-4737-921e-8e208abb4ab5","system_id":"levelo_inurba_marseille","lat":43.25505,"lon":5.37652,"is_reserved":false,"is_disabled":false,"rental_uris":{"android":"levelo://app?vid=5c280b9f-54e4-4737-921e-8e208abb4ab5","ios":"levelo://app?vid=5c280b9f-54e4-4737-921e-8e208abb4ab5"},"vehicle_type_id":"4","last_reported":1746299255,"current_range_meters":8400,"station_id":"ce4bhh12rcd13ifvqff0","pricing_plan_id":"cebpf4jnsgd1na2vs0mg"},{"bike_id":"3ecab31c-4019-4c9e-b05e-87cd4f5f118c","system_id":"levelo_inurba_marseille","lat":43.31008,"lon":5.38382,"is_reserved":false,"is_disabled":false,"rental_uris":{"android":"levelo://app?vid=3ecab31c-4019-4c9e-b05e-87cd4f5f118c","ios":"levelo://app?vid=3ecab31c-4019-4c9e-b05e-87cd4f5f118c"},"vehicle_type_id":"4","last_reported":1746299255,"current_range_meters":8400,"station_id":"","pricing_plan_id":"cebpf4jnsgd1na2vs0mg"},{"bike_id":"7cdb3663-250c-4bcb-be23-d240b9435b81","system_id":"levelo_inurba_marseille","lat":43.24807,"lon":5.37453,"is_reserved":false,"is_disabled":false,"rental_uris":{"android":"levelo://app?vid=7cdb3663-250c-4bcb-be23-d240b9435b81","ios":"levelo://app?vid=7cdb3663-250c-4bcb-be23-d240b9435b81"},"vehicle_type_id":"4","last_reported":1746299255,"current_range_meters":8400,"station_id":"ce4bhgh2rcd13ifvqfb0","pricing_plan_id":"cebpf4jnsgd1na2vs0mg"},{"bike_id":"59c05668-9a78-4683-b670-a7794c85b3b0","system_id":"levelo_inurba_marseille","lat":43.29372,"lon":5.37863,"is_reserved":false,"is_disabled":true,"rental_uris":{"android":"levelo://app?vid=59c05668-9a78-4683-b670-a7794c85b3b0","ios":"levelo://app?vid=59c05668-9a78-4683-b670-a7794c85b3b0"},"vehicle_type_id":"4","last_reported":1746299255,"current_range_meters":8800,"station_id":"ce4bgjh2rcd13ifvqbf0","pricing_plan_id":"cebpf4jnsgd1na2vs0mg"},{"bike_id":"e3bb8c53-9778-422e-96ea-7d06d72dda63","system_id":"levelo_inurba_marseille","lat":43.28187,"lon":5.40379,"is_reserved":false,"is_disabled":false,"rental_uris":{"android":"levelo://app?vid=e3bb8c53-9778-422e-96ea-7d06d72dda63","ios":"levelo://app?vid=e3bb8c53-9778-422e-96ea-7d06d72dda63"},"vehicle_type_id":"4","last_reported":1746299255,"current_range_meters":8800,"station_id":"","pricing_plan_id":"cebpf4jnsgd1na2vs0mg"},{"bike_id":"de434821-ef85-47fb-ad57-624ea702eac2","system_id":"levelo_inurba_marseille","lat":43.34137,"lon":5.40898,"is_reserved":false,"is_disabled":false,"rental_uris":{"android":"levelo://app?vid=de434821-ef85-47fb-ad57-624ea702eac2","ios":"levelo://app?vid=de434821-ef85-47fb-ad57-624ea702eac2"},"vehicle_type_id":"4","last_reported":1746299255,"current_range_meters":8400,"station_id":"ce4bhqh2rcd13ifvqhlg","pricing_plan_id":"cebpf4jnsgd1na2vs0mg"},{"bike_id":"a6f9ab22-4d42-4460-a49b-1d97b2df2659","system_id":"levelo_inurba_marseille","lat":43.284064,"lon":5.375304,"is_reserved":false,"is_disabled":false,"rental_uris":{"android":"levelo://app?vid=a6f9ab22-4d42-4460-a49b-1d97b2df2659","ios":"levelo://app?vid=a6f9ab22-4d42-4460-a49b-1d97b2df2659"},"vehicle_type_id":"4","last_reported":1746299255,"current_range_meters":8800,"station_id":"ce4bh412rcd13ifvqds0","pricing_plan_id":"cebpf4jnsgd1na2vs0mg"},{"bike_id":"dfb3396e-96f5-457c-af11-f6f27dad33e9","system_id":"levelo_inurba_marseille","lat":43.271998,"lon":5.364824,"is_reserved":false,"is_disabled":false,"rental_uris":{"android":"levelo://app?vid=dfb3396e-96f5-457c-af11-f6f27dad33e9","ios":"levelo://app?vid=dfb3396e-96f5-457c-af11-f6f27dad33e9"},"vehicle_type_id":"4","last_reported":1746299255,"current_range_meters":9200,"station_id":"","pricing_plan_id":"cebpf4jnsgd1na2vs0mg"},{"bike_id":"ef69e7cc-37df-4e66-bd4f-a85ef9d1ea7e","system_id":"levelo_inurba_marseille","lat":43.274931,"lon":5.424546,"is_reserved":false,"is_disabled":false,"rental_uris":{"android":"levelo://app?vid=ef69e7cc-37df-4e66-bd4f-a85ef9d1ea7e","ios":"levelo://app?vid=ef69e7cc-37df-4e66-bd4f-a85ef9d1ea7e"},"vehicle_type_id":"4","last_reported":1746299255,"current_range_meters":9200,"station_id":"ce4bhn92rcd13ifvqgrg","pricing_plan_id":"cebpf4jnsgd1na2vs0mg"},{"bike_id":"b435c071-ccb0-4ec0-af33-664795e52890","system_id":"levelo_inurba_marseille","lat":43.26956,"lon":5.38629,"is_reserved":false,"is_disabled":false,"rental_uris":{"android":"levelo://app?vid=b435c071-ccb0-4ec0-af33-664795e52890","ios":"levelo://app?vid=b435c071-ccb0-4ec0-af33-664795e52890"},"vehicle_type_id":"4","last_reported":1746299255,"current_range_meters":9200,"station_id":"ce4bhh92rcd13ifvqfh0","pricing_plan_id":"cebpf4jnsgd1na2vs0mg"},{"bike_id":"941fccf3-113e-4f2f-ba75-d69f85822125","system_id":"levelo_inurba_marseille","lat":43.3169,"lon":5.40471,"is_reserved":false,"is_disabled":false,"rental_uris":{"android":"levelo://app?vid=941fccf3-113e-4f2f-ba75-d69f85822125","ios":"levelo://app?vid=941fccf3-113e-4f2f-ba75-d69f85822125"},"vehicle_type_id":"4","last_reported":1746299255,"current_range_meters":9200,"station_id":"ce4bh012rcd13ifvqd00","pricing_plan_id":"cebpf4jnsgd1na2vs0mg"},{"bike_id":"a9b758e0-e52e-4865-b74c-53b252768e90","system_id":"levelo_inurba_marseille","lat":43.29263,"lon":5.3842,"is_reserved":false,"is_disabled":false,"rental_uris":{"android":"levelo://app?vid=a9b758e0-e52e-4865-b74c-53b252768e90","ios":"levelo://app?vid=a9b758e0-e52e-4865-b74c-53b252768e90"},"vehicle_type_id":"4","last_reported":1746299255,"current_range_meters":9200,"station_id":"ce4bh692rcd13ifvqea0","pricing_plan_id":"cebpf4jnsgd1na2vs0mg"},{"bike_id":"42aa5df6-7b6e-4ece-a165-d3a51389cf8a","system_id":"levelo_inurba_marseille","lat":43.28086,"lon":5.39682,"is_reserved":false,"is_disabled":false,"rental_uris":{"android":"levelo://app?vid=42aa5df6-7b6e-4ece-a165-d3a51389cf8a","ios":"levelo://app?vid=42aa5df6-7b6e-4ece-a165-d3a51389cf8a"},"vehicle_type_id":"4","last_reported":1746299255,"current_range_meters":9200,"station_id":"ce4bho12rcd13ifvqh2g","pricing_plan_id":"cebpf4jnsgd1na2vs0mg"},{"bike_id":"0dae582a-f22a-4b9a-aef7-b7b088a4dd02","system_id":"levelo_inurba_marseille","lat":43.31066,"lon":5.3836,"is_reserved":false,"is_disabled":false,"rental_uris":{"android":"levelo://app?vid=0dae582a-f22a-4b9a-aef7-b7b088a4dd02","ios":"levelo://app?vid=0dae582a-f22a-4b9a-aef7-b7b088a4dd02"},"vehicle_type_id":"4","last_reported":1746299255,"current_range_meters":9200,"station_id":"ce4bgv92rcd13ifvqcr0","pricing_plan_id":"cebpf4jnsgd1na2vs0mg"},{"bike_id":"39f1657d-ee79-4979-b2c8-2633f413151b","system_id":"levelo_inurba_marseille","lat":43.284449,"lon":5.391995,"is_reserved":false,"is_disabled":false,"rental_uris":{"android":"levelo://app?vid=39f1657d-ee79-4979-b2c8-2633f413151b","ios":"levelo://app?vid=39f1657d-ee79-4979-b2c8-2633f413151b"},"vehicle_type_id":"4","last_reported":1746299255,"current_range_meters":9200,"station_id":"ce4bhoh2rcd13ifvqh5g","pricing_plan_id":"cebpf4jnsgd1na2vs0mg"},{"bike_id":"19c55d34-2c7d-4206-b5df-dc0993d12b67","system_id":"levelo_inurba_marseille","lat":43.27498,"lon":5.42447,"is_reserved":false,"is_disabled":false,"rental_uris":{"android":"levelo://app?vid=19c55d34-2c7d-4206-b5df-dc0993d12b67","ios":"levelo://app?vid=19c55d34-2c7d-4206-b5df-dc0993d12b67"},"vehicle_type_id":"4","last_reported":1746299255,"current_range_meters":8800,"station_id":"ce4bhn92rcd13ifvqgrg","pricing_plan_id":"cebpf4jnsgd1na2vs0mg"},{"bike_id":"cd1c4d6f-db74-43f7-8ca6-17aa7f0eaf82","system_id":"levelo_inurba_marseille","lat":43.29528,"lon":5.38543,"is_reserved":false,"is_disabled":false,"rental_uris":{"android":"levelo://app?vid=cd1c4d6f-db74-43f7-8ca6-17aa7f0eaf82","ios":"levelo://app?vid=cd1c4d6f-db74-43f7-8ca6-17aa7f0eaf82"},"vehicle_type_id":"4","last_reported":1746299255,"current_range_meters":9200,"station_id":"ce4bgih2rcd13ifvqba0","pricing_plan_id":"cebpf4jnsgd1na2vs0mg"},{"bike_id":"11c81327-2a1b-49bd-8f21-2c1d785070ec","system_id":"levelo_inurba_marseille","lat":43.30432,"lon":5.38891,"is_reserved":false,"is_disabled":false,"rental_uris":{"android":"levelo://app?vid=11c81327-2a1b-49bd-8f21-2c1d785070ec","ios":"levelo://app?vid=11c81327-2a1b-49bd-8f21-2c1d785070ec"},"vehicle_type_id":"4","last_reported":1746299255,"current_range_meters":9600,"station_id":"ce4bgk12rcd13ifvqbi0","pricing_plan_id":"cebpf4jnsgd1na2vs0mg"},{"bike_id":"3a6c1c4a-dd80-4e9d-9632-aaca59f6d0aa","system_id":"levelo_inurba_marseille","lat":43.32369,"lon":5.38882,"is_reserved":false,"is_disabled":false,"rental_uris":{"android":"levelo://app?vid=3a6c1c4a-dd80-4e9d-9632-aaca59f6d0aa","ios":"levelo://app?vid=3a6c1c4a-dd80-4e9d-9632-aaca59f6d0aa"},"vehicle_type_id":"4","last_reported":1746299255,"current_range_meters":9600,"station_id":"ce4bhqp2rcd13ifvqhog","pricing_plan_id":"cebpf4jnsgd1na2vs0mg"},{"bike_id":"f5fa6b55-dc56-438d-bede-05195b321fd5","system_id":"levelo_inurba_marseille","lat":43.29578,"lon":5.37511,"is_reserved":false,"is_disabled":true,"rental_uris":{"android":"levelo://app?vid=f5fa6b55-dc56-438d-bede-05195b321fd5","ios":"levelo://app?vid=f5fa6b55-dc56-438d-bede-05195b321fd5"},"vehicle_type_id":"4","last_reported":1746299255,"current_range_meters":9600,"station_id":"ce4bgh92rcd13ifvqb50","pricing_plan_id":"cebpf4jnsgd1na2vs0mg"},{"bike_id":"c9667bec-b4e1-4aba-85da-6ad1e46c0b9d","system_id":"levelo_inurba_marseille","lat":43.27069,"lon":5.42276,"is_reserved":false,"is_disabled":false,"rental_uris":{"android":"levelo://app?vid=c9667bec-b4e1-4aba-85da-6ad1e46c0b9d","ios":"levelo://app?vid=c9667bec-b4e1-4aba-85da-6ad1e46c0b9d"},"vehicle_type_id":"4","last_reported":1746299255,"current_range_meters":9600,"station_id":"ce4bhk92rcd13ifvqgb0","pricing_plan_id":"cebpf4jnsgd1na2vs0mg"},{"bike_id":"f1ffd2b9-91e9-4bf5-a319-6e95940b0de6","system_id":"levelo_inurba_marseille","lat":43.29586,"lon":5.42263,"is_reserved":false,"is_disabled":false,"rental_uris":{"android":"levelo://app?vid=f1ffd2b9-91e9-4bf5-a319-6e95940b0de6","ios":"levelo://app?vid=f1ffd2b9-91e9-4bf5-a319-6e95940b0de6"},"vehicle_type_id":"4","last_reported":1746299255,"current_range_meters":9600,"station_id":"ce4bhph2rcd13ifvqhdg","pricing_plan_id":"cebpf4jnsgd1na2vs0mg"},{"bike_id":"9fc6b764-2c4b-496e-9a40-341a3f8f6396","system_id":"levelo_inurba_marseille","lat":43.2804,"lon":5.36943,"is_reserved":false,"is_disabled":false,"rental_uris":{"android":"levelo://app?vid=9fc6b764-2c4b-496e-9a40-341a3f8f6396","ios":"levelo://app?vid=9fc6b764-2c4b-496e-9a40-341a3f8f6396"},"vehicle_type_id":"4","last_reported":1746299255,"current_range_meters":9600,"station_id":"ce4bha12rcd13ifvqef0","pricing_plan_id":"cebpf4jnsgd1na2vs0mg"},{"bike_id":"7473fe08-9476-48c9-ac00-dceadea7c99c","system_id":"levelo_inurba_marseille","lat":43.29293,"lon":5.36813,"is_reserved":false,"is_disabled":false,"rental_uris":{"android":"levelo://app?vid=7473fe08-9476-48c9-ac00-dceadea7c99c","ios":"levelo://app?vid=7473fe08-9476-48c9-ac00-dceadea7c99c"},"vehicle_type_id":"4","last_reported":1746299255,"current_range_meters":9600,"station_id":"ce4bhbp2rcd13ifvqesg","pricing_plan_id":"cebpf4jnsgd1na2vs0mg"},{"bike_id":"6fa441d2-8cd0-49bf-9737-1b65025ba91f","system_id":"levelo_inurba_marseille","lat":43.276162,"lon":5.361062,"is_reserved":false,"is_disabled":false,"rental_uris":{"android":"levelo://app?vid=6fa441d2-8cd0-49bf-9737-1b65025ba91f","ios":"levelo://app?vid=6fa441d2-8cd0-49bf-9737-1b65025ba91f"},"vehicle_type_id":"4","last_reported":1746299255,"current_range_meters":9200,"station_id":"ce4bgj92rcd13ifvqbe0","pricing_plan_id":"cebpf4jnsgd1na2vs0mg"},{"bike_id":"c6063f25-88c2-4ee8-8b47-7eeebc20b14f","system_id":"levelo_inurba_marseille","lat":43.24802,"lon":5.37452,"is_reserved":false,"is_disabled":false,"rental_uris":{"android":"levelo://app?vid=c6063f25-88c2-4ee8-8b47-7eeebc20b14f","ios":"levelo://app?vid=c6063f25-88c2-4ee8-8b47-7eeebc20b14f"},"vehicle_type_id":"4","last_reported":1746299255,"current_range_meters":9600,"station_id":"ce4bhgh2rcd13ifvqfb0","pricing_plan_id":"cebpf4jnsgd1na2vs0mg"},{"bike_id":"8df6e310-0880-40a9-a691-cd475dfa3928","system_id":"levelo_inurba_marseille","lat":43.28593,"lon":5.44245,"is_reserved":false,"is_disabled":false,"rental_uris":{"android":"levelo://app?vid=8df6e310-0880-40a9-a691-cd475dfa3928","ios":"levelo://app?vid=8df6e310-0880-40a9-a691-cd475dfa3928"},"vehicle_type_id":"4","last_reported":1746299255,"current_range_meters":9600,"station_id":"","pricing_plan_id":"cebpf4jnsgd1na2vs0mg"},{"bike_id":"f11235d3-6cf8-4f31-a103-d1574bf24e96","system_id":"levelo_inurba_marseille","lat":43.26551,"lon":5.37285,"is_reserved":false,"is_disabled":false,"rental_uris":{"android":"levelo://app?vid=f11235d3-6cf8-4f31-a103-d1574bf24e96","ios":"levelo://app?vid=f11235d3-6cf8-4f31-a103-d1574bf24e96"},"vehicle_type_id":"4","last_reported":1746299255,"current_range_meters":10000,"station_id":"ce4bhg12rcd13ifvqf70","pricing_plan_id":"cebpf4jnsgd1na2vs0mg"},{"bike_id":"e5f6288c-2681-4dee-8d2f-926961f692f9","system_id":"levelo_inurba_marseille","lat":43.32377,"lon":5.38354,"is_reserved":false,"is_disabled":false,"rental_uris":{"android":"levelo://app?vid=e5f6288c-2681-4dee-8d2f-926961f692f9","ios":"levelo://app?vid=e5f6288c-2681-4dee-8d2f-926961f692f9"},"vehicle_type_id":"4","last_reported":1746299255,"current_range_meters":10000,"station_id":"","pricing_plan_id":"cebpf4jnsgd1na2vs0mg"},{"bike_id":"2f2e2422-0ca9-4635-8561-f770e540dc91","system_id":"levelo_inurba_marseille","lat":43.29198,"lon":5.39354,"is_reserved":false,"is_disabled":false,"rental_uris":{"android":"levelo://app?vid=2f2e2422-0ca9-4635-8561-f770e540dc91","ios":"levelo://app?vid=2f2e2422-0ca9-4635-8561-f770e540dc91"},"vehicle_type_id":"4","last_reported":1746299255,"current_range_meters":10000,"station_id":"","pricing_plan_id":"cebpf4jnsgd1na2vs0mg"},{"bike_id":"ed18508f-1431-4895-9241-da34b0a7ca80","system_id":"levelo_inurba_marseille","lat":43.31363,"lon":5.38496,"is_reserved":false,"is_disabled":false,"rental_uris":{"android":"levelo://app?vid=ed18508f-1431-4895-9241-da34b0a7ca80","ios":"levelo://app?vid=ed18508f-1431-4895-9241-da34b0a7ca80"},"vehicle_type_id":"4","last_reported":1746299255,"current_range_meters":9600,"station_id":"ce4bgt92rcd13ifvqcf0","pricing_plan_id":"cebpf4jnsgd1na2vs0mg"},{"bike_id":"6ae9068b-8534-47e2-832a-cb0e5255371d","system_id":"levelo_inurba_marseille","lat":43.337444,"lon":5.374475,"is_reserved":false,"is_disabled":false,"rental_uris":{"android":"levelo://app?vid=6ae9068b-8534-47e2-832a-cb0e5255371d","ios":"levelo://app?vid=6ae9068b-8534-47e2-832a-cb0e5255371d"},"vehicle_type_id":"4","last_reported":1746299255,"current_range_meters":10800,"station_id":"ce4bgvp2rcd13ifvqct0","pricing_plan_id":"cebpf4jnsgd1na2vs0mg"},{"bike_id":"56d143e4-936e-44ab-9f31-f96271ad1364","system_id":"levelo_inurba_marseille","lat":43.25495,"lon":5.37648,"is_reserved":false,"is_disabled":false,"rental_uris":{"android":"levelo://app?vid=56d143e4-936e-44ab-9f31-f96271ad1364","ios":"levelo://app?vid=56d143e4-936e-44ab-9f31-f96271ad1364"},"vehicle_type_id":"4","last_reported":1746299255,"current_range_meters":10800,"station_id":"ce4bhh12rcd13ifvqff0","pricing_plan_id":"cebpf4jnsgd1na2vs0mg"},{"bike_id":"afe26da8-c150-4841-946f-711e82647dd0","system_id":"levelo_inurba_marseille","lat":43.29259,"lon":5.38439,"is_reserved":false,"is_disabled":false,"rental_uris":{"android":"levelo://app?vid=afe26da8-c150-4841-946f-711e82647dd0","ios":"levelo://app?vid=afe26da8-c150-4841-946f-711e82647dd0"},"vehicle_type_id":"4","last_reported":1746299255,"current_range_meters":10800,"station_id":"ce4bh692rcd13ifvqea0","pricing_plan_id":"cebpf4jnsgd1na2vs0mg"},{"bike_id":"b51632d9-bf4f-4ab1-8df3-44ebc3745eac","system_id":"levelo_inurba_marseille","lat":43.28399,"lon":5.3754,"is_reserved":false,"is_disabled":false,"rental_uris":{"android":"levelo://app?vid=b51632d9-bf4f-4ab1-8df3-44ebc3745eac","ios":"levelo://app?vid=b51632d9-bf4f-4ab1-8df3-44ebc3745eac"},"vehicle_type_id":"4","last_reported":1746299255,"current_range_meters":11200,"station_id":"ce4bh412rcd13ifvqds0","pricing_plan_id":"cebpf4jnsgd1na2vs0mg"},{"bike_id":"fb582505-15b6-40c6-97cc-2feebea7d568","system_id":"levelo_inurba_marseille","lat":43.3042,"lon":5.39744,"is_reserved":false,"is_disabled":true,"rental_uris":{"android":"levelo://app?vid=fb582505-15b6-40c6-97cc-2feebea7d568","ios":"levelo://app?vid=fb582505-15b6-40c6-97cc-2feebea7d568"},"vehicle_type_id":"4","last_reported":1746299255,"current_range_meters":8800,"station_id":"ce4bh092rcd13ifvqd20","pricing_plan_id":"cebpf4jnsgd1na2vs0mg"},{"bike_id":"86b26b56-3573-42a8-ae99-1ff808ff1f63","system_id":"levelo_inurba_marseille","lat":43.29696,"lon":5.37376,"is_reserved":false,"is_disabled":false,"rental_uris":{"android":"levelo://app?vid=86b26b56-3573-42a8-ae99-1ff808ff1f63","ios":"levelo://app?vid=86b26b56-3573-42a8-ae99-1ff808ff1f63"},"vehicle_type_id":"4","last_reported":1746299255,"current_range_meters":11200,"station_id":"","pricing_plan_id":"cebpf4jnsgd1na2vs0mg"},{"bike_id":"75fa9943-cbe0-4940-a9be-f80f8dede2da","system_id":"levelo_inurba_marseille","lat":43.22504,"lon":5.34764,"is_reserved":false,"is_disabled":false,"rental_uris":{"android":"levelo://app?vid=75fa9943-cbe0-4940-a9be-f80f8dede2da","ios":"levelo://app?vid=75fa9943-cbe0-4940-a9be-f80f8dede2da"},"vehicle_type_id":"4","last_reported":1746299255,"current_range_meters":11200,"station_id":"st_cvj5dfep6f1abm77gieg","pricing_plan_id":"cebpf4jnsgd1na2vs0mg"},{"bike_id":"c19bbb82-f077-4c3a-bc06-e2dd94c94274","system_id":"levelo_inurba_marseille","lat":43.29096,"lon":5.38131,"is_reserved":false,"is_disabled":false,"rental_uris":{"android":"levelo://app?vid=c19bbb82-f077-4c3a-bc06-e2dd94c94274","ios":"levelo://app?vid=c19bbb82-f077-4c3a-bc06-e2dd94c94274"},"vehicle_type_id":"4","last_reported":1746299255,"current_range_meters":11200,"station_id":"ce4bh512rcd13ifvqe2g","pricing_plan_id":"cebpf4jnsgd1na2vs0mg"},{"bike_id":"482f00aa-c3ee-446b-8f24-a1d4dffa2e19","system_id":"levelo_inurba_marseille","lat":43.298597,"lon":5.376673,"is_reserved":false,"is_disabled":false,"rental_uris":{"android":"levelo://app?vid=482f00aa-c3ee-446b-8f24-a1d4dffa2e19","ios":"levelo://app?vid=482f00aa-c3ee-446b-8f24-a1d4dffa2e19"},"vehicle_type_id":"4","last_reported":1746299255,"current_range_meters":11200,"station_id":"","pricing_plan_id":"cebpf4jnsgd1na2vs0mg"},{"bike_id":"fd2c3c67-23a6-4380-b7ca-8f23c8f78921","system_id":"levelo_inurba_marseille","lat":43.32369,"lon":5.36744,"is_reserved":false,"is_disabled":false,"rental_uris":{"android":"levelo://app?vid=fd2c3c67-23a6-4380-b7ca-8f23c8f78921","ios":"levelo://app?vid=fd2c3c67-23a6-4380-b7ca-8f23c8f78921"},"vehicle_type_id":"4","last_reported":1746299255,"current_range_meters":11200,"station_id":"ce4bhsh2rcd13ifvqi2g","pricing_plan_id":"cebpf4jnsgd1na2vs0mg"},{"bike_id":"098c4975-69ef-413e-b5c3-c60a97f84fe2","system_id":"levelo_inurba_marseille","lat":43.31073,"lon":5.38366,"is_reserved":false,"is_disabled":false,"rental_uris":{"android":"levelo://app?vid=098c4975-69ef-413e-b5c3-c60a97f84fe2","ios":"levelo://app?vid=098c4975-69ef-413e-b5c3-c60a97f84fe2"},"vehicle_type_id":"4","last_reported":1746299255,"current_range_meters":11600,"station_id":"ce4bgv92rcd13ifvqcr0","pricing_plan_id":"cebpf4jnsgd1na2vs0mg"},{"bike_id":"5470dee7-ba67-42b5-8f63-8972736d782f","system_id":"levelo_inurba_marseille","lat":43.29023,"lon":5.38132,"is_reserved":false,"is_disabled":false,"rental_uris":{"android":"levelo://app?vid=5470dee7-ba67-42b5-8f63-8972736d782f","ios":"levelo://app?vid=5470dee7-ba67-42b5-8f63-8972736d782f"},"vehicle_type_id":"4","last_reported":1746299255,"current_range_meters":11600,"station_id":"ce4bh4p2rcd13ifvqe1g","pricing_plan_id":"cebpf4jnsgd1na2vs0mg"},{"bike_id":"d11ad4ed-5483-4abb-b8ae-c4e0f73880b4","system_id":"levelo_inurba_marseille","lat":43.317282,"lon":5.43704,"is_reserved":false,"is_disabled":false,"rental_uris":{"android":"levelo://app?vid=d11ad4ed-5483-4abb-b8ae-c4e0f73880b4","ios":"levelo://app?vid=d11ad4ed-5483-4abb-b8ae-c4e0f73880b4"},"vehicle_type_id":"4","last_reported":1746299255,"current_range_meters":11600,"station_id":"ce4bhp92rcd13ifvqhcg","pricing_plan_id":"cebpf4jnsgd1na2vs0mg"},{"bike_id":"416bb275-8941-42c4-9bee-cd65497425f7","system_id":"levelo_inurba_marseille","lat":43.28657,"lon":5.36354,"is_reserved":false,"is_disabled":false,"rental_uris":{"android":"levelo://app?vid=416bb275-8941-42c4-9bee-cd65497425f7","ios":"levelo://app?vid=416bb275-8941-42c4-9bee-cd65497425f7"},"vehicle_type_id":"4","last_reported":1746299255,"current_range_meters":11200,"station_id":"ce4bhah2rcd13ifvqej0","pricing_plan_id":"cebpf4jnsgd1na2vs0mg"},{"bike_id":"b02e6f71-a11d-4df4-9cb9-6a213218c007","system_id":"levelo_inurba_marseille","lat":43.32489,"lon":5.36564,"is_reserved":false,"is_disabled":false,"rental_uris":{"android":"levelo://app?vid=b02e6f71-a11d-4df4-9cb9-6a213218c007","ios":"levelo://app?vid=b02e6f71-a11d-4df4-9cb9-6a213218c007"},"vehicle_type_id":"4","last_reported":1746299255,"current_range_meters":11600,"station_id":"ce4bhs12rcd13ifvqhvg","pricing_plan_id":"cebpf4jnsgd1na2vs0mg"},{"bike_id":"370dc292-4808-412f-b181-097fd740feab","system_id":"levelo_inurba_marseille","lat":43.288439,"lon":5.393259,"is_reserved":false,"is_disabled":false,"rental_uris":{"android":"levelo://app?vid=370dc292-4808-412f-b181-097fd740feab","ios":"levelo://app?vid=370dc292-4808-412f-b181-097fd740feab"},"vehicle_type_id":"4","last_reported":1746299255,"current_range_meters":12000,"station_id":"","pricing_plan_id":"cebpf4jnsgd1na2vs0mg"},{"bike_id":"a37779e7-3d8a-4c82-9997-3090313b05d7","system_id":"levelo_inurba_marseille","lat":43.22896,"lon":5.35322,"is_reserved":false,"is_disabled":true,"rental_uris":{"android":"levelo://app?vid=a37779e7-3d8a-4c82-9997-3090313b05d7","ios":"levelo://app?vid=a37779e7-3d8a-4c82-9997-3090313b05d7"},"vehicle_type_id":"4","last_reported":1746299255,"current_range_meters":12000,"station_id":"cpo3532slgdg3j2ikp40","pricing_plan_id":"cebpf4jnsgd1na2vs0mg"},{"bike_id":"9be2ffaa-cae7-469a-803b-ae24b953a899","system_id":"levelo_inurba_marseille","lat":43.295118,"lon":5.375021,"is_reserved":false,"is_disabled":false,"rental_uris":{"android":"levelo://app?vid=9be2ffaa-cae7-469a-803b-ae24b953a899","ios":"levelo://app?vid=9be2ffaa-cae7-469a-803b-ae24b953a899"},"vehicle_type_id":"4","last_reported":1746299255,"current_range_meters":12000,"station_id":"ce4bgkp2rcd13ifvqbmg","pricing_plan_id":"cebpf4jnsgd1na2vs0mg"},{"bike_id":"af9b716f-c5d7-47aa-9cc8-81616c7c3772","system_id":"levelo_inurba_marseille","lat":43.26216,"lon":5.3744,"is_reserved":false,"is_disabled":false,"rental_uris":{"android":"levelo://app?vid=af9b716f-c5d7-47aa-9cc8-81616c7c3772","ios":"levelo://app?vid=af9b716f-c5d7-47aa-9cc8-81616c7c3772"},"vehicle_type_id":"4","last_reported":1746299255,"current_range_meters":12400,"station_id":"ce4bhgp2rcd13ifvqfc0","pricing_plan_id":"cebpf4jnsgd1na2vs0mg"},{"bike_id":"aedf206f-89f3-4f30-9da6-56fb7ff8915b","system_id":"levelo_inurba_marseille","lat":43.28071,"lon":5.40431,"is_reserved":false,"is_disabled":false,"rental_uris":{"android":"levelo://app?vid=aedf206f-89f3-4f30-9da6-56fb7ff8915b","ios":"levelo://app?vid=aedf206f-89f3-4f30-9da6-56fb7ff8915b"},"vehicle_type_id":"4","last_reported":1746299255,"current_range_meters":12800,"station_id":"","pricing_plan_id":"cebpf4jnsgd1na2vs0mg"},{"bike_id":"a0666bf4-5a43-434a-af0c-c46f8a61c241","system_id":"levelo_inurba_marseille","lat":43.29253,"lon":5.38446,"is_reserved":false,"is_disabled":false,"rental_uris":{"android":"levelo://app?vid=a0666bf4-5a43-434a-af0c-c46f8a61c241","ios":"levelo://app?vid=a0666bf4-5a43-434a-af0c-c46f8a61c241"},"vehicle_type_id":"4","last_reported":1746299255,"current_range_meters":12800,"station_id":"ce4bh692rcd13ifvqea0","pricing_plan_id":"cebpf4jnsgd1na2vs0mg"},{"bike_id":"274ad913-cb5d-44ea-8484-26eae07424ea","system_id":"levelo_inurba_marseille","lat":43.2587,"lon":5.39922,"is_reserved":false,"is_disabled":true,"rental_uris":{"android":"levelo://app?vid=274ad913-cb5d-44ea-8484-26eae07424ea","ios":"levelo://app?vid=274ad913-cb5d-44ea-8484-26eae07424ea"},"vehicle_type_id":"4","last_reported":1746299255,"current_range_meters":12800,"station_id":"ce4bhl92rcd13ifvqghg","pricing_plan_id":"cebpf4jnsgd1na2vs0mg"},{"bike_id":"15b7ef08-1ffc-4fd0-a807-3a47794ea3aa","system_id":"levelo_inurba_marseille","lat":43.30589,"lon":5.3936,"is_reserved":false,"is_disabled":false,"rental_uris":{"android":"levelo://app?vid=15b7ef08-1ffc-4fd0-a807-3a47794ea3aa","ios":"levelo://app?vid=15b7ef08-1ffc-4fd0-a807-3a47794ea3aa"},"vehicle_type_id":"4","last_reported":1746299255,"current_range_meters":12800,"station_id":"ce4bh0p2rcd13ifvqd80","pricing_plan_id":"cebpf4jnsgd1na2vs0mg"},{"bike_id":"4cc851da-e1ec-42ff-95e4-8b92ad8a1e2f","system_id":"levelo_inurba_marseille","lat":43.3003,"lon":5.40193,"is_reserved":false,"is_disabled":false,"rental_uris":{"android":"levelo://app?vid=4cc851da-e1ec-42ff-95e4-8b92ad8a1e2f","ios":"levelo://app?vid=4cc851da-e1ec-42ff-95e4-8b92ad8a1e2f"},"vehicle_type_id":"4","last_reported":1746299255,"current_range_meters":16400,"station_id":"","pricing_plan_id":"cebpf4jnsgd1na2vs0mg"},{"bike_id":"f56482c2-7f06-4b79-9980-26a1cccfa7fd","system_id":"levelo_inurba_marseille","lat":43.29065,"lon":5.371536,"is_reserved":false,"is_disabled":false,"rental_uris":{"android":"levelo://app?vid=f56482c2-7f06-4b79-9980-26a1cccfa7fd","ios":"levelo://app?vid=f56482c2-7f06-4b79-9980-26a1cccfa7fd"},"vehicle_type_id":"4","last_reported":1746299255,"current_range_meters":13600,"station_id":"ce4bh5p2rcd13ifvqe4g","pricing_plan_id":"cebpf4jnsgd1na2vs0mg"},{"bike_id":"6c4b361f-e7e3-4c92-93f7-f29e82813ab6","system_id":"levelo_inurba_marseille","lat":43.29239,"lon":5.38444,"is_reserved":false,"is_disabled":false,"rental_uris":{"android":"levelo://app?vid=6c4b361f-e7e3-4c92-93f7-f29e82813ab6","ios":"levelo://app?vid=6c4b361f-e7e3-4c92-93f7-f29e82813ab6"},"vehicle_type_id":"4","last_reported":1746299255,"current_range_meters":13600,"station_id":"ce4bh692rcd13ifvqea0","pricing_plan_id":"cebpf4jnsgd1na2vs0mg"},{"bike_id":"93f764a1-f7ce-404c-be97-62c2371bf60f","system_id":"levelo_inurba_marseille","lat":43.29579,"lon":5.37513,"is_reserved":false,"is_disabled":false,"rental_uris":{"android":"levelo://app?vid=93f764a1-f7ce-404c-be97-62c2371bf60f","ios":"levelo://app?vid=93f764a1-f7ce-404c-be97-62c2371bf60f"},"vehicle_type_id":"4","last_reported":1746299255,"current_range_meters":13600,"station_id":"ce4bgh92rcd13ifvqb50","pricing_plan_id":"cebpf4jnsgd1na2vs0mg"},{"bike_id":"167f5c11-3972-42a3-8e4c-b36a6c73f639","system_id":"levelo_inurba_marseille","lat":43.29515,"lon":5.3904,"is_reserved":false,"is_disabled":false,"rental_uris":{"android":"levelo://app?vid=167f5c11-3972-42a3-8e4c-b36a6c73f639","ios":"levelo://app?vid=167f5c11-3972-42a3-8e4c-b36a6c73f639"},"vehicle_type_id":"4","last_reported":1746299255,"current_range_meters":13600,"station_id":"ce4bh3p2rcd13ifvqdp0","pricing_plan_id":"cebpf4jnsgd1na2vs0mg"},{"bike_id":"e14f0e0b-57ce-42d5-80f6-e3d891b564d1","system_id":"levelo_inurba_marseille","lat":43.27065,"lon":5.42277,"is_reserved":false,"is_disabled":false,"rental_uris":{"android":"levelo://app?vid=e14f0e0b-57ce-42d5-80f6-e3d891b564d1","ios":"levelo://app?vid=e14f0e0b-57ce-42d5-80f6-e3d891b564d1"},"vehicle_type_id":"4","last_reported":1746299255,"current_range_meters":13600,"station_id":"ce4bhk92rcd13ifvqgb0","pricing_plan_id":"cebpf4jnsgd1na2vs0mg"},{"bike_id":"c0f86df1-6385-4d83-9bea-18dfbc90af02","system_id":"levelo_inurba_marseille","lat":43.29257,"lon":5.38425,"is_reserved":false,"is_disabled":false,"rental_uris":{"android":"levelo://app?vid=c0f86df1-6385-4d83-9bea-18dfbc90af02","ios":"levelo://app?vid=c0f86df1-6385-4d83-9bea-18dfbc90af02"},"vehicle_type_id":"4","last_reported":1746299255,"current_range_meters":13600,"station_id":"ce4bh692rcd13ifvqea0","pricing_plan_id":"cebpf4jnsgd1na2vs0mg"},{"bike_id":"6338e318-2f80-4349-ae11-615c887b4fb9","system_id":"levelo_inurba_marseille","lat":43.25935,"lon":5.40901,"is_reserved":false,"is_disabled":false,"rental_uris":{"android":"levelo://app?vid=6338e318-2f80-4349-ae11-615c887b4fb9","ios":"levelo://app?vid=6338e318-2f80-4349-ae11-615c887b4fb9"},"vehicle_type_id":"4","last_reported":1746299255,"current_range_meters":13600,"station_id":"ce4bhm92rcd13ifvqglg","pricing_plan_id":"cebpf4jnsgd1na2vs0mg"},{"bike_id":"54e899bb-e230-4ed2-b1ef-c5e97c5c2e5d","system_id":"levelo_inurba_marseille","lat":43.29619,"lon":5.3716,"is_reserved":false,"is_disabled":false,"rental_uris":{"android":"levelo://app?vid=54e899bb-e230-4ed2-b1ef-c5e97c5c2e5d","ios":"levelo://app?vid=54e899bb-e230-4ed2-b1ef-c5e97c5c2e5d"},"vehicle_type_id":"4","last_reported":1746299255,"current_range_meters":14000,"station_id":"ce4bgnh2rcd13ifvqc0g","pricing_plan_id":"cebpf4jnsgd1na2vs0mg"},{"bike_id":"fa2000c4-dfc3-4b42-8ced-0f6e12241da9","system_id":"levelo_inurba_marseille","lat":43.2998,"lon":5.37177,"is_reserved":false,"is_disabled":false,"rental_uris":{"android":"levelo://app?vid=fa2000c4-dfc3-4b42-8ced-0f6e12241da9","ios":"levelo://app?vid=fa2000c4-dfc3-4b42-8ced-0f6e12241da9"},"vehicle_type_id":"4","last_reported":1746299255,"current_range_meters":14000,"station_id":"ce4bgr92rcd13ifvqc7g","pricing_plan_id":"cebpf4jnsgd1na2vs0mg"},{"bike_id":"4cd32815-4894-41a0-9a3d-e6c837dcaeea","system_id":"levelo_inurba_marseille","lat":43.29974,"lon":5.38491,"is_reserved":false,"is_disabled":true,"rental_uris":{"android":"levelo://app?vid=4cd32815-4894-41a0-9a3d-e6c837dcaeea","ios":"levelo://app?vid=4cd32815-4894-41a0-9a3d-e6c837dcaeea"},"vehicle_type_id":"4","last_reported":1746299255,"current_range_meters":14400,"station_id":"ce4bgj92rcd13ifvqbd0","pricing_plan_id":"cebpf4jnsgd1na2vs0mg"},{"bike_id":"d75996da-a36c-4633-9307-88c9994047f8","system_id":"levelo_inurba_marseille","lat":43.29286,"lon":5.37451,"is_reserved":false,"is_disabled":false,"rental_uris":{"android":"levelo://app?vid=d75996da-a36c-4633-9307-88c9994047f8","ios":"levelo://app?vid=d75996da-a36c-4633-9307-88c9994047f8"},"vehicle_type_id":"4","last_reported":1746299255,"current_range_meters":14000,"station_id":"ce4bgi12rcd13ifvqb70","pricing_plan_id":"cebpf4jnsgd1na2vs0mg"},{"bike_id":"6516b975-99d9-4517-affb-76fb57a2c43a","system_id":"levelo_inurba_marseille","lat":43.29035,"lon":5.37562,"is_reserved":false,"is_disabled":false,"rental_uris":{"android":"levelo://app?vid=6516b975-99d9-4517-affb-76fb57a2c43a","ios":"levelo://app?vid=6516b975-99d9-4517-affb-76fb57a2c43a"},"vehicle_type_id":"4","last_reported":1746299255,"current_range_meters":14400,"station_id":"ce4bh692rcd13ifvqe90","pricing_plan_id":"cebpf4jnsgd1na2vs0mg"},{"bike_id":"558645bd-b4f0-4b25-b313-9f287bde2466","system_id":"levelo_inurba_marseille","lat":43.29707,"lon":5.36605,"is_reserved":false,"is_disabled":false,"rental_uris":{"android":"levelo://app?vid=558645bd-b4f0-4b25-b313-9f287bde2466","ios":"levelo://app?vid=558645bd-b4f0-4b25-b313-9f287bde2466"},"vehicle_type_id":"4","last_reported":1746299255,"current_range_meters":14400,"station_id":"ce4bgn12rcd13ifvqbt0","pricing_plan_id":"cebpf4jnsgd1na2vs0mg"},{"bike_id":"d183afd7-4c6c-46d6-8ab2-ef37cd1364eb","system_id":"levelo_inurba_marseille","lat":43.29534,"lon":5.39397,"is_reserved":false,"is_disabled":false,"rental_uris":{"android":"levelo://app?vid=d183afd7-4c6c-46d6-8ab2-ef37cd1364eb","ios":"levelo://app?vid=d183afd7-4c6c-46d6-8ab2-ef37cd1364eb"},"vehicle_type_id":"4","last_reported":1746299255,"current_range_meters":14000,"station_id":"ce4bh292rcd13ifvqdf0","pricing_plan_id":"cebpf4jnsgd1na2vs0mg"},{"bike_id":"f12fdab4-3cac-4922-bf50-14ee9ad7fa35","system_id":"levelo_inurba_marseille","lat":43.29953,"lon":5.41319,"is_reserved":false,"is_disabled":false,"rental_uris":{"android":"levelo://app?vid=f12fdab4-3cac-4922-bf50-14ee9ad7fa35","ios":"levelo://app?vid=f12fdab4-3cac-4922-bf50-14ee9ad7fa35"},"vehicle_type_id":"4","last_reported":1746299255,"current_range_meters":14000,"station_id":"ce4bhp12rcd13ifvqh9g","pricing_plan_id":"cebpf4jnsgd1na2vs0mg"},{"bike_id":"3e84121a-71ad-4261-b6a9-37316f8cbd59","system_id":"levelo_inurba_marseille","lat":43.29005,"lon":5.38611,"is_reserved":false,"is_disabled":true,"rental_uris":{"android":"levelo://app?vid=3e84121a-71ad-4261-b6a9-37316f8cbd59","ios":"levelo://app?vid=3e84121a-71ad-4261-b6a9-37316f8cbd59"},"vehicle_type_id":"4","last_reported":1746299255,"current_range_meters":14400,"station_id":"ce4bh4p2rcd13ifvqe0g","pricing_plan_id":"cebpf4jnsgd1na2vs0mg"},{"bike_id":"812c76a8-8bfb-420d-adab-85081370fe33","system_id":"levelo_inurba_marseille","lat":43.255,"lon":5.37648,"is_reserved":false,"is_disabled":false,"rental_uris":{"android":"levelo://app?vid=812c76a8-8bfb-420d-adab-85081370fe33","ios":"levelo://app?vid=812c76a8-8bfb-420d-adab-85081370fe33"},"vehicle_type_id":"4","last_reported":1746299255,"current_range_meters":14800,"station_id":"ce4bhh12rcd13ifvqff0","pricing_plan_id":"cebpf4jnsgd1na2vs0mg"},{"bike_id":"37d8a13c-845e-4e8c-b5ef-f70a34f77ea8","system_id":"levelo_inurba_marseille","lat":43.29035,"lon":5.37549,"is_reserved":false,"is_disabled":false,"rental_uris":{"android":"levelo://app?vid=37d8a13c-845e-4e8c-b5ef-f70a34f77ea8","ios":"levelo://app?vid=37d8a13c-845e-4e8c-b5ef-f70a34f77ea8"},"vehicle_type_id":"4","last_reported":1746299255,"current_range_meters":15200,"station_id":"ce4bh692rcd13ifvqe90","pricing_plan_id":"cebpf4jnsgd1na2vs0mg"},{"bike_id":"be8791c8-073a-4e47-9621-170b4c735413","system_id":"levelo_inurba_marseille","lat":43.28928,"lon":5.3839,"is_reserved":false,"is_disabled":false,"rental_uris":{"android":"levelo://app?vid=be8791c8-073a-4e47-9621-170b4c735413","ios":"levelo://app?vid=be8791c8-073a-4e47-9621-170b4c735413"},"vehicle_type_id":"4","last_reported":1746299255,"current_range_meters":15200,"station_id":"ce4bh612rcd13ifvqe6g","pricing_plan_id":"cebpf4jnsgd1na2vs0mg"},{"bike_id":"ccadadff-3d82-44ab-9115-5fa0befeae87","system_id":"levelo_inurba_marseille","lat":43.29244,"lon":5.38435,"is_reserved":false,"is_disabled":false,"rental_uris":{"android":"levelo://app?vid=ccadadff-3d82-44ab-9115-5fa0befeae87","ios":"levelo://app?vid=ccadadff-3d82-44ab-9115-5fa0befeae87"},"vehicle_type_id":"4","last_reported":1746299255,"current_range_meters":15200,"station_id":"ce4bh692rcd13ifvqea0","pricing_plan_id":"cebpf4jnsgd1na2vs0mg"},{"bike_id":"4b00e6b6-7ab5-430e-a451-25b835012b51","system_id":"levelo_inurba_marseille","lat":43.2808,"lon":5.3966,"is_reserved":false,"is_disabled":false,"rental_uris":{"android":"levelo://app?vid=4b00e6b6-7ab5-430e-a451-25b835012b51","ios":"levelo://app?vid=4b00e6b6-7ab5-430e-a451-25b835012b51"},"vehicle_type_id":"4","last_reported":1746299255,"current_range_meters":15200,"station_id":"ce4bho12rcd13ifvqh2g","pricing_plan_id":"cebpf4jnsgd1na2vs0mg"},{"bike_id":"6a8695da-737e-4484-817f-57b3c4b85787","system_id":"levelo_inurba_marseille","lat":43.28104,"lon":5.3784,"is_reserved":false,"is_disabled":false,"rental_uris":{"android":"levelo://app?vid=6a8695da-737e-4484-817f-57b3c4b85787","ios":"levelo://app?vid=6a8695da-737e-4484-817f-57b3c4b85787"},"vehicle_type_id":"4","last_reported":1746299255,"current_range_meters":15200,"station_id":"ce4bha12rcd13ifvqee0","pricing_plan_id":"cebpf4jnsgd1na2vs0mg"},{"bike_id":"8aacfa40-35d4-4f2c-8d06-b517faf8f1a7","system_id":"levelo_inurba_marseille","lat":43.29199,"lon":5.39327,"is_reserved":false,"is_disabled":false,"rental_uris":{"android":"levelo://app?vid=8aacfa40-35d4-4f2c-8d06-b517faf8f1a7","ios":"levelo://app?vid=8aacfa40-35d4-4f2c-8d06-b517faf8f1a7"},"vehicle_type_id":"4","last_reported":1746299255,"current_range_meters":15200,"station_id":"ce4bh192rcd13ifvqdd0","pricing_plan_id":"cebpf4jnsgd1na2vs0mg"},{"bike_id":"40b008a6-33d5-4cd5-80be-99e08f95996c","system_id":"levelo_inurba_marseille","lat":43.310687,"lon":5.383743,"is_reserved":false,"is_disabled":false,"rental_uris":{"android":"levelo://app?vid=40b008a6-33d5-4cd5-80be-99e08f95996c","ios":"levelo://app?vid=40b008a6-33d5-4cd5-80be-99e08f95996c"},"vehicle_type_id":"4","last_reported":1746299255,"current_range_meters":16000,"station_id":"ce4bgv92rcd13ifvqcr0","pricing_plan_id":"cebpf4jnsgd1na2vs0mg"},{"bike_id":"8bf071be-8654-4013-86e4-2a0f721dcaff","system_id":"levelo_inurba_marseille","lat":43.28487,"lon":5.38414,"is_reserved":false,"is_disabled":false,"rental_uris":{"android":"levelo://app?vid=8bf071be-8654-4013-86e4-2a0f721dcaff","ios":"levelo://app?vid=8bf071be-8654-4013-86e4-2a0f721dcaff"},"vehicle_type_id":"4","last_reported":1746299255,"current_range_meters":16000,"station_id":"ce4bh512rcd13ifvqe3g","pricing_plan_id":"cebpf4jnsgd1na2vs0mg"},{"bike_id":"c6ba8f39-28ec-478d-8ee8-f8ae733fd056","system_id":"levelo_inurba_marseille","lat":43.299116,"lon":5.381478,"is_reserved":false,"is_disabled":false,"rental_uris":{"android":"levelo://app?vid=c6ba8f39-28ec-478d-8ee8-f8ae733fd056","ios":"levelo://app?vid=c6ba8f39-28ec-478d-8ee8-f8ae733fd056"},"vehicle_type_id":"4","last_reported":1746299255,"current_range_meters":16000,"station_id":"ce4bgj12rcd13ifvqbc0","pricing_plan_id":"cebpf4jnsgd1na2vs0mg"},{"bike_id":"a847b65b-6263-4a58-95c3-ddab1901251f","system_id":"levelo_inurba_marseille","lat":43.289381,"lon":5.366409,"is_reserved":false,"is_disabled":false,"rental_uris":{"android":"levelo://app?vid=a847b65b-6263-4a58-95c3-ddab1901251f","ios":"levelo://app?vid=a847b65b-6263-4a58-95c3-ddab1901251f"},"vehicle_type_id":"4","last_reported":1746299255,"current_range_meters":16000,"station_id":"ce4bhap2rcd13ifvqek0","pricing_plan_id":"cebpf4jnsgd1na2vs0mg"},{"bike_id":"f3c839b6-8609-4db0-a4a3-4faff19e920b","system_id":"levelo_inurba_marseille","lat":43.26572,"lon":5.3901,"is_reserved":false,"is_disabled":false,"rental_uris":{"android":"levelo://app?vid=f3c839b6-8609-4db0-a4a3-4faff19e920b","ios":"levelo://app?vid=f3c839b6-8609-4db0-a4a3-4faff19e920b"},"vehicle_type_id":"4","last_reported":1746299255,"current_range_meters":16000,"station_id":"ce4bhe12rcd13ifvqf30","pricing_plan_id":"cebpf4jnsgd1na2vs0mg"},{"bike_id":"38ade034-54ff-4d80-8f7a-901a521a4834","system_id":"levelo_inurba_marseille","lat":43.31076,"lon":5.38358,"is_reserved":false,"is_disabled":false,"rental_uris":{"android":"levelo://app?vid=38ade034-54ff-4d80-8f7a-901a521a4834","ios":"levelo://app?vid=38ade034-54ff-4d80-8f7a-901a521a4834"},"vehicle_type_id":"4","last_reported":1746299255,"current_range_meters":16000,"station_id":"ce4bgv92rcd13ifvqcr0","pricing_plan_id":"cebpf4jnsgd1na2vs0mg"},{"bike_id":"fb80c1da-d845-467b-9c3b-2f591f4d56ae","system_id":"levelo_inurba_marseille","lat":43.323406,"lon":5.37422,"is_reserved":false,"is_disabled":false,"rental_uris":{"android":"levelo://app?vid=fb80c1da-d845-467b-9c3b-2f591f4d56ae","ios":"levelo://app?vid=fb80c1da-d845-467b-9c3b-2f591f4d56ae"},"vehicle_type_id":"4","last_reported":1746299255,"current_range_meters":16400,"station_id":"","pricing_plan_id":"cebpf4jnsgd1na2vs0mg"},{"bike_id":"b51e8583-0fb2-49ca-9c11-9dbce28dfa5d","system_id":"levelo_inurba_marseille","lat":43.23196,"lon":5.35548,"is_reserved":false,"is_disabled":false,"rental_uris":{"android":"levelo://app?vid=b51e8583-0fb2-49ca-9c11-9dbce28dfa5d","ios":"levelo://app?vid=b51e8583-0fb2-49ca-9c11-9dbce28dfa5d"},"vehicle_type_id":"4","last_reported":1746299255,"current_range_meters":16400,"station_id":"ce4bhu92rcd13ifvqi70","pricing_plan_id":"cebpf4jnsgd1na2vs0mg"},{"bike_id":"1525b762-36b9-4309-916a-8c851ea7bbc6","system_id":"levelo_inurba_marseille","lat":43.298907,"lon":5.389067,"is_reserved":false,"is_disabled":false,"rental_uris":{"android":"levelo://app?vid=1525b762-36b9-4309-916a-8c851ea7bbc6","ios":"levelo://app?vid=1525b762-36b9-4309-916a-8c851ea7bbc6"},"vehicle_type_id":"4","last_reported":1746299255,"current_range_meters":16000,"station_id":"ce4bh392rcd13ifvqdl0","pricing_plan_id":"cebpf4jnsgd1na2vs0mg"},{"bike_id":"2c4f17e0-2013-4442-9bdf-fc00ae2a2f77","system_id":"levelo_inurba_marseille","lat":43.29194,"lon":5.35809,"is_reserved":false,"is_disabled":false,"rental_uris":{"android":"levelo://app?vid=2c4f17e0-2013-4442-9bdf-fc00ae2a2f77","ios":"levelo://app?vid=2c4f17e0-2013-4442-9bdf-fc00ae2a2f77"},"vehicle_type_id":"4","last_reported":1746299255,"current_range_meters":16400,"station_id":"","pricing_plan_id":"cebpf4jnsgd1na2vs0mg"},{"bike_id":"099c43d4-cebc-4dea-a421-806c50ec72ab","system_id":"levelo_inurba_marseille","lat":43.31538,"lon":5.38026,"is_reserved":false,"is_disabled":false,"rental_uris":{"android":"levelo://app?vid=099c43d4-cebc-4dea-a421-806c50ec72ab","ios":"levelo://app?vid=099c43d4-cebc-4dea-a421-806c50ec72ab"},"vehicle_type_id":"4","last_reported":1746299255,"current_range_meters":16400,"station_id":"ce4bhsp2rcd13ifvqi50","pricing_plan_id":"cebpf4jnsgd1na2vs0mg"},{"bike_id":"89f78627-9e22-4f77-9254-0543eab69033","system_id":"levelo_inurba_marseille","lat":43.28402,"lon":5.37512,"is_reserved":false,"is_disabled":false,"rental_uris":{"android":"levelo://app?vid=89f78627-9e22-4f77-9254-0543eab69033","ios":"levelo://app?vid=89f78627-9e22-4f77-9254-0543eab69033"},"vehicle_type_id":"4","last_reported":1746299255,"current_range_meters":16800,"station_id":"ce4bh412rcd13ifvqds0","pricing_plan_id":"cebpf4jnsgd1na2vs0mg"},{"bike_id":"e6fbe5e0-d2e8-4fdf-8131-9211786ecb02","system_id":"levelo_inurba_marseille","lat":43.24805,"lon":5.37455,"is_reserved":false,"is_disabled":false,"rental_uris":{"android":"levelo://app?vid=e6fbe5e0-d2e8-4fdf-8131-9211786ecb02","ios":"levelo://app?vid=e6fbe5e0-d2e8-4fdf-8131-9211786ecb02"},"vehicle_type_id":"4","last_reported":1746299255,"current_range_meters":16800,"station_id":"ce4bhgh2rcd13ifvqfb0","pricing_plan_id":"cebpf4jnsgd1na2vs0mg"},{"bike_id":"57b577a6-05e4-403f-8e08-8a8bb593ff51","system_id":"levelo_inurba_marseille","lat":43.28948,"lon":5.36626,"is_reserved":false,"is_disabled":true,"rental_uris":{"android":"levelo://app?vid=57b577a6-05e4-403f-8e08-8a8bb593ff51","ios":"levelo://app?vid=57b577a6-05e4-403f-8e08-8a8bb593ff51"},"vehicle_type_id":"4","last_reported":1746299255,"current_range_meters":16800,"station_id":"ce4bhap2rcd13ifvqek0","pricing_plan_id":"cebpf4jnsgd1na2vs0mg"},{"bike_id":"a79693ae-ab14-4631-a4d3-2dbb92c91d7f","system_id":"levelo_inurba_marseille","lat":43.329371,"lon":5.36538,"is_reserved":false,"is_disabled":false,"rental_uris":{"android":"levelo://app?vid=a79693ae-ab14-4631-a4d3-2dbb92c91d7f","ios":"levelo://app?vid=a79693ae-ab14-4631-a4d3-2dbb92c91d7f"},"vehicle_type_id":"4","last_reported":1746299255,"current_range_meters":17200,"station_id":"","pricing_plan_id":"cebpf4jnsgd1na2vs0mg"},{"bike_id":"83a7b3ee-1ce2-45e1-8fac-03a688b4d6be","system_id":"levelo_inurba_marseille","lat":43.258667,"lon":5.399141,"is_reserved":false,"is_disabled":false,"rental_uris":{"android":"levelo://app?vid=83a7b3ee-1ce2-45e1-8fac-03a688b4d6be","ios":"levelo://app?vid=83a7b3ee-1ce2-45e1-8fac-03a688b4d6be"},"vehicle_type_id":"4","last_reported":1746299255,"current_range_meters":16400,"station_id":"ce4bhl92rcd13ifvqghg","pricing_plan_id":"cebpf4jnsgd1na2vs0mg"},{"bike_id":"7f94af4d-81ec-4f11-8ad5-90fb2fdafca2","system_id":"levelo_inurba_marseille","lat":43.28029,"lon":5.36959,"is_reserved":false,"is_disabled":false,"rental_uris":{"android":"levelo://app?vid=7f94af4d-81ec-4f11-8ad5-90fb2fdafca2","ios":"levelo://app?vid=7f94af4d-81ec-4f11-8ad5-90fb2fdafca2"},"vehicle_type_id":"4","last_reported":1746299255,"current_range_meters":16800,"station_id":"ce4bha12rcd13ifvqef0","pricing_plan_id":"cebpf4jnsgd1na2vs0mg"},{"bike_id":"ed2bb2c0-0169-44b4-994e-e3a453cd8966","system_id":"levelo_inurba_marseille","lat":43.24833,"lon":5.37458,"is_reserved":false,"is_disabled":false,"rental_uris":{"android":"levelo://app?vid=ed2bb2c0-0169-44b4-994e-e3a453cd8966","ios":"levelo://app?vid=ed2bb2c0-0169-44b4-994e-e3a453cd8966"},"vehicle_type_id":"4","last_reported":1746299255,"current_range_meters":16800,"station_id":"ce4bhgh2rcd13ifvqfb0","pricing_plan_id":"cebpf4jnsgd1na2vs0mg"},{"bike_id":"3c656a4f-b0f5-4685-adb7-ea67334a6f99","system_id":"levelo_inurba_marseille","lat":43.29029,"lon":5.38658,"is_reserved":false,"is_disabled":false,"rental_uris":{"android":"levelo://app?vid=3c656a4f-b0f5-4685-adb7-ea67334a6f99","ios":"levelo://app?vid=3c656a4f-b0f5-4685-adb7-ea67334a6f99"},"vehicle_type_id":"4","last_reported":1746299255,"current_range_meters":16800,"station_id":"ce4bh4p2rcd13ifvqe0g","pricing_plan_id":"cebpf4jnsgd1na2vs0mg"},{"bike_id":"9360e2cf-745e-4235-863d-6a08315062cd","system_id":"levelo_inurba_marseille","lat":43.32295,"lon":5.3828,"is_reserved":false,"is_disabled":false,"rental_uris":{"android":"levelo://app?vid=9360e2cf-745e-4235-863d-6a08315062cd","ios":"levelo://app?vid=9360e2cf-745e-4235-863d-6a08315062cd"},"vehicle_type_id":"4","last_reported":1746299255,"current_range_meters":17200,"station_id":"ce4bhr12rcd13ifvqhqg","pricing_plan_id":"cebpf4jnsgd1na2vs0mg"},{"bike_id":"db6c49da-c670-4836-ab86-4f084393b9a1","system_id":"levelo_inurba_marseille","lat":43.27066,"lon":5.42269,"is_reserved":false,"is_disabled":false,"rental_uris":{"android":"levelo://app?vid=db6c49da-c670-4836-ab86-4f084393b9a1","ios":"levelo://app?vid=db6c49da-c670-4836-ab86-4f084393b9a1"},"vehicle_type_id":"4","last_reported":1746299255,"current_range_meters":17200,"station_id":"ce4bhk92rcd13ifvqgb0","pricing_plan_id":"cebpf4jnsgd1na2vs0mg"},{"bike_id":"58f6763e-659f-4e43-8617-25008534bb04","system_id":"levelo_inurba_marseille","lat":43.30797,"lon":5.38159,"is_reserved":false,"is_disabled":false,"rental_uris":{"android":"levelo://app?vid=58f6763e-659f-4e43-8617-25008534bb04","ios":"levelo://app?vid=58f6763e-659f-4e43-8617-25008534bb04"},"vehicle_type_id":"4","last_reported":1746299255,"current_range_meters":17200,"station_id":"ce4bgt12rcd13ifvqce0","pricing_plan_id":"cebpf4jnsgd1na2vs0mg"},{"bike_id":"9311d46e-85c6-4bb6-9685-91abbb5d4d0b","system_id":"levelo_inurba_marseille","lat":43.32367,"lon":5.3888,"is_reserved":false,"is_disabled":false,"rental_uris":{"android":"levelo://app?vid=9311d46e-85c6-4bb6-9685-91abbb5d4d0b","ios":"levelo://app?vid=9311d46e-85c6-4bb6-9685-91abbb5d4d0b"},"vehicle_type_id":"4","last_reported":1746299255,"current_range_meters":17200,"station_id":"ce4bhqp2rcd13ifvqhog","pricing_plan_id":"cebpf4jnsgd1na2vs0mg"},{"bike_id":"6b422b48-bc3e-4538-b3ec-2aa3ac7d80b7","system_id":"levelo_inurba_marseille","lat":43.26208,"lon":5.37441,"is_reserved":false,"is_disabled":false,"rental_uris":{"android":"levelo://app?vid=6b422b48-bc3e-4538-b3ec-2aa3ac7d80b7","ios":"levelo://app?vid=6b422b48-bc3e-4538-b3ec-2aa3ac7d80b7"},"vehicle_type_id":"4","last_reported":1746299255,"current_range_meters":17200,"station_id":"ce4bhgp2rcd13ifvqfc0","pricing_plan_id":"cebpf4jnsgd1na2vs0mg"},{"bike_id":"b6530ba0-46c9-4190-97e4-7b4120909b22","system_id":"levelo_inurba_marseille","lat":43.28718,"lon":5.36087,"is_reserved":false,"is_disabled":false,"rental_uris":{"android":"levelo://app?vid=b6530ba0-46c9-4190-97e4-7b4120909b22","ios":"levelo://app?vid=b6530ba0-46c9-4190-97e4-7b4120909b22"},"vehicle_type_id":"4","last_reported":1746299255,"current_range_meters":17200,"station_id":"cki0cbj6b192h4jlfktg","pricing_plan_id":"cebpf4jnsgd1na2vs0mg"},{"bike_id":"92463d76-6c94-4284-8968-64cb56f44ea8","system_id":"levelo_inurba_marseille","lat":43.26209,"lon":5.37445,"is_reserved":false,"is_disabled":false,"rental_uris":{"android":"levelo://app?vid=92463d76-6c94-4284-8968-64cb56f44ea8","ios":"levelo://app?vid=92463d76-6c94-4284-8968-64cb56f44ea8"},"vehicle_type_id":"4","last_reported":1746299255,"current_range_meters":17600,"station_id":"ce4bhgp2rcd13ifvqfc0","pricing_plan_id":"cebpf4jnsgd1na2vs0mg"},{"bike_id":"e824d21f-e87e-49ed-8c37-98690f1d80b5","system_id":"levelo_inurba_marseille","lat":43.29258,"lon":5.3843,"is_reserved":false,"is_disabled":false,"rental_uris":{"android":"levelo://app?vid=e824d21f-e87e-49ed-8c37-98690f1d80b5","ios":"levelo://app?vid=e824d21f-e87e-49ed-8c37-98690f1d80b5"},"vehicle_type_id":"4","last_reported":1746299255,"current_range_meters":17600,"station_id":"ce4bh692rcd13ifvqea0","pricing_plan_id":"cebpf4jnsgd1na2vs0mg"},{"bike_id":"e56be64c-d48e-437d-a723-5f78fd2397b1","system_id":"levelo_inurba_marseille","lat":43.29056,"lon":5.37575,"is_reserved":false,"is_disabled":false,"rental_uris":{"android":"levelo://app?vid=e56be64c-d48e-437d-a723-5f78fd2397b1","ios":"levelo://app?vid=e56be64c-d48e-437d-a723-5f78fd2397b1"},"vehicle_type_id":"4","last_reported":1746299255,"current_range_meters":17600,"station_id":"ce4bh692rcd13ifvqe90","pricing_plan_id":"cebpf4jnsgd1na2vs0mg"},{"bike_id":"e0eb2257-89c1-4851-bec9-ef9639111322","system_id":"levelo_inurba_marseille","lat":43.29997,"lon":5.37208,"is_reserved":false,"is_disabled":false,"rental_uris":{"android":"levelo://app?vid=e0eb2257-89c1-4851-bec9-ef9639111322","ios":"levelo://app?vid=e0eb2257-89c1-4851-bec9-ef9639111322"},"vehicle_type_id":"4","last_reported":1746299255,"current_range_meters":17600,"station_id":"ce4bgr92rcd13ifvqc7g","pricing_plan_id":"cebpf4jnsgd1na2vs0mg"},{"bike_id":"b3d408df-9155-4f5b-9bde-4accbb4fb483","system_id":"levelo_inurba_marseille","lat":43.29235,"lon":5.3845,"is_reserved":false,"is_disabled":false,"rental_uris":{"android":"levelo://app?vid=b3d408df-9155-4f5b-9bde-4accbb4fb483","ios":"levelo://app?vid=b3d408df-9155-4f5b-9bde-4accbb4fb483"},"vehicle_type_id":"4","last_reported":1746299255,"current_range_meters":17600,"station_id":"ce4bh692rcd13ifvqea0","pricing_plan_id":"cebpf4jnsgd1na2vs0mg"},{"bike_id":"3a9205d8-8e69-4279-83d2-def0f9054cf9","system_id":"levelo_inurba_marseille","lat":43.24793,"lon":5.37454,"is_reserved":false,"is_disabled":false,"rental_uris":{"android":"levelo://app?vid=3a9205d8-8e69-4279-83d2-def0f9054cf9","ios":"levelo://app?vid=3a9205d8-8e69-4279-83d2-def0f9054cf9"},"vehicle_type_id":"4","last_reported":1746299255,"current_range_meters":17600,"station_id":"ce4bhgh2rcd13ifvqfb0","pricing_plan_id":"cebpf4jnsgd1na2vs0mg"},{"bike_id":"aaeb0a2d-061d-4487-80c8-dab0ee0ab87d","system_id":"levelo_inurba_marseille","lat":43.28034,"lon":5.3695,"is_reserved":false,"is_disabled":false,"rental_uris":{"android":"levelo://app?vid=aaeb0a2d-061d-4487-80c8-dab0ee0ab87d","ios":"levelo://app?vid=aaeb0a2d-061d-4487-80c8-dab0ee0ab87d"},"vehicle_type_id":"4","last_reported":1746299255,"current_range_meters":18000,"station_id":"ce4bha12rcd13ifvqef0","pricing_plan_id":"cebpf4jnsgd1na2vs0mg"},{"bike_id":"a66e0266-e21c-403c-b8e3-5301a812c232","system_id":"levelo_inurba_marseille","lat":43.24046,"lon":5.37759,"is_reserved":false,"is_disabled":false,"rental_uris":{"android":"levelo://app?vid=a66e0266-e21c-403c-b8e3-5301a812c232","ios":"levelo://app?vid=a66e0266-e21c-403c-b8e3-5301a812c232"},"vehicle_type_id":"4","last_reported":1746299255,"current_range_meters":18000,"station_id":"ce4bhnp2rcd13ifvqgvg","pricing_plan_id":"cebpf4jnsgd1na2vs0mg"},{"bike_id":"cf3bd869-e4d6-41a1-bce4-bb40862d5e78","system_id":"levelo_inurba_marseille","lat":43.29521,"lon":5.38543,"is_reserved":false,"is_disabled":false,"rental_uris":{"android":"levelo://app?vid=cf3bd869-e4d6-41a1-bce4-bb40862d5e78","ios":"levelo://app?vid=cf3bd869-e4d6-41a1-bce4-bb40862d5e78"},"vehicle_type_id":"4","last_reported":1746299255,"current_range_meters":18000,"station_id":"ce4bgih2rcd13ifvqba0","pricing_plan_id":"cebpf4jnsgd1na2vs0mg"},{"bike_id":"e945d8b0-1767-4987-b114-bfd41102f6a2","system_id":"levelo_inurba_marseille","lat":43.32937,"lon":5.36421,"is_reserved":false,"is_disabled":false,"rental_uris":{"android":"levelo://app?vid=e945d8b0-1767-4987-b114-bfd41102f6a2","ios":"levelo://app?vid=e945d8b0-1767-4987-b114-bfd41102f6a2"},"vehicle_type_id":"4","last_reported":1746299255,"current_range_meters":18000,"station_id":"","pricing_plan_id":"cebpf4jnsgd1na2vs0mg"},{"bike_id":"d09e6c1e-4999-465c-950c-9041901c1285","system_id":"levelo_inurba_marseille","lat":43.29364,"lon":5.3785,"is_reserved":false,"is_disabled":false,"rental_uris":{"android":"levelo://app?vid=d09e6c1e-4999-465c-950c-9041901c1285","ios":"levelo://app?vid=d09e6c1e-4999-465c-950c-9041901c1285"},"vehicle_type_id":"4","last_reported":1746299255,"current_range_meters":18000,"station_id":"ce4bgjh2rcd13ifvqbf0","pricing_plan_id":"cebpf4jnsgd1na2vs0mg"},{"bike_id":"43384032-23ac-4cb7-9fd3-ee8aba815849","system_id":"levelo_inurba_marseille","lat":43.29236,"lon":5.38442,"is_reserved":false,"is_disabled":false,"rental_uris":{"android":"levelo://app?vid=43384032-23ac-4cb7-9fd3-ee8aba815849","ios":"levelo://app?vid=43384032-23ac-4cb7-9fd3-ee8aba815849"},"vehicle_type_id":"4","last_reported":1746299255,"current_range_meters":18000,"station_id":"ce4bh692rcd13ifvqea0","pricing_plan_id":"cebpf4jnsgd1na2vs0mg"},{"bike_id":"d4ebd8e4-3fad-497b-a2df-6b0b25998d87","system_id":"levelo_inurba_marseille","lat":43.29916,"lon":5.37461,"is_reserved":false,"is_disabled":false,"rental_uris":{"android":"levelo://app?vid=d4ebd8e4-3fad-497b-a2df-6b0b25998d87","ios":"levelo://app?vid=d4ebd8e4-3fad-497b-a2df-6b0b25998d87"},"vehicle_type_id":"4","last_reported":1746299255,"current_range_meters":17600,"station_id":"ce4bgjh2rcd13ifvqbg0","pricing_plan_id":"cebpf4jnsgd1na2vs0mg"},{"bike_id":"6cd9ea8f-5680-42c6-9a34-4e719023d564","system_id":"levelo_inurba_marseille","lat":43.27996,"lon":5.41662,"is_reserved":false,"is_disabled":false,"rental_uris":{"android":"levelo://app?vid=6cd9ea8f-5680-42c6-9a34-4e719023d564","ios":"levelo://app?vid=6cd9ea8f-5680-42c6-9a34-4e719023d564"},"vehicle_type_id":"4","last_reported":1746299255,"current_range_meters":18000,"station_id":"ce4bho12rcd13ifvqh1g","pricing_plan_id":"cebpf4jnsgd1na2vs0mg"},{"bike_id":"0c028c34-9946-4732-8dc3-8752e20e64d7","system_id":"levelo_inurba_marseille","lat":43.30928,"lon":5.40145,"is_reserved":false,"is_disabled":false,"rental_uris":{"android":"levelo://app?vid=0c028c34-9946-4732-8dc3-8752e20e64d7","ios":"levelo://app?vid=0c028c34-9946-4732-8dc3-8752e20e64d7"},"vehicle_type_id":"4","last_reported":1746299255,"current_range_meters":18800,"station_id":"ce4bgvp2rcd13ifvqct0","pricing_plan_id":"cebpf4jnsgd1na2vs0mg"},{"bike_id":"1128d023-53ed-4c9a-825a-3b88e9c300ae","system_id":"levelo_inurba_marseille","lat":43.28395,"lon":5.37519,"is_reserved":false,"is_disabled":false,"rental_uris":{"android":"levelo://app?vid=1128d023-53ed-4c9a-825a-3b88e9c300ae","ios":"levelo://app?vid=1128d023-53ed-4c9a-825a-3b88e9c300ae"},"vehicle_type_id":"4","last_reported":1746299255,"current_range_meters":18800,"station_id":"ce4bh412rcd13ifvqds0","pricing_plan_id":"cebpf4jnsgd1na2vs0mg"},{"bike_id":"8d8626dc-37c6-4b14-8819-7fca17358d5f","system_id":"levelo_inurba_marseille","lat":43.29238,"lon":5.38439,"is_reserved":false,"is_disabled":false,"rental_uris":{"android":"levelo://app?vid=8d8626dc-37c6-4b14-8819-7fca17358d5f","ios":"levelo://app?vid=8d8626dc-37c6-4b14-8819-7fca17358d5f"},"vehicle_type_id":"4","last_reported":1746299255,"current_range_meters":18000,"station_id":"ce4bh692rcd13ifvqea0","pricing_plan_id":"cebpf4jnsgd1na2vs0mg"},{"bike_id":"208f4229-6ab2-469a-90f4-12e199d1303d","system_id":"levelo_inurba_marseille","lat":43.287,"lon":5.37401,"is_reserved":false,"is_disabled":false,"rental_uris":{"android":"levelo://app?vid=208f4229-6ab2-469a-90f4-12e199d1303d","ios":"levelo://app?vid=208f4229-6ab2-469a-90f4-12e199d1303d"},"vehicle_type_id":"4","last_reported":1746299255,"current_range_meters":18800,"station_id":"ce4bh3p2rcd13ifvqdq0","pricing_plan_id":"cebpf4jnsgd1na2vs0mg"},{"bike_id":"eb856bb4-d3ce-4219-a324-1ca47b5f6b04","system_id":"levelo_inurba_marseille","lat":43.30945,"lon":5.39033,"is_reserved":false,"is_disabled":false,"rental_uris":{"android":"levelo://app?vid=eb856bb4-d3ce-4219-a324-1ca47b5f6b04","ios":"levelo://app?vid=eb856bb4-d3ce-4219-a324-1ca47b5f6b04"},"vehicle_type_id":"4","last_reported":1746299255,"current_range_meters":18800,"station_id":"ce4bgup2rcd13ifvqco0","pricing_plan_id":"cebpf4jnsgd1na2vs0mg"},{"bike_id":"34799240-95fc-4de5-98ee-0eae28470445","system_id":"levelo_inurba_marseille","lat":43.276713,"lon":5.388847,"is_reserved":false,"is_disabled":false,"rental_uris":{"android":"levelo://app?vid=34799240-95fc-4de5-98ee-0eae28470445","ios":"levelo://app?vid=34799240-95fc-4de5-98ee-0eae28470445"},"vehicle_type_id":"4","last_reported":1746299255,"current_range_meters":18800,"station_id":"ce4bhi12rcd13ifvqfo0","pricing_plan_id":"cebpf4jnsgd1na2vs0mg"},{"bike_id":"b5fe7b80-b92a-45ad-91f4-53aeae89db67","system_id":"levelo_inurba_marseille","lat":43.29372,"lon":5.37867,"is_reserved":false,"is_disabled":false,"rental_uris":{"android":"levelo://app?vid=b5fe7b80-b92a-45ad-91f4-53aeae89db67","ios":"levelo://app?vid=b5fe7b80-b92a-45ad-91f4-53aeae89db67"},"vehicle_type_id":"4","last_reported":1746299255,"current_range_meters":18800,"station_id":"ce4bgjh2rcd13ifvqbf0","pricing_plan_id":"cebpf4jnsgd1na2vs0mg"},{"bike_id":"ac33d6ff-248a-4d8b-b9cc-5ce6164a8602","system_id":"levelo_inurba_marseille","lat":43.29267,"lon":5.37635,"is_reserved":false,"is_disabled":false,"rental_uris":{"android":"levelo://app?vid=ac33d6ff-248a-4d8b-b9cc-5ce6164a8602","ios":"levelo://app?vid=ac33d6ff-248a-4d8b-b9cc-5ce6164a8602"},"vehicle_type_id":"4","last_reported":1746299255,"current_range_meters":18800,"station_id":"ce4bgi12rcd13ifvqb80","pricing_plan_id":"cebpf4jnsgd1na2vs0mg"},{"bike_id":"43f220ab-0408-46b3-abe5-60437ce3bc1e","system_id":"levelo_inurba_marseille","lat":43.23195,"lon":5.355587,"is_reserved":false,"is_disabled":false,"rental_uris":{"android":"levelo://app?vid=43f220ab-0408-46b3-abe5-60437ce3bc1e","ios":"levelo://app?vid=43f220ab-0408-46b3-abe5-60437ce3bc1e"},"vehicle_type_id":"4","last_reported":1746299255,"current_range_meters":19200,"station_id":"ce4bhu92rcd13ifvqi70","pricing_plan_id":"cebpf4jnsgd1na2vs0mg"},{"bike_id":"733f1b4c-2929-4f5c-80c9-29415138a376","system_id":"levelo_inurba_marseille","lat":43.29691,"lon":5.37296,"is_reserved":false,"is_disabled":false,"rental_uris":{"android":"levelo://app?vid=733f1b4c-2929-4f5c-80c9-29415138a376","ios":"levelo://app?vid=733f1b4c-2929-4f5c-80c9-29415138a376"},"vehicle_type_id":"4","last_reported":1746299255,"current_range_meters":19200,"station_id":"ce4bgk12rcd13ifvqbj0","pricing_plan_id":"cebpf4jnsgd1na2vs0mg"},{"bike_id":"6369955c-2aac-4497-9e9f-ed86287e7669","system_id":"levelo_inurba_marseille","lat":43.308,"lon":5.43528,"is_reserved":false,"is_disabled":false,"rental_uris":{"android":"levelo://app?vid=6369955c-2aac-4497-9e9f-ed86287e7669","ios":"levelo://app?vid=6369955c-2aac-4497-9e9f-ed86287e7669"},"vehicle_type_id":"4","last_reported":1746299255,"current_range_meters":19200,"station_id":"ce4bhph2rcd13ifvqheg","pricing_plan_id":"cebpf4jnsgd1na2vs0mg"},{"bike_id":"dd4ba279-e4dd-4eed-b0ee-7653c26c7932","system_id":"levelo_inurba_marseille","lat":43.29766,"lon":5.37106,"is_reserved":false,"is_disabled":false,"rental_uris":{"android":"levelo://app?vid=dd4ba279-e4dd-4eed-b0ee-7653c26c7932","ios":"levelo://app?vid=dd4ba279-e4dd-4eed-b0ee-7653c26c7932"},"vehicle_type_id":"4","last_reported":1746299255,"current_range_meters":18800,"station_id":"ce4bgop2rcd13ifvqc1g","pricing_plan_id":"cebpf4jnsgd1na2vs0mg"},{"bike_id":"a62a0243-e207-4b4d-bbe3-c10e523cc3e6","system_id":"levelo_inurba_marseille","lat":43.25502,"lon":5.37647,"is_reserved":false,"is_disabled":false,"rental_uris":{"android":"levelo://app?vid=a62a0243-e207-4b4d-bbe3-c10e523cc3e6","ios":"levelo://app?vid=a62a0243-e207-4b4d-bbe3-c10e523cc3e6"},"vehicle_type_id":"4","last_reported":1746299255,"current_range_meters":19200,"station_id":"ce4bhh12rcd13ifvqff0","pricing_plan_id":"cebpf4jnsgd1na2vs0mg"},{"bike_id":"b35ac81f-9162-4cdc-96bf-5c638a3c5800","system_id":"levelo_inurba_marseille","lat":43.29561,"lon":5.42259,"is_reserved":false,"is_disabled":false,"rental_uris":{"android":"levelo://app?vid=b35ac81f-9162-4cdc-96bf-5c638a3c5800","ios":"levelo://app?vid=b35ac81f-9162-4cdc-96bf-5c638a3c5800"},"vehicle_type_id":"4","last_reported":1746299255,"current_range_meters":19200,"station_id":"ce4bhph2rcd13ifvqhdg","pricing_plan_id":"cebpf4jnsgd1na2vs0mg"},{"bike_id":"e66c21dd-f6cf-47f3-9827-acc15475cc47","system_id":"levelo_inurba_marseille","lat":43.29056,"lon":5.37162,"is_reserved":false,"is_disabled":false,"rental_uris":{"android":"levelo://app?vid=e66c21dd-f6cf-47f3-9827-acc15475cc47","ios":"levelo://app?vid=e66c21dd-f6cf-47f3-9827-acc15475cc47"},"vehicle_type_id":"4","last_reported":1746299255,"current_range_meters":18800,"station_id":"ce4bh5p2rcd13ifvqe4g","pricing_plan_id":"cebpf4jnsgd1na2vs0mg"},{"bike_id":"d3c21228-3fe4-4558-ad10-fe834dff1f42","system_id":"levelo_inurba_marseille","lat":43.303009,"lon":5.392094,"is_reserved":false,"is_disabled":false,"rental_uris":{"android":"levelo://app?vid=d3c21228-3fe4-4558-ad10-fe834dff1f42","ios":"levelo://app?vid=d3c21228-3fe4-4558-ad10-fe834dff1f42"},"vehicle_type_id":"4","last_reported":1746299255,"current_range_meters":19200,"station_id":"ce4bgkh2rcd13ifvqbk0","pricing_plan_id":"cebpf4jnsgd1na2vs0mg"},{"bike_id":"c934a038-999c-4097-b244-e68883d621e3","system_id":"levelo_inurba_marseille","lat":43.30552,"lon":5.36545,"is_reserved":false,"is_disabled":true,"rental_uris":{"android":"levelo://app?vid=c934a038-999c-4097-b244-e68883d621e3","ios":"levelo://app?vid=c934a038-999c-4097-b244-e68883d621e3"},"vehicle_type_id":"4","last_reported":1746299255,"current_range_meters":19600,"station_id":"ce4bgs12rcd13ifvqcag","pricing_plan_id":"cebpf4jnsgd1na2vs0mg"},{"bike_id":"07dd1a03-81b4-44d5-93c0-c6e93a51ac14","system_id":"levelo_inurba_marseille","lat":43.29024,"lon":5.38631,"is_reserved":false,"is_disabled":false,"rental_uris":{"android":"levelo://app?vid=07dd1a03-81b4-44d5-93c0-c6e93a51ac14","ios":"levelo://app?vid=07dd1a03-81b4-44d5-93c0-c6e93a51ac14"},"vehicle_type_id":"4","last_reported":1746299255,"current_range_meters":19600,"station_id":"ce4bh4p2rcd13ifvqe0g","pricing_plan_id":"cebpf4jnsgd1na2vs0mg"},{"bike_id":"4c2ec1d6-94a3-42b1-9c0b-805adc49f5ee","system_id":"levelo_inurba_marseille","lat":43.30217,"lon":5.3973,"is_reserved":false,"is_disabled":false,"rental_uris":{"android":"levelo://app?vid=4c2ec1d6-94a3-42b1-9c0b-805adc49f5ee","ios":"levelo://app?vid=4c2ec1d6-94a3-42b1-9c0b-805adc49f5ee"},"vehicle_type_id":"4","last_reported":1746299255,"current_range_meters":19600,"station_id":"","pricing_plan_id":"cebpf4jnsgd1na2vs0mg"},{"bike_id":"ba7a3c7c-fb87-44e1-9ac5-7654fb7d8dec","system_id":"levelo_inurba_marseille","lat":43.31362,"lon":5.38494,"is_reserved":false,"is_disabled":false,"rental_uris":{"android":"levelo://app?vid=ba7a3c7c-fb87-44e1-9ac5-7654fb7d8dec","ios":"levelo://app?vid=ba7a3c7c-fb87-44e1-9ac5-7654fb7d8dec"},"vehicle_type_id":"4","last_reported":1746299255,"current_range_meters":19600,"station_id":"ce4bgt92rcd13ifvqcf0","pricing_plan_id":"cebpf4jnsgd1na2vs0mg"},{"bike_id":"ba4a476d-22e1-4853-9b97-85ba491cc12e","system_id":"levelo_inurba_marseille","lat":43.30429,"lon":5.38885,"is_reserved":false,"is_disabled":false,"rental_uris":{"android":"levelo://app?vid=ba4a476d-22e1-4853-9b97-85ba491cc12e","ios":"levelo://app?vid=ba4a476d-22e1-4853-9b97-85ba491cc12e"},"vehicle_type_id":"4","last_reported":1746299255,"current_range_meters":20000,"station_id":"ce4bgk12rcd13ifvqbi0","pricing_plan_id":"cebpf4jnsgd1na2vs0mg"},{"bike_id":"371e626c-e80f-4575-8bff-d2d42819a6aa","system_id":"levelo_inurba_marseille","lat":43.2803,"lon":5.36945,"is_reserved":false,"is_disabled":false,"rental_uris":{"android":"levelo://app?vid=371e626c-e80f-4575-8bff-d2d42819a6aa","ios":"levelo://app?vid=371e626c-e80f-4575-8bff-d2d42819a6aa"},"vehicle_type_id":"4","last_reported":1746299255,"current_range_meters":20000,"station_id":"ce4bha12rcd13ifvqef0","pricing_plan_id":"cebpf4jnsgd1na2vs0mg"},{"bike_id":"f4710a20-84e9-49fd-baf2-c400c3f75938","system_id":"levelo_inurba_marseille","lat":43.25498,"lon":5.37648,"is_reserved":false,"is_disabled":false,"rental_uris":{"android":"levelo://app?vid=f4710a20-84e9-49fd-baf2-c400c3f75938","ios":"levelo://app?vid=f4710a20-84e9-49fd-baf2-c400c3f75938"},"vehicle_type_id":"4","last_reported":1746299255,"current_range_meters":20000,"station_id":"ce4bhh12rcd13ifvqff0","pricing_plan_id":"cebpf4jnsgd1na2vs0mg"},{"bike_id":"0138f428-ce92-4d42-bc93-f099e0cc109a","system_id":"levelo_inurba_marseille","lat":43.29277,"lon":5.36848,"is_reserved":false,"is_disabled":false,"rental_uris":{"android":"levelo://app?vid=0138f428-ce92-4d42-bc93-f099e0cc109a","ios":"levelo://app?vid=0138f428-ce92-4d42-bc93-f099e0cc109a"},"vehicle_type_id":"4","last_reported":1746299255,"current_range_meters":20000,"station_id":"ce4bhbp2rcd13ifvqesg","pricing_plan_id":"cebpf4jnsgd1na2vs0mg"},{"bike_id":"f2666983-0a85-4abf-9cb2-86e1c21bd069","system_id":"levelo_inurba_marseille","lat":43.304339,"lon":5.397408,"is_reserved":false,"is_disabled":false,"rental_uris":{"android":"levelo://app?vid=f2666983-0a85-4abf-9cb2-86e1c21bd069","ios":"levelo://app?vid=f2666983-0a85-4abf-9cb2-86e1c21bd069"},"vehicle_type_id":"4","last_reported":1746299255,"current_range_meters":20000,"station_id":"ce4bh092rcd13ifvqd20","pricing_plan_id":"cebpf4jnsgd1na2vs0mg"},{"bike_id":"f48f7a28-5544-47fd-872c-5b21439fd533","system_id":"levelo_inurba_marseille","lat":43.32056,"lon":5.41547,"is_reserved":false,"is_disabled":false,"rental_uris":{"android":"levelo://app?vid=f48f7a28-5544-47fd-872c-5b21439fd533","ios":"levelo://app?vid=f48f7a28-5544-47fd-872c-5b21439fd533"},"vehicle_type_id":"4","last_reported":1746299255,"current_range_meters":20000,"station_id":"ce4bhq92rcd13ifvqhkg","pricing_plan_id":"cebpf4jnsgd1na2vs0mg"},{"bike_id":"ff5066dd-09e2-48cf-800c-0735da908bcb","system_id":"levelo_inurba_marseille","lat":43.3043,"lon":5.38892,"is_reserved":false,"is_disabled":false,"rental_uris":{"android":"levelo://app?vid=ff5066dd-09e2-48cf-800c-0735da908bcb","ios":"levelo://app?vid=ff5066dd-09e2-48cf-800c-0735da908bcb"},"vehicle_type_id":"4","last_reported":1746299255,"current_range_meters":20400,"station_id":"ce4bgk12rcd13ifvqbi0","pricing_plan_id":"cebpf4jnsgd1na2vs0mg"},{"bike_id":"fcb50464-1863-43ff-b90b-2f86db98dd0a","system_id":"levelo_inurba_marseille","lat":43.23963,"lon":5.36633,"is_reserved":false,"is_disabled":false,"rental_uris":{"android":"levelo://app?vid=fcb50464-1863-43ff-b90b-2f86db98dd0a","ios":"levelo://app?vid=fcb50464-1863-43ff-b90b-2f86db98dd0a"},"vehicle_type_id":"4","last_reported":1746299255,"current_range_meters":20000,"station_id":"ce4bhi12rcd13ifvqfp0","pricing_plan_id":"cebpf4jnsgd1na2vs0mg"},{"bike_id":"cef4fb9c-2cce-44b8-a4dc-1a76affeeb57","system_id":"levelo_inurba_marseille","lat":43.29554,"lon":5.42266,"is_reserved":false,"is_disabled":false,"rental_uris":{"android":"levelo://app?vid=cef4fb9c-2cce-44b8-a4dc-1a76affeeb57","ios":"levelo://app?vid=cef4fb9c-2cce-44b8-a4dc-1a76affeeb57"},"vehicle_type_id":"4","last_reported":1746299255,"current_range_meters":20400,"station_id":"ce4bhph2rcd13ifvqhdg","pricing_plan_id":"cebpf4jnsgd1na2vs0mg"},{"bike_id":"f0f49dd9-59ab-4b17-8f2a-544bce22427b","system_id":"levelo_inurba_marseille","lat":43.26944,"lon":5.3863,"is_reserved":false,"is_disabled":false,"rental_uris":{"android":"levelo://app?vid=f0f49dd9-59ab-4b17-8f2a-544bce22427b","ios":"levelo://app?vid=f0f49dd9-59ab-4b17-8f2a-544bce22427b"},"vehicle_type_id":"4","last_reported":1746299255,"current_range_meters":20400,"station_id":"ce4bhh92rcd13ifvqfh0","pricing_plan_id":"cebpf4jnsgd1na2vs0mg"},{"bike_id":"180832de-4550-411c-b48a-cba12177cda8","system_id":"levelo_inurba_marseille","lat":43.23166,"lon":5.356,"is_reserved":false,"is_disabled":false,"rental_uris":{"android":"levelo://app?vid=180832de-4550-411c-b48a-cba12177cda8","ios":"levelo://app?vid=180832de-4550-411c-b48a-cba12177cda8"},"vehicle_type_id":"4","last_reported":1746299255,"current_range_meters":20400,"station_id":"ce4bhu92rcd13ifvqi70","pricing_plan_id":"cebpf4jnsgd1na2vs0mg"},{"bike_id":"0abe7365-362a-4c2d-949a-e32faf9d4099","system_id":"levelo_inurba_marseille","lat":43.211924,"lon":5.350846,"is_reserved":false,"is_disabled":true,"rental_uris":{"android":"levelo://app?vid=0abe7365-362a-4c2d-949a-e32faf9d4099","ios":"levelo://app?vid=0abe7365-362a-4c2d-949a-e32faf9d4099"},