{"last_updated":1743106225,"ttl":60,"version":"2.2","data":{"bikes":[{"bike_id":"13913495-f3c7-41b0-81b8-44dc93dc2d73","system_id":"levelo_inurba_marseille","lat":43.290236,"lon":5.386532,"is_reserved":false,"is_disabled":false,"rental_uris":{"android":"levelo://app?vid=13913495-f3c7-41b0-81b8-44dc93dc2d73","ios":"levelo://app?vid=13913495-f3c7-41b0-81b8-44dc93dc2d73"},"vehicle_type_id":"4","last_reported":1743106225,"current_range_meters":2800,"station_id":"ce4bh4p2rcd13ifvqe0g","pricing_plan_id":"cebpf4jnsgd1na2vs0mg"},{"bike_id":"1e0b2636-48a1-4292-92c0-73b807651a12","system_id":"levelo_inurba_marseille","lat":43.289703,"lon":5.37838,"is_reserved":false,"is_disabled":false,"rental_uris":{"android":"levelo://app?vid=1e0b2636-48a1-4292-92c0-73b807651a12","ios":"levelo://app?vid=1e0b2636-48a1-4292-92c0-73b807651a12"},"vehicle_type_id":"4","last_reported":1743106225,"current_range_meters":2800,"station_id":"ce4bgip2rcd13ifvqbb0","pricing_plan_id":"cebpf4jnsgd1na2vs0mg"},{"bike_id":"01b7a3e9-0dab-4c73-a7c5-7e899101b89b","system_id":"levelo_inurba_marseille","lat":43.292617,"lon":5.384472,"is_reserved":false,"is_disabled":false,"rental_uris":{"android":"levelo://app?vid=01b7a3e9-0dab-4c73-a7c5-7e899101b89b","ios":"levelo://app?vid=01b7a3e9-0dab-4c73-a7c5-7e899101b89b"},"vehicle_type_id":"4","last_reported":1743106225,"current_range_meters":2800,"station_id":"ce4bh692rcd13ifvqea0","pricing_plan_id":"cebpf4jnsgd1na2vs0mg"},{"bike_id":"ed5feef2-1576-4630-8c28-ff6339a0a1c0","system_id":"levelo_inurba_marseille","lat":43.27944,"lon":5.41038,"is_reserved":false,"is_disabled":false,"rental_uris":{"android":"levelo://app?vid=ed5feef2-1576-4630-8c28-ff6339a0a1c0","ios":"levelo://app?vid=ed5feef2-1576-4630-8c28-ff6339a0a1c0"},"vehicle_type_id":"4","last_reported":1743106225,"current_range_meters":2800,"station_id":"ce4bhnp2rcd13ifvqh0g","pricing_plan_id":"cebpf4jnsgd1na2vs0mg"},{"bike_id":"9c5f70f8-36af-411e-b2f4-26c8829ee7f0","system_id":"levelo_inurba_marseille","lat":43.27813,"lon":5.40726,"is_reserved":false,"is_disabled":false,"rental_uris":{"android":"levelo://app?vid=9c5f70f8-36af-411e-b2f4-26c8829ee7f0","ios":"levelo://app?vid=9c5f70f8-36af-411e-b2f4-26c8829ee7f0"},"vehicle_type_id":"4","last_reported":1743106225,"current_range_meters":2800,"station_id":"ce4bhnh2rcd13ifvqgtg","pricing_plan_id":"cebpf4jnsgd1na2vs0mg"},{"bike_id":"a448a034-ca72-4668-aad2-e672284fb259","system_id":"levelo_inurba_marseille","lat":43.29169,"lon":5.37149,"is_reserved":false,"is_disabled":false,"rental_uris":{"android":"levelo://app?vid=a448a034-ca72-4668-aad2-e672284fb259","ios":"levelo://app?vid=a448a034-ca72-4668-aad2-e672284fb259"},"vehicle_type_id":"4","last_reported":1743106225,"current_range_meters":3200,"station_id":"ce4bha92rcd13ifvqeh0","pricing_plan_id":"cebpf4jnsgd1na2vs0mg"},{"bike_id":"3d81f6da-fe9d-4934-ad4c-1141e1eecd92","system_id":"levelo_inurba_marseille","lat":43.24156,"lon":5.36397,"is_reserved":false,"is_disabled":true,"rental_uris":{"android":"levelo://app?vid=3d81f6da-fe9d-4934-ad4c-1141e1eecd92","ios":"levelo://app?vid=3d81f6da-fe9d-4934-ad4c-1141e1eecd92"},"vehicle_type_id":"4","last_reported":1743106225,"current_range_meters":3200,"station_id":"cpo36qri1sfpv3e86is0","pricing_plan_id":"cebpf4jnsgd1na2vs0mg"},{"bike_id":"bfdab643-bd9f-46a0-81d4-69b532ff9606","system_id":"levelo_inurba_marseille","lat":43.30553,"lon":5.36711,"is_reserved":false,"is_disabled":false,"rental_uris":{"android":"levelo://app?vid=bfdab643-bd9f-46a0-81d4-69b532ff9606","ios":"levelo://app?vid=bfdab643-bd9f-46a0-81d4-69b532ff9606"},"vehicle_type_id":"4","last_reported":1743106225,"current_range_meters":3200,"station_id":"ce4bgrp2rcd13ifvqc9g","pricing_plan_id":"cebpf4jnsgd1na2vs0mg"},{"bike_id":"95c96f78-7a13-4877-b261-67fd6918fad7","system_id":"levelo_inurba_marseille","lat":43.315326,"lon":5.388334,"is_reserved":false,"is_disabled":true,"rental_uris":{"android":"levelo://app?vid=95c96f78-7a13-4877-b261-67fd6918fad7","ios":"levelo://app?vid=95c96f78-7a13-4877-b261-67fd6918fad7"},"vehicle_type_id":"4","last_reported":1743106225,"current_range_meters":3200,"station_id":"","pricing_plan_id":"cebpf4jnsgd1na2vs0mg"},{"bike_id":"ad7ee5ea-47aa-4fba-a6e9-8ed5f51df03b","system_id":"levelo_inurba_marseille","lat":43.25105,"lon":5.4033,"is_reserved":false,"is_disabled":false,"rental_uris":{"android":"levelo://app?vid=ad7ee5ea-47aa-4fba-a6e9-8ed5f51df03b","ios":"levelo://app?vid=ad7ee5ea-47aa-4fba-a6e9-8ed5f51df03b"},"vehicle_type_id":"4","last_reported":1743106225,"current_range_meters":3200,"station_id":"ce4bhlh2rcd13ifvqgig","pricing_plan_id":"cebpf4jnsgd1na2vs0mg"},{"bike_id":"80272880-a66a-42db-be54-a31de1dff4fa","system_id":"levelo_inurba_marseille","lat":43.29515,"lon":5.3941,"is_reserved":false,"is_disabled":false,"rental_uris":{"android":"levelo://app?vid=80272880-a66a-42db-be54-a31de1dff4fa","ios":"levelo://app?vid=80272880-a66a-42db-be54-a31de1dff4fa"},"vehicle_type_id":"4","last_reported":1743106225,"current_range_meters":3600,"station_id":"ce4bh292rcd13ifvqdf0","pricing_plan_id":"cebpf4jnsgd1na2vs0mg"},{"bike_id":"059770ed-32b5-4200-8130-e7cd968295b2","system_id":"levelo_inurba_marseille","lat":43.29607,"lon":5.38103,"is_reserved":false,"is_disabled":false,"rental_uris":{"android":"levelo://app?vid=059770ed-32b5-4200-8130-e7cd968295b2","ios":"levelo://app?vid=059770ed-32b5-4200-8130-e7cd968295b2"},"vehicle_type_id":"4","last_reported":1743106225,"current_range_meters":3600,"station_id":"ce4bgl12rcd13ifvqbo0","pricing_plan_id":"cebpf4jnsgd1na2vs0mg"},{"bike_id":"b501e66c-90dc-42b8-920a-de3982ca9ad9","system_id":"levelo_inurba_marseille","lat":43.25486,"lon":5.37697,"is_reserved":false,"is_disabled":true,"rental_uris":{"android":"levelo://app?vid=b501e66c-90dc-42b8-920a-de3982ca9ad9","ios":"levelo://app?vid=b501e66c-90dc-42b8-920a-de3982ca9ad9"},"vehicle_type_id":"4","last_reported":1743106225,"current_range_meters":3600,"station_id":"ce4bhh12rcd13ifvqff0","pricing_plan_id":"cebpf4jnsgd1na2vs0mg"},{"bike_id":"9f686b7f-1026-48b4-87f5-6432105e8660","system_id":"levelo_inurba_marseille","lat":43.323621,"lon":5.38893,"is_reserved":false,"is_disabled":false,"rental_uris":{"android":"levelo://app?vid=9f686b7f-1026-48b4-87f5-6432105e8660","ios":"levelo://app?vid=9f686b7f-1026-48b4-87f5-6432105e8660"},"vehicle_type_id":"4","last_reported":1743106225,"current_range_meters":3600,"station_id":"ce4bhqp2rcd13ifvqhog","pricing_plan_id":"cebpf4jnsgd1na2vs0mg"},{"bike_id":"bbc7fe32-4d62-4a77-8563-f7434ede5615","system_id":"levelo_inurba_marseille","lat":43.30326,"lon":5.40432,"is_reserved":false,"is_disabled":false,"rental_uris":{"android":"levelo://app?vid=bbc7fe32-4d62-4a77-8563-f7434ede5615","ios":"levelo://app?vid=bbc7fe32-4d62-4a77-8563-f7434ede5615"},"vehicle_type_id":"4","last_reported":1743106225,"current_range_meters":3600,"station_id":"ce4bh012rcd13ifvqd10","pricing_plan_id":"cebpf4jnsgd1na2vs0mg"},{"bike_id":"f9e7611d-8fd9-46c6-9369-a81a953df850","system_id":"levelo_inurba_marseille","lat":43.28855,"lon":5.39302,"is_reserved":false,"is_disabled":false,"rental_uris":{"android":"levelo://app?vid=f9e7611d-8fd9-46c6-9369-a81a953df850","ios":"levelo://app?vid=f9e7611d-8fd9-46c6-9369-a81a953df850"},"vehicle_type_id":"4","last_reported":1743106225,"current_range_meters":3600,"station_id":"ce4bh2p2rcd13ifvqdi0","pricing_plan_id":"cebpf4jnsgd1na2vs0mg"},{"bike_id":"ba1a071f-b8c4-40f9-a240-8f763b3cb46a","system_id":"levelo_inurba_marseille","lat":43.29909,"lon":5.3815,"is_reserved":false,"is_disabled":false,"rental_uris":{"android":"levelo://app?vid=ba1a071f-b8c4-40f9-a240-8f763b3cb46a","ios":"levelo://app?vid=ba1a071f-b8c4-40f9-a240-8f763b3cb46a"},"vehicle_type_id":"4","last_reported":1743106225,"current_range_meters":3600,"station_id":"ce4bgj12rcd13ifvqbc0","pricing_plan_id":"cebpf4jnsgd1na2vs0mg"},{"bike_id":"5e187ad1-bb14-42e5-8f54-b13a2f1781e9","system_id":"levelo_inurba_marseille","lat":43.29253,"lon":5.38467,"is_reserved":false,"is_disabled":false,"rental_uris":{"android":"levelo://app?vid=5e187ad1-bb14-42e5-8f54-b13a2f1781e9","ios":"levelo://app?vid=5e187ad1-bb14-42e5-8f54-b13a2f1781e9"},"vehicle_type_id":"4","last_reported":1743106225,"current_range_meters":4000,"station_id":"ce4bh692rcd13ifvqea0","pricing_plan_id":"cebpf4jnsgd1na2vs0mg"},{"bike_id":"a3e6f248-b75b-40dc-9ce0-a569e7377691","system_id":"levelo_inurba_marseille","lat":43.25913,"lon":5.40904,"is_reserved":false,"is_disabled":true,"rental_uris":{"android":"levelo://app?vid=a3e6f248-b75b-40dc-9ce0-a569e7377691","ios":"levelo://app?vid=a3e6f248-b75b-40dc-9ce0-a569e7377691"},"vehicle_type_id":"4","last_reported":1743106225,"current_range_meters":4000,"station_id":"ce4bhm92rcd13ifvqglg","pricing_plan_id":"cebpf4jnsgd1na2vs0mg"},{"bike_id":"f02d017a-6cec-4604-b9a5-cd554923eab2","system_id":"levelo_inurba_marseille","lat":43.29818,"lon":5.42112,"is_reserved":false,"is_disabled":false,"rental_uris":{"android":"levelo://app?vid=f02d017a-6cec-4604-b9a5-cd554923eab2","ios":"levelo://app?vid=f02d017a-6cec-4604-b9a5-cd554923eab2"},"vehicle_type_id":"4","last_reported":1743106225,"current_range_meters":4000,"station_id":"","pricing_plan_id":"cebpf4jnsgd1na2vs0mg"},{"bike_id":"04ef0bef-929a-4b8b-9739-75c6487f9c9a","system_id":"levelo_inurba_marseille","lat":43.27554,"lon":5.38434,"is_reserved":false,"is_disabled":false,"rental_uris":{"android":"levelo://app?vid=04ef0bef-929a-4b8b-9739-75c6487f9c9a","ios":"levelo://app?vid=04ef0bef-929a-4b8b-9739-75c6487f9c9a"},"vehicle_type_id":"4","last_reported":1743106225,"current_range_meters":4000,"station_id":"ce4bhh92rcd13ifvqfi0","pricing_plan_id":"cebpf4jnsgd1na2vs0mg"},{"bike_id":"ed141bda-5a1d-4a01-94bb-9a69072a8eb8","system_id":"levelo_inurba_marseille","lat":43.31484,"lon":5.37302,"is_reserved":false,"is_disabled":false,"rental_uris":{"android":"levelo://app?vid=ed141bda-5a1d-4a01-94bb-9a69072a8eb8","ios":"levelo://app?vid=ed141bda-5a1d-4a01-94bb-9a69072a8eb8"},"vehicle_type_id":"4","last_reported":1743106225,"current_range_meters":4000,"station_id":"ce4bgt12rcd13ifvqcd0","pricing_plan_id":"cebpf4jnsgd1na2vs0mg"},{"bike_id":"e6ac144d-f002-43e7-afe4-0ea576ad9029","system_id":"levelo_inurba_marseille","lat":43.30925,"lon":5.40138,"is_reserved":false,"is_disabled":false,"rental_uris":{"android":"levelo://app?vid=e6ac144d-f002-43e7-afe4-0ea576ad9029","ios":"levelo://app?vid=e6ac144d-f002-43e7-afe4-0ea576ad9029"},"vehicle_type_id":"4","last_reported":1743106225,"current_range_meters":4000,"station_id":"ce4bgvp2rcd13ifvqct0","pricing_plan_id":"cebpf4jnsgd1na2vs0mg"},{"bike_id":"80148325-774b-4d6e-8d54-68c62dcf03be","system_id":"levelo_inurba_marseille","lat":43.26953,"lon":5.38633,"is_reserved":false,"is_disabled":false,"rental_uris":{"android":"levelo://app?vid=80148325-774b-4d6e-8d54-68c62dcf03be","ios":"levelo://app?vid=80148325-774b-4d6e-8d54-68c62dcf03be"},"vehicle_type_id":"4","last_reported":1743106225,"current_range_meters":4000,"station_id":"ce4bhh92rcd13ifvqfh0","pricing_plan_id":"cebpf4jnsgd1na2vs0mg"},{"bike_id":"c47897e8-1e22-4944-98d8-05be45d80bc8","system_id":"levelo_inurba_marseille","lat":43.27809,"lon":5.40714,"is_reserved":false,"is_disabled":false,"rental_uris":{"android":"levelo://app?vid=c47897e8-1e22-4944-98d8-05be45d80bc8","ios":"levelo://app?vid=c47897e8-1e22-4944-98d8-05be45d80bc8"},"vehicle_type_id":"4","last_reported":1743106225,"current_range_meters":4000,"station_id":"ce4bhnh2rcd13ifvqgtg","pricing_plan_id":"cebpf4jnsgd1na2vs0mg"},{"bike_id":"8929a286-0058-4b4e-95ea-b661e9420306","system_id":"levelo_inurba_marseille","lat":43.27072,"lon":5.42284,"is_reserved":false,"is_disabled":false,"rental_uris":{"android":"levelo://app?vid=8929a286-0058-4b4e-95ea-b661e9420306","ios":"levelo://app?vid=8929a286-0058-4b4e-95ea-b661e9420306"},"vehicle_type_id":"4","last_reported":1743106225,"current_range_meters":4400,"station_id":"ce4bhk92rcd13ifvqgb0","pricing_plan_id":"cebpf4jnsgd1na2vs0mg"},{"bike_id":"182f783f-43c3-43f2-afd7-809b44fc84c0","system_id":"levelo_inurba_marseille","lat":43.302136,"lon":5.3948,"is_reserved":false,"is_disabled":false,"rental_uris":{"android":"levelo://app?vid=182f783f-43c3-43f2-afd7-809b44fc84c0","ios":"levelo://app?vid=182f783f-43c3-43f2-afd7-809b44fc84c0"},"vehicle_type_id":"4","last_reported":1743106225,"current_range_meters":4400,"station_id":"ce4bh0p2rcd13ifvqd70","pricing_plan_id":"cebpf4jnsgd1na2vs0mg"},{"bike_id":"41912346-dfae-4e74-8a5d-084676e74213","system_id":"levelo_inurba_marseille","lat":43.26491,"lon":5.39537,"is_reserved":false,"is_disabled":false,"rental_uris":{"android":"levelo://app?vid=41912346-dfae-4e74-8a5d-084676e74213","ios":"levelo://app?vid=41912346-dfae-4e74-8a5d-084676e74213"},"vehicle_type_id":"4","last_reported":1743106225,"current_range_meters":4400,"station_id":"ce4bhi12rcd13ifvqfq0","pricing_plan_id":"cebpf4jnsgd1na2vs0mg"},{"bike_id":"1dd765a9-64b4-439c-a196-df55419cc971","system_id":"levelo_inurba_marseille","lat":43.2416,"lon":5.364,"is_reserved":false,"is_disabled":false,"rental_uris":{"android":"levelo://app?vid=1dd765a9-64b4-439c-a196-df55419cc971","ios":"levelo://app?vid=1dd765a9-64b4-439c-a196-df55419cc971"},"vehicle_type_id":"4","last_reported":1743106225,"current_range_meters":4400,"station_id":"cpo36qri1sfpv3e86is0","pricing_plan_id":"cebpf4jnsgd1na2vs0mg"},{"bike_id":"846d5318-adf1-4605-b16d-245a6a74ae14","system_id":"levelo_inurba_marseille","lat":43.29161,"lon":5.37152,"is_reserved":false,"is_disabled":false,"rental_uris":{"android":"levelo://app?vid=846d5318-adf1-4605-b16d-245a6a74ae14","ios":"levelo://app?vid=846d5318-adf1-4605-b16d-245a6a74ae14"},"vehicle_type_id":"4","last_reported":1743106225,"current_range_meters":4400,"station_id":"ce4bha92rcd13ifvqeh0","pricing_plan_id":"cebpf4jnsgd1na2vs0mg"},{"bike_id":"f639ec0b-ed1e-41fb-8420-26b500df4945","system_id":"levelo_inurba_marseille","lat":43.29781,"lon":5.39353,"is_reserved":false,"is_disabled":false,"rental_uris":{"android":"levelo://app?vid=f639ec0b-ed1e-41fb-8420-26b500df4945","ios":"levelo://app?vid=f639ec0b-ed1e-41fb-8420-26b500df4945"},"vehicle_type_id":"4","last_reported":1743106225,"current_range_meters":4400,"station_id":"chh1huq6cuj3fo74tm60","pricing_plan_id":"cebpf4jnsgd1na2vs0mg"},{"bike_id":"340f6acd-abff-4c42-b787-729e898e11ab","system_id":"levelo_inurba_marseille","lat":43.29518,"lon":5.39051,"is_reserved":false,"is_disabled":false,"rental_uris":{"android":"levelo://app?vid=340f6acd-abff-4c42-b787-729e898e11ab","ios":"levelo://app?vid=340f6acd-abff-4c42-b787-729e898e11ab"},"vehicle_type_id":"4","last_reported":1743106225,"current_range_meters":4800,"station_id":"ce4bh3p2rcd13ifvqdp0","pricing_plan_id":"cebpf4jnsgd1na2vs0mg"},{"bike_id":"350d9766-1d9c-4151-9b68-41087f8d763a","system_id":"levelo_inurba_marseille","lat":43.29606,"lon":5.38097,"is_reserved":false,"is_disabled":false,"rental_uris":{"android":"levelo://app?vid=350d9766-1d9c-4151-9b68-41087f8d763a","ios":"levelo://app?vid=350d9766-1d9c-4151-9b68-41087f8d763a"},"vehicle_type_id":"4","last_reported":1743106225,"current_range_meters":4800,"station_id":"ce4bgl12rcd13ifvqbo0","pricing_plan_id":"cebpf4jnsgd1na2vs0mg"},{"bike_id":"26e18991-3dd1-4e01-82f6-8bfde08de71c","system_id":"levelo_inurba_marseille","lat":43.28928,"lon":5.38396,"is_reserved":false,"is_disabled":false,"rental_uris":{"android":"levelo://app?vid=26e18991-3dd1-4e01-82f6-8bfde08de71c","ios":"levelo://app?vid=26e18991-3dd1-4e01-82f6-8bfde08de71c"},"vehicle_type_id":"4","last_reported":1743106225,"current_range_meters":4800,"station_id":"ce4bh612rcd13ifvqe6g","pricing_plan_id":"cebpf4jnsgd1na2vs0mg"},{"bike_id":"1aeb8658-bc9e-4103-9bef-7f7d91e79095","system_id":"levelo_inurba_marseille","lat":43.29431,"lon":5.38625,"is_reserved":false,"is_disabled":false,"rental_uris":{"android":"levelo://app?vid=1aeb8658-bc9e-4103-9bef-7f7d91e79095","ios":"levelo://app?vid=1aeb8658-bc9e-4103-9bef-7f7d91e79095"},"vehicle_type_id":"4","last_reported":1743106225,"current_range_meters":4800,"station_id":"ce4bh2h2rcd13ifvqdh0","pricing_plan_id":"cebpf4jnsgd1na2vs0mg"},{"bike_id":"f2704b9c-c316-4f5f-9155-65f7581186ce","system_id":"levelo_inurba_marseille","lat":43.28033,"lon":5.36937,"is_reserved":false,"is_disabled":false,"rental_uris":{"android":"levelo://app?vid=f2704b9c-c316-4f5f-9155-65f7581186ce","ios":"levelo://app?vid=f2704b9c-c316-4f5f-9155-65f7581186ce"},"vehicle_type_id":"4","last_reported":1743106225,"current_range_meters":4800,"station_id":"ce4bha12rcd13ifvqef0","pricing_plan_id":"cebpf4jnsgd1na2vs0mg"},{"bike_id":"af51287e-63c1-467e-8ff0-322acdd9abdf","system_id":"levelo_inurba_marseille","lat":43.28614,"lon":5.35104,"is_reserved":false,"is_disabled":false,"rental_uris":{"android":"levelo://app?vid=af51287e-63c1-467e-8ff0-322acdd9abdf","ios":"levelo://app?vid=af51287e-63c1-467e-8ff0-322acdd9abdf"},"vehicle_type_id":"4","last_reported":1743106225,"current_range_meters":5600,"station_id":"ce4bhch2rcd13ifvqeug","pricing_plan_id":"cebpf4jnsgd1na2vs0mg"},{"bike_id":"841a4c8d-cdfc-4997-b7a1-54747941ff94","system_id":"levelo_inurba_marseille","lat":43.30297,"lon":5.3921,"is_reserved":false,"is_disabled":false,"rental_uris":{"android":"levelo://app?vid=841a4c8d-cdfc-4997-b7a1-54747941ff94","ios":"levelo://app?vid=841a4c8d-cdfc-4997-b7a1-54747941ff94"},"vehicle_type_id":"4","last_reported":1743106225,"current_range_meters":5600,"station_id":"ce4bgkh2rcd13ifvqbk0","pricing_plan_id":"cebpf4jnsgd1na2vs0mg"},{"bike_id":"4d29673d-54e7-48d2-9c9f-1d02cf66fc24","system_id":"levelo_inurba_marseille","lat":43.28611,"lon":5.38445,"is_reserved":false,"is_disabled":false,"rental_uris":{"android":"levelo://app?vid=4d29673d-54e7-48d2-9c9f-1d02cf66fc24","ios":"levelo://app?vid=4d29673d-54e7-48d2-9c9f-1d02cf66fc24"},"vehicle_type_id":"4","last_reported":1743106225,"current_range_meters":5600,"station_id":"","pricing_plan_id":"cebpf4jnsgd1na2vs0mg"},{"bike_id":"1d4ce7a4-be1f-4664-ace4-4cc5aab3f9fe","system_id":"levelo_inurba_marseille","lat":43.33021,"lon":5.39036,"is_reserved":false,"is_disabled":false,"rental_uris":{"android":"levelo://app?vid=1d4ce7a4-be1f-4664-ace4-4cc5aab3f9fe","ios":"levelo://app?vid=1d4ce7a4-be1f-4664-ace4-4cc5aab3f9fe"},"vehicle_type_id":"4","last_reported":1743106225,"current_range_meters":5600,"station_id":"ce4bhr92rcd13ifvqhrg","pricing_plan_id":"cebpf4jnsgd1na2vs0mg"},{"bike_id":"56bb3ee9-3336-4a80-bf19-a69b1032022e","system_id":"levelo_inurba_marseille","lat":43.28469,"lon":5.35879,"is_reserved":false,"is_disabled":false,"rental_uris":{"android":"levelo://app?vid=56bb3ee9-3336-4a80-bf19-a69b1032022e","ios":"levelo://app?vid=56bb3ee9-3336-4a80-bf19-a69b1032022e"},"vehicle_type_id":"4","last_reported":1743106225,"current_range_meters":5600,"station_id":"ce4bhah2rcd13ifvqei0","pricing_plan_id":"cebpf4jnsgd1na2vs0mg"},{"bike_id":"711d8bfb-b26d-4e99-9181-d5a5b39b593b","system_id":"levelo_inurba_marseille","lat":43.29633,"lon":5.40639,"is_reserved":false,"is_disabled":false,"rental_uris":{"android":"levelo://app?vid=711d8bfb-b26d-4e99-9181-d5a5b39b593b","ios":"levelo://app?vid=711d8bfb-b26d-4e99-9181-d5a5b39b593b"},"vehicle_type_id":"4","last_reported":1743106225,"current_range_meters":5600,"station_id":"ce4bh0h2rcd13ifvqd60","pricing_plan_id":"cebpf4jnsgd1na2vs0mg"},{"bike_id":"71c060c5-a4c9-4314-bf06-e81f40f623f8","system_id":"levelo_inurba_marseille","lat":43.29895,"lon":5.43669,"is_reserved":false,"is_disabled":false,"rental_uris":{"android":"levelo://app?vid=71c060c5-a4c9-4314-bf06-e81f40f623f8","ios":"levelo://app?vid=71c060c5-a4c9-4314-bf06-e81f40f623f8"},"vehicle_type_id":"4","last_reported":1743106225,"current_range_meters":5600,"station_id":"ce4bhpp2rcd13ifvqhfg","pricing_plan_id":"cebpf4jnsgd1na2vs0mg"},{"bike_id":"066ef031-3ee6-4cd8-8dd7-54877c760f93","system_id":"levelo_inurba_marseille","lat":43.294159,"lon":5.386149,"is_reserved":false,"is_disabled":false,"rental_uris":{"android":"levelo://app?vid=066ef031-3ee6-4cd8-8dd7-54877c760f93","ios":"levelo://app?vid=066ef031-3ee6-4cd8-8dd7-54877c760f93"},"vehicle_type_id":"4","last_reported":1743106225,"current_range_meters":5600,"station_id":"","pricing_plan_id":"cebpf4jnsgd1na2vs0mg"},{"bike_id":"70e6a3d5-5579-44fa-9ac9-f264566fc753","system_id":"levelo_inurba_marseille","lat":43.295319,"lon":5.38558,"is_reserved":false,"is_disabled":false,"rental_uris":{"android":"levelo://app?vid=70e6a3d5-5579-44fa-9ac9-f264566fc753","ios":"levelo://app?vid=70e6a3d5-5579-44fa-9ac9-f264566fc753"},"vehicle_type_id":"4","last_reported":1743106225,"current_range_meters":5600,"station_id":"ce4bgih2rcd13ifvqba0","pricing_plan_id":"cebpf4jnsgd1na2vs0mg"},{"bike_id":"f8fa9bb2-2e64-4723-acae-e840971ab773","system_id":"levelo_inurba_marseille","lat":43.29273,"lon":5.38432,"is_reserved":false,"is_disabled":false,"rental_uris":{"android":"levelo://app?vid=f8fa9bb2-2e64-4723-acae-e840971ab773","ios":"levelo://app?vid=f8fa9bb2-2e64-4723-acae-e840971ab773"},"vehicle_type_id":"4","last_reported":1743106225,"current_range_meters":5600,"station_id":"ce4bh692rcd13ifvqea0","pricing_plan_id":"cebpf4jnsgd1na2vs0mg"},{"bike_id":"75e4c018-55c9-40b4-8fb8-f00361cb7dbc","system_id":"levelo_inurba_marseille","lat":43.29417,"lon":5.38635,"is_reserved":false,"is_disabled":false,"rental_uris":{"android":"levelo://app?vid=75e4c018-55c9-40b4-8fb8-f00361cb7dbc","ios":"levelo://app?vid=75e4c018-55c9-40b4-8fb8-f00361cb7dbc"},"vehicle_type_id":"4","last_reported":1743106225,"current_range_meters":5600,"station_id":"ce4bh2h2rcd13ifvqdh0","pricing_plan_id":"cebpf4jnsgd1na2vs0mg"},{"bike_id":"a9aaf565-9843-47f6-952c-1c0614b076e8","system_id":"levelo_inurba_marseille","lat":43.29003,"lon":5.37153,"is_reserved":false,"is_disabled":false,"rental_uris":{"android":"levelo://app?vid=a9aaf565-9843-47f6-952c-1c0614b076e8","ios":"levelo://app?vid=a9aaf565-9843-47f6-952c-1c0614b076e8"},"vehicle_type_id":"4","last_reported":1743106225,"current_range_meters":5600,"station_id":"","pricing_plan_id":"cebpf4jnsgd1na2vs0mg"},{"bike_id":"cb3c3b71-c0d3-43ce-bac4-7cd206790b31","system_id":"levelo_inurba_marseille","lat":43.31276,"lon":5.40171,"is_reserved":false,"is_disabled":false,"rental_uris":{"android":"levelo://app?vid=cb3c3b71-c0d3-43ce-bac4-7cd206790b31","ios":"levelo://app?vid=cb3c3b71-c0d3-43ce-bac4-7cd206790b31"},"vehicle_type_id":"4","last_reported":1743106225,"current_range_meters":5600,"station_id":"ce4bh092rcd13ifvqd30","pricing_plan_id":"cebpf4jnsgd1na2vs0mg"},{"bike_id":"1d82dbff-960b-48e5-a75f-2e69faba6d3e","system_id":"levelo_inurba_marseille","lat":43.23195,"lon":5.355574,"is_reserved":false,"is_disabled":false,"rental_uris":{"android":"levelo://app?vid=1d82dbff-960b-48e5-a75f-2e69faba6d3e","ios":"levelo://app?vid=1d82dbff-960b-48e5-a75f-2e69faba6d3e"},"vehicle_type_id":"4","last_reported":1743106225,"current_range_meters":5600,"station_id":"ce4bhu92rcd13ifvqi70","pricing_plan_id":"cebpf4jnsgd1na2vs0mg"},{"bike_id":"f33eb6d9-57b1-4611-a84c-f8721f46b329","system_id":"levelo_inurba_marseille","lat":43.296053,"lon":5.381098,"is_reserved":false,"is_disabled":false,"rental_uris":{"android":"levelo://app?vid=f33eb6d9-57b1-4611-a84c-f8721f46b329","ios":"levelo://app?vid=f33eb6d9-57b1-4611-a84c-f8721f46b329"},"vehicle_type_id":"4","last_reported":1743106225,"current_range_meters":5600,"station_id":"ce4bgl12rcd13ifvqbo0","pricing_plan_id":"cebpf4jnsgd1na2vs0mg"},{"bike_id":"be4f4aa9-5e9f-40a8-9083-327bbc9faa51","system_id":"levelo_inurba_marseille","lat":43.312895,"lon":5.38295,"is_reserved":false,"is_disabled":false,"rental_uris":{"android":"levelo://app?vid=be4f4aa9-5e9f-40a8-9083-327bbc9faa51","ios":"levelo://app?vid=be4f4aa9-5e9f-40a8-9083-327bbc9faa51"},"vehicle_type_id":"4","last_reported":1743106225,"current_range_meters":6000,"station_id":"","pricing_plan_id":"cebpf4jnsgd1na2vs0mg"},{"bike_id":"67d9faa9-0ae3-4a56-af9c-685c1bb529ef","system_id":"levelo_inurba_marseille","lat":43.292593,"lon":5.38434,"is_reserved":false,"is_disabled":false,"rental_uris":{"android":"levelo://app?vid=67d9faa9-0ae3-4a56-af9c-685c1bb529ef","ios":"levelo://app?vid=67d9faa9-0ae3-4a56-af9c-685c1bb529ef"},"vehicle_type_id":"4","last_reported":1743106225,"current_range_meters":6000,"station_id":"ce4bh692rcd13ifvqea0","pricing_plan_id":"cebpf4jnsgd1na2vs0mg"},{"bike_id":"3ffca5ca-4e70-455e-849a-91ab19c25945","system_id":"levelo_inurba_marseille","lat":43.2942,"lon":5.3862,"is_reserved":false,"is_disabled":false,"rental_uris":{"android":"levelo://app?vid=3ffca5ca-4e70-455e-849a-91ab19c25945","ios":"levelo://app?vid=3ffca5ca-4e70-455e-849a-91ab19c25945"},"vehicle_type_id":"4","last_reported":1743106225,"current_range_meters":6000,"station_id":"ce4bh2h2rcd13ifvqdh0","pricing_plan_id":"cebpf4jnsgd1na2vs0mg"},{"bike_id":"40bbfe93-bafa-4a64-acd3-4a43aa14afbb","system_id":"levelo_inurba_marseille","lat":43.30777,"lon":5.37654,"is_reserved":false,"is_disabled":false,"rental_uris":{"android":"levelo://app?vid=40bbfe93-bafa-4a64-acd3-4a43aa14afbb","ios":"levelo://app?vid=40bbfe93-bafa-4a64-acd3-4a43aa14afbb"},"vehicle_type_id":"4","last_reported":1743106225,"current_range_meters":6000,"station_id":"ce4bgv92rcd13ifvqcq0","pricing_plan_id":"cebpf4jnsgd1na2vs0mg"},{"bike_id":"c4dfc94f-9cd2-4ae8-8ff5-283273150cf6","system_id":"levelo_inurba_marseille","lat":43.31754,"lon":5.39018,"is_reserved":false,"is_disabled":false,"rental_uris":{"android":"levelo://app?vid=c4dfc94f-9cd2-4ae8-8ff5-283273150cf6","ios":"levelo://app?vid=c4dfc94f-9cd2-4ae8-8ff5-283273150cf6"},"vehicle_type_id":"4","last_reported":1743106225,"current_range_meters":6000,"station_id":"ce4bhqp2rcd13ifvqhng","pricing_plan_id":"cebpf4jnsgd1na2vs0mg"},{"bike_id":"02c6eb9d-77f4-4aaa-ab87-c9b01fd69c1e","system_id":"levelo_inurba_marseille","lat":43.24062,"lon":5.37759,"is_reserved":false,"is_disabled":false,"rental_uris":{"android":"levelo://app?vid=02c6eb9d-77f4-4aaa-ab87-c9b01fd69c1e","ios":"levelo://app?vid=02c6eb9d-77f4-4aaa-ab87-c9b01fd69c1e"},"vehicle_type_id":"4","last_reported":1743106225,"current_range_meters":6000,"station_id":"ce4bhnp2rcd13ifvqgvg","pricing_plan_id":"cebpf4jnsgd1na2vs0mg"},{"bike_id":"faf246f5-f054-4422-a22c-553159494777","system_id":"levelo_inurba_marseille","lat":43.29811,"lon":5.42125,"is_reserved":false,"is_disabled":false,"rental_uris":{"android":"levelo://app?vid=faf246f5-f054-4422-a22c-553159494777","ios":"levelo://app?vid=faf246f5-f054-4422-a22c-553159494777"},"vehicle_type_id":"4","last_reported":1743106225,"current_range_meters":6000,"station_id":"","pricing_plan_id":"cebpf4jnsgd1na2vs0mg"},{"bike_id":"5ab2cefc-01cd-4e8a-a56b-91c71a521b8c","system_id":"levelo_inurba_marseille","lat":43.28551,"lon":5.39485,"is_reserved":false,"is_disabled":false,"rental_uris":{"android":"levelo://app?vid=5ab2cefc-01cd-4e8a-a56b-91c71a521b8c","ios":"levelo://app?vid=5ab2cefc-01cd-4e8a-a56b-91c71a521b8c"},"vehicle_type_id":"4","last_reported":1743106225,"current_range_meters":6000,"station_id":"ce4bh292rcd13ifvqdg0","pricing_plan_id":"cebpf4jnsgd1na2vs0mg"},{"bike_id":"a9263403-ee6b-4873-ad94-4f6e234609f8","system_id":"levelo_inurba_marseille","lat":43.31688,"lon":5.40457,"is_reserved":false,"is_disabled":false,"rental_uris":{"android":"levelo://app?vid=a9263403-ee6b-4873-ad94-4f6e234609f8","ios":"levelo://app?vid=a9263403-ee6b-4873-ad94-4f6e234609f8"},"vehicle_type_id":"4","last_reported":1743106225,"current_range_meters":6000,"station_id":"ce4bh012rcd13ifvqd00","pricing_plan_id":"cebpf4jnsgd1na2vs0mg"},{"bike_id":"dc6b48c2-fc07-42f1-a2c9-18d5df519220","system_id":"levelo_inurba_marseille","lat":43.26499,"lon":5.39534,"is_reserved":false,"is_disabled":false,"rental_uris":{"android":"levelo://app?vid=dc6b48c2-fc07-42f1-a2c9-18d5df519220","ios":"levelo://app?vid=dc6b48c2-fc07-42f1-a2c9-18d5df519220"},"vehicle_type_id":"4","last_reported":1743106225,"current_range_meters":6000,"station_id":"ce4bhi12rcd13ifvqfq0","pricing_plan_id":"cebpf4jnsgd1na2vs0mg"},{"bike_id":"6165ca97-d152-4535-bb35-dd51f65c8b56","system_id":"levelo_inurba_marseille","lat":43.27823,"lon":5.40687,"is_reserved":false,"is_disabled":false,"rental_uris":{"android":"levelo://app?vid=6165ca97-d152-4535-bb35-dd51f65c8b56","ios":"levelo://app?vid=6165ca97-d152-4535-bb35-dd51f65c8b56"},"vehicle_type_id":"4","last_reported":1743106225,"current_range_meters":6400,"station_id":"ce4bhnh2rcd13ifvqgtg","pricing_plan_id":"cebpf4jnsgd1na2vs0mg"},{"bike_id":"795063b1-bbcb-4106-a9e7-6aa8fb383fb3","system_id":"levelo_inurba_marseille","lat":43.28147,"lon":5.42656,"is_reserved":false,"is_disabled":false,"rental_uris":{"android":"levelo://app?vid=795063b1-bbcb-4106-a9e7-6aa8fb383fb3","ios":"levelo://app?vid=795063b1-bbcb-4106-a9e7-6aa8fb383fb3"},"vehicle_type_id":"4","last_reported":1743106225,"current_range_meters":6400,"station_id":"ce4bhnh2rcd13ifvqgug","pricing_plan_id":"cebpf4jnsgd1na2vs0mg"},{"bike_id":"9909698b-2726-42ef-a75a-24e460d5e183","system_id":"levelo_inurba_marseille","lat":43.24546,"lon":5.39507,"is_reserved":false,"is_disabled":false,"rental_uris":{"android":"levelo://app?vid=9909698b-2726-42ef-a75a-24e460d5e183","ios":"levelo://app?vid=9909698b-2726-42ef-a75a-24e460d5e183"},"vehicle_type_id":"4","last_reported":1743106225,"current_range_meters":6400,"station_id":"ce4bhlp2rcd13ifvqgjg","pricing_plan_id":"cebpf4jnsgd1na2vs0mg"},{"bike_id":"85d0fa0c-b5b9-41cd-ba43-951901672dab","system_id":"levelo_inurba_marseille","lat":43.2563,"lon":5.39004,"is_reserved":false,"is_disabled":false,"rental_uris":{"android":"levelo://app?vid=85d0fa0c-b5b9-41cd-ba43-951901672dab","ios":"levelo://app?vid=85d0fa0c-b5b9-41cd-ba43-951901672dab"},"vehicle_type_id":"4","last_reported":1743106225,"current_range_meters":6400,"station_id":"","pricing_plan_id":"cebpf4jnsgd1na2vs0mg"},{"bike_id":"9b0db4f1-c6a1-4ca7-86c5-ec1daffe0ea2","system_id":"levelo_inurba_marseille","lat":43.25075,"lon":5.39513,"is_reserved":false,"is_disabled":false,"rental_uris":{"android":"levelo://app?vid=9b0db4f1-c6a1-4ca7-86c5-ec1daffe0ea2","ios":"levelo://app?vid=9b0db4f1-c6a1-4ca7-86c5-ec1daffe0ea2"},"vehicle_type_id":"4","last_reported":1743106225,"current_range_meters":6400,"station_id":"ce4bhm12rcd13ifvqgkg","pricing_plan_id":"cebpf4jnsgd1na2vs0mg"},{"bike_id":"745db27b-7d09-42e9-857e-1a3c13cd5302","system_id":"levelo_inurba_marseille","lat":43.2321,"lon":5.35509,"is_reserved":false,"is_disabled":false,"rental_uris":{"android":"levelo://app?vid=745db27b-7d09-42e9-857e-1a3c13cd5302","ios":"levelo://app?vid=745db27b-7d09-42e9-857e-1a3c13cd5302"},"vehicle_type_id":"4","last_reported":1743106225,"current_range_meters":6800,"station_id":"ce4bhu92rcd13ifvqi70","pricing_plan_id":"cebpf4jnsgd1na2vs0mg"},{"bike_id":"c6f1f35f-a7df-44dd-9a79-9a4444ffc8e6","system_id":"levelo_inurba_marseille","lat":43.31697,"lon":5.40472,"is_reserved":false,"is_disabled":false,"rental_uris":{"android":"levelo://app?vid=c6f1f35f-a7df-44dd-9a79-9a4444ffc8e6","ios":"levelo://app?vid=c6f1f35f-a7df-44dd-9a79-9a4444ffc8e6"},"vehicle_type_id":"4","last_reported":1743106225,"current_range_meters":6800,"station_id":"ce4bh012rcd13ifvqd00","pricing_plan_id":"cebpf4jnsgd1na2vs0mg"},{"bike_id":"c752cc87-456e-4134-9a44-62eff5dadbd0","system_id":"levelo_inurba_marseille","lat":43.27819,"lon":5.40696,"is_reserved":false,"is_disabled":false,"rental_uris":{"android":"levelo://app?vid=c752cc87-456e-4134-9a44-62eff5dadbd0","ios":"levelo://app?vid=c752cc87-456e-4134-9a44-62eff5dadbd0"},"vehicle_type_id":"4","last_reported":1743106225,"current_range_meters":6800,"station_id":"ce4bhnh2rcd13ifvqgtg","pricing_plan_id":"cebpf4jnsgd1na2vs0mg"},{"bike_id":"790f54ad-bf60-4cf5-828d-2ba60cd21568","system_id":"levelo_inurba_marseille","lat":43.28464,"lon":5.38424,"is_reserved":false,"is_disabled":false,"rental_uris":{"android":"levelo://app?vid=790f54ad-bf60-4cf5-828d-2ba60cd21568","ios":"levelo://app?vid=790f54ad-bf60-4cf5-828d-2ba60cd21568"},"vehicle_type_id":"4","last_reported":1743106225,"current_range_meters":6800,"station_id":"ce4bh512rcd13ifvqe3g","pricing_plan_id":"cebpf4jnsgd1na2vs0mg"},{"bike_id":"7b0d5215-971a-4184-8d1b-e7cb0d91c4b6","system_id":"levelo_inurba_marseille","lat":43.27823,"lon":5.40714,"is_reserved":false,"is_disabled":false,"rental_uris":{"android":"levelo://app?vid=7b0d5215-971a-4184-8d1b-e7cb0d91c4b6","ios":"levelo://app?vid=7b0d5215-971a-4184-8d1b-e7cb0d91c4b6"},"vehicle_type_id":"4","last_reported":1743106225,"current_range_meters":6800,"station_id":"ce4bhnh2rcd13ifvqgtg","pricing_plan_id":"cebpf4jnsgd1na2vs0mg"},{"bike_id":"84a7a785-5392-42bc-8088-fb903bcc7f5c","system_id":"levelo_inurba_marseille","lat":43.23063,"lon":5.35505,"is_reserved":false,"is_disabled":false,"rental_uris":{"android":"levelo://app?vid=84a7a785-5392-42bc-8088-fb903bcc7f5c","ios":"levelo://app?vid=84a7a785-5392-42bc-8088-fb903bcc7f5c"},"vehicle_type_id":"4","last_reported":1743106225,"current_range_meters":6800,"station_id":"cpo3342slgdg3j2ifvpg","pricing_plan_id":"cebpf4jnsgd1na2vs0mg"},{"bike_id":"a2cca4d0-900f-4d24-81a4-a34f6c38f996","system_id":"levelo_inurba_marseille","lat":43.26934,"lon":5.40255,"is_reserved":false,"is_disabled":false,"rental_uris":{"android":"levelo://app?vid=a2cca4d0-900f-4d24-81a4-a34f6c38f996","ios":"levelo://app?vid=a2cca4d0-900f-4d24-81a4-a34f6c38f996"},"vehicle_type_id":"4","last_reported":1743106225,"current_range_meters":6800,"station_id":"cjm6bp8fraef2m0cb0m0","pricing_plan_id":"cebpf4jnsgd1na2vs0mg"},{"bike_id":"87d90627-be88-4511-98c8-a013934dae08","system_id":"levelo_inurba_marseille","lat":43.28847,"lon":5.35778,"is_reserved":false,"is_disabled":false,"rental_uris":{"android":"levelo://app?vid=87d90627-be88-4511-98c8-a013934dae08","ios":"levelo://app?vid=87d90627-be88-4511-98c8-a013934dae08"},"vehicle_type_id":"4","last_reported":1743106225,"current_range_meters":6800,"station_id":"ce4bhb12rcd13ifvqem0","pricing_plan_id":"cebpf4jnsgd1na2vs0mg"},{"bike_id":"25319f31-6ef5-46a0-9322-f807f9031800","system_id":"levelo_inurba_marseille","lat":43.24162,"lon":5.36398,"is_reserved":false,"is_disabled":false,"rental_uris":{"android":"levelo://app?vid=25319f31-6ef5-46a0-9322-f807f9031800","ios":"levelo://app?vid=25319f31-6ef5-46a0-9322-f807f9031800"},"vehicle_type_id":"4","last_reported":1743106225,"current_range_meters":6800,"station_id":"cpo36qri1sfpv3e86is0","pricing_plan_id":"cebpf4jnsgd1na2vs0mg"},{"bike_id":"7aac092e-ced0-4d90-bb38-75a049fb6070","system_id":"levelo_inurba_marseille","lat":43.30885,"lon":5.39657,"is_reserved":false,"is_disabled":false,"rental_uris":{"android":"levelo://app?vid=7aac092e-ced0-4d90-bb38-75a049fb6070","ios":"levelo://app?vid=7aac092e-ced0-4d90-bb38-75a049fb6070"},"vehicle_type_id":"4","last_reported":1743106225,"current_range_meters":6800,"station_id":"ce4bh012rcd13ifvqcv0","pricing_plan_id":"cebpf4jnsgd1na2vs0mg"},{"bike_id":"6b95ccca-d16c-4be9-83b5-5bb0022a97d1","system_id":"levelo_inurba_marseille","lat":43.285677,"lon":5.394923,"is_reserved":false,"is_disabled":false,"rental_uris":{"android":"levelo://app?vid=6b95ccca-d16c-4be9-83b5-5bb0022a97d1","ios":"levelo://app?vid=6b95ccca-d16c-4be9-83b5-5bb0022a97d1"},"vehicle_type_id":"4","last_reported":1743106225,"current_range_meters":6800,"station_id":"ce4bh292rcd13ifvqdg0","pricing_plan_id":"cebpf4jnsgd1na2vs0mg"},{"bike_id":"cd6683f8-bc17-4817-8da3-5a099b5c207d","system_id":"levelo_inurba_marseille","lat":43.29514,"lon":5.38549,"is_reserved":false,"is_disabled":false,"rental_uris":{"android":"levelo://app?vid=cd6683f8-bc17-4817-8da3-5a099b5c207d","ios":"levelo://app?vid=cd6683f8-bc17-4817-8da3-5a099b5c207d"},"vehicle_type_id":"4","last_reported":1743106225,"current_range_meters":6800,"station_id":"ce4bgih2rcd13ifvqba0","pricing_plan_id":"cebpf4jnsgd1na2vs0mg"},{"bike_id":"6623bcce-557f-4122-835c-6ecbd0c74040","system_id":"levelo_inurba_marseille","lat":43.28471,"lon":5.35877,"is_reserved":false,"is_disabled":false,"rental_uris":{"android":"levelo://app?vid=6623bcce-557f-4122-835c-6ecbd0c74040","ios":"levelo://app?vid=6623bcce-557f-4122-835c-6ecbd0c74040"},"vehicle_type_id":"4","last_reported":1743106225,"current_range_meters":6800,"station_id":"ce4bhah2rcd13ifvqei0","pricing_plan_id":"cebpf4jnsgd1na2vs0mg"},{"bike_id":"da0e3dcb-5ef6-474b-a1e3-6c09973827b2","system_id":"levelo_inurba_marseille","lat":43.29269,"lon":5.3844,"is_reserved":false,"is_disabled":false,"rental_uris":{"android":"levelo://app?vid=da0e3dcb-5ef6-474b-a1e3-6c09973827b2","ios":"levelo://app?vid=da0e3dcb-5ef6-474b-a1e3-6c09973827b2"},"vehicle_type_id":"4","last_reported":1743106225,"current_range_meters":6800,"station_id":"ce4bh692rcd13ifvqea0","pricing_plan_id":"cebpf4jnsgd1na2vs0mg"},{"bike_id":"dc8ccdc9-a018-4504-b0a9-676297905591","system_id":"levelo_inurba_marseille","lat":43.29291,"lon":5.36978,"is_reserved":false,"is_disabled":false,"rental_uris":{"android":"levelo://app?vid=dc8ccdc9-a018-4504-b0a9-676297905591","ios":"levelo://app?vid=dc8ccdc9-a018-4504-b0a9-676297905591"},"vehicle_type_id":"4","last_reported":1743106225,"current_range_meters":6800,"station_id":"","pricing_plan_id":"cebpf4jnsgd1na2vs0mg"},{"bike_id":"13817d39-5b22-43dd-81bc-e9539d5f9fb7","system_id":"levelo_inurba_marseille","lat":43.28152,"lon":5.42639,"is_reserved":false,"is_disabled":false,"rental_uris":{"android":"levelo://app?vid=13817d39-5b22-43dd-81bc-e9539d5f9fb7","ios":"levelo://app?vid=13817d39-5b22-43dd-81bc-e9539d5f9fb7"},"vehicle_type_id":"4","last_reported":1743106225,"current_range_meters":6800,"station_id":"ce4bhnh2rcd13ifvqgug","pricing_plan_id":"cebpf4jnsgd1na2vs0mg"},{"bike_id":"aa518c6b-9e09-4898-bc8b-c902b7e51803","system_id":"levelo_inurba_marseille","lat":43.32651,"lon":5.40994,"is_reserved":false,"is_disabled":false,"rental_uris":{"android":"levelo://app?vid=aa518c6b-9e09-4898-bc8b-c902b7e51803","ios":"levelo://app?vid=aa518c6b-9e09-4898-bc8b-c902b7e51803"},"vehicle_type_id":"4","last_reported":1743106225,"current_range_meters":6800,"station_id":"ce4bhpp2rcd13ifvqhgg","pricing_plan_id":"cebpf4jnsgd1na2vs0mg"},{"bike_id":"1c74d56f-7cac-40af-a3b3-70b38753b16e","system_id":"levelo_inurba_marseille","lat":43.29422,"lon":5.38633,"is_reserved":false,"is_disabled":false,"rental_uris":{"android":"levelo://app?vid=1c74d56f-7cac-40af-a3b3-70b38753b16e","ios":"levelo://app?vid=1c74d56f-7cac-40af-a3b3-70b38753b16e"},"vehicle_type_id":"4","last_reported":1743106225,"current_range_meters":7200,"station_id":"ce4bh2h2rcd13ifvqdh0","pricing_plan_id":"cebpf4jnsgd1na2vs0mg"},{"bike_id":"bf554697-f592-4564-a004-74dfe4134131","system_id":"levelo_inurba_marseille","lat":43.29978,"lon":5.38491,"is_reserved":false,"is_disabled":false,"rental_uris":{"android":"levelo://app?vid=bf554697-f592-4564-a004-74dfe4134131","ios":"levelo://app?vid=bf554697-f592-4564-a004-74dfe4134131"},"vehicle_type_id":"4","last_reported":1743106225,"current_range_meters":7200,"station_id":"ce4bgj92rcd13ifvqbd0","pricing_plan_id":"cebpf4jnsgd1na2vs0mg"},{"bike_id":"96dbcdde-5b75-4445-ae47-71a3e08b8a4f","system_id":"levelo_inurba_marseille","lat":43.29265,"lon":5.37632,"is_reserved":false,"is_disabled":false,"rental_uris":{"android":"levelo://app?vid=96dbcdde-5b75-4445-ae47-71a3e08b8a4f","ios":"levelo://app?vid=96dbcdde-5b75-4445-ae47-71a3e08b8a4f"},"vehicle_type_id":"4","last_reported":1743106225,"current_range_meters":7200,"station_id":"ce4bgi12rcd13ifvqb80","pricing_plan_id":"cebpf4jnsgd1na2vs0mg"},{"bike_id":"72407b9c-71b7-4feb-83e9-97e5f2a36163","system_id":"levelo_inurba_marseille","lat":43.24159,"lon":5.36415,"is_reserved":false,"is_disabled":false,"rental_uris":{"android":"levelo://app?vid=72407b9c-71b7-4feb-83e9-97e5f2a36163","ios":"levelo://app?vid=72407b9c-71b7-4feb-83e9-97e5f2a36163"},"vehicle_type_id":"4","last_reported":1743106225,"current_range_meters":7200,"station_id":"cpo36qri1sfpv3e86is0","pricing_plan_id":"cebpf4jnsgd1na2vs0mg"},{"bike_id":"cbf7177e-6e28-4340-bbb6-69b4f76d24c6","system_id":"levelo_inurba_marseille","lat":43.3032,"lon":5.40432,"is_reserved":false,"is_disabled":false,"rental_uris":{"android":"levelo://app?vid=cbf7177e-6e28-4340-bbb6-69b4f76d24c6","ios":"levelo://app?vid=cbf7177e-6e28-4340-bbb6-69b4f76d24c6"},"vehicle_type_id":"4","last_reported":1743106225,"current_range_meters":7200,"station_id":"ce4bh012rcd13ifvqd10","pricing_plan_id":"cebpf4jnsgd1na2vs0mg"},{"bike_id":"ffbc6d5e-70e5-44d1-8154-9bebeaaabfec","system_id":"levelo_inurba_marseille","lat":43.29953,"lon":5.41319,"is_reserved":false,"is_disabled":false,"rental_uris":{"android":"levelo://app?vid=ffbc6d5e-70e5-44d1-8154-9bebeaaabfec","ios":"levelo://app?vid=ffbc6d5e-70e5-44d1-8154-9bebeaaabfec"},"vehicle_type_id":"4","last_reported":1743106225,"current_range_meters":7200,"station_id":"ce4bhp12rcd13ifvqh9g","pricing_plan_id":"cebpf4jnsgd1na2vs0mg"},{"bike_id":"d223e4fa-4f36-49c5-8352-10a4ff73c46f","system_id":"levelo_inurba_marseille","lat":43.28934,"lon":5.38401,"is_reserved":false,"is_disabled":false,"rental_uris":{"android":"levelo://app?vid=d223e4fa-4f36-49c5-8352-10a4ff73c46f","ios":"levelo://app?vid=d223e4fa-4f36-49c5-8352-10a4ff73c46f"},"vehicle_type_id":"4","last_reported":1743106225,"current_range_meters":7200,"station_id":"ce4bh612rcd13ifvqe6g","pricing_plan_id":"cebpf4jnsgd1na2vs0mg"},{"bike_id":"803855f7-cdd0-4004-b6d7-bda89652ae3b","system_id":"levelo_inurba_marseille","lat":43.31703,"lon":5.4046,"is_reserved":false,"is_disabled":false,"rental_uris":{"android":"levelo://app?vid=803855f7-cdd0-4004-b6d7-bda89652ae3b","ios":"levelo://app?vid=803855f7-cdd0-4004-b6d7-bda89652ae3b"},"vehicle_type_id":"4","last_reported":1743106225,"current_range_meters":7200,"station_id":"ce4bh012rcd13ifvqd00","pricing_plan_id":"cebpf4jnsgd1na2vs0mg"},{"bike_id":"f0381373-226e-44af-800a-15306d68b711","system_id":"levelo_inurba_marseille","lat":43.290314,"lon":5.369582,"is_reserved":false,"is_disabled":false,"rental_uris":{"android":"levelo://app?vid=f0381373-226e-44af-800a-15306d68b711","ios":"levelo://app?vid=f0381373-226e-44af-800a-15306d68b711"},"vehicle_type_id":"4","last_reported":1743106225,"current_range_meters":7200,"station_id":"ce4bh5p2rcd13ifvqe4g","pricing_plan_id":"cebpf4jnsgd1na2vs0mg"},{"bike_id":"3a5e18ad-6a23-4442-9c34-19c7bd17a17e","system_id":"levelo_inurba_marseille","lat":43.22926,"lon":5.35353,"is_reserved":false,"is_disabled":false,"rental_uris":{"android":"levelo://app?vid=3a5e18ad-6a23-4442-9c34-19c7bd17a17e","ios":"levelo://app?vid=3a5e18ad-6a23-4442-9c34-19c7bd17a17e"},"vehicle_type_id":"4","last_reported":1743106225,"current_range_meters":7200,"station_id":"cpo3532slgdg3j2ikp40","pricing_plan_id":"cebpf4jnsgd1na2vs0mg"},{"bike_id":"a3e5ae41-f255-4c98-b4c1-85ef0deded53","system_id":"levelo_inurba_marseille","lat":43.28413,"lon":5.37516,"is_reserved":false,"is_disabled":false,"rental_uris":{"android":"levelo://app?vid=a3e5ae41-f255-4c98-b4c1-85ef0deded53","ios":"levelo://app?vid=a3e5ae41-f255-4c98-b4c1-85ef0deded53"},"vehicle_type_id":"4","last_reported":1743106225,"current_range_meters":7200,"station_id":"ce4bh412rcd13ifvqds0","pricing_plan_id":"cebpf4jnsgd1na2vs0mg"},{"bike_id":"b7162571-afe3-448a-a47b-c381b69d1172","system_id":"levelo_inurba_marseille","lat":43.29414,"lon":5.38606,"is_reserved":false,"is_disabled":false,"rental_uris":{"android":"levelo://app?vid=b7162571-afe3-448a-a47b-c381b69d1172","ios":"levelo://app?vid=b7162571-afe3-448a-a47b-c381b69d1172"},"vehicle_type_id":"4","last_reported":1743106225,"current_range_meters":7200,"station_id":"ce4bh2h2rcd13ifvqdh0","pricing_plan_id":"cebpf4jnsgd1na2vs0mg"},{"bike_id":"f5811d0a-1848-43fc-92fe-1b1eb4da0f26","system_id":"levelo_inurba_marseille","lat":43.24404,"lon":5.370767,"is_reserved":false,"is_disabled":false,"rental_uris":{"android":"levelo://app?vid=f5811d0a-1848-43fc-92fe-1b1eb4da0f26","ios":"levelo://app?vid=f5811d0a-1848-43fc-92fe-1b1eb4da0f26"},"vehicle_type_id":"4","last_reported":1743106225,"current_range_meters":7200,"station_id":"ce4bhhh2rcd13ifvqfk0","pricing_plan_id":"cebpf4jnsgd1na2vs0mg"},{"bike_id":"3d954b51-869c-40d8-a384-e8741fd300a0","system_id":"levelo_inurba_marseille","lat":43.284,"lon":5.37509,"is_reserved":false,"is_disabled":false,"rental_uris":{"android":"levelo://app?vid=3d954b51-869c-40d8-a384-e8741fd300a0","ios":"levelo://app?vid=3d954b51-869c-40d8-a384-e8741fd300a0"},"vehicle_type_id":"4","last_reported":1743106225,"current_range_meters":7200,"station_id":"ce4bh412rcd13ifvqds0","pricing_plan_id":"cebpf4jnsgd1na2vs0mg"},{"bike_id":"0586a29a-e70c-4fce-9479-b2eea1df506b","system_id":"levelo_inurba_marseille","lat":43.29535,"lon":5.38587,"is_reserved":false,"is_disabled":false,"rental_uris":{"android":"levelo://app?vid=0586a29a-e70c-4fce-9479-b2eea1df506b","ios":"levelo://app?vid=0586a29a-e70c-4fce-9479-b2eea1df506b"},"vehicle_type_id":"4","last_reported":1743106225,"current_range_meters":7200,"station_id":"ce4bgih2rcd13ifvqba0","pricing_plan_id":"cebpf4jnsgd1na2vs0mg"},{"bike_id":"8e94b569-654f-4f5a-b5fb-f5116a3e5743","system_id":"levelo_inurba_marseille","lat":43.29203,"lon":5.39328,"is_reserved":false,"is_disabled":false,"rental_uris":{"android":"levelo://app?vid=8e94b569-654f-4f5a-b5fb-f5116a3e5743","ios":"levelo://app?vid=8e94b569-654f-4f5a-b5fb-f5116a3e5743"},"vehicle_type_id":"4","last_reported":1743106225,"current_range_meters":7200,"station_id":"ce4bh192rcd13ifvqdd0","pricing_plan_id":"cebpf4jnsgd1na2vs0mg"},{"bike_id":"ecdc5b5a-0452-4ddb-b6a2-6b8257b1cd7e","system_id":"levelo_inurba_marseille","lat":43.29264,"lon":5.3844,"is_reserved":false,"is_disabled":false,"rental_uris":{"android":"levelo://app?vid=ecdc5b5a-0452-4ddb-b6a2-6b8257b1cd7e","ios":"levelo://app?vid=ecdc5b5a-0452-4ddb-b6a2-6b8257b1cd7e"},"vehicle_type_id":"4","last_reported":1743106225,"current_range_meters":7200,"station_id":"ce4bh692rcd13ifvqea0","pricing_plan_id":"cebpf4jnsgd1na2vs0mg"},{"bike_id":"5900c459-57d6-4822-b564-7bfdeadbbd56","system_id":"levelo_inurba_marseille","lat":43.27817,"lon":5.40725,"is_reserved":false,"is_disabled":false,"rental_uris":{"android":"levelo://app?vid=5900c459-57d6-4822-b564-7bfdeadbbd56","ios":"levelo://app?vid=5900c459-57d6-4822-b564-7bfdeadbbd56"},"vehicle_type_id":"4","last_reported":1743106225,"current_range_meters":7200,"station_id":"ce4bhnh2rcd13ifvqgtg","pricing_plan_id":"cebpf4jnsgd1na2vs0mg"},{"bike_id":"8fe76d8b-1e79-45a6-962f-bc37347ac03e","system_id":"levelo_inurba_marseille","lat":43.31075,"lon":5.3835,"is_reserved":false,"is_disabled":false,"rental_uris":{"android":"levelo://app?vid=8fe76d8b-1e79-45a6-962f-bc37347ac03e","ios":"levelo://app?vid=8fe76d8b-1e79-45a6-962f-bc37347ac03e"},"vehicle_type_id":"4","last_reported":1743106225,"current_range_meters":7200,"station_id":"ce4bgv92rcd13ifvqcr0","pricing_plan_id":"cebpf4jnsgd1na2vs0mg"},{"bike_id":"8c736464-f4fe-47b7-a341-1c08634252ed","system_id":"levelo_inurba_marseille","lat":43.30938,"lon":5.40152,"is_reserved":false,"is_disabled":false,"rental_uris":{"android":"levelo://app?vid=8c736464-f4fe-47b7-a341-1c08634252ed","ios":"levelo://app?vid=8c736464-f4fe-47b7-a341-1c08634252ed"},"vehicle_type_id":"4","last_reported":1743106225,"current_range_meters":6800,"station_id":"ce4bgvp2rcd13ifvqct0","pricing_plan_id":"cebpf4jnsgd1na2vs0mg"},{"bike_id":"50ab037a-bf14-4204-a45e-22fc4bf3e966","system_id":"levelo_inurba_marseille","lat":43.29296,"lon":5.37177,"is_reserved":false,"is_disabled":false,"rental_uris":{"android":"levelo://app?vid=50ab037a-bf14-4204-a45e-22fc4bf3e966","ios":"levelo://app?vid=50ab037a-bf14-4204-a45e-22fc4bf3e966"},"vehicle_type_id":"4","last_reported":1743106225,"current_range_meters":7200,"station_id":"ce4bgh92rcd13ifvqb40","pricing_plan_id":"cebpf4jnsgd1na2vs0mg"},{"bike_id":"5364505a-9e8b-4e69-bdfc-5c15b7fcf1f2","system_id":"levelo_inurba_marseille","lat":43.29606,"lon":5.38106,"is_reserved":false,"is_disabled":false,"rental_uris":{"android":"levelo://app?vid=5364505a-9e8b-4e69-bdfc-5c15b7fcf1f2","ios":"levelo://app?vid=5364505a-9e8b-4e69-bdfc-5c15b7fcf1f2"},"vehicle_type_id":"4","last_reported":1743106225,"current_range_meters":7200,"station_id":"ce4bgl12rcd13ifvqbo0","pricing_plan_id":"cebpf4jnsgd1na2vs0mg"},{"bike_id":"40046afd-c6aa-43ea-88bd-183a4d2ec61c","system_id":"levelo_inurba_marseille","lat":43.3161,"lon":5.41652,"is_reserved":false,"is_disabled":false,"rental_uris":{"android":"levelo://app?vid=40046afd-c6aa-43ea-88bd-183a4d2ec61c","ios":"levelo://app?vid=40046afd-c6aa-43ea-88bd-183a4d2ec61c"},"vehicle_type_id":"4","last_reported":1743106225,"current_range_meters":8000,"station_id":"","pricing_plan_id":"cebpf4jnsgd1na2vs0mg"},{"bike_id":"e53a1eb8-e926-4f74-b3ac-c2f1945803ef","system_id":"levelo_inurba_marseille","lat":43.28047,"lon":5.39599,"is_reserved":false,"is_disabled":true,"rental_uris":{"android":"levelo://app?vid=e53a1eb8-e926-4f74-b3ac-c2f1945803ef","ios":"levelo://app?vid=e53a1eb8-e926-4f74-b3ac-c2f1945803ef"},"vehicle_type_id":"4","last_reported":1743106225,"current_range_meters":8000,"station_id":"","pricing_plan_id":"cebpf4jnsgd1na2vs0mg"},{"bike_id":"955ddae0-a53f-4cbb-8bcc-bdc6eb1deb79","system_id":"levelo_inurba_marseille","lat":43.288574,"lon":5.358468,"is_reserved":false,"is_disabled":false,"rental_uris":{"android":"levelo://app?vid=955ddae0-a53f-4cbb-8bcc-bdc6eb1deb79","ios":"levelo://app?vid=955ddae0-a53f-4cbb-8bcc-bdc6eb1deb79"},"vehicle_type_id":"4","last_reported":1743106225,"current_range_meters":7200,"station_id":"ce4bhb12rcd13ifvqem0","pricing_plan_id":"cebpf4jnsgd1na2vs0mg"},{"bike_id":"ca3a4261-2339-4856-8c62-e4bf9c5ce439","system_id":"levelo_inurba_marseille","lat":43.29423,"lon":5.38638,"is_reserved":false,"is_disabled":false,"rental_uris":{"android":"levelo://app?vid=ca3a4261-2339-4856-8c62-e4bf9c5ce439","ios":"levelo://app?vid=ca3a4261-2339-4856-8c62-e4bf9c5ce439"},"vehicle_type_id":"4","last_reported":1743106225,"current_range_meters":8000,"station_id":"ce4bh2h2rcd13ifvqdh0","pricing_plan_id":"cebpf4jnsgd1na2vs0mg"},{"bike_id":"db7517ea-6bf9-4543-8348-e6fd273ae6ae","system_id":"levelo_inurba_marseille","lat":43.29423,"lon":5.3864,"is_reserved":false,"is_disabled":false,"rental_uris":{"android":"levelo://app?vid=db7517ea-6bf9-4543-8348-e6fd273ae6ae","ios":"levelo://app?vid=db7517ea-6bf9-4543-8348-e6fd273ae6ae"},"vehicle_type_id":"4","last_reported":1743106225,"current_range_meters":8000,"station_id":"ce4bh2h2rcd13ifvqdh0","pricing_plan_id":"cebpf4jnsgd1na2vs0mg"},{"bike_id":"50b46d8a-da43-4177-81b2-310be481a629","system_id":"levelo_inurba_marseille","lat":43.28571,"lon":5.39502,"is_reserved":false,"is_disabled":false,"rental_uris":{"android":"levelo://app?vid=50b46d8a-da43-4177-81b2-310be481a629","ios":"levelo://app?vid=50b46d8a-da43-4177-81b2-310be481a629"},"vehicle_type_id":"4","last_reported":1743106225,"current_range_meters":8000,"station_id":"ce4bh292rcd13ifvqdg0","pricing_plan_id":"cebpf4jnsgd1na2vs0mg"},{"bike_id":"d3b4ee70-7971-4aa9-9684-5c42bd40c57d","system_id":"levelo_inurba_marseille","lat":43.2843,"lon":5.37509,"is_reserved":false,"is_disabled":false,"rental_uris":{"android":"levelo://app?vid=d3b4ee70-7971-4aa9-9684-5c42bd40c57d","ios":"levelo://app?vid=d3b4ee70-7971-4aa9-9684-5c42bd40c57d"},"vehicle_type_id":"4","last_reported":1743106225,"current_range_meters":8000,"station_id":"ce4bh412rcd13ifvqds0","pricing_plan_id":"cebpf4jnsgd1na2vs0mg"},{"bike_id":"22f106dc-ea9d-40d1-99f0-8912a11fadcb","system_id":"levelo_inurba_marseille","lat":43.28095,"lon":5.3796,"is_reserved":false,"is_disabled":false,"rental_uris":{"android":"levelo://app?vid=22f106dc-ea9d-40d1-99f0-8912a11fadcb","ios":"levelo://app?vid=22f106dc-ea9d-40d1-99f0-8912a11fadcb"},"vehicle_type_id":"4","last_reported":1743106225,"current_range_meters":8000,"station_id":"","pricing_plan_id":"cebpf4jnsgd1na2vs0mg"},{"bike_id":"c43d83bf-c90f-4a2e-9202-e322ded28106","system_id":"levelo_inurba_marseille","lat":43.29413,"lon":5.38626,"is_reserved":false,"is_disabled":false,"rental_uris":{"android":"levelo://app?vid=c43d83bf-c90f-4a2e-9202-e322ded28106","ios":"levelo://app?vid=c43d83bf-c90f-4a2e-9202-e322ded28106"},"vehicle_type_id":"4","last_reported":1743106225,"current_range_meters":8000,"station_id":"ce4bh2h2rcd13ifvqdh0","pricing_plan_id":"cebpf4jnsgd1na2vs0mg"},{"bike_id":"cfe3d0b2-de3f-44f2-829a-859492e77316","system_id":"levelo_inurba_marseille","lat":43.29292,"lon":5.3745,"is_reserved":false,"is_disabled":false,"rental_uris":{"android":"levelo://app?vid=cfe3d0b2-de3f-44f2-829a-859492e77316","ios":"levelo://app?vid=cfe3d0b2-de3f-44f2-829a-859492e77316"},"vehicle_type_id":"4","last_reported":1743106225,"current_range_meters":8000,"station_id":"ce4bgi12rcd13ifvqb70","pricing_plan_id":"cebpf4jnsgd1na2vs0mg"},{"bike_id":"638c8e6b-6bbe-4946-a05d-753bcac50810","system_id":"levelo_inurba_marseille","lat":43.28078,"lon":5.3965,"is_reserved":false,"is_disabled":false,"rental_uris":{"android":"levelo://app?vid=638c8e6b-6bbe-4946-a05d-753bcac50810","ios":"levelo://app?vid=638c8e6b-6bbe-4946-a05d-753bcac50810"},"vehicle_type_id":"4","last_reported":1743106225,"current_range_meters":8000,"station_id":"ce4bho12rcd13ifvqh2g","pricing_plan_id":"cebpf4jnsgd1na2vs0mg"},{"bike_id":"2443ca02-2b52-4f9d-93a4-53069909faf6","system_id":"levelo_inurba_marseille","lat":43.309296,"lon":5.401448,"is_reserved":false,"is_disabled":false,"rental_uris":{"android":"levelo://app?vid=2443ca02-2b52-4f9d-93a4-53069909faf6","ios":"levelo://app?vid=2443ca02-2b52-4f9d-93a4-53069909faf6"},"vehicle_type_id":"4","last_reported":1743106225,"current_range_meters":8000,"station_id":"ce4bgvp2rcd13ifvqct0","pricing_plan_id":"cebpf4jnsgd1na2vs0mg"},{"bike_id":"169d7fcf-280d-4645-acdf-db059c46d533","system_id":"levelo_inurba_marseille","lat":43.2396,"lon":5.36653,"is_reserved":false,"is_disabled":false,"rental_uris":{"android":"levelo://app?vid=169d7fcf-280d-4645-acdf-db059c46d533","ios":"levelo://app?vid=169d7fcf-280d-4645-acdf-db059c46d533"},"vehicle_type_id":"4","last_reported":1743106225,"current_range_meters":8000,"station_id":"ce4bhi12rcd13ifvqfp0","pricing_plan_id":"cebpf4jnsgd1na2vs0mg"},{"bike_id":"63d2930e-e38d-4996-8bdc-7e011a3ef3f1","system_id":"levelo_inurba_marseille","lat":43.28444,"lon":5.392,"is_reserved":false,"is_disabled":false,"rental_uris":{"android":"levelo://app?vid=63d2930e-e38d-4996-8bdc-7e011a3ef3f1","ios":"levelo://app?vid=63d2930e-e38d-4996-8bdc-7e011a3ef3f1"},"vehicle_type_id":"4","last_reported":1743106225,"current_range_meters":8400,"station_id":"ce4bhoh2rcd13ifvqh5g","pricing_plan_id":"cebpf4jnsgd1na2vs0mg"},{"bike_id":"4ea2dc4a-53b8-4d21-b056-faf850ab7b24","system_id":"levelo_inurba_marseille","lat":43.29601,"lon":5.42291,"is_reserved":false,"is_disabled":false,"rental_uris":{"android":"levelo://app?vid=4ea2dc4a-53b8-4d21-b056-faf850ab7b24","ios":"levelo://app?vid=4ea2dc4a-53b8-4d21-b056-faf850ab7b24"},"vehicle_type_id":"4","last_reported":1743106225,"current_range_meters":8400,"station_id":"","pricing_plan_id":"cebpf4jnsgd1na2vs0mg"},{"bike_id":"bd0bd85a-4563-4f05-90ee-f6e2c30913d1","system_id":"levelo_inurba_marseille","lat":43.31699,"lon":5.40461,"is_reserved":false,"is_disabled":false,"rental_uris":{"android":"levelo://app?vid=bd0bd85a-4563-4f05-90ee-f6e2c30913d1","ios":"levelo://app?vid=bd0bd85a-4563-4f05-90ee-f6e2c30913d1"},"vehicle_type_id":"4","last_reported":1743106225,"current_range_meters":8400,"station_id":"ce4bh012rcd13ifvqd00","pricing_plan_id":"cebpf4jnsgd1na2vs0mg"},{"bike_id":"f3f9c7d5-83a9-4a8d-a099-27f1d2134414","system_id":"levelo_inurba_marseille","lat":43.27995,"lon":5.4001,"is_reserved":false,"is_disabled":false,"rental_uris":{"android":"levelo://app?vid=f3f9c7d5-83a9-4a8d-a099-27f1d2134414","ios":"levelo://app?vid=f3f9c7d5-83a9-4a8d-a099-27f1d2134414"},"vehicle_type_id":"4","last_reported":1743106225,"current_range_meters":8400,"station_id":"ce4bho92rcd13ifvqh4g","pricing_plan_id":"cebpf4jnsgd1na2vs0mg"},{"bike_id":"2e013db2-c4bf-4ece-9b86-255ce2c33732","system_id":"levelo_inurba_marseille","lat":43.27817,"lon":5.40697,"is_reserved":false,"is_disabled":false,"rental_uris":{"android":"levelo://app?vid=2e013db2-c4bf-4ece-9b86-255ce2c33732","ios":"levelo://app?vid=2e013db2-c4bf-4ece-9b86-255ce2c33732"},"vehicle_type_id":"4","last_reported":1743106225,"current_range_meters":8400,"station_id":"ce4bhnh2rcd13ifvqgtg","pricing_plan_id":"cebpf4jnsgd1na2vs0mg"},{"bike_id":"21a8cdb5-2a51-40c4-b046-3db7a98571f9","system_id":"levelo_inurba_marseille","lat":43.29263,"lon":5.40903,"is_reserved":false,"is_disabled":false,"rental_uris":{"android":"levelo://app?vid=21a8cdb5-2a51-40c4-b046-3db7a98571f9","ios":"levelo://app?vid=21a8cdb5-2a51-40c4-b046-3db7a98571f9"},"vehicle_type_id":"4","last_reported":1743106225,"current_range_meters":8400,"station_id":"ce4bh192rcd13ifvqdc0","pricing_plan_id":"cebpf4jnsgd1na2vs0mg"},{"bike_id":"bd292a1c-3d00-4f07-89ca-e5d9c7289510","system_id":"levelo_inurba_marseille","lat":43.28668,"lon":5.36356,"is_reserved":false,"is_disabled":false,"rental_uris":{"android":"levelo://app?vid=bd292a1c-3d00-4f07-89ca-e5d9c7289510","ios":"levelo://app?vid=bd292a1c-3d00-4f07-89ca-e5d9c7289510"},"vehicle_type_id":"4","last_reported":1743106225,"current_range_meters":8400,"station_id":"ce4bhah2rcd13ifvqej0","pricing_plan_id":"cebpf4jnsgd1na2vs0mg"},{"bike_id":"de523b40-8361-4fbc-92e6-b8178b0420b3","system_id":"levelo_inurba_marseille","lat":43.28614,"lon":5.35104,"is_reserved":false,"is_disabled":false,"rental_uris":{"android":"levelo://app?vid=de523b40-8361-4fbc-92e6-b8178b0420b3","ios":"levelo://app?vid=de523b40-8361-4fbc-92e6-b8178b0420b3"},"vehicle_type_id":"4","last_reported":1743106225,"current_range_meters":8400,"station_id":"ce4bhch2rcd13ifvqeug","pricing_plan_id":"cebpf4jnsgd1na2vs0mg"},{"bike_id":"86b6bcf8-f227-4011-9218-79572cb71478","system_id":"levelo_inurba_marseille","lat":43.29259,"lon":5.38466,"is_reserved":false,"is_disabled":false,"rental_uris":{"android":"levelo://app?vid=86b6bcf8-f227-4011-9218-79572cb71478","ios":"levelo://app?vid=86b6bcf8-f227-4011-9218-79572cb71478"},"vehicle_type_id":"4","last_reported":1743106225,"current_range_meters":8400,"station_id":"ce4bh692rcd13ifvqea0","pricing_plan_id":"cebpf4jnsgd1na2vs0mg"},{"bike_id":"de7b8bc0-e1e4-4860-be2e-a77979c7d42a","system_id":"levelo_inurba_marseille","lat":43.28467,"lon":5.3588,"is_reserved":false,"is_disabled":false,"rental_uris":{"android":"levelo://app?vid=de7b8bc0-e1e4-4860-be2e-a77979c7d42a","ios":"levelo://app?vid=de7b8bc0-e1e4-4860-be2e-a77979c7d42a"},"vehicle_type_id":"4","last_reported":1743106225,"current_range_meters":8400,"station_id":"ce4bhah2rcd13ifvqei0","pricing_plan_id":"cebpf4jnsgd1na2vs0mg"},{"bike_id":"2f8daecb-dbe9-4ada-9421-128c5f6eeec5","system_id":"levelo_inurba_marseille","lat":43.29095,"lon":5.38154,"is_reserved":false,"is_disabled":false,"rental_uris":{"android":"levelo://app?vid=2f8daecb-dbe9-4ada-9421-128c5f6eeec5","ios":"levelo://app?vid=2f8daecb-dbe9-4ada-9421-128c5f6eeec5"},"vehicle_type_id":"4","last_reported":1743106225,"current_range_meters":8400,"station_id":"ce4bh512rcd13ifvqe2g","pricing_plan_id":"cebpf4jnsgd1na2vs0mg"},{"bike_id":"e1defc53-a67a-4c61-bcb6-96b34a72d74f","system_id":"levelo_inurba_marseille","lat":43.29274,"lon":5.38442,"is_reserved":false,"is_disabled":false,"rental_uris":{"android":"levelo://app?vid=e1defc53-a67a-4c61-bcb6-96b34a72d74f","ios":"levelo://app?vid=e1defc53-a67a-4c61-bcb6-96b34a72d74f"},"vehicle_type_id":"4","last_reported":1743106225,"current_range_meters":8400,"station_id":"ce4bh692rcd13ifvqea0","pricing_plan_id":"cebpf4jnsgd1na2vs0mg"},{"bike_id":"97aae95b-96b4-4706-90d6-95f3669b4a32","system_id":"levelo_inurba_marseille","lat":43.29102,"lon":5.38132,"is_reserved":false,"is_disabled":false,"rental_uris":{"android":"levelo://app?vid=97aae95b-96b4-4706-90d6-95f3669b4a32","ios":"levelo://app?vid=97aae95b-96b4-4706-90d6-95f3669b4a32"},"vehicle_type_id":"4","last_reported":1743106225,"current_range_meters":8800,"station_id":"ce4bh512rcd13ifvqe2g","pricing_plan_id":"cebpf4jnsgd1na2vs0mg"},{"bike_id":"6beaf4fe-4710-44c3-b934-a2b1b4289eda","system_id":"levelo_inurba_marseille","lat":43.31361,"lon":5.38487,"is_reserved":false,"is_disabled":false,"rental_uris":{"android":"levelo://app?vid=6beaf4fe-4710-44c3-b934-a2b1b4289eda","ios":"levelo://app?vid=6beaf4fe-4710-44c3-b934-a2b1b4289eda"},"vehicle_type_id":"4","last_reported":1743106225,"current_range_meters":8800,"station_id":"ce4bgt92rcd13ifvqcf0","pricing_plan_id":"cebpf4jnsgd1na2vs0mg"},{"bike_id":"d9af4385-ea05-47b6-826f-ceee9a64db8b","system_id":"levelo_inurba_marseille","lat":43.30435,"lon":5.3974,"is_reserved":false,"is_disabled":false,"rental_uris":{"android":"levelo://app?vid=d9af4385-ea05-47b6-826f-ceee9a64db8b","ios":"levelo://app?vid=d9af4385-ea05-47b6-826f-ceee9a64db8b"},"vehicle_type_id":"4","last_reported":1743106225,"current_range_meters":8800,"station_id":"ce4bh092rcd13ifvqd20","pricing_plan_id":"cebpf4jnsgd1na2vs0mg"},{"bike_id":"f64c45ff-66e5-4fb3-9ac7-98b79b3524c1","system_id":"levelo_inurba_marseille","lat":43.29413,"lon":5.38646,"is_reserved":false,"is_disabled":false,"rental_uris":{"android":"levelo://app?vid=f64c45ff-66e5-4fb3-9ac7-98b79b3524c1","ios":"levelo://app?vid=f64c45ff-66e5-4fb3-9ac7-98b79b3524c1"},"vehicle_type_id":"4","last_reported":1743106225,"current_range_meters":8800,"station_id":"ce4bh2h2rcd13ifvqdh0","pricing_plan_id":"cebpf4jnsgd1na2vs0mg"},{"bike_id":"c18155db-65c7-4d5a-8c5b-923eb75c675d","system_id":"levelo_inurba_marseille","lat":43.32103,"lon":5.3677,"is_reserved":false,"is_disabled":false,"rental_uris":{"android":"levelo://app?vid=c18155db-65c7-4d5a-8c5b-923eb75c675d","ios":"levelo://app?vid=c18155db-65c7-4d5a-8c5b-923eb75c675d"},"vehicle_type_id":"4","last_reported":1743106225,"current_range_meters":8800,"station_id":"ce4bhrh2rcd13ifvqhug","pricing_plan_id":"cebpf4jnsgd1na2vs0mg"},{"bike_id":"d7b56841-867f-4c3a-8f58-43761e2fd149","system_id":"levelo_inurba_marseille","lat":43.30309,"lon":5.36878,"is_reserved":false,"is_disabled":false,"rental_uris":{"android":"levelo://app?vid=d7b56841-867f-4c3a-8f58-43761e2fd149","ios":"levelo://app?vid=d7b56841-867f-4c3a-8f58-43761e2fd149"},"vehicle_type_id":"4","last_reported":1743106225,"current_range_meters":9200,"station_id":"ce4bgqh2rcd13ifvqc5g","pricing_plan_id":"cebpf4jnsgd1na2vs0mg"},{"bike_id":"325d44e3-f88b-4489-a750-fa63b616a5cf","system_id":"levelo_inurba_marseille","lat":43.33597,"lon":5.41033,"is_reserved":false,"is_disabled":false,"rental_uris":{"android":"levelo://app?vid=325d44e3-f88b-4489-a750-fa63b616a5cf","ios":"levelo://app?vid=325d44e3-f88b-4489-a750-fa63b616a5cf"},"vehicle_type_id":"4","last_reported":1743106225,"current_range_meters":8800,"station_id":"ce4bhqh2rcd13ifvqhmg","pricing_plan_id":"cebpf4jnsgd1na2vs0mg"},{"bike_id":"b0d2fa10-bef9-4ca8-9b96-36a49fb90867","system_id":"levelo_inurba_marseille","lat":43.29418,"lon":5.38631,"is_reserved":false,"is_disabled":false,"rental_uris":{"android":"levelo://app?vid=b0d2fa10-bef9-4ca8-9b96-36a49fb90867","ios":"levelo://app?vid=b0d2fa10-bef9-4ca8-9b96-36a49fb90867"},"vehicle_type_id":"4","last_reported":1743106225,"current_range_meters":9200,"station_id":"ce4bh2h2rcd13ifvqdh0","pricing_plan_id":"cebpf4jnsgd1na2vs0mg"},{"bike_id":"8f6de5e4-6881-4052-910b-4f548f5dc044","system_id":"levelo_inurba_marseille","lat":43.26561,"lon":5.37287,"is_reserved":false,"is_disabled":false,"rental_uris":{"android":"levelo://app?vid=8f6de5e4-6881-4052-910b-4f548f5dc044","ios":"levelo://app?vid=8f6de5e4-6881-4052-910b-4f548f5dc044"},"vehicle_type_id":"4","last_reported":1743106225,"current_range_meters":4400,"station_id":"ce4bhg12rcd13ifvqf70","pricing_plan_id":"cebpf4jnsgd1na2vs0mg"},{"bike_id":"2e4feb69-8367-4359-8b87-6f087dc8fdc4","system_id":"levelo_inurba_marseille","lat":43.29967,"lon":5.38501,"is_reserved":false,"is_disabled":false,"rental_uris":{"android":"levelo://app?vid=2e4feb69-8367-4359-8b87-6f087dc8fdc4","ios":"levelo://app?vid=2e4feb69-8367-4359-8b87-6f087dc8fdc4"},"vehicle_type_id":"4","last_reported":1743106225,"current_range_meters":9200,"station_id":"ce4bgj92rcd13ifvqbd0","pricing_plan_id":"cebpf4jnsgd1na2vs0mg"},{"bike_id":"62a31e18-1693-40a5-b5bc-67cb9f170087","system_id":"levelo_inurba_marseille","lat":43.31689,"lon":5.37816,"is_reserved":false,"is_disabled":false,"rental_uris":{"android":"levelo://app?vid=62a31e18-1693-40a5-b5bc-67cb9f170087","ios":"levelo://app?vid=62a31e18-1693-40a5-b5bc-67cb9f170087"},"vehicle_type_id":"4","last_reported":1743106225,"current_range_meters":9200,"station_id":"","pricing_plan_id":"cebpf4jnsgd1na2vs0mg"},{"bike_id":"30cd612a-8cb0-4fab-9e3a-cd08e9fc22b5","system_id":"levelo_inurba_marseille","lat":43.29515,"lon":5.39401,"is_reserved":false,"is_disabled":true,"rental_uris":{"android":"levelo://app?vid=30cd612a-8cb0-4fab-9e3a-cd08e9fc22b5","ios":"levelo://app?vid=30cd612a-8cb0-4fab-9e3a-cd08e9fc22b5"},"vehicle_type_id":"4","last_reported":1743106225,"current_range_meters":9200,"station_id":"ce4bh292rcd13ifvqdf0","pricing_plan_id":"cebpf4jnsgd1na2vs0mg"},{"bike_id":"f9fdb47f-9192-4b46-8970-e8b979b0a256","system_id":"levelo_inurba_marseille","lat":43.28458,"lon":5.35886,"is_reserved":false,"is_disabled":false,"rental_uris":{"android":"levelo://app?vid=f9fdb47f-9192-4b46-8970-e8b979b0a256","ios":"levelo://app?vid=f9fdb47f-9192-4b46-8970-e8b979b0a256"},"vehicle_type_id":"4","last_reported":1743106225,"current_range_meters":9200,"station_id":"ce4bhah2rcd13ifvqei0","pricing_plan_id":"cebpf4jnsgd1na2vs0mg"},{"bike_id":"370669e1-a28f-4d18-9e7c-43dfbbad498e","system_id":"levelo_inurba_marseille","lat":43.241762,"lon":5.397363,"is_reserved":false,"is_disabled":false,"rental_uris":{"android":"levelo://app?vid=370669e1-a28f-4d18-9e7c-43dfbbad498e","ios":"levelo://app?vid=370669e1-a28f-4d18-9e7c-43dfbbad498e"},"vehicle_type_id":"4","last_reported":1743106225,"current_range_meters":9200,"station_id":"ce4bhn12rcd13ifvqgpg","pricing_plan_id":"cebpf4jnsgd1na2vs0mg"},{"bike_id":"e110c135-ffaa-4ee4-bb95-b2c04dc26dca","system_id":"levelo_inurba_marseille","lat":43.30795,"lon":5.43533,"is_reserved":false,"is_disabled":false,"rental_uris":{"android":"levelo://app?vid=e110c135-ffaa-4ee4-bb95-b2c04dc26dca","ios":"levelo://app?vid=e110c135-ffaa-4ee4-bb95-b2c04dc26dca"},"vehicle_type_id":"4","last_reported":1743106225,"current_range_meters":9200,"station_id":"ce4bhph2rcd13ifvqheg","pricing_plan_id":"cebpf4jnsgd1na2vs0mg"},{"bike_id":"30e797c1-61a6-4068-ac62-028c1c211e1d","system_id":"levelo_inurba_marseille","lat":43.29977,"lon":5.38497,"is_reserved":false,"is_disabled":false,"rental_uris":{"android":"levelo://app?vid=30e797c1-61a6-4068-ac62-028c1c211e1d","ios":"levelo://app?vid=30e797c1-61a6-4068-ac62-028c1c211e1d"},"vehicle_type_id":"4","last_reported":1743106225,"current_range_meters":9200,"station_id":"ce4bgj92rcd13ifvqbd0","pricing_plan_id":"cebpf4jnsgd1na2vs0mg"},{"bike_id":"29df67f5-d204-4d83-9b55-30baf4950456","system_id":"levelo_inurba_marseille","lat":43.28149,"lon":5.42652,"is_reserved":false,"is_disabled":false,"rental_uris":{"android":"levelo://app?vid=29df67f5-d204-4d83-9b55-30baf4950456","ios":"levelo://app?vid=29df67f5-d204-4d83-9b55-30baf4950456"},"vehicle_type_id":"4","last_reported":1743106225,"current_range_meters":9200,"station_id":"ce4bhnh2rcd13ifvqgug","pricing_plan_id":"cebpf4jnsgd1na2vs0mg"},{"bike_id":"813634ed-e21d-4b9e-88e8-aa8b87581eb3","system_id":"levelo_inurba_marseille","lat":43.32109,"lon":5.36774,"is_reserved":false,"is_disabled":false,"rental_uris":{"android":"levelo://app?vid=813634ed-e21d-4b9e-88e8-aa8b87581eb3","ios":"levelo://app?vid=813634ed-e21d-4b9e-88e8-aa8b87581eb3"},"vehicle_type_id":"4","last_reported":1743106225,"current_range_meters":9600,"station_id":"ce4bhrh2rcd13ifvqhug","pricing_plan_id":"cebpf4jnsgd1na2vs0mg"},{"bike_id":"efccb7ee-57f9-48e7-98a8-b578ed40ea79","system_id":"levelo_inurba_marseille","lat":43.29265,"lon":5.38445,"is_reserved":false,"is_disabled":false,"rental_uris":{"android":"levelo://app?vid=efccb7ee-57f9-48e7-98a8-b578ed40ea79","ios":"levelo://app?vid=efccb7ee-57f9-48e7-98a8-b578ed40ea79"},"vehicle_type_id":"4","last_reported":1743106225,"current_range_meters":9600,"station_id":"ce4bh692rcd13ifvqea0","pricing_plan_id":"cebpf4jnsgd1na2vs0mg"},{"bike_id":"f51fce11-5bfb-45a3-99de-247642e2f0f2","system_id":"levelo_inurba_marseille","lat":43.28404,"lon":5.37525,"is_reserved":false,"is_disabled":false,"rental_uris":{"android":"levelo://app?vid=f51fce11-5bfb-45a3-99de-247642e2f0f2","ios":"levelo://app?vid=f51fce11-5bfb-45a3-99de-247642e2f0f2"},"vehicle_type_id":"4","last_reported":1743106225,"current_range_meters":9600,"station_id":"ce4bh412rcd13ifvqds0","pricing_plan_id":"cebpf4jnsgd1na2vs0mg"},{"bike_id":"3a9bdcca-abab-46db-a40a-336182c98f57","system_id":"levelo_inurba_marseille","lat":43.27811,"lon":5.407,"is_reserved":false,"is_disabled":false,"rental_uris":{"android":"levelo://app?vid=3a9bdcca-abab-46db-a40a-336182c98f57","ios":"levelo://app?vid=3a9bdcca-abab-46db-a40a-336182c98f57"},"vehicle_type_id":"4","last_reported":1743106225,"current_range_meters":9600,"station_id":"ce4bhnh2rcd13ifvqgtg","pricing_plan_id":"cebpf4jnsgd1na2vs0mg"},{"bike_id":"72b76c7e-44bc-4a27-b32a-ae0a8eedde68","system_id":"levelo_inurba_marseille","lat":43.26199,"lon":5.37407,"is_reserved":false,"is_disabled":false,"rental_uris":{"android":"levelo://app?vid=72b76c7e-44bc-4a27-b32a-ae0a8eedde68","ios":"levelo://app?vid=72b76c7e-44bc-4a27-b32a-ae0a8eedde68"},"vehicle_type_id":"4","last_reported":1743106225,"current_range_meters":9600,"station_id":"ce4bhgp2rcd13ifvqfc0","pricing_plan_id":"cebpf4jnsgd1na2vs0mg"},{"bike_id":"a2d9e67a-1897-422e-9573-00d17def0e21","system_id":"levelo_inurba_marseille","lat":43.30299,"lon":5.39203,"is_reserved":false,"is_disabled":false,"rental_uris":{"android":"levelo://app?vid=a2d9e67a-1897-422e-9573-00d17def0e21","ios":"levelo://app?vid=a2d9e67a-1897-422e-9573-00d17def0e21"},"vehicle_type_id":"4","last_reported":1743106225,"current_range_meters":9600,"station_id":"ce4bgkh2rcd13ifvqbk0","pricing_plan_id":"cebpf4jnsgd1na2vs0mg"},{"bike_id":"09a227f9-e81f-4ae4-8d74-65daf422601e","system_id":"levelo_inurba_marseille","lat":43.24801,"lon":5.37445,"is_reserved":false,"is_disabled":false,"rental_uris":{"android":"levelo://app?vid=09a227f9-e81f-4ae4-8d74-65daf422601e","ios":"levelo://app?vid=09a227f9-e81f-4ae4-8d74-65daf422601e"},"vehicle_type_id":"4","last_reported":1743106225,"current_range_meters":9600,"station_id":"ce4bhgh2rcd13ifvqfb0","pricing_plan_id":"cebpf4jnsgd1na2vs0mg"},{"bike_id":"e5047771-2082-4dba-9477-d8725027152d","system_id":"levelo_inurba_marseille","lat":43.25458,"lon":5.41891,"is_reserved":false,"is_disabled":false,"rental_uris":{"android":"levelo://app?vid=e5047771-2082-4dba-9477-d8725027152d","ios":"levelo://app?vid=e5047771-2082-4dba-9477-d8725027152d"},"vehicle_type_id":"4","last_reported":1743106225,"current_range_meters":9600,"station_id":"","pricing_plan_id":"cebpf4jnsgd1na2vs0mg"},{"bike_id":"02fda0b4-5120-4cd9-93eb-1987d4a5873b","system_id":"levelo_inurba_marseille","lat":43.29963,"lon":5.38495,"is_reserved":false,"is_disabled":false,"rental_uris":{"android":"levelo://app?vid=02fda0b4-5120-4cd9-93eb-1987d4a5873b","ios":"levelo://app?vid=02fda0b4-5120-4cd9-93eb-1987d4a5873b"},"vehicle_type_id":"4","last_reported":1743106225,"current_range_meters":9600,"station_id":"ce4bgj92rcd13ifvqbd0","pricing_plan_id":"cebpf4jnsgd1na2vs0mg"},{"bike_id":"1d206328-8d8b-4421-b718-d354e5cc70d2","system_id":"levelo_inurba_marseille","lat":43.31743,"lon":5.40532,"is_reserved":false,"is_disabled":false,"rental_uris":{"android":"levelo://app?vid=1d206328-8d8b-4421-b718-d354e5cc70d2","ios":"levelo://app?vid=1d206328-8d8b-4421-b718-d354e5cc70d2"},"vehicle_type_id":"4","last_reported":1743106225,"current_range_meters":9600,"station_id":"","pricing_plan_id":"cebpf4jnsgd1na2vs0mg"},{"bike_id":"2079e143-15fb-4fca-b428-1dcdbd2da2aa","system_id":"levelo_inurba_marseille","lat":43.27825,"lon":5.40707,"is_reserved":false,"is_disabled":false,"rental_uris":{"android":"levelo://app?vid=2079e143-15fb-4fca-b428-1dcdbd2da2aa","ios":"levelo://app?vid=2079e143-15fb-4fca-b428-1dcdbd2da2aa"},"vehicle_type_id":"4","last_reported":1743106225,"current_range_meters":9600,"station_id":"ce4bhnh2rcd13ifvqgtg","pricing_plan_id":"cebpf4jnsgd1na2vs0mg"},{"bike_id":"59e1a024-5384-4752-8555-3cf0ea6c204a","system_id":"levelo_inurba_marseille","lat":43.27995,"lon":5.40037,"is_reserved":false,"is_disabled":false,"rental_uris":{"android":"levelo://app?vid=59e1a024-5384-4752-8555-3cf0ea6c204a","ios":"levelo://app?vid=59e1a024-5384-4752-8555-3cf0ea6c204a"},"vehicle_type_id":"4","last_reported":1743106225,"current_range_meters":9600,"station_id":"ce4bho92rcd13ifvqh4g","pricing_plan_id":"cebpf4jnsgd1na2vs0mg"},{"bike_id":"6c1801ad-fe28-4207-8fb0-277e5643f8f0","system_id":"levelo_inurba_marseille","lat":43.29283,"lon":5.38423,"is_reserved":false,"is_disabled":false,"rental_uris":{"android":"levelo://app?vid=6c1801ad-fe28-4207-8fb0-277e5643f8f0","ios":"levelo://app?vid=6c1801ad-fe28-4207-8fb0-277e5643f8f0"},"vehicle_type_id":"4","last_reported":1743106225,"current_range_meters":9600,"station_id":"ce4bh692rcd13ifvqea0","pricing_plan_id":"cebpf4jnsgd1na2vs0mg"},{"bike_id":"f37c088c-fb9f-4c05-b3c4-fbc236740bd1","system_id":"levelo_inurba_marseille","lat":43.29414,"lon":5.38625,"is_reserved":false,"is_disabled":false,"rental_uris":{"android":"levelo://app?vid=f37c088c-fb9f-4c05-b3c4-fbc236740bd1","ios":"levelo://app?vid=f37c088c-fb9f-4c05-b3c4-fbc236740bd1"},"vehicle_type_id":"4","last_reported":1743106225,"current_range_meters":9600,"station_id":"ce4bh2h2rcd13ifvqdh0","pricing_plan_id":"cebpf4jnsgd1na2vs0mg"},{"bike_id":"90d97d7f-5afe-4601-98be-83b03668e3da","system_id":"levelo_inurba_marseille","lat":43.2931,"lon":5.37445,"is_reserved":false,"is_disabled":true,"rental_uris":{"android":"levelo://app?vid=90d97d7f-5afe-4601-98be-83b03668e3da","ios":"levelo://app?vid=90d97d7f-5afe-4601-98be-83b03668e3da"},"vehicle_type_id":"4","last_reported":1743106225,"current_range_meters":9600,"station_id":"ce4bgi12rcd13ifvqb70","pricing_plan_id":"cebpf4jnsgd1na2vs0mg"},{"bike_id":"0ac88cdf-dd3a-494f-aaa5-2b24d1ce393f","system_id":"levelo_inurba_marseille","lat":43.23189,"lon":5.35556,"is_reserved":false,"is_disabled":false,"rental_uris":{"android":"levelo://app?vid=0ac88cdf-dd3a-494f-aaa5-2b24d1ce393f","ios":"levelo://app?vid=0ac88cdf-dd3a-494f-aaa5-2b24d1ce393f"},"vehicle_type_id":"4","last_reported":1743106225,"current_range_meters":9600,"station_id":"ce4bhu92rcd13ifvqi70","pricing_plan_id":"cebpf4jnsgd1na2vs0mg"},{"bike_id":"5d82fbe5-558b-40c8-a4bb-fe893f80937f","system_id":"levelo_inurba_marseille","lat":43.25402,"lon":5.38409,"is_reserved":false,"is_disabled":false,"rental_uris":{"android":"levelo://app?vid=5d82fbe5-558b-40c8-a4bb-fe893f80937f","ios":"levelo://app?vid=5d82fbe5-558b-40c8-a4bb-fe893f80937f"},"vehicle_type_id":"4","last_reported":1743106225,"current_range_meters":9600,"station_id":"","pricing_plan_id":"cebpf4jnsgd1na2vs0mg"},{"bike_id":"77bc11b8-e20c-4c10-84a5-450671079b48","system_id":"levelo_inurba_marseille","lat":43.28703,"lon":5.3739,"is_reserved":false,"is_disabled":false,"rental_uris":{"android":"levelo://app?vid=77bc11b8-e20c-4c10-84a5-450671079b48","ios":"levelo://app?vid=77bc11b8-e20c-4c10-84a5-450671079b48"},"vehicle_type_id":"4","last_reported":1743106225,"current_range_meters":9600,"station_id":"ce4bh3p2rcd13ifvqdq0","pricing_plan_id":"cebpf4jnsgd1na2vs0mg"},{"bike_id":"27fc61dd-9dfe-4755-a2b3-18153e66e107","system_id":"levelo_inurba_marseille","lat":43.28854,"lon":5.39304,"is_reserved":false,"is_disabled":false,"rental_uris":{"android":"levelo://app?vid=27fc61dd-9dfe-4755-a2b3-18153e66e107","ios":"levelo://app?vid=27fc61dd-9dfe-4755-a2b3-18153e66e107"},"vehicle_type_id":"4","last_reported":1743106225,"current_range_meters":9600,"station_id":"ce4bh2p2rcd13ifvqdi0","pricing_plan_id":"cebpf4jnsgd1na2vs0mg"},{"bike_id":"fc8e8371-f4e9-4721-bc19-563801e389dc","system_id":"levelo_inurba_marseille","lat":43.337444,"lon":5.374475,"is_reserved":false,"is_disabled":false,"rental_uris":{"android":"levelo://app?vid=fc8e8371-f4e9-4721-bc19-563801e389dc","ios":"levelo://app?vid=fc8e8371-f4e9-4721-bc19-563801e389dc"},"vehicle_type_id":"4","last_reported":1743106225,"current_range_meters":9600,"station_id":"","pricing_plan_id":"cebpf4jnsgd1na2vs0mg"},{"bike_id":"410df59e-f8d6-4951-9628-1c269797a121","system_id":"levelo_inurba_marseille","lat":43.27811,"lon":5.4071,"is_reserved":false,"is_disabled":false,"rental_uris":{"android":"levelo://app?vid=410df59e-f8d6-4951-9628-1c269797a121","ios":"levelo://app?vid=410df59e-f8d6-4951-9628-1c269797a121"},"vehicle_type_id":"4","last_reported":1743106225,"current_range_meters":10000,"station_id":"ce4bhnh2rcd13ifvqgtg","pricing_plan_id":"cebpf4jnsgd1na2vs0mg"},{"bike_id":"a9e7b20c-e562-4e3e-9638-d8c61f5ae9ea","system_id":"levelo_inurba_marseille","lat":43.26799,"lon":5.40279,"is_reserved":false,"is_disabled":false,"rental_uris":{"android":"levelo://app?vid=a9e7b20c-e562-4e3e-9638-d8c61f5ae9ea","ios":"levelo://app?vid=a9e7b20c-e562-4e3e-9638-d8c61f5ae9ea"},"vehicle_type_id":"4","last_reported":1743106225,"current_range_meters":10000,"station_id":"ce501612rcd8frsf0b60","pricing_plan_id":"cebpf4jnsgd1na2vs0mg"},{"bike_id":"107c2394-7d63-4ba0-9a5b-757759b8e3ef","system_id":"levelo_inurba_marseille","lat":43.23961,"lon":5.36633,"is_reserved":false,"is_disabled":false,"rental_uris":{"android":"levelo://app?vid=107c2394-7d63-4ba0-9a5b-757759b8e3ef","ios":"levelo://app?vid=107c2394-7d63-4ba0-9a5b-757759b8e3ef"},"vehicle_type_id":"4","last_reported":1743106225,"current_range_meters":10000,"station_id":"ce4bhi12rcd13ifvqfp0","pricing_plan_id":"cebpf4jnsgd1na2vs0mg"},{"bike_id":"200fa9c4-f767-49dd-b4b9-c33e05f2e0ad","system_id":"levelo_inurba_marseille","lat":43.29266,"lon":5.38431,"is_reserved":false,"is_disabled":false,"rental_uris":{"android":"levelo://app?vid=200fa9c4-f767-49dd-b4b9-c33e05f2e0ad","ios":"levelo://app?vid=200fa9c4-f767-49dd-b4b9-c33e05f2e0ad"},"vehicle_type_id":"4","last_reported":1743106225,"current_range_meters":10000,"station_id":"ce4bh692rcd13ifvqea0","pricing_plan_id":"cebpf4jnsgd1na2vs0mg"},{"bike_id":"d46ff930-e785-44f9-bf74-2f9202a8045b","system_id":"levelo_inurba_marseille","lat":43.288574,"lon":5.358624,"is_reserved":false,"is_disabled":false,"rental_uris":{"android":"levelo://app?vid=d46ff930-e785-44f9-bf74-2f9202a8045b","ios":"levelo://app?vid=d46ff930-e785-44f9-bf74-2f9202a8045b"},"vehicle_type_id":"4","last_reported":1743106225,"current_range_meters":10000,"station_id":"ce4bhb12rcd13ifvqel0","pricing_plan_id":"cebpf4jnsgd1na2vs0mg"},{"bike_id":"cb0aa180-a362-447a-a7b9-074e632132b6","system_id":"levelo_inurba_marseille","lat":43.29264,"lon":5.38443,"is_reserved":false,"is_disabled":false,"rental_uris":{"android":"levelo://app?vid=cb0aa180-a362-447a-a7b9-074e632132b6","ios":"levelo://app?vid=cb0aa180-a362-447a-a7b9-074e632132b6"},"vehicle_type_id":"4","last_reported":1743106225,"current_range_meters":10000,"station_id":"ce4bh692rcd13ifvqea0","pricing_plan_id":"cebpf4jnsgd1na2vs0mg"},{"bike_id":"25c93242-72e6-4525-aea7-7d96e2cd1825","system_id":"levelo_inurba_marseille","lat":43.330734,"lon":5.408324,"is_reserved":false,"is_disabled":false,"rental_uris":{"android":"levelo://app?vid=25c93242-72e6-4525-aea7-7d96e2cd1825","ios":"levelo://app?vid=25c93242-72e6-4525-aea7-7d96e2cd1825"},"vehicle_type_id":"4","last_reported":1743106225,"current_range_meters":10000,"station_id":"","pricing_plan_id":"cebpf4jnsgd1na2vs0mg"},{"bike_id":"8ee522f1-3206-4772-b6cf-ea5b8ce9e332","system_id":"levelo_inurba_marseille","lat":43.30328,"lon":5.40429,"is_reserved":false,"is_disabled":false,"rental_uris":{"android":"levelo://app?vid=8ee522f1-3206-4772-b6cf-ea5b8ce9e332","ios":"levelo://app?vid=8ee522f1-3206-4772-b6cf-ea5b8ce9e332"},"vehicle_type_id":"4","last_reported":1743106225,"current_range_meters":10000,"station_id":"ce4bh012rcd13ifvqd10","pricing_plan_id":"cebpf4jnsgd1na2vs0mg"},{"bike_id":"c8afc2e9-af26-45f6-8db3-7f754a39406b","system_id":"levelo_inurba_marseille","lat":43.24994,"lon":5.38931,"is_reserved":false,"is_disabled":false,"rental_uris":{"android":"levelo://app?vid=c8afc2e9-af26-45f6-8db3-7f754a39406b","ios":"levelo://app?vid=c8afc2e9-af26-45f6-8db3-7f754a39406b"},"vehicle_type_id":"4","last_reported":1743106225,"current_range_meters":10000,"station_id":"ce4bhgp2rcd13ifvqfd0","pricing_plan_id":"cebpf4jnsgd1na2vs0mg"},{"bike_id":"1384bdee-c8dc-42c6-90fd-ff498281f811","system_id":"levelo_inurba_marseille","lat":43.2406,"lon":5.3776,"is_reserved":false,"is_disabled":false,"rental_uris":{"android":"levelo://app?vid=1384bdee-c8dc-42c6-90fd-ff498281f811","ios":"levelo://app?vid=1384bdee-c8dc-42c6-90fd-ff498281f811"},"vehicle_type_id":"4","last_reported":1743106225,"current_range_meters":10000,"station_id":"ce4bhnp2rcd13ifvqgvg","pricing_plan_id":"cebpf4jnsgd1na2vs0mg"},{"bike_id":"19221227-42ec-4f4b-8f04-42a0818e22f5","system_id":"levelo_inurba_marseille","lat":43.321072,"lon":5.367749,"is_reserved":false,"is_disabled":false,"rental_uris":{"android":"levelo://app?vid=19221227-42ec-4f4b-8f04-42a0818e22f5","ios":"levelo://app?vid=19221227-42ec-4f4b-8f04-42a0818e22f5"},"vehicle_type_id":"4","last_reported":1743106225,"current_range_meters":10000,"station_id":"ce4bhrh2rcd13ifvqhug","pricing_plan_id":"cebpf4jnsgd1na2vs0mg"},{"bike_id":"b7df044c-a420-415e-b7b7-345aa8eb07fc","system_id":"levelo_inurba_marseille","lat":43.31844,"lon":5.38871,"is_reserved":false,"is_disabled":false,"rental_uris":{"android":"levelo://app?vid=b7df044c-a420-415e-b7b7-345aa8eb07fc","ios":"levelo://app?vid=b7df044c-a420-415e-b7b7-345aa8eb07fc"},"vehicle_type_id":"4","last_reported":1743106225,"current_range_meters":10000,"station_id":"","pricing_plan_id":"cebpf4jnsgd1na2vs0mg"},{"bike_id":"64f0ea86-1180-4755-95e1-3cbc9c8d4cf5","system_id":"levelo_inurba_marseille","lat":43.33011,"lon":5.4387,"is_reserved":false,"is_disabled":true,"rental_uris":{"android":"levelo://app?vid=64f0ea86-1180-4755-95e1-3cbc9c8d4cf5","ios":"levelo://app?vid=64f0ea86-1180-4755-95e1-3cbc9c8d4cf5"},"vehicle_type_id":"4","last_reported":1743106225,"current_range_meters":10000,"station_id":"","pricing_plan_id":"cebpf4jnsgd1na2vs0mg"},{"bike_id":"f319e8e1-c65a-4a8f-97d4-65b490a2f84e","system_id":"levelo_inurba_marseille","lat":43.29099,"lon":5.38131,"is_reserved":false,"is_disabled":false,"rental_uris":{"android":"levelo://app?vid=f319e8e1-c65a-4a8f-97d4-65b490a2f84e","ios":"levelo://app?vid=f319e8e1-c65a-4a8f-97d4-65b490a2f84e"},"vehicle_type_id":"4","last_reported":1743106225,"current_range_meters":10000,"station_id":"ce4bh512rcd13ifvqe2g","pricing_plan_id":"cebpf4jnsgd1na2vs0mg"},{"bike_id":"bfa018d7-4766-430e-8a9d-9b17e9a65a71","system_id":"levelo_inurba_marseille","lat":43.2509,"lon":5.39514,"is_reserved":false,"is_disabled":false,"rental_uris":{"android":"levelo://app?vid=bfa018d7-4766-430e-8a9d-9b17e9a65a71","ios":"levelo://app?vid=bfa018d7-4766-430e-8a9d-9b17e9a65a71"},"vehicle_type_id":"4","last_reported":1743106225,"current_range_meters":10000,"station_id":"ce4bhm12rcd13ifvqgkg","pricing_plan_id":"cebpf4jnsgd1na2vs0mg"},{"bike_id":"f00e0bf1-e77c-4752-8f1b-63a2e565cf51","system_id":"levelo_inurba_marseille","lat":43.27973,"lon":5.38741,"is_reserved":false,"is_disabled":true,"rental_uris":{"android":"levelo://app?vid=f00e0bf1-e77c-4752-8f1b-63a2e565cf51","ios":"levelo://app?vid=f00e0bf1-e77c-4752-8f1b-63a2e565cf51"},"vehicle_type_id":"4","last_reported":1743106225,"current_range_meters":10800,"station_id":"ce4bhg12rcd13ifvqf80","pricing_plan_id":"cebpf4jnsgd1na2vs0mg"},{"bike_id":"b6277294-9c97-4bd2-bb72-519bd900d431","system_id":"levelo_inurba_marseille","lat":43.29301,"lon":5.37466,"is_reserved":false,"is_disabled":true,"rental_uris":{"android":"levelo://app?vid=b6277294-9c97-4bd2-bb72-519bd900d431","ios":"levelo://app?vid=b6277294-9c97-4bd2-bb72-519bd900d431"},"vehicle_type_id":"4","last_reported":1743106225,"current_range_meters":10800,"station_id":"ce4bgi12rcd13ifvqb70","pricing_plan_id":"cebpf4jnsgd1na2vs0mg"},{"bike_id":"44eeac64-3243-4afc-b41d-39193a24683e","system_id":"levelo_inurba_marseille","lat":43.28718,"lon":5.37942,"is_reserved":false,"is_disabled":false,"rental_uris":{"android":"levelo://app?vid=44eeac64-3243-4afc-b41d-39193a24683e","ios":"levelo://app?vid=44eeac64-3243-4afc-b41d-39193a24683e"},"vehicle_type_id":"4","last_reported":1743106225,"current_range_meters":10800,"station_id":"ce4bh9p2rcd13ifvqec0","pricing_plan_id":"cebpf4jnsgd1na2vs0mg"},{"bike_id":"a2662dca-219c-4b23-8bc1-1091d80c7cf5","system_id":"levelo_inurba_marseille","lat":43.24543,"lon":5.39526,"is_reserved":false,"is_disabled":false,"rental_uris":{"android":"levelo://app?vid=a2662dca-219c-4b23-8bc1-1091d80c7cf5","ios":"levelo://app?vid=a2662dca-219c-4b23-8bc1-1091d80c7cf5"},"vehicle_type_id":"4","last_reported":1743106225,"current_range_meters":10800,"station_id":"ce4bhlp2rcd13ifvqgjg","pricing_plan_id":"cebpf4jnsgd1na2vs0mg"},{"bike_id":"59ebb1d1-a5b0-4ef8-97d8-ac0c8af5a8c5","system_id":"levelo_inurba_marseille","lat":43.231556,"lon":5.437063,"is_reserved":false,"is_disabled":false,"rental_uris":{"android":"levelo://app?vid=59ebb1d1-a5b0-4ef8-97d8-ac0c8af5a8c5","ios":"levelo://app?vid=59ebb1d1-a5b0-4ef8-97d8-ac0c8af5a8c5"},"vehicle_type_id":"4","last_reported":1743106225,"current_range_meters":10800,"station_id":"ce4bhkp2rcd13ifvqgd0","pricing_plan_id":"cebpf4jnsgd1na2vs0mg"},{"bike_id":"24587414-cbde-4e98-b525-208cb249b06c","system_id":"levelo_inurba_marseille","lat":43.28065,"lon":5.39639,"is_reserved":false,"is_disabled":false,"rental_uris":{"android":"levelo://app?vid=24587414-cbde-4e98-b525-208cb249b06c","ios":"levelo://app?vid=24587414-cbde-4e98-b525-208cb249b06c"},"vehicle_type_id":"4","last_reported":1743106225,"current_range_meters":10800,"station_id":"ce4bho12rcd13ifvqh2g","pricing_plan_id":"cebpf4jnsgd1na2vs0mg"},{"bike_id":"8bd09c01-b502-40f2-b040-4542472dec65","system_id":"levelo_inurba_marseille","lat":43.33018,"lon":5.39024,"is_reserved":false,"is_disabled":false,"rental_uris":{"android":"levelo://app?vid=8bd09c01-b502-40f2-b040-4542472dec65","ios":"levelo://app?vid=8bd09c01-b502-40f2-b040-4542472dec65"},"vehicle_type_id":"4","last_reported":1743106225,"current_range_meters":10800,"station_id":"ce4bhr92rcd13ifvqhrg","pricing_plan_id":"cebpf4jnsgd1na2vs0mg"},{"bike_id":"5344531c-d52c-4b2a-b69c-a50e5172a9ed","system_id":"levelo_inurba_marseille","lat":43.29271,"lon":5.38453,"is_reserved":false,"is_disabled":false,"rental_uris":{"android":"levelo://app?vid=5344531c-d52c-4b2a-b69c-a50e5172a9ed","ios":"levelo://app?vid=5344531c-d52c-4b2a-b69c-a50e5172a9ed"},"vehicle_type_id":"4","last_reported":1743106225,"current_range_meters":10800,"station_id":"ce4bh692rcd13ifvqea0","pricing_plan_id":"cebpf4jnsgd1na2vs0mg"},{"bike_id":"775cff65-b5c1-4100-a6b4-04fd6e01f679","system_id":"levelo_inurba_marseille","lat":43.29799,"lon":5.38104,"is_reserved":false,"is_disabled":false,"rental_uris":{"android":"levelo://app?vid=775cff65-b5c1-4100-a6b4-04fd6e01f679","ios":"levelo://app?vid=775cff65-b5c1-4100-a6b4-04fd6e01f679"},"vehicle_type_id":"4","last_reported":1743106225,"current_range_meters":10800,"station_id":"ce4bgip2rcd13ifvqbb0","pricing_plan_id":"cebpf4jnsgd1na2vs0mg"},{"bike_id":"5d601291-20bf-4f2d-b9a8-f968bc04b9fb","system_id":"levelo_inurba_marseille","lat":43.29277,"lon":5.38439,"is_reserved":false,"is_disabled":false,"rental_uris":{"android":"levelo://app?vid=5d601291-20bf-4f2d-b9a8-f968bc04b9fb","ios":"levelo://app?vid=5d601291-20bf-4f2d-b9a8-f968bc04b9fb"},"vehicle_type_id":"4","last_reported":1743106225,"current_range_meters":11200,"station_id":"ce4bh692rcd13ifvqea0","pricing_plan_id":"cebpf4jnsgd1na2vs0mg"},{"bike_id":"cc9e7bef-41a8-4bcb-9ba5-ca6f13310dac","system_id":"levelo_inurba_marseille","lat":43.29063,"lon":5.38633,"is_reserved":false,"is_disabled":false,"rental_uris":{"android":"levelo://app?vid=cc9e7bef-41a8-4bcb-9ba5-ca6f13310dac","ios":"levelo://app?vid=cc9e7bef-41a8-4bcb-9ba5-ca6f13310dac"},"vehicle_type_id":"4","last_reported":1743106225,"current_range_meters":11200,"station_id":"ce4bh4p2rcd13ifvqe0g","pricing_plan_id":"cebpf4jnsgd1na2vs0mg"},{"bike_id":"b08ed04e-40da-427c-b4e2-eef08a918f0a","system_id":"levelo_inurba_marseille","lat":43.2911,"lon":5.3814,"is_reserved":false,"is_disabled":false,"rental_uris":{"android":"levelo://app?vid=b08ed04e-40da-427c-b4e2-eef08a918f0a","ios":"levelo://app?vid=b08ed04e-40da-427c-b4e2-eef08a918f0a"},"vehicle_type_id":"4","last_reported":1743106225,"current_range_meters":11200,"station_id":"ce4bh512rcd13ifvqe2g","pricing_plan_id":"cebpf4jnsgd1na2vs0mg"},{"bike_id":"5a7f605c-2a74-4026-82f7-f55a72384599","system_id":"levelo_inurba_marseille","lat":43.28723,"lon":5.36081,"is_reserved":false,"is_disabled":false,"rental_uris":{"android":"levelo://app?vid=5a7f605c-2a74-4026-82f7-f55a72384599","ios":"levelo://app?vid=5a7f605c-2a74-4026-82f7-f55a72384599"},"vehicle_type_id":"4","last_reported":1743106225,"current_range_meters":11200,"station_id":"cki0cbj6b192h4jlfktg","pricing_plan_id":"cebpf4jnsgd1na2vs0mg"},{"bike_id":"e065cf8c-e3cf-40a6-bfcb-0d222575dd7c","system_id":"levelo_inurba_marseille","lat":43.29262,"lon":5.38436,"is_reserved":false,"is_disabled":false,"rental_uris":{"android":"levelo://app?vid=e065cf8c-e3cf-40a6-bfcb-0d222575dd7c","ios":"levelo://app?vid=e065cf8c-e3cf-40a6-bfcb-0d222575dd7c"},"vehicle_type_id":"4","last_reported":1743106225,"current_range_meters":11200,"station_id":"ce4bh692rcd13ifvqea0","pricing_plan_id":"cebpf4jnsgd1na2vs0mg"},{"bike_id":"4598f9e4-d3e7-4a94-b981-9e43488efd3f","system_id":"levelo_inurba_marseille","lat":43.298,"lon":5.37109,"is_reserved":false,"is_disabled":false,"rental_uris":{"android":"levelo://app?vid=4598f9e4-d3e7-4a94-b981-9e43488efd3f","ios":"levelo://app?vid=4598f9e4-d3e7-4a94-b981-9e43488efd3f"},"vehicle_type_id":"4","last_reported":1743106225,"current_range_meters":11200,"station_id":"ce4bgop2rcd13ifvqc1g","pricing_plan_id":"cebpf4jnsgd1na2vs0mg"},{"bike_id":"a06a5e87-6b12-4d24-922c-5af271a9d84a","system_id":"levelo_inurba_marseille","lat":43.29602,"lon":5.38105,"is_reserved":false,"is_disabled":false,"rental_uris":{"android":"levelo://app?vid=a06a5e87-6b12-4d24-922c-5af271a9d84a","ios":"levelo://app?vid=a06a5e87-6b12-4d24-922c-5af271a9d84a"},"vehicle_type_id":"4","last_reported":1743106225,"current_range_meters":11200,"station_id":"","pricing_plan_id":"cebpf4jnsgd1na2vs0mg"},{"bike_id":"4605e24d-65b2-4424-9d4d-b88f889f4b8e","system_id":"levelo_inurba_marseille","lat":43.28123,"lon":5.39865,"is_reserved":false,"is_disabled":false,"rental_uris":{"android":"levelo://app?vid=4605e24d-65b2-4424-9d4d-b88f889f4b8e","ios":"levelo://app?vid=4605e24d-65b2-4424-9d4d-b88f889f4b8e"},"vehicle_type_id":"4","last_reported":1743106225,"current_range_meters":11200,"station_id":"","pricing_plan_id":"cebpf4jnsgd1na2vs0mg"},{"bike_id":"43f25755-0d6c-4dfa-b9bb-608d2e94995b","system_id":"levelo_inurba_marseille","lat":43.30255,"lon":5.40084,"is_reserved":false,"is_disabled":false,"rental_uris":{"android":"levelo://app?vid=43f25755-0d6c-4dfa-b9bb-608d2e94995b","ios":"levelo://app?vid=43f25755-0d6c-4dfa-b9bb-608d2e94995b"},"vehicle_type_id":"4","last_reported":1743106225,"current_range_meters":11600,"station_id":"ce4bgvh2rcd13ifvqcs0","pricing_plan_id":"cebpf4jnsgd1na2vs0mg"},{"bike_id":"cfed900d-e17f-46a7-9847-c8d921508ac3","system_id":"levelo_inurba_marseille","lat":43.23968,"lon":5.3665,"is_reserved":false,"is_disabled":false,"rental_uris":{"android":"levelo://app?vid=cfed900d-e17f-46a7-9847-c8d921508ac3","ios":"levelo://app?vid=cfed900d-e17f-46a7-9847-c8d921508ac3"},"vehicle_type_id":"4","last_reported":1743106225,"current_range_meters":11600,"station_id":"ce4bhi12rcd13ifvqfp0","pricing_plan_id":"cebpf4jnsgd1na2vs0mg"},{"bike_id":"bc3f138a-3af0-4b4e-9b07-2d2a8e540795","system_id":"levelo_inurba_marseille","lat":43.26479,"lon":5.39561,"is_reserved":false,"is_disabled":true,"rental_uris":{"android":"levelo://app?vid=bc3f138a-3af0-4b4e-9b07-2d2a8e540795","ios":"levelo://app?vid=bc3f138a-3af0-4b4e-9b07-2d2a8e540795"},"vehicle_type_id":"4","last_reported":1743106225,"current_range_meters":11600,"station_id":"ce4bhi12rcd13ifvqfq0","pricing_plan_id":"cebpf4jnsgd1na2vs0mg"},{"bike_id":"1f5ccd67-bf70-48cf-bfa9-02349401bc43","system_id":"levelo_inurba_marseille","lat":43.28406,"lon":5.3752,"is_reserved":false,"is_disabled":false,"rental_uris":{"android":"levelo://app?vid=1f5ccd67-bf70-48cf-bfa9-02349401bc43","ios":"levelo://app?vid=1f5ccd67-bf70-48cf-bfa9-02349401bc43"},"vehicle_type_id":"4","last_reported":1743106225,"current_range_meters":11600,"station_id":"ce4bh412rcd13ifvqds0","pricing_plan_id":"cebpf4jnsgd1na2vs0mg"},{"bike_id":"010237f1-daa2-4480-948f-aadecd5939a8","system_id":"levelo_inurba_marseille","lat":43.29189,"lon":5.39308,"is_reserved":false,"is_disabled":false,"rental_uris":{"android":"levelo://app?vid=010237f1-daa2-4480-948f-aadecd5939a8","ios":"levelo://app?vid=010237f1-daa2-4480-948f-aadecd5939a8"},"vehicle_type_id":"4","last_reported":1743106225,"current_range_meters":11600,"station_id":"ce4bh192rcd13ifvqdd0","pricing_plan_id":"cebpf4jnsgd1na2vs0mg"},{"bike_id":"9e98b520-b035-40ae-bd34-60f1b515d6fc","system_id":"levelo_inurba_marseille","lat":43.29195,"lon":5.39319,"is_reserved":false,"is_disabled":false,"rental_uris":{"android":"levelo://app?vid=9e98b520-b035-40ae-bd34-60f1b515d6fc","ios":"levelo://app?vid=9e98b520-b035-40ae-bd34-60f1b515d6fc"},"vehicle_type_id":"4","last_reported":1743106225,"current_range_meters":11600,"station_id":"ce4bh192rcd13ifvqdd0","pricing_plan_id":"cebpf4jnsgd1na2vs0mg"},{"bike_id":"e39f0277-8842-447f-8838-fb2880aa78ea","system_id":"levelo_inurba_marseille","lat":43.28938,"lon":5.36659,"is_reserved":false,"is_disabled":false,"rental_uris":{"android":"levelo://app?vid=e39f0277-8842-447f-8838-fb2880aa78ea","ios":"levelo://app?vid=e39f0277-8842-447f-8838-fb2880aa78ea"},"vehicle_type_id":"4","last_reported":1743106225,"current_range_meters":11600,"station_id":"ce4bhap2rcd13ifvqek0","pricing_plan_id":"cebpf4jnsgd1na2vs0mg"},{"bike_id":"d75f9f5e-4772-4de2-8f78-058b650907ab","system_id":"levelo_inurba_marseille","lat":43.24164,"lon":5.364,"is_reserved":false,"is_disabled":false,"rental_uris":{"android":"levelo://app?vid=d75f9f5e-4772-4de2-8f78-058b650907ab","ios":"levelo://app?vid=d75f9f5e-4772-4de2-8f78-058b650907ab"},"vehicle_type_id":"4","last_reported":1743106225,"current_range_meters":11600,"station_id":"cpo36qri1sfpv3e86is0","pricing_plan_id":"cebpf4jnsgd1na2vs0mg"},{"bike_id":"3fc953c8-b6b8-4a3d-a9f6-36b0dc80e2cc","system_id":"levelo_inurba_marseille","lat":43.29791,"lon":5.37101,"is_reserved":false,"is_disabled":false,"rental_uris":{"android":"levelo://app?vid=3fc953c8-b6b8-4a3d-a9f6-36b0dc80e2cc","ios":"levelo://app?vid=3fc953c8-b6b8-4a3d-a9f6-36b0dc80e2cc"},"vehicle_type_id":"4","last_reported":1743106225,"current_range_meters":11600,"station_id":"ce4bgop2rcd13ifvqc1g","pricing_plan_id":"cebpf4jnsgd1na2vs0mg"},{"bike_id":"254dd289-f60c-4bed-a17b-459738a20225","system_id":"levelo_inurba_marseille","lat":43.31087,"lon":5.38356,"is_reserved":false,"is_disabled":false,"rental_uris":{"android":"levelo://app?vid=254dd289-f60c-4bed-a17b-459738a20225","ios":"levelo://app?vid=254dd289-f60c-4bed-a17b-459738a20225"},"vehicle_type_id":"4","last_reported":1743106225,"current_range_meters":11600,"station_id":"ce4bgv92rcd13ifvqcr0","pricing_plan_id":"cebpf4jnsgd1na2vs0mg"},{"bike_id":"7d8f7c78-ba7e-4388-8da7-72134e2a3625","system_id":"levelo_inurba_marseille","lat":43.28358,"lon":5.38114,"is_reserved":false,"is_disabled":false,"rental_uris":{"android":"levelo://app?vid=7d8f7c78-ba7e-4388-8da7-72134e2a3625","ios":"levelo://app?vid=7d8f7c78-ba7e-4388-8da7-72134e2a3625"},"vehicle_type_id":"4","last_reported":1743106225,"current_range_meters":12000,"station_id":"ce4bh412rcd13ifvqdr0","pricing_plan_id":"cebpf4jnsgd1na2vs0mg"},{"bike_id":"f42a39e5-ae96-4d2b-a76a-9df5ef12b27e","system_id":"levelo_inurba_marseille","lat":43.24072,"lon":5.3776,"is_reserved":false,"is_disabled":false,"rental_uris":{"android":"levelo://app?vid=f42a39e5-ae96-4d2b-a76a-9df5ef12b27e","ios":"levelo://app?vid=f42a39e5-ae96-4d2b-a76a-9df5ef12b27e"},"vehicle_type_id":"4","last_reported":1743106225,"current_range_meters":12000,"station_id":"ce4bhnp2rcd13ifvqgvg","pricing_plan_id":"cebpf4jnsgd1na2vs0mg"},{"bike_id":"34d07891-8c02-4c2b-a31e-e054161d5fa3","system_id":"levelo_inurba_marseille","lat":43.28408,"lon":5.37523,"is_reserved":false,"is_disabled":false,"rental_uris":{"android":"levelo://app?vid=34d07891-8c02-4c2b-a31e-e054161d5fa3","ios":"levelo://app?vid=34d07891-8c02-4c2b-a31e-e054161d5fa3"},"vehicle_type_id":"4","last_reported":1743106225,"current_range_meters":12000,"station_id":"ce4bh412rcd13ifvqds0","pricing_plan_id":"cebpf4jnsgd1na2vs0mg"},{"bike_id":"6a445437-040d-40e9-8502-6b7f2071b06a","system_id":"levelo_inurba_marseille","lat":43.3168,"lon":5.38948,"is_reserved":false,"is_disabled":false,"rental_uris":{"android":"levelo://app?vid=6a445437-040d-40e9-8502-6b7f2071b06a","ios":"levelo://app?vid=6a445437-040d-40e9-8502-6b7f2071b06a"},"vehicle_type_id":"4","last_reported":1743106225,"current_range_meters":12400,"station_id":"","pricing_plan_id":"cebpf4jnsgd1na2vs0mg"},{"bike_id":"c11a4eb9-648f-4fa7-aefc-e342d02ebe0d","system_id":"levelo_inurba_marseille","lat":43.28729,"lon":5.36075,"is_reserved":false,"is_disabled":false,"rental_uris":{"android":"levelo://app?vid=c11a4eb9-648f-4fa7-aefc-e342d02ebe0d","ios":"levelo://app?vid=c11a4eb9-648f-4fa7-aefc-e342d02ebe0d"},"vehicle_type_id":"4","last_reported":1743106225,"current_range_meters":12400,"station_id":"cki0cbj6b192h4jlfktg","pricing_plan_id":"cebpf4jnsgd1na2vs0mg"},{"bike_id":"4a42ca1e-41e4-4233-a4bb-a180f04564d6","system_id":"levelo_inurba_marseille","lat":43.2917,"lon":5.3715,"is_reserved":false,"is_disabled":true,"rental_uris":{"android":"levelo://app?vid=4a42ca1e-41e4-4233-a4bb-a180f04564d6","ios":"levelo://app?vid=4a42ca1e-41e4-4233-a4bb-a180f04564d6"},"vehicle_type_id":"4","last_reported":1743106225,"current_range_meters":12400,"station_id":"ce4bha92rcd13ifvqeh0","pricing_plan_id":"cebpf4jnsgd1na2vs0mg"},{"bike_id":"9f315d73-ec20-4c4b-86c6-602daba06c1b","system_id":"levelo_inurba_marseille","lat":43.29413,"lon":5.38629,"is_reserved":false,"is_disabled":false,"rental_uris":{"android":"levelo://app?vid=9f315d73-ec20-4c4b-86c6-602daba06c1b","ios":"levelo://app?vid=9f315d73-ec20-4c4b-86c6-602daba06c1b"},"vehicle_type_id":"4","last_reported":1743106225,"current_range_meters":12400,"station_id":"ce4bh2h2rcd13ifvqdh0","pricing_plan_id":"cebpf4jnsgd1na2vs0mg"},{"bike_id":"2e919ca5-ce98-4c47-a9d7-66e6ab7584e4","system_id":"levelo_inurba_marseille","lat":43.32103,"lon":5.36789,"is_reserved":false,"is_disabled":false,"rental_uris":{"android":"levelo://app?vid=2e919ca5-ce98-4c47-a9d7-66e6ab7584e4","ios":"levelo://app?vid=2e919ca5-ce98-4c47-a9d7-66e6ab7584e4"},"vehicle_type_id":"4","last_reported":1743106225,"current_range_meters":12400,"station_id":"ce4bhrh2rcd13ifvqhug","pricing_plan_id":"cebpf4jnsgd1na2vs0mg"},{"bike_id":"e8d201f1-9aa9-4ae6-a427-58a645e166df","system_id":"levelo_inurba_marseille","lat":43.2989,"lon":5.39739,"is_reserved":false,"is_disabled":false,"rental_uris":{"android":"levelo://app?vid=e8d201f1-9aa9-4ae6-a427-58a645e166df","ios":"levelo://app?vid=e8d201f1-9aa9-4ae6-a427-58a645e166df"},"vehicle_type_id":"4","last_reported":1743106225,"current_range_meters":12400,"station_id":"ce4bh0h2rcd13ifvqd50","pricing_plan_id":"cebpf4jnsgd1na2vs0mg"},{"bike_id":"40a01e84-ca3c-4fe0-8042-9fbd669c1a71","system_id":"levelo_inurba_marseille","lat":43.29269,"lon":5.38439,"is_reserved":false,"is_disabled":false,"rental_uris":{"android":"levelo://app?vid=40a01e84-ca3c-4fe0-8042-9fbd669c1a71","ios":"levelo://app?vid=40a01e84-ca3c-4fe0-8042-9fbd669c1a71"},"vehicle_type_id":"4","last_reported":1743106225,"current_range_meters":12400,"station_id":"ce4bh692rcd13ifvqea0","pricing_plan_id":"cebpf4jnsgd1na2vs0mg"},{"bike_id":"1c14bf9c-ada4-4a36-8853-740a1a2c000a","system_id":"levelo_inurba_marseille","lat":43.23195,"lon":5.35551,"is_reserved":false,"is_disabled":false,"rental_uris":{"android":"levelo://app?vid=1c14bf9c-ada4-4a36-8853-740a1a2c000a","ios":"levelo://app?vid=1c14bf9c-ada4-4a36-8853-740a1a2c000a"},"vehicle_type_id":"4","last_reported":1743106225,"current_range_meters":12400,"station_id":"ce4bhu92rcd13ifvqi70","pricing_plan_id":"cebpf4jnsgd1na2vs0mg"},